{"last_updated":1771215194,"ttl":60,"version":"2.2","data":{"bikes":[{"bike_id":"cc9d49a9-78fd-4f5f-9bf8-78f75fe0124f","system_id":"levelo_inurba_marseille","lat":43.24635,"lon":5.38891,"is_reserved":false,"is_disabled":false,"rental_uris":{"android":"levelo://app?vid=cc9d49a9-78fd-4f5f-9bf8-78f75fe0124f","ios":"levelo://app?vid=cc9d49a9-78fd-4f5f-9bf8-78f75fe0124f"},"vehicle_type_id":"4","last_reported":1771215194,"current_range_meters":10000,"station_id":"ce4bhg12rcd13ifvqf60","pricing_plan_id":"cebpf4jnsgd1na2vs0mg"},{"bike_id":"5b117328-0b0e-49a5-8c93-2f707e332119","system_id":"levelo_inurba_marseille","lat":43.276244,"lon":5.360993,"is_reserved":false,"is_disabled":false,"rental_uris":{"android":"levelo://app?vid=5b117328-0b0e-49a5-8c93-2f707e332119","ios":"levelo://app?vid=5b117328-0b0e-49a5-8c93-2f707e332119"},"vehicle_type_id":"4","last_reported":1771215194,"current_range_meters":39200,"station_id":"ce4bgj92rcd13ifvqbe0","pricing_plan_id":"cebpf4jnsgd1na2vs0mg"},{"bike_id":"e5f2d884-58da-484f-b6c0-50fc04c712cf","system_id":"levelo_inurba_marseille","lat":43.33024,"lon":5.39041,"is_reserved":false,"is_disabled":false,"rental_uris":{"android":"levelo://app?vid=e5f2d884-58da-484f-b6c0-50fc04c712cf","ios":"levelo://app?vid=e5f2d884-58da-484f-b6c0-50fc04c712cf"},"vehicle_type_id":"4","last_reported":1771215194,"current_range_meters":24400,"station_id":"ce4bhr92rcd13ifvqhrg","pricing_plan_id":"cebpf4jnsgd1na2vs0mg"},{"bike_id":"711b2b7d-fab9-4829-bcef-678cd816d326","system_id":"levelo_inurba_marseille","lat":43.32997,"lon":5.39022,"is_reserved":false,"is_disabled":false,"rental_uris":{"android":"levelo://app?vid=711b2b7d-fab9-4829-bcef-678cd816d326","ios":"levelo://app?vid=711b2b7d-fab9-4829-bcef-678cd816d326"},"vehicle_type_id":"4","last_reported":1771215194,"current_range_meters":38400,"station_id":"ce4bhr92rcd13ifvqhrg","pricing_plan_id":"cebpf4jnsgd1na2vs0mg"},{"bike_id":"08d07d0e-dcac-4228-bab0-2d6292ee03a2","system_id":"levelo_inurba_marseille","lat":43.337444,"lon":5.374475,"is_reserved":false,"is_disabled":false,"rental_uris":{"android":"levelo://app?vid=08d07d0e-dcac-4228-bab0-2d6292ee03a2","ios":"levelo://app?vid=08d07d0e-dcac-4228-bab0-2d6292ee03a2"},"vehicle_type_id":"4","last_reported":1771215194,"current_range_meters":16800,"station_id":"","pricing_plan_id":"cebpf4jnsgd1na2vs0mg"},{"bike_id":"e3ef6110-5ed6-4c4c-9b9d-ec9f17fa793c","system_id":"levelo_inurba_marseille","lat":43.33014,"lon":5.39028,"is_reserved":false,"is_disabled":false,"rental_uris":{"android":"levelo://app?vid=e3ef6110-5ed6-4c4c-9b9d-ec9f17fa793c","ios":"levelo://app?vid=e3ef6110-5ed6-4c4c-9b9d-ec9f17fa793c"},"vehicle_type_id":"4","last_reported":1771215194,"current_range_meters":36800,"station_id":"ce4bhr92rcd13ifvqhrg","pricing_plan_id":"cebpf4jnsgd1na2vs0mg"},{"bike_id":"1d0698c9-7e87-4913-bbb7-3d58cc63ff2c","system_id":"levelo_inurba_marseille","lat":43.330261,"lon":5.390384,"is_reserved":false,"is_disabled":false,"rental_uris":{"android":"levelo://app?vid=1d0698c9-7e87-4913-bbb7-3d58cc63ff2c","ios":"levelo://app?vid=1d0698c9-7e87-4913-bbb7-3d58cc63ff2c"},"vehicle_type_id":"4","last_reported":1771215194,"current_range_meters":39200,"station_id":"ce4bhr92rcd13ifvqhrg","pricing_plan_id":"cebpf4jnsgd1na2vs0mg"},{"bike_id":"e554215b-592c-4bb9-b7bb-c1fa6fd966a3","system_id":"levelo_inurba_marseille","lat":43.33044,"lon":5.39034,"is_reserved":false,"is_disabled":false,"rental_uris":{"android":"levelo://app?vid=e554215b-592c-4bb9-b7bb-c1fa6fd966a3","ios":"levelo://app?vid=e554215b-592c-4bb9-b7bb-c1fa6fd966a3"},"vehicle_type_id":"4","last_reported":1771215194,"current_range_meters":38400,"station_id":"ce4bhr92rcd13ifvqhrg","pricing_plan_id":"cebpf4jnsgd1na2vs0mg"},{"bike_id":"db26ee88-4c19-447a-9361-d92937f660b3","system_id":"levelo_inurba_marseille","lat":43.33019,"lon":5.39025,"is_reserved":false,"is_disabled":false,"rental_uris":{"android":"levelo://app?vid=db26ee88-4c19-447a-9361-d92937f660b3","ios":"levelo://app?vid=db26ee88-4c19-447a-9361-d92937f660b3"},"vehicle_type_id":"4","last_reported":1771215194,"current_range_meters":38400,"station_id":"ce4bhr92rcd13ifvqhrg","pricing_plan_id":"cebpf4jnsgd1na2vs0mg"},{"bike_id":"1e3a029b-1a8c-4c0e-b927-550558a3af66","system_id":"levelo_inurba_marseille","lat":43.33017,"lon":5.39036,"is_reserved":false,"is_disabled":false,"rental_uris":{"android":"levelo://app?vid=1e3a029b-1a8c-4c0e-b927-550558a3af66","ios":"levelo://app?vid=1e3a029b-1a8c-4c0e-b927-550558a3af66"},"vehicle_type_id":"4","last_reported":1771215194,"current_range_meters":38400,"station_id":"ce4bhr92rcd13ifvqhrg","pricing_plan_id":"cebpf4jnsgd1na2vs0mg"},{"bike_id":"76132435-5045-4bd2-a5fb-d0563882e711","system_id":"levelo_inurba_marseille","lat":43.3237,"lon":5.38878,"is_reserved":false,"is_disabled":false,"rental_uris":{"android":"levelo://app?vid=76132435-5045-4bd2-a5fb-d0563882e711","ios":"levelo://app?vid=76132435-5045-4bd2-a5fb-d0563882e711"},"vehicle_type_id":"4","last_reported":1771215194,"current_range_meters":39200,"station_id":"ce4bhqp2rcd13ifvqhog","pricing_plan_id":"cebpf4jnsgd1na2vs0mg"},{"bike_id":"26af893d-6221-4514-8a3f-e477f74a29dc","system_id":"levelo_inurba_marseille","lat":43.330269,"lon":5.390306,"is_reserved":false,"is_disabled":false,"rental_uris":{"android":"levelo://app?vid=26af893d-6221-4514-8a3f-e477f74a29dc","ios":"levelo://app?vid=26af893d-6221-4514-8a3f-e477f74a29dc"},"vehicle_type_id":"4","last_reported":1771215194,"current_range_meters":37600,"station_id":"ce4bhr92rcd13ifvqhrg","pricing_plan_id":"cebpf4jnsgd1na2vs0mg"},{"bike_id":"5afe8bb9-d99d-4a7d-8243-4c7dccd30ba2","system_id":"levelo_inurba_marseille","lat":43.32374,"lon":5.38893,"is_reserved":false,"is_disabled":false,"rental_uris":{"android":"levelo://app?vid=5afe8bb9-d99d-4a7d-8243-4c7dccd30ba2","ios":"levelo://app?vid=5afe8bb9-d99d-4a7d-8243-4c7dccd30ba2"},"vehicle_type_id":"4","last_reported":1771215194,"current_range_meters":39200,"station_id":"ce4bhqp2rcd13ifvqhog","pricing_plan_id":"cebpf4jnsgd1na2vs0mg"},{"bike_id":"a898ff9b-e824-4951-a7b4-ac25a28879e6","system_id":"levelo_inurba_marseille","lat":43.323642,"lon":5.388796,"is_reserved":false,"is_disabled":false,"rental_uris":{"android":"levelo://app?vid=a898ff9b-e824-4951-a7b4-ac25a28879e6","ios":"levelo://app?vid=a898ff9b-e824-4951-a7b4-ac25a28879e6"},"vehicle_type_id":"4","last_reported":1771215194,"current_range_meters":39200,"station_id":"ce4bhqp2rcd13ifvqhog","pricing_plan_id":"cebpf4jnsgd1na2vs0mg"},{"bike_id":"cc578514-e3e9-4260-8002-c4dfdc6d8598","system_id":"levelo_inurba_marseille","lat":43.287241,"lon":5.360784,"is_reserved":false,"is_disabled":true,"rental_uris":{"android":"levelo://app?vid=cc578514-e3e9-4260-8002-c4dfdc6d8598","ios":"levelo://app?vid=cc578514-e3e9-4260-8002-c4dfdc6d8598"},"vehicle_type_id":"4","last_reported":1771215194,"current_range_meters":7200,"station_id":"cki0cbj6b192h4jlfktg","pricing_plan_id":"cebpf4jnsgd1na2vs0mg"},{"bike_id":"d7118046-cefa-4587-89ed-6c45cd917a4f","system_id":"levelo_inurba_marseille","lat":43.23954,"lon":5.36626,"is_reserved":false,"is_disabled":false,"rental_uris":{"android":"levelo://app?vid=d7118046-cefa-4587-89ed-6c45cd917a4f","ios":"levelo://app?vid=d7118046-cefa-4587-89ed-6c45cd917a4f"},"vehicle_type_id":"4","last_reported":1771215194,"current_range_meters":21600,"station_id":"ce4bhi12rcd13ifvqfp0","pricing_plan_id":"cebpf4jnsgd1na2vs0mg"},{"bike_id":"a9d431d1-e711-4d9a-afbb-99d86ba0ae5b","system_id":"levelo_inurba_marseille","lat":43.305288,"lon":5.36699,"is_reserved":false,"is_disabled":false,"rental_uris":{"android":"levelo://app?vid=a9d431d1-e711-4d9a-afbb-99d86ba0ae5b","ios":"levelo://app?vid=a9d431d1-e711-4d9a-afbb-99d86ba0ae5b"},"vehicle_type_id":"4","last_reported":1771215194,"current_range_meters":39200,"station_id":"ce4bgrp2rcd13ifvqc9g","pricing_plan_id":"cebpf4jnsgd1na2vs0mg"},{"bike_id":"da741c06-35ce-436f-a47f-9d88cf45600f","system_id":"levelo_inurba_marseille","lat":43.289365,"lon":5.396386,"is_reserved":false,"is_disabled":true,"rental_uris":{"android":"levelo://app?vid=da741c06-35ce-436f-a47f-9d88cf45600f","ios":"levelo://app?vid=da741c06-35ce-436f-a47f-9d88cf45600f"},"vehicle_type_id":"4","last_reported":1771215194,"current_range_meters":17600,"station_id":"ce4bh3h2rcd13ifvqdn0","pricing_plan_id":"cebpf4jnsgd1na2vs0mg"},{"bike_id":"6e07964d-6fe0-4880-a3fa-e2373dfa83a6","system_id":"levelo_inurba_marseille","lat":43.33163,"lon":5.37686,"is_reserved":false,"is_disabled":false,"rental_uris":{"android":"levelo://app?vid=6e07964d-6fe0-4880-a3fa-e2373dfa83a6","ios":"levelo://app?vid=6e07964d-6fe0-4880-a3fa-e2373dfa83a6"},"vehicle_type_id":"4","last_reported":1771215194,"current_range_meters":32400,"station_id":"st_d46cu089ee8s73dldbu0","pricing_plan_id":"cebpf4jnsgd1na2vs0mg"},{"bike_id":"ab2171ac-c6cc-4d84-a4b5-83416484fd82","system_id":"levelo_inurba_marseille","lat":43.30154,"lon":5.38028,"is_reserved":false,"is_disabled":true,"rental_uris":{"android":"levelo://app?vid=ab2171ac-c6cc-4d84-a4b5-83416484fd82","ios":"levelo://app?vid=ab2171ac-c6cc-4d84-a4b5-83416484fd82"},"vehicle_type_id":"4","last_reported":1771215194,"current_range_meters":18000,"station_id":"ce4bgjp2rcd13ifvqbh0","pricing_plan_id":"cebpf4jnsgd1na2vs0mg"},{"bike_id":"33e04ab4-8566-4c76-a0fd-aad45455c18f","system_id":"levelo_inurba_marseille","lat":43.24822,"lon":5.37472,"is_reserved":false,"is_disabled":false,"rental_uris":{"android":"levelo://app?vid=33e04ab4-8566-4c76-a0fd-aad45455c18f","ios":"levelo://app?vid=33e04ab4-8566-4c76-a0fd-aad45455c18f"},"vehicle_type_id":"4","last_reported":1771215194,"current_range_meters":39200,"station_id":"ce4bhgh2rcd13ifvqfb0","pricing_plan_id":"cebpf4jnsgd1na2vs0mg"},{"bike_id":"ddd6d63e-cae1-40a5-a1c8-c6689068e65c","system_id":"levelo_inurba_marseille","lat":43.265429,"lon":5.373019,"is_reserved":false,"is_disabled":false,"rental_uris":{"android":"levelo://app?vid=ddd6d63e-cae1-40a5-a1c8-c6689068e65c","ios":"levelo://app?vid=ddd6d63e-cae1-40a5-a1c8-c6689068e65c"},"vehicle_type_id":"4","last_reported":1771215194,"current_range_meters":2800,"station_id":"ce4bhg12rcd13ifvqf70","pricing_plan_id":"cebpf4jnsgd1na2vs0mg"},{"bike_id":"21dad158-c679-436c-89c8-cc36c7b585be","system_id":"levelo_inurba_marseille","lat":43.29394,"lon":5.38352,"is_reserved":false,"is_disabled":true,"rental_uris":{"android":"levelo://app?vid=21dad158-c679-436c-89c8-cc36c7b585be","ios":"levelo://app?vid=21dad158-c679-436c-89c8-cc36c7b585be"},"vehicle_type_id":"4","last_reported":1771215194,"current_range_meters":12800,"station_id":"","pricing_plan_id":"cebpf4jnsgd1na2vs0mg"},{"bike_id":"1b4491d1-b9c9-40f8-9f13-2da536ae3826","system_id":"levelo_inurba_marseille","lat":43.27612,"lon":5.36104,"is_reserved":false,"is_disabled":false,"rental_uris":{"android":"levelo://app?vid=1b4491d1-b9c9-40f8-9f13-2da536ae3826","ios":"levelo://app?vid=1b4491d1-b9c9-40f8-9f13-2da536ae3826"},"vehicle_type_id":"4","last_reported":1771215194,"current_range_meters":19600,"station_id":"ce4bgj92rcd13ifvqbe0","pricing_plan_id":"cebpf4jnsgd1na2vs0mg"},{"bike_id":"a24de0ea-9252-472d-acc5-87f0fa9008bb","system_id":"levelo_inurba_marseille","lat":43.304207,"lon":5.412811,"is_reserved":false,"is_disabled":false,"rental_uris":{"android":"levelo://app?vid=a24de0ea-9252-472d-acc5-87f0fa9008bb","ios":"levelo://app?vid=a24de0ea-9252-472d-acc5-87f0fa9008bb"},"vehicle_type_id":"4","last_reported":1771215194,"current_range_meters":14400,"station_id":"ce4bhop2rcd13ifvqh8g","pricing_plan_id":"cebpf4jnsgd1na2vs0mg"},{"bike_id":"fcfbf3e0-5f06-4c2f-a707-c956c105f14e","system_id":"levelo_inurba_marseille","lat":43.287418,"lon":5.379282,"is_reserved":false,"is_disabled":false,"rental_uris":{"android":"levelo://app?vid=fcfbf3e0-5f06-4c2f-a707-c956c105f14e","ios":"levelo://app?vid=fcfbf3e0-5f06-4c2f-a707-c956c105f14e"},"vehicle_type_id":"4","last_reported":1771215194,"current_range_meters":39200,"station_id":"ce4bh9p2rcd13ifvqec0","pricing_plan_id":"cebpf4jnsgd1na2vs0mg"},{"bike_id":"63fc5420-e59e-4f54-b745-b29e7c0ee16c","system_id":"levelo_inurba_marseille","lat":43.27197,"lon":5.3918,"is_reserved":false,"is_disabled":true,"rental_uris":{"android":"levelo://app?vid=63fc5420-e59e-4f54-b745-b29e7c0ee16c","ios":"levelo://app?vid=63fc5420-e59e-4f54-b745-b29e7c0ee16c"},"vehicle_type_id":"4","last_reported":1771215194,"current_range_meters":10000,"station_id":"ce4bhhp2rcd13ifvqfm0","pricing_plan_id":"cebpf4jnsgd1na2vs0mg"},{"bike_id":"1a53623d-2622-472e-9c76-225e0c7aaffd","system_id":"levelo_inurba_marseille","lat":43.286693,"lon":5.386574,"is_reserved":false,"is_disabled":true,"rental_uris":{"android":"levelo://app?vid=1a53623d-2622-472e-9c76-225e0c7aaffd","ios":"levelo://app?vid=1a53623d-2622-472e-9c76-225e0c7aaffd"},"vehicle_type_id":"4","last_reported":1771215194,"current_range_meters":31200,"station_id":"ce4bh492rcd13ifvqdug","pricing_plan_id":"cebpf4jnsgd1na2vs0mg"},{"bike_id":"8e2a68d5-1e9b-4efa-bd4b-b34f19a0ef7f","system_id":"levelo_inurba_marseille","lat":43.29626,"lon":5.40585,"is_reserved":false,"is_disabled":false,"rental_uris":{"android":"levelo://app?vid=8e2a68d5-1e9b-4efa-bd4b-b34f19a0ef7f","ios":"levelo://app?vid=8e2a68d5-1e9b-4efa-bd4b-b34f19a0ef7f"},"vehicle_type_id":"4","last_reported":1771215194,"current_range_meters":38800,"station_id":"ce4bh0h2rcd13ifvqd60","pricing_plan_id":"cebpf4jnsgd1na2vs0mg"},{"bike_id":"25b3ed16-870d-420e-8e25-29606227028a","system_id":"levelo_inurba_marseille","lat":43.311231,"lon":5.377626,"is_reserved":false,"is_disabled":false,"rental_uris":{"android":"levelo://app?vid=25b3ed16-870d-420e-8e25-29606227028a","ios":"levelo://app?vid=25b3ed16-870d-420e-8e25-29606227028a"},"vehicle_type_id":"4","last_reported":1771215194,"current_range_meters":28800,"station_id":"ce4bgt92rcd13ifvqcg0","pricing_plan_id":"cebpf4jnsgd1na2vs0mg"},{"bike_id":"9f69e078-6e7e-418b-a83d-2a6c15c9748b","system_id":"levelo_inurba_marseille","lat":43.24956,"lon":5.40469,"is_reserved":false,"is_disabled":false,"rental_uris":{"android":"levelo://app?vid=9f69e078-6e7e-418b-a83d-2a6c15c9748b","ios":"levelo://app?vid=9f69e078-6e7e-418b-a83d-2a6c15c9748b"},"vehicle_type_id":"4","last_reported":1771215194,"current_range_meters":30000,"station_id":"st_d2ngiaodas8pm72gd1h0","pricing_plan_id":"cebpf4jnsgd1na2vs0mg"},{"bike_id":"05410587-b482-4fdf-9b03-646f6d5cb761","system_id":"levelo_inurba_marseille","lat":43.23804,"lon":5.366274,"is_reserved":false,"is_disabled":false,"rental_uris":{"android":"levelo://app?vid=05410587-b482-4fdf-9b03-646f6d5cb761","ios":"levelo://app?vid=05410587-b482-4fdf-9b03-646f6d5cb761"},"vehicle_type_id":"4","last_reported":1771215194,"current_range_meters":34800,"station_id":"ce4bhi12rcd13ifvqfp0","pricing_plan_id":"cebpf4jnsgd1na2vs0mg"},{"bike_id":"8d13f02f-c6ca-440d-87fb-8fa7316dbdf2","system_id":"levelo_inurba_marseille","lat":43.295763,"lon":5.375008,"is_reserved":false,"is_disabled":true,"rental_uris":{"android":"levelo://app?vid=8d13f02f-c6ca-440d-87fb-8fa7316dbdf2","ios":"levelo://app?vid=8d13f02f-c6ca-440d-87fb-8fa7316dbdf2"},"vehicle_type_id":"4","last_reported":1771215194,"current_range_meters":38400,"station_id":"ce4bgh92rcd13ifvqb50","pricing_plan_id":"cebpf4jnsgd1na2vs0mg"},{"bike_id":"29a15838-665c-42de-9ea1-fe6b1a24b655","system_id":"levelo_inurba_marseille","lat":43.296045,"lon":5.381159,"is_reserved":false,"is_disabled":true,"rental_uris":{"android":"levelo://app?vid=29a15838-665c-42de-9ea1-fe6b1a24b655","ios":"levelo://app?vid=29a15838-665c-42de-9ea1-fe6b1a24b655"},"vehicle_type_id":"4","last_reported":1771215194,"current_range_meters":0,"station_id":"ce4bgl12rcd13ifvqbo0","pricing_plan_id":"cebpf4jnsgd1na2vs0mg"},{"bike_id":"2e535e9c-b61e-45ce-9ee6-0e1df38e9e1d","system_id":"levelo_inurba_marseille","lat":43.28703,"lon":5.3739,"is_reserved":false,"is_disabled":false,"rental_uris":{"android":"levelo://app?vid=2e535e9c-b61e-45ce-9ee6-0e1df38e9e1d","ios":"levelo://app?vid=2e535e9c-b61e-45ce-9ee6-0e1df38e9e1d"},"vehicle_type_id":"4","last_reported":1771215194,"current_range_meters":14800,"station_id":"ce4bh3p2rcd13ifvqdq0","pricing_plan_id":"cebpf4jnsgd1na2vs0mg"},{"bike_id":"bfa1512b-b451-4888-b440-e31e8511cf31","system_id":"levelo_inurba_marseille","lat":43.289333,"lon":5.366325,"is_reserved":false,"is_disabled":true,"rental_uris":{"android":"levelo://app?vid=bfa1512b-b451-4888-b440-e31e8511cf31","ios":"levelo://app?vid=bfa1512b-b451-4888-b440-e31e8511cf31"},"vehicle_type_id":"4","last_reported":1771215194,"current_range_meters":27600,"station_id":"ce4bhap2rcd13ifvqek0","pricing_plan_id":"cebpf4jnsgd1na2vs0mg"},{"bike_id":"9cc47633-0a32-4ef3-834d-abfcbe8590c6","system_id":"levelo_inurba_marseille","lat":43.29975,"lon":5.38466,"is_reserved":false,"is_disabled":true,"rental_uris":{"android":"levelo://app?vid=9cc47633-0a32-4ef3-834d-abfcbe8590c6","ios":"levelo://app?vid=9cc47633-0a32-4ef3-834d-abfcbe8590c6"},"vehicle_type_id":"4","last_reported":1771215194,"current_range_meters":12400,"station_id":"ce4bgj92rcd13ifvqbd0","pricing_plan_id":"cebpf4jnsgd1na2vs0mg"},{"bike_id":"e3b32c52-dc82-4135-af2a-b9cb794cfa1d","system_id":"levelo_inurba_marseille","lat":43.27208,"lon":5.39181,"is_reserved":false,"is_disabled":true,"rental_uris":{"android":"levelo://app?vid=e3b32c52-dc82-4135-af2a-b9cb794cfa1d","ios":"levelo://app?vid=e3b32c52-dc82-4135-af2a-b9cb794cfa1d"},"vehicle_type_id":"4","last_reported":1771215194,"current_range_meters":29600,"station_id":"ce4bhdp2rcd13ifvqf20","pricing_plan_id":"cebpf4jnsgd1na2vs0mg"},{"bike_id":"c186ef28-f695-4098-81d2-3f52a2529662","system_id":"levelo_inurba_marseille","lat":43.312318,"lon":5.368527,"is_reserved":false,"is_disabled":false,"rental_uris":{"android":"levelo://app?vid=c186ef28-f695-4098-81d2-3f52a2529662","ios":"levelo://app?vid=c186ef28-f695-4098-81d2-3f52a2529662"},"vehicle_type_id":"4","last_reported":1771215194,"current_range_meters":37600,"station_id":"ce4bgl92rcd13ifvqbq0","pricing_plan_id":"cebpf4jnsgd1na2vs0mg"},{"bike_id":"87992ae3-5716-41d4-972e-ace804b5651c","system_id":"levelo_inurba_marseille","lat":43.29171,"lon":5.371506,"is_reserved":false,"is_disabled":false,"rental_uris":{"android":"levelo://app?vid=87992ae3-5716-41d4-972e-ace804b5651c","ios":"levelo://app?vid=87992ae3-5716-41d4-972e-ace804b5651c"},"vehicle_type_id":"4","last_reported":1771215194,"current_range_meters":37600,"station_id":"ce4bha92rcd13ifvqeh0","pricing_plan_id":"cebpf4jnsgd1na2vs0mg"},{"bike_id":"bbfef9ce-d112-4da7-a443-00b56ec1c9fe","system_id":"levelo_inurba_marseille","lat":43.24168,"lon":5.36399,"is_reserved":false,"is_disabled":true,"rental_uris":{"android":"levelo://app?vid=bbfef9ce-d112-4da7-a443-00b56ec1c9fe","ios":"levelo://app?vid=bbfef9ce-d112-4da7-a443-00b56ec1c9fe"},"vehicle_type_id":"4","last_reported":1771215194,"current_range_meters":12800,"station_id":"cpo36qri1sfpv3e86is0","pricing_plan_id":"cebpf4jnsgd1na2vs0mg"},{"bike_id":"4c787307-3b92-45e9-909d-4f8f84c18eac","system_id":"levelo_inurba_marseille","lat":43.297913,"lon":5.371008,"is_reserved":false,"is_disabled":false,"rental_uris":{"android":"levelo://app?vid=4c787307-3b92-45e9-909d-4f8f84c18eac","ios":"levelo://app?vid=4c787307-3b92-45e9-909d-4f8f84c18eac"},"vehicle_type_id":"4","last_reported":1771215194,"current_range_meters":37600,"station_id":"ce4bgop2rcd13ifvqc1g","pricing_plan_id":"cebpf4jnsgd1na2vs0mg"},{"bike_id":"666c2a43-d493-4718-ad5d-96a2c264043e","system_id":"levelo_inurba_marseille","lat":43.27465,"lon":5.39373,"is_reserved":false,"is_disabled":false,"rental_uris":{"android":"levelo://app?vid=666c2a43-d493-4718-ad5d-96a2c264043e","ios":"levelo://app?vid=666c2a43-d493-4718-ad5d-96a2c264043e"},"vehicle_type_id":"4","last_reported":1771215194,"current_range_meters":37600,"station_id":"","pricing_plan_id":"cebpf4jnsgd1na2vs0mg"},{"bike_id":"982dc22c-bee8-4457-9768-e8714792c052","system_id":"levelo_inurba_marseille","lat":43.26372,"lon":5.41067,"is_reserved":false,"is_disabled":false,"rental_uris":{"android":"levelo://app?vid=982dc22c-bee8-4457-9768-e8714792c052","ios":"levelo://app?vid=982dc22c-bee8-4457-9768-e8714792c052"},"vehicle_type_id":"4","last_reported":1771215194,"current_range_meters":31200,"station_id":"st_d4e5ca6na9uc73bfl5fg","pricing_plan_id":"cebpf4jnsgd1na2vs0mg"},{"bike_id":"666492ef-8b43-478a-9f98-6f5077bb2c9a","system_id":"levelo_inurba_marseille","lat":43.28926,"lon":5.3838,"is_reserved":false,"is_disabled":false,"rental_uris":{"android":"levelo://app?vid=666492ef-8b43-478a-9f98-6f5077bb2c9a","ios":"levelo://app?vid=666492ef-8b43-478a-9f98-6f5077bb2c9a"},"vehicle_type_id":"4","last_reported":1771215194,"current_range_meters":17600,"station_id":"ce4bh612rcd13ifvqe6g","pricing_plan_id":"cebpf4jnsgd1na2vs0mg"},{"bike_id":"e3e00f58-24c8-44b1-89e2-c7c99d8afdf6","system_id":"levelo_inurba_marseille","lat":43.33043,"lon":5.37566,"is_reserved":false,"is_disabled":false,"rental_uris":{"android":"levelo://app?vid=e3e00f58-24c8-44b1-89e2-c7c99d8afdf6","ios":"levelo://app?vid=e3e00f58-24c8-44b1-89e2-c7c99d8afdf6"},"vehicle_type_id":"4","last_reported":1771215194,"current_range_meters":9600,"station_id":"","pricing_plan_id":"cebpf4jnsgd1na2vs0mg"},{"bike_id":"136ccf96-d322-4753-8f14-d75ef20bda1a","system_id":"levelo_inurba_marseille","lat":43.32001,"lon":5.41527,"is_reserved":false,"is_disabled":false,"rental_uris":{"android":"levelo://app?vid=136ccf96-d322-4753-8f14-d75ef20bda1a","ios":"levelo://app?vid=136ccf96-d322-4753-8f14-d75ef20bda1a"},"vehicle_type_id":"4","last_reported":1771215194,"current_range_meters":35600,"station_id":"ce4bhq92rcd13ifvqhkg","pricing_plan_id":"cebpf4jnsgd1na2vs0mg"},{"bike_id":"7f04637a-bf75-484c-b0dc-13e8e1dd6ab9","system_id":"levelo_inurba_marseille","lat":43.247051,"lon":5.417191,"is_reserved":false,"is_disabled":false,"rental_uris":{"android":"levelo://app?vid=7f04637a-bf75-484c-b0dc-13e8e1dd6ab9","ios":"levelo://app?vid=7f04637a-bf75-484c-b0dc-13e8e1dd6ab9"},"vehicle_type_id":"4","last_reported":1771215194,"current_range_meters":6800,"station_id":"","pricing_plan_id":"cebpf4jnsgd1na2vs0mg"},{"bike_id":"016ec4b9-5b18-4f93-bf29-7317575450df","system_id":"levelo_inurba_marseille","lat":43.24076,"lon":5.37753,"is_reserved":false,"is_disabled":false,"rental_uris":{"android":"levelo://app?vid=016ec4b9-5b18-4f93-bf29-7317575450df","ios":"levelo://app?vid=016ec4b9-5b18-4f93-bf29-7317575450df"},"vehicle_type_id":"4","last_reported":1771215194,"current_range_meters":39200,"station_id":"ce4bhnp2rcd13ifvqgvg","pricing_plan_id":"cebpf4jnsgd1na2vs0mg"},{"bike_id":"376f3610-c985-4685-8189-909c89d88a0d","system_id":"levelo_inurba_marseille","lat":43.316995,"lon":5.404613,"is_reserved":false,"is_disabled":false,"rental_uris":{"android":"levelo://app?vid=376f3610-c985-4685-8189-909c89d88a0d","ios":"levelo://app?vid=376f3610-c985-4685-8189-909c89d88a0d"},"vehicle_type_id":"4","last_reported":1771215194,"current_range_meters":39200,"station_id":"ce4bh012rcd13ifvqd00","pricing_plan_id":"cebpf4jnsgd1na2vs0mg"},{"bike_id":"7dea131a-2fd1-424f-b5c8-37b07119c4b3","system_id":"levelo_inurba_marseille","lat":43.29517,"lon":5.39401,"is_reserved":false,"is_disabled":false,"rental_uris":{"android":"levelo://app?vid=7dea131a-2fd1-424f-b5c8-37b07119c4b3","ios":"levelo://app?vid=7dea131a-2fd1-424f-b5c8-37b07119c4b3"},"vehicle_type_id":"4","last_reported":1771215194,"current_range_meters":38800,"station_id":"ce4bh292rcd13ifvqdf0","pricing_plan_id":"cebpf4jnsgd1na2vs0mg"},{"bike_id":"9ed13d08-8053-466b-be6e-e3b1b308a442","system_id":"levelo_inurba_marseille","lat":43.297866,"lon":5.393502,"is_reserved":false,"is_disabled":false,"rental_uris":{"android":"levelo://app?vid=9ed13d08-8053-466b-be6e-e3b1b308a442","ios":"levelo://app?vid=9ed13d08-8053-466b-be6e-e3b1b308a442"},"vehicle_type_id":"4","last_reported":1771215194,"current_range_meters":38400,"station_id":"chh1huq6cuj3fo74tm60","pricing_plan_id":"cebpf4jnsgd1na2vs0mg"},{"bike_id":"2919179b-9142-490a-b854-4ee98d2b9dc3","system_id":"levelo_inurba_marseille","lat":43.28472,"lon":5.38416,"is_reserved":false,"is_disabled":false,"rental_uris":{"android":"levelo://app?vid=2919179b-9142-490a-b854-4ee98d2b9dc3","ios":"levelo://app?vid=2919179b-9142-490a-b854-4ee98d2b9dc3"},"vehicle_type_id":"4","last_reported":1771215194,"current_range_meters":22400,"station_id":"ce4bh512rcd13ifvqe3g","pricing_plan_id":"cebpf4jnsgd1na2vs0mg"},{"bike_id":"5f89c1ea-3f82-477d-a0eb-611ca3d87d1b","system_id":"levelo_inurba_marseille","lat":43.301904,"lon":5.366144,"is_reserved":false,"is_disabled":false,"rental_uris":{"android":"levelo://app?vid=5f89c1ea-3f82-477d-a0eb-611ca3d87d1b","ios":"levelo://app?vid=5f89c1ea-3f82-477d-a0eb-611ca3d87d1b"},"vehicle_type_id":"4","last_reported":1771215194,"current_range_meters":39200,"station_id":"ce4bgrh2rcd13ifvqc8g","pricing_plan_id":"cebpf4jnsgd1na2vs0mg"},{"bike_id":"1460df0d-e9a4-41c6-ba13-9fca16fe28db","system_id":"levelo_inurba_marseille","lat":43.240801,"lon":5.377583,"is_reserved":false,"is_disabled":false,"rental_uris":{"android":"levelo://app?vid=1460df0d-e9a4-41c6-ba13-9fca16fe28db","ios":"levelo://app?vid=1460df0d-e9a4-41c6-ba13-9fca16fe28db"},"vehicle_type_id":"4","last_reported":1771215194,"current_range_meters":38800,"station_id":"ce4bhnp2rcd13ifvqgvg","pricing_plan_id":"cebpf4jnsgd1na2vs0mg"},{"bike_id":"231e4fd8-db8b-46aa-b775-c1940ba2346d","system_id":"levelo_inurba_marseille","lat":43.30889,"lon":5.37167,"is_reserved":false,"is_disabled":false,"rental_uris":{"android":"levelo://app?vid=231e4fd8-db8b-46aa-b775-c1940ba2346d","ios":"levelo://app?vid=231e4fd8-db8b-46aa-b775-c1940ba2346d"},"vehicle_type_id":"4","last_reported":1771215194,"current_range_meters":38400,"station_id":"ce4bguh2rcd13ifvqckg","pricing_plan_id":"cebpf4jnsgd1na2vs0mg"},{"bike_id":"4257ce27-d4f9-4a49-a222-c5a5ef7fd7bc","system_id":"levelo_inurba_marseille","lat":43.27998,"lon":5.40005,"is_reserved":false,"is_disabled":false,"rental_uris":{"android":"levelo://app?vid=4257ce27-d4f9-4a49-a222-c5a5ef7fd7bc","ios":"levelo://app?vid=4257ce27-d4f9-4a49-a222-c5a5ef7fd7bc"},"vehicle_type_id":"4","last_reported":1771215194,"current_range_meters":22000,"station_id":"ce4bho92rcd13ifvqh4g","pricing_plan_id":"cebpf4jnsgd1na2vs0mg"},{"bike_id":"504d0a5c-6d34-4e6e-b049-b85598e8a815","system_id":"levelo_inurba_marseille","lat":43.29221,"lon":5.36034,"is_reserved":false,"is_disabled":false,"rental_uris":{"android":"levelo://app?vid=504d0a5c-6d34-4e6e-b049-b85598e8a815","ios":"levelo://app?vid=504d0a5c-6d34-4e6e-b049-b85598e8a815"},"vehicle_type_id":"4","last_reported":1771215194,"current_range_meters":3200,"station_id":"ce4bhbh2rcd13ifvqeqg","pricing_plan_id":"cebpf4jnsgd1na2vs0mg"},{"bike_id":"8d6535f0-b219-41a9-a5bf-28d07bb13e74","system_id":"levelo_inurba_marseille","lat":43.31213,"lon":5.36858,"is_reserved":false,"is_disabled":false,"rental_uris":{"android":"levelo://app?vid=8d6535f0-b219-41a9-a5bf-28d07bb13e74","ios":"levelo://app?vid=8d6535f0-b219-41a9-a5bf-28d07bb13e74"},"vehicle_type_id":"4","last_reported":1771215194,"current_range_meters":18800,"station_id":"ce4bgl92rcd13ifvqbq0","pricing_plan_id":"cebpf4jnsgd1na2vs0mg"},{"bike_id":"f1ba095d-737c-496c-818e-2aac94f11fe2","system_id":"levelo_inurba_marseille","lat":43.29516,"lon":5.37492,"is_reserved":false,"is_disabled":false,"rental_uris":{"android":"levelo://app?vid=f1ba095d-737c-496c-818e-2aac94f11fe2","ios":"levelo://app?vid=f1ba095d-737c-496c-818e-2aac94f11fe2"},"vehicle_type_id":"4","last_reported":1771215194,"current_range_meters":33600,"station_id":"ce4bgkp2rcd13ifvqbmg","pricing_plan_id":"cebpf4jnsgd1na2vs0mg"},{"bike_id":"f56b6e75-070e-4148-9d41-956869c01c1e","system_id":"levelo_inurba_marseille","lat":43.292456,"lon":5.360776,"is_reserved":false,"is_disabled":false,"rental_uris":{"android":"levelo://app?vid=f56b6e75-070e-4148-9d41-956869c01c1e","ios":"levelo://app?vid=f56b6e75-070e-4148-9d41-956869c01c1e"},"vehicle_type_id":"4","last_reported":1771215194,"current_range_meters":39200,"station_id":"ce4bhbh2rcd13ifvqeqg","pricing_plan_id":"cebpf4jnsgd1na2vs0mg"},{"bike_id":"ef43f5b3-0267-470e-a7be-73b400aa2eff","system_id":"levelo_inurba_marseille","lat":43.25106,"lon":5.40325,"is_reserved":false,"is_disabled":true,"rental_uris":{"android":"levelo://app?vid=ef43f5b3-0267-470e-a7be-73b400aa2eff","ios":"levelo://app?vid=ef43f5b3-0267-470e-a7be-73b400aa2eff"},"vehicle_type_id":"4","last_reported":1771215194,"current_range_meters":36000,"station_id":"ce4bhlh2rcd13ifvqgig","pricing_plan_id":"cebpf4jnsgd1na2vs0mg"},{"bike_id":"cfe73147-2c12-4c2d-b6d2-081b77c2e21d","system_id":"levelo_inurba_marseille","lat":43.24999,"lon":5.38923,"is_reserved":false,"is_disabled":false,"rental_uris":{"android":"levelo://app?vid=cfe73147-2c12-4c2d-b6d2-081b77c2e21d","ios":"levelo://app?vid=cfe73147-2c12-4c2d-b6d2-081b77c2e21d"},"vehicle_type_id":"4","last_reported":1771215194,"current_range_meters":32400,"station_id":"ce4bhgp2rcd13ifvqfd0","pricing_plan_id":"cebpf4jnsgd1na2vs0mg"},{"bike_id":"28555cbc-0afd-453d-99d5-95e852c8f522","system_id":"levelo_inurba_marseille","lat":43.32073,"lon":5.4154,"is_reserved":false,"is_disabled":false,"rental_uris":{"android":"levelo://app?vid=28555cbc-0afd-453d-99d5-95e852c8f522","ios":"levelo://app?vid=28555cbc-0afd-453d-99d5-95e852c8f522"},"vehicle_type_id":"4","last_reported":1771215194,"current_range_meters":38400,"station_id":"ce4bhq92rcd13ifvqhkg","pricing_plan_id":"cebpf4jnsgd1na2vs0mg"},{"bike_id":"2ae41cc9-8601-41ee-bdd0-1817bceb0544","system_id":"levelo_inurba_marseille","lat":43.284482,"lon":5.391841,"is_reserved":false,"is_disabled":true,"rental_uris":{"android":"levelo://app?vid=2ae41cc9-8601-41ee-bdd0-1817bceb0544","ios":"levelo://app?vid=2ae41cc9-8601-41ee-bdd0-1817bceb0544"},"vehicle_type_id":"4","last_reported":1771215194,"current_range_meters":37600,"station_id":"ce4bhoh2rcd13ifvqh5g","pricing_plan_id":"cebpf4jnsgd1na2vs0mg"},{"bike_id":"0b0789f1-2101-4ca6-aa0d-1c6c4b892a3a","system_id":"levelo_inurba_marseille","lat":43.305316,"lon":5.365289,"is_reserved":false,"is_disabled":false,"rental_uris":{"android":"levelo://app?vid=0b0789f1-2101-4ca6-aa0d-1c6c4b892a3a","ios":"levelo://app?vid=0b0789f1-2101-4ca6-aa0d-1c6c4b892a3a"},"vehicle_type_id":"4","last_reported":1771215194,"current_range_meters":38400,"station_id":"ce4bgs12rcd13ifvqcag","pricing_plan_id":"cebpf4jnsgd1na2vs0mg"},{"bike_id":"47b15c83-9612-4d28-a1f1-c4a600bb7f5c","system_id":"levelo_inurba_marseille","lat":43.33175,"lon":5.37672,"is_reserved":false,"is_disabled":false,"rental_uris":{"android":"levelo://app?vid=47b15c83-9612-4d28-a1f1-c4a600bb7f5c","ios":"levelo://app?vid=47b15c83-9612-4d28-a1f1-c4a600bb7f5c"},"vehicle_type_id":"4","last_reported":1771215194,"current_range_meters":16800,"station_id":"st_d46cu089ee8s73dldbu0","pricing_plan_id":"cebpf4jnsgd1na2vs0mg"},{"bike_id":"3b4377ca-fc09-4041-8519-6fa3dd2f3815","system_id":"levelo_inurba_marseille","lat":43.26068,"lon":5.39384,"is_reserved":false,"is_disabled":false,"rental_uris":{"android":"levelo://app?vid=3b4377ca-fc09-4041-8519-6fa3dd2f3815","ios":"levelo://app?vid=3b4377ca-fc09-4041-8519-6fa3dd2f3815"},"vehicle_type_id":"4","last_reported":1771215194,"current_range_meters":12400,"station_id":"ce4bhh92rcd13ifvqfj0","pricing_plan_id":"cebpf4jnsgd1na2vs0mg"},{"bike_id":"d893ff2d-a733-4eca-b9b8-b232908e55ad","system_id":"levelo_inurba_marseille","lat":43.28947,"lon":5.36615,"is_reserved":false,"is_disabled":false,"rental_uris":{"android":"levelo://app?vid=d893ff2d-a733-4eca-b9b8-b232908e55ad","ios":"levelo://app?vid=d893ff2d-a733-4eca-b9b8-b232908e55ad"},"vehicle_type_id":"4","last_reported":1771215194,"current_range_meters":22400,"station_id":"ce4bhap2rcd13ifvqek0","pricing_plan_id":"cebpf4jnsgd1na2vs0mg"},{"bike_id":"696ee3fc-6fd6-40e8-ac11-8ebbf4ab59d1","system_id":"levelo_inurba_marseille","lat":43.24949,"lon":5.40509,"is_reserved":false,"is_disabled":true,"rental_uris":{"android":"levelo://app?vid=696ee3fc-6fd6-40e8-ac11-8ebbf4ab59d1","ios":"levelo://app?vid=696ee3fc-6fd6-40e8-ac11-8ebbf4ab59d1"},"vehicle_type_id":"4","last_reported":1771215194,"current_range_meters":31200,"station_id":"st_d2ngiaodas8pm72gd1h0","pricing_plan_id":"cebpf4jnsgd1na2vs0mg"},{"bike_id":"158a12e2-f5db-4197-93ba-5db6e42be1b0","system_id":"levelo_inurba_marseille","lat":43.29041,"lon":5.35927,"is_reserved":false,"is_disabled":false,"rental_uris":{"android":"levelo://app?vid=158a12e2-f5db-4197-93ba-5db6e42be1b0","ios":"levelo://app?vid=158a12e2-f5db-4197-93ba-5db6e42be1b0"},"vehicle_type_id":"4","last_reported":1771215194,"current_range_meters":39200,"station_id":"ce4bha92rcd13ifvqeg0","pricing_plan_id":"cebpf4jnsgd1na2vs0mg"},{"bike_id":"27741359-85f3-49b0-96a9-101a0b772f00","system_id":"levelo_inurba_marseille","lat":43.297952,"lon":5.370951,"is_reserved":false,"is_disabled":false,"rental_uris":{"android":"levelo://app?vid=27741359-85f3-49b0-96a9-101a0b772f00","ios":"levelo://app?vid=27741359-85f3-49b0-96a9-101a0b772f00"},"vehicle_type_id":"4","last_reported":1771215194,"current_range_meters":25600,"station_id":"ce4bgop2rcd13ifvqc1g","pricing_plan_id":"cebpf4jnsgd1na2vs0mg"},{"bike_id":"e664fd31-d5e7-4335-a3ad-a97794856ca1","system_id":"levelo_inurba_marseille","lat":43.32344,"lon":5.36737,"is_reserved":false,"is_disabled":false,"rental_uris":{"android":"levelo://app?vid=e664fd31-d5e7-4335-a3ad-a97794856ca1","ios":"levelo://app?vid=e664fd31-d5e7-4335-a3ad-a97794856ca1"},"vehicle_type_id":"4","last_reported":1771215194,"current_range_meters":20800,"station_id":"ce4bhsh2rcd13ifvqi2g","pricing_plan_id":"cebpf4jnsgd1na2vs0mg"},{"bike_id":"9a3c19aa-d5b5-4290-b356-d5a9a83b4ebe","system_id":"levelo_inurba_marseille","lat":43.27488,"lon":5.42458,"is_reserved":false,"is_disabled":false,"rental_uris":{"android":"levelo://app?vid=9a3c19aa-d5b5-4290-b356-d5a9a83b4ebe","ios":"levelo://app?vid=9a3c19aa-d5b5-4290-b356-d5a9a83b4ebe"},"vehicle_type_id":"4","last_reported":1771215194,"current_range_meters":10800,"station_id":"ce4bhn92rcd13ifvqgrg","pricing_plan_id":"cebpf4jnsgd1na2vs0mg"},{"bike_id":"cc69c377-2d59-4da2-9186-ae52be5806bc","system_id":"levelo_inurba_marseille","lat":43.29609,"lon":5.38091,"is_reserved":false,"is_disabled":true,"rental_uris":{"android":"levelo://app?vid=cc69c377-2d59-4da2-9186-ae52be5806bc","ios":"levelo://app?vid=cc69c377-2d59-4da2-9186-ae52be5806bc"},"vehicle_type_id":"4","last_reported":1771215194,"current_range_meters":0,"station_id":"ce4bgl12rcd13ifvqbo0","pricing_plan_id":"cebpf4jnsgd1na2vs0mg"},{"bike_id":"4dcbf679-cdd4-4ee9-878d-44ab492dd40a","system_id":"levelo_inurba_marseille","lat":43.29217,"lon":5.36075,"is_reserved":false,"is_disabled":false,"rental_uris":{"android":"levelo://app?vid=4dcbf679-cdd4-4ee9-878d-44ab492dd40a","ios":"levelo://app?vid=4dcbf679-cdd4-4ee9-878d-44ab492dd40a"},"vehicle_type_id":"4","last_reported":1771215194,"current_range_meters":39200,"station_id":"ce4bhbh2rcd13ifvqeqg","pricing_plan_id":"cebpf4jnsgd1na2vs0mg"},{"bike_id":"1b7a60cb-a2d5-42a5-87b6-91c1f98f8e35","system_id":"levelo_inurba_marseille","lat":43.3043,"lon":5.39758,"is_reserved":false,"is_disabled":false,"rental_uris":{"android":"levelo://app?vid=1b7a60cb-a2d5-42a5-87b6-91c1f98f8e35","ios":"levelo://app?vid=1b7a60cb-a2d5-42a5-87b6-91c1f98f8e35"},"vehicle_type_id":"4","last_reported":1771215194,"current_range_meters":36800,"station_id":"ce4bh092rcd13ifvqd20","pricing_plan_id":"cebpf4jnsgd1na2vs0mg"},{"bike_id":"9a71aafb-3414-42bb-a93e-c329b1fce7db","system_id":"levelo_inurba_marseille","lat":43.2582,"lon":5.39422,"is_reserved":false,"is_disabled":false,"rental_uris":{"android":"levelo://app?vid=9a71aafb-3414-42bb-a93e-c329b1fce7db","ios":"levelo://app?vid=9a71aafb-3414-42bb-a93e-c329b1fce7db"},"vehicle_type_id":"4","last_reported":1771215194,"current_range_meters":34000,"station_id":"ce4bhip2rcd13ifvqft0","pricing_plan_id":"cebpf4jnsgd1na2vs0mg"},{"bike_id":"96763947-68cd-4330-b5c4-17a1c4b9aa5b","system_id":"levelo_inurba_marseille","lat":43.31489,"lon":5.39097,"is_reserved":false,"is_disabled":false,"rental_uris":{"android":"levelo://app?vid=96763947-68cd-4330-b5c4-17a1c4b9aa5b","ios":"levelo://app?vid=96763947-68cd-4330-b5c4-17a1c4b9aa5b"},"vehicle_type_id":"4","last_reported":1771215194,"current_range_meters":31200,"station_id":"","pricing_plan_id":"cebpf4jnsgd1na2vs0mg"},{"bike_id":"e87ad34e-b4b7-4a8f-8d1d-9fcdf7787f23","system_id":"levelo_inurba_marseille","lat":43.274972,"lon":5.424557,"is_reserved":false,"is_disabled":false,"rental_uris":{"android":"levelo://app?vid=e87ad34e-b4b7-4a8f-8d1d-9fcdf7787f23","ios":"levelo://app?vid=e87ad34e-b4b7-4a8f-8d1d-9fcdf7787f23"},"vehicle_type_id":"4","last_reported":1771215194,"current_range_meters":30800,"station_id":"ce4bhn92rcd13ifvqgrg","pricing_plan_id":"cebpf4jnsgd1na2vs0mg"},{"bike_id":"40a2d767-9a8e-4aa3-bded-343bcd3a8041","system_id":"levelo_inurba_marseille","lat":43.24167,"lon":5.36398,"is_reserved":false,"is_disabled":false,"rental_uris":{"android":"levelo://app?vid=40a2d767-9a8e-4aa3-bded-343bcd3a8041","ios":"levelo://app?vid=40a2d767-9a8e-4aa3-bded-343bcd3a8041"},"vehicle_type_id":"4","last_reported":1771215194,"current_range_meters":8800,"station_id":"cpo36qri1sfpv3e86is0","pricing_plan_id":"cebpf4jnsgd1na2vs0mg"},{"bike_id":"bbaf3f17-a1db-4506-b20b-06b45d8a1835","system_id":"levelo_inurba_marseille","lat":43.317096,"lon":5.437001,"is_reserved":false,"is_disabled":false,"rental_uris":{"android":"levelo://app?vid=bbaf3f17-a1db-4506-b20b-06b45d8a1835","ios":"levelo://app?vid=bbaf3f17-a1db-4506-b20b-06b45d8a1835"},"vehicle_type_id":"4","last_reported":1771215194,"current_range_meters":30800,"station_id":"ce4bhp92rcd13ifvqhcg","pricing_plan_id":"cebpf4jnsgd1na2vs0mg"},{"bike_id":"39df9018-deef-4887-8d63-2341b5b85f51","system_id":"levelo_inurba_marseille","lat":43.2512,"lon":5.40326,"is_reserved":false,"is_disabled":false,"rental_uris":{"android":"levelo://app?vid=39df9018-deef-4887-8d63-2341b5b85f51","ios":"levelo://app?vid=39df9018-deef-4887-8d63-2341b5b85f51"},"vehicle_type_id":"4","last_reported":1771215194,"current_range_meters":12000,"station_id":"ce4bhlh2rcd13ifvqgig","pricing_plan_id":"cebpf4jnsgd1na2vs0mg"},{"bike_id":"78b310a4-0a81-46bf-98a4-78a902329379","system_id":"levelo_inurba_marseille","lat":43.285673,"lon":5.394953,"is_reserved":false,"is_disabled":false,"rental_uris":{"android":"levelo://app?vid=78b310a4-0a81-46bf-98a4-78a902329379","ios":"levelo://app?vid=78b310a4-0a81-46bf-98a4-78a902329379"},"vehicle_type_id":"4","last_reported":1771215194,"current_range_meters":36400,"station_id":"ce4bh292rcd13ifvqdg0","pricing_plan_id":"cebpf4jnsgd1na2vs0mg"},{"bike_id":"033052a2-0987-4934-a645-9d44cab8aa72","system_id":"levelo_inurba_marseille","lat":43.30151,"lon":5.3876,"is_reserved":false,"is_disabled":false,"rental_uris":{"android":"levelo://app?vid=033052a2-0987-4934-a645-9d44cab8aa72","ios":"levelo://app?vid=033052a2-0987-4934-a645-9d44cab8aa72"},"vehicle_type_id":"4","last_reported":1771215194,"current_range_meters":36400,"station_id":"ce4bghh2rcd13ifvqb60","pricing_plan_id":"cebpf4jnsgd1na2vs0mg"},{"bike_id":"43f035d9-d732-4a69-b26a-7792a8fc80f0","system_id":"levelo_inurba_marseille","lat":43.24556,"lon":5.39461,"is_reserved":false,"is_disabled":true,"rental_uris":{"android":"levelo://app?vid=43f035d9-d732-4a69-b26a-7792a8fc80f0","ios":"levelo://app?vid=43f035d9-d732-4a69-b26a-7792a8fc80f0"},"vehicle_type_id":"4","last_reported":1771215194,"current_range_meters":6800,"station_id":"ce4bhlp2rcd13ifvqgjg","pricing_plan_id":"cebpf4jnsgd1na2vs0mg"},{"bike_id":"8e4d0fb2-0b0a-434c-902e-d3ab3497cc31","system_id":"levelo_inurba_marseille","lat":43.28143,"lon":5.42637,"is_reserved":false,"is_disabled":false,"rental_uris":{"android":"levelo://app?vid=8e4d0fb2-0b0a-434c-902e-d3ab3497cc31","ios":"levelo://app?vid=8e4d0fb2-0b0a-434c-902e-d3ab3497cc31"},"vehicle_type_id":"4","last_reported":1771215194,"current_range_meters":37600,"station_id":"ce4bhnh2rcd13ifvqgug","pricing_plan_id":"cebpf4jnsgd1na2vs0mg"},{"bike_id":"9c9302ed-c2af-40cd-9047-f491de3d893a","system_id":"levelo_inurba_marseille","lat":43.24644,"lon":5.43126,"is_reserved":false,"is_disabled":false,"rental_uris":{"android":"levelo://app?vid=9c9302ed-c2af-40cd-9047-f491de3d893a","ios":"levelo://app?vid=9c9302ed-c2af-40cd-9047-f491de3d893a"},"vehicle_type_id":"4","last_reported":1771215194,"current_range_meters":17600,"station_id":"st_d2m6c4gdas8pm72e190g","pricing_plan_id":"cebpf4jnsgd1na2vs0mg"},{"bike_id":"2d55974f-a159-4a96-a215-e44d5d35787a","system_id":"levelo_inurba_marseille","lat":43.29953,"lon":5.41325,"is_reserved":false,"is_disabled":false,"rental_uris":{"android":"levelo://app?vid=2d55974f-a159-4a96-a215-e44d5d35787a","ios":"levelo://app?vid=2d55974f-a159-4a96-a215-e44d5d35787a"},"vehicle_type_id":"4","last_reported":1771215194,"current_range_meters":26800,"station_id":"ce4bhp12rcd13ifvqh9g","pricing_plan_id":"cebpf4jnsgd1na2vs0mg"},{"bike_id":"addd33a1-5186-4324-b702-4ac89f3f7ce6","system_id":"levelo_inurba_marseille","lat":43.26056,"lon":5.39385,"is_reserved":false,"is_disabled":false,"rental_uris":{"android":"levelo://app?vid=addd33a1-5186-4324-b702-4ac89f3f7ce6","ios":"levelo://app?vid=addd33a1-5186-4324-b702-4ac89f3f7ce6"},"vehicle_type_id":"4","last_reported":1771215194,"current_range_meters":33600,"station_id":"ce4bhh92rcd13ifvqfj0","pricing_plan_id":"cebpf4jnsgd1na2vs0mg"},{"bike_id":"d55644eb-e30a-41a6-b59b-00164de3a6d4","system_id":"levelo_inurba_marseille","lat":43.240756,"lon":5.377527,"is_reserved":false,"is_disabled":false,"rental_uris":{"android":"levelo://app?vid=d55644eb-e30a-41a6-b59b-00164de3a6d4","ios":"levelo://app?vid=d55644eb-e30a-41a6-b59b-00164de3a6d4"},"vehicle_type_id":"4","last_reported":1771215194,"current_range_meters":27200,"station_id":"ce4bhnp2rcd13ifvqgvg","pricing_plan_id":"cebpf4jnsgd1na2vs0mg"},{"bike_id":"f5164f9e-2eb7-4f79-a47d-dfe063d4ee27","system_id":"levelo_inurba_marseille","lat":43.307992,"lon":5.38135,"is_reserved":false,"is_disabled":false,"rental_uris":{"android":"levelo://app?vid=f5164f9e-2eb7-4f79-a47d-dfe063d4ee27","ios":"levelo://app?vid=f5164f9e-2eb7-4f79-a47d-dfe063d4ee27"},"vehicle_type_id":"4","last_reported":1771215194,"current_range_meters":10800,"station_id":"ce4bgt12rcd13ifvqce0","pricing_plan_id":"cebpf4jnsgd1na2vs0mg"},{"bike_id":"116f2aea-2c60-4334-819d-276b6393c9bc","system_id":"levelo_inurba_marseille","lat":43.29029,"lon":5.38142,"is_reserved":false,"is_disabled":false,"rental_uris":{"android":"levelo://app?vid=116f2aea-2c60-4334-819d-276b6393c9bc","ios":"levelo://app?vid=116f2aea-2c60-4334-819d-276b6393c9bc"},"vehicle_type_id":"4","last_reported":1771215194,"current_range_meters":38800,"station_id":"ce4bh4p2rcd13ifvqe1g","pricing_plan_id":"cebpf4jnsgd1na2vs0mg"},{"bike_id":"62728ec9-b823-4810-8ffb-f72b795c94dd","system_id":"levelo_inurba_marseille","lat":43.30165,"lon":5.38091,"is_reserved":false,"is_disabled":false,"rental_uris":{"android":"levelo://app?vid=62728ec9-b823-4810-8ffb-f72b795c94dd","ios":"levelo://app?vid=62728ec9-b823-4810-8ffb-f72b795c94dd"},"vehicle_type_id":"4","last_reported":1771215194,"current_range_meters":34000,"station_id":"ce4bgjp2rcd13ifvqbh0","pricing_plan_id":"cebpf4jnsgd1na2vs0mg"},{"bike_id":"49574bd3-c678-4d64-b6e0-e6db6eec4c19","system_id":"levelo_inurba_marseille","lat":43.30805,"lon":5.38136,"is_reserved":false,"is_disabled":false,"rental_uris":{"android":"levelo://app?vid=49574bd3-c678-4d64-b6e0-e6db6eec4c19","ios":"levelo://app?vid=49574bd3-c678-4d64-b6e0-e6db6eec4c19"},"vehicle_type_id":"4","last_reported":1771215194,"current_range_meters":38000,"station_id":"ce4bgt12rcd13ifvqce0","pricing_plan_id":"cebpf4jnsgd1na2vs0mg"},{"bike_id":"77e807ca-dff8-4bcc-a8d0-6d5b5f1e6fa8","system_id":"levelo_inurba_marseille","lat":43.29178,"lon":5.35806,"is_reserved":false,"is_disabled":false,"rental_uris":{"android":"levelo://app?vid=77e807ca-dff8-4bcc-a8d0-6d5b5f1e6fa8","ios":"levelo://app?vid=77e807ca-dff8-4bcc-a8d0-6d5b5f1e6fa8"},"vehicle_type_id":"4","last_reported":1771215194,"current_range_meters":38000,"station_id":"ce4bhb12rcd13ifvqel0","pricing_plan_id":"cebpf4jnsgd1na2vs0mg"},{"bike_id":"dcb46e53-479a-4eb4-80ee-4c4b8b773271","system_id":"levelo_inurba_marseille","lat":43.28691,"lon":5.35486,"is_reserved":false,"is_disabled":true,"rental_uris":{"android":"levelo://app?vid=dcb46e53-479a-4eb4-80ee-4c4b8b773271","ios":"levelo://app?vid=dcb46e53-479a-4eb4-80ee-4c4b8b773271"},"vehicle_type_id":"4","last_reported":1771215194,"current_range_meters":4400,"station_id":"","pricing_plan_id":"cebpf4jnsgd1na2vs0mg"},{"bike_id":"ab0801ce-4ad4-42db-b231-96b1eae9863c","system_id":"levelo_inurba_marseille","lat":43.29629,"lon":5.37693,"is_reserved":false,"is_disabled":false,"rental_uris":{"android":"levelo://app?vid=ab0801ce-4ad4-42db-b231-96b1eae9863c","ios":"levelo://app?vid=ab0801ce-4ad4-42db-b231-96b1eae9863c"},"vehicle_type_id":"4","last_reported":1771215194,"current_range_meters":24400,"station_id":"ce4bgi92rcd13ifvqb90","pricing_plan_id":"cebpf4jnsgd1na2vs0mg"},{"bike_id":"58cab496-5217-4a7d-8ebd-2a83c9fb6d3a","system_id":"levelo_inurba_marseille","lat":43.246616,"lon":5.381439,"is_reserved":false,"is_disabled":false,"rental_uris":{"android":"levelo://app?vid=58cab496-5217-4a7d-8ebd-2a83c9fb6d3a","ios":"levelo://app?vid=58cab496-5217-4a7d-8ebd-2a83c9fb6d3a"},"vehicle_type_id":"4","last_reported":1771215194,"current_range_meters":18800,"station_id":"ce4bhih2rcd13ifvqfr0","pricing_plan_id":"cebpf4jnsgd1na2vs0mg"},{"bike_id":"ee520404-8764-4e6d-9db7-583906d777d1","system_id":"levelo_inurba_marseille","lat":43.286174,"lon":5.350993,"is_reserved":false,"is_disabled":false,"rental_uris":{"android":"levelo://app?vid=ee520404-8764-4e6d-9db7-583906d777d1","ios":"levelo://app?vid=ee520404-8764-4e6d-9db7-583906d777d1"},"vehicle_type_id":"4","last_reported":1771215194,"current_range_meters":25200,"station_id":"ce4bhch2rcd13ifvqeug","pricing_plan_id":"cebpf4jnsgd1na2vs0mg"},{"bike_id":"d7b9bab2-8c15-4f04-b30d-9182fb77c28b","system_id":"levelo_inurba_marseille","lat":43.274854,"lon":5.424465,"is_reserved":false,"is_disabled":false,"rental_uris":{"android":"levelo://app?vid=d7b9bab2-8c15-4f04-b30d-9182fb77c28b","ios":"levelo://app?vid=d7b9bab2-8c15-4f04-b30d-9182fb77c28b"},"vehicle_type_id":"4","last_reported":1771215194,"current_range_meters":17600,"station_id":"ce4bhn92rcd13ifvqgrg","pricing_plan_id":"cebpf4jnsgd1na2vs0mg"},{"bike_id":"71e296c3-1046-40a1-a888-17201925c142","system_id":"levelo_inurba_marseille","lat":43.2512,"lon":5.40312,"is_reserved":false,"is_disabled":false,"rental_uris":{"android":"levelo://app?vid=71e296c3-1046-40a1-a888-17201925c142","ios":"levelo://app?vid=71e296c3-1046-40a1-a888-17201925c142"},"vehicle_type_id":"4","last_reported":1771215194,"current_range_meters":38400,"station_id":"ce4bhlh2rcd13ifvqgig","pricing_plan_id":"cebpf4jnsgd1na2vs0mg"},{"bike_id":"3cd8e674-f2df-4abf-b06c-c0245679bc5d","system_id":"levelo_inurba_marseille","lat":43.30923,"lon":5.3688,"is_reserved":false,"is_disabled":false,"rental_uris":{"android":"levelo://app?vid=3cd8e674-f2df-4abf-b06c-c0245679bc5d","ios":"levelo://app?vid=3cd8e674-f2df-4abf-b06c-c0245679bc5d"},"vehicle_type_id":"4","last_reported":1771215194,"current_range_meters":30400,"station_id":"ce4bgn92rcd13ifvqbvg","pricing_plan_id":"cebpf4jnsgd1na2vs0mg"},{"bike_id":"c1009b7a-d4e9-4514-8771-76f5baf181b7","system_id":"levelo_inurba_marseille","lat":43.305535,"lon":5.365305,"is_reserved":false,"is_disabled":false,"rental_uris":{"android":"levelo://app?vid=c1009b7a-d4e9-4514-8771-76f5baf181b7","ios":"levelo://app?vid=c1009b7a-d4e9-4514-8771-76f5baf181b7"},"vehicle_type_id":"4","last_reported":1771215194,"current_range_meters":28800,"station_id":"ce4bgs12rcd13ifvqcag","pricing_plan_id":"cebpf4jnsgd1na2vs0mg"},{"bike_id":"dab14c9b-51ba-42ac-9d33-248a97e4b330","system_id":"levelo_inurba_marseille","lat":43.29507,"lon":5.37503,"is_reserved":false,"is_disabled":false,"rental_uris":{"android":"levelo://app?vid=dab14c9b-51ba-42ac-9d33-248a97e4b330","ios":"levelo://app?vid=dab14c9b-51ba-42ac-9d33-248a97e4b330"},"vehicle_type_id":"4","last_reported":1771215194,"current_range_meters":19200,"station_id":"ce4bgkp2rcd13ifvqbmg","pricing_plan_id":"cebpf4jnsgd1na2vs0mg"},{"bike_id":"0217db1f-0b8d-4169-8245-e2f8644b01fd","system_id":"levelo_inurba_marseille","lat":43.28939,"lon":5.3663,"is_reserved":false,"is_disabled":false,"rental_uris":{"android":"levelo://app?vid=0217db1f-0b8d-4169-8245-e2f8644b01fd","ios":"levelo://app?vid=0217db1f-0b8d-4169-8245-e2f8644b01fd"},"vehicle_type_id":"4","last_reported":1771215194,"current_range_meters":16400,"station_id":"ce4bhap2rcd13ifvqek0","pricing_plan_id":"cebpf4jnsgd1na2vs0mg"},{"bike_id":"02bca460-fe9f-414d-9e1f-39a160d195a8","system_id":"levelo_inurba_marseille","lat":43.31316,"lon":5.39728,"is_reserved":false,"is_disabled":false,"rental_uris":{"android":"levelo://app?vid=02bca460-fe9f-414d-9e1f-39a160d195a8","ios":"levelo://app?vid=02bca460-fe9f-414d-9e1f-39a160d195a8"},"vehicle_type_id":"4","last_reported":1771215194,"current_range_meters":38000,"station_id":"ce4bgvp2rcd13ifvqcu0","pricing_plan_id":"cebpf4jnsgd1na2vs0mg"},{"bike_id":"a2b75aec-074e-4581-9113-e7dfd29c0859","system_id":"levelo_inurba_marseille","lat":43.24657,"lon":5.38875,"is_reserved":false,"is_disabled":false,"rental_uris":{"android":"levelo://app?vid=a2b75aec-074e-4581-9113-e7dfd29c0859","ios":"levelo://app?vid=a2b75aec-074e-4581-9113-e7dfd29c0859"},"vehicle_type_id":"4","last_reported":1771215194,"current_range_meters":37600,"station_id":"ce4bhg12rcd13ifvqf60","pricing_plan_id":"cebpf4jnsgd1na2vs0mg"},{"bike_id":"5ff549e1-8cbd-4bd3-88ac-d48154b3a46d","system_id":"levelo_inurba_marseille","lat":43.28476,"lon":5.38571,"is_reserved":false,"is_disabled":false,"rental_uris":{"android":"levelo://app?vid=5ff549e1-8cbd-4bd3-88ac-d48154b3a46d","ios":"levelo://app?vid=5ff549e1-8cbd-4bd3-88ac-d48154b3a46d"},"vehicle_type_id":"4","last_reported":1771215194,"current_range_meters":39200,"station_id":"ce4bh8p2rcd13ifvqeb0","pricing_plan_id":"cebpf4jnsgd1na2vs0mg"},{"bike_id":"937f3d25-b848-495b-a330-e41b28ba6403","system_id":"levelo_inurba_marseille","lat":43.24078,"lon":5.37739,"is_reserved":false,"is_disabled":false,"rental_uris":{"android":"levelo://app?vid=937f3d25-b848-495b-a330-e41b28ba6403","ios":"levelo://app?vid=937f3d25-b848-495b-a330-e41b28ba6403"},"vehicle_type_id":"4","last_reported":1771215194,"current_range_meters":39200,"station_id":"ce4bhnp2rcd13ifvqgvg","pricing_plan_id":"cebpf4jnsgd1na2vs0mg"},{"bike_id":"b84857a7-e995-4ca0-8158-ac5be3d97163","system_id":"levelo_inurba_marseille","lat":43.292724,"lon":5.368021,"is_reserved":false,"is_disabled":false,"rental_uris":{"android":"levelo://app?vid=b84857a7-e995-4ca0-8158-ac5be3d97163","ios":"levelo://app?vid=b84857a7-e995-4ca0-8158-ac5be3d97163"},"vehicle_type_id":"4","last_reported":1771215194,"current_range_meters":36800,"station_id":"ce4bhbp2rcd13ifvqesg","pricing_plan_id":"cebpf4jnsgd1na2vs0mg"},{"bike_id":"4f63221f-ab8e-47aa-80f2-25a9d4bd482b","system_id":"levelo_inurba_marseille","lat":43.251314,"lon":5.403153,"is_reserved":false,"is_disabled":false,"rental_uris":{"android":"levelo://app?vid=4f63221f-ab8e-47aa-80f2-25a9d4bd482b","ios":"levelo://app?vid=4f63221f-ab8e-47aa-80f2-25a9d4bd482b"},"vehicle_type_id":"4","last_reported":1771215194,"current_range_meters":8800,"station_id":"ce4bhlh2rcd13ifvqgig","pricing_plan_id":"cebpf4jnsgd1na2vs0mg"},{"bike_id":"a38510c5-d61e-42e3-8db2-87aff43408fd","system_id":"levelo_inurba_marseille","lat":43.27575,"lon":5.38393,"is_reserved":false,"is_disabled":false,"rental_uris":{"android":"levelo://app?vid=a38510c5-d61e-42e3-8db2-87aff43408fd","ios":"levelo://app?vid=a38510c5-d61e-42e3-8db2-87aff43408fd"},"vehicle_type_id":"4","last_reported":1771215194,"current_range_meters":38800,"station_id":"ce4bhh92rcd13ifvqfi0","pricing_plan_id":"cebpf4jnsgd1na2vs0mg"},{"bike_id":"47c0c0c6-b1ef-4a5b-8409-ca55880f765e","system_id":"levelo_inurba_marseille","lat":43.25583,"lon":5.3822,"is_reserved":false,"is_disabled":false,"rental_uris":{"android":"levelo://app?vid=47c0c0c6-b1ef-4a5b-8409-ca55880f765e","ios":"levelo://app?vid=47c0c0c6-b1ef-4a5b-8409-ca55880f765e"},"vehicle_type_id":"4","last_reported":1771215194,"current_range_meters":38800,"station_id":"ce4bhih2rcd13ifvqfs0","pricing_plan_id":"cebpf4jnsgd1na2vs0mg"},{"bike_id":"74c5db5c-ad41-4f03-8e8e-9cde4313fee5","system_id":"levelo_inurba_marseille","lat":43.29554,"lon":5.37594,"is_reserved":false,"is_disabled":false,"rental_uris":{"android":"levelo://app?vid=74c5db5c-ad41-4f03-8e8e-9cde4313fee5","ios":"levelo://app?vid=74c5db5c-ad41-4f03-8e8e-9cde4313fee5"},"vehicle_type_id":"4","last_reported":1771215194,"current_range_meters":39200,"station_id":"ce4bgh92rcd13ifvqb50","pricing_plan_id":"cebpf4jnsgd1na2vs0mg"},{"bike_id":"6c86eda7-889e-443a-85f7-298bb9e9311c","system_id":"levelo_inurba_marseille","lat":43.28916,"lon":5.38372,"is_reserved":false,"is_disabled":true,"rental_uris":{"android":"levelo://app?vid=6c86eda7-889e-443a-85f7-298bb9e9311c","ios":"levelo://app?vid=6c86eda7-889e-443a-85f7-298bb9e9311c"},"vehicle_type_id":"4","last_reported":1771215194,"current_range_meters":27600,"station_id":"ce4bh612rcd13ifvqe6g","pricing_plan_id":"cebpf4jnsgd1na2vs0mg"},{"bike_id":"e52a1b18-0cdc-40e8-ba6f-2547d2061d85","system_id":"levelo_inurba_marseille","lat":43.30733,"lon":5.42437,"is_reserved":false,"is_disabled":false,"rental_uris":{"android":"levelo://app?vid=e52a1b18-0cdc-40e8-ba6f-2547d2061d85","ios":"levelo://app?vid=e52a1b18-0cdc-40e8-ba6f-2547d2061d85"},"vehicle_type_id":"4","last_reported":1771215194,"current_range_meters":8000,"station_id":"st_cvj6ca6bvosntc0bfgr0","pricing_plan_id":"cebpf4jnsgd1na2vs0mg"},{"bike_id":"e442f200-afef-478e-8575-d8056ddaaaa3","system_id":"levelo_inurba_marseille","lat":43.21756,"lon":5.34583,"is_reserved":false,"is_disabled":false,"rental_uris":{"android":"levelo://app?vid=e442f200-afef-478e-8575-d8056ddaaaa3","ios":"levelo://app?vid=e442f200-afef-478e-8575-d8056ddaaaa3"},"vehicle_type_id":"4","last_reported":1771215194,"current_range_meters":36800,"station_id":"st_cvj6r9ubvosntc0bgbag","pricing_plan_id":"cebpf4jnsgd1na2vs0mg"},{"bike_id":"f0866178-6eb8-4f60-9833-1814641c78a4","system_id":"levelo_inurba_marseille","lat":43.29282,"lon":5.40129,"is_reserved":false,"is_disabled":false,"rental_uris":{"android":"levelo://app?vid=f0866178-6eb8-4f60-9833-1814641c78a4","ios":"levelo://app?vid=f0866178-6eb8-4f60-9833-1814641c78a4"},"vehicle_type_id":"4","last_reported":1771215194,"current_range_meters":31200,"station_id":"ce4bh312rcd13ifvqdk0","pricing_plan_id":"cebpf4jnsgd1na2vs0mg"},{"bike_id":"6c9d2f17-7703-4a46-b1ed-4636c6788f94","system_id":"levelo_inurba_marseille","lat":43.30549,"lon":5.36526,"is_reserved":false,"is_disabled":false,"rental_uris":{"android":"levelo://app?vid=6c9d2f17-7703-4a46-b1ed-4636c6788f94","ios":"levelo://app?vid=6c9d2f17-7703-4a46-b1ed-4636c6788f94"},"vehicle_type_id":"4","last_reported":1771215194,"current_range_meters":17200,"station_id":"ce4bgs12rcd13ifvqcag","pricing_plan_id":"cebpf4jnsgd1na2vs0mg"},{"bike_id":"4d7e5939-68d5-4c48-82dc-82ded86b797f","system_id":"levelo_inurba_marseille","lat":43.30787,"lon":5.37644,"is_reserved":false,"is_disabled":false,"rental_uris":{"android":"levelo://app?vid=4d7e5939-68d5-4c48-82dc-82ded86b797f","ios":"levelo://app?vid=4d7e5939-68d5-4c48-82dc-82ded86b797f"},"vehicle_type_id":"4","last_reported":1771215194,"current_range_meters":24800,"station_id":"ce4bgv92rcd13ifvqcq0","pricing_plan_id":"cebpf4jnsgd1na2vs0mg"},{"bike_id":"d639211d-aaf1-4624-82a8-69cd6e860d35","system_id":"levelo_inurba_marseille","lat":43.28474,"lon":5.48394,"is_reserved":false,"is_disabled":false,"rental_uris":{"android":"levelo://app?vid=d639211d-aaf1-4624-82a8-69cd6e860d35","ios":"levelo://app?vid=d639211d-aaf1-4624-82a8-69cd6e860d35"},"vehicle_type_id":"4","last_reported":1771215194,"current_range_meters":36000,"station_id":"st_d3svhcjqgbts73a3dn0g","pricing_plan_id":"cebpf4jnsgd1na2vs0mg"},{"bike_id":"5921a887-9a7a-4308-927c-167c45306256","system_id":"levelo_inurba_marseille","lat":43.271877,"lon":5.409723,"is_reserved":false,"is_disabled":true,"rental_uris":{"android":"levelo://app?vid=5921a887-9a7a-4308-927c-167c45306256","ios":"levelo://app?vid=5921a887-9a7a-4308-927c-167c45306256"},"vehicle_type_id":"4","last_reported":1771215194,"current_range_meters":39200,"station_id":"ce4bhl12rcd13ifvqgf0","pricing_plan_id":"cebpf4jnsgd1na2vs0mg"},{"bike_id":"cf07e6f1-dc12-49c3-b328-c7bc76c7a3a8","system_id":"levelo_inurba_marseille","lat":43.29542,"lon":5.37502,"is_reserved":false,"is_disabled":false,"rental_uris":{"android":"levelo://app?vid=cf07e6f1-dc12-49c3-b328-c7bc76c7a3a8","ios":"levelo://app?vid=cf07e6f1-dc12-49c3-b328-c7bc76c7a3a8"},"vehicle_type_id":"4","last_reported":1771215194,"current_range_meters":13600,"station_id":"ce4bgkp2rcd13ifvqbmg","pricing_plan_id":"cebpf4jnsgd1na2vs0mg"},{"bike_id":"c7f2ec22-a521-426d-8fc1-fe462d2718e7","system_id":"levelo_inurba_marseille","lat":43.22533,"lon":5.41563,"is_reserved":false,"is_disabled":false,"rental_uris":{"android":"levelo://app?vid=c7f2ec22-a521-426d-8fc1-fe462d2718e7","ios":"levelo://app?vid=c7f2ec22-a521-426d-8fc1-fe462d2718e7"},"vehicle_type_id":"4","last_reported":1771215194,"current_range_meters":11200,"station_id":"st_d2o4gvlbi1j2169b742g","pricing_plan_id":"cebpf4jnsgd1na2vs0mg"},{"bike_id":"81dc3211-2d32-43a3-ab66-e02093023e2f","system_id":"levelo_inurba_marseille","lat":43.28418,"lon":5.34966,"is_reserved":false,"is_disabled":false,"rental_uris":{"android":"levelo://app?vid=81dc3211-2d32-43a3-ab66-e02093023e2f","ios":"levelo://app?vid=81dc3211-2d32-43a3-ab66-e02093023e2f"},"vehicle_type_id":"4","last_reported":1771215194,"current_range_meters":13600,"station_id":"ce4bhbh2rcd13ifvqepg","pricing_plan_id":"cebpf4jnsgd1na2vs0mg"},{"bike_id":"ffbcee65-c3be-4386-a52a-63e319323d4c","system_id":"levelo_inurba_marseille","lat":43.31124,"lon":5.3775,"is_reserved":false,"is_disabled":false,"rental_uris":{"android":"levelo://app?vid=ffbcee65-c3be-4386-a52a-63e319323d4c","ios":"levelo://app?vid=ffbcee65-c3be-4386-a52a-63e319323d4c"},"vehicle_type_id":"4","last_reported":1771215194,"current_range_meters":8400,"station_id":"ce4bgt92rcd13ifvqcg0","pricing_plan_id":"cebpf4jnsgd1na2vs0mg"},{"bike_id":"d004dfa6-5530-4c78-aa84-86af20db8f46","system_id":"levelo_inurba_marseille","lat":43.30972,"lon":5.39044,"is_reserved":false,"is_disabled":true,"rental_uris":{"android":"levelo://app?vid=d004dfa6-5530-4c78-aa84-86af20db8f46","ios":"levelo://app?vid=d004dfa6-5530-4c78-aa84-86af20db8f46"},"vehicle_type_id":"4","last_reported":1771215194,"current_range_meters":26000,"station_id":"ce4bgup2rcd13ifvqco0","pricing_plan_id":"cebpf4jnsgd1na2vs0mg"},{"bike_id":"4917de06-3508-4544-8b95-fea56f697f79","system_id":"levelo_inurba_marseille","lat":43.311693,"lon":5.387191,"is_reserved":false,"is_disabled":false,"rental_uris":{"android":"levelo://app?vid=4917de06-3508-4544-8b95-fea56f697f79","ios":"levelo://app?vid=4917de06-3508-4544-8b95-fea56f697f79"},"vehicle_type_id":"4","last_reported":1771215194,"current_range_meters":32800,"station_id":"ce4bgv12rcd13ifvqcp0","pricing_plan_id":"cebpf4jnsgd1na2vs0mg"},{"bike_id":"351646d3-8bcf-4593-bb65-8110e47385d9","system_id":"levelo_inurba_marseille","lat":43.30306,"lon":5.36886,"is_reserved":false,"is_disabled":false,"rental_uris":{"android":"levelo://app?vid=351646d3-8bcf-4593-bb65-8110e47385d9","ios":"levelo://app?vid=351646d3-8bcf-4593-bb65-8110e47385d9"},"vehicle_type_id":"4","last_reported":1771215194,"current_range_meters":30400,"station_id":"ce4bgqh2rcd13ifvqc5g","pricing_plan_id":"cebpf4jnsgd1na2vs0mg"},{"bike_id":"d4c65e86-e8ab-44ba-a8a9-8e759dc3c54f","system_id":"levelo_inurba_marseille","lat":43.29196,"lon":5.358,"is_reserved":false,"is_disabled":false,"rental_uris":{"android":"levelo://app?vid=d4c65e86-e8ab-44ba-a8a9-8e759dc3c54f","ios":"levelo://app?vid=d4c65e86-e8ab-44ba-a8a9-8e759dc3c54f"},"vehicle_type_id":"4","last_reported":1771215194,"current_range_meters":38800,"station_id":"ce4bhb12rcd13ifvqel0","pricing_plan_id":"cebpf4jnsgd1na2vs0mg"},{"bike_id":"f95cebf1-b890-4def-98c1-4baa02780713","system_id":"levelo_inurba_marseille","lat":43.25254,"lon":5.42388,"is_reserved":false,"is_disabled":false,"rental_uris":{"android":"levelo://app?vid=f95cebf1-b890-4def-98c1-4baa02780713","ios":"levelo://app?vid=f95cebf1-b890-4def-98c1-4baa02780713"},"vehicle_type_id":"4","last_reported":1771215194,"current_range_meters":10800,"station_id":"","pricing_plan_id":"cebpf4jnsgd1na2vs0mg"},{"bike_id":"22eb71bc-c666-42cd-a133-d91bdf7e2451","system_id":"levelo_inurba_marseille","lat":43.312301,"lon":5.368598,"is_reserved":false,"is_disabled":false,"rental_uris":{"android":"levelo://app?vid=22eb71bc-c666-42cd-a133-d91bdf7e2451","ios":"levelo://app?vid=22eb71bc-c666-42cd-a133-d91bdf7e2451"},"vehicle_type_id":"4","last_reported":1771215194,"current_range_meters":39200,"station_id":"ce4bgl92rcd13ifvqbq0","pricing_plan_id":"cebpf4jnsgd1na2vs0mg"},{"bike_id":"d8f143af-6d2e-4fc8-967f-197f26152df7","system_id":"levelo_inurba_marseille","lat":43.286666,"lon":5.363524,"is_reserved":false,"is_disabled":false,"rental_uris":{"android":"levelo://app?vid=d8f143af-6d2e-4fc8-967f-197f26152df7","ios":"levelo://app?vid=d8f143af-6d2e-4fc8-967f-197f26152df7"},"vehicle_type_id":"4","last_reported":1771215194,"current_range_meters":38000,"station_id":"ce4bhah2rcd13ifvqej0","pricing_plan_id":"cebpf4jnsgd1na2vs0mg"},{"bike_id":"72ab149f-0aac-4a82-8892-5126bebf5df6","system_id":"levelo_inurba_marseille","lat":43.22927,"lon":5.35366,"is_reserved":false,"is_disabled":true,"rental_uris":{"android":"levelo://app?vid=72ab149f-0aac-4a82-8892-5126bebf5df6","ios":"levelo://app?vid=72ab149f-0aac-4a82-8892-5126bebf5df6"},"vehicle_type_id":"4","last_reported":1771215194,"current_range_meters":2000,"station_id":"cpo3532slgdg3j2ikp40","pricing_plan_id":"cebpf4jnsgd1na2vs0mg"},{"bike_id":"8b646e00-7bba-4da6-8895-adf04a375813","system_id":"levelo_inurba_marseille","lat":43.27174,"lon":5.409948,"is_reserved":false,"is_disabled":false,"rental_uris":{"android":"levelo://app?vid=8b646e00-7bba-4da6-8895-adf04a375813","ios":"levelo://app?vid=8b646e00-7bba-4da6-8895-adf04a375813"},"vehicle_type_id":"4","last_reported":1771215194,"current_range_meters":39200,"station_id":"ce4bhl12rcd13ifvqgf0","pricing_plan_id":"cebpf4jnsgd1na2vs0mg"},{"bike_id":"665dfa78-442d-48aa-856d-24e1743781b1","system_id":"levelo_inurba_marseille","lat":43.24652,"lon":5.38167,"is_reserved":false,"is_disabled":true,"rental_uris":{"android":"levelo://app?vid=665dfa78-442d-48aa-856d-24e1743781b1","ios":"levelo://app?vid=665dfa78-442d-48aa-856d-24e1743781b1"},"vehicle_type_id":"4","last_reported":1771215194,"current_range_meters":18800,"station_id":"ce4bhih2rcd13ifvqfr0","pricing_plan_id":"cebpf4jnsgd1na2vs0mg"},{"bike_id":"738fdc4b-6f95-4425-b86f-9c36e982b094","system_id":"levelo_inurba_marseille","lat":43.25331,"lon":5.42162,"is_reserved":false,"is_disabled":false,"rental_uris":{"android":"levelo://app?vid=738fdc4b-6f95-4425-b86f-9c36e982b094","ios":"levelo://app?vid=738fdc4b-6f95-4425-b86f-9c36e982b094"},"vehicle_type_id":"4","last_reported":1771215194,"current_range_meters":6400,"station_id":"st_d2m65c5bi1j21697t3ng","pricing_plan_id":"cebpf4jnsgd1na2vs0mg"},{"bike_id":"432e7e32-6010-4448-bdd1-fc46481bb221","system_id":"levelo_inurba_marseille","lat":43.33015,"lon":5.39009,"is_reserved":false,"is_disabled":false,"rental_uris":{"android":"levelo://app?vid=432e7e32-6010-4448-bdd1-fc46481bb221","ios":"levelo://app?vid=432e7e32-6010-4448-bdd1-fc46481bb221"},"vehicle_type_id":"4","last_reported":1771215194,"current_range_meters":8800,"station_id":"ce4bhr92rcd13ifvqhrg","pricing_plan_id":"cebpf4jnsgd1na2vs0mg"},{"bike_id":"ab099b5d-a36c-4b39-b54f-8fdad1227588","system_id":"levelo_inurba_marseille","lat":43.31059,"lon":5.37186,"is_reserved":false,"is_disabled":false,"rental_uris":{"android":"levelo://app?vid=ab099b5d-a36c-4b39-b54f-8fdad1227588","ios":"levelo://app?vid=ab099b5d-a36c-4b39-b54f-8fdad1227588"},"vehicle_type_id":"4","last_reported":1771215194,"current_range_meters":9200,"station_id":"st_d4kl2rp97mjs73e7tdfg","pricing_plan_id":"cebpf4jnsgd1na2vs0mg"},{"bike_id":"bd6611ce-f7cd-494c-a774-4a5ac620e401","system_id":"levelo_inurba_marseille","lat":43.282793,"lon":5.350606,"is_reserved":false,"is_disabled":true,"rental_uris":{"android":"levelo://app?vid=bd6611ce-f7cd-494c-a774-4a5ac620e401","ios":"levelo://app?vid=bd6611ce-f7cd-494c-a774-4a5ac620e401"},"vehicle_type_id":"4","last_reported":1771215194,"current_range_meters":39200,"station_id":"ce4bhbp2rcd13ifvqerg","pricing_plan_id":"cebpf4jnsgd1na2vs0mg"},{"bike_id":"79940efd-f3aa-4357-8af9-4d1ab3834721","system_id":"levelo_inurba_marseille","lat":43.30447,"lon":5.38873,"is_reserved":false,"is_disabled":true,"rental_uris":{"android":"levelo://app?vid=79940efd-f3aa-4357-8af9-4d1ab3834721","ios":"levelo://app?vid=79940efd-f3aa-4357-8af9-4d1ab3834721"},"vehicle_type_id":"4","last_reported":1771215194,"current_range_meters":16400,"station_id":"ce4bgk12rcd13ifvqbi0","pricing_plan_id":"cebpf4jnsgd1na2vs0mg"},{"bike_id":"105a098b-9265-4075-a3f0-0a756d485350","system_id":"levelo_inurba_marseille","lat":43.30239,"lon":5.4004,"is_reserved":false,"is_disabled":true,"rental_uris":{"android":"levelo://app?vid=105a098b-9265-4075-a3f0-0a756d485350","ios":"levelo://app?vid=105a098b-9265-4075-a3f0-0a756d485350"},"vehicle_type_id":"4","last_reported":1771215194,"current_range_meters":27600,"station_id":"ce4bgvh2rcd13ifvqcs0","pricing_plan_id":"cebpf4jnsgd1na2vs0mg"},{"bike_id":"e7688ec7-edc3-4d8b-92e4-39b81d4304fb","system_id":"levelo_inurba_marseille","lat":43.29566,"lon":5.37527,"is_reserved":false,"is_disabled":false,"rental_uris":{"android":"levelo://app?vid=e7688ec7-edc3-4d8b-92e4-39b81d4304fb","ios":"levelo://app?vid=e7688ec7-edc3-4d8b-92e4-39b81d4304fb"},"vehicle_type_id":"4","last_reported":1771215194,"current_range_meters":32000,"station_id":"ce4bgh92rcd13ifvqb50","pricing_plan_id":"cebpf4jnsgd1na2vs0mg"},{"bike_id":"d73316b1-23c9-49c2-9093-cb7ff652f4e9","system_id":"levelo_inurba_marseille","lat":43.26937,"lon":5.38912,"is_reserved":false,"is_disabled":false,"rental_uris":{"android":"levelo://app?vid=d73316b1-23c9-49c2-9093-cb7ff652f4e9","ios":"levelo://app?vid=d73316b1-23c9-49c2-9093-cb7ff652f4e9"},"vehicle_type_id":"4","last_reported":1771215194,"current_range_meters":38000,"station_id":"ce4bhhh2rcd13ifvqfl0","pricing_plan_id":"cebpf4jnsgd1na2vs0mg"},{"bike_id":"b848b13f-a5a8-497c-bf73-42ffb911f77e","system_id":"levelo_inurba_marseille","lat":43.28476,"lon":5.48402,"is_reserved":false,"is_disabled":false,"rental_uris":{"android":"levelo://app?vid=b848b13f-a5a8-497c-bf73-42ffb911f77e","ios":"levelo://app?vid=b848b13f-a5a8-497c-bf73-42ffb911f77e"},"vehicle_type_id":"4","last_reported":1771215194,"current_range_meters":22400,"station_id":"st_d3svhcjqgbts73a3dn0g","pricing_plan_id":"cebpf4jnsgd1na2vs0mg"},{"bike_id":"ffca88d7-f232-4f6a-b002-c46bcf2da788","system_id":"levelo_inurba_marseille","lat":43.29569,"lon":5.37506,"is_reserved":false,"is_disabled":false,"rental_uris":{"android":"levelo://app?vid=ffca88d7-f232-4f6a-b002-c46bcf2da788","ios":"levelo://app?vid=ffca88d7-f232-4f6a-b002-c46bcf2da788"},"vehicle_type_id":"4","last_reported":1771215194,"current_range_meters":26800,"station_id":"ce4bgh92rcd13ifvqb50","pricing_plan_id":"cebpf4jnsgd1na2vs0mg"},{"bike_id":"d17032e2-9271-438c-b5e1-74386437894a","system_id":"levelo_inurba_marseille","lat":43.28851,"lon":5.39342,"is_reserved":false,"is_disabled":false,"rental_uris":{"android":"levelo://app?vid=d17032e2-9271-438c-b5e1-74386437894a","ios":"levelo://app?vid=d17032e2-9271-438c-b5e1-74386437894a"},"vehicle_type_id":"4","last_reported":1771215194,"current_range_meters":38000,"station_id":"ce4bh2p2rcd13ifvqdi0","pricing_plan_id":"cebpf4jnsgd1na2vs0mg"},{"bike_id":"c18594fb-3ea0-493e-9570-f1f8cca8409b","system_id":"levelo_inurba_marseille","lat":43.326615,"lon":5.409793,"is_reserved":false,"is_disabled":false,"rental_uris":{"android":"levelo://app?vid=c18594fb-3ea0-493e-9570-f1f8cca8409b","ios":"levelo://app?vid=c18594fb-3ea0-493e-9570-f1f8cca8409b"},"vehicle_type_id":"4","last_reported":1771215194,"current_range_meters":8400,"station_id":"ce4bhpp2rcd13ifvqhgg","pricing_plan_id":"cebpf4jnsgd1na2vs0mg"},{"bike_id":"68900e3c-5659-4e8f-8c7d-026d85b3a9ad","system_id":"levelo_inurba_marseille","lat":43.27318,"lon":5.390902,"is_reserved":false,"is_disabled":false,"rental_uris":{"android":"levelo://app?vid=68900e3c-5659-4e8f-8c7d-026d85b3a9ad","ios":"levelo://app?vid=68900e3c-5659-4e8f-8c7d-026d85b3a9ad"},"vehicle_type_id":"4","last_reported":1771215194,"current_range_meters":38400,"station_id":"ce4bhgp2rcd13ifvqfe0","pricing_plan_id":"cebpf4jnsgd1na2vs0mg"},{"bike_id":"a20361fa-695a-40fe-a30c-6ec341f0fe26","system_id":"levelo_inurba_marseille","lat":43.312493,"lon":5.368639,"is_reserved":false,"is_disabled":false,"rental_uris":{"android":"levelo://app?vid=a20361fa-695a-40fe-a30c-6ec341f0fe26","ios":"levelo://app?vid=a20361fa-695a-40fe-a30c-6ec341f0fe26"},"vehicle_type_id":"4","last_reported":1771215194,"current_range_meters":9200,"station_id":"ce4bgl92rcd13ifvqbq0","pricing_plan_id":"cebpf4jnsgd1na2vs0mg"},{"bike_id":"f0c99ff5-0c9f-4cb0-8a4a-dfd8e1d88b23","system_id":"levelo_inurba_marseille","lat":43.29216,"lon":5.39332,"is_reserved":false,"is_disabled":false,"rental_uris":{"android":"levelo://app?vid=f0c99ff5-0c9f-4cb0-8a4a-dfd8e1d88b23","ios":"levelo://app?vid=f0c99ff5-0c9f-4cb0-8a4a-dfd8e1d88b23"},"vehicle_type_id":"4","last_reported":1771215194,"current_range_meters":31200,"station_id":"ce4bh192rcd13ifvqdd0","pricing_plan_id":"cebpf4jnsgd1na2vs0mg"},{"bike_id":"906917e2-6216-4287-a573-df2ba4eeef3d","system_id":"levelo_inurba_marseille","lat":43.29004,"lon":5.35603,"is_reserved":false,"is_disabled":false,"rental_uris":{"android":"levelo://app?vid=906917e2-6216-4287-a573-df2ba4eeef3d","ios":"levelo://app?vid=906917e2-6216-4287-a573-df2ba4eeef3d"},"vehicle_type_id":"4","last_reported":1771215194,"current_range_meters":35600,"station_id":"ce4bhb92rcd13ifvqen0","pricing_plan_id":"cebpf4jnsgd1na2vs0mg"},{"bike_id":"e888998d-3079-4932-85a5-aa3d01763fcb","system_id":"levelo_inurba_marseille","lat":43.323632,"lon":5.388804,"is_reserved":false,"is_disabled":false,"rental_uris":{"android":"levelo://app?vid=e888998d-3079-4932-85a5-aa3d01763fcb","ios":"levelo://app?vid=e888998d-3079-4932-85a5-aa3d01763fcb"},"vehicle_type_id":"4","last_reported":1771215194,"current_range_meters":30800,"station_id":"ce4bhqp2rcd13ifvqhog","pricing_plan_id":"cebpf4jnsgd1na2vs0mg"},{"bike_id":"b76fd092-1c88-40df-bb5e-47cd15f31b5b","system_id":"levelo_inurba_marseille","lat":43.265843,"lon":5.39046,"is_reserved":false,"is_disabled":false,"rental_uris":{"android":"levelo://app?vid=b76fd092-1c88-40df-bb5e-47cd15f31b5b","ios":"levelo://app?vid=b76fd092-1c88-40df-bb5e-47cd15f31b5b"},"vehicle_type_id":"4","last_reported":1771215194,"current_range_meters":6000,"station_id":"ce4bhe12rcd13ifvqf30","pricing_plan_id":"cebpf4jnsgd1na2vs0mg"},{"bike_id":"14096945-3ed2-4921-943f-a03af03f353e","system_id":"levelo_inurba_marseille","lat":43.255789,"lon":5.382317,"is_reserved":false,"is_disabled":false,"rental_uris":{"android":"levelo://app?vid=14096945-3ed2-4921-943f-a03af03f353e","ios":"levelo://app?vid=14096945-3ed2-4921-943f-a03af03f353e"},"vehicle_type_id":"4","last_reported":1771215194,"current_range_meters":27600,"station_id":"ce4bhih2rcd13ifvqfs0","pricing_plan_id":"cebpf4jnsgd1na2vs0mg"},{"bike_id":"059a96ab-edb7-42b8-8728-758861947c2e","system_id":"levelo_inurba_marseille","lat":43.26577,"lon":5.38997,"is_reserved":false,"is_disabled":false,"rental_uris":{"android":"levelo://app?vid=059a96ab-edb7-42b8-8728-758861947c2e","ios":"levelo://app?vid=059a96ab-edb7-42b8-8728-758861947c2e"},"vehicle_type_id":"4","last_reported":1771215194,"current_range_meters":6800,"station_id":"ce4bhe12rcd13ifvqf30","pricing_plan_id":"cebpf4jnsgd1na2vs0mg"},{"bike_id":"a61146ea-5261-4841-ba17-742a5abf0e82","system_id":"levelo_inurba_marseille","lat":43.31701,"lon":5.40441,"is_reserved":false,"is_disabled":false,"rental_uris":{"android":"levelo://app?vid=a61146ea-5261-4841-ba17-742a5abf0e82","ios":"levelo://app?vid=a61146ea-5261-4841-ba17-742a5abf0e82"},"vehicle_type_id":"4","last_reported":1771215194,"current_range_meters":18800,"station_id":"ce4bh012rcd13ifvqd00","pricing_plan_id":"cebpf4jnsgd1na2vs0mg"},{"bike_id":"ce999945-eae5-4774-947d-04567bf3fe13","system_id":"levelo_inurba_marseille","lat":43.29612,"lon":5.37731,"is_reserved":false,"is_disabled":false,"rental_uris":{"android":"levelo://app?vid=ce999945-eae5-4774-947d-04567bf3fe13","ios":"levelo://app?vid=ce999945-eae5-4774-947d-04567bf3fe13"},"vehicle_type_id":"4","last_reported":1771215194,"current_range_meters":28800,"station_id":"ce4bgi92rcd13ifvqb90","pricing_plan_id":"cebpf4jnsgd1na2vs0mg"},{"bike_id":"8dec5347-1be6-4152-8c8c-8bab081e0581","system_id":"levelo_inurba_marseille","lat":43.27414,"lon":5.39378,"is_reserved":false,"is_disabled":false,"rental_uris":{"android":"levelo://app?vid=8dec5347-1be6-4152-8c8c-8bab081e0581","ios":"levelo://app?vid=8dec5347-1be6-4152-8c8c-8bab081e0581"},"vehicle_type_id":"4","last_reported":1771215194,"current_range_meters":39200,"station_id":"ce4bhdp2rcd13ifvqf20","pricing_plan_id":"cebpf4jnsgd1na2vs0mg"},{"bike_id":"e2adddcc-49ff-4c92-9cab-bf4e055866de","system_id":"levelo_inurba_marseille","lat":43.30134,"lon":5.38768,"is_reserved":false,"is_disabled":false,"rental_uris":{"android":"levelo://app?vid=e2adddcc-49ff-4c92-9cab-bf4e055866de","ios":"levelo://app?vid=e2adddcc-49ff-4c92-9cab-bf4e055866de"},"vehicle_type_id":"4","last_reported":1771215194,"current_range_meters":38400,"station_id":"ce4bghh2rcd13ifvqb60","pricing_plan_id":"cebpf4jnsgd1na2vs0mg"},{"bike_id":"a1f4772c-94a4-4230-b4fd-d036b61b8790","system_id":"levelo_inurba_marseille","lat":43.31536,"lon":5.38032,"is_reserved":false,"is_disabled":false,"rental_uris":{"android":"levelo://app?vid=a1f4772c-94a4-4230-b4fd-d036b61b8790","ios":"levelo://app?vid=a1f4772c-94a4-4230-b4fd-d036b61b8790"},"vehicle_type_id":"4","last_reported":1771215194,"current_range_meters":32000,"station_id":"ce4bhsp2rcd13ifvqi50","pricing_plan_id":"cebpf4jnsgd1na2vs0mg"},{"bike_id":"f51fd9e4-af65-4d09-892d-f334009d31ab","system_id":"levelo_inurba_marseille","lat":43.293178,"lon":5.37164,"is_reserved":false,"is_disabled":false,"rental_uris":{"android":"levelo://app?vid=f51fd9e4-af65-4d09-892d-f334009d31ab","ios":"levelo://app?vid=f51fd9e4-af65-4d09-892d-f334009d31ab"},"vehicle_type_id":"4","last_reported":1771215194,"current_range_meters":39200,"station_id":"ce4bgh92rcd13ifvqb40","pricing_plan_id":"cebpf4jnsgd1na2vs0mg"},{"bike_id":"c9b76f97-4777-40f7-8438-ab341a9656e1","system_id":"levelo_inurba_marseille","lat":43.29832,"lon":5.3627,"is_reserved":false,"is_disabled":false,"rental_uris":{"android":"levelo://app?vid=c9b76f97-4777-40f7-8438-ab341a9656e1","ios":"levelo://app?vid=c9b76f97-4777-40f7-8438-ab341a9656e1"},"vehicle_type_id":"4","last_reported":1771215194,"current_range_meters":38000,"station_id":"ce4bgpp2rcd13ifvqc3g","pricing_plan_id":"cebpf4jnsgd1na2vs0mg"},{"bike_id":"319afcbb-1ae7-436f-8e3d-fad51764869b","system_id":"levelo_inurba_marseille","lat":43.29608,"lon":5.39787,"is_reserved":false,"is_disabled":false,"rental_uris":{"android":"levelo://app?vid=319afcbb-1ae7-436f-8e3d-fad51764869b","ios":"levelo://app?vid=319afcbb-1ae7-436f-8e3d-fad51764869b"},"vehicle_type_id":"4","last_reported":1771215194,"current_range_meters":28000,"station_id":"","pricing_plan_id":"cebpf4jnsgd1na2vs0mg"},{"bike_id":"ee2b5071-ed9e-4264-a26d-fa5dc69516d9","system_id":"levelo_inurba_marseille","lat":43.291986,"lon":5.357987,"is_reserved":false,"is_disabled":false,"rental_uris":{"android":"levelo://app?vid=ee2b5071-ed9e-4264-a26d-fa5dc69516d9","ios":"levelo://app?vid=ee2b5071-ed9e-4264-a26d-fa5dc69516d9"},"vehicle_type_id":"4","last_reported":1771215194,"current_range_meters":15200,"station_id":"ce4bhb12rcd13ifvqel0","pricing_plan_id":"cebpf4jnsgd1na2vs0mg"},{"bike_id":"ef9a4c1c-4d6f-4ed4-9c05-07b50fcf73eb","system_id":"levelo_inurba_marseille","lat":43.292962,"lon":5.371701,"is_reserved":false,"is_disabled":false,"rental_uris":{"android":"levelo://app?vid=ef9a4c1c-4d6f-4ed4-9c05-07b50fcf73eb","ios":"levelo://app?vid=ef9a4c1c-4d6f-4ed4-9c05-07b50fcf73eb"},"vehicle_type_id":"4","last_reported":1771215194,"current_range_meters":24400,"station_id":"ce4bgh92rcd13ifvqb40","pricing_plan_id":"cebpf4jnsgd1na2vs0mg"},{"bike_id":"196e509c-f0de-4ce9-b80b-e00a1cb9acd5","system_id":"levelo_inurba_marseille","lat":43.27975,"lon":5.41621,"is_reserved":false,"is_disabled":false,"rental_uris":{"android":"levelo://app?vid=196e509c-f0de-4ce9-b80b-e00a1cb9acd5","ios":"levelo://app?vid=196e509c-f0de-4ce9-b80b-e00a1cb9acd5"},"vehicle_type_id":"4","last_reported":1771215194,"current_range_meters":25200,"station_id":"ce4bho12rcd13ifvqh1g","pricing_plan_id":"cebpf4jnsgd1na2vs0mg"},{"bike_id":"6223d874-11a1-47c8-b2ab-2023cf487e09","system_id":"levelo_inurba_marseille","lat":43.30743,"lon":5.42457,"is_reserved":false,"is_disabled":false,"rental_uris":{"android":"levelo://app?vid=6223d874-11a1-47c8-b2ab-2023cf487e09","ios":"levelo://app?vid=6223d874-11a1-47c8-b2ab-2023cf487e09"},"vehicle_type_id":"4","last_reported":1771215194,"current_range_meters":24400,"station_id":"st_cvj6ca6bvosntc0bfgr0","pricing_plan_id":"cebpf4jnsgd1na2vs0mg"},{"bike_id":"18b069ad-cc52-4807-aeb7-a8b1dfae5cca","system_id":"levelo_inurba_marseille","lat":43.28426,"lon":5.34976,"is_reserved":false,"is_disabled":false,"rental_uris":{"android":"levelo://app?vid=18b069ad-cc52-4807-aeb7-a8b1dfae5cca","ios":"levelo://app?vid=18b069ad-cc52-4807-aeb7-a8b1dfae5cca"},"vehicle_type_id":"4","last_reported":1771215194,"current_range_meters":8400,"station_id":"ce4bhbh2rcd13ifvqepg","pricing_plan_id":"cebpf4jnsgd1na2vs0mg"},{"bike_id":"6e11d61f-736e-44d6-8cb6-6a6277c88ca3","system_id":"levelo_inurba_marseille","lat":43.31732,"lon":5.42398,"is_reserved":false,"is_disabled":false,"rental_uris":{"android":"levelo://app?vid=6e11d61f-736e-44d6-8cb6-6a6277c88ca3","ios":"levelo://app?vid=6e11d61f-736e-44d6-8cb6-6a6277c88ca3"},"vehicle_type_id":"4","last_reported":1771215194,"current_range_meters":38000,"station_id":"ce4bhp92rcd13ifvqhbg","pricing_plan_id":"cebpf4jnsgd1na2vs0mg"},{"bike_id":"0e66aa4c-3a97-4c67-a0f2-a79cfce28b17","system_id":"levelo_inurba_marseille","lat":43.292898,"lon":5.408888,"is_reserved":false,"is_disabled":false,"rental_uris":{"android":"levelo://app?vid=0e66aa4c-3a97-4c67-a0f2-a79cfce28b17","ios":"levelo://app?vid=0e66aa4c-3a97-4c67-a0f2-a79cfce28b17"},"vehicle_type_id":"4","last_reported":1771215194,"current_range_meters":6400,"station_id":"ce4bh192rcd13ifvqdc0","pricing_plan_id":"cebpf4jnsgd1na2vs0mg"},{"bike_id":"4bf5d87f-0d7d-48a2-8730-0545ccb21e24","system_id":"levelo_inurba_marseille","lat":43.311138,"lon":5.377646,"is_reserved":false,"is_disabled":false,"rental_uris":{"android":"levelo://app?vid=4bf5d87f-0d7d-48a2-8730-0545ccb21e24","ios":"levelo://app?vid=4bf5d87f-0d7d-48a2-8730-0545ccb21e24"},"vehicle_type_id":"4","last_reported":1771215194,"current_range_meters":38800,"station_id":"ce4bgt92rcd13ifvqcg0","pricing_plan_id":"cebpf4jnsgd1na2vs0mg"},{"bike_id":"bd956f18-ea7f-4e29-aac9-ae9da008943d","system_id":"levelo_inurba_marseille","lat":43.31036,"lon":5.4019,"is_reserved":false,"is_disabled":true,"rental_uris":{"android":"levelo://app?vid=bd956f18-ea7f-4e29-aac9-ae9da008943d","ios":"levelo://app?vid=bd956f18-ea7f-4e29-aac9-ae9da008943d"},"vehicle_type_id":"4","last_reported":1771215194,"current_range_meters":0,"station_id":"","pricing_plan_id":"cebpf4jnsgd1na2vs0mg"},{"bike_id":"74e196c3-e76c-42be-b5a3-4a90969ea354","system_id":"levelo_inurba_marseille","lat":43.307979,"lon":5.381543,"is_reserved":false,"is_disabled":false,"rental_uris":{"android":"levelo://app?vid=74e196c3-e76c-42be-b5a3-4a90969ea354","ios":"levelo://app?vid=74e196c3-e76c-42be-b5a3-4a90969ea354"},"vehicle_type_id":"4","last_reported":1771215194,"current_range_meters":19200,"station_id":"ce4bgt12rcd13ifvqce0","pricing_plan_id":"cebpf4jnsgd1na2vs0mg"},{"bike_id":"2cd01f2a-87c0-475e-abe0-4e4ea7256856","system_id":"levelo_inurba_marseille","lat":43.288525,"lon":5.3584,"is_reserved":false,"is_disabled":false,"rental_uris":{"android":"levelo://app?vid=2cd01f2a-87c0-475e-abe0-4e4ea7256856","ios":"levelo://app?vid=2cd01f2a-87c0-475e-abe0-4e4ea7256856"},"vehicle_type_id":"4","last_reported":1771215194,"current_range_meters":37600,"station_id":"ce4bhb12rcd13ifvqem0","pricing_plan_id":"cebpf4jnsgd1na2vs0mg"},{"bike_id":"303b4144-16be-4c28-a25b-80abad99aab4","system_id":"levelo_inurba_marseille","lat":43.29276,"lon":5.36833,"is_reserved":false,"is_disabled":false,"rental_uris":{"android":"levelo://app?vid=303b4144-16be-4c28-a25b-80abad99aab4","ios":"levelo://app?vid=303b4144-16be-4c28-a25b-80abad99aab4"},"vehicle_type_id":"4","last_reported":1771215194,"current_range_meters":30000,"station_id":"ce4bhbp2rcd13ifvqesg","pricing_plan_id":"cebpf4jnsgd1na2vs0mg"},{"bike_id":"def18f0f-95c4-486a-9942-9dddc1a97af2","system_id":"levelo_inurba_marseille","lat":43.29227,"lon":5.36045,"is_reserved":false,"is_disabled":false,"rental_uris":{"android":"levelo://app?vid=def18f0f-95c4-486a-9942-9dddc1a97af2","ios":"levelo://app?vid=def18f0f-95c4-486a-9942-9dddc1a97af2"},"vehicle_type_id":"4","last_reported":1771215194,"current_range_meters":39200,"station_id":"ce4bhbh2rcd13ifvqeqg","pricing_plan_id":"cebpf4jnsgd1na2vs0mg"},{"bike_id":"eea61ef8-a327-4dc2-8365-cc3ec10beb2f","system_id":"levelo_inurba_marseille","lat":43.270714,"lon":5.383089,"is_reserved":false,"is_disabled":false,"rental_uris":{"android":"levelo://app?vid=eea61ef8-a327-4dc2-8365-cc3ec10beb2f","ios":"levelo://app?vid=eea61ef8-a327-4dc2-8365-cc3ec10beb2f"},"vehicle_type_id":"4","last_reported":1771215194,"current_range_meters":30800,"station_id":"st_d3n2fo6cfp8s73cte1j0","pricing_plan_id":"cebpf4jnsgd1na2vs0mg"},{"bike_id":"d2ed726d-49b0-4277-8a21-0f15f6cd9ff9","system_id":"levelo_inurba_marseille","lat":43.27492,"lon":5.42447,"is_reserved":false,"is_disabled":false,"rental_uris":{"android":"levelo://app?vid=d2ed726d-49b0-4277-8a21-0f15f6cd9ff9","ios":"levelo://app?vid=d2ed726d-49b0-4277-8a21-0f15f6cd9ff9"},"vehicle_type_id":"4","last_reported":1771215194,"current_range_meters":19200,"station_id":"ce4bhn92rcd13ifvqgrg","pricing_plan_id":"cebpf4jnsgd1na2vs0mg"},{"bike_id":"d0af0967-4f64-45d2-aeab-b15286d65704","system_id":"levelo_inurba_marseille","lat":43.33125,"lon":5.39271,"is_reserved":false,"is_disabled":false,"rental_uris":{"android":"levelo://app?vid=d0af0967-4f64-45d2-aeab-b15286d65704","ios":"levelo://app?vid=d0af0967-4f64-45d2-aeab-b15286d65704"},"vehicle_type_id":"4","last_reported":1771215194,"current_range_meters":27200,"station_id":"","pricing_plan_id":"cebpf4jnsgd1na2vs0mg"},{"bike_id":"7c11e683-0ef8-4bac-8048-16f7653ced54","system_id":"levelo_inurba_marseille","lat":43.286189,"lon":5.351008,"is_reserved":false,"is_disabled":false,"rental_uris":{"android":"levelo://app?vid=7c11e683-0ef8-4bac-8048-16f7653ced54","ios":"levelo://app?vid=7c11e683-0ef8-4bac-8048-16f7653ced54"},"vehicle_type_id":"4","last_reported":1771215194,"current_range_meters":17600,"station_id":"ce4bhch2rcd13ifvqeug","pricing_plan_id":"cebpf4jnsgd1na2vs0mg"},{"bike_id":"4932e24b-f2ef-4e1d-8d26-86e9c422ae44","system_id":"levelo_inurba_marseille","lat":43.32116,"lon":5.36764,"is_reserved":false,"is_disabled":false,"rental_uris":{"android":"levelo://app?vid=4932e24b-f2ef-4e1d-8d26-86e9c422ae44","ios":"levelo://app?vid=4932e24b-f2ef-4e1d-8d26-86e9c422ae44"},"vehicle_type_id":"4","last_reported":1771215194,"current_range_meters":27600,"station_id":"ce4bhrh2rcd13ifvqhug","pricing_plan_id":"cebpf4jnsgd1na2vs0mg"},{"bike_id":"eb8a0d82-49cc-40fe-a290-5fc61d7b658d","system_id":"levelo_inurba_marseille","lat":43.28087,"lon":5.39638,"is_reserved":false,"is_disabled":false,"rental_uris":{"android":"levelo://app?vid=eb8a0d82-49cc-40fe-a290-5fc61d7b658d","ios":"levelo://app?vid=eb8a0d82-49cc-40fe-a290-5fc61d7b658d"},"vehicle_type_id":"4","last_reported":1771215194,"current_range_meters":38400,"station_id":"ce4bho12rcd13ifvqh2g","pricing_plan_id":"cebpf4jnsgd1na2vs0mg"},{"bike_id":"6badc4ce-cdc4-46f9-b508-f0ecdc60adbb","system_id":"levelo_inurba_marseille","lat":43.29189,"lon":5.35812,"is_reserved":false,"is_disabled":false,"rental_uris":{"android":"levelo://app?vid=6badc4ce-cdc4-46f9-b508-f0ecdc60adbb","ios":"levelo://app?vid=6badc4ce-cdc4-46f9-b508-f0ecdc60adbb"},"vehicle_type_id":"4","last_reported":1771215194,"current_range_meters":19200,"station_id":"ce4bhb12rcd13ifvqel0","pricing_plan_id":"cebpf4jnsgd1na2vs0mg"},{"bike_id":"06b0e8ea-5721-4b06-a488-b9703e22c1ac","system_id":"levelo_inurba_marseille","lat":43.286153,"lon":5.351041,"is_reserved":false,"is_disabled":false,"rental_uris":{"android":"levelo://app?vid=06b0e8ea-5721-4b06-a488-b9703e22c1ac","ios":"levelo://app?vid=06b0e8ea-5721-4b06-a488-b9703e22c1ac"},"vehicle_type_id":"4","last_reported":1771215194,"current_range_meters":4800,"station_id":"ce4bhch2rcd13ifvqeug","pricing_plan_id":"cebpf4jnsgd1na2vs0mg"},{"bike_id":"616b704e-7d16-4e17-a28f-67c31fbd5cd3","system_id":"levelo_inurba_marseille","lat":43.3091,"lon":5.3685,"is_reserved":false,"is_disabled":false,"rental_uris":{"android":"levelo://app?vid=616b704e-7d16-4e17-a28f-67c31fbd5cd3","ios":"levelo://app?vid=616b704e-7d16-4e17-a28f-67c31fbd5cd3"},"vehicle_type_id":"4","last_reported":1771215194,"current_range_meters":34000,"station_id":"ce4bgn92rcd13ifvqbvg","pricing_plan_id":"cebpf4jnsgd1na2vs0mg"},{"bike_id":"69a5f821-2d1f-44c1-922e-e7da0040f513","system_id":"levelo_inurba_marseille","lat":43.31499,"lon":5.37305,"is_reserved":false,"is_disabled":false,"rental_uris":{"android":"levelo://app?vid=69a5f821-2d1f-44c1-922e-e7da0040f513","ios":"levelo://app?vid=69a5f821-2d1f-44c1-922e-e7da0040f513"},"vehicle_type_id":"4","last_reported":1771215194,"current_range_meters":38800,"station_id":"ce4bgt12rcd13ifvqcd0","pricing_plan_id":"cebpf4jnsgd1na2vs0mg"},{"bike_id":"bd0e99a1-4162-41ae-b356-8cc729f7fd82","system_id":"levelo_inurba_marseille","lat":43.23963,"lon":5.36629,"is_reserved":false,"is_disabled":false,"rental_uris":{"android":"levelo://app?vid=bd0e99a1-4162-41ae-b356-8cc729f7fd82","ios":"levelo://app?vid=bd0e99a1-4162-41ae-b356-8cc729f7fd82"},"vehicle_type_id":"4","last_reported":1771215194,"current_range_meters":10000,"station_id":"ce4bhi12rcd13ifvqfp0","pricing_plan_id":"cebpf4jnsgd1na2vs0mg"},{"bike_id":"3d69156c-572f-4b50-bfc8-dd5d9f6e75cc","system_id":"levelo_inurba_marseille","lat":43.25087,"lon":5.39516,"is_reserved":false,"is_disabled":true,"rental_uris":{"android":"levelo://app?vid=3d69156c-572f-4b50-bfc8-dd5d9f6e75cc","ios":"levelo://app?vid=3d69156c-572f-4b50-bfc8-dd5d9f6e75cc"},"vehicle_type_id":"4","last_reported":1771215194,"current_range_meters":9600,"station_id":"ce4bhm12rcd13ifvqgkg","pricing_plan_id":"cebpf4jnsgd1na2vs0mg"},{"bike_id":"fd76e098-63f4-492b-a459-89bd3be608cb","system_id":"levelo_inurba_marseille","lat":43.24546,"lon":5.39526,"is_reserved":false,"is_disabled":false,"rental_uris":{"android":"levelo://app?vid=fd76e098-63f4-492b-a459-89bd3be608cb","ios":"levelo://app?vid=fd76e098-63f4-492b-a459-89bd3be608cb"},"vehicle_type_id":"4","last_reported":1771215194,"current_range_meters":36800,"station_id":"ce4bhlp2rcd13ifvqgjg","pricing_plan_id":"cebpf4jnsgd1na2vs0mg"},{"bike_id":"5dfa813e-f9ca-45a6-9eda-c32bff3eea66","system_id":"levelo_inurba_marseille","lat":43.24391,"lon":5.370506,"is_reserved":false,"is_disabled":false,"rental_uris":{"android":"levelo://app?vid=5dfa813e-f9ca-45a6-9eda-c32bff3eea66","ios":"levelo://app?vid=5dfa813e-f9ca-45a6-9eda-c32bff3eea66"},"vehicle_type_id":"4","last_reported":1771215194,"current_range_meters":27600,"station_id":"ce4bhhh2rcd13ifvqfk0","pricing_plan_id":"cebpf4jnsgd1na2vs0mg"},{"bike_id":"7e5392f3-a67b-424e-a0c9-2a977c447c25","system_id":"levelo_inurba_marseille","lat":43.24077,"lon":5.37746,"is_reserved":false,"is_disabled":false,"rental_uris":{"android":"levelo://app?vid=7e5392f3-a67b-424e-a0c9-2a977c447c25","ios":"levelo://app?vid=7e5392f3-a67b-424e-a0c9-2a977c447c25"},"vehicle_type_id":"4","last_reported":1771215194,"current_range_meters":25200,"station_id":"ce4bhnp2rcd13ifvqgvg","pricing_plan_id":"cebpf4jnsgd1na2vs0mg"},{"bike_id":"934f790d-76eb-4645-b594-378370de8196","system_id":"levelo_inurba_marseille","lat":43.30156,"lon":5.38051,"is_reserved":false,"is_disabled":false,"rental_uris":{"android":"levelo://app?vid=934f790d-76eb-4645-b594-378370de8196","ios":"levelo://app?vid=934f790d-76eb-4645-b594-378370de8196"},"vehicle_type_id":"4","last_reported":1771215194,"current_range_meters":39200,"station_id":"ce4bgjp2rcd13ifvqbh0","pricing_plan_id":"cebpf4jnsgd1na2vs0mg"},{"bike_id":"b46161f1-e7ec-4cb9-92f2-dc2b4e46716b","system_id":"levelo_inurba_marseille","lat":43.305454,"lon":5.365226,"is_reserved":false,"is_disabled":false,"rental_uris":{"android":"levelo://app?vid=b46161f1-e7ec-4cb9-92f2-dc2b4e46716b","ios":"levelo://app?vid=b46161f1-e7ec-4cb9-92f2-dc2b4e46716b"},"vehicle_type_id":"4","last_reported":1771215194,"current_range_meters":14000,"station_id":"ce4bgs12rcd13ifvqcag","pricing_plan_id":"cebpf4jnsgd1na2vs0mg"},{"bike_id":"821fb0be-7499-4473-8aa4-d25dd4bfdb68","system_id":"levelo_inurba_marseille","lat":43.26944,"lon":5.38635,"is_reserved":false,"is_disabled":true,"rental_uris":{"android":"levelo://app?vid=821fb0be-7499-4473-8aa4-d25dd4bfdb68","ios":"levelo://app?vid=821fb0be-7499-4473-8aa4-d25dd4bfdb68"},"vehicle_type_id":"4","last_reported":1771215194,"current_range_meters":30800,"station_id":"ce4bhh92rcd13ifvqfh0","pricing_plan_id":"cebpf4jnsgd1na2vs0mg"},{"bike_id":"3901a57d-e639-4d0d-b693-28dc68c1b94f","system_id":"levelo_inurba_marseille","lat":43.2407,"lon":5.37756,"is_reserved":false,"is_disabled":false,"rental_uris":{"android":"levelo://app?vid=3901a57d-e639-4d0d-b693-28dc68c1b94f","ios":"levelo://app?vid=3901a57d-e639-4d0d-b693-28dc68c1b94f"},"vehicle_type_id":"4","last_reported":1771215194,"current_range_meters":32800,"station_id":"ce4bhnp2rcd13ifvqgvg","pricing_plan_id":"cebpf4jnsgd1na2vs0mg"},{"bike_id":"aab1f510-8226-43d7-a5c8-ac2808d65c0b","system_id":"levelo_inurba_marseille","lat":43.27212,"lon":5.40967,"is_reserved":false,"is_disabled":false,"rental_uris":{"android":"levelo://app?vid=aab1f510-8226-43d7-a5c8-ac2808d65c0b","ios":"levelo://app?vid=aab1f510-8226-43d7-a5c8-ac2808d65c0b"},"vehicle_type_id":"4","last_reported":1771215194,"current_range_meters":26800,"station_id":"","pricing_plan_id":"cebpf4jnsgd1na2vs0mg"},{"bike_id":"66c6f93c-a08b-4071-82ef-3029409742dd","system_id":"levelo_inurba_marseille","lat":43.2956,"lon":5.37501,"is_reserved":false,"is_disabled":false,"rental_uris":{"android":"levelo://app?vid=66c6f93c-a08b-4071-82ef-3029409742dd","ios":"levelo://app?vid=66c6f93c-a08b-4071-82ef-3029409742dd"},"vehicle_type_id":"4","last_reported":1771215194,"current_range_meters":12000,"station_id":"ce4bgh92rcd13ifvqb50","pricing_plan_id":"cebpf4jnsgd1na2vs0mg"},{"bike_id":"2935ebea-effa-4616-930e-e1220b0e4ce0","system_id":"levelo_inurba_marseille","lat":43.28702,"lon":5.37404,"is_reserved":false,"is_disabled":false,"rental_uris":{"android":"levelo://app?vid=2935ebea-effa-4616-930e-e1220b0e4ce0","ios":"levelo://app?vid=2935ebea-effa-4616-930e-e1220b0e4ce0"},"vehicle_type_id":"4","last_reported":1771215194,"current_range_meters":37600,"station_id":"ce4bh3p2rcd13ifvqdq0","pricing_plan_id":"cebpf4jnsgd1na2vs0mg"},{"bike_id":"9f09070f-e097-4b74-98ad-aa6af97315f7","system_id":"levelo_inurba_marseille","lat":43.25853,"lon":5.39914,"is_reserved":false,"is_disabled":false,"rental_uris":{"android":"levelo://app?vid=9f09070f-e097-4b74-98ad-aa6af97315f7","ios":"levelo://app?vid=9f09070f-e097-4b74-98ad-aa6af97315f7"},"vehicle_type_id":"4","last_reported":1771215194,"current_range_meters":30000,"station_id":"ce4bhl92rcd13ifvqghg","pricing_plan_id":"cebpf4jnsgd1na2vs0mg"},{"bike_id":"33da8187-3eb8-4f3e-970f-0ece9caa0bce","system_id":"levelo_inurba_marseille","lat":43.24942,"lon":5.40512,"is_reserved":false,"is_disabled":false,"rental_uris":{"android":"levelo://app?vid=33da8187-3eb8-4f3e-970f-0ece9caa0bce","ios":"levelo://app?vid=33da8187-3eb8-4f3e-970f-0ece9caa0bce"},"vehicle_type_id":"4","last_reported":1771215194,"current_range_meters":34800,"station_id":"st_d2ngiaodas8pm72gd1h0","pricing_plan_id":"cebpf4jnsgd1na2vs0mg"},{"bike_id":"b34c059f-bff1-425e-8375-e35626742d38","system_id":"levelo_inurba_marseille","lat":43.28222,"lon":5.39037,"is_reserved":false,"is_disabled":true,"rental_uris":{"android":"levelo://app?vid=b34c059f-bff1-425e-8375-e35626742d38","ios":"levelo://app?vid=b34c059f-bff1-425e-8375-e35626742d38"},"vehicle_type_id":"4","last_reported":1771215194,"current_range_meters":23200,"station_id":"ce4bhn92rcd13ifvqgsg","pricing_plan_id":"cebpf4jnsgd1na2vs0mg"},{"bike_id":"4abae059-0948-4a8a-adf3-ab924239d0d3","system_id":"levelo_inurba_marseille","lat":43.26059,"lon":5.39392,"is_reserved":false,"is_disabled":false,"rental_uris":{"android":"levelo://app?vid=4abae059-0948-4a8a-adf3-ab924239d0d3","ios":"levelo://app?vid=4abae059-0948-4a8a-adf3-ab924239d0d3"},"vehicle_type_id":"4","last_reported":1771215194,"current_range_meters":39200,"station_id":"ce4bhh92rcd13ifvqfj0","pricing_plan_id":"cebpf4jnsgd1na2vs0mg"},{"bike_id":"d215c6c1-bb84-4c91-98be-89195ef9bad7","system_id":"levelo_inurba_marseille","lat":43.29012,"lon":5.35607,"is_reserved":false,"is_disabled":false,"rental_uris":{"android":"levelo://app?vid=d215c6c1-bb84-4c91-98be-89195ef9bad7","ios":"levelo://app?vid=d215c6c1-bb84-4c91-98be-89195ef9bad7"},"vehicle_type_id":"4","last_reported":1771215194,"current_range_meters":24400,"station_id":"ce4bhb92rcd13ifvqen0","pricing_plan_id":"cebpf4jnsgd1na2vs0mg"},{"bike_id":"94740a1e-5fd5-445a-9e15-6f5ca0bcf129","system_id":"levelo_inurba_marseille","lat":43.29581,"lon":5.37506,"is_reserved":false,"is_disabled":false,"rental_uris":{"android":"levelo://app?vid=94740a1e-5fd5-445a-9e15-6f5ca0bcf129","ios":"levelo://app?vid=94740a1e-5fd5-445a-9e15-6f5ca0bcf129"},"vehicle_type_id":"4","last_reported":1771215194,"current_range_meters":27200,"station_id":"ce4bgh92rcd13ifvqb50","pricing_plan_id":"cebpf4jnsgd1na2vs0mg"},{"bike_id":"ffc4c8da-8965-49f1-a4e2-e3022b6b7481","system_id":"levelo_inurba_marseille","lat":43.27877,"lon":5.37998,"is_reserved":false,"is_disabled":false,"rental_uris":{"android":"levelo://app?vid=ffc4c8da-8965-49f1-a4e2-e3022b6b7481","ios":"levelo://app?vid=ffc4c8da-8965-49f1-a4e2-e3022b6b7481"},"vehicle_type_id":"4","last_reported":1771215194,"current_range_meters":9600,"station_id":"ce4bhf92rcd13ifvqf50","pricing_plan_id":"cebpf4jnsgd1na2vs0mg"},{"bike_id":"9f22dc2b-9bfa-4dc2-8901-6587541840c7","system_id":"levelo_inurba_marseille","lat":43.30602,"lon":5.37209,"is_reserved":false,"is_disabled":true,"rental_uris":{"android":"levelo://app?vid=9f22dc2b-9bfa-4dc2-8901-6587541840c7","ios":"levelo://app?vid=9f22dc2b-9bfa-4dc2-8901-6587541840c7"},"vehicle_type_id":"4","last_reported":1771215194,"current_range_meters":24000,"station_id":"ce4bgqh2rcd13ifvqc4g","pricing_plan_id":"cebpf4jnsgd1na2vs0mg"},{"bike_id":"c9469889-60e5-46f5-9a52-990e2feeac80","system_id":"levelo_inurba_marseille","lat":43.29266,"lon":5.40916,"is_reserved":false,"is_disabled":false,"rental_uris":{"android":"levelo://app?vid=c9469889-60e5-46f5-9a52-990e2feeac80","ios":"levelo://app?vid=c9469889-60e5-46f5-9a52-990e2feeac80"},"vehicle_type_id":"4","last_reported":1771215194,"current_range_meters":33600,"station_id":"ce4bh192rcd13ifvqdc0","pricing_plan_id":"cebpf4jnsgd1na2vs0mg"},{"bike_id":"185c435d-ad1f-4775-a4d3-87a9d5d9c111","system_id":"levelo_inurba_marseille","lat":43.26209,"lon":5.40456,"is_reserved":false,"is_disabled":false,"rental_uris":{"android":"levelo://app?vid=185c435d-ad1f-4775-a4d3-87a9d5d9c111","ios":"levelo://app?vid=185c435d-ad1f-4775-a4d3-87a9d5d9c111"},"vehicle_type_id":"4","last_reported":1771215194,"current_range_meters":6800,"station_id":"ce4bhmh2rcd13ifvqgmg","pricing_plan_id":"cebpf4jnsgd1na2vs0mg"},{"bike_id":"62e690f0-63f6-474d-98ba-c3ee77f6bd18","system_id":"levelo_inurba_marseille","lat":43.29585,"lon":5.43906,"is_reserved":false,"is_disabled":false,"rental_uris":{"android":"levelo://app?vid=62e690f0-63f6-474d-98ba-c3ee77f6bd18","ios":"levelo://app?vid=62e690f0-63f6-474d-98ba-c3ee77f6bd18"},"vehicle_type_id":"4","last_reported":1771215194,"current_range_meters":28800,"station_id":"","pricing_plan_id":"cebpf4jnsgd1na2vs0mg"},{"bike_id":"bf095d30-de1b-4172-b488-990340bc8efd","system_id":"levelo_inurba_marseille","lat":43.26801,"lon":5.39461,"is_reserved":false,"is_disabled":false,"rental_uris":{"android":"levelo://app?vid=bf095d30-de1b-4172-b488-990340bc8efd","ios":"levelo://app?vid=bf095d30-de1b-4172-b488-990340bc8efd"},"vehicle_type_id":"4","last_reported":1771215194,"current_range_meters":24400,"station_id":"","pricing_plan_id":"cebpf4jnsgd1na2vs0mg"},{"bike_id":"79c3f43c-8643-4476-956b-ec124659f30d","system_id":"levelo_inurba_marseille","lat":43.30423,"lon":5.36816,"is_reserved":false,"is_disabled":false,"rental_uris":{"android":"levelo://app?vid=79c3f43c-8643-4476-956b-ec124659f30d","ios":"levelo://app?vid=79c3f43c-8643-4476-956b-ec124659f30d"},"vehicle_type_id":"4","last_reported":1771215194,"current_range_meters":24000,"station_id":"","pricing_plan_id":"cebpf4jnsgd1na2vs0mg"},{"bike_id":"4d090f03-953d-4e8f-8e5c-9352c279b73b","system_id":"levelo_inurba_marseille","lat":43.288675,"lon":5.393155,"is_reserved":false,"is_disabled":false,"rental_uris":{"android":"levelo://app?vid=4d090f03-953d-4e8f-8e5c-9352c279b73b","ios":"levelo://app?vid=4d090f03-953d-4e8f-8e5c-9352c279b73b"},"vehicle_type_id":"4","last_reported":1771215194,"current_range_meters":39200,"station_id":"ce4bh2p2rcd13ifvqdi0","pricing_plan_id":"cebpf4jnsgd1na2vs0mg"},{"bike_id":"45b209b0-f7ec-4530-b801-53212625f98e","system_id":"levelo_inurba_marseille","lat":43.26058,"lon":5.3939,"is_reserved":false,"is_disabled":false,"rental_uris":{"android":"levelo://app?vid=45b209b0-f7ec-4530-b801-53212625f98e","ios":"levelo://app?vid=45b209b0-f7ec-4530-b801-53212625f98e"},"vehicle_type_id":"4","last_reported":1771215194,"current_range_meters":3600,"station_id":"ce4bhh92rcd13ifvqfj0","pricing_plan_id":"cebpf4jnsgd1na2vs0mg"},{"bike_id":"40fd0452-0ae6-42bf-907f-bb1c4484b081","system_id":"levelo_inurba_marseille","lat":43.279771,"lon":5.387093,"is_reserved":false,"is_disabled":true,"rental_uris":{"android":"levelo://app?vid=40fd0452-0ae6-42bf-907f-bb1c4484b081","ios":"levelo://app?vid=40fd0452-0ae6-42bf-907f-bb1c4484b081"},"vehicle_type_id":"4","last_reported":1771215194,"current_range_meters":27200,"station_id":"ce4bhg12rcd13ifvqf80","pricing_plan_id":"cebpf4jnsgd1na2vs0mg"},{"bike_id":"5960d2fa-1dc0-4818-b026-95c415353813","system_id":"levelo_inurba_marseille","lat":43.29193,"lon":5.35807,"is_reserved":false,"is_disabled":false,"rental_uris":{"android":"levelo://app?vid=5960d2fa-1dc0-4818-b026-95c415353813","ios":"levelo://app?vid=5960d2fa-1dc0-4818-b026-95c415353813"},"vehicle_type_id":"4","last_reported":1771215194,"current_range_meters":10800,"station_id":"ce4bhb12rcd13ifvqel0","pricing_plan_id":"cebpf4jnsgd1na2vs0mg"},{"bike_id":"23fe1a84-4a4c-47e5-8991-7f79d85b614c","system_id":"levelo_inurba_marseille","lat":43.289361,"lon":5.366322,"is_reserved":false,"is_disabled":false,"rental_uris":{"android":"levelo://app?vid=23fe1a84-4a4c-47e5-8991-7f79d85b614c","ios":"levelo://app?vid=23fe1a84-4a4c-47e5-8991-7f79d85b614c"},"vehicle_type_id":"4","last_reported":1771215194,"current_range_meters":35600,"station_id":"ce4bhap2rcd13ifvqek0","pricing_plan_id":"cebpf4jnsgd1na2vs0mg"},{"bike_id":"32ed40c9-744d-409e-a96a-8003db7b771d","system_id":"levelo_inurba_marseille","lat":43.25339,"lon":5.42167,"is_reserved":false,"is_disabled":false,"rental_uris":{"android":"levelo://app?vid=32ed40c9-744d-409e-a96a-8003db7b771d","ios":"levelo://app?vid=32ed40c9-744d-409e-a96a-8003db7b771d"},"vehicle_type_id":"4","last_reported":1771215194,"current_range_meters":22400,"station_id":"st_d2m65c5bi1j21697t3ng","pricing_plan_id":"cebpf4jnsgd1na2vs0mg"},