{"last_updated":1702922965,"ttl":30,"version":"2.2","data":{"bikes":[{"bike_id":"c72affec-bba2-4189-a029-9808aa34fb25","system_id":"levelo_inurba_marseille","lat":43.3149,"lon":5.37308,"is_reserved":false,"is_disabled":false,"rental_uris":{"android":"levelo://app?vid=c72affec-bba2-4189-a029-9808aa34fb25","ios":"levelo://app?vid=c72affec-bba2-4189-a029-9808aa34fb25"},"vehicle_type_id":"4","last_reported":1702922966,"current_range_meters":18400,"station_id":"ce4bgt12rcd13ifvqcd0","pricing_plan_id":"free"},{"bike_id":"955e4ab2-16e5-44e8-a986-a2f50ff96c06","system_id":"levelo_inurba_marseille","lat":43.305382,"lon":5.365389,"is_reserved":false,"is_disabled":false,"rental_uris":{"android":"levelo://app?vid=955e4ab2-16e5-44e8-a986-a2f50ff96c06","ios":"levelo://app?vid=955e4ab2-16e5-44e8-a986-a2f50ff96c06"},"vehicle_type_id":"4","last_reported":1702922966,"current_range_meters":7200,"station_id":"","pricing_plan_id":"free"},{"bike_id":"8f2b6aaa-7dd8-4b36-ba26-926b2f018ab2","system_id":"levelo_inurba_marseille","lat":43.305989,"lon":5.37225,"is_reserved":false,"is_disabled":false,"rental_uris":{"android":"levelo://app?vid=8f2b6aaa-7dd8-4b36-ba26-926b2f018ab2","ios":"levelo://app?vid=8f2b6aaa-7dd8-4b36-ba26-926b2f018ab2"},"vehicle_type_id":"4","last_reported":1702922966,"current_range_meters":17600,"station_id":"ce4bgqh2rcd13ifvqc4g","pricing_plan_id":"free"},{"bike_id":"ffae007f-d4cb-47ce-a0a9-7050da88720f","system_id":"levelo_inurba_marseille","lat":43.305989,"lon":5.37225,"is_reserved":false,"is_disabled":false,"rental_uris":{"android":"levelo://app?vid=ffae007f-d4cb-47ce-a0a9-7050da88720f","ios":"levelo://app?vid=ffae007f-d4cb-47ce-a0a9-7050da88720f"},"vehicle_type_id":"4","last_reported":1702922966,"current_range_meters":7600,"station_id":"ce4bgqh2rcd13ifvqc4g","pricing_plan_id":"free"},{"bike_id":"1550b743-82c2-4bb9-9737-951d49db4abc","system_id":"levelo_inurba_marseille","lat":43.311125,"lon":5.377624,"is_reserved":false,"is_disabled":false,"rental_uris":{"android":"levelo://app?vid=1550b743-82c2-4bb9-9737-951d49db4abc","ios":"levelo://app?vid=1550b743-82c2-4bb9-9737-951d49db4abc"},"vehicle_type_id":"4","last_reported":1702922966,"current_range_meters":24400,"station_id":"ce4bgt92rcd13ifvqcg0","pricing_plan_id":"free"},{"bike_id":"5101c15c-6857-4de7-b764-624766a8a570","system_id":"levelo_inurba_marseille","lat":43.302525,"lon":5.36888,"is_reserved":false,"is_disabled":false,"rental_uris":{"android":"levelo://app?vid=5101c15c-6857-4de7-b764-624766a8a570","ios":"levelo://app?vid=5101c15c-6857-4de7-b764-624766a8a570"},"vehicle_type_id":"4","last_reported":1702922966,"current_range_meters":0,"station_id":"ce4bgqh2rcd13ifvqc5g","pricing_plan_id":"free"},{"bike_id":"1784cefd-ae0e-40c8-a476-06e37d05dc31","system_id":"levelo_inurba_marseille","lat":43.322872,"lon":5.382756,"is_reserved":false,"is_disabled":false,"rental_uris":{"android":"levelo://app?vid=1784cefd-ae0e-40c8-a476-06e37d05dc31","ios":"levelo://app?vid=1784cefd-ae0e-40c8-a476-06e37d05dc31"},"vehicle_type_id":"4","last_reported":1702922966,"current_range_meters":24400,"station_id":"ce4bhr12rcd13ifvqhqg","pricing_plan_id":"free"},{"bike_id":"9aef74c8-052d-4e59-bec5-5caa9e6cee9f","system_id":"levelo_inurba_marseille","lat":43.308012,"lon":5.381511,"is_reserved":false,"is_disabled":false,"rental_uris":{"android":"levelo://app?vid=9aef74c8-052d-4e59-bec5-5caa9e6cee9f","ios":"levelo://app?vid=9aef74c8-052d-4e59-bec5-5caa9e6cee9f"},"vehicle_type_id":"4","last_reported":1702922966,"current_range_meters":10400,"station_id":"ce4bgt12rcd13ifvqce0","pricing_plan_id":"free"},{"bike_id":"d2622d7b-2753-4d50-af20-a04971631ad4","system_id":"levelo_inurba_marseille","lat":43.308012,"lon":5.381511,"is_reserved":false,"is_disabled":false,"rental_uris":{"android":"levelo://app?vid=d2622d7b-2753-4d50-af20-a04971631ad4","ios":"levelo://app?vid=d2622d7b-2753-4d50-af20-a04971631ad4"},"vehicle_type_id":"4","last_reported":1702922966,"current_range_meters":2000,"station_id":"ce4bgt12rcd13ifvqce0","pricing_plan_id":"free"},{"bike_id":"a5cdfce2-b4cc-40ba-859b-bbd5bb22d2c8","system_id":"levelo_inurba_marseille","lat":43.308012,"lon":5.381511,"is_reserved":false,"is_disabled":false,"rental_uris":{"android":"levelo://app?vid=a5cdfce2-b4cc-40ba-859b-bbd5bb22d2c8","ios":"levelo://app?vid=a5cdfce2-b4cc-40ba-859b-bbd5bb22d2c8"},"vehicle_type_id":"4","last_reported":1702922966,"current_range_meters":0,"station_id":"ce4bgt12rcd13ifvqce0","pricing_plan_id":"free"},{"bike_id":"16c63921-ba85-4b98-8e78-8fe08de628a7","system_id":"levelo_inurba_marseille","lat":43.308012,"lon":5.381511,"is_reserved":false,"is_disabled":false,"rental_uris":{"android":"levelo://app?vid=16c63921-ba85-4b98-8e78-8fe08de628a7","ios":"levelo://app?vid=16c63921-ba85-4b98-8e78-8fe08de628a7"},"vehicle_type_id":"4","last_reported":1702922966,"current_range_meters":3200,"station_id":"ce4bgt12rcd13ifvqce0","pricing_plan_id":"free"},{"bike_id":"07810012-cbbe-489c-9316-cd04b4ef3405","system_id":"levelo_inurba_marseille","lat":43.308012,"lon":5.381511,"is_reserved":false,"is_disabled":false,"rental_uris":{"android":"levelo://app?vid=07810012-cbbe-489c-9316-cd04b4ef3405","ios":"levelo://app?vid=07810012-cbbe-489c-9316-cd04b4ef3405"},"vehicle_type_id":"4","last_reported":1702922966,"current_range_meters":400,"station_id":"ce4bgt12rcd13ifvqce0","pricing_plan_id":"free"},{"bike_id":"ccb03ee8-bf4b-4d39-b042-cc90af08c389","system_id":"levelo_inurba_marseille","lat":43.308012,"lon":5.381511,"is_reserved":false,"is_disabled":false,"rental_uris":{"android":"levelo://app?vid=ccb03ee8-bf4b-4d39-b042-cc90af08c389","ios":"levelo://app?vid=ccb03ee8-bf4b-4d39-b042-cc90af08c389"},"vehicle_type_id":"4","last_reported":1702922966,"current_range_meters":16400,"station_id":"ce4bgt12rcd13ifvqce0","pricing_plan_id":"free"},{"bike_id":"07a376be-02e2-44de-a85d-9e028c589ebd","system_id":"levelo_inurba_marseille","lat":43.324779,"lon":5.365605,"is_reserved":false,"is_disabled":false,"rental_uris":{"android":"levelo://app?vid=07a376be-02e2-44de-a85d-9e028c589ebd","ios":"levelo://app?vid=07a376be-02e2-44de-a85d-9e028c589ebd"},"vehicle_type_id":"4","last_reported":1702922966,"current_range_meters":4400,"station_id":"ce4bhs12rcd13ifvqhvg","pricing_plan_id":"free"},{"bike_id":"8b97c3f1-bb5f-4c4b-bae8-74bcb68230ca","system_id":"levelo_inurba_marseille","lat":43.31059,"lon":5.38327,"is_reserved":false,"is_disabled":false,"rental_uris":{"android":"levelo://app?vid=8b97c3f1-bb5f-4c4b-bae8-74bcb68230ca","ios":"levelo://app?vid=8b97c3f1-bb5f-4c4b-bae8-74bcb68230ca"},"vehicle_type_id":"4","last_reported":1702922966,"current_range_meters":0,"station_id":"","pricing_plan_id":"free"},{"bike_id":"23e28e74-fb32-49fd-aa2a-f77a0db6f5bf","system_id":"levelo_inurba_marseille","lat":43.30143,"lon":5.37413,"is_reserved":false,"is_disabled":false,"rental_uris":{"android":"levelo://app?vid=23e28e74-fb32-49fd-aa2a-f77a0db6f5bf","ios":"levelo://app?vid=23e28e74-fb32-49fd-aa2a-f77a0db6f5bf"},"vehicle_type_id":"4","last_reported":1702922966,"current_range_meters":0,"station_id":"ce4bgs92rcd13ifvqcc0","pricing_plan_id":"free"},{"bike_id":"30d8aa41-4eef-4706-9099-e0595e6313f7","system_id":"levelo_inurba_marseille","lat":43.301429,"lon":5.37413,"is_reserved":false,"is_disabled":false,"rental_uris":{"android":"levelo://app?vid=30d8aa41-4eef-4706-9099-e0595e6313f7","ios":"levelo://app?vid=30d8aa41-4eef-4706-9099-e0595e6313f7"},"vehicle_type_id":"4","last_reported":1702922966,"current_range_meters":28400,"station_id":"ce4bgs92rcd13ifvqcc0","pricing_plan_id":"free"},{"bike_id":"b7abe86b-cd2b-4151-b8b4-b40f1e853582","system_id":"levelo_inurba_marseille","lat":43.313571,"lon":5.384829,"is_reserved":false,"is_disabled":false,"rental_uris":{"android":"levelo://app?vid=b7abe86b-cd2b-4151-b8b4-b40f1e853582","ios":"levelo://app?vid=b7abe86b-cd2b-4151-b8b4-b40f1e853582"},"vehicle_type_id":"4","last_reported":1702922966,"current_range_meters":5600,"station_id":"ce4bgt92rcd13ifvqcf0","pricing_plan_id":"free"},{"bike_id":"a546284c-ec23-45e5-b9e4-338c4960898b","system_id":"levelo_inurba_marseille","lat":43.313571,"lon":5.384829,"is_reserved":false,"is_disabled":false,"rental_uris":{"android":"levelo://app?vid=a546284c-ec23-45e5-b9e4-338c4960898b","ios":"levelo://app?vid=a546284c-ec23-45e5-b9e4-338c4960898b"},"vehicle_type_id":"4","last_reported":1702922966,"current_range_meters":400,"station_id":"ce4bgt92rcd13ifvqcf0","pricing_plan_id":"free"},{"bike_id":"f0f21bd4-2f2b-467e-8749-0f6745beec37","system_id":"levelo_inurba_marseille","lat":43.300559,"lon":5.374299,"is_reserved":false,"is_disabled":false,"rental_uris":{"android":"levelo://app?vid=f0f21bd4-2f2b-467e-8749-0f6745beec37","ios":"levelo://app?vid=f0f21bd4-2f2b-467e-8749-0f6745beec37"},"vehicle_type_id":"4","last_reported":1702922966,"current_range_meters":5600,"station_id":"","pricing_plan_id":"free"},{"bike_id":"5275ea88-3624-4c0d-91e6-e4385dca5ddb","system_id":"levelo_inurba_marseille","lat":43.313571,"lon":5.384829,"is_reserved":false,"is_disabled":false,"rental_uris":{"android":"levelo://app?vid=5275ea88-3624-4c0d-91e6-e4385dca5ddb","ios":"levelo://app?vid=5275ea88-3624-4c0d-91e6-e4385dca5ddb"},"vehicle_type_id":"4","last_reported":1702922966,"current_range_meters":22800,"station_id":"ce4bgt92rcd13ifvqcf0","pricing_plan_id":"free"},{"bike_id":"58964417-d611-4878-b14e-6202aa088dde","system_id":"levelo_inurba_marseille","lat":43.3106,"lon":5.38615,"is_reserved":false,"is_disabled":false,"rental_uris":{"android":"levelo://app?vid=58964417-d611-4878-b14e-6202aa088dde","ios":"levelo://app?vid=58964417-d611-4878-b14e-6202aa088dde"},"vehicle_type_id":"4","last_reported":1702922966,"current_range_meters":19600,"station_id":"","pricing_plan_id":"free"},{"bike_id":"f6db91ea-7f41-433e-9317-71ba3cf5ea66","system_id":"levelo_inurba_marseille","lat":43.298433,"lon":5.362774,"is_reserved":false,"is_disabled":false,"rental_uris":{"android":"levelo://app?vid=f6db91ea-7f41-433e-9317-71ba3cf5ea66","ios":"levelo://app?vid=f6db91ea-7f41-433e-9317-71ba3cf5ea66"},"vehicle_type_id":"4","last_reported":1702922966,"current_range_meters":5600,"station_id":"ce4bgpp2rcd13ifvqc3g","pricing_plan_id":"free"},{"bike_id":"802d2262-5a8f-4ba8-8456-54c96b8bcd57","system_id":"levelo_inurba_marseille","lat":43.298433,"lon":5.362774,"is_reserved":false,"is_disabled":false,"rental_uris":{"android":"levelo://app?vid=802d2262-5a8f-4ba8-8456-54c96b8bcd57","ios":"levelo://app?vid=802d2262-5a8f-4ba8-8456-54c96b8bcd57"},"vehicle_type_id":"4","last_reported":1702922966,"current_range_meters":22800,"station_id":"ce4bgpp2rcd13ifvqc3g","pricing_plan_id":"free"},{"bike_id":"819cb438-2e9c-4e0b-902b-5e19ef554d5c","system_id":"levelo_inurba_marseille","lat":43.305445,"lon":5.384362,"is_reserved":false,"is_disabled":false,"rental_uris":{"android":"levelo://app?vid=819cb438-2e9c-4e0b-902b-5e19ef554d5c","ios":"levelo://app?vid=819cb438-2e9c-4e0b-902b-5e19ef554d5c"},"vehicle_type_id":"4","last_reported":1702922966,"current_range_meters":6000,"station_id":"ce4bgg92rcd13ifvqb30","pricing_plan_id":"free"},{"bike_id":"c759f3d7-1a97-4446-8047-4e8e80a147d8","system_id":"levelo_inurba_marseille","lat":43.298433,"lon":5.362774,"is_reserved":false,"is_disabled":false,"rental_uris":{"android":"levelo://app?vid=c759f3d7-1a97-4446-8047-4e8e80a147d8","ios":"levelo://app?vid=c759f3d7-1a97-4446-8047-4e8e80a147d8"},"vehicle_type_id":"4","last_reported":1702922966,"current_range_meters":20800,"station_id":"ce4bgpp2rcd13ifvqc3g","pricing_plan_id":"free"},{"bike_id":"37a92bd5-223b-41c5-b499-fe52ac7929c1","system_id":"levelo_inurba_marseille","lat":43.311722,"lon":5.387247,"is_reserved":false,"is_disabled":false,"rental_uris":{"android":"levelo://app?vid=37a92bd5-223b-41c5-b499-fe52ac7929c1","ios":"levelo://app?vid=37a92bd5-223b-41c5-b499-fe52ac7929c1"},"vehicle_type_id":"4","last_reported":1702922966,"current_range_meters":3200,"station_id":"ce4bgv12rcd13ifvqcp0","pricing_plan_id":"free"},{"bike_id":"618ce127-c424-420c-9f1a-b908e00b2410","system_id":"levelo_inurba_marseille","lat":43.297774,"lon":5.370875,"is_reserved":false,"is_disabled":false,"rental_uris":{"android":"levelo://app?vid=618ce127-c424-420c-9f1a-b908e00b2410","ios":"levelo://app?vid=618ce127-c424-420c-9f1a-b908e00b2410"},"vehicle_type_id":"4","last_reported":1702922966,"current_range_meters":16400,"station_id":"ce4bgop2rcd13ifvqc1g","pricing_plan_id":"free"},{"bike_id":"5fcddf76-dd6d-43b0-a679-2d7e61213231","system_id":"levelo_inurba_marseille","lat":43.322907,"lon":5.382623,"is_reserved":false,"is_disabled":false,"rental_uris":{"android":"levelo://app?vid=5fcddf76-dd6d-43b0-a679-2d7e61213231","ios":"levelo://app?vid=5fcddf76-dd6d-43b0-a679-2d7e61213231"},"vehicle_type_id":"4","last_reported":1702922966,"current_range_meters":22000,"station_id":"ce4bhr12rcd13ifvqhqg","pricing_plan_id":"free"},{"bike_id":"e66617a4-437e-4611-bcde-9766d1b74975","system_id":"levelo_inurba_marseille","lat":43.322872,"lon":5.382756,"is_reserved":false,"is_disabled":false,"rental_uris":{"android":"levelo://app?vid=e66617a4-437e-4611-bcde-9766d1b74975","ios":"levelo://app?vid=e66617a4-437e-4611-bcde-9766d1b74975"},"vehicle_type_id":"4","last_reported":1702922966,"current_range_meters":23200,"station_id":"ce4bhr12rcd13ifvqhqg","pricing_plan_id":"free"},{"bike_id":"8a8fe2a0-1e6a-43b0-abf4-d2c71ac7d652","system_id":"levelo_inurba_marseille","lat":43.297163,"lon":5.365866,"is_reserved":false,"is_disabled":false,"rental_uris":{"android":"levelo://app?vid=8a8fe2a0-1e6a-43b0-abf4-d2c71ac7d652","ios":"levelo://app?vid=8a8fe2a0-1e6a-43b0-abf4-d2c71ac7d652"},"vehicle_type_id":"4","last_reported":1702922966,"current_range_meters":7600,"station_id":"ce4bgn12rcd13ifvqbt0","pricing_plan_id":"free"},{"bike_id":"61ec00be-f102-46c0-a4a2-121c676aa51e","system_id":"levelo_inurba_marseille","lat":43.2968,"lon":5.37291,"is_reserved":false,"is_disabled":false,"rental_uris":{"android":"levelo://app?vid=61ec00be-f102-46c0-a4a2-121c676aa51e","ios":"levelo://app?vid=61ec00be-f102-46c0-a4a2-121c676aa51e"},"vehicle_type_id":"4","last_reported":1702922966,"current_range_meters":20400,"station_id":"ce4bgk12rcd13ifvqbj0","pricing_plan_id":"free"},{"bike_id":"51a0d416-791c-495d-bf9b-b1d47aa2f88d","system_id":"levelo_inurba_marseille","lat":43.29573,"lon":5.367355,"is_reserved":false,"is_disabled":false,"rental_uris":{"android":"levelo://app?vid=51a0d416-791c-495d-bf9b-b1d47aa2f88d","ios":"levelo://app?vid=51a0d416-791c-495d-bf9b-b1d47aa2f88d"},"vehicle_type_id":"4","last_reported":1702922966,"current_range_meters":18800,"station_id":"ce4bgph2rcd13ifvqc2g","pricing_plan_id":"free"},{"bike_id":"82333e5c-1603-4f07-83eb-d1826dbdad69","system_id":"levelo_inurba_marseille","lat":43.297223,"lon":5.3769,"is_reserved":false,"is_disabled":false,"rental_uris":{"android":"levelo://app?vid=82333e5c-1603-4f07-83eb-d1826dbdad69","ios":"levelo://app?vid=82333e5c-1603-4f07-83eb-d1826dbdad69"},"vehicle_type_id":"4","last_reported":1702922966,"current_range_meters":0,"station_id":"","pricing_plan_id":"free"},{"bike_id":"708ff2df-6df8-437a-83a8-a660675bae4f","system_id":"levelo_inurba_marseille","lat":43.317557,"lon":5.390173,"is_reserved":false,"is_disabled":false,"rental_uris":{"android":"levelo://app?vid=708ff2df-6df8-437a-83a8-a660675bae4f","ios":"levelo://app?vid=708ff2df-6df8-437a-83a8-a660675bae4f"},"vehicle_type_id":"4","last_reported":1702922966,"current_range_meters":6800,"station_id":"ce4bhqp2rcd13ifvqhng","pricing_plan_id":"free"},{"bike_id":"5a0dec12-6d40-456c-a336-a2b332cfce8e","system_id":"levelo_inurba_marseille","lat":43.317557,"lon":5.390173,"is_reserved":false,"is_disabled":false,"rental_uris":{"android":"levelo://app?vid=5a0dec12-6d40-456c-a336-a2b332cfce8e","ios":"levelo://app?vid=5a0dec12-6d40-456c-a336-a2b332cfce8e"},"vehicle_type_id":"4","last_reported":1702922966,"current_range_meters":13600,"station_id":"ce4bhqp2rcd13ifvqhng","pricing_plan_id":"free"},{"bike_id":"11ff28f6-5df6-4de5-8e16-dbff4cdf7107","system_id":"levelo_inurba_marseille","lat":43.29628,"lon":5.37705,"is_reserved":false,"is_disabled":false,"rental_uris":{"android":"levelo://app?vid=11ff28f6-5df6-4de5-8e16-dbff4cdf7107","ios":"levelo://app?vid=11ff28f6-5df6-4de5-8e16-dbff4cdf7107"},"vehicle_type_id":"4","last_reported":1702922966,"current_range_meters":8400,"station_id":"ce4bgi92rcd13ifvqb90","pricing_plan_id":"free"},{"bike_id":"e20e8944-c09b-4f2b-a997-5540682e84cd","system_id":"levelo_inurba_marseille","lat":43.299724,"lon":5.384848,"is_reserved":false,"is_disabled":false,"rental_uris":{"android":"levelo://app?vid=e20e8944-c09b-4f2b-a997-5540682e84cd","ios":"levelo://app?vid=e20e8944-c09b-4f2b-a997-5540682e84cd"},"vehicle_type_id":"4","last_reported":1702922966,"current_range_meters":5200,"station_id":"ce4bgj92rcd13ifvqbd0","pricing_plan_id":"free"},{"bike_id":"2126d64b-6fe9-4988-8479-742507e8dae1","system_id":"levelo_inurba_marseille","lat":43.299724,"lon":5.384848,"is_reserved":false,"is_disabled":false,"rental_uris":{"android":"levelo://app?vid=2126d64b-6fe9-4988-8479-742507e8dae1","ios":"levelo://app?vid=2126d64b-6fe9-4988-8479-742507e8dae1"},"vehicle_type_id":"4","last_reported":1702922966,"current_range_meters":16400,"station_id":"ce4bgj92rcd13ifvqbd0","pricing_plan_id":"free"},{"bike_id":"92376719-a88b-454a-a0d7-3fd726209eb4","system_id":"levelo_inurba_marseille","lat":43.299724,"lon":5.384848,"is_reserved":false,"is_disabled":false,"rental_uris":{"android":"levelo://app?vid=92376719-a88b-454a-a0d7-3fd726209eb4","ios":"levelo://app?vid=92376719-a88b-454a-a0d7-3fd726209eb4"},"vehicle_type_id":"4","last_reported":1702922966,"current_range_meters":2400,"station_id":"ce4bgj92rcd13ifvqbd0","pricing_plan_id":"free"},{"bike_id":"b339fccd-5c48-4ff6-bc23-d4b4ddbda7bf","system_id":"levelo_inurba_marseille","lat":43.294805,"lon":5.37435,"is_reserved":false,"is_disabled":false,"rental_uris":{"android":"levelo://app?vid=b339fccd-5c48-4ff6-bc23-d4b4ddbda7bf","ios":"levelo://app?vid=b339fccd-5c48-4ff6-bc23-d4b4ddbda7bf"},"vehicle_type_id":"4","last_reported":1702922966,"current_range_meters":4000,"station_id":"","pricing_plan_id":"free"},{"bike_id":"10d7df7f-fd5d-419c-8505-c3bd4c2fcdec","system_id":"levelo_inurba_marseille","lat":43.296354,"lon":5.379984,"is_reserved":false,"is_disabled":false,"rental_uris":{"android":"levelo://app?vid=10d7df7f-fd5d-419c-8505-c3bd4c2fcdec","ios":"levelo://app?vid=10d7df7f-fd5d-419c-8505-c3bd4c2fcdec"},"vehicle_type_id":"4","last_reported":1702922966,"current_range_meters":20000,"station_id":"","pricing_plan_id":"free"},{"bike_id":"1031c103-1d3d-4b24-b5b7-362dd423e4f1","system_id":"levelo_inurba_marseille","lat":43.29601,"lon":5.381084,"is_reserved":false,"is_disabled":false,"rental_uris":{"android":"levelo://app?vid=1031c103-1d3d-4b24-b5b7-362dd423e4f1","ios":"levelo://app?vid=1031c103-1d3d-4b24-b5b7-362dd423e4f1"},"vehicle_type_id":"4","last_reported":1702922966,"current_range_meters":26400,"station_id":"ce4bgl12rcd13ifvqbo0","pricing_plan_id":"free"},{"bike_id":"08bb5734-1855-4298-a272-37054248402e","system_id":"levelo_inurba_marseille","lat":43.303002,"lon":5.392142,"is_reserved":false,"is_disabled":false,"rental_uris":{"android":"levelo://app?vid=08bb5734-1855-4298-a272-37054248402e","ios":"levelo://app?vid=08bb5734-1855-4298-a272-37054248402e"},"vehicle_type_id":"4","last_reported":1702922966,"current_range_meters":8800,"station_id":"ce4bgkh2rcd13ifvqbk0","pricing_plan_id":"free"},{"bike_id":"45ffc421-054a-48ac-872c-d6512262a28f","system_id":"levelo_inurba_marseille","lat":43.29872,"lon":5.38903,"is_reserved":false,"is_disabled":false,"rental_uris":{"android":"levelo://app?vid=45ffc421-054a-48ac-872c-d6512262a28f","ios":"levelo://app?vid=45ffc421-054a-48ac-872c-d6512262a28f"},"vehicle_type_id":"4","last_reported":1702922966,"current_range_meters":1200,"station_id":"","pricing_plan_id":"free"},{"bike_id":"442c2698-4f42-45ce-9b72-89920234ba94","system_id":"levelo_inurba_marseille","lat":43.309038,"lon":5.396546,"is_reserved":false,"is_disabled":false,"rental_uris":{"android":"levelo://app?vid=442c2698-4f42-45ce-9b72-89920234ba94","ios":"levelo://app?vid=442c2698-4f42-45ce-9b72-89920234ba94"},"vehicle_type_id":"4","last_reported":1702922966,"current_range_meters":25200,"station_id":"ce4bh012rcd13ifvqcv0","pricing_plan_id":"free"},{"bike_id":"0a31ed2a-87c2-4e2f-8c31-84ef29d5cbe1","system_id":"levelo_inurba_marseille","lat":43.313291,"lon":5.396838,"is_reserved":false,"is_disabled":false,"rental_uris":{"android":"levelo://app?vid=0a31ed2a-87c2-4e2f-8c31-84ef29d5cbe1","ios":"levelo://app?vid=0a31ed2a-87c2-4e2f-8c31-84ef29d5cbe1"},"vehicle_type_id":"4","last_reported":1702922966,"current_range_meters":29200,"station_id":"ce4bgvp2rcd13ifvqcu0","pricing_plan_id":"free"},{"bike_id":"c5e51af6-36c9-46c3-81f9-4696de892091","system_id":"levelo_inurba_marseille","lat":43.309038,"lon":5.396546,"is_reserved":false,"is_disabled":false,"rental_uris":{"android":"levelo://app?vid=c5e51af6-36c9-46c3-81f9-4696de892091","ios":"levelo://app?vid=c5e51af6-36c9-46c3-81f9-4696de892091"},"vehicle_type_id":"4","last_reported":1702922966,"current_range_meters":17200,"station_id":"ce4bh012rcd13ifvqcv0","pricing_plan_id":"free"},{"bike_id":"e735d7b7-f78f-487d-aca3-c108d5b98f3d","system_id":"levelo_inurba_marseille","lat":43.309038,"lon":5.396546,"is_reserved":false,"is_disabled":false,"rental_uris":{"android":"levelo://app?vid=e735d7b7-f78f-487d-aca3-c108d5b98f3d","ios":"levelo://app?vid=e735d7b7-f78f-487d-aca3-c108d5b98f3d"},"vehicle_type_id":"4","last_reported":1702922966,"current_range_meters":18000,"station_id":"ce4bh012rcd13ifvqcv0","pricing_plan_id":"free"},{"bike_id":"7c12376e-5b17-436a-a588-16441189a8e2","system_id":"levelo_inurba_marseille","lat":43.309038,"lon":5.396546,"is_reserved":false,"is_disabled":false,"rental_uris":{"android":"levelo://app?vid=7c12376e-5b17-436a-a588-16441189a8e2","ios":"levelo://app?vid=7c12376e-5b17-436a-a588-16441189a8e2"},"vehicle_type_id":"4","last_reported":1702922966,"current_range_meters":16000,"station_id":"ce4bh012rcd13ifvqcv0","pricing_plan_id":"free"},{"bike_id":"0b0e1820-6908-4aba-a241-4680ecc0c31f","system_id":"levelo_inurba_marseille","lat":43.309047,"lon":5.396551,"is_reserved":false,"is_disabled":false,"rental_uris":{"android":"levelo://app?vid=0b0e1820-6908-4aba-a241-4680ecc0c31f","ios":"levelo://app?vid=0b0e1820-6908-4aba-a241-4680ecc0c31f"},"vehicle_type_id":"4","last_reported":1702922966,"current_range_meters":4800,"station_id":"ce4bh012rcd13ifvqcv0","pricing_plan_id":"free"},{"bike_id":"50ef9caf-daf3-4267-9ad1-0e77252853d7","system_id":"levelo_inurba_marseille","lat":43.295355,"lon":5.38541,"is_reserved":false,"is_disabled":false,"rental_uris":{"android":"levelo://app?vid=50ef9caf-daf3-4267-9ad1-0e77252853d7","ios":"levelo://app?vid=50ef9caf-daf3-4267-9ad1-0e77252853d7"},"vehicle_type_id":"4","last_reported":1702922966,"current_range_meters":30000,"station_id":"ce4bgih2rcd13ifvqba0","pricing_plan_id":"free"},{"bike_id":"0a6846ef-e9dc-47b2-b1a7-2583912d5ef9","system_id":"levelo_inurba_marseille","lat":43.29529,"lon":5.385581,"is_reserved":false,"is_disabled":false,"rental_uris":{"android":"levelo://app?vid=0a6846ef-e9dc-47b2-b1a7-2583912d5ef9","ios":"levelo://app?vid=0a6846ef-e9dc-47b2-b1a7-2583912d5ef9"},"vehicle_type_id":"4","last_reported":1702922966,"current_range_meters":0,"station_id":"ce4bgih2rcd13ifvqba0","pricing_plan_id":"free"},{"bike_id":"4d4bb202-63ea-48fc-8400-fa8b20021fd2","system_id":"levelo_inurba_marseille","lat":43.289921,"lon":5.366991,"is_reserved":false,"is_disabled":false,"rental_uris":{"android":"levelo://app?vid=4d4bb202-63ea-48fc-8400-fa8b20021fd2","ios":"levelo://app?vid=4d4bb202-63ea-48fc-8400-fa8b20021fd2"},"vehicle_type_id":"4","last_reported":1702922966,"current_range_meters":0,"station_id":"","pricing_plan_id":"free"},{"bike_id":"cce2d524-3557-40eb-852c-21fd92ad9a99","system_id":"levelo_inurba_marseille","lat":43.302008,"lon":5.394694,"is_reserved":false,"is_disabled":false,"rental_uris":{"android":"levelo://app?vid=cce2d524-3557-40eb-852c-21fd92ad9a99","ios":"levelo://app?vid=cce2d524-3557-40eb-852c-21fd92ad9a99"},"vehicle_type_id":"4","last_reported":1702922966,"current_range_meters":17200,"station_id":"ce4bh0p2rcd13ifvqd70","pricing_plan_id":"free"},{"bike_id":"4b08a009-57a1-4f9e-a9a1-e0cae138a56c","system_id":"levelo_inurba_marseille","lat":43.290631,"lon":5.359244,"is_reserved":false,"is_disabled":false,"rental_uris":{"android":"levelo://app?vid=4b08a009-57a1-4f9e-a9a1-e0cae138a56c","ios":"levelo://app?vid=4b08a009-57a1-4f9e-a9a1-e0cae138a56c"},"vehicle_type_id":"4","last_reported":1702922966,"current_range_meters":25600,"station_id":"ce4bha92rcd13ifvqeg0","pricing_plan_id":"free"},{"bike_id":"2796f990-147a-4dc2-8ac1-b9a8628b58c9","system_id":"levelo_inurba_marseille","lat":43.294153,"lon":5.386305,"is_reserved":false,"is_disabled":false,"rental_uris":{"android":"levelo://app?vid=2796f990-147a-4dc2-8ac1-b9a8628b58c9","ios":"levelo://app?vid=2796f990-147a-4dc2-8ac1-b9a8628b58c9"},"vehicle_type_id":"4","last_reported":1702922966,"current_range_meters":16000,"station_id":"ce4bh2h2rcd13ifvqdh0","pricing_plan_id":"free"},{"bike_id":"ce0ce28a-df0b-48f2-bfb6-75b7bd182706","system_id":"levelo_inurba_marseille","lat":43.294153,"lon":5.386305,"is_reserved":false,"is_disabled":false,"rental_uris":{"android":"levelo://app?vid=ce0ce28a-df0b-48f2-bfb6-75b7bd182706","ios":"levelo://app?vid=ce0ce28a-df0b-48f2-bfb6-75b7bd182706"},"vehicle_type_id":"4","last_reported":1702922966,"current_range_meters":1600,"station_id":"ce4bh2h2rcd13ifvqdh0","pricing_plan_id":"free"},{"bike_id":"bdfe2483-96ef-4451-967c-034cb172147c","system_id":"levelo_inurba_marseille","lat":43.289184,"lon":5.366408,"is_reserved":false,"is_disabled":false,"rental_uris":{"android":"levelo://app?vid=bdfe2483-96ef-4451-967c-034cb172147c","ios":"levelo://app?vid=bdfe2483-96ef-4451-967c-034cb172147c"},"vehicle_type_id":"4","last_reported":1702922966,"current_range_meters":9200,"station_id":"ce4bhap2rcd13ifvqek0","pricing_plan_id":"free"},{"bike_id":"2bb139a0-8e81-46ad-9d3d-6d815c6825e6","system_id":"levelo_inurba_marseille","lat":43.304274,"lon":5.397513,"is_reserved":false,"is_disabled":false,"rental_uris":{"android":"levelo://app?vid=2bb139a0-8e81-46ad-9d3d-6d815c6825e6","ios":"levelo://app?vid=2bb139a0-8e81-46ad-9d3d-6d815c6825e6"},"vehicle_type_id":"4","last_reported":1702922966,"current_range_meters":26800,"station_id":"ce4bh092rcd13ifvqd20","pricing_plan_id":"free"},{"bike_id":"befc5b59-67d6-43b5-ac82-57c415c9b6fd","system_id":"levelo_inurba_marseille","lat":43.33044,"lon":5.38915,"is_reserved":false,"is_disabled":false,"rental_uris":{"android":"levelo://app?vid=befc5b59-67d6-43b5-ac82-57c415c9b6fd","ios":"levelo://app?vid=befc5b59-67d6-43b5-ac82-57c415c9b6fd"},"vehicle_type_id":"4","last_reported":1702922966,"current_range_meters":0,"station_id":"ce4bhr92rcd13ifvqhrg","pricing_plan_id":"free"},{"bike_id":"8f43d285-eedb-4d4a-bb5a-dd21f2ffe320","system_id":"levelo_inurba_marseille","lat":43.33042,"lon":5.38921,"is_reserved":false,"is_disabled":false,"rental_uris":{"android":"levelo://app?vid=8f43d285-eedb-4d4a-bb5a-dd21f2ffe320","ios":"levelo://app?vid=8f43d285-eedb-4d4a-bb5a-dd21f2ffe320"},"vehicle_type_id":"4","last_reported":1702922966,"current_range_meters":15600,"station_id":"ce4bhr92rcd13ifvqhrg","pricing_plan_id":"free"},{"bike_id":"bb4a18f7-dd2a-4ad5-8d6e-35c6c7f9f11b","system_id":"levelo_inurba_marseille","lat":43.33045,"lon":5.38919,"is_reserved":false,"is_disabled":false,"rental_uris":{"android":"levelo://app?vid=bb4a18f7-dd2a-4ad5-8d6e-35c6c7f9f11b","ios":"levelo://app?vid=bb4a18f7-dd2a-4ad5-8d6e-35c6c7f9f11b"},"vehicle_type_id":"4","last_reported":1702922966,"current_range_meters":20800,"station_id":"ce4bhr92rcd13ifvqhrg","pricing_plan_id":"free"},{"bike_id":"0eb29cf8-6cad-4fbf-8127-a31ff2bbb89a","system_id":"levelo_inurba_marseille","lat":43.33043,"lon":5.38923,"is_reserved":false,"is_disabled":false,"rental_uris":{"android":"levelo://app?vid=0eb29cf8-6cad-4fbf-8127-a31ff2bbb89a","ios":"levelo://app?vid=0eb29cf8-6cad-4fbf-8127-a31ff2bbb89a"},"vehicle_type_id":"4","last_reported":1702922966,"current_range_meters":2400,"station_id":"ce4bhr92rcd13ifvqhrg","pricing_plan_id":"free"},{"bike_id":"9b109012-9c64-4d1c-b173-7849c6a32ee2","system_id":"levelo_inurba_marseille","lat":43.29004,"lon":5.35618,"is_reserved":false,"is_disabled":false,"rental_uris":{"android":"levelo://app?vid=9b109012-9c64-4d1c-b173-7849c6a32ee2","ios":"levelo://app?vid=9b109012-9c64-4d1c-b173-7849c6a32ee2"},"vehicle_type_id":"4","last_reported":1702922966,"current_range_meters":0,"station_id":"ce4bhb92rcd13ifvqen0","pricing_plan_id":"free"},{"bike_id":"97b62cd9-58ee-4410-9f34-d33c628ddb31","system_id":"levelo_inurba_marseille","lat":43.290104,"lon":5.356111,"is_reserved":false,"is_disabled":false,"rental_uris":{"android":"levelo://app?vid=97b62cd9-58ee-4410-9f34-d33c628ddb31","ios":"levelo://app?vid=97b62cd9-58ee-4410-9f34-d33c628ddb31"},"vehicle_type_id":"4","last_reported":1702922966,"current_range_meters":3200,"station_id":"ce4bhb92rcd13ifvqen0","pricing_plan_id":"free"},{"bike_id":"0ce67f3a-c4d7-4ea0-b870-23bf957f1764","system_id":"levelo_inurba_marseille","lat":43.297815,"lon":5.393548,"is_reserved":false,"is_disabled":false,"rental_uris":{"android":"levelo://app?vid=0ce67f3a-c4d7-4ea0-b870-23bf957f1764","ios":"levelo://app?vid=0ce67f3a-c4d7-4ea0-b870-23bf957f1764"},"vehicle_type_id":"4","last_reported":1702922966,"current_range_meters":2000,"station_id":"chh1huq6cuj3fo74tm60","pricing_plan_id":"free"},{"bike_id":"3cda0f2f-8953-4765-9301-45b7b7f41b2b","system_id":"levelo_inurba_marseille","lat":43.29526,"lon":5.39042,"is_reserved":false,"is_disabled":false,"rental_uris":{"android":"levelo://app?vid=3cda0f2f-8953-4765-9301-45b7b7f41b2b","ios":"levelo://app?vid=3cda0f2f-8953-4765-9301-45b7b7f41b2b"},"vehicle_type_id":"4","last_reported":1702922966,"current_range_meters":31200,"station_id":"ce4bh3p2rcd13ifvqdp0","pricing_plan_id":"free"},{"bike_id":"0117bba6-a13c-46a4-b974-465548226b1a","system_id":"levelo_inurba_marseille","lat":43.295169,"lon":5.390426,"is_reserved":false,"is_disabled":false,"rental_uris":{"android":"levelo://app?vid=0117bba6-a13c-46a4-b974-465548226b1a","ios":"levelo://app?vid=0117bba6-a13c-46a4-b974-465548226b1a"},"vehicle_type_id":"4","last_reported":1702922966,"current_range_meters":17200,"station_id":"ce4bh3p2rcd13ifvqdp0","pricing_plan_id":"free"},{"bike_id":"87aa39e4-4b08-4692-8898-f41cf3ee40d8","system_id":"levelo_inurba_marseille","lat":43.288621,"lon":5.3587,"is_reserved":false,"is_disabled":false,"rental_uris":{"android":"levelo://app?vid=87aa39e4-4b08-4692-8898-f41cf3ee40d8","ios":"levelo://app?vid=87aa39e4-4b08-4692-8898-f41cf3ee40d8"},"vehicle_type_id":"4","last_reported":1702922966,"current_range_meters":11600,"station_id":"ce4bhb12rcd13ifvqem0","pricing_plan_id":"free"},{"bike_id":"76e5a2b3-e8fd-4345-92e6-3eaee5f67cae","system_id":"levelo_inurba_marseille","lat":43.28856,"lon":5.358371,"is_reserved":false,"is_disabled":false,"rental_uris":{"android":"levelo://app?vid=76e5a2b3-e8fd-4345-92e6-3eaee5f67cae","ios":"levelo://app?vid=76e5a2b3-e8fd-4345-92e6-3eaee5f67cae"},"vehicle_type_id":"4","last_reported":1702922966,"current_range_meters":30400,"station_id":"ce4bhb12rcd13ifvqem0","pricing_plan_id":"free"},{"bike_id":"5d2b7674-df04-4304-838c-c0d3b93083a6","system_id":"levelo_inurba_marseille","lat":43.337562,"lon":5.3745,"is_reserved":false,"is_disabled":false,"rental_uris":{"android":"levelo://app?vid=5d2b7674-df04-4304-838c-c0d3b93083a6","ios":"levelo://app?vid=5d2b7674-df04-4304-838c-c0d3b93083a6"},"vehicle_type_id":"4","last_reported":1702922966,"current_range_meters":18800,"station_id":"","pricing_plan_id":"free"},{"bike_id":"f7e5c957-9d95-4faf-9ebb-acde3f6f2653","system_id":"levelo_inurba_marseille","lat":43.306412,"lon":5.401035,"is_reserved":false,"is_disabled":false,"rental_uris":{"android":"levelo://app?vid=f7e5c957-9d95-4faf-9ebb-acde3f6f2653","ios":"levelo://app?vid=f7e5c957-9d95-4faf-9ebb-acde3f6f2653"},"vehicle_type_id":"4","last_reported":1702922966,"current_range_meters":13200,"station_id":"ce4bh112rcd13ifvqda0","pricing_plan_id":"free"},{"bike_id":"fc8d24bb-0c26-4688-9bac-affcc075aa4d","system_id":"levelo_inurba_marseille","lat":43.3376,"lon":5.37453,"is_reserved":false,"is_disabled":false,"rental_uris":{"android":"levelo://app?vid=fc8d24bb-0c26-4688-9bac-affcc075aa4d","ios":"levelo://app?vid=fc8d24bb-0c26-4688-9bac-affcc075aa4d"},"vehicle_type_id":"4","last_reported":1702922966,"current_range_meters":25600,"station_id":"","pricing_plan_id":"free"},{"bike_id":"52555428-7738-4bc5-99ea-eb79b5202705","system_id":"levelo_inurba_marseille","lat":43.33762,"lon":5.37449,"is_reserved":false,"is_disabled":false,"rental_uris":{"android":"levelo://app?vid=52555428-7738-4bc5-99ea-eb79b5202705","ios":"levelo://app?vid=52555428-7738-4bc5-99ea-eb79b5202705"},"vehicle_type_id":"4","last_reported":1702922966,"current_range_meters":28000,"station_id":"","pricing_plan_id":"free"},{"bike_id":"2ef61d34-b50e-4ecc-bbc5-2d141c9a907f","system_id":"levelo_inurba_marseille","lat":43.301117,"lon":5.398795,"is_reserved":false,"is_disabled":false,"rental_uris":{"android":"levelo://app?vid=2ef61d34-b50e-4ecc-bbc5-2d141c9a907f","ios":"levelo://app?vid=2ef61d34-b50e-4ecc-bbc5-2d141c9a907f"},"vehicle_type_id":"4","last_reported":1702922966,"current_range_meters":26400,"station_id":"ce4bh0h2rcd13ifvqd40","pricing_plan_id":"free"},{"bike_id":"94bc8a96-a64b-4144-b138-f7ac1eb736c3","system_id":"levelo_inurba_marseille","lat":43.297815,"lon":5.393548,"is_reserved":false,"is_disabled":false,"rental_uris":{"android":"levelo://app?vid=94bc8a96-a64b-4144-b138-f7ac1eb736c3","ios":"levelo://app?vid=94bc8a96-a64b-4144-b138-f7ac1eb736c3"},"vehicle_type_id":"4","last_reported":1702922966,"current_range_meters":22400,"station_id":"chh1huq6cuj3fo74tm60","pricing_plan_id":"free"},{"bike_id":"b53a1e17-c739-44a8-880f-81b461834239","system_id":"levelo_inurba_marseille","lat":43.301117,"lon":5.398795,"is_reserved":false,"is_disabled":false,"rental_uris":{"android":"levelo://app?vid=b53a1e17-c739-44a8-880f-81b461834239","ios":"levelo://app?vid=b53a1e17-c739-44a8-880f-81b461834239"},"vehicle_type_id":"4","last_reported":1702922966,"current_range_meters":0,"station_id":"ce4bh0h2rcd13ifvqd40","pricing_plan_id":"free"},{"bike_id":"dfe0e63f-e657-4749-8691-a2708869d71d","system_id":"levelo_inurba_marseille","lat":43.28727,"lon":5.36078,"is_reserved":false,"is_disabled":false,"rental_uris":{"android":"levelo://app?vid=dfe0e63f-e657-4749-8691-a2708869d71d","ios":"levelo://app?vid=dfe0e63f-e657-4749-8691-a2708869d71d"},"vehicle_type_id":"4","last_reported":1702922966,"current_range_meters":26000,"station_id":"cki0cbj6b192h4jlfktg","pricing_plan_id":"free"},{"bike_id":"315e29b3-5297-4ae3-8bd1-53bb7aed1b01","system_id":"levelo_inurba_marseille","lat":43.286591,"lon":5.363346,"is_reserved":false,"is_disabled":false,"rental_uris":{"android":"levelo://app?vid=315e29b3-5297-4ae3-8bd1-53bb7aed1b01","ios":"levelo://app?vid=315e29b3-5297-4ae3-8bd1-53bb7aed1b01"},"vehicle_type_id":"4","last_reported":1702922966,"current_range_meters":400,"station_id":"ce4bhah2rcd13ifvqej0","pricing_plan_id":"free"},{"bike_id":"773474c7-82a1-47e4-a12f-a6e03bb8a19c","system_id":"levelo_inurba_marseille","lat":43.286961,"lon":5.373785,"is_reserved":false,"is_disabled":false,"rental_uris":{"android":"levelo://app?vid=773474c7-82a1-47e4-a12f-a6e03bb8a19c","ios":"levelo://app?vid=773474c7-82a1-47e4-a12f-a6e03bb8a19c"},"vehicle_type_id":"4","last_reported":1702922966,"current_range_meters":5600,"station_id":"ce4bh3p2rcd13ifvqdq0","pricing_plan_id":"free"},{"bike_id":"57343f7a-b5a7-4c64-bde2-578dd3b7d51a","system_id":"levelo_inurba_marseille","lat":43.286961,"lon":5.373785,"is_reserved":false,"is_disabled":false,"rental_uris":{"android":"levelo://app?vid=57343f7a-b5a7-4c64-bde2-578dd3b7d51a","ios":"levelo://app?vid=57343f7a-b5a7-4c64-bde2-578dd3b7d51a"},"vehicle_type_id":"4","last_reported":1702922966,"current_range_meters":31600,"station_id":"ce4bh3p2rcd13ifvqdq0","pricing_plan_id":"free"},{"bike_id":"2618ed52-aaab-4281-b032-c4cac9cbdffa","system_id":"levelo_inurba_marseille","lat":43.28727,"lon":5.36078,"is_reserved":false,"is_disabled":false,"rental_uris":{"android":"levelo://app?vid=2618ed52-aaab-4281-b032-c4cac9cbdffa","ios":"levelo://app?vid=2618ed52-aaab-4281-b032-c4cac9cbdffa"},"vehicle_type_id":"4","last_reported":1702922966,"current_range_meters":20400,"station_id":"cki0cbj6b192h4jlfktg","pricing_plan_id":"free"},{"bike_id":"aeab685b-091d-4fec-9ecb-2b416ebf43f6","system_id":"levelo_inurba_marseille","lat":43.286593,"lon":5.363346,"is_reserved":false,"is_disabled":false,"rental_uris":{"android":"levelo://app?vid=aeab685b-091d-4fec-9ecb-2b416ebf43f6","ios":"levelo://app?vid=aeab685b-091d-4fec-9ecb-2b416ebf43f6"},"vehicle_type_id":"4","last_reported":1702922966,"current_range_meters":12400,"station_id":"ce4bhah2rcd13ifvqej0","pricing_plan_id":"free"},{"bike_id":"09482689-f053-4eab-b1b2-4a75dc849209","system_id":"levelo_inurba_marseille","lat":43.286961,"lon":5.373785,"is_reserved":false,"is_disabled":false,"rental_uris":{"android":"levelo://app?vid=09482689-f053-4eab-b1b2-4a75dc849209","ios":"levelo://app?vid=09482689-f053-4eab-b1b2-4a75dc849209"},"vehicle_type_id":"4","last_reported":1702922966,"current_range_meters":12800,"station_id":"ce4bh3p2rcd13ifvqdq0","pricing_plan_id":"free"},{"bike_id":"a581f509-1603-48d3-a78d-0a28073fa166","system_id":"levelo_inurba_marseille","lat":43.286961,"lon":5.373785,"is_reserved":false,"is_disabled":false,"rental_uris":{"android":"levelo://app?vid=a581f509-1603-48d3-a78d-0a28073fa166","ios":"levelo://app?vid=a581f509-1603-48d3-a78d-0a28073fa166"},"vehicle_type_id":"4","last_reported":1702922966,"current_range_meters":15600,"station_id":"ce4bh3p2rcd13ifvqdq0","pricing_plan_id":"free"},{"bike_id":"9f66de43-582a-4d95-b140-f9bbe4fa1f85","system_id":"levelo_inurba_marseille","lat":43.286591,"lon":5.363346,"is_reserved":false,"is_disabled":false,"rental_uris":{"android":"levelo://app?vid=9f66de43-582a-4d95-b140-f9bbe4fa1f85","ios":"levelo://app?vid=9f66de43-582a-4d95-b140-f9bbe4fa1f85"},"vehicle_type_id":"4","last_reported":1702922966,"current_range_meters":24000,"station_id":"ce4bhah2rcd13ifvqej0","pricing_plan_id":"free"},{"bike_id":"d7e8055d-8385-414b-a464-4f4c9fda54a6","system_id":"levelo_inurba_marseille","lat":43.286591,"lon":5.363346,"is_reserved":false,"is_disabled":false,"rental_uris":{"android":"levelo://app?vid=d7e8055d-8385-414b-a464-4f4c9fda54a6","ios":"levelo://app?vid=d7e8055d-8385-414b-a464-4f4c9fda54a6"},"vehicle_type_id":"4","last_reported":1702922966,"current_range_meters":30800,"station_id":"ce4bhah2rcd13ifvqej0","pricing_plan_id":"free"},{"bike_id":"c19c79a8-775d-4da1-b291-f35d57d67324","system_id":"levelo_inurba_marseille","lat":43.286591,"lon":5.363346,"is_reserved":false,"is_disabled":false,"rental_uris":{"android":"levelo://app?vid=c19c79a8-775d-4da1-b291-f35d57d67324","ios":"levelo://app?vid=c19c79a8-775d-4da1-b291-f35d57d67324"},"vehicle_type_id":"4","last_reported":1702922966,"current_range_meters":14000,"station_id":"ce4bhah2rcd13ifvqej0","pricing_plan_id":"free"},{"bike_id":"e054a5f3-8921-408d-9930-0da36cff847e","system_id":"levelo_inurba_marseille","lat":43.286961,"lon":5.373785,"is_reserved":false,"is_disabled":false,"rental_uris":{"android":"levelo://app?vid=e054a5f3-8921-408d-9930-0da36cff847e","ios":"levelo://app?vid=e054a5f3-8921-408d-9930-0da36cff847e"},"vehicle_type_id":"4","last_reported":1702922966,"current_range_meters":7200,"station_id":"ce4bh3p2rcd13ifvqdq0","pricing_plan_id":"free"},{"bike_id":"f4baef8d-79a0-4bbb-a482-719efc270145","system_id":"levelo_inurba_marseille","lat":43.286591,"lon":5.363346,"is_reserved":false,"is_disabled":false,"rental_uris":{"android":"levelo://app?vid=f4baef8d-79a0-4bbb-a482-719efc270145","ios":"levelo://app?vid=f4baef8d-79a0-4bbb-a482-719efc270145"},"vehicle_type_id":"4","last_reported":1702922966,"current_range_meters":23200,"station_id":"ce4bhah2rcd13ifvqej0","pricing_plan_id":"free"},{"bike_id":"c83f40b5-0eff-4b18-abb2-bccad9a95103","system_id":"levelo_inurba_marseille","lat":43.30244,"lon":5.40043,"is_reserved":false,"is_disabled":false,"rental_uris":{"android":"levelo://app?vid=c83f40b5-0eff-4b18-abb2-bccad9a95103","ios":"levelo://app?vid=c83f40b5-0eff-4b18-abb2-bccad9a95103"},"vehicle_type_id":"4","last_reported":1702922966,"current_range_meters":5600,"station_id":"ce4bgvh2rcd13ifvqcs0","pricing_plan_id":"free"},{"bike_id":"77da2441-ca27-4621-9f8f-30d4c07fb06d","system_id":"levelo_inurba_marseille","lat":43.290345,"lon":5.38646,"is_reserved":false,"is_disabled":false,"rental_uris":{"android":"levelo://app?vid=77da2441-ca27-4621-9f8f-30d4c07fb06d","ios":"levelo://app?vid=77da2441-ca27-4621-9f8f-30d4c07fb06d"},"vehicle_type_id":"4","last_reported":1702922966,"current_range_meters":14400,"station_id":"ce4bh4p2rcd13ifvqe0g","pricing_plan_id":"free"},{"bike_id":"6a678265-a1f3-4b9d-84a2-285053b48aa4","system_id":"levelo_inurba_marseille","lat":43.290345,"lon":5.38646,"is_reserved":false,"is_disabled":false,"rental_uris":{"android":"levelo://app?vid=6a678265-a1f3-4b9d-84a2-285053b48aa4","ios":"levelo://app?vid=6a678265-a1f3-4b9d-84a2-285053b48aa4"},"vehicle_type_id":"4","last_reported":1702922966,"current_range_meters":1600,"station_id":"ce4bh4p2rcd13ifvqe0g","pricing_plan_id":"free"},{"bike_id":"f8b98059-39b3-42c1-8744-efd5127029a8","system_id":"levelo_inurba_marseille","lat":43.28917,"lon":5.38423,"is_reserved":false,"is_disabled":false,"rental_uris":{"android":"levelo://app?vid=f8b98059-39b3-42c1-8744-efd5127029a8","ios":"levelo://app?vid=f8b98059-39b3-42c1-8744-efd5127029a8"},"vehicle_type_id":"4","last_reported":1702922966,"current_range_meters":0,"station_id":"ce4bh612rcd13ifvqe6g","pricing_plan_id":"free"},{"bike_id":"860a9534-24ee-4e25-b146-f4076d4f544c","system_id":"levelo_inurba_marseille","lat":43.286039,"lon":5.370681,"is_reserved":false,"is_disabled":false,"rental_uris":{"android":"levelo://app?vid=860a9534-24ee-4e25-b146-f4076d4f544c","ios":"levelo://app?vid=860a9534-24ee-4e25-b146-f4076d4f544c"},"vehicle_type_id":"4","last_reported":1702922966,"current_range_meters":18000,"station_id":"ce4bht12rcd13ifvqi60","pricing_plan_id":"free"},{"bike_id":"abc3ebe8-75fa-417d-8748-ed3de6fa5a6d","system_id":"levelo_inurba_marseille","lat":43.287184,"lon":5.37937,"is_reserved":false,"is_disabled":false,"rental_uris":{"android":"levelo://app?vid=abc3ebe8-75fa-417d-8748-ed3de6fa5a6d","ios":"levelo://app?vid=abc3ebe8-75fa-417d-8748-ed3de6fa5a6d"},"vehicle_type_id":"4","last_reported":1702922966,"current_range_meters":15200,"station_id":"ce4bh9p2rcd13ifvqec0","pricing_plan_id":"free"},{"bike_id":"04ce3566-187c-4390-b127-e0bde3fb4456","system_id":"levelo_inurba_marseille","lat":43.314317,"lon":5.404858,"is_reserved":false,"is_disabled":false,"rental_uris":{"android":"levelo://app?vid=04ce3566-187c-4390-b127-e0bde3fb4456","ios":"levelo://app?vid=04ce3566-187c-4390-b127-e0bde3fb4456"},"vehicle_type_id":"4","last_reported":1702922966,"current_range_meters":22400,"station_id":"","pricing_plan_id":"free"},{"bike_id":"696c58fb-fc9d-45bc-979b-4539d16a8820","system_id":"levelo_inurba_marseille","lat":43.284538,"lon":5.358657,"is_reserved":false,"is_disabled":false,"rental_uris":{"android":"levelo://app?vid=696c58fb-fc9d-45bc-979b-4539d16a8820","ios":"levelo://app?vid=696c58fb-fc9d-45bc-979b-4539d16a8820"},"vehicle_type_id":"4","last_reported":1702922966,"current_range_meters":17600,"station_id":"ce4bhah2rcd13ifvqei0","pricing_plan_id":"free"},{"bike_id":"28d8391b-a5f2-4ce6-a00a-c9ad0d55a761","system_id":"levelo_inurba_marseille","lat":43.284538,"lon":5.358657,"is_reserved":false,"is_disabled":false,"rental_uris":{"android":"levelo://app?vid=28d8391b-a5f2-4ce6-a00a-c9ad0d55a761","ios":"levelo://app?vid=28d8391b-a5f2-4ce6-a00a-c9ad0d55a761"},"vehicle_type_id":"4","last_reported":1702922966,"current_range_meters":12800,"station_id":"ce4bhah2rcd13ifvqei0","pricing_plan_id":"free"},{"bike_id":"f6c81ba5-9c3e-47a1-9df8-c7deeefd4246","system_id":"levelo_inurba_marseille","lat":43.284538,"lon":5.358657,"is_reserved":false,"is_disabled":false,"rental_uris":{"android":"levelo://app?vid=f6c81ba5-9c3e-47a1-9df8-c7deeefd4246","ios":"levelo://app?vid=f6c81ba5-9c3e-47a1-9df8-c7deeefd4246"},"vehicle_type_id":"4","last_reported":1702922966,"current_range_meters":5200,"station_id":"ce4bhah2rcd13ifvqei0","pricing_plan_id":"free"},{"bike_id":"0f237380-8414-47ca-9607-4fd40ea057f0","system_id":"levelo_inurba_marseille","lat":43.295713,"lon":5.399639,"is_reserved":false,"is_disabled":false,"rental_uris":{"android":"levelo://app?vid=0f237380-8414-47ca-9607-4fd40ea057f0","ios":"levelo://app?vid=0f237380-8414-47ca-9607-4fd40ea057f0"},"vehicle_type_id":"4","last_reported":1702922966,"current_range_meters":23200,"station_id":"ce4bh312rcd13ifvqdj0","pricing_plan_id":"free"},{"bike_id":"2dfa5049-0e1b-4839-b5c3-156910a65dbd","system_id":"levelo_inurba_marseille","lat":43.33218,"lon":5.397067,"is_reserved":false,"is_disabled":false,"rental_uris":{"android":"levelo://app?vid=2dfa5049-0e1b-4839-b5c3-156910a65dbd","ios":"levelo://app?vid=2dfa5049-0e1b-4839-b5c3-156910a65dbd"},"vehicle_type_id":"4","last_reported":1702922966,"current_range_meters":4400,"station_id":"","pricing_plan_id":"free"},{"bike_id":"dd7c3735-fcc8-4fe9-8427-c354b4521977","system_id":"levelo_inurba_marseille","lat":43.28682,"lon":5.38648,"is_reserved":false,"is_disabled":false,"rental_uris":{"android":"levelo://app?vid=dd7c3735-fcc8-4fe9-8427-c354b4521977","ios":"levelo://app?vid=dd7c3735-fcc8-4fe9-8427-c354b4521977"},"vehicle_type_id":"4","last_reported":1702922966,"current_range_meters":0,"station_id":"ce4bh492rcd13ifvqdug","pricing_plan_id":"free"},{"bike_id":"8239e02e-c692-49dd-ab03-831f33e29f4e","system_id":"levelo_inurba_marseille","lat":43.286595,"lon":5.386795,"is_reserved":false,"is_disabled":false,"rental_uris":{"android":"levelo://app?vid=8239e02e-c692-49dd-ab03-831f33e29f4e","ios":"levelo://app?vid=8239e02e-c692-49dd-ab03-831f33e29f4e"},"vehicle_type_id":"4","last_reported":1702922966,"current_range_meters":14800,"station_id":"ce4bh492rcd13ifvqdug","pricing_plan_id":"free"},{"bike_id":"9b93ae03-c4ce-47d5-82d5-936219ad457c","system_id":"levelo_inurba_marseille","lat":43.319179,"lon":5.407725,"is_reserved":false,"is_disabled":false,"rental_uris":{"android":"levelo://app?vid=9b93ae03-c4ce-47d5-82d5-936219ad457c","ios":"levelo://app?vid=9b93ae03-c4ce-47d5-82d5-936219ad457c"},"vehicle_type_id":"4","last_reported":1702922966,"current_range_meters":24400,"station_id":"ce4bhq12rcd13ifvqhig","pricing_plan_id":"free"},{"bike_id":"197d010c-8c65-45b1-a7ab-5101451cdb81","system_id":"levelo_inurba_marseille","lat":43.284793,"lon":5.384113,"is_reserved":false,"is_disabled":false,"rental_uris":{"android":"levelo://app?vid=197d010c-8c65-45b1-a7ab-5101451cdb81","ios":"levelo://app?vid=197d010c-8c65-45b1-a7ab-5101451cdb81"},"vehicle_type_id":"4","last_reported":1702922966,"current_range_meters":0,"station_id":"ce4bh512rcd13ifvqe3g","pricing_plan_id":"free"},{"bike_id":"2919631a-5f21-4cf6-930a-50f71929b7b5","system_id":"levelo_inurba_marseille","lat":43.29795,"lon":5.404086,"is_reserved":false,"is_disabled":false,"rental_uris":{"android":"levelo://app?vid=2919631a-5f21-4cf6-930a-50f71929b7b5","ios":"levelo://app?vid=2919631a-5f21-4cf6-930a-50f71929b7b5"},"vehicle_type_id":"4","last_reported":1702922966,"current_range_meters":30400,"station_id":"ce4bh112rcd13ifvqd90","pricing_plan_id":"free"},{"bike_id":"3c80ef46-2876-4f79-a188-02f3015cf80d","system_id":"levelo_inurba_marseille","lat":43.283498,"lon":5.380948,"is_reserved":false,"is_disabled":false,"rental_uris":{"android":"levelo://app?vid=3c80ef46-2876-4f79-a188-02f3015cf80d","ios":"levelo://app?vid=3c80ef46-2876-4f79-a188-02f3015cf80d"},"vehicle_type_id":"4","last_reported":1702922966,"current_range_meters":23600,"station_id":"ce4bh412rcd13ifvqdr0","pricing_plan_id":"free"},{"bike_id":"63937f00-79aa-4dea-877e-5d1eecd0759e","system_id":"levelo_inurba_marseille","lat":43.306412,"lon":5.401035,"is_reserved":false,"is_disabled":false,"rental_uris":{"android":"levelo://app?vid=63937f00-79aa-4dea-877e-5d1eecd0759e","ios":"levelo://app?vid=63937f00-79aa-4dea-877e-5d1eecd0759e"},"vehicle_type_id":"4","last_reported":1702922966,"current_range_meters":26000,"station_id":"ce4bh112rcd13ifvqda0","pricing_plan_id":"free"},{"bike_id":"a8b0865f-f71d-4017-875d-7f367ba902cb","system_id":"levelo_inurba_marseille","lat":43.292724,"lon":5.401131,"is_reserved":false,"is_disabled":false,"rental_uris":{"android":"levelo://app?vid=a8b0865f-f71d-4017-875d-7f367ba902cb","ios":"levelo://app?vid=a8b0865f-f71d-4017-875d-7f367ba902cb"},"vehicle_type_id":"4","last_reported":1702922966,"current_range_meters":6400,"station_id":"ce4bh312rcd13ifvqdk0","pricing_plan_id":"free"},{"bike_id":"0f71ef5d-fe14-458b-94a3-b300651543e2","system_id":"levelo_inurba_marseille","lat":43.292724,"lon":5.401131,"is_reserved":false,"is_disabled":false,"rental_uris":{"android":"levelo://app?vid=0f71ef5d-fe14-458b-94a3-b300651543e2","ios":"levelo://app?vid=0f71ef5d-fe14-458b-94a3-b300651543e2"},"vehicle_type_id":"4","last_reported":1702922966,"current_range_meters":13200,"station_id":"ce4bh312rcd13ifvqdk0","pricing_plan_id":"free"},{"bike_id":"9698e689-4b8e-4a73-8d7d-39bb6b2312fa","system_id":"levelo_inurba_marseille","lat":43.281044,"lon":5.378308,"is_reserved":false,"is_disabled":false,"rental_uris":{"android":"levelo://app?vid=9698e689-4b8e-4a73-8d7d-39bb6b2312fa","ios":"levelo://app?vid=9698e689-4b8e-4a73-8d7d-39bb6b2312fa"},"vehicle_type_id":"4","last_reported":1702922966,"current_range_meters":0,"station_id":"ce4bha12rcd13ifvqee0","pricing_plan_id":"free"},{"bike_id":"9576a93b-f9f3-4f41-a132-380f5451aa88","system_id":"levelo_inurba_marseille","lat":43.281044,"lon":5.378308,"is_reserved":false,"is_disabled":false,"rental_uris":{"android":"levelo://app?vid=9576a93b-f9f3-4f41-a132-380f5451aa88","ios":"levelo://app?vid=9576a93b-f9f3-4f41-a132-380f5451aa88"},"vehicle_type_id":"4","last_reported":1702922966,"current_range_meters":26400,"station_id":"ce4bha12rcd13ifvqee0","pricing_plan_id":"free"},{"bike_id":"9a4b4074-efe8-41e6-bfcf-3f02e468019d","system_id":"levelo_inurba_marseille","lat":43.29041,"lon":5.399634,"is_reserved":false,"is_disabled":false,"rental_uris":{"android":"levelo://app?vid=9a4b4074-efe8-41e6-bfcf-3f02e468019d","ios":"levelo://app?vid=9a4b4074-efe8-41e6-bfcf-3f02e468019d"},"vehicle_type_id":"4","last_reported":1702922966,"current_range_meters":800,"station_id":"ce4bh392rcd13ifvqdm0","pricing_plan_id":"free"},{"bike_id":"4560fc0d-5cbf-4782-9cf0-f99c935de2fd","system_id":"levelo_inurba_marseille","lat":43.29633,"lon":5.40594,"is_reserved":false,"is_disabled":false,"rental_uris":{"android":"levelo://app?vid=4560fc0d-5cbf-4782-9cf0-f99c935de2fd","ios":"levelo://app?vid=4560fc0d-5cbf-4782-9cf0-f99c935de2fd"},"vehicle_type_id":"4","last_reported":1702922966,"current_range_meters":4800,"station_id":"ce4bh0h2rcd13ifvqd60","pricing_plan_id":"free"},{"bike_id":"d857db8b-6c01-4b75-80cf-443c2dbee985","system_id":"levelo_inurba_marseille","lat":43.284462,"lon":5.392121,"is_reserved":false,"is_disabled":false,"rental_uris":{"android":"levelo://app?vid=d857db8b-6c01-4b75-80cf-443c2dbee985","ios":"levelo://app?vid=d857db8b-6c01-4b75-80cf-443c2dbee985"},"vehicle_type_id":"4","last_reported":1702922966,"current_range_meters":23600,"station_id":"ce4bhoh2rcd13ifvqh5g","pricing_plan_id":"free"},{"bike_id":"75a2a611-e6d8-442f-ba5a-47c2032c5304","system_id":"levelo_inurba_marseille","lat":43.284462,"lon":5.392121,"is_reserved":false,"is_disabled":false,"rental_uris":{"android":"levelo://app?vid=75a2a611-e6d8-442f-ba5a-47c2032c5304","ios":"levelo://app?vid=75a2a611-e6d8-442f-ba5a-47c2032c5304"},"vehicle_type_id":"4","last_reported":1702922966,"current_range_meters":6000,"station_id":"ce4bhoh2rcd13ifvqh5g","pricing_plan_id":"free"},{"bike_id":"078401c7-9978-48fe-a767-59fb46b7e93c","system_id":"levelo_inurba_marseille","lat":43.284462,"lon":5.392121,"is_reserved":false,"is_disabled":false,"rental_uris":{"android":"levelo://app?vid=078401c7-9978-48fe-a767-59fb46b7e93c","ios":"levelo://app?vid=078401c7-9978-48fe-a767-59fb46b7e93c"},"vehicle_type_id":"4","last_reported":1702922966,"current_range_meters":8800,"station_id":"ce4bhoh2rcd13ifvqh5g","pricing_plan_id":"free"},{"bike_id":"0838db44-449b-44e8-8843-faff98a2f14f","system_id":"levelo_inurba_marseille","lat":43.320045,"lon":5.415046,"is_reserved":false,"is_disabled":false,"rental_uris":{"android":"levelo://app?vid=0838db44-449b-44e8-8843-faff98a2f14f","ios":"levelo://app?vid=0838db44-449b-44e8-8843-faff98a2f14f"},"vehicle_type_id":"4","last_reported":1702922966,"current_range_meters":5600,"station_id":"ce4bhq92rcd13ifvqhkg","pricing_plan_id":"free"},{"bike_id":"161610c9-6fc5-4e50-ad17-4c5ebc199e19","system_id":"levelo_inurba_marseille","lat":43.279742,"lon":5.38744,"is_reserved":false,"is_disabled":false,"rental_uris":{"android":"levelo://app?vid=161610c9-6fc5-4e50-ad17-4c5ebc199e19","ios":"levelo://app?vid=161610c9-6fc5-4e50-ad17-4c5ebc199e19"},"vehicle_type_id":"4","last_reported":1702922966,"current_range_meters":7200,"station_id":"ce4bhg12rcd13ifvqf80","pricing_plan_id":"free"},{"bike_id":"be3cc1a7-7a49-4652-95b5-2a4c2119e9a7","system_id":"levelo_inurba_marseille","lat":43.27618,"lon":5.361009,"is_reserved":false,"is_disabled":false,"rental_uris":{"android":"levelo://app?vid=be3cc1a7-7a49-4652-95b5-2a4c2119e9a7","ios":"levelo://app?vid=be3cc1a7-7a49-4652-95b5-2a4c2119e9a7"},"vehicle_type_id":"4","last_reported":1702922966,"current_range_meters":15600,"station_id":"ce4bgj92rcd13ifvqbe0","pricing_plan_id":"free"},{"bike_id":"02734c30-3e6c-4806-8249-d5397fae9fc0","system_id":"levelo_inurba_marseille","lat":43.292569,"lon":5.409107,"is_reserved":false,"is_disabled":false,"rental_uris":{"android":"levelo://app?vid=02734c30-3e6c-4806-8249-d5397fae9fc0","ios":"levelo://app?vid=02734c30-3e6c-4806-8249-d5397fae9fc0"},"vehicle_type_id":"4","last_reported":1702922966,"current_range_meters":6000,"station_id":"ce4bh192rcd13ifvqdc0","pricing_plan_id":"free"},{"bike_id":"fb2165d9-7688-44bb-baf7-117482f72171","system_id":"levelo_inurba_marseille","lat":43.292569,"lon":5.409107,"is_reserved":false,"is_disabled":false,"rental_uris":{"android":"levelo://app?vid=fb2165d9-7688-44bb-baf7-117482f72171","ios":"levelo://app?vid=fb2165d9-7688-44bb-baf7-117482f72171"},"vehicle_type_id":"4","last_reported":1702922966,"current_range_meters":20000,"station_id":"ce4bh192rcd13ifvqdc0","pricing_plan_id":"free"},{"bike_id":"06d6d0a7-5a4c-4ff6-a91a-ac2bb0e711e7","system_id":"levelo_inurba_marseille","lat":43.276081,"lon":5.361014,"is_reserved":false,"is_disabled":false,"rental_uris":{"android":"levelo://app?vid=06d6d0a7-5a4c-4ff6-a91a-ac2bb0e711e7","ios":"levelo://app?vid=06d6d0a7-5a4c-4ff6-a91a-ac2bb0e711e7"},"vehicle_type_id":"4","last_reported":1702922966,"current_range_meters":8000,"station_id":"ce4bgj92rcd13ifvqbe0","pricing_plan_id":"free"},{"bike_id":"15e1f8dc-2600-4807-a14e-dd378347c034","system_id":"levelo_inurba_marseille","lat":43.303837,"lon":5.418724,"is_reserved":false,"is_disabled":false,"rental_uris":{"android":"levelo://app?vid=15e1f8dc-2600-4807-a14e-dd378347c034","ios":"levelo://app?vid=15e1f8dc-2600-4807-a14e-dd378347c034"},"vehicle_type_id":"4","last_reported":1702922966,"current_range_meters":27600,"station_id":"ce4bhop2rcd13ifvqh7g","pricing_plan_id":"free"},{"bike_id":"b74ac91c-2259-4d14-8117-84ae91e1dbbe","system_id":"levelo_inurba_marseille","lat":43.303837,"lon":5.418724,"is_reserved":false,"is_disabled":false,"rental_uris":{"android":"levelo://app?vid=b74ac91c-2259-4d14-8117-84ae91e1dbbe","ios":"levelo://app?vid=b74ac91c-2259-4d14-8117-84ae91e1dbbe"},"vehicle_type_id":"4","last_reported":1702922966,"current_range_meters":18800,"station_id":"ce4bhop2rcd13ifvqh7g","pricing_plan_id":"free"},{"bike_id":"7e531dfe-82c7-4c7b-b39e-880774fbbd06","system_id":"levelo_inurba_marseille","lat":43.30364,"lon":5.41884,"is_reserved":false,"is_disabled":false,"rental_uris":{"android":"levelo://app?vid=7e531dfe-82c7-4c7b-b39e-880774fbbd06","ios":"levelo://app?vid=7e531dfe-82c7-4c7b-b39e-880774fbbd06"},"vehicle_type_id":"4","last_reported":1702922966,"current_range_meters":12400,"station_id":"ce4bhop2rcd13ifvqh7g","pricing_plan_id":"free"},{"bike_id":"8b7163c8-747c-4e96-8584-c017d4b913c7","system_id":"levelo_inurba_marseille","lat":43.273613,"lon":5.362705,"is_reserved":false,"is_disabled":false,"rental_uris":{"android":"levelo://app?vid=8b7163c8-747c-4e96-8584-c017d4b913c7","ios":"levelo://app?vid=8b7163c8-747c-4e96-8584-c017d4b913c7"},"vehicle_type_id":"4","last_reported":1702922966,"current_range_meters":19600,"station_id":"ce4bhbh2rcd13ifvqeo0","pricing_plan_id":"free"},{"bike_id":"0cf403f8-9992-471b-b83e-97c5b20efdb5","system_id":"levelo_inurba_marseille","lat":43.273609,"lon":5.362708,"is_reserved":false,"is_disabled":false,"rental_uris":{"android":"levelo://app?vid=0cf403f8-9992-471b-b83e-97c5b20efdb5","ios":"levelo://app?vid=0cf403f8-9992-471b-b83e-97c5b20efdb5"},"vehicle_type_id":"4","last_reported":1702922966,"current_range_meters":12000,"station_id":"ce4bhbh2rcd13ifvqeo0","pricing_plan_id":"free"},{"bike_id":"1ca9c633-11cc-4409-80d7-3ca394ba85b3","system_id":"levelo_inurba_marseille","lat":43.273609,"lon":5.362708,"is_reserved":false,"is_disabled":false,"rental_uris":{"android":"levelo://app?vid=1ca9c633-11cc-4409-80d7-3ca394ba85b3","ios":"levelo://app?vid=1ca9c633-11cc-4409-80d7-3ca394ba85b3"},"vehicle_type_id":"4","last_reported":1702922966,"current_range_meters":21600,"station_id":"ce4bhbh2rcd13ifvqeo0","pricing_plan_id":"free"},{"bike_id":"6c43e30d-f25f-4254-85dc-cf1c3679942b","system_id":"levelo_inurba_marseille","lat":43.275625,"lon":5.384392,"is_reserved":false,"is_disabled":false,"rental_uris":{"android":"levelo://app?vid=6c43e30d-f25f-4254-85dc-cf1c3679942b","ios":"levelo://app?vid=6c43e30d-f25f-4254-85dc-cf1c3679942b"},"vehicle_type_id":"4","last_reported":1702922966,"current_range_meters":16800,"station_id":"ce4bhh92rcd13ifvqfi0","pricing_plan_id":"free"},{"bike_id":"235be2de-6678-4e72-8dc2-4bca6f9fd57f","system_id":"levelo_inurba_marseille","lat":43.275625,"lon":5.384392,"is_reserved":false,"is_disabled":false,"rental_uris":{"android":"levelo://app?vid=235be2de-6678-4e72-8dc2-4bca6f9fd57f","ios":"levelo://app?vid=235be2de-6678-4e72-8dc2-4bca6f9fd57f"},"vehicle_type_id":"4","last_reported":1702922966,"current_range_meters":30000,"station_id":"ce4bhh92rcd13ifvqfi0","pricing_plan_id":"free"},{"bike_id":"ba23a49f-f752-40f9-b881-d731ba920e07","system_id":"levelo_inurba_marseille","lat":43.323587,"lon":5.419182,"is_reserved":false,"is_disabled":false,"rental_uris":{"android":"levelo://app?vid=ba23a49f-f752-40f9-b881-d731ba920e07","ios":"levelo://app?vid=ba23a49f-f752-40f9-b881-d731ba920e07"},"vehicle_type_id":"4","last_reported":1702922966,"current_range_meters":27600,"station_id":"","pricing_plan_id":"free"},{"bike_id":"72c18f66-89c7-443d-aa32-33db8698c1dc","system_id":"levelo_inurba_marseille","lat":43.317121,"lon":5.423936,"is_reserved":false,"is_disabled":false,"rental_uris":{"android":"levelo://app?vid=72c18f66-89c7-443d-aa32-33db8698c1dc","ios":"levelo://app?vid=72c18f66-89c7-443d-aa32-33db8698c1dc"},"vehicle_type_id":"4","last_reported":1702922966,"current_range_meters":8000,"station_id":"ce4bhp92rcd13ifvqhbg","pricing_plan_id":"free"},{"bike_id":"3ca2c2d2-99b0-4aa6-a05d-e30f02e6a7fb","system_id":"levelo_inurba_marseille","lat":43.276092,"lon":5.395289,"is_reserved":false,"is_disabled":false,"rental_uris":{"android":"levelo://app?vid=3ca2c2d2-99b0-4aa6-a05d-e30f02e6a7fb","ios":"levelo://app?vid=3ca2c2d2-99b0-4aa6-a05d-e30f02e6a7fb"},"vehicle_type_id":"4","last_reported":1702922966,"current_range_meters":12400,"station_id":"","pricing_plan_id":"free"},{"bike_id":"a42e10ef-493d-4215-b65b-3f92039294cd","system_id":"levelo_inurba_marseille","lat":43.273129,"lon":5.390725,"is_reserved":false,"is_disabled":false,"rental_uris":{"android":"levelo://app?vid=a42e10ef-493d-4215-b65b-3f92039294cd","ios":"levelo://app?vid=a42e10ef-493d-4215-b65b-3f92039294cd"},"vehicle_type_id":"4","last_reported":1702922966,"current_range_meters":7600,"station_id":"ce4bhgp2rcd13ifvqfe0","pricing_plan_id":"free"},{"bike_id":"4aa50c83-f74e-4e80-a38a-68eb50be775e","system_id":"levelo_inurba_marseille","lat":43.3041,"lon":5.42548,"is_reserved":false,"is_disabled":false,"rental_uris":{"android":"levelo://app?vid=4aa50c83-f74e-4e80-a38a-68eb50be775e","ios":"levelo://app?vid=4aa50c83-f74e-4e80-a38a-68eb50be775e"},"vehicle_type_id":"4","last_reported":1702922966,"current_range_meters":10000,"station_id":"ce4bhoh2rcd13ifvqh6g","pricing_plan_id":"free"},{"bike_id":"fb094048-824a-49d1-905f-084ec3753a88","system_id":"levelo_inurba_marseille","lat":43.295523,"lon":5.422926,"is_reserved":false,"is_disabled":false,"rental_uris":{"android":"levelo://app?vid=fb094048-824a-49d1-905f-084ec3753a88","ios":"levelo://app?vid=fb094048-824a-49d1-905f-084ec3753a88"},"vehicle_type_id":"4","last_reported":1702922966,"current_range_meters":24000,"station_id":"ce4bhph2rcd13ifvqhdg","pricing_plan_id":"free"},{"bike_id":"9cbe5e87-404e-4c09-afbe-5ee44247e5dc","system_id":"levelo_inurba_marseille","lat":43.295523,"lon":5.422926,"is_reserved":false,"is_disabled":false,"rental_uris":{"android":"levelo://app?vid=9cbe5e87-404e-4c09-afbe-5ee44247e5dc","ios":"levelo://app?vid=9cbe5e87-404e-4c09-afbe-5ee44247e5dc"},"vehicle_type_id":"4","last_reported":1702922966,"current_range_meters":31200,"station_id":"ce4bhph2rcd13ifvqhdg","pricing_plan_id":"free"},{"bike_id":"628a1844-4de6-4ff8-b7b8-44bb12a39376","system_id":"levelo_inurba_marseille","lat":43.295511,"lon":5.422926,"is_reserved":false,"is_disabled":false,"rental_uris":{"android":"levelo://app?vid=628a1844-4de6-4ff8-b7b8-44bb12a39376","ios":"levelo://app?vid=628a1844-4de6-4ff8-b7b8-44bb12a39376"},"vehicle_type_id":"4","last_reported":1702922966,"current_range_meters":31200,"station_id":"ce4bhph2rcd13ifvqhdg","pricing_plan_id":"free"},{"bike_id":"c5b44840-1601-43ac-abe9-c1e5b739efac","system_id":"levelo_inurba_marseille","lat":43.295523,"lon":5.422926,"is_reserved":false,"is_disabled":false,"rental_uris":{"android":"levelo://app?vid=c5b44840-1601-43ac-abe9-c1e5b739efac","ios":"levelo://app?vid=c5b44840-1601-43ac-abe9-c1e5b739efac"},"vehicle_type_id":"4","last_reported":1702922966,"current_range_meters":26000,"station_id":"ce4bhph2rcd13ifvqhdg","pricing_plan_id":"free"},{"bike_id":"52ffbfe2-3dc9-4e53-97d1-3182ba2225bd","system_id":"levelo_inurba_marseille","lat":43.295511,"lon":5.422926,"is_reserved":false,"is_disabled":false,"rental_uris":{"android":"levelo://app?vid=52ffbfe2-3dc9-4e53-97d1-3182ba2225bd","ios":"levelo://app?vid=52ffbfe2-3dc9-4e53-97d1-3182ba2225bd"},"vehicle_type_id":"4","last_reported":1702922966,"current_range_meters":22400,"station_id":"ce4bhph2rcd13ifvqhdg","pricing_plan_id":"free"},{"bike_id":"35f4c7df-1dd1-49cd-b086-e9b64d14ba25","system_id":"levelo_inurba_marseille","lat":43.295511,"lon":5.422926,"is_reserved":false,"is_disabled":false,"rental_uris":{"android":"levelo://app?vid=35f4c7df-1dd1-49cd-b086-e9b64d14ba25","ios":"levelo://app?vid=35f4c7df-1dd1-49cd-b086-e9b64d14ba25"},"vehicle_type_id":"4","last_reported":1702922966,"current_range_meters":25600,"station_id":"ce4bhph2rcd13ifvqhdg","pricing_plan_id":"free"},{"bike_id":"1d583d68-8350-42de-af0a-dd3bb755495b","system_id":"levelo_inurba_marseille","lat":43.29549,"lon":5.42286,"is_reserved":false,"is_disabled":false,"rental_uris":{"android":"levelo://app?vid=1d583d68-8350-42de-af0a-dd3bb755495b","ios":"levelo://app?vid=1d583d68-8350-42de-af0a-dd3bb755495b"},"vehicle_type_id":"4","last_reported":1702922966,"current_range_meters":3200,"station_id":"ce4bhph2rcd13ifvqhdg","pricing_plan_id":"free"},{"bike_id":"71f60542-d421-4821-85b4-0f51f2732a03","system_id":"levelo_inurba_marseille","lat":43.295523,"lon":5.422926,"is_reserved":false,"is_disabled":false,"rental_uris":{"android":"levelo://app?vid=71f60542-d421-4821-85b4-0f51f2732a03","ios":"levelo://app?vid=71f60542-d421-4821-85b4-0f51f2732a03"},"vehicle_type_id":"4","last_reported":1702922966,"current_range_meters":18800,"station_id":"ce4bhph2rcd13ifvqhdg","pricing_plan_id":"free"},{"bike_id":"fc3f22f4-3d85-4b36-bd3d-60cd40afff37","system_id":"levelo_inurba_marseille","lat":43.295511,"lon":5.422926,"is_reserved":false,"is_disabled":false,"rental_uris":{"android":"levelo://app?vid=fc3f22f4-3d85-4b36-bd3d-60cd40afff37","ios":"levelo://app?vid=fc3f22f4-3d85-4b36-bd3d-60cd40afff37"},"vehicle_type_id":"4","last_reported":1702922966,"current_range_meters":10800,"station_id":"ce4bhph2rcd13ifvqhdg","pricing_plan_id":"free"},{"bike_id":"3a321024-3266-4d55-8245-378e31f3742c","system_id":"levelo_inurba_marseille","lat":43.278128,"lon":5.407195,"is_reserved":false,"is_disabled":false,"rental_uris":{"android":"levelo://app?vid=3a321024-3266-4d55-8245-378e31f3742c","ios":"levelo://app?vid=3a321024-3266-4d55-8245-378e31f3742c"},"vehicle_type_id":"4","last_reported":1702922966,"current_range_meters":4400,"station_id":"ce4bhnh2rcd13ifvqgtg","pricing_plan_id":"free"},{"bike_id":"7dcebb6a-00e3-4650-8b02-653536a555d4","system_id":"levelo_inurba_marseille","lat":43.278128,"lon":5.407195,"is_reserved":false,"is_disabled":false,"rental_uris":{"android":"levelo://app?vid=7dcebb6a-00e3-4650-8b02-653536a555d4","ios":"levelo://app?vid=7dcebb6a-00e3-4650-8b02-653536a555d4"},"vehicle_type_id":"4","last_reported":1702922966,"current_range_meters":4000,"station_id":"ce4bhnh2rcd13ifvqgtg","pricing_plan_id":"free"},{"bike_id":"ad10f8c9-cfe7-4eb7-bb3f-2c4707cc1d6b","system_id":"levelo_inurba_marseille","lat":43.27811,"lon":5.40722,"is_reserved":false,"is_disabled":false,"rental_uris":{"android":"levelo://app?vid=ad10f8c9-cfe7-4eb7-bb3f-2c4707cc1d6b","ios":"levelo://app?vid=ad10f8c9-cfe7-4eb7-bb3f-2c4707cc1d6b"},"vehicle_type_id":"4","last_reported":1702922966,"current_range_meters":0,"station_id":"ce4bhnh2rcd13ifvqgtg","pricing_plan_id":"free"},{"bike_id":"522cb719-0bbb-457e-bba3-51d9b97b6d0a","system_id":"levelo_inurba_marseille","lat":43.26681,"lon":5.382694,"is_reserved":false,"is_disabled":false,"rental_uris":{"android":"levelo://app?vid=522cb719-0bbb-457e-bba3-51d9b97b6d0a","ios":"levelo://app?vid=522cb719-0bbb-457e-bba3-51d9b97b6d0a"},"vehicle_type_id":"4","last_reported":1702922966,"current_range_meters":10000,"station_id":"ce4bhg92rcd13ifvqf90","pricing_plan_id":"free"},{"bike_id":"622acec4-94b1-4d43-8b51-f52ed34f2464","system_id":"levelo_inurba_marseille","lat":43.27996,"lon":5.416624,"is_reserved":false,"is_disabled":false,"rental_uris":{"android":"levelo://app?vid=622acec4-94b1-4d43-8b51-f52ed34f2464","ios":"levelo://app?vid=622acec4-94b1-4d43-8b51-f52ed34f2464"},"vehicle_type_id":"4","last_reported":1702922966,"current_range_meters":21600,"station_id":"ce4bho12rcd13ifvqh1g","pricing_plan_id":"free"},{"bike_id":"61c1d5e5-3584-4f3d-af34-e6561a8ec7bf","system_id":"levelo_inurba_marseille","lat":43.265714,"lon":5.372891,"is_reserved":false,"is_disabled":false,"rental_uris":{"android":"levelo://app?vid=61c1d5e5-3584-4f3d-af34-e6561a8ec7bf","ios":"levelo://app?vid=61c1d5e5-3584-4f3d-af34-e6561a8ec7bf"},"vehicle_type_id":"4","last_reported":1702922966,"current_range_meters":0,"station_id":"ce4bhg12rcd13ifvqf70","pricing_plan_id":"free"},{"bike_id":"5952a5d2-1331-4964-90d7-569dd626095f","system_id":"levelo_inurba_marseille","lat":43.265714,"lon":5.372891,"is_reserved":false,"is_disabled":false,"rental_uris":{"android":"levelo://app?vid=5952a5d2-1331-4964-90d7-569dd626095f","ios":"levelo://app?vid=5952a5d2-1331-4964-90d7-569dd626095f"},"vehicle_type_id":"4","last_reported":1702922966,"current_range_meters":14400,"station_id":"ce4bhg12rcd13ifvqf70","pricing_plan_id":"free"},{"bike_id":"50adc33a-5cec-46d7-ab61-ad25db1ee9ac","system_id":"levelo_inurba_marseille","lat":43.308051,"lon":5.43527,"is_reserved":false,"is_disabled":false,"rental_uris":{"android":"levelo://app?vid=50adc33a-5cec-46d7-ab61-ad25db1ee9ac","ios":"levelo://app?vid=50adc33a-5cec-46d7-ab61-ad25db1ee9ac"},"vehicle_type_id":"4","last_reported":1702922966,"current_range_meters":1600,"station_id":"ce4bhph2rcd13ifvqheg","pricing_plan_id":"free"},{"bike_id":"ae8a95c1-6443-4773-ad3f-12c934cfe98a","system_id":"levelo_inurba_marseille","lat":43.308051,"lon":5.43527,"is_reserved":false,"is_disabled":false,"rental_uris":{"android":"levelo://app?vid=ae8a95c1-6443-4773-ad3f-12c934cfe98a","ios":"levelo://app?vid=ae8a95c1-6443-4773-ad3f-12c934cfe98a"},"vehicle_type_id":"4","last_reported":1702922966,"current_range_meters":31200,"station_id":"ce4bhph2rcd13ifvqheg","pricing_plan_id":"free"},{"bike_id":"b60fc5e1-89e5-42b6-95cd-2facc0075673","system_id":"levelo_inurba_marseille","lat":43.308051,"lon":5.43527,"is_reserved":false,"is_disabled":false,"rental_uris":{"android":"levelo://app?vid=b60fc5e1-89e5-42b6-95cd-2facc0075673","ios":"levelo://app?vid=b60fc5e1-89e5-42b6-95cd-2facc0075673"},"vehicle_type_id":"4","last_reported":1702922966,"current_range_meters":21600,"station_id":"ce4bhph2rcd13ifvqheg","pricing_plan_id":"free"},{"bike_id":"6f67b547-e8db-4fb2-af0e-0a5002714483","system_id":"levelo_inurba_marseille","lat":43.265571,"lon":5.390032,"is_reserved":false,"is_disabled":false,"rental_uris":{"android":"levelo://app?vid=6f67b547-e8db-4fb2-af0e-0a5002714483","ios":"levelo://app?vid=6f67b547-e8db-4fb2-af0e-0a5002714483"},"vehicle_type_id":"4","last_reported":1702922966,"current_range_meters":18000,"station_id":"ce4bhe12rcd13ifvqf30","pricing_plan_id":"free"},{"bike_id":"29edd8f8-1149-420d-af11-d35605571897","system_id":"levelo_inurba_marseille","lat":43.26575,"lon":5.39019,"is_reserved":false,"is_disabled":false,"rental_uris":{"android":"levelo://app?vid=29edd8f8-1149-420d-af11-d35605571897","ios":"levelo://app?vid=29edd8f8-1149-420d-af11-d35605571897"},"vehicle_type_id":"4","last_reported":1702922966,"current_range_meters":3200,"station_id":"ce4bhe12rcd13ifvqf30","pricing_plan_id":"free"},{"bike_id":"dea6d4bf-6bd3-4e00-ab36-832382195e1c","system_id":"levelo_inurba_marseille","lat":43.308051,"lon":5.43527,"is_reserved":false,"is_disabled":false,"rental_uris":{"android":"levelo://app?vid=dea6d4bf-6bd3-4e00-ab36-832382195e1c","ios":"levelo://app?vid=dea6d4bf-6bd3-4e00-ab36-832382195e1c"},"vehicle_type_id":"4","last_reported":1702922966,"current_range_meters":30000,"station_id":"ce4bhph2rcd13ifvqheg","pricing_plan_id":"free"},{"bike_id":"50dd6dff-c53f-4ac5-b9a0-4a136248695a","system_id":"levelo_inurba_marseille","lat":43.26949,"lon":5.40262,"is_reserved":false,"is_disabled":false,"rental_uris":{"android":"levelo://app?vid=50dd6dff-c53f-4ac5-b9a0-4a136248695a","ios":"levelo://app?vid=50dd6dff-c53f-4ac5-b9a0-4a136248695a"},"vehicle_type_id":"4","last_reported":1702922966,"current_range_meters":0,"station_id":"cjm6bp8fraef2m0cb0m0","pricing_plan_id":"free"},{"bike_id":"c004ba62-5f4a-48d8-9c18-9ff0def65790","system_id":"levelo_inurba_marseille","lat":43.26949,"lon":5.40262,"is_reserved":false,"is_disabled":false,"rental_uris":{"android":"levelo://app?vid=c004ba62-5f4a-48d8-9c18-9ff0def65790","ios":"levelo://app?vid=c004ba62-5f4a-48d8-9c18-9ff0def65790"},"vehicle_type_id":"4","last_reported":1702922966,"current_range_meters":400,"station_id":"cjm6bp8fraef2m0cb0m0","pricing_plan_id":"free"},{"bike_id":"a4cc3643-0b78-49ea-bb69-072a51937fbe","system_id":"levelo_inurba_marseille","lat":43.26189,"lon":5.37439,"is_reserved":false,"is_disabled":false,"rental_uris":{"android":"levelo://app?vid=a4cc3643-0b78-49ea-bb69-072a51937fbe","ios":"levelo://app?vid=a4cc3643-0b78-49ea-bb69-072a51937fbe"},"vehicle_type_id":"4","last_reported":1702922966,"current_range_meters":24000,"station_id":"","pricing_plan_id":"free"},{"bike_id":"96f17980-700d-4dd0-a917-1e158be15ba2","system_id":"levelo_inurba_marseille","lat":43.261782,"lon":5.374515,"is_reserved":false,"is_disabled":false,"rental_uris":{"android":"levelo://app?vid=96f17980-700d-4dd0-a917-1e158be15ba2","ios":"levelo://app?vid=96f17980-700d-4dd0-a917-1e158be15ba2"},"vehicle_type_id":"4","last_reported":1702922966,"current_range_meters":12000,"station_id":"ce4bhgp2rcd13ifvqfc0","pricing_plan_id":"free"},{"bike_id":"ee1964dd-bd19-4163-8977-66dfe213996c","system_id":"levelo_inurba_marseille","lat":43.261782,"lon":5.374515,"is_reserved":false,"is_disabled":false,"rental_uris":{"android":"levelo://app?vid=ee1964dd-bd19-4163-8977-66dfe213996c","ios":"levelo://app?vid=ee1964dd-bd19-4163-8977-66dfe213996c"},"vehicle_type_id":"4","last_reported":1702922966,"current_range_meters":31200,"station_id":"ce4bhgp2rcd13ifvqfc0","pricing_plan_id":"free"},{"bike_id":"524ed846-4fbf-4d2f-8a66-ae44c466484e","system_id":"levelo_inurba_marseille","lat":43.261782,"lon":5.374515,"is_reserved":false,"is_disabled":false,"rental_uris":{"android":"levelo://app?vid=524ed846-4fbf-4d2f-8a66-ae44c466484e","ios":"levelo://app?vid=524ed846-4fbf-4d2f-8a66-ae44c466484e"},"vehicle_type_id":"4","last_reported":1702922966,"current_range_meters":28000,"station_id":"ce4bhgp2rcd13ifvqfc0","pricing_plan_id":"free"},{"bike_id":"aed94823-987c-4f39-a8b9-00dab2638955","system_id":"levelo_inurba_marseille","lat":43.261782,"lon":5.374515,"is_reserved":false,"is_disabled":false,"rental_uris":{"android":"levelo://app?vid=aed94823-987c-4f39-a8b9-00dab2638955","ios":"levelo://app?vid=aed94823-987c-4f39-a8b9-00dab2638955"},"vehicle_type_id":"4","last_reported":1702922966,"current_range_meters":800,"station_id":"ce4bhgp2rcd13ifvqfc0","pricing_plan_id":"free"},{"bike_id":"596e3210-6bf0-4d85-99a9-57f2c2b7bb13","system_id":"levelo_inurba_marseille","lat":43.262012,"lon":5.379307,"is_reserved":false,"is_disabled":false,"rental_uris":{"android":"levelo://app?vid=596e3210-6bf0-4d85-99a9-57f2c2b7bb13","ios":"levelo://app?vid=596e3210-6bf0-4d85-99a9-57f2c2b7bb13"},"vehicle_type_id":"4","last_reported":1702922966,"current_range_meters":29200,"station_id":"ce4bhjp2rcd13ifvqg90","pricing_plan_id":"free"},{"bike_id":"a3be1c29-995a-4f18-8d28-f5aa4c79f3d0","system_id":"levelo_inurba_marseille","lat":43.271368,"lon":5.40928,"is_reserved":false,"is_disabled":false,"rental_uris":{"android":"levelo://app?vid=a3be1c29-995a-4f18-8d28-f5aa4c79f3d0","ios":"levelo://app?vid=a3be1c29-995a-4f18-8d28-f5aa4c79f3d0"},"vehicle_type_id":"4","last_reported":1702922966,"current_range_meters":29200,"station_id":"ce4bhl12rcd13ifvqgf0","pricing_plan_id":"free"},{"bike_id":"eb1de3d3-c43d-4404-a0bf-e3e0f979c4f1","system_id":"levelo_inurba_marseille","lat":43.271388,"lon":5.409269,"is_reserved":false,"is_disabled":false,"rental_uris":{"android":"levelo://app?vid=eb1de3d3-c43d-4404-a0bf-e3e0f979c4f1","ios":"levelo://app?vid=eb1de3d3-c43d-4404-a0bf-e3e0f979c4f1"},"vehicle_type_id":"4","last_reported":1702922966,"current_range_meters":8400,"station_id":"ce4bhl12rcd13ifvqgf0","pricing_plan_id":"free"},{"bike_id":"048b65ab-e603-40b6-9e1f-0b7ecd62e405","system_id":"levelo_inurba_marseille","lat":43.271368,"lon":5.40928,"is_reserved":false,"is_disabled":false,"rental_uris":{"android":"levelo://app?vid=048b65ab-e603-40b6-9e1f-0b7ecd62e405","ios":"levelo://app?vid=048b65ab-e603-40b6-9e1f-0b7ecd62e405"},"vehicle_type_id":"4","last_reported":1702922966,"current_range_meters":26400,"station_id":"ce4bhl12rcd13ifvqgf0","pricing_plan_id":"free"},{"bike_id":"3ec17574-714c-4dd8-936f-b707a5b77655","system_id":"levelo_inurba_marseille","lat":43.271388,"lon":5.409269,"is_reserved":false,"is_disabled":false,"rental_uris":{"android":"levelo://app?vid=3ec17574-714c-4dd8-936f-b707a5b77655","ios":"levelo://app?vid=3ec17574-714c-4dd8-936f-b707a5b77655"},"vehicle_type_id":"4","last_reported":1702922966,"current_range_meters":16400,"station_id":"ce4bhl12rcd13ifvqgf0","pricing_plan_id":"free"},{"bike_id":"7f0a85fc-e9b1-422b-b922-07a060dc7b5a","system_id":"levelo_inurba_marseille","lat":43.271368,"lon":5.40928,"is_reserved":false,"is_disabled":false,"rental_uris":{"android":"levelo://app?vid=7f0a85fc-e9b1-422b-b922-07a060dc7b5a","ios":"levelo://app?vid=7f0a85fc-e9b1-422b-b922-07a060dc7b5a"},"vehicle_type_id":"4","last_reported":1702922966,"current_range_meters":31200,"station_id":"ce4bhl12rcd13ifvqgf0","pricing_plan_id":"free"},{"bike_id":"d8b3f44b-b64f-48c5-90fb-16521be69981","system_id":"levelo_inurba_marseille","lat":43.267959,"lon":5.402685,"is_reserved":false,"is_disabled":false,"rental_uris":{"android":"levelo://app?vid=d8b3f44b-b64f-48c5-90fb-16521be69981","ios":"levelo://app?vid=d8b3f44b-b64f-48c5-90fb-16521be69981"},"vehicle_type_id":"4","last_reported":1702922966,"current_range_meters":29200,"station_id":"ce501612rcd8frsf0b60","pricing_plan_id":"free"},{"bike_id":"9432fde5-b38d-4791-8aea-32f68aa873e9","system_id":"levelo_inurba_marseille","lat":43.267959,"lon":5.402687,"is_reserved":false,"is_disabled":false,"rental_uris":{"android":"levelo://app?vid=9432fde5-b38d-4791-8aea-32f68aa873e9","ios":"levelo://app?vid=9432fde5-b38d-4791-8aea-32f68aa873e9"},"vehicle_type_id":"4","last_reported":1702922966,"current_range_meters":9600,"station_id":"ce501612rcd8frsf0b60","pricing_plan_id":"free"},{"bike_id":"d634b633-aeb0-4780-9f22-3ee6328af360","system_id":"levelo_inurba_marseille","lat":43.26256,"lon":5.384591,"is_reserved":false,"is_disabled":false,"rental_uris":{"android":"levelo://app?vid=d634b633-aeb0-4780-9f22-3ee6328af360","ios":"levelo://app?vid=d634b633-aeb0-4780-9f22-3ee6328af360"},"vehicle_type_id":"4","last_reported":1702922966,"current_range_meters":19600,"station_id":"ce4bhih2rcd13ifvqfs0","pricing_plan_id":"free"},{"bike_id":"121b143a-c3d0-42e2-8acc-fe4f38cddd91","system_id":"levelo_inurba_marseille","lat":43.26496,"lon":5.39529,"is_reserved":false,"is_disabled":false,"rental_uris":{"android":"levelo://app?vid=121b143a-c3d0-42e2-8acc-fe4f38cddd91","ios":"levelo://app?vid=121b143a-c3d0-42e2-8acc-fe4f38cddd91"},"vehicle_type_id":"4","last_reported":1702922966,"current_range_meters":10000,"station_id":"","pricing_plan_id":"free"},{"bike_id":"e8a234b0-5e27-410f-b763-446173f4b18b","system_id":"levelo_inurba_marseille","lat":43.26491,"lon":5.39545,"is_reserved":false,"is_disabled":false,"rental_uris":{"android":"levelo://app?vid=e8a234b0-5e27-410f-b763-446173f4b18b","ios":"levelo://app?vid=e8a234b0-5e27-410f-b763-446173f4b18b"},"vehicle_type_id":"4","last_reported":1702922966,"current_range_meters":800,"station_id":"","pricing_plan_id":"free"},{"bike_id":"a4975794-e88f-4155-947c-264e12be34c5","system_id":"levelo_inurba_marseille","lat":43.298768,"lon":5.43643,"is_reserved":false,"is_disabled":false,"rental_uris":{"android":"levelo://app?vid=a4975794-e88f-4155-947c-264e12be34c5","ios":"levelo://app?vid=a4975794-e88f-4155-947c-264e12be34c5"},"vehicle_type_id":"4","last_reported":1702922966,"current_range_meters":27200,"station_id":"ce4bhpp2rcd13ifvqhfg","pricing_plan_id":"free"},{"bike_id":"8b000818-ee66-4afa-956c-06d1feec8088","system_id":"levelo_inurba_marseille","lat":43.298768,"lon":5.43643,"is_reserved":false,"is_disabled":false,"rental_uris":{"android":"levelo://app?vid=8b000818-ee66-4afa-956c-06d1feec8088","ios":"levelo://app?vid=8b000818-ee66-4afa-956c-06d1feec8088"},"vehicle_type_id":"4","last_reported":1702922966,"current_range_meters":31200,"station_id":"ce4bhpp2rcd13ifvqhfg","pricing_plan_id":"free"},{"bike_id":"be3c7518-3a90-4ace-b263-cbe424279bc2","system_id":"levelo_inurba_marseille","lat":43.298768,"lon":5.43643,"is_reserved":false,"is_disabled":false,"rental_uris":{"android":"levelo://app?vid=be3c7518-3a90-4ace-b263-cbe424279bc2","ios":"levelo://app?vid=be3c7518-3a90-4ace-b263-cbe424279bc2"},"vehicle_type_id":"4","last_reported":1702922966,"current_range_meters":30000,"station_id":"ce4bhpp2rcd13ifvqhfg","pricing_plan_id":"free"},{"bike_id":"76346036-12b6-4dcc-86d0-232802e30c75","system_id":"levelo_inurba_marseille","lat":43.298768,"lon":5.43643,"is_reserved":false,"is_disabled":false,"rental_uris":{"android":"levelo://app?vid=76346036-12b6-4dcc-86d0-232802e30c75","ios":"levelo://app?vid=76346036-12b6-4dcc-86d0-232802e30c75"},"vehicle_type_id":"4","last_reported":1702922966,"current_range_meters":18800,"station_id":"ce4bhpp2rcd13ifvqhfg","pricing_plan_id":"free"},{"bike_id":"3a6a45a0-22df-4a85-86d4-e6095ebe26d6","system_id":"levelo_inurba_marseille","lat":43.260225,"lon":5.375455,"is_reserved":false,"is_disabled":false,"rental_uris":{"android":"levelo://app?vid=3a6a45a0-22df-4a85-86d4-e6095ebe26d6","ios":"levelo://app?vid=3a6a45a0-22df-4a85-86d4-e6095ebe26d6"},"vehicle_type_id":"4","last_reported":1702922966,"current_range_meters":26000,"station_id":"ce4bhgh2rcd13ifvqfa0","pricing_plan_id":"free"},{"bike_id":"9e394c7b-ad8a-4178-91e9-ac10bd6076ef","system_id":"levelo_inurba_marseille","lat":43.275028,"lon":5.424534,"is_reserved":false,"is_disabled":false,"rental_uris":{"android":"levelo://app?vid=9e394c7b-ad8a-4178-91e9-ac10bd6076ef","ios":"levelo://app?vid=9e394c7b-ad8a-4178-91e9-ac10bd6076ef"},"vehicle_type_id":"4","last_reported":1702922966,"current_range_meters":11600,"station_id":"ce4bhn92rcd13ifvqgrg","pricing_plan_id":"free"},{"bike_id":"510dcc57-dc85-4862-97a9-0e3d22c231cc","system_id":"levelo_inurba_marseille","lat":43.258224,"lon":5.394369,"is_reserved":false,"is_disabled":false,"rental_uris":{"android":"levelo://app?vid=510dcc57-dc85-4862-97a9-0e3d22c231cc","ios":"levelo://app?vid=510dcc57-dc85-4862-97a9-0e3d22c231cc"},"vehicle_type_id":"4","last_reported":1702922966,"current_range_meters":16800,"station_id":"ce4bhip2rcd13ifvqft0","pricing_plan_id":"free"},{"bike_id":"f66b9691-79da-495b-b626-28549e04daba","system_id":"levelo_inurba_marseille","lat":43.25585,"lon":5.38236,"is_reserved":false,"is_disabled":false,"rental_uris":{"android":"levelo://app?vid=f66b9691-79da-495b-b626-28549e04daba","ios":"levelo://app?vid=f66b9691-79da-495b-b626-28549e04daba"},"vehicle_type_id":"4","last_reported":1702922966,"current_range_meters":0,"station_id":"ce4bhih2rcd13ifvqfs0","pricing_plan_id":"free"},{"bike_id":"771c001f-b785-4927-ada6-91aa387b0245","system_id":"levelo_inurba_marseille","lat":43.25579,"lon":5.38226,"is_reserved":false,"is_disabled":false,"rental_uris":{"android":"levelo://app?vid=771c001f-b785-4927-ada6-91aa387b0245","ios":"levelo://app?vid=771c001f-b785-4927-ada6-91aa387b0245"},"vehicle_type_id":"4","last_reported":1702922966,"current_range_meters":4400,"station_id":"ce4bhih2rcd13ifvqfs0","pricing_plan_id":"free"},{"bike_id":"094d45f0-cea5-4dc3-98bc-e91c28e32823","system_id":"levelo_inurba_marseille","lat":43.25576,"lon":5.38222,"is_reserved":false,"is_disabled":false,"rental_uris":{"android":"levelo://app?vid=094d45f0-cea5-4dc3-98bc-e91c28e32823","ios":"levelo://app?vid=094d45f0-cea5-4dc3-98bc-e91c28e32823"},"vehicle_type_id":"4","last_reported":1702922966,"current_range_meters":19200,"station_id":"ce4bhih2rcd13ifvqfs0","pricing_plan_id":"free"},{"bike_id":"c89dcb56-7515-448e-b5f6-fb6ed21417b0","system_id":"levelo_inurba_marseille","lat":43.25503,"lon":5.37651,"is_reserved":false,"is_disabled":false,"rental_uris":{"android":"levelo://app?vid=c89dcb56-7515-448e-b5f6-fb6ed21417b0","ios":"levelo://app?vid=c89dcb56-7515-448e-b5f6-fb6ed21417b0"},"vehicle_type_id":"4","last_reported":1702922966,"current_range_meters":27600,"station_id":"ce4bhh12rcd13ifvqff0","pricing_plan_id":"free"},{"bike_id":"2a49bcf8-fdfb-41e1-91bd-16a50274d949","system_id":"levelo_inurba_marseille","lat":43.25501,"lon":5.37657,"is_reserved":false,"is_disabled":false,"rental_uris":{"android":"levelo://app?vid=2a49bcf8-fdfb-41e1-91bd-16a50274d949","ios":"levelo://app?vid=2a49bcf8-fdfb-41e1-91bd-16a50274d949"},"vehicle_type_id":"4","last_reported":1702922966,"current_range_meters":26800,"station_id":"ce4bhh12rcd13ifvqff0","pricing_plan_id":"free"},{"bike_id":"1ab26662-3a45-4e48-b861-d4c7ec7307b2","system_id":"levelo_inurba_marseille","lat":43.25493,"lon":5.37647,"is_reserved":false,"is_disabled":false,"rental_uris":{"android":"levelo://app?vid=1ab26662-3a45-4e48-b861-d4c7ec7307b2","ios":"levelo://app?vid=1ab26662-3a45-4e48-b861-d4c7ec7307b2"},"vehicle_type_id":"4","last_reported":1702922966,"current_range_meters":16000,"station_id":"ce4bhh12rcd13ifvqff0","pricing_plan_id":"free"},{"bike_id":"88eed449-3d87-4183-9edc-9401796301b8","system_id":"levelo_inurba_marseille","lat":43.25493,"lon":5.37648,"is_reserved":false,"is_disabled":false,"rental_uris":{"android":"levelo://app?vid=88eed449-3d87-4183-9edc-9401796301b8","ios":"levelo://app?vid=88eed449-3d87-4183-9edc-9401796301b8"},"vehicle_type_id":"4","last_reported":1702922966,"current_range_meters":18000,"station_id":"ce4bhh12rcd13ifvqff0","pricing_plan_id":"free"},{"bike_id":"5f10ab57-6efd-45f6-a231-f77b3637d3fb","system_id":"levelo_inurba_marseille","lat":43.25485,"lon":5.37646,"is_reserved":false,"is_disabled":false,"rental_uris":{"android":"levelo://app?vid=5f10ab57-6efd-45f6-a231-f77b3637d3fb","ios":"levelo://app?vid=5f10ab57-6efd-45f6-a231-f77b3637d3fb"},"vehicle_type_id":"4","last_reported":1702922966,"current_range_meters":7600,"station_id":"ce4bhh12rcd13ifvqff0","pricing_plan_id":"free"},{"bike_id":"d2317233-1733-438f-832e-8596d21c90aa","system_id":"levelo_inurba_marseille","lat":43.258224,"lon":5.394369,"is_reserved":false,"is_disabled":false,"rental_uris":{"android":"levelo://app?vid=d2317233-1733-438f-832e-8596d21c90aa","ios":"levelo://app?vid=d2317233-1733-438f-832e-8596d21c90aa"},"vehicle_type_id":"4","last_reported":1702922966,"current_range_meters":0,"station_id":"ce4bhip2rcd13ifvqft0","pricing_plan_id":"free"},{"bike_id":"c23d1671-579c-470b-83c6-73c9d43cd9cc","system_id":"levelo_inurba_marseille","lat":43.258658,"lon":5.398935,"is_reserved":false,"is_disabled":false,"rental_uris":{"android":"levelo://app?vid=c23d1671-579c-470b-83c6-73c9d43cd9cc","ios":"levelo://app?vid=c23d1671-579c-470b-83c6-73c9d43cd9cc"},"vehicle_type_id":"4","last_reported":1702922966,"current_range_meters":11600,"station_id":"ce4bhl92rcd13ifvqghg","pricing_plan_id":"free"},{"bike_id":"5ffb00e1-e1e6-4167-9c9d-d3df4d50f096","system_id":"levelo_inurba_marseille","lat":43.258658,"lon":5.398935,"is_reserved":false,"is_disabled":false,"rental_uris":{"android":"levelo://app?vid=5ffb00e1-e1e6-4167-9c9d-d3df4d50f096","ios":"levelo://app?vid=5ffb00e1-e1e6-4167-9c9d-d3df4d50f096"},"vehicle_type_id":"4","last_reported":1702922966,"current_range_meters":0,"station_id":"ce4bhl92rcd13ifvqghg","pricing_plan_id":"free"},{"bike_id":"088bc051-4b2e-4f3b-99d5-218250b2ef2e","system_id":"levelo_inurba_marseille","lat":43.259362,"lon":5.40914,"is_reserved":false,"is_disabled":false,"rental_uris":{"android":"levelo://app?vid=088bc051-4b2e-4f3b-99d5-218250b2ef2e","ios":"levelo://app?vid=088bc051-4b2e-4f3b-99d5-218250b2ef2e"},"vehicle_type_id":"4","last_reported":1702922966,"current_range_meters":26800,"station_id":"ce4bhm92rcd13ifvqglg","pricing_plan_id":"free"},{"bike_id":"86b0222e-9893-41e3-9aa5-31dd7bec5d9b","system_id":"levelo_inurba_marseille","lat":43.257079,"lon":5.411051,"is_reserved":false,"is_disabled":false,"rental_uris":{"android":"levelo://app?vid=86b0222e-9893-41e3-9aa5-31dd7bec5d9b","ios":"levelo://app?vid=86b0222e-9893-41e3-9aa5-31dd7bec5d9b"},"vehicle_type_id":"4","last_reported":1702922966,"current_range_meters":26400,"station_id":"ce4bhkp2rcd13ifvqgd0","pricing_plan_id":"free"},{"bike_id":"360da49c-c170-4c00-b1dc-8fcfb8353c99","system_id":"levelo_inurba_marseille","lat":43.257079,"lon":5.411051,"is_reserved":false,"is_disabled":false,"rental_uris":{"android":"levelo://app?vid=360da49c-c170-4c00-b1dc-8fcfb8353c99","ios":"levelo://app?vid=360da49c-c170-4c00-b1dc-8fcfb8353c99"},"vehicle_type_id":"4","last_reported":1702922966,"current_range_meters":17600,"station_id":"ce4bhkp2rcd13ifvqgd0","pricing_plan_id":"free"},{"bike_id":"1212fdcd-3184-465c-afc1-6a639fa88bce","system_id":"levelo_inurba_marseille","lat":43.250009,"lon":5.389195,"is_reserved":false,"is_disabled":false,"rental_uris":{"android":"levelo://app?vid=1212fdcd-3184-465c-afc1-6a639fa88bce","ios":"levelo://app?vid=1212fdcd-3184-465c-afc1-6a639fa88bce"},"vehicle_type_id":"4","last_reported":1702922966,"current_range_meters":20400,"station_id":"ce4bhgp2rcd13ifvqfd0","pricing_plan_id":"free"},{"bike_id":"ebbbe43b-9741-475b-ae3d-7d50d4c59a53","system_id":"levelo_inurba_marseille","lat":43.250009,"lon":5.389195,"is_reserved":false,"is_disabled":false,"rental_uris":{"android":"levelo://app?vid=ebbbe43b-9741-475b-ae3d-7d50d4c59a53","ios":"levelo://app?vid=ebbbe43b-9741-475b-ae3d-7d50d4c59a53"},"vehicle_type_id":"4","last_reported":1702922966,"current_range_meters":10400,"station_id":"ce4bhgp2rcd13ifvqfd0","pricing_plan_id":"free"},{"bike_id":"82c00435-67c7-4293-b4fc-3225ddc1178c","system_id":"levelo_inurba_marseille","lat":43.250023,"lon":5.38919,"is_reserved":false,"is_disabled":false,"rental_uris":{"android":"levelo://app?vid=82c00435-67c7-4293-b4fc-3225ddc1178c","ios":"levelo://app?vid=82c00435-67c7-4293-b4fc-3225ddc1178c"},"vehicle_type_id":"4","last_reported":1702922966,"current_range_meters":22400,"station_id":"ce4bhgp2rcd13ifvqfd0","pricing_plan_id":"free"},{"bike_id":"a59641c1-709b-4073-ba80-ce8f511e3fde","system_id":"levelo_inurba_marseille","lat":43.2479,"lon":5.374457,"is_reserved":false,"is_disabled":false,"rental_uris":{"android":"levelo://app?vid=a59641c1-709b-4073-ba80-ce8f511e3fde","ios":"levelo://app?vid=a59641c1-709b-4073-ba80-ce8f511e3fde"},"vehicle_type_id":"4","last_reported":1702922966,"current_range_meters":22800,"station_id":"ce4bhgh2rcd13ifvqfb0","pricing_plan_id":"free"},{"bike_id":"f7355d0c-75e0-4eb6-a66b-8a3f13e7d068","system_id":"levelo_inurba_marseille","lat":43.250966,"lon":5.395186,"is_reserved":false,"is_disabled":false,"rental_uris":{"android":"levelo://app?vid=f7355d0c-75e0-4eb6-a66b-8a3f13e7d068","ios":"levelo://app?vid=f7355d0c-75e0-4eb6-a66b-8a3f13e7d068"},"vehicle_type_id":"4","last_reported":1702922966,"current_range_meters":31200,"station_id":"ce4bhm12rcd13ifvqgkg","pricing_plan_id":"free"},{"bike_id":"dd57e497-ed13-4339-91ea-ac27b19d2715","system_id":"levelo_inurba_marseille","lat":43.250966,"lon":5.395186,"is_reserved":false,"is_disabled":false,"rental_uris":{"android":"levelo://app?vid=dd57e497-ed13-4339-91ea-ac27b19d2715","ios":"levelo://app?vid=dd57e497-ed13-4339-91ea-ac27b19d2715"},"vehicle_type_id":"4","last_reported":1702922966,"current_range_meters":20800,"station_id":"ce4bhm12rcd13ifvqgkg","pricing_plan_id":"free"},{"bike_id":"db16cabb-e3ba-4b2d-a2ec-1d6e143fe384","system_id":"levelo_inurba_marseille","lat":43.24673,"lon":5.38161,"is_reserved":false,"is_disabled":false,"rental_uris":{"android":"levelo://app?vid=db16cabb-e3ba-4b2d-a2ec-1d6e143fe384","ios":"levelo://app?vid=db16cabb-e3ba-4b2d-a2ec-1d6e143fe384"},"vehicle_type_id":"4","last_reported":1702922966,"current_range_meters":0,"station_id":"ce4bhih2rcd13ifvqfr0","pricing_plan_id":"free"},{"bike_id":"22323161-e526-4edf-acf0-d184dbaa374e","system_id":"levelo_inurba_marseille","lat":43.25102,"lon":5.403214,"is_reserved":false,"is_disabled":false,"rental_uris":{"android":"levelo://app?vid=22323161-e526-4edf-acf0-d184dbaa374e","ios":"levelo://app?vid=22323161-e526-4edf-acf0-d184dbaa374e"},"vehicle_type_id":"4","last_reported":1702922966,"current_range_meters":1200,"station_id":"ce4bhlh2rcd13ifvqgig","pricing_plan_id":"free"},{"bike_id":"32c6d230-07b8-4d3e-93a6-a7043d42f8dc","system_id":"levelo_inurba_marseille","lat":43.246461,"lon":5.389014,"is_reserved":false,"is_disabled":false,"rental_uris":{"android":"levelo://app?vid=32c6d230-07b8-4d3e-93a6-a7043d42f8dc","ios":"levelo://app?vid=32c6d230-07b8-4d3e-93a6-a7043d42f8dc"},"vehicle_type_id":"4","last_reported":1702922966,"current_range_meters":27200,"station_id":"ce4bhg12rcd13ifvqf60","pricing_plan_id":"free"},{"bike_id":"0b5b9e33-e4a9-477d-86ae-5f3dd1661964","system_id":"levelo_inurba_marseille","lat":43.243884,"lon":5.370737,"is_reserved":false,"is_disabled":false,"rental_uris":{"android":"levelo://app?vid=0b5b9e33-e4a9-477d-86ae-5f3dd1661964","ios":"levelo://app?vid=0b5b9e33-e4a9-477d-86ae-5f3dd1661964"},"vehicle_type_id":"4","last_reported":1702922966,"current_range_meters":23200,"station_id":"ce4bhhh2rcd13ifvqfk0","pricing_plan_id":"free"},{"bike_id":"67918ec5-0efd-4c95-9513-9ecdb5494236","system_id":"levelo_inurba_marseille","lat":43.243884,"lon":5.370736,"is_reserved":false,"is_disabled":false,"rental_uris":{"android":"levelo://app?vid=67918ec5-0efd-4c95-9513-9ecdb5494236","ios":"levelo://app?vid=67918ec5-0efd-4c95-9513-9ecdb5494236"},"vehicle_type_id":"4","last_reported":1702922966,"current_range_meters":30000,"station_id":"ce4bhhh2rcd13ifvqfk0","pricing_plan_id":"free"},{"bike_id":"976e55be-3382-485b-84a6-7234f373e4d1","system_id":"levelo_inurba_marseille","lat":43.245581,"lon":5.395069,"is_reserved":false,"is_disabled":false,"rental_uris":{"android":"levelo://app?vid=976e55be-3382-485b-84a6-7234f373e4d1","ios":"levelo://app?vid=976e55be-3382-485b-84a6-7234f373e4d1"},"vehicle_type_id":"4","last_reported":1702922966,"current_range_meters":22400,"station_id":"ce4bhlp2rcd13ifvqgjg","pricing_plan_id":"free"},{"bike_id":"ed305491-eed3-4a98-9499-ee1401ff70f2","system_id":"levelo_inurba_marseille","lat":43.245581,"lon":5.395069,"is_reserved":false,"is_disabled":false,"rental_uris":{"android":"levelo://app?vid=ed305491-eed3-4a98-9499-ee1401ff70f2","ios":"levelo://app?vid=ed305491-eed3-4a98-9499-ee1401ff70f2"},"vehicle_type_id":"4","last_reported":1702922966,"current_range_meters":8800,"station_id":"ce4bhlp2rcd13ifvqgjg","pricing_plan_id":"free"},{"bike_id":"55d77847-54ab-479f-8963-103ffd529cd9","system_id":"levelo_inurba_marseille","lat":43.24546,"lon":5.39521,"is_reserved":false,"is_disabled":false,"rental_uris":{"android":"levelo://app?vid=55d77847-54ab-479f-8963-103ffd529cd9","ios":"levelo://app?vid=55d77847-54ab-479f-8963-103ffd529cd9"},"vehicle_type_id":"4","last_reported":1702922966,"current_range_meters":0,"station_id":"ce4bhlp2rcd13ifvqgjg","pricing_plan_id":"free"},{"bike_id":"945031ea-46a0-45dc-b827-f2c1848c09af","system_id":"levelo_inurba_marseille","lat":43.239588,"lon":5.366238,"is_reserved":false,"is_disabled":false,"rental_uris":{"android":"levelo://app?vid=945031ea-46a0-45dc-b827-f2c1848c09af","ios":"levelo://app?vid=945031ea-46a0-45dc-b827-f2c1848c09af"},"vehicle_type_id":"4","last_reported":1702922966,"current_range_meters":31200,"station_id":"ce4bhi12rcd13ifvqfp0","pricing_plan_id":"free"},{"bike_id":"337ca3c7-9462-4737-ac66-26cb921cd8a2","system_id":"levelo_inurba_marseille","lat":43.239588,"lon":5.366238,"is_reserved":false,"is_disabled":false,"rental_uris":{"android":"levelo://app?vid=337ca3c7-9462-4737-ac66-26cb921cd8a2","ios":"levelo://app?vid=337ca3c7-9462-4737-ac66-26cb921cd8a2"},"vehicle_type_id":"4","last_reported":1702922966,"current_range_meters":30400,"station_id":"ce4bhi12rcd13ifvqfp0","pricing_plan_id":"free"},{"bike_id":"559e72f7-a922-4440-9735-19332cc1a8bb","system_id":"levelo_inurba_marseille","lat":43.23953,"lon":5.38424,"is_reserved":false,"is_disabled":false,"rental_uris":{"android":"levelo://app?vid=559e72f7-a922-4440-9735-19332cc1a8bb","ios":"levelo://app?vid=559e72f7-a922-4440-9735-19332cc1a8bb"},"vehicle_type_id":"4","last_reported":1702922966,"current_range_meters":2800,"station_id":"ce4bhn12rcd13ifvqgpg","pricing_plan_id":"free"},{"bike_id":"ec99932f-8c74-4f0a-9464-5443da81e1e8","system_id":"levelo_inurba_marseille","lat":43.241793,"lon":5.397322,"is_reserved":false,"is_disabled":false,"rental_uris":{"android":"levelo://app?vid=ec99932f-8c74-4f0a-9464-5443da81e1e8","ios":"levelo://app?vid=ec99932f-8c74-4f0a-9464-5443da81e1e8"},"vehicle_type_id":"4","last_reported":1702922966,"current_range_meters":11600,"station_id":"","pricing_plan_id":"free"},{"bike_id":"d01e1b19-d5a7-4941-9552-b57628ed7503","system_id":"levelo_inurba_marseille","lat":43.24178,"lon":5.39732,"is_reserved":false,"is_disabled":false,"rental_uris":{"android":"levelo://app?vid=d01e1b19-d5a7-4941-9552-b57628ed7503","ios":"levelo://app?vid=d01e1b19-d5a7-4941-9552-b57628ed7503"},"vehicle_type_id":"4","last_reported":1702922966,"current_range_meters":16000,"station_id":"ce4bhn12rcd13ifvqgpg","pricing_plan_id":"free"},{"bike_id":"b1174f2a-c225-406b-ac7c-500934e1a6d6","system_id":"levelo_inurba_marseille","lat":43.231794,"lon":5.400052,"is_reserved":false,"is_disabled":false,"rental_uris":{"android":"levelo://app?vid=b1174f2a-c225-406b-ac7c-500934e1a6d6","ios":"levelo://app?vid=b1174f2a-c225-406b-ac7c-500934e1a6d6"},"vehicle_type_id":"4","last_reported":1702922966,"current_range_meters":22400,"station_id":"ce4bhn12rcd13ifvqgqg","pricing_plan_id":"free"},{"bike_id":"1d842876-ed50-4edf-8e8f-e5306fe41f54","system_id":"levelo_inurba_marseille","lat":43.231793,"lon":5.400044,"is_reserved":false,"is_disabled":false,"rental_uris":{"android":"levelo://app?vid=1d842876-ed50-4edf-8e8f-e5306fe41f54","ios":"levelo://app?vid=1d842876-ed50-4edf-8e8f-e5306fe41f54"},"vehicle_type_id":"4","last_reported":1702922966,"current_range_meters":28400,"station_id":"ce4bhn12rcd13ifvqgqg","pricing_plan_id":"free"},{"bike_id":"53e1fc63-c90c-440d-b1ac-15bb55db4110","system_id":"levelo_inurba_marseille","lat":43.23188,"lon":5.39995,"is_reserved":false,"is_disabled":false,"rental_uris":{"android":"levelo://app?vid=53e1fc63-c90c-440d-b1ac-15bb55db4110","ios":"levelo://app?vid=53e1fc63-c90c-440d-b1ac-15bb55db4110"},"vehicle_type_id":"4","last_reported":1702922966,"current_range_meters":14000,"station_id":"ce4bhn12rcd13ifvqgqg","pricing_plan_id":"free"},{"bike_id":"8083fec0-53ab-4ae5-9959-849fc5487faf","system_id":"levelo_inurba_marseille","lat":43.231794,"lon":5.400052,"is_reserved":false,"is_disabled":false,"rental_uris":{"android":"levelo://app?vid=8083fec0-53ab-4ae5-9959-849fc5487faf","ios":"levelo://app?vid=8083fec0-53ab-4ae5-9959-849fc5487faf"},"vehicle_type_id":"4","last_reported":1702922966,"current_range_meters":30800,"station_id":"ce4bhn12rcd13ifvqgqg","pricing_plan_id":"free"},{"bike_id":"351fb1e9-7b0f-4e73-8aa5-8def77f93578","system_id":"levelo_inurba_marseille","lat":43.231794,"lon":5.400052,"is_reserved":false,"is_disabled":false,"rental_uris":{"android":"levelo://app?vid=351fb1e9-7b0f-4e73-8aa5-8def77f93578","ios":"levelo://app?vid=351fb1e9-7b0f-4e73-8aa5-8def77f93578"},"vehicle_type_id":"4","last_reported":1702922966,"current_range_meters":0,"station_id":"ce4bhn12rcd13ifvqgqg","pricing_plan_id":"free"},{"bike_id":"bb8f3194-89d6-4afd-9570-7725dbf0e3ee","system_id":"levelo_inurba_marseille","lat":43.231794,"lon":5.400052,"is_reserved":false,"is_disabled":false,"rental_uris":{"android":"levelo://app?vid=bb8f3194-89d6-4afd-9570-7725dbf0e3ee","ios":"levelo://app?vid=bb8f3194-89d6-4afd-9570-7725dbf0e3ee"},"vehicle_type_id":"4","last_reported":1702922966,"current_range_meters":12800,"station_id":"ce4bhn12rcd13ifvqgqg","pricing_plan_id":"free"},{"bike_id":"cbbf5081-d4c4-4bba-a15a-164b6067af30","system_id":"levelo_inurba_marseille","lat":43.231793,"lon":5.400044,"is_reserved":false,"is_disabled":false,"rental_uris":{"android":"levelo://app?vid=cbbf5081-d4c4-4bba-a15a-164b6067af30","ios":"levelo://app?vid=cbbf5081-d4c4-4bba-a15a-164b6067af30"},"vehicle_type_id":"4","last_reported":1702922966,"current_range_meters":13200,"station_id":"ce4bhn12rcd13ifvqgqg","pricing_plan_id":"free"},{"bike_id":"9b883d24-cb37-4b68-908e-df782c4e406a","system_id":"levelo_inurba_marseille","lat":43.231794,"lon":5.400052,"is_reserved":false,"is_disabled":false,"rental_uris":{"android":"levelo://app?vid=9b883d24-cb37-4b68-908e-df782c4e406a","ios":"levelo://app?vid=9b883d24-cb37-4b68-908e-df782c4e406a"},"vehicle_type_id":"4","last_reported":1702922966,"current_range_meters":16400,"station_id":"ce4bhn12rcd13ifvqgqg","pricing_plan_id":"free"},{"bike_id":"b0bad05c-52a3-4cce-a6c6-3954af2ae0b6","system_id":"levelo_inurba_marseille","lat":43.231811,"lon":5.399954,"is_reserved":false,"is_disabled":false,"rental_uris":{"android":"levelo://app?vid=b0bad05c-52a3-4cce-a6c6-3954af2ae0b6","ios":"levelo://app?vid=b0bad05c-52a3-4cce-a6c6-3954af2ae0b6"},"vehicle_type_id":"4","last_reported":1702922966,"current_range_meters":28800,"station_id":"ce4bhn12rcd13ifvqgqg","pricing_plan_id":"free"},