{"last_updated":1685846399,"ttl":30,"version":"2.2","data":{"bikes":[{"bike_id":"548ba8f9-230d-4c58-926b-3ca2f350957e","system_id":"levelo_inurba_marseille","lat":43.312239,"lon":5.368562,"is_reserved":false,"is_disabled":false,"rental_uris":{"android":"levelo://app?vid=548ba8f9-230d-4c58-926b-3ca2f350957e","ios":"levelo://app?vid=548ba8f9-230d-4c58-926b-3ca2f350957e"},"vehicle_type_id":"4","last_reported":1685846399,"current_range_meters":6400,"station_id":"ce4bgl92rcd13ifvqbq0","pricing_plan_id":"free"},{"bike_id":"8a58e242-e155-4ffa-98b2-7669d9ae87e1","system_id":"levelo_inurba_marseille","lat":43.312239,"lon":5.368562,"is_reserved":false,"is_disabled":false,"rental_uris":{"android":"levelo://app?vid=8a58e242-e155-4ffa-98b2-7669d9ae87e1","ios":"levelo://app?vid=8a58e242-e155-4ffa-98b2-7669d9ae87e1"},"vehicle_type_id":"4","last_reported":1685846399,"current_range_meters":28000,"station_id":"ce4bgl92rcd13ifvqbq0","pricing_plan_id":"free"},{"bike_id":"6d633af9-b883-42dc-86dd-44e95352383d","system_id":"levelo_inurba_marseille","lat":43.31337,"lon":5.37083,"is_reserved":false,"is_disabled":false,"rental_uris":{"android":"levelo://app?vid=6d633af9-b883-42dc-86dd-44e95352383d","ios":"levelo://app?vid=6d633af9-b883-42dc-86dd-44e95352383d"},"vehicle_type_id":"4","last_reported":1685846399,"current_range_meters":24000,"station_id":"","pricing_plan_id":"free"},{"bike_id":"b540663e-ddfd-4d0c-bff0-6562bb7285b6","system_id":"levelo_inurba_marseille","lat":43.309076,"lon":5.368465,"is_reserved":false,"is_disabled":false,"rental_uris":{"android":"levelo://app?vid=b540663e-ddfd-4d0c-bff0-6562bb7285b6","ios":"levelo://app?vid=b540663e-ddfd-4d0c-bff0-6562bb7285b6"},"vehicle_type_id":"4","last_reported":1685846399,"current_range_meters":30000,"station_id":"ce4bgn92rcd13ifvqbvg","pricing_plan_id":"free"},{"bike_id":"6379920f-91d0-4ca8-a364-d71dadbacbcf","system_id":"levelo_inurba_marseille","lat":43.30885,"lon":5.37201,"is_reserved":false,"is_disabled":false,"rental_uris":{"android":"levelo://app?vid=6379920f-91d0-4ca8-a364-d71dadbacbcf","ios":"levelo://app?vid=6379920f-91d0-4ca8-a364-d71dadbacbcf"},"vehicle_type_id":"4","last_reported":1685846399,"current_range_meters":23200,"station_id":"","pricing_plan_id":"free"},{"bike_id":"4d43e892-ec90-4fce-8475-f727fed3851f","system_id":"levelo_inurba_marseille","lat":43.31935,"lon":5.36678,"is_reserved":false,"is_disabled":false,"rental_uris":{"android":"levelo://app?vid=4d43e892-ec90-4fce-8475-f727fed3851f","ios":"levelo://app?vid=4d43e892-ec90-4fce-8475-f727fed3851f"},"vehicle_type_id":"4","last_reported":1685846399,"current_range_meters":2800,"station_id":"","pricing_plan_id":"free"},{"bike_id":"00a70848-e901-4dca-826b-738c01e115a5","system_id":"levelo_inurba_marseille","lat":43.30549,"lon":5.36541,"is_reserved":false,"is_disabled":false,"rental_uris":{"android":"levelo://app?vid=00a70848-e901-4dca-826b-738c01e115a5","ios":"levelo://app?vid=00a70848-e901-4dca-826b-738c01e115a5"},"vehicle_type_id":"4","last_reported":1685846399,"current_range_meters":0,"station_id":"","pricing_plan_id":"free"},{"bike_id":"09ba81ef-d524-4556-b536-f93cbbc27452","system_id":"levelo_inurba_marseille","lat":43.305368,"lon":5.367343,"is_reserved":false,"is_disabled":false,"rental_uris":{"android":"levelo://app?vid=09ba81ef-d524-4556-b536-f93cbbc27452","ios":"levelo://app?vid=09ba81ef-d524-4556-b536-f93cbbc27452"},"vehicle_type_id":"4","last_reported":1685846399,"current_range_meters":21200,"station_id":"ce4bgrp2rcd13ifvqc9g","pricing_plan_id":"free"},{"bike_id":"79978c65-4ad7-472c-bcee-b19673f3e2b8","system_id":"levelo_inurba_marseille","lat":43.305368,"lon":5.367343,"is_reserved":false,"is_disabled":false,"rental_uris":{"android":"levelo://app?vid=79978c65-4ad7-472c-bcee-b19673f3e2b8","ios":"levelo://app?vid=79978c65-4ad7-472c-bcee-b19673f3e2b8"},"vehicle_type_id":"4","last_reported":1685846399,"current_range_meters":2000,"station_id":"ce4bgrp2rcd13ifvqc9g","pricing_plan_id":"free"},{"bike_id":"d5101a64-ef9d-4bc2-ab44-2a51f9770a13","system_id":"levelo_inurba_marseille","lat":43.30519,"lon":5.36558,"is_reserved":false,"is_disabled":false,"rental_uris":{"android":"levelo://app?vid=d5101a64-ef9d-4bc2-ab44-2a51f9770a13","ios":"levelo://app?vid=d5101a64-ef9d-4bc2-ab44-2a51f9770a13"},"vehicle_type_id":"4","last_reported":1685846399,"current_range_meters":0,"station_id":"","pricing_plan_id":"free"},{"bike_id":"b8b604a6-6a23-4c96-819f-e1e76a557059","system_id":"levelo_inurba_marseille","lat":43.305989,"lon":5.37225,"is_reserved":false,"is_disabled":false,"rental_uris":{"android":"levelo://app?vid=b8b604a6-6a23-4c96-819f-e1e76a557059","ios":"levelo://app?vid=b8b604a6-6a23-4c96-819f-e1e76a557059"},"vehicle_type_id":"4","last_reported":1685846399,"current_range_meters":26800,"station_id":"ce4bgqh2rcd13ifvqc4g","pricing_plan_id":"free"},{"bike_id":"93619838-c785-495c-807b-35fb410b3fe4","system_id":"levelo_inurba_marseille","lat":43.305989,"lon":5.37225,"is_reserved":false,"is_disabled":false,"rental_uris":{"android":"levelo://app?vid=93619838-c785-495c-807b-35fb410b3fe4","ios":"levelo://app?vid=93619838-c785-495c-807b-35fb410b3fe4"},"vehicle_type_id":"4","last_reported":1685846399,"current_range_meters":29200,"station_id":"ce4bgqh2rcd13ifvqc4g","pricing_plan_id":"free"},{"bike_id":"b3a2f56d-23ac-4c7b-8954-42de2e79acd5","system_id":"levelo_inurba_marseille","lat":43.31119,"lon":5.37793,"is_reserved":false,"is_disabled":false,"rental_uris":{"android":"levelo://app?vid=b3a2f56d-23ac-4c7b-8954-42de2e79acd5","ios":"levelo://app?vid=b3a2f56d-23ac-4c7b-8954-42de2e79acd5"},"vehicle_type_id":"4","last_reported":1685846399,"current_range_meters":0,"station_id":"ce4bgt92rcd13ifvqcg0","pricing_plan_id":"free"},{"bike_id":"289260dd-fb4a-4fb8-9ff8-5eac3abdceb8","system_id":"levelo_inurba_marseille","lat":43.317075,"lon":5.377367,"is_reserved":false,"is_disabled":false,"rental_uris":{"android":"levelo://app?vid=289260dd-fb4a-4fb8-9ff8-5eac3abdceb8","ios":"levelo://app?vid=289260dd-fb4a-4fb8-9ff8-5eac3abdceb8"},"vehicle_type_id":"4","last_reported":1685846399,"current_range_meters":29200,"station_id":"ce4bgth2rcd13ifvqch0","pricing_plan_id":"free"},{"bike_id":"b5cafe9b-aac8-43b1-934c-95c1d35bca2b","system_id":"levelo_inurba_marseille","lat":43.303155,"lon":5.369096,"is_reserved":false,"is_disabled":false,"rental_uris":{"android":"levelo://app?vid=b5cafe9b-aac8-43b1-934c-95c1d35bca2b","ios":"levelo://app?vid=b5cafe9b-aac8-43b1-934c-95c1d35bca2b"},"vehicle_type_id":"4","last_reported":1685846399,"current_range_meters":15600,"station_id":"ce4bgj92rcd13ifvqbd0","pricing_plan_id":"free"},{"bike_id":"553f58d1-28f3-401f-b653-2958f007f4f8","system_id":"levelo_inurba_marseille","lat":43.303046,"lon":5.368981,"is_reserved":false,"is_disabled":false,"rental_uris":{"android":"levelo://app?vid=553f58d1-28f3-401f-b653-2958f007f4f8","ios":"levelo://app?vid=553f58d1-28f3-401f-b653-2958f007f4f8"},"vehicle_type_id":"4","last_reported":1685846399,"current_range_meters":30400,"station_id":"ce4bgqh2rcd13ifvqc5g","pricing_plan_id":"free"},{"bike_id":"15f7bfa4-1544-4cf5-9e64-53077f061091","system_id":"levelo_inurba_marseille","lat":43.315289,"lon":5.380349,"is_reserved":false,"is_disabled":false,"rental_uris":{"android":"levelo://app?vid=15f7bfa4-1544-4cf5-9e64-53077f061091","ios":"levelo://app?vid=15f7bfa4-1544-4cf5-9e64-53077f061091"},"vehicle_type_id":"4","last_reported":1685846399,"current_range_meters":29600,"station_id":"ce4bhsp2rcd13ifvqi50","pricing_plan_id":"free"},{"bike_id":"c7d54937-16c9-4c14-b7f2-67b653b9d0c4","system_id":"levelo_inurba_marseille","lat":43.301939,"lon":5.366286,"is_reserved":false,"is_disabled":false,"rental_uris":{"android":"levelo://app?vid=c7d54937-16c9-4c14-b7f2-67b653b9d0c4","ios":"levelo://app?vid=c7d54937-16c9-4c14-b7f2-67b653b9d0c4"},"vehicle_type_id":"4","last_reported":1685846399,"current_range_meters":27200,"station_id":"ce4bgrh2rcd13ifvqc8g","pricing_plan_id":"free"},{"bike_id":"c49af1eb-2d74-49cf-9ac0-7707764c20ae","system_id":"levelo_inurba_marseille","lat":43.301939,"lon":5.366286,"is_reserved":false,"is_disabled":false,"rental_uris":{"android":"levelo://app?vid=c49af1eb-2d74-49cf-9ac0-7707764c20ae","ios":"levelo://app?vid=c49af1eb-2d74-49cf-9ac0-7707764c20ae"},"vehicle_type_id":"4","last_reported":1685846399,"current_range_meters":31200,"station_id":"ce4bgrh2rcd13ifvqc8g","pricing_plan_id":"free"},{"bike_id":"ad85a27e-2eb6-4c81-ab1b-7250a8cfec32","system_id":"levelo_inurba_marseille","lat":43.308012,"lon":5.381511,"is_reserved":false,"is_disabled":false,"rental_uris":{"android":"levelo://app?vid=ad85a27e-2eb6-4c81-ab1b-7250a8cfec32","ios":"levelo://app?vid=ad85a27e-2eb6-4c81-ab1b-7250a8cfec32"},"vehicle_type_id":"4","last_reported":1685846399,"current_range_meters":20800,"station_id":"ce4bgt12rcd13ifvqce0","pricing_plan_id":"free"},{"bike_id":"241525b5-b2b5-40d0-b98e-bcb5218b8bbc","system_id":"levelo_inurba_marseille","lat":43.308,"lon":5.38147,"is_reserved":false,"is_disabled":false,"rental_uris":{"android":"levelo://app?vid=241525b5-b2b5-40d0-b98e-bcb5218b8bbc","ios":"levelo://app?vid=241525b5-b2b5-40d0-b98e-bcb5218b8bbc"},"vehicle_type_id":"4","last_reported":1685846399,"current_range_meters":24400,"station_id":"ce4bgt12rcd13ifvqce0","pricing_plan_id":"free"},{"bike_id":"2fb61e13-65c0-4d38-987d-cbfd6e8a78a8","system_id":"levelo_inurba_marseille","lat":43.304606,"lon":5.379026,"is_reserved":false,"is_disabled":false,"rental_uris":{"android":"levelo://app?vid=2fb61e13-65c0-4d38-987d-cbfd6e8a78a8","ios":"levelo://app?vid=2fb61e13-65c0-4d38-987d-cbfd6e8a78a8"},"vehicle_type_id":"4","last_reported":1685846399,"current_range_meters":24800,"station_id":"ce4bgup2rcd13ifvqcn0","pricing_plan_id":"free"},{"bike_id":"dc050bc2-56ce-449e-8840-0e37e2cd7669","system_id":"levelo_inurba_marseille","lat":43.304606,"lon":5.379026,"is_reserved":false,"is_disabled":false,"rental_uris":{"android":"levelo://app?vid=dc050bc2-56ce-449e-8840-0e37e2cd7669","ios":"levelo://app?vid=dc050bc2-56ce-449e-8840-0e37e2cd7669"},"vehicle_type_id":"4","last_reported":1685846399,"current_range_meters":28000,"station_id":"ce4bgup2rcd13ifvqcn0","pricing_plan_id":"free"},{"bike_id":"048be98a-d3e1-4397-bf58-9e37d125046f","system_id":"levelo_inurba_marseille","lat":43.31634,"lon":5.38324,"is_reserved":false,"is_disabled":false,"rental_uris":{"android":"levelo://app?vid=048be98a-d3e1-4397-bf58-9e37d125046f","ios":"levelo://app?vid=048be98a-d3e1-4397-bf58-9e37d125046f"},"vehicle_type_id":"4","last_reported":1685846399,"current_range_meters":13600,"station_id":"","pricing_plan_id":"free"},{"bike_id":"580c91f6-6c87-4823-b79b-d87cf2e683c9","system_id":"levelo_inurba_marseille","lat":43.319935,"lon":5.381699,"is_reserved":false,"is_disabled":false,"rental_uris":{"android":"levelo://app?vid=580c91f6-6c87-4823-b79b-d87cf2e683c9","ios":"levelo://app?vid=580c91f6-6c87-4823-b79b-d87cf2e683c9"},"vehicle_type_id":"4","last_reported":1685846399,"current_range_meters":800,"station_id":"ce4bhr12rcd13ifvqhpg","pricing_plan_id":"free"},{"bike_id":"1f1dc83b-8ccb-4689-a2db-9ce7e1fda49c","system_id":"levelo_inurba_marseille","lat":43.319935,"lon":5.381699,"is_reserved":false,"is_disabled":false,"rental_uris":{"android":"levelo://app?vid=1f1dc83b-8ccb-4689-a2db-9ce7e1fda49c","ios":"levelo://app?vid=1f1dc83b-8ccb-4689-a2db-9ce7e1fda49c"},"vehicle_type_id":"4","last_reported":1685846399,"current_range_meters":5200,"station_id":"ce4bhr12rcd13ifvqhpg","pricing_plan_id":"free"},{"bike_id":"994fd81e-6db6-4408-acc8-bec511d624f9","system_id":"levelo_inurba_marseille","lat":43.319935,"lon":5.381699,"is_reserved":false,"is_disabled":false,"rental_uris":{"android":"levelo://app?vid=994fd81e-6db6-4408-acc8-bec511d624f9","ios":"levelo://app?vid=994fd81e-6db6-4408-acc8-bec511d624f9"},"vehicle_type_id":"4","last_reported":1685846399,"current_range_meters":18400,"station_id":"ce4bhr12rcd13ifvqhpg","pricing_plan_id":"free"},{"bike_id":"ce0eafea-7a28-40e5-b49f-bbdc4e411c48","system_id":"levelo_inurba_marseille","lat":43.319935,"lon":5.381699,"is_reserved":false,"is_disabled":false,"rental_uris":{"android":"levelo://app?vid=ce0eafea-7a28-40e5-b49f-bbdc4e411c48","ios":"levelo://app?vid=ce0eafea-7a28-40e5-b49f-bbdc4e411c48"},"vehicle_type_id":"4","last_reported":1685846399,"current_range_meters":12000,"station_id":"ce4bhr12rcd13ifvqhpg","pricing_plan_id":"free"},{"bike_id":"77b1248e-24c5-490f-b5ae-5d0da8693aeb","system_id":"levelo_inurba_marseille","lat":43.31392,"lon":5.38496,"is_reserved":false,"is_disabled":false,"rental_uris":{"android":"levelo://app?vid=77b1248e-24c5-490f-b5ae-5d0da8693aeb","ios":"levelo://app?vid=77b1248e-24c5-490f-b5ae-5d0da8693aeb"},"vehicle_type_id":"4","last_reported":1685846399,"current_range_meters":30400,"station_id":"","pricing_plan_id":"free"},{"bike_id":"c043d25c-ce85-4520-bd16-3bb7859a4f03","system_id":"levelo_inurba_marseille","lat":43.29936,"lon":5.36551,"is_reserved":false,"is_disabled":false,"rental_uris":{"android":"levelo://app?vid=c043d25c-ce85-4520-bd16-3bb7859a4f03","ios":"levelo://app?vid=c043d25c-ce85-4520-bd16-3bb7859a4f03"},"vehicle_type_id":"4","last_reported":1685846399,"current_range_meters":29600,"station_id":"ce4bgm92rcd13ifvqbr0","pricing_plan_id":"free"},{"bike_id":"73561192-3d3a-4c1e-8198-16bb41021519","system_id":"levelo_inurba_marseille","lat":43.298433,"lon":5.362774,"is_reserved":false,"is_disabled":false,"rental_uris":{"android":"levelo://app?vid=73561192-3d3a-4c1e-8198-16bb41021519","ios":"levelo://app?vid=73561192-3d3a-4c1e-8198-16bb41021519"},"vehicle_type_id":"4","last_reported":1685846399,"current_range_meters":31200,"station_id":"ce4bgpp2rcd13ifvqc3g","pricing_plan_id":"free"},{"bike_id":"98a6e9d0-577c-4b8a-bd19-a4cad857f951","system_id":"levelo_inurba_marseille","lat":43.2985,"lon":5.36292,"is_reserved":false,"is_disabled":false,"rental_uris":{"android":"levelo://app?vid=98a6e9d0-577c-4b8a-bd19-a4cad857f951","ios":"levelo://app?vid=98a6e9d0-577c-4b8a-bd19-a4cad857f951"},"vehicle_type_id":"4","last_reported":1685846399,"current_range_meters":25200,"station_id":"ce4bgpp2rcd13ifvqc3g","pricing_plan_id":"free"},{"bike_id":"0eaa3d21-ea0d-4d74-a206-37773dbd69f6","system_id":"levelo_inurba_marseille","lat":43.298433,"lon":5.362774,"is_reserved":false,"is_disabled":false,"rental_uris":{"android":"levelo://app?vid=0eaa3d21-ea0d-4d74-a206-37773dbd69f6","ios":"levelo://app?vid=0eaa3d21-ea0d-4d74-a206-37773dbd69f6"},"vehicle_type_id":"4","last_reported":1685846399,"current_range_meters":30800,"station_id":"ce4bgpp2rcd13ifvqc3g","pricing_plan_id":"free"},{"bike_id":"1a95f679-7d3a-4032-adb7-862e41572194","system_id":"levelo_inurba_marseille","lat":43.298433,"lon":5.362774,"is_reserved":false,"is_disabled":false,"rental_uris":{"android":"levelo://app?vid=1a95f679-7d3a-4032-adb7-862e41572194","ios":"levelo://app?vid=1a95f679-7d3a-4032-adb7-862e41572194"},"vehicle_type_id":"4","last_reported":1685846399,"current_range_meters":29200,"station_id":"ce4bgpp2rcd13ifvqc3g","pricing_plan_id":"free"},{"bike_id":"4369a160-d609-4456-8843-49bddb4056ec","system_id":"levelo_inurba_marseille","lat":43.305364,"lon":5.384119,"is_reserved":false,"is_disabled":false,"rental_uris":{"android":"levelo://app?vid=4369a160-d609-4456-8843-49bddb4056ec","ios":"levelo://app?vid=4369a160-d609-4456-8843-49bddb4056ec"},"vehicle_type_id":"4","last_reported":1685846399,"current_range_meters":0,"station_id":"ce4bgg92rcd13ifvqb30","pricing_plan_id":"free"},{"bike_id":"8c405901-d0a9-4cde-8772-04128070b702","system_id":"levelo_inurba_marseille","lat":43.297774,"lon":5.370875,"is_reserved":false,"is_disabled":false,"rental_uris":{"android":"levelo://app?vid=8c405901-d0a9-4cde-8772-04128070b702","ios":"levelo://app?vid=8c405901-d0a9-4cde-8772-04128070b702"},"vehicle_type_id":"4","last_reported":1685846399,"current_range_meters":19600,"station_id":"ce4bgop2rcd13ifvqc1g","pricing_plan_id":"free"},{"bike_id":"cb0f0ec2-75c0-44dc-80f7-2b87cd212352","system_id":"levelo_inurba_marseille","lat":43.328371,"lon":5.366912,"is_reserved":false,"is_disabled":false,"rental_uris":{"android":"levelo://app?vid=cb0f0ec2-75c0-44dc-80f7-2b87cd212352","ios":"levelo://app?vid=cb0f0ec2-75c0-44dc-80f7-2b87cd212352"},"vehicle_type_id":"4","last_reported":1685846399,"current_range_meters":13600,"station_id":"ce4bhs92rcd13ifvqi0g","pricing_plan_id":"free"},{"bike_id":"30480fdf-2e85-4a39-9c2b-988cacee26ae","system_id":"levelo_inurba_marseille","lat":43.29717,"lon":5.36938,"is_reserved":false,"is_disabled":false,"rental_uris":{"android":"levelo://app?vid=30480fdf-2e85-4a39-9c2b-988cacee26ae","ios":"levelo://app?vid=30480fdf-2e85-4a39-9c2b-988cacee26ae"},"vehicle_type_id":"4","last_reported":1685846399,"current_range_meters":0,"station_id":"","pricing_plan_id":"free"},{"bike_id":"b9cf6557-2db2-4828-97f1-13a369745ef6","system_id":"levelo_inurba_marseille","lat":43.32777,"lon":5.37498,"is_reserved":false,"is_disabled":false,"rental_uris":{"android":"levelo://app?vid=b9cf6557-2db2-4828-97f1-13a369745ef6","ios":"levelo://app?vid=b9cf6557-2db2-4828-97f1-13a369745ef6"},"vehicle_type_id":"4","last_reported":1685846399,"current_range_meters":6000,"station_id":"","pricing_plan_id":"free"},{"bike_id":"0dd6a24a-bf97-4f7d-96cb-f218d4d8dfc7","system_id":"levelo_inurba_marseille","lat":43.29573,"lon":5.367355,"is_reserved":false,"is_disabled":false,"rental_uris":{"android":"levelo://app?vid=0dd6a24a-bf97-4f7d-96cb-f218d4d8dfc7","ios":"levelo://app?vid=0dd6a24a-bf97-4f7d-96cb-f218d4d8dfc7"},"vehicle_type_id":"4","last_reported":1685846399,"current_range_meters":22000,"station_id":"ce4bgph2rcd13ifvqc2g","pricing_plan_id":"free"},{"bike_id":"054376f7-e4ad-469d-bf05-e64966ff5681","system_id":"levelo_inurba_marseille","lat":43.296935,"lon":5.376544,"is_reserved":false,"is_disabled":false,"rental_uris":{"android":"levelo://app?vid=054376f7-e4ad-469d-bf05-e64966ff5681","ios":"levelo://app?vid=054376f7-e4ad-469d-bf05-e64966ff5681"},"vehicle_type_id":"4","last_reported":1685846399,"current_range_meters":30800,"station_id":"ce4bgkh2rcd13ifvqbl0","pricing_plan_id":"free"},{"bike_id":"cb922290-f2b4-49c6-8fe7-cac3328a5443","system_id":"levelo_inurba_marseille","lat":43.30947,"lon":5.39019,"is_reserved":false,"is_disabled":false,"rental_uris":{"android":"levelo://app?vid=cb922290-f2b4-49c6-8fe7-cac3328a5443","ios":"levelo://app?vid=cb922290-f2b4-49c6-8fe7-cac3328a5443"},"vehicle_type_id":"4","last_reported":1685846399,"current_range_meters":31200,"station_id":"ce4bgup2rcd13ifvqco0","pricing_plan_id":"free"},{"bike_id":"fea4a5bd-65d2-4b65-bceb-ded28ee883eb","system_id":"levelo_inurba_marseille","lat":43.309497,"lon":5.390247,"is_reserved":false,"is_disabled":false,"rental_uris":{"android":"levelo://app?vid=fea4a5bd-65d2-4b65-bceb-ded28ee883eb","ios":"levelo://app?vid=fea4a5bd-65d2-4b65-bceb-ded28ee883eb"},"vehicle_type_id":"4","last_reported":1685846399,"current_range_meters":31200,"station_id":"ce4bgup2rcd13ifvqco0","pricing_plan_id":"free"},{"bike_id":"d5082c94-08d4-412c-b91d-defc0a0268f6","system_id":"levelo_inurba_marseille","lat":43.309589,"lon":5.390258,"is_reserved":false,"is_disabled":false,"rental_uris":{"android":"levelo://app?vid=d5082c94-08d4-412c-b91d-defc0a0268f6","ios":"levelo://app?vid=d5082c94-08d4-412c-b91d-defc0a0268f6"},"vehicle_type_id":"4","last_reported":1685846399,"current_range_meters":29600,"station_id":"ce4bgup2rcd13ifvqco0","pricing_plan_id":"free"},{"bike_id":"1c1b803d-46a6-498d-9d94-cf1b278e43a1","system_id":"levelo_inurba_marseille","lat":43.309589,"lon":5.390258,"is_reserved":false,"is_disabled":false,"rental_uris":{"android":"levelo://app?vid=1c1b803d-46a6-498d-9d94-cf1b278e43a1","ios":"levelo://app?vid=1c1b803d-46a6-498d-9d94-cf1b278e43a1"},"vehicle_type_id":"4","last_reported":1685846399,"current_range_meters":31200,"station_id":"ce4bgup2rcd13ifvqco0","pricing_plan_id":"free"},{"bike_id":"4879a260-9f1b-402b-bd89-3bac325db973","system_id":"levelo_inurba_marseille","lat":43.317557,"lon":5.390173,"is_reserved":false,"is_disabled":false,"rental_uris":{"android":"levelo://app?vid=4879a260-9f1b-402b-bd89-3bac325db973","ios":"levelo://app?vid=4879a260-9f1b-402b-bd89-3bac325db973"},"vehicle_type_id":"4","last_reported":1685846399,"current_range_meters":3200,"station_id":"ce4bhqp2rcd13ifvqhng","pricing_plan_id":"free"},{"bike_id":"92baffbb-31d4-451d-9d2c-a8b115aa4739","system_id":"levelo_inurba_marseille","lat":43.317557,"lon":5.390173,"is_reserved":false,"is_disabled":false,"rental_uris":{"android":"levelo://app?vid=92baffbb-31d4-451d-9d2c-a8b115aa4739","ios":"levelo://app?vid=92baffbb-31d4-451d-9d2c-a8b115aa4739"},"vehicle_type_id":"4","last_reported":1685846399,"current_range_meters":18000,"station_id":"ce4bhqp2rcd13ifvqhng","pricing_plan_id":"free"},{"bike_id":"c51dd003-5c0f-4568-9d83-864645c6cab7","system_id":"levelo_inurba_marseille","lat":43.317557,"lon":5.390173,"is_reserved":false,"is_disabled":false,"rental_uris":{"android":"levelo://app?vid=c51dd003-5c0f-4568-9d83-864645c6cab7","ios":"levelo://app?vid=c51dd003-5c0f-4568-9d83-864645c6cab7"},"vehicle_type_id":"4","last_reported":1685846399,"current_range_meters":3200,"station_id":"ce4bhqp2rcd13ifvqhng","pricing_plan_id":"free"},{"bike_id":"2b63a58b-2176-49eb-87a6-c9e08361d882","system_id":"levelo_inurba_marseille","lat":43.30448,"lon":5.38901,"is_reserved":false,"is_disabled":false,"rental_uris":{"android":"levelo://app?vid=2b63a58b-2176-49eb-87a6-c9e08361d882","ios":"levelo://app?vid=2b63a58b-2176-49eb-87a6-c9e08361d882"},"vehicle_type_id":"4","last_reported":1685846399,"current_range_meters":20400,"station_id":"ce4bgk12rcd13ifvqbi0","pricing_plan_id":"free"},{"bike_id":"0cbcd054-5dad-4820-b425-654fa28119f7","system_id":"levelo_inurba_marseille","lat":43.304274,"lon":5.388873,"is_reserved":false,"is_disabled":false,"rental_uris":{"android":"levelo://app?vid=0cbcd054-5dad-4820-b425-654fa28119f7","ios":"levelo://app?vid=0cbcd054-5dad-4820-b425-654fa28119f7"},"vehicle_type_id":"4","last_reported":1685846399,"current_range_meters":27600,"station_id":"ce4bgk12rcd13ifvqbi0","pricing_plan_id":"free"},{"bike_id":"0470a2ca-c854-4b58-921b-758b79edcf9e","system_id":"levelo_inurba_marseille","lat":43.29783,"lon":5.38099,"is_reserved":false,"is_disabled":false,"rental_uris":{"android":"levelo://app?vid=0470a2ca-c854-4b58-921b-758b79edcf9e","ios":"levelo://app?vid=0470a2ca-c854-4b58-921b-758b79edcf9e"},"vehicle_type_id":"4","last_reported":1685846399,"current_range_meters":0,"station_id":"ce4bgip2rcd13ifvqbb0","pricing_plan_id":"free"},{"bike_id":"ac4aa179-ee33-4c08-91d9-3cb9dc3b4e1b","system_id":"levelo_inurba_marseille","lat":43.304274,"lon":5.388873,"is_reserved":false,"is_disabled":false,"rental_uris":{"android":"levelo://app?vid=ac4aa179-ee33-4c08-91d9-3cb9dc3b4e1b","ios":"levelo://app?vid=ac4aa179-ee33-4c08-91d9-3cb9dc3b4e1b"},"vehicle_type_id":"4","last_reported":1685846399,"current_range_meters":31200,"station_id":"ce4bgk12rcd13ifvqbi0","pricing_plan_id":"free"},{"bike_id":"331c3421-9c80-489b-be8f-11c31e1b63a8","system_id":"levelo_inurba_marseille","lat":43.30434,"lon":5.38895,"is_reserved":false,"is_disabled":false,"rental_uris":{"android":"levelo://app?vid=331c3421-9c80-489b-be8f-11c31e1b63a8","ios":"levelo://app?vid=331c3421-9c80-489b-be8f-11c31e1b63a8"},"vehicle_type_id":"4","last_reported":1685846399,"current_range_meters":27600,"station_id":"ce4bgk12rcd13ifvqbi0","pricing_plan_id":"free"},{"bike_id":"fd39dd34-010d-41c9-aeea-111b3348d1c9","system_id":"levelo_inurba_marseille","lat":43.304274,"lon":5.388873,"is_reserved":false,"is_disabled":false,"rental_uris":{"android":"levelo://app?vid=fd39dd34-010d-41c9-aeea-111b3348d1c9","ios":"levelo://app?vid=fd39dd34-010d-41c9-aeea-111b3348d1c9"},"vehicle_type_id":"4","last_reported":1685846399,"current_range_meters":28800,"station_id":"ce4bgk12rcd13ifvqbi0","pricing_plan_id":"free"},{"bike_id":"61f98a45-268a-46ef-94a6-5b8e96e9d07b","system_id":"levelo_inurba_marseille","lat":43.30432,"lon":5.38905,"is_reserved":false,"is_disabled":false,"rental_uris":{"android":"levelo://app?vid=61f98a45-268a-46ef-94a6-5b8e96e9d07b","ios":"levelo://app?vid=61f98a45-268a-46ef-94a6-5b8e96e9d07b"},"vehicle_type_id":"4","last_reported":1685846399,"current_range_meters":21200,"station_id":"ce4bgk12rcd13ifvqbi0","pricing_plan_id":"free"},{"bike_id":"b5c8a318-5a95-493c-826a-fd3976755f28","system_id":"levelo_inurba_marseille","lat":43.299724,"lon":5.384848,"is_reserved":false,"is_disabled":false,"rental_uris":{"android":"levelo://app?vid=b5c8a318-5a95-493c-826a-fd3976755f28","ios":"levelo://app?vid=b5c8a318-5a95-493c-826a-fd3976755f28"},"vehicle_type_id":"4","last_reported":1685846399,"current_range_meters":31200,"station_id":"ce4bgj92rcd13ifvqbd0","pricing_plan_id":"free"},{"bike_id":"045a1f8e-4212-49ea-946c-1051b0f26777","system_id":"levelo_inurba_marseille","lat":43.29967,"lon":5.38502,"is_reserved":false,"is_disabled":false,"rental_uris":{"android":"levelo://app?vid=045a1f8e-4212-49ea-946c-1051b0f26777","ios":"levelo://app?vid=045a1f8e-4212-49ea-946c-1051b0f26777"},"vehicle_type_id":"4","last_reported":1685846399,"current_range_meters":31200,"station_id":"","pricing_plan_id":"free"},{"bike_id":"293bdef0-37e1-46fb-a8f2-bd198351c917","system_id":"levelo_inurba_marseille","lat":43.30489,"lon":5.39017,"is_reserved":false,"is_disabled":false,"rental_uris":{"android":"levelo://app?vid=293bdef0-37e1-46fb-a8f2-bd198351c917","ios":"levelo://app?vid=293bdef0-37e1-46fb-a8f2-bd198351c917"},"vehicle_type_id":"4","last_reported":1685846399,"current_range_meters":0,"station_id":"","pricing_plan_id":"free"},{"bike_id":"a5aaf8a8-b676-497f-92d4-c454aa45c212","system_id":"levelo_inurba_marseille","lat":43.32367,"lon":5.388836,"is_reserved":false,"is_disabled":false,"rental_uris":{"android":"levelo://app?vid=a5aaf8a8-b676-497f-92d4-c454aa45c212","ios":"levelo://app?vid=a5aaf8a8-b676-497f-92d4-c454aa45c212"},"vehicle_type_id":"4","last_reported":1685846399,"current_range_meters":0,"station_id":"ce4bhqp2rcd13ifvqhog","pricing_plan_id":"free"},{"bike_id":"46e61a5d-4011-40d6-afb5-27208405d23e","system_id":"levelo_inurba_marseille","lat":43.32367,"lon":5.388836,"is_reserved":false,"is_disabled":false,"rental_uris":{"android":"levelo://app?vid=46e61a5d-4011-40d6-afb5-27208405d23e","ios":"levelo://app?vid=46e61a5d-4011-40d6-afb5-27208405d23e"},"vehicle_type_id":"4","last_reported":1685846399,"current_range_meters":14800,"station_id":"ce4bhqp2rcd13ifvqhog","pricing_plan_id":"free"},{"bike_id":"1619b961-36bd-4a7d-a354-b4d8cf39a904","system_id":"levelo_inurba_marseille","lat":43.32367,"lon":5.388836,"is_reserved":false,"is_disabled":false,"rental_uris":{"android":"levelo://app?vid=1619b961-36bd-4a7d-a354-b4d8cf39a904","ios":"levelo://app?vid=1619b961-36bd-4a7d-a354-b4d8cf39a904"},"vehicle_type_id":"4","last_reported":1685846399,"current_range_meters":10400,"station_id":"ce4bhqp2rcd13ifvqhog","pricing_plan_id":"free"},{"bike_id":"ce28f952-0366-40af-af5d-12fd1e486cbf","system_id":"levelo_inurba_marseille","lat":43.32367,"lon":5.388836,"is_reserved":false,"is_disabled":false,"rental_uris":{"android":"levelo://app?vid=ce28f952-0366-40af-af5d-12fd1e486cbf","ios":"levelo://app?vid=ce28f952-0366-40af-af5d-12fd1e486cbf"},"vehicle_type_id":"4","last_reported":1685846399,"current_range_meters":28400,"station_id":"ce4bhqp2rcd13ifvqhog","pricing_plan_id":"free"},{"bike_id":"2e091df7-7571-47d3-b77e-edfbd826302b","system_id":"levelo_inurba_marseille","lat":43.29601,"lon":5.381084,"is_reserved":false,"is_disabled":false,"rental_uris":{"android":"levelo://app?vid=2e091df7-7571-47d3-b77e-edfbd826302b","ios":"levelo://app?vid=2e091df7-7571-47d3-b77e-edfbd826302b"},"vehicle_type_id":"4","last_reported":1685846399,"current_range_meters":1200,"station_id":"ce4bgl12rcd13ifvqbo0","pricing_plan_id":"free"},{"bike_id":"84dd2729-d431-423b-ac9a-f22c22e1b6ce","system_id":"levelo_inurba_marseille","lat":43.29602,"lon":5.381084,"is_reserved":false,"is_disabled":false,"rental_uris":{"android":"levelo://app?vid=84dd2729-d431-423b-ac9a-f22c22e1b6ce","ios":"levelo://app?vid=84dd2729-d431-423b-ac9a-f22c22e1b6ce"},"vehicle_type_id":"4","last_reported":1685846399,"current_range_meters":2800,"station_id":"ce4bgl12rcd13ifvqbo0","pricing_plan_id":"free"},{"bike_id":"6a17c32e-4a3e-4c8b-a64c-f72200b96500","system_id":"levelo_inurba_marseille","lat":43.29371,"lon":5.37568,"is_reserved":false,"is_disabled":false,"rental_uris":{"android":"levelo://app?vid=6a17c32e-4a3e-4c8b-a64c-f72200b96500","ios":"levelo://app?vid=6a17c32e-4a3e-4c8b-a64c-f72200b96500"},"vehicle_type_id":"4","last_reported":1685846399,"current_range_meters":0,"station_id":"","pricing_plan_id":"free"},{"bike_id":"54b6b121-ed7f-4892-a7c4-ab976d2f6f33","system_id":"levelo_inurba_marseille","lat":43.30311,"lon":5.39203,"is_reserved":false,"is_disabled":false,"rental_uris":{"android":"levelo://app?vid=54b6b121-ed7f-4892-a7c4-ab976d2f6f33","ios":"levelo://app?vid=54b6b121-ed7f-4892-a7c4-ab976d2f6f33"},"vehicle_type_id":"4","last_reported":1685846399,"current_range_meters":29600,"station_id":"ce4bgkh2rcd13ifvqbk0","pricing_plan_id":"free"},{"bike_id":"69e9e1bc-17ca-4941-aa8c-d45e53e8eaca","system_id":"levelo_inurba_marseille","lat":43.303002,"lon":5.392142,"is_reserved":false,"is_disabled":false,"rental_uris":{"android":"levelo://app?vid=69e9e1bc-17ca-4941-aa8c-d45e53e8eaca","ios":"levelo://app?vid=69e9e1bc-17ca-4941-aa8c-d45e53e8eaca"},"vehicle_type_id":"4","last_reported":1685846399,"current_range_meters":30800,"station_id":"ce4bgkh2rcd13ifvqbk0","pricing_plan_id":"free"},{"bike_id":"b5095378-1462-4de8-8f76-bc9980e68a83","system_id":"levelo_inurba_marseille","lat":43.29157,"lon":5.36698,"is_reserved":false,"is_disabled":false,"rental_uris":{"android":"levelo://app?vid=b5095378-1462-4de8-8f76-bc9980e68a83","ios":"levelo://app?vid=b5095378-1462-4de8-8f76-bc9980e68a83"},"vehicle_type_id":"4","last_reported":1685846399,"current_range_meters":0,"station_id":"","pricing_plan_id":"free"},{"bike_id":"f7b0ac49-d244-4a20-8422-f1b1ee41e2fa","system_id":"levelo_inurba_marseille","lat":43.291671,"lon":5.371575,"is_reserved":false,"is_disabled":false,"rental_uris":{"android":"levelo://app?vid=f7b0ac49-d244-4a20-8422-f1b1ee41e2fa","ios":"levelo://app?vid=f7b0ac49-d244-4a20-8422-f1b1ee41e2fa"},"vehicle_type_id":"4","last_reported":1685846399,"current_range_meters":0,"station_id":"ce4bha92rcd13ifvqeh0","pricing_plan_id":"free"},{"bike_id":"91befdeb-84bb-426e-89b3-ba529d7a7512","system_id":"levelo_inurba_marseille","lat":43.30877,"lon":5.39633,"is_reserved":false,"is_disabled":false,"rental_uris":{"android":"levelo://app?vid=91befdeb-84bb-426e-89b3-ba529d7a7512","ios":"levelo://app?vid=91befdeb-84bb-426e-89b3-ba529d7a7512"},"vehicle_type_id":"4","last_reported":1685846399,"current_range_meters":5200,"station_id":"","pricing_plan_id":"free"},{"bike_id":"9cbabaa0-1e90-4ca2-bfb8-3b456442e307","system_id":"levelo_inurba_marseille","lat":43.309038,"lon":5.396546,"is_reserved":false,"is_disabled":false,"rental_uris":{"android":"levelo://app?vid=9cbabaa0-1e90-4ca2-bfb8-3b456442e307","ios":"levelo://app?vid=9cbabaa0-1e90-4ca2-bfb8-3b456442e307"},"vehicle_type_id":"4","last_reported":1685846399,"current_range_meters":21600,"station_id":"ce4bh012rcd13ifvqcv0","pricing_plan_id":"free"},{"bike_id":"457c7eaf-d042-4c29-8f4d-e9234736eff3","system_id":"levelo_inurba_marseille","lat":43.309038,"lon":5.396546,"is_reserved":false,"is_disabled":false,"rental_uris":{"android":"levelo://app?vid=457c7eaf-d042-4c29-8f4d-e9234736eff3","ios":"levelo://app?vid=457c7eaf-d042-4c29-8f4d-e9234736eff3"},"vehicle_type_id":"4","last_reported":1685846399,"current_range_meters":21600,"station_id":"ce4bh012rcd13ifvqcv0","pricing_plan_id":"free"},{"bike_id":"e590b2fb-237f-4659-9ceb-a32ea7e48e92","system_id":"levelo_inurba_marseille","lat":43.29187,"lon":5.35817,"is_reserved":false,"is_disabled":false,"rental_uris":{"android":"levelo://app?vid=e590b2fb-237f-4659-9ceb-a32ea7e48e92","ios":"levelo://app?vid=e590b2fb-237f-4659-9ceb-a32ea7e48e92"},"vehicle_type_id":"4","last_reported":1685846399,"current_range_meters":0,"station_id":"ce4bhb12rcd13ifvqel0","pricing_plan_id":"free"},{"bike_id":"bb7579e7-5e69-4ba1-92ec-0f4a56fbf061","system_id":"levelo_inurba_marseille","lat":43.33256,"lon":5.37948,"is_reserved":false,"is_disabled":false,"rental_uris":{"android":"levelo://app?vid=bb7579e7-5e69-4ba1-92ec-0f4a56fbf061","ios":"levelo://app?vid=bb7579e7-5e69-4ba1-92ec-0f4a56fbf061"},"vehicle_type_id":"4","last_reported":1685846399,"current_range_meters":0,"station_id":"","pricing_plan_id":"free"},{"bike_id":"291a178c-f7ac-4b5b-8b20-fbd6ae82a33c","system_id":"levelo_inurba_marseille","lat":43.309038,"lon":5.396546,"is_reserved":false,"is_disabled":false,"rental_uris":{"android":"levelo://app?vid=291a178c-f7ac-4b5b-8b20-fbd6ae82a33c","ios":"levelo://app?vid=291a178c-f7ac-4b5b-8b20-fbd6ae82a33c"},"vehicle_type_id":"4","last_reported":1685846399,"current_range_meters":20800,"station_id":"ce4bh012rcd13ifvqcv0","pricing_plan_id":"free"},{"bike_id":"114dabca-09fe-4e0e-9cc0-518ae8c1ff60","system_id":"levelo_inurba_marseille","lat":43.313291,"lon":5.396838,"is_reserved":false,"is_disabled":false,"rental_uris":{"android":"levelo://app?vid=114dabca-09fe-4e0e-9cc0-518ae8c1ff60","ios":"levelo://app?vid=114dabca-09fe-4e0e-9cc0-518ae8c1ff60"},"vehicle_type_id":"4","last_reported":1685846399,"current_range_meters":26000,"station_id":"ce4bgvp2rcd13ifvqcu0","pricing_plan_id":"free"},{"bike_id":"62d9b064-8005-4ca2-8f78-8c25ff6aa328","system_id":"levelo_inurba_marseille","lat":43.29183,"lon":5.35808,"is_reserved":false,"is_disabled":false,"rental_uris":{"android":"levelo://app?vid=62d9b064-8005-4ca2-8f78-8c25ff6aa328","ios":"levelo://app?vid=62d9b064-8005-4ca2-8f78-8c25ff6aa328"},"vehicle_type_id":"4","last_reported":1685846399,"current_range_meters":0,"station_id":"ce4bhb12rcd13ifvqel0","pricing_plan_id":"free"},{"bike_id":"05126599-8505-49a4-8be1-3e949e5a7365","system_id":"levelo_inurba_marseille","lat":43.30891,"lon":5.39658,"is_reserved":false,"is_disabled":false,"rental_uris":{"android":"levelo://app?vid=05126599-8505-49a4-8be1-3e949e5a7365","ios":"levelo://app?vid=05126599-8505-49a4-8be1-3e949e5a7365"},"vehicle_type_id":"4","last_reported":1685846399,"current_range_meters":26000,"station_id":"ce4bh012rcd13ifvqcv0","pricing_plan_id":"free"},{"bike_id":"df2da0c9-b0f5-46bd-a372-2b499edc9cfe","system_id":"levelo_inurba_marseille","lat":43.313291,"lon":5.396838,"is_reserved":false,"is_disabled":false,"rental_uris":{"android":"levelo://app?vid=df2da0c9-b0f5-46bd-a372-2b499edc9cfe","ios":"levelo://app?vid=df2da0c9-b0f5-46bd-a372-2b499edc9cfe"},"vehicle_type_id":"4","last_reported":1685846399,"current_range_meters":19600,"station_id":"ce4bgvp2rcd13ifvqcu0","pricing_plan_id":"free"},{"bike_id":"d5ed3444-4d02-4a66-82d1-9b905c136dc0","system_id":"levelo_inurba_marseille","lat":43.309038,"lon":5.396546,"is_reserved":false,"is_disabled":false,"rental_uris":{"android":"levelo://app?vid=d5ed3444-4d02-4a66-82d1-9b905c136dc0","ios":"levelo://app?vid=d5ed3444-4d02-4a66-82d1-9b905c136dc0"},"vehicle_type_id":"4","last_reported":1685846399,"current_range_meters":8800,"station_id":"ce4bh012rcd13ifvqcv0","pricing_plan_id":"free"},{"bike_id":"99a2753b-b40e-4ce4-b22d-442cd16154a2","system_id":"levelo_inurba_marseille","lat":43.313291,"lon":5.396838,"is_reserved":false,"is_disabled":false,"rental_uris":{"android":"levelo://app?vid=99a2753b-b40e-4ce4-b22d-442cd16154a2","ios":"levelo://app?vid=99a2753b-b40e-4ce4-b22d-442cd16154a2"},"vehicle_type_id":"4","last_reported":1685846399,"current_range_meters":23600,"station_id":"ce4bgvp2rcd13ifvqcu0","pricing_plan_id":"free"},{"bike_id":"99466c46-d368-41d6-9ca8-8057bba49cad","system_id":"levelo_inurba_marseille","lat":43.290779,"lon":5.371482,"is_reserved":false,"is_disabled":false,"rental_uris":{"android":"levelo://app?vid=99466c46-d368-41d6-9ca8-8057bba49cad","ios":"levelo://app?vid=99466c46-d368-41d6-9ca8-8057bba49cad"},"vehicle_type_id":"4","last_reported":1685846399,"current_range_meters":27600,"station_id":"ce4bh5p2rcd13ifvqe4g","pricing_plan_id":"free"},{"bike_id":"a1d588f9-8125-4a8f-9f59-c1cf1bdc5430","system_id":"levelo_inurba_marseille","lat":43.32821,"lon":5.38929,"is_reserved":false,"is_disabled":false,"rental_uris":{"android":"levelo://app?vid=a1d588f9-8125-4a8f-9f59-c1cf1bdc5430","ios":"levelo://app?vid=a1d588f9-8125-4a8f-9f59-c1cf1bdc5430"},"vehicle_type_id":"4","last_reported":1685846399,"current_range_meters":14400,"station_id":"","pricing_plan_id":"free"},{"bike_id":"458f10f4-63ad-41ba-8508-5b43b4685401","system_id":"levelo_inurba_marseille","lat":43.302008,"lon":5.394694,"is_reserved":false,"is_disabled":false,"rental_uris":{"android":"levelo://app?vid=458f10f4-63ad-41ba-8508-5b43b4685401","ios":"levelo://app?vid=458f10f4-63ad-41ba-8508-5b43b4685401"},"vehicle_type_id":"4","last_reported":1685846399,"current_range_meters":26000,"station_id":"ce4bh0p2rcd13ifvqd70","pricing_plan_id":"free"},{"bike_id":"0a8aba60-b51b-427d-be66-8709066b23d1","system_id":"levelo_inurba_marseille","lat":43.33212,"lon":5.38556,"is_reserved":false,"is_disabled":false,"rental_uris":{"android":"levelo://app?vid=0a8aba60-b51b-427d-be66-8709066b23d1","ios":"levelo://app?vid=0a8aba60-b51b-427d-be66-8709066b23d1"},"vehicle_type_id":"4","last_reported":1685846399,"current_range_meters":27200,"station_id":"","pricing_plan_id":"free"},{"bike_id":"b3e31306-e7ae-453a-a1df-41ed613dfa7e","system_id":"levelo_inurba_marseille","lat":43.292644,"lon":5.384257,"is_reserved":false,"is_disabled":false,"rental_uris":{"android":"levelo://app?vid=b3e31306-e7ae-453a-a1df-41ed613dfa7e","ios":"levelo://app?vid=b3e31306-e7ae-453a-a1df-41ed613dfa7e"},"vehicle_type_id":"4","last_reported":1685846399,"current_range_meters":23200,"station_id":"ce4bh692rcd13ifvqea0","pricing_plan_id":"free"},{"bike_id":"a4ec7491-0a99-4804-abbf-a0bb06e26ab4","system_id":"levelo_inurba_marseille","lat":43.292642,"lon":5.384254,"is_reserved":false,"is_disabled":false,"rental_uris":{"android":"levelo://app?vid=a4ec7491-0a99-4804-abbf-a0bb06e26ab4","ios":"levelo://app?vid=a4ec7491-0a99-4804-abbf-a0bb06e26ab4"},"vehicle_type_id":"4","last_reported":1685846399,"current_range_meters":31200,"station_id":"ce4bh692rcd13ifvqea0","pricing_plan_id":"free"},{"bike_id":"82349f93-24a6-4c7c-bcd2-779becf946c9","system_id":"levelo_inurba_marseille","lat":43.29262,"lon":5.38448,"is_reserved":false,"is_disabled":false,"rental_uris":{"android":"levelo://app?vid=82349f93-24a6-4c7c-bcd2-779becf946c9","ios":"levelo://app?vid=82349f93-24a6-4c7c-bcd2-779becf946c9"},"vehicle_type_id":"4","last_reported":1685846399,"current_range_meters":23600,"station_id":"ce4bh692rcd13ifvqea0","pricing_plan_id":"free"},{"bike_id":"6f06a496-0982-4743-a9eb-cd7f75c48960","system_id":"levelo_inurba_marseille","lat":43.292608,"lon":5.384481,"is_reserved":false,"is_disabled":false,"rental_uris":{"android":"levelo://app?vid=6f06a496-0982-4743-a9eb-cd7f75c48960","ios":"levelo://app?vid=6f06a496-0982-4743-a9eb-cd7f75c48960"},"vehicle_type_id":"4","last_reported":1685846399,"current_range_meters":28800,"station_id":"ce4bh692rcd13ifvqea0","pricing_plan_id":"free"},{"bike_id":"0456b2c1-8a4f-4e94-ae33-a548e7711bcf","system_id":"levelo_inurba_marseille","lat":43.33035,"lon":5.38916,"is_reserved":false,"is_disabled":false,"rental_uris":{"android":"levelo://app?vid=0456b2c1-8a4f-4e94-ae33-a548e7711bcf","ios":"levelo://app?vid=0456b2c1-8a4f-4e94-ae33-a548e7711bcf"},"vehicle_type_id":"4","last_reported":1685846399,"current_range_meters":14400,"station_id":"ce4bhr92rcd13ifvqhrg","pricing_plan_id":"free"},{"bike_id":"05f1a2c7-d830-495c-86b8-292585194459","system_id":"levelo_inurba_marseille","lat":43.33032,"lon":5.38925,"is_reserved":false,"is_disabled":false,"rental_uris":{"android":"levelo://app?vid=05f1a2c7-d830-495c-86b8-292585194459","ios":"levelo://app?vid=05f1a2c7-d830-495c-86b8-292585194459"},"vehicle_type_id":"4","last_reported":1685846399,"current_range_meters":21200,"station_id":"ce4bhr92rcd13ifvqhrg","pricing_plan_id":"free"},{"bike_id":"5cbcf543-d288-404c-bac6-328ef38ba2d8","system_id":"levelo_inurba_marseille","lat":43.33045,"lon":5.38909,"is_reserved":false,"is_disabled":false,"rental_uris":{"android":"levelo://app?vid=5cbcf543-d288-404c-bac6-328ef38ba2d8","ios":"levelo://app?vid=5cbcf543-d288-404c-bac6-328ef38ba2d8"},"vehicle_type_id":"4","last_reported":1685846399,"current_range_meters":21600,"station_id":"ce4bhr92rcd13ifvqhrg","pricing_plan_id":"free"},{"bike_id":"85fe76dc-6b7a-4244-a5f6-4fa3553ffdb8","system_id":"levelo_inurba_marseille","lat":43.290995,"lon":5.381361,"is_reserved":false,"is_disabled":false,"rental_uris":{"android":"levelo://app?vid=85fe76dc-6b7a-4244-a5f6-4fa3553ffdb8","ios":"levelo://app?vid=85fe76dc-6b7a-4244-a5f6-4fa3553ffdb8"},"vehicle_type_id":"4","last_reported":1685846399,"current_range_meters":0,"station_id":"ce4bh512rcd13ifvqe2g","pricing_plan_id":"free"},{"bike_id":"9db0a326-3c29-4495-9c92-ab85092bb580","system_id":"levelo_inurba_marseille","lat":43.33038,"lon":5.38922,"is_reserved":false,"is_disabled":false,"rental_uris":{"android":"levelo://app?vid=9db0a326-3c29-4495-9c92-ab85092bb580","ios":"levelo://app?vid=9db0a326-3c29-4495-9c92-ab85092bb580"},"vehicle_type_id":"4","last_reported":1685846399,"current_range_meters":22000,"station_id":"ce4bhr92rcd13ifvqhrg","pricing_plan_id":"free"},{"bike_id":"e2b942e0-3901-4124-a71d-a8535684af38","system_id":"levelo_inurba_marseille","lat":43.33043,"lon":5.38915,"is_reserved":false,"is_disabled":false,"rental_uris":{"android":"levelo://app?vid=e2b942e0-3901-4124-a71d-a8535684af38","ios":"levelo://app?vid=e2b942e0-3901-4124-a71d-a8535684af38"},"vehicle_type_id":"4","last_reported":1685846399,"current_range_meters":28000,"station_id":"ce4bhr92rcd13ifvqhrg","pricing_plan_id":"free"},{"bike_id":"dcb00244-aef9-4eec-91cd-42ea75ebd82c","system_id":"levelo_inurba_marseille","lat":43.33046,"lon":5.38911,"is_reserved":false,"is_disabled":false,"rental_uris":{"android":"levelo://app?vid=dcb00244-aef9-4eec-91cd-42ea75ebd82c","ios":"levelo://app?vid=dcb00244-aef9-4eec-91cd-42ea75ebd82c"},"vehicle_type_id":"4","last_reported":1685846399,"current_range_meters":5200,"station_id":"ce4bhr92rcd13ifvqhrg","pricing_plan_id":"free"},{"bike_id":"4c000fe7-36f8-4c79-a023-f0156a20cade","system_id":"levelo_inurba_marseille","lat":43.29003,"lon":5.35611,"is_reserved":false,"is_disabled":false,"rental_uris":{"android":"levelo://app?vid=4c000fe7-36f8-4c79-a023-f0156a20cade","ios":"levelo://app?vid=4c000fe7-36f8-4c79-a023-f0156a20cade"},"vehicle_type_id":"4","last_reported":1685846399,"current_range_meters":28800,"station_id":"ce4bhb92rcd13ifvqen0","pricing_plan_id":"free"},{"bike_id":"eeb03ec4-55ec-4e1f-b3d5-5ab9729f95a8","system_id":"levelo_inurba_marseille","lat":43.290995,"lon":5.381361,"is_reserved":false,"is_disabled":false,"rental_uris":{"android":"levelo://app?vid=eeb03ec4-55ec-4e1f-b3d5-5ab9729f95a8","ios":"levelo://app?vid=eeb03ec4-55ec-4e1f-b3d5-5ab9729f95a8"},"vehicle_type_id":"4","last_reported":1685846399,"current_range_meters":0,"station_id":"ce4bh512rcd13ifvqe2g","pricing_plan_id":"free"},{"bike_id":"906c92d3-e27e-493a-a6d4-6f465d8a62b6","system_id":"levelo_inurba_marseille","lat":43.29027,"lon":5.38141,"is_reserved":false,"is_disabled":false,"rental_uris":{"android":"levelo://app?vid=906c92d3-e27e-493a-a6d4-6f465d8a62b6","ios":"levelo://app?vid=906c92d3-e27e-493a-a6d4-6f465d8a62b6"},"vehicle_type_id":"4","last_reported":1685846399,"current_range_meters":0,"station_id":"ce4bh4p2rcd13ifvqe1g","pricing_plan_id":"free"},{"bike_id":"def93c9e-cf73-4e61-b52c-f9890c1b8f9c","system_id":"levelo_inurba_marseille","lat":43.29018,"lon":5.38144,"is_reserved":false,"is_disabled":false,"rental_uris":{"android":"levelo://app?vid=def93c9e-cf73-4e61-b52c-f9890c1b8f9c","ios":"levelo://app?vid=def93c9e-cf73-4e61-b52c-f9890c1b8f9c"},"vehicle_type_id":"4","last_reported":1685846399,"current_range_meters":28400,"station_id":"ce4bh4p2rcd13ifvqe1g","pricing_plan_id":"free"},{"bike_id":"076f2957-6e39-4131-b394-010ec5c02a21","system_id":"levelo_inurba_marseille","lat":43.28856,"lon":5.358371,"is_reserved":false,"is_disabled":false,"rental_uris":{"android":"levelo://app?vid=076f2957-6e39-4131-b394-010ec5c02a21","ios":"levelo://app?vid=076f2957-6e39-4131-b394-010ec5c02a21"},"vehicle_type_id":"4","last_reported":1685846399,"current_range_meters":18000,"station_id":"ce4bhb12rcd13ifvqem0","pricing_plan_id":"free"},{"bike_id":"6a4245ab-9847-48a1-8468-0a85dc2e6cf0","system_id":"levelo_inurba_marseille","lat":43.28856,"lon":5.358371,"is_reserved":false,"is_disabled":false,"rental_uris":{"android":"levelo://app?vid=6a4245ab-9847-48a1-8468-0a85dc2e6cf0","ios":"levelo://app?vid=6a4245ab-9847-48a1-8468-0a85dc2e6cf0"},"vehicle_type_id":"4","last_reported":1685846399,"current_range_meters":29200,"station_id":"ce4bhb12rcd13ifvqem0","pricing_plan_id":"free"},{"bike_id":"8f950625-af2d-4089-844d-37bd38107aa9","system_id":"levelo_inurba_marseille","lat":43.33741,"lon":5.37434,"is_reserved":false,"is_disabled":false,"rental_uris":{"android":"levelo://app?vid=8f950625-af2d-4089-844d-37bd38107aa9","ios":"levelo://app?vid=8f950625-af2d-4089-844d-37bd38107aa9"},"vehicle_type_id":"4","last_reported":1685846399,"current_range_meters":31200,"station_id":"","pricing_plan_id":"free"},{"bike_id":"d6238031-a3ae-4459-8d83-34438c8680d4","system_id":"levelo_inurba_marseille","lat":43.30933,"lon":5.40137,"is_reserved":false,"is_disabled":false,"rental_uris":{"android":"levelo://app?vid=d6238031-a3ae-4459-8d83-34438c8680d4","ios":"levelo://app?vid=d6238031-a3ae-4459-8d83-34438c8680d4"},"vehicle_type_id":"4","last_reported":1685846399,"current_range_meters":15200,"station_id":"","pricing_plan_id":"free"},{"bike_id":"cc463d9e-d920-4761-a3b4-ba3e08523237","system_id":"levelo_inurba_marseille","lat":43.28856,"lon":5.358371,"is_reserved":false,"is_disabled":false,"rental_uris":{"android":"levelo://app?vid=cc463d9e-d920-4761-a3b4-ba3e08523237","ios":"levelo://app?vid=cc463d9e-d920-4761-a3b4-ba3e08523237"},"vehicle_type_id":"4","last_reported":1685846399,"current_range_meters":28000,"station_id":"ce4bhb12rcd13ifvqem0","pricing_plan_id":"free"},{"bike_id":"3b9bb1b8-abfe-42ee-8022-58f97caadd1b","system_id":"levelo_inurba_marseille","lat":43.30642,"lon":5.401031,"is_reserved":false,"is_disabled":false,"rental_uris":{"android":"levelo://app?vid=3b9bb1b8-abfe-42ee-8022-58f97caadd1b","ios":"levelo://app?vid=3b9bb1b8-abfe-42ee-8022-58f97caadd1b"},"vehicle_type_id":"4","last_reported":1685846399,"current_range_meters":26800,"station_id":"ce4bh112rcd13ifvqda0","pricing_plan_id":"free"},{"bike_id":"ebd963f3-b4ae-436f-9930-47c5b35215a1","system_id":"levelo_inurba_marseille","lat":43.30642,"lon":5.401031,"is_reserved":false,"is_disabled":false,"rental_uris":{"android":"levelo://app?vid=ebd963f3-b4ae-436f-9930-47c5b35215a1","ios":"levelo://app?vid=ebd963f3-b4ae-436f-9930-47c5b35215a1"},"vehicle_type_id":"4","last_reported":1685846399,"current_range_meters":31200,"station_id":"ce4bh112rcd13ifvqda0","pricing_plan_id":"free"},{"bike_id":"1dc2cc99-6997-4e64-abe8-10878865daff","system_id":"levelo_inurba_marseille","lat":43.30933,"lon":5.40142,"is_reserved":false,"is_disabled":false,"rental_uris":{"android":"levelo://app?vid=1dc2cc99-6997-4e64-abe8-10878865daff","ios":"levelo://app?vid=1dc2cc99-6997-4e64-abe8-10878865daff"},"vehicle_type_id":"4","last_reported":1685846399,"current_range_meters":15200,"station_id":"","pricing_plan_id":"free"},{"bike_id":"440ae1e4-f13e-4f46-a575-bc7db329e2de","system_id":"levelo_inurba_marseille","lat":43.28856,"lon":5.358371,"is_reserved":false,"is_disabled":false,"rental_uris":{"android":"levelo://app?vid=440ae1e4-f13e-4f46-a575-bc7db329e2de","ios":"levelo://app?vid=440ae1e4-f13e-4f46-a575-bc7db329e2de"},"vehicle_type_id":"4","last_reported":1685846399,"current_range_meters":20400,"station_id":"ce4bhb12rcd13ifvqem0","pricing_plan_id":"free"},{"bike_id":"9d1cf487-e813-4c2b-93be-4b65476a6134","system_id":"levelo_inurba_marseille","lat":43.306412,"lon":5.401035,"is_reserved":false,"is_disabled":false,"rental_uris":{"android":"levelo://app?vid=9d1cf487-e813-4c2b-93be-4b65476a6134","ios":"levelo://app?vid=9d1cf487-e813-4c2b-93be-4b65476a6134"},"vehicle_type_id":"4","last_reported":1685846399,"current_range_meters":31200,"station_id":"ce4bh112rcd13ifvqda0","pricing_plan_id":"free"},{"bike_id":"fd20705c-30f4-405e-9cde-eaad2dbd8d77","system_id":"levelo_inurba_marseille","lat":43.30642,"lon":5.401031,"is_reserved":false,"is_disabled":false,"rental_uris":{"android":"levelo://app?vid=fd20705c-30f4-405e-9cde-eaad2dbd8d77","ios":"levelo://app?vid=fd20705c-30f4-405e-9cde-eaad2dbd8d77"},"vehicle_type_id":"4","last_reported":1685846399,"current_range_meters":26800,"station_id":"ce4bh112rcd13ifvqda0","pricing_plan_id":"free"},{"bike_id":"675927e0-ab95-41a0-80be-7ee111a218f5","system_id":"levelo_inurba_marseille","lat":43.3375,"lon":5.37472,"is_reserved":false,"is_disabled":false,"rental_uris":{"android":"levelo://app?vid=675927e0-ab95-41a0-80be-7ee111a218f5","ios":"levelo://app?vid=675927e0-ab95-41a0-80be-7ee111a218f5"},"vehicle_type_id":"4","last_reported":1685846399,"current_range_meters":29600,"station_id":"","pricing_plan_id":"free"},{"bike_id":"6a66f5ca-8285-4108-9e85-a0f690ddddc9","system_id":"levelo_inurba_marseille","lat":43.30642,"lon":5.401031,"is_reserved":false,"is_disabled":false,"rental_uris":{"android":"levelo://app?vid=6a66f5ca-8285-4108-9e85-a0f690ddddc9","ios":"levelo://app?vid=6a66f5ca-8285-4108-9e85-a0f690ddddc9"},"vehicle_type_id":"4","last_reported":1685846399,"current_range_meters":31200,"station_id":"ce4bh112rcd13ifvqda0","pricing_plan_id":"free"},{"bike_id":"b0f8ef82-4bd8-470a-a9e8-8f439599439a","system_id":"levelo_inurba_marseille","lat":43.30642,"lon":5.401031,"is_reserved":false,"is_disabled":false,"rental_uris":{"android":"levelo://app?vid=b0f8ef82-4bd8-470a-a9e8-8f439599439a","ios":"levelo://app?vid=b0f8ef82-4bd8-470a-a9e8-8f439599439a"},"vehicle_type_id":"4","last_reported":1685846399,"current_range_meters":16800,"station_id":"ce4bh112rcd13ifvqda0","pricing_plan_id":"free"},{"bike_id":"cf0caa37-cec8-408b-98f7-37211a80813c","system_id":"levelo_inurba_marseille","lat":43.33761,"lon":5.37426,"is_reserved":false,"is_disabled":false,"rental_uris":{"android":"levelo://app?vid=cf0caa37-cec8-408b-98f7-37211a80813c","ios":"levelo://app?vid=cf0caa37-cec8-408b-98f7-37211a80813c"},"vehicle_type_id":"4","last_reported":1685846399,"current_range_meters":29600,"station_id":"","pricing_plan_id":"free"},{"bike_id":"a753609c-e03b-40e9-8fcd-6e73f0032eca","system_id":"levelo_inurba_marseille","lat":43.306412,"lon":5.401035,"is_reserved":false,"is_disabled":false,"rental_uris":{"android":"levelo://app?vid=a753609c-e03b-40e9-8fcd-6e73f0032eca","ios":"levelo://app?vid=a753609c-e03b-40e9-8fcd-6e73f0032eca"},"vehicle_type_id":"4","last_reported":1685846399,"current_range_meters":23600,"station_id":"ce4bh112rcd13ifvqda0","pricing_plan_id":"free"},{"bike_id":"9fc69c19-d01f-4557-a8ae-c4df9b10a1e2","system_id":"levelo_inurba_marseille","lat":43.30642,"lon":5.401031,"is_reserved":false,"is_disabled":false,"rental_uris":{"android":"levelo://app?vid=9fc69c19-d01f-4557-a8ae-c4df9b10a1e2","ios":"levelo://app?vid=9fc69c19-d01f-4557-a8ae-c4df9b10a1e2"},"vehicle_type_id":"4","last_reported":1685846399,"current_range_meters":31200,"station_id":"ce4bh112rcd13ifvqda0","pricing_plan_id":"free"},{"bike_id":"34ec6f56-41fe-4bde-81cb-8160e6b4a91a","system_id":"levelo_inurba_marseille","lat":43.30642,"lon":5.401031,"is_reserved":false,"is_disabled":false,"rental_uris":{"android":"levelo://app?vid=34ec6f56-41fe-4bde-81cb-8160e6b4a91a","ios":"levelo://app?vid=34ec6f56-41fe-4bde-81cb-8160e6b4a91a"},"vehicle_type_id":"4","last_reported":1685846399,"current_range_meters":27600,"station_id":"ce4bh112rcd13ifvqda0","pricing_plan_id":"free"},{"bike_id":"11f280ff-e3ce-4960-b392-eabc83012156","system_id":"levelo_inurba_marseille","lat":43.30642,"lon":5.401031,"is_reserved":false,"is_disabled":false,"rental_uris":{"android":"levelo://app?vid=11f280ff-e3ce-4960-b392-eabc83012156","ios":"levelo://app?vid=11f280ff-e3ce-4960-b392-eabc83012156"},"vehicle_type_id":"4","last_reported":1685846399,"current_range_meters":31200,"station_id":"ce4bh112rcd13ifvqda0","pricing_plan_id":"free"},{"bike_id":"7ea6f399-c382-4550-b321-85dfded40aea","system_id":"levelo_inurba_marseille","lat":43.306412,"lon":5.401035,"is_reserved":false,"is_disabled":false,"rental_uris":{"android":"levelo://app?vid=7ea6f399-c382-4550-b321-85dfded40aea","ios":"levelo://app?vid=7ea6f399-c382-4550-b321-85dfded40aea"},"vehicle_type_id":"4","last_reported":1685846399,"current_range_meters":31200,"station_id":"ce4bh112rcd13ifvqda0","pricing_plan_id":"free"},{"bike_id":"bd39bba9-5681-48d9-864f-c994d69ad532","system_id":"levelo_inurba_marseille","lat":43.306412,"lon":5.401035,"is_reserved":false,"is_disabled":false,"rental_uris":{"android":"levelo://app?vid=bd39bba9-5681-48d9-864f-c994d69ad532","ios":"levelo://app?vid=bd39bba9-5681-48d9-864f-c994d69ad532"},"vehicle_type_id":"4","last_reported":1685846399,"current_range_meters":28800,"station_id":"ce4bh112rcd13ifvqda0","pricing_plan_id":"free"},{"bike_id":"69ae5cc4-4319-4881-a587-f8ae415af16a","system_id":"levelo_inurba_marseille","lat":43.298681,"lon":5.397225,"is_reserved":false,"is_disabled":false,"rental_uris":{"android":"levelo://app?vid=69ae5cc4-4319-4881-a587-f8ae415af16a","ios":"levelo://app?vid=69ae5cc4-4319-4881-a587-f8ae415af16a"},"vehicle_type_id":"4","last_reported":1685846399,"current_range_meters":30800,"station_id":"ce4bh0h2rcd13ifvqd50","pricing_plan_id":"free"},{"bike_id":"1be95756-e8f4-4158-85d8-3f22e3077c45","system_id":"levelo_inurba_marseille","lat":43.286591,"lon":5.363346,"is_reserved":false,"is_disabled":false,"rental_uris":{"android":"levelo://app?vid=1be95756-e8f4-4158-85d8-3f22e3077c45","ios":"levelo://app?vid=1be95756-e8f4-4158-85d8-3f22e3077c45"},"vehicle_type_id":"4","last_reported":1685846399,"current_range_meters":28400,"station_id":"ce4bhah2rcd13ifvqej0","pricing_plan_id":"free"},{"bike_id":"60a089c7-bed5-40a8-8c85-47bec2f131a2","system_id":"levelo_inurba_marseille","lat":43.286593,"lon":5.363346,"is_reserved":false,"is_disabled":false,"rental_uris":{"android":"levelo://app?vid=60a089c7-bed5-40a8-8c85-47bec2f131a2","ios":"levelo://app?vid=60a089c7-bed5-40a8-8c85-47bec2f131a2"},"vehicle_type_id":"4","last_reported":1685846399,"current_range_meters":24400,"station_id":"ce4bhah2rcd13ifvqej0","pricing_plan_id":"free"},{"bike_id":"2aa238c8-6488-4f0f-a21b-439633f995f7","system_id":"levelo_inurba_marseille","lat":43.298681,"lon":5.397225,"is_reserved":false,"is_disabled":false,"rental_uris":{"android":"levelo://app?vid=2aa238c8-6488-4f0f-a21b-439633f995f7","ios":"levelo://app?vid=2aa238c8-6488-4f0f-a21b-439633f995f7"},"vehicle_type_id":"4","last_reported":1685846399,"current_range_meters":30400,"station_id":"ce4bh0h2rcd13ifvqd50","pricing_plan_id":"free"},{"bike_id":"5a6c3182-7bb3-4e89-8402-9b30e6379ee8","system_id":"levelo_inurba_marseille","lat":43.298681,"lon":5.397225,"is_reserved":false,"is_disabled":false,"rental_uris":{"android":"levelo://app?vid=5a6c3182-7bb3-4e89-8402-9b30e6379ee8","ios":"levelo://app?vid=5a6c3182-7bb3-4e89-8402-9b30e6379ee8"},"vehicle_type_id":"4","last_reported":1685846399,"current_range_meters":31200,"station_id":"ce4bh0h2rcd13ifvqd50","pricing_plan_id":"free"},{"bike_id":"c66cb54a-78fb-4cf0-90fb-899a13c1be31","system_id":"levelo_inurba_marseille","lat":43.298681,"lon":5.397225,"is_reserved":false,"is_disabled":false,"rental_uris":{"android":"levelo://app?vid=c66cb54a-78fb-4cf0-90fb-899a13c1be31","ios":"levelo://app?vid=c66cb54a-78fb-4cf0-90fb-899a13c1be31"},"vehicle_type_id":"4","last_reported":1685846399,"current_range_meters":28800,"station_id":"ce4bh0h2rcd13ifvqd50","pricing_plan_id":"free"},{"bike_id":"7618a4f9-9aef-49f6-a720-531652aafca2","system_id":"levelo_inurba_marseille","lat":43.298681,"lon":5.397225,"is_reserved":false,"is_disabled":false,"rental_uris":{"android":"levelo://app?vid=7618a4f9-9aef-49f6-a720-531652aafca2","ios":"levelo://app?vid=7618a4f9-9aef-49f6-a720-531652aafca2"},"vehicle_type_id":"4","last_reported":1685846399,"current_range_meters":29600,"station_id":"ce4bh0h2rcd13ifvqd50","pricing_plan_id":"free"},{"bike_id":"5a784832-c9c2-40f1-9bdf-5f3ed1656859","system_id":"levelo_inurba_marseille","lat":43.295194,"lon":5.39397,"is_reserved":false,"is_disabled":false,"rental_uris":{"android":"levelo://app?vid=5a784832-c9c2-40f1-9bdf-5f3ed1656859","ios":"levelo://app?vid=5a784832-c9c2-40f1-9bdf-5f3ed1656859"},"vehicle_type_id":"4","last_reported":1685846399,"current_range_meters":31200,"station_id":"ce4bh292rcd13ifvqdf0","pricing_plan_id":"free"},{"bike_id":"d2842b0a-56dc-42c9-809a-bcce207da016","system_id":"levelo_inurba_marseille","lat":43.302759,"lon":5.400793,"is_reserved":false,"is_disabled":false,"rental_uris":{"android":"levelo://app?vid=d2842b0a-56dc-42c9-809a-bcce207da016","ios":"levelo://app?vid=d2842b0a-56dc-42c9-809a-bcce207da016"},"vehicle_type_id":"4","last_reported":1685846399,"current_range_meters":29600,"station_id":"ce4bgvh2rcd13ifvqcs0","pricing_plan_id":"free"},{"bike_id":"054eaa10-36f4-4119-a359-b1e8d49a8ba1","system_id":"levelo_inurba_marseille","lat":43.302759,"lon":5.400793,"is_reserved":false,"is_disabled":false,"rental_uris":{"android":"levelo://app?vid=054eaa10-36f4-4119-a359-b1e8d49a8ba1","ios":"levelo://app?vid=054eaa10-36f4-4119-a359-b1e8d49a8ba1"},"vehicle_type_id":"4","last_reported":1685846399,"current_range_meters":28400,"station_id":"ce4bgvh2rcd13ifvqcs0","pricing_plan_id":"free"},{"bike_id":"2aaa8d57-fb44-4254-a731-c7b3db5a7072","system_id":"levelo_inurba_marseille","lat":43.295194,"lon":5.39397,"is_reserved":false,"is_disabled":false,"rental_uris":{"android":"levelo://app?vid=2aaa8d57-fb44-4254-a731-c7b3db5a7072","ios":"levelo://app?vid=2aaa8d57-fb44-4254-a731-c7b3db5a7072"},"vehicle_type_id":"4","last_reported":1685846399,"current_range_meters":31200,"station_id":"ce4bh292rcd13ifvqdf0","pricing_plan_id":"free"},{"bike_id":"74e10b00-afac-43ac-b0b9-a66d2982588f","system_id":"levelo_inurba_marseille","lat":43.30245,"lon":5.40059,"is_reserved":false,"is_disabled":false,"rental_uris":{"android":"levelo://app?vid=74e10b00-afac-43ac-b0b9-a66d2982588f","ios":"levelo://app?vid=74e10b00-afac-43ac-b0b9-a66d2982588f"},"vehicle_type_id":"4","last_reported":1685846399,"current_range_meters":20800,"station_id":"","pricing_plan_id":"free"},{"bike_id":"fceba16d-ac64-416a-9b80-4b5430e4011d","system_id":"levelo_inurba_marseille","lat":43.302759,"lon":5.400793,"is_reserved":false,"is_disabled":false,"rental_uris":{"android":"levelo://app?vid=fceba16d-ac64-416a-9b80-4b5430e4011d","ios":"levelo://app?vid=fceba16d-ac64-416a-9b80-4b5430e4011d"},"vehicle_type_id":"4","last_reported":1685846399,"current_range_meters":31200,"station_id":"ce4bgvh2rcd13ifvqcs0","pricing_plan_id":"free"},{"bike_id":"2d2930d3-2595-4a30-bcb8-c4e373e8664e","system_id":"levelo_inurba_marseille","lat":43.30238,"lon":5.40058,"is_reserved":false,"is_disabled":false,"rental_uris":{"android":"levelo://app?vid=2d2930d3-2595-4a30-bcb8-c4e373e8664e","ios":"levelo://app?vid=2d2930d3-2595-4a30-bcb8-c4e373e8664e"},"vehicle_type_id":"4","last_reported":1685846399,"current_range_meters":10000,"station_id":"","pricing_plan_id":"free"},{"bike_id":"1ad2bede-308b-4525-bcf1-588c269a4c8f","system_id":"levelo_inurba_marseille","lat":43.302759,"lon":5.400793,"is_reserved":false,"is_disabled":false,"rental_uris":{"android":"levelo://app?vid=1ad2bede-308b-4525-bcf1-588c269a4c8f","ios":"levelo://app?vid=1ad2bede-308b-4525-bcf1-588c269a4c8f"},"vehicle_type_id":"4","last_reported":1685846399,"current_range_meters":30000,"station_id":"ce4bgvh2rcd13ifvqcs0","pricing_plan_id":"free"},{"bike_id":"84bd552d-488e-4428-a177-8011bc1fd208","system_id":"levelo_inurba_marseille","lat":43.30229,"lon":5.40058,"is_reserved":false,"is_disabled":false,"rental_uris":{"android":"levelo://app?vid=84bd552d-488e-4428-a177-8011bc1fd208","ios":"levelo://app?vid=84bd552d-488e-4428-a177-8011bc1fd208"},"vehicle_type_id":"4","last_reported":1685846399,"current_range_meters":31200,"station_id":"ce4bgvh2rcd13ifvqcs0","pricing_plan_id":"free"},{"bike_id":"d5be4256-0077-40b9-8c2e-f350cdc1372e","system_id":"levelo_inurba_marseille","lat":43.30239,"lon":5.40064,"is_reserved":false,"is_disabled":false,"rental_uris":{"android":"levelo://app?vid=d5be4256-0077-40b9-8c2e-f350cdc1372e","ios":"levelo://app?vid=d5be4256-0077-40b9-8c2e-f350cdc1372e"},"vehicle_type_id":"4","last_reported":1685846399,"current_range_meters":31200,"station_id":"","pricing_plan_id":"free"},{"bike_id":"fd4f84cf-60e1-4ae5-8247-25cf70b0c354","system_id":"levelo_inurba_marseille","lat":43.302759,"lon":5.400793,"is_reserved":false,"is_disabled":false,"rental_uris":{"android":"levelo://app?vid=fd4f84cf-60e1-4ae5-8247-25cf70b0c354","ios":"levelo://app?vid=fd4f84cf-60e1-4ae5-8247-25cf70b0c354"},"vehicle_type_id":"4","last_reported":1685846399,"current_range_meters":31200,"station_id":"ce4bgvh2rcd13ifvqcs0","pricing_plan_id":"free"},{"bike_id":"0d59d2f0-30eb-47b8-8db8-c06778c4bf88","system_id":"levelo_inurba_marseille","lat":43.302759,"lon":5.400793,"is_reserved":false,"is_disabled":false,"rental_uris":{"android":"levelo://app?vid=0d59d2f0-30eb-47b8-8db8-c06778c4bf88","ios":"levelo://app?vid=0d59d2f0-30eb-47b8-8db8-c06778c4bf88"},"vehicle_type_id":"4","last_reported":1685846399,"current_range_meters":29200,"station_id":"ce4bgvh2rcd13ifvqcs0","pricing_plan_id":"free"},{"bike_id":"ed2ee215-8f06-4405-9803-323f54102059","system_id":"levelo_inurba_marseille","lat":43.302759,"lon":5.400793,"is_reserved":false,"is_disabled":false,"rental_uris":{"android":"levelo://app?vid=ed2ee215-8f06-4405-9803-323f54102059","ios":"levelo://app?vid=ed2ee215-8f06-4405-9803-323f54102059"},"vehicle_type_id":"4","last_reported":1685846399,"current_range_meters":31200,"station_id":"ce4bgvh2rcd13ifvqcs0","pricing_plan_id":"free"},{"bike_id":"fc04bcd3-591b-463f-a6a6-7be4a0687cdf","system_id":"levelo_inurba_marseille","lat":43.302759,"lon":5.400793,"is_reserved":false,"is_disabled":false,"rental_uris":{"android":"levelo://app?vid=fc04bcd3-591b-463f-a6a6-7be4a0687cdf","ios":"levelo://app?vid=fc04bcd3-591b-463f-a6a6-7be4a0687cdf"},"vehicle_type_id":"4","last_reported":1685846399,"current_range_meters":31200,"station_id":"ce4bgvh2rcd13ifvqcs0","pricing_plan_id":"free"},{"bike_id":"8b86f859-a6f4-4528-add1-cc4e3f1fe04f","system_id":"levelo_inurba_marseille","lat":43.302759,"lon":5.400793,"is_reserved":false,"is_disabled":false,"rental_uris":{"android":"levelo://app?vid=8b86f859-a6f4-4528-add1-cc4e3f1fe04f","ios":"levelo://app?vid=8b86f859-a6f4-4528-add1-cc4e3f1fe04f"},"vehicle_type_id":"4","last_reported":1685846399,"current_range_meters":22800,"station_id":"ce4bgvh2rcd13ifvqcs0","pricing_plan_id":"free"},{"bike_id":"0821f129-b906-457c-83f3-5797ea868343","system_id":"levelo_inurba_marseille","lat":43.287184,"lon":5.37937,"is_reserved":false,"is_disabled":false,"rental_uris":{"android":"levelo://app?vid=0821f129-b906-457c-83f3-5797ea868343","ios":"levelo://app?vid=0821f129-b906-457c-83f3-5797ea868343"},"vehicle_type_id":"4","last_reported":1685846399,"current_range_meters":5600,"station_id":"ce4bh9p2rcd13ifvqec0","pricing_plan_id":"free"},{"bike_id":"f200b9e7-9cb3-4154-84a4-a10fc617c864","system_id":"levelo_inurba_marseille","lat":43.30241,"lon":5.40176,"is_reserved":false,"is_disabled":false,"rental_uris":{"android":"levelo://app?vid=f200b9e7-9cb3-4154-84a4-a10fc617c864","ios":"levelo://app?vid=f200b9e7-9cb3-4154-84a4-a10fc617c864"},"vehicle_type_id":"4","last_reported":1685846399,"current_range_meters":0,"station_id":"","pricing_plan_id":"free"},{"bike_id":"7cf0c8f2-6032-4a5a-954c-9f906e055823","system_id":"levelo_inurba_marseille","lat":43.31645,"lon":5.40437,"is_reserved":false,"is_disabled":false,"rental_uris":{"android":"levelo://app?vid=7cf0c8f2-6032-4a5a-954c-9f906e055823","ios":"levelo://app?vid=7cf0c8f2-6032-4a5a-954c-9f906e055823"},"vehicle_type_id":"4","last_reported":1685846399,"current_range_meters":31200,"station_id":"ce4bh012rcd13ifvqd00","pricing_plan_id":"free"},{"bike_id":"aa93bff9-f3c7-4578-b37d-045f6bf399b7","system_id":"levelo_inurba_marseille","lat":43.31645,"lon":5.40439,"is_reserved":false,"is_disabled":false,"rental_uris":{"android":"levelo://app?vid=aa93bff9-f3c7-4578-b37d-045f6bf399b7","ios":"levelo://app?vid=aa93bff9-f3c7-4578-b37d-045f6bf399b7"},"vehicle_type_id":"4","last_reported":1685846399,"current_range_meters":18400,"station_id":"ce4bh012rcd13ifvqd00","pricing_plan_id":"free"},{"bike_id":"c3019c84-f303-4165-9fee-f6ea208b66cc","system_id":"levelo_inurba_marseille","lat":43.30035,"lon":5.40164,"is_reserved":false,"is_disabled":false,"rental_uris":{"android":"levelo://app?vid=c3019c84-f303-4165-9fee-f6ea208b66cc","ios":"levelo://app?vid=c3019c84-f303-4165-9fee-f6ea208b66cc"},"vehicle_type_id":"4","last_reported":1685846399,"current_range_meters":0,"station_id":"","pricing_plan_id":"free"},{"bike_id":"68d97f39-0704-4246-ba0d-d06c421c5fcd","system_id":"levelo_inurba_marseille","lat":43.284534,"lon":5.358662,"is_reserved":false,"is_disabled":false,"rental_uris":{"android":"levelo://app?vid=68d97f39-0704-4246-ba0d-d06c421c5fcd","ios":"levelo://app?vid=68d97f39-0704-4246-ba0d-d06c421c5fcd"},"vehicle_type_id":"4","last_reported":1685846399,"current_range_meters":11600,"station_id":"ce4bhah2rcd13ifvqei0","pricing_plan_id":"free"},{"bike_id":"1dc06fa6-602e-4f4f-a57e-878bc4a77bfb","system_id":"levelo_inurba_marseille","lat":43.284534,"lon":5.358662,"is_reserved":false,"is_disabled":false,"rental_uris":{"android":"levelo://app?vid=1dc06fa6-602e-4f4f-a57e-878bc4a77bfb","ios":"levelo://app?vid=1dc06fa6-602e-4f4f-a57e-878bc4a77bfb"},"vehicle_type_id":"4","last_reported":1685846399,"current_range_meters":26000,"station_id":"ce4bhah2rcd13ifvqei0","pricing_plan_id":"free"},{"bike_id":"d4fc371d-94f1-46ac-ace1-f2cc5b82222f","system_id":"levelo_inurba_marseille","lat":43.284534,"lon":5.358662,"is_reserved":false,"is_disabled":false,"rental_uris":{"android":"levelo://app?vid=d4fc371d-94f1-46ac-ace1-f2cc5b82222f","ios":"levelo://app?vid=d4fc371d-94f1-46ac-ace1-f2cc5b82222f"},"vehicle_type_id":"4","last_reported":1685846399,"current_range_meters":25200,"station_id":"ce4bhah2rcd13ifvqei0","pricing_plan_id":"free"},{"bike_id":"c030ed44-1097-48a9-8354-bbbbde62a048","system_id":"levelo_inurba_marseille","lat":43.2862,"lon":5.35106,"is_reserved":false,"is_disabled":false,"rental_uris":{"android":"levelo://app?vid=c030ed44-1097-48a9-8354-bbbbde62a048","ios":"levelo://app?vid=c030ed44-1097-48a9-8354-bbbbde62a048"},"vehicle_type_id":"4","last_reported":1685846399,"current_range_meters":30000,"station_id":"","pricing_plan_id":"free"},{"bike_id":"0318ca7b-fcde-4898-96b5-0b325392a244","system_id":"levelo_inurba_marseille","lat":43.285856,"lon":5.350771,"is_reserved":false,"is_disabled":false,"rental_uris":{"android":"levelo://app?vid=0318ca7b-fcde-4898-96b5-0b325392a244","ios":"levelo://app?vid=0318ca7b-fcde-4898-96b5-0b325392a244"},"vehicle_type_id":"4","last_reported":1685846399,"current_range_meters":31200,"station_id":"ce4bhch2rcd13ifvqeug","pricing_plan_id":"free"},{"bike_id":"810b2257-cd2e-4601-b06b-605319169af8","system_id":"levelo_inurba_marseille","lat":43.285848,"lon":5.350787,"is_reserved":false,"is_disabled":false,"rental_uris":{"android":"levelo://app?vid=810b2257-cd2e-4601-b06b-605319169af8","ios":"levelo://app?vid=810b2257-cd2e-4601-b06b-605319169af8"},"vehicle_type_id":"4","last_reported":1685846399,"current_range_meters":31200,"station_id":"ce4bhch2rcd13ifvqeug","pricing_plan_id":"free"},{"bike_id":"0a5e25f5-e34a-4905-8427-38a3f4f7cb23","system_id":"levelo_inurba_marseille","lat":43.28611,"lon":5.35111,"is_reserved":false,"is_disabled":false,"rental_uris":{"android":"levelo://app?vid=0a5e25f5-e34a-4905-8427-38a3f4f7cb23","ios":"levelo://app?vid=0a5e25f5-e34a-4905-8427-38a3f4f7cb23"},"vehicle_type_id":"4","last_reported":1685846399,"current_range_meters":25200,"station_id":"","pricing_plan_id":"free"},{"bike_id":"3e09b0fa-dd8c-4079-8346-e8dd3caf896d","system_id":"levelo_inurba_marseille","lat":43.2861,"lon":5.35107,"is_reserved":false,"is_disabled":false,"rental_uris":{"android":"levelo://app?vid=3e09b0fa-dd8c-4079-8346-e8dd3caf896d","ios":"levelo://app?vid=3e09b0fa-dd8c-4079-8346-e8dd3caf896d"},"vehicle_type_id":"4","last_reported":1685846399,"current_range_meters":31200,"station_id":"","pricing_plan_id":"free"},{"bike_id":"dae057cb-dfa4-43d3-8cfc-b2d3ca24eca1","system_id":"levelo_inurba_marseille","lat":43.285848,"lon":5.350787,"is_reserved":false,"is_disabled":false,"rental_uris":{"android":"levelo://app?vid=dae057cb-dfa4-43d3-8cfc-b2d3ca24eca1","ios":"levelo://app?vid=dae057cb-dfa4-43d3-8cfc-b2d3ca24eca1"},"vehicle_type_id":"4","last_reported":1685846399,"current_range_meters":27600,"station_id":"ce4bhch2rcd13ifvqeug","pricing_plan_id":"free"},{"bike_id":"300017d8-1526-450c-8fe5-cd17736ce810","system_id":"levelo_inurba_marseille","lat":43.295713,"lon":5.399639,"is_reserved":false,"is_disabled":false,"rental_uris":{"android":"levelo://app?vid=300017d8-1526-450c-8fe5-cd17736ce810","ios":"levelo://app?vid=300017d8-1526-450c-8fe5-cd17736ce810"},"vehicle_type_id":"4","last_reported":1685846399,"current_range_meters":30400,"station_id":"ce4bh312rcd13ifvqdj0","pricing_plan_id":"free"},{"bike_id":"1d35a38d-8a61-492e-8975-2500fa33cae9","system_id":"levelo_inurba_marseille","lat":43.295713,"lon":5.399639,"is_reserved":false,"is_disabled":false,"rental_uris":{"android":"levelo://app?vid=1d35a38d-8a61-492e-8975-2500fa33cae9","ios":"levelo://app?vid=1d35a38d-8a61-492e-8975-2500fa33cae9"},"vehicle_type_id":"4","last_reported":1685846399,"current_range_meters":28000,"station_id":"ce4bh312rcd13ifvqdj0","pricing_plan_id":"free"},{"bike_id":"9debff86-10ca-4408-a0f3-a215bd2ca844","system_id":"levelo_inurba_marseille","lat":43.2867,"lon":5.38658,"is_reserved":false,"is_disabled":false,"rental_uris":{"android":"levelo://app?vid=9debff86-10ca-4408-a0f3-a215bd2ca844","ios":"levelo://app?vid=9debff86-10ca-4408-a0f3-a215bd2ca844"},"vehicle_type_id":"4","last_reported":1685846399,"current_range_meters":0,"station_id":"ce4bh492rcd13ifvqdug","pricing_plan_id":"free"},{"bike_id":"3da26eb0-84a1-45ab-a4ac-47a6b648b84d","system_id":"levelo_inurba_marseille","lat":43.286676,"lon":5.386689,"is_reserved":false,"is_disabled":false,"rental_uris":{"android":"levelo://app?vid=3da26eb0-84a1-45ab-a4ac-47a6b648b84d","ios":"levelo://app?vid=3da26eb0-84a1-45ab-a4ac-47a6b648b84d"},"vehicle_type_id":"4","last_reported":1685846399,"current_range_meters":23600,"station_id":"","pricing_plan_id":"free"},{"bike_id":"b205e703-9cc6-479d-b47b-dcec15459f4d","system_id":"levelo_inurba_marseille","lat":43.32637,"lon":5.40401,"is_reserved":false,"is_disabled":false,"rental_uris":{"android":"levelo://app?vid=b205e703-9cc6-479d-b47b-dcec15459f4d","ios":"levelo://app?vid=b205e703-9cc6-479d-b47b-dcec15459f4d"},"vehicle_type_id":"4","last_reported":1685846399,"current_range_meters":14800,"station_id":"","pricing_plan_id":"free"},{"bike_id":"50907e2b-978d-4878-87d9-05ccc3a86a19","system_id":"levelo_inurba_marseille","lat":43.323464,"lon":5.406297,"is_reserved":false,"is_disabled":false,"rental_uris":{"android":"levelo://app?vid=50907e2b-978d-4878-87d9-05ccc3a86a19","ios":"levelo://app?vid=50907e2b-978d-4878-87d9-05ccc3a86a19"},"vehicle_type_id":"4","last_reported":1685846399,"current_range_meters":28800,"station_id":"ce4bhq92rcd13ifvqhjg","pricing_plan_id":"free"},{"bike_id":"de4feed6-b5e9-4db3-88fe-23aa2ac41e5d","system_id":"levelo_inurba_marseille","lat":43.323464,"lon":5.406297,"is_reserved":false,"is_disabled":false,"rental_uris":{"android":"levelo://app?vid=de4feed6-b5e9-4db3-88fe-23aa2ac41e5d","ios":"levelo://app?vid=de4feed6-b5e9-4db3-88fe-23aa2ac41e5d"},"vehicle_type_id":"4","last_reported":1685846399,"current_range_meters":31200,"station_id":"ce4bhq92rcd13ifvqhjg","pricing_plan_id":"free"},{"bike_id":"aeb44a9d-448b-405e-8af8-c4c27e66d2bc","system_id":"levelo_inurba_marseille","lat":43.284793,"lon":5.384113,"is_reserved":false,"is_disabled":false,"rental_uris":{"android":"levelo://app?vid=aeb44a9d-448b-405e-8af8-c4c27e66d2bc","ios":"levelo://app?vid=aeb44a9d-448b-405e-8af8-c4c27e66d2bc"},"vehicle_type_id":"4","last_reported":1685846399,"current_range_meters":10000,"station_id":"ce4bh512rcd13ifvqe3g","pricing_plan_id":"free"},{"bike_id":"6822d451-5364-4fc6-a77a-d5fe8a900ad7","system_id":"levelo_inurba_marseille","lat":43.288497,"lon":5.393089,"is_reserved":false,"is_disabled":false,"rental_uris":{"android":"levelo://app?vid=6822d451-5364-4fc6-a77a-d5fe8a900ad7","ios":"levelo://app?vid=6822d451-5364-4fc6-a77a-d5fe8a900ad7"},"vehicle_type_id":"4","last_reported":1685846399,"current_range_meters":23600,"station_id":"ce4bh2p2rcd13ifvqdi0","pricing_plan_id":"free"},{"bike_id":"51ba7915-5a55-46ee-b63f-fa1ea34a1303","system_id":"levelo_inurba_marseille","lat":43.288501,"lon":5.393087,"is_reserved":false,"is_disabled":false,"rental_uris":{"android":"levelo://app?vid=51ba7915-5a55-46ee-b63f-fa1ea34a1303","ios":"levelo://app?vid=51ba7915-5a55-46ee-b63f-fa1ea34a1303"},"vehicle_type_id":"4","last_reported":1685846399,"current_range_meters":29600,"station_id":"ce4bh2p2rcd13ifvqdi0","pricing_plan_id":"free"},{"bike_id":"441763d8-33e0-4be9-9538-703d9849a97e","system_id":"levelo_inurba_marseille","lat":43.288497,"lon":5.393089,"is_reserved":false,"is_disabled":false,"rental_uris":{"android":"levelo://app?vid=441763d8-33e0-4be9-9538-703d9849a97e","ios":"levelo://app?vid=441763d8-33e0-4be9-9538-703d9849a97e"},"vehicle_type_id":"4","last_reported":1685846399,"current_range_meters":19600,"station_id":"ce4bh2p2rcd13ifvqdi0","pricing_plan_id":"free"},{"bike_id":"32e8f0cc-be0d-40d4-bbb6-ba64324deebb","system_id":"levelo_inurba_marseille","lat":43.284219,"lon":5.3497,"is_reserved":false,"is_disabled":false,"rental_uris":{"android":"levelo://app?vid=32e8f0cc-be0d-40d4-bbb6-ba64324deebb","ios":"levelo://app?vid=32e8f0cc-be0d-40d4-bbb6-ba64324deebb"},"vehicle_type_id":"4","last_reported":1685846399,"current_range_meters":30400,"station_id":"ce4bhbh2rcd13ifvqepg","pricing_plan_id":"free"},{"bike_id":"5b4bf53c-6438-4349-b3cc-0a448d9555ff","system_id":"levelo_inurba_marseille","lat":43.289363,"lon":5.396322,"is_reserved":false,"is_disabled":false,"rental_uris":{"android":"levelo://app?vid=5b4bf53c-6438-4349-b3cc-0a448d9555ff","ios":"levelo://app?vid=5b4bf53c-6438-4349-b3cc-0a448d9555ff"},"vehicle_type_id":"4","last_reported":1685846399,"current_range_meters":26800,"station_id":"ce4bh3h2rcd13ifvqdn0","pricing_plan_id":"free"},{"bike_id":"0d329b58-b5d7-4b2d-baad-85e9e5552412","system_id":"levelo_inurba_marseille","lat":43.292724,"lon":5.401131,"is_reserved":false,"is_disabled":false,"rental_uris":{"android":"levelo://app?vid=0d329b58-b5d7-4b2d-baad-85e9e5552412","ios":"levelo://app?vid=0d329b58-b5d7-4b2d-baad-85e9e5552412"},"vehicle_type_id":"4","last_reported":1685846399,"current_range_meters":18800,"station_id":"ce4bh312rcd13ifvqdk0","pricing_plan_id":"free"},{"bike_id":"d7e33cf0-3c68-4af7-b5d1-36a28124c62f","system_id":"levelo_inurba_marseille","lat":43.292724,"lon":5.401131,"is_reserved":false,"is_disabled":false,"rental_uris":{"android":"levelo://app?vid=d7e33cf0-3c68-4af7-b5d1-36a28124c62f","ios":"levelo://app?vid=d7e33cf0-3c68-4af7-b5d1-36a28124c62f"},"vehicle_type_id":"4","last_reported":1685846399,"current_range_meters":26000,"station_id":"ce4bh312rcd13ifvqdk0","pricing_plan_id":"free"},{"bike_id":"89da4138-be74-4141-aa42-547be980dc7a","system_id":"levelo_inurba_marseille","lat":43.282754,"lon":5.350519,"is_reserved":false,"is_disabled":false,"rental_uris":{"android":"levelo://app?vid=89da4138-be74-4141-aa42-547be980dc7a","ios":"levelo://app?vid=89da4138-be74-4141-aa42-547be980dc7a"},"vehicle_type_id":"4","last_reported":1685846399,"current_range_meters":30000,"station_id":"ce4bhbp2rcd13ifvqerg","pricing_plan_id":"free"},{"bike_id":"93dae324-4206-401c-b4f7-1e1100b5e3ed","system_id":"levelo_inurba_marseille","lat":43.28363,"lon":5.38637,"is_reserved":false,"is_disabled":false,"rental_uris":{"android":"levelo://app?vid=93dae324-4206-401c-b4f7-1e1100b5e3ed","ios":"levelo://app?vid=93dae324-4206-401c-b4f7-1e1100b5e3ed"},"vehicle_type_id":"4","last_reported":1685846399,"current_range_meters":25600,"station_id":"ce4bh492rcd13ifvqdvg","pricing_plan_id":"free"},{"bike_id":"22c3153b-5258-4288-aff4-3dee036c319e","system_id":"levelo_inurba_marseille","lat":43.296263,"lon":5.40601,"is_reserved":false,"is_disabled":false,"rental_uris":{"android":"levelo://app?vid=22c3153b-5258-4288-aff4-3dee036c319e","ios":"levelo://app?vid=22c3153b-5258-4288-aff4-3dee036c319e"},"vehicle_type_id":"4","last_reported":1685846399,"current_range_meters":21200,"station_id":"ce4bh0h2rcd13ifvqd60","pricing_plan_id":"free"},{"bike_id":"77d4dff6-a136-48d4-ae1f-6a81943f4111","system_id":"levelo_inurba_marseille","lat":43.296263,"lon":5.40601,"is_reserved":false,"is_disabled":false,"rental_uris":{"android":"levelo://app?vid=77d4dff6-a136-48d4-ae1f-6a81943f4111","ios":"levelo://app?vid=77d4dff6-a136-48d4-ae1f-6a81943f4111"},"vehicle_type_id":"4","last_reported":1685846399,"current_range_meters":24800,"station_id":"ce4bh0h2rcd13ifvqd60","pricing_plan_id":"free"},{"bike_id":"b77b6e4d-3c2b-4098-857e-18954a1fff06","system_id":"levelo_inurba_marseille","lat":43.29041,"lon":5.399634,"is_reserved":false,"is_disabled":false,"rental_uris":{"android":"levelo://app?vid=b77b6e4d-3c2b-4098-857e-18954a1fff06","ios":"levelo://app?vid=b77b6e4d-3c2b-4098-857e-18954a1fff06"},"vehicle_type_id":"4","last_reported":1685846399,"current_range_meters":12400,"station_id":"ce4bh392rcd13ifvqdm0","pricing_plan_id":"free"},{"bike_id":"bbef7675-2ee2-4f1e-bef9-9ea0724e5858","system_id":"levelo_inurba_marseille","lat":43.296263,"lon":5.40601,"is_reserved":false,"is_disabled":false,"rental_uris":{"android":"levelo://app?vid=bbef7675-2ee2-4f1e-bef9-9ea0724e5858","ios":"levelo://app?vid=bbef7675-2ee2-4f1e-bef9-9ea0724e5858"},"vehicle_type_id":"4","last_reported":1685846399,"current_range_meters":30400,"station_id":"ce4bh0h2rcd13ifvqd60","pricing_plan_id":"free"},{"bike_id":"3ce1aff7-c3c5-4881-ab51-bb1d589bfa13","system_id":"levelo_inurba_marseille","lat":43.296263,"lon":5.40601,"is_reserved":false,"is_disabled":false,"rental_uris":{"android":"levelo://app?vid=3ce1aff7-c3c5-4881-ab51-bb1d589bfa13","ios":"levelo://app?vid=3ce1aff7-c3c5-4881-ab51-bb1d589bfa13"},"vehicle_type_id":"4","last_reported":1685846399,"current_range_meters":17600,"station_id":"ce4bh0h2rcd13ifvqd60","pricing_plan_id":"free"},{"bike_id":"97811eb8-34ad-4020-8e8a-94fe5fea4a6f","system_id":"levelo_inurba_marseille","lat":43.296263,"lon":5.40601,"is_reserved":false,"is_disabled":false,"rental_uris":{"android":"levelo://app?vid=97811eb8-34ad-4020-8e8a-94fe5fea4a6f","ios":"levelo://app?vid=97811eb8-34ad-4020-8e8a-94fe5fea4a6f"},"vehicle_type_id":"4","last_reported":1685846399,"current_range_meters":27600,"station_id":"ce4bh0h2rcd13ifvqd60","pricing_plan_id":"free"},{"bike_id":"66ef4d2e-b593-41ce-8fb2-3020e3ab55a2","system_id":"levelo_inurba_marseille","lat":43.28862,"lon":5.39858,"is_reserved":false,"is_disabled":false,"rental_uris":{"android":"levelo://app?vid=66ef4d2e-b593-41ce-8fb2-3020e3ab55a2","ios":"levelo://app?vid=66ef4d2e-b593-41ce-8fb2-3020e3ab55a2"},"vehicle_type_id":"4","last_reported":1685846399,"current_range_meters":0,"station_id":"","pricing_plan_id":"free"},{"bike_id":"d85c25b5-7ffb-45d9-b579-690e3aa4a5ff","system_id":"levelo_inurba_marseille","lat":43.284462,"lon":5.392121,"is_reserved":false,"is_disabled":false,"rental_uris":{"android":"levelo://app?vid=d85c25b5-7ffb-45d9-b579-690e3aa4a5ff","ios":"levelo://app?vid=d85c25b5-7ffb-45d9-b579-690e3aa4a5ff"},"vehicle_type_id":"4","last_reported":1685846399,"current_range_meters":24400,"station_id":"ce4bhoh2rcd13ifvqh5g","pricing_plan_id":"free"},{"bike_id":"91913b34-0630-4640-9e13-9d5de14bb2e8","system_id":"levelo_inurba_marseille","lat":43.284462,"lon":5.392121,"is_reserved":false,"is_disabled":false,"rental_uris":{"android":"levelo://app?vid=91913b34-0630-4640-9e13-9d5de14bb2e8","ios":"levelo://app?vid=91913b34-0630-4640-9e13-9d5de14bb2e8"},"vehicle_type_id":"4","last_reported":1685846399,"current_range_meters":16000,"station_id":"ce4bhoh2rcd13ifvqh5g","pricing_plan_id":"free"},{"bike_id":"882ef9f2-94e0-49ff-831e-c8e3b3ba2c71","system_id":"levelo_inurba_marseille","lat":43.304188,"lon":5.412904,"is_reserved":false,"is_disabled":false,"rental_uris":{"android":"levelo://app?vid=882ef9f2-94e0-49ff-831e-c8e3b3ba2c71","ios":"levelo://app?vid=882ef9f2-94e0-49ff-831e-c8e3b3ba2c71"},"vehicle_type_id":"4","last_reported":1685846399,"current_range_meters":29200,"station_id":"ce4bhop2rcd13ifvqh8g","pricing_plan_id":"free"},{"bike_id":"d7861dd7-926b-4d57-b0ec-0898e516baa7","system_id":"levelo_inurba_marseille","lat":43.27893,"lon":5.38002,"is_reserved":false,"is_disabled":false,"rental_uris":{"android":"levelo://app?vid=d7861dd7-926b-4d57-b0ec-0898e516baa7","ios":"levelo://app?vid=d7861dd7-926b-4d57-b0ec-0898e516baa7"},"vehicle_type_id":"4","last_reported":1685846399,"current_range_meters":31200,"station_id":"","pricing_plan_id":"free"},{"bike_id":"6a393bd7-90bb-4794-9445-d37322c69d35","system_id":"levelo_inurba_marseille","lat":43.299579,"lon":5.413255,"is_reserved":false,"is_disabled":false,"rental_uris":{"android":"levelo://app?vid=6a393bd7-90bb-4794-9445-d37322c69d35","ios":"levelo://app?vid=6a393bd7-90bb-4794-9445-d37322c69d35"},"vehicle_type_id":"4","last_reported":1685846399,"current_range_meters":31200,"station_id":"ce4bhp12rcd13ifvqh9g","pricing_plan_id":"free"},{"bike_id":"a355516f-464e-4f9d-91f4-a4e55bd9262f","system_id":"levelo_inurba_marseille","lat":43.299579,"lon":5.413255,"is_reserved":false,"is_disabled":false,"rental_uris":{"android":"levelo://app?vid=a355516f-464e-4f9d-91f4-a4e55bd9262f","ios":"levelo://app?vid=a355516f-464e-4f9d-91f4-a4e55bd9262f"},"vehicle_type_id":"4","last_reported":1685846399,"current_range_meters":14800,"station_id":"ce4bhp12rcd13ifvqh9g","pricing_plan_id":"free"},{"bike_id":"67c07ce1-5ead-4a28-b45a-74a5a0042687","system_id":"levelo_inurba_marseille","lat":43.279556,"lon":5.387266,"is_reserved":false,"is_disabled":false,"rental_uris":{"android":"levelo://app?vid=67c07ce1-5ead-4a28-b45a-74a5a0042687","ios":"levelo://app?vid=67c07ce1-5ead-4a28-b45a-74a5a0042687"},"vehicle_type_id":"4","last_reported":1685846399,"current_range_meters":27600,"station_id":"ce4bhg12rcd13ifvqf80","pricing_plan_id":"free"},{"bike_id":"df6c1fb7-7b02-4d5c-aa4e-fe08d3de6b95","system_id":"levelo_inurba_marseille","lat":43.320045,"lon":5.415048,"is_reserved":false,"is_disabled":false,"rental_uris":{"android":"levelo://app?vid=df6c1fb7-7b02-4d5c-aa4e-fe08d3de6b95","ios":"levelo://app?vid=df6c1fb7-7b02-4d5c-aa4e-fe08d3de6b95"},"vehicle_type_id":"4","last_reported":1685846399,"current_range_meters":28000,"station_id":"ce4bhq92rcd13ifvqhkg","pricing_plan_id":"free"},{"bike_id":"b0bcb630-0a3c-4554-b554-5884b388256d","system_id":"levelo_inurba_marseille","lat":43.292569,"lon":5.409107,"is_reserved":false,"is_disabled":false,"rental_uris":{"android":"levelo://app?vid=b0bcb630-0a3c-4554-b554-5884b388256d","ios":"levelo://app?vid=b0bcb630-0a3c-4554-b554-5884b388256d"},"vehicle_type_id":"4","last_reported":1685846399,"current_range_meters":28400,"station_id":"ce4bh192rcd13ifvqdc0","pricing_plan_id":"free"},{"bike_id":"6639646f-666d-497b-a274-ccdac3054a5f","system_id":"levelo_inurba_marseille","lat":43.29434,"lon":5.41327,"is_reserved":false,"is_disabled":false,"rental_uris":{"android":"levelo://app?vid=6639646f-666d-497b-a274-ccdac3054a5f","ios":"levelo://app?vid=6639646f-666d-497b-a274-ccdac3054a5f"},"vehicle_type_id":"4","last_reported":1685846399,"current_range_meters":0,"station_id":"","pricing_plan_id":"free"},{"bike_id":"08d684bf-1ec1-4d2f-9faa-6a15fd3c6851","system_id":"levelo_inurba_marseille","lat":43.280784,"lon":5.396622,"is_reserved":false,"is_disabled":false,"rental_uris":{"android":"levelo://app?vid=08d684bf-1ec1-4d2f-9faa-6a15fd3c6851","ios":"levelo://app?vid=08d684bf-1ec1-4d2f-9faa-6a15fd3c6851"},"vehicle_type_id":"4","last_reported":1685846399,"current_range_meters":10800,"station_id":"ce4bho12rcd13ifvqh2g","pricing_plan_id":"free"},{"bike_id":"f0bfe120-5962-4c32-b4d1-ece241139030","system_id":"levelo_inurba_marseille","lat":43.280784,"lon":5.396622,"is_reserved":false,"is_disabled":false,"rental_uris":{"android":"levelo://app?vid=f0bfe120-5962-4c32-b4d1-ece241139030","ios":"levelo://app?vid=f0bfe120-5962-4c32-b4d1-ece241139030"},"vehicle_type_id":"4","last_reported":1685846399,"current_range_meters":18800,"station_id":"ce4bho12rcd13ifvqh2g","pricing_plan_id":"free"},{"bike_id":"d36d0c61-5596-4974-9371-37c105292ad9","system_id":"levelo_inurba_marseille","lat":43.280784,"lon":5.396622,"is_reserved":false,"is_disabled":false,"rental_uris":{"android":"levelo://app?vid=d36d0c61-5596-4974-9371-37c105292ad9","ios":"levelo://app?vid=d36d0c61-5596-4974-9371-37c105292ad9"},"vehicle_type_id":"4","last_reported":1685846399,"current_range_meters":31200,"station_id":"ce4bho12rcd13ifvqh2g","pricing_plan_id":"free"},{"bike_id":"3471a6f8-2d7c-4929-a087-21fd0d63e1f2","system_id":"levelo_inurba_marseille","lat":43.280784,"lon":5.396622,"is_reserved":false,"is_disabled":false,"rental_uris":{"android":"levelo://app?vid=3471a6f8-2d7c-4929-a087-21fd0d63e1f2","ios":"levelo://app?vid=3471a6f8-2d7c-4929-a087-21fd0d63e1f2"},"vehicle_type_id":"4","last_reported":1685846399,"current_range_meters":20400,"station_id":"ce4bho12rcd13ifvqh2g","pricing_plan_id":"free"},{"bike_id":"7582fb74-5451-446b-ad0d-1483e414e02b","system_id":"levelo_inurba_marseille","lat":43.280784,"lon":5.396622,"is_reserved":false,"is_disabled":false,"rental_uris":{"android":"levelo://app?vid=7582fb74-5451-446b-ad0d-1483e414e02b","ios":"levelo://app?vid=7582fb74-5451-446b-ad0d-1483e414e02b"},"vehicle_type_id":"4","last_reported":1685846399,"current_range_meters":31200,"station_id":"ce4bho12rcd13ifvqh2g","pricing_plan_id":"free"},{"bike_id":"eb383b48-1300-442c-a2d0-7fba66dd5800","system_id":"levelo_inurba_marseille","lat":43.278401,"lon":5.392152,"is_reserved":false,"is_disabled":false,"rental_uris":{"android":"levelo://app?vid=eb383b48-1300-442c-a2d0-7fba66dd5800","ios":"levelo://app?vid=eb383b48-1300-442c-a2d0-7fba66dd5800"},"vehicle_type_id":"4","last_reported":1685846399,"current_range_meters":20400,"station_id":"ce4bhjp2rcd13ifvqga0","pricing_plan_id":"free"},{"bike_id":"bcc4deb6-83cc-4852-8aee-3ddf0d42c06d","system_id":"levelo_inurba_marseille","lat":43.278401,"lon":5.392152,"is_reserved":false,"is_disabled":false,"rental_uris":{"android":"levelo://app?vid=bcc4deb6-83cc-4852-8aee-3ddf0d42c06d","ios":"levelo://app?vid=bcc4deb6-83cc-4852-8aee-3ddf0d42c06d"},"vehicle_type_id":"4","last_reported":1685846399,"current_range_meters":30800,"station_id":"ce4bhjp2rcd13ifvqga0","pricing_plan_id":"free"},{"bike_id":"660d6d14-23ec-4cc0-895f-2e83e4b46c94","system_id":"levelo_inurba_marseille","lat":43.30357,"lon":5.41891,"is_reserved":false,"is_disabled":false,"rental_uris":{"android":"levelo://app?vid=660d6d14-23ec-4cc0-895f-2e83e4b46c94","ios":"levelo://app?vid=660d6d14-23ec-4cc0-895f-2e83e4b46c94"},"vehicle_type_id":"4","last_reported":1685846399,"current_range_meters":800,"station_id":"","pricing_plan_id":"free"},{"bike_id":"7d07b029-6d35-4cc5-b61f-bc76e5ffbe34","system_id":"levelo_inurba_marseille","lat":43.27834,"lon":5.39202,"is_reserved":false,"is_disabled":false,"rental_uris":{"android":"levelo://app?vid=7d07b029-6d35-4cc5-b61f-bc76e5ffbe34","ios":"levelo://app?vid=7d07b029-6d35-4cc5-b61f-bc76e5ffbe34"},"vehicle_type_id":"4","last_reported":1685846399,"current_range_meters":3600,"station_id":"ce4bhjp2rcd13ifvqga0","pricing_plan_id":"free"},{"bike_id":"aece11da-abe5-4650-ba29-dfec19e336af","system_id":"levelo_inurba_marseille","lat":43.33612,"lon":5.410321,"is_reserved":false,"is_disabled":false,"rental_uris":{"android":"levelo://app?vid=aece11da-abe5-4650-ba29-dfec19e336af","ios":"levelo://app?vid=aece11da-abe5-4650-ba29-dfec19e336af"},"vehicle_type_id":"4","last_reported":1685846399,"current_range_meters":31200,"station_id":"ce4bhqh2rcd13ifvqhmg","pricing_plan_id":"free"},{"bike_id":"88d4d8ce-94db-4e04-947f-9be38bb7b3c4","system_id":"levelo_inurba_marseille","lat":43.33612,"lon":5.410321,"is_reserved":false,"is_disabled":false,"rental_uris":{"android":"levelo://app?vid=88d4d8ce-94db-4e04-947f-9be38bb7b3c4","ios":"levelo://app?vid=88d4d8ce-94db-4e04-947f-9be38bb7b3c4"},"vehicle_type_id":"4","last_reported":1685846399,"current_range_meters":28400,"station_id":"ce4bhqh2rcd13ifvqhmg","pricing_plan_id":"free"},{"bike_id":"8608971e-0a5b-45d4-bea0-6cd6e58cd09f","system_id":"levelo_inurba_marseille","lat":43.33612,"lon":5.410321,"is_reserved":false,"is_disabled":false,"rental_uris":{"android":"levelo://app?vid=8608971e-0a5b-45d4-bea0-6cd6e58cd09f","ios":"levelo://app?vid=8608971e-0a5b-45d4-bea0-6cd6e58cd09f"},"vehicle_type_id":"4","last_reported":1685846399,"current_range_meters":30000,"station_id":"ce4bhqh2rcd13ifvqhmg","pricing_plan_id":"free"},{"bike_id":"1047baed-e4e4-44e1-a721-8cb09706769a","system_id":"levelo_inurba_marseille","lat":43.336134,"lon":5.410341,"is_reserved":false,"is_disabled":false,"rental_uris":{"android":"levelo://app?vid=1047baed-e4e4-44e1-a721-8cb09706769a","ios":"levelo://app?vid=1047baed-e4e4-44e1-a721-8cb09706769a"},"vehicle_type_id":"4","last_reported":1685846399,"current_range_meters":28400,"station_id":"ce4bhqh2rcd13ifvqhmg","pricing_plan_id":"free"},{"bike_id":"9e3e9364-2c59-49d2-ad66-90ae6c254e2b","system_id":"levelo_inurba_marseille","lat":43.336134,"lon":5.410341,"is_reserved":false,"is_disabled":false,"rental_uris":{"android":"levelo://app?vid=9e3e9364-2c59-49d2-ad66-90ae6c254e2b","ios":"levelo://app?vid=9e3e9364-2c59-49d2-ad66-90ae6c254e2b"},"vehicle_type_id":"4","last_reported":1685846399,"current_range_meters":31200,"station_id":"ce4bhqh2rcd13ifvqhmg","pricing_plan_id":"free"},{"bike_id":"449eeb59-bd7e-4175-860b-36c5840ef090","system_id":"levelo_inurba_marseille","lat":43.336134,"lon":5.410341,"is_reserved":false,"is_disabled":false,"rental_uris":{"android":"levelo://app?vid=449eeb59-bd7e-4175-860b-36c5840ef090","ios":"levelo://app?vid=449eeb59-bd7e-4175-860b-36c5840ef090"},"vehicle_type_id":"4","last_reported":1685846399,"current_range_meters":31600,"station_id":"ce4bhqh2rcd13ifvqhmg","pricing_plan_id":"free"},{"bike_id":"88954bb0-f1e6-4d3c-8b50-bd4bb75f1550","system_id":"levelo_inurba_marseille","lat":43.336134,"lon":5.410341,"is_reserved":false,"is_disabled":false,"rental_uris":{"android":"levelo://app?vid=88954bb0-f1e6-4d3c-8b50-bd4bb75f1550","ios":"levelo://app?vid=88954bb0-f1e6-4d3c-8b50-bd4bb75f1550"},"vehicle_type_id":"4","last_reported":1685846399,"current_range_meters":21600,"station_id":"ce4bhqh2rcd13ifvqhmg","pricing_plan_id":"free"},{"bike_id":"993b8824-d263-40a5-b80e-1c5c5f2a118a","system_id":"levelo_inurba_marseille","lat":43.336134,"lon":5.410341,"is_reserved":false,"is_disabled":false,"rental_uris":{"android":"levelo://app?vid=993b8824-d263-40a5-b80e-1c5c5f2a118a","ios":"levelo://app?vid=993b8824-d263-40a5-b80e-1c5c5f2a118a"},"vehicle_type_id":"4","last_reported":1685846399,"current_range_meters":12400,"station_id":"ce4bhqh2rcd13ifvqhmg","pricing_plan_id":"free"},{"bike_id":"e1d3d640-d733-4874-817f-e9df379d0109","system_id":"levelo_inurba_marseille","lat":43.27562,"lon":5.38425,"is_reserved":false,"is_disabled":false,"rental_uris":{"android":"levelo://app?vid=e1d3d640-d733-4874-817f-e9df379d0109","ios":"levelo://app?vid=e1d3d640-d733-4874-817f-e9df379d0109"},"vehicle_type_id":"4","last_reported":1685846399,"current_range_meters":30800,"station_id":"","pricing_plan_id":"free"},{"bike_id":"3b14e52f-7df5-46e4-b2ce-369ea39314a9","system_id":"levelo_inurba_marseille","lat":43.336134,"lon":5.410341,"is_reserved":false,"is_disabled":false,"rental_uris":{"android":"levelo://app?vid=3b14e52f-7df5-46e4-b2ce-369ea39314a9","ios":"levelo://app?vid=3b14e52f-7df5-46e4-b2ce-369ea39314a9"},"vehicle_type_id":"4","last_reported":1685846399,"current_range_meters":8800,"station_id":"ce4bhqh2rcd13ifvqhmg","pricing_plan_id":"free"},{"bike_id":"c7ab7fee-1071-448e-84a2-89013f46e67c","system_id":"levelo_inurba_marseille","lat":43.27554,"lon":5.38417,"is_reserved":false,"is_disabled":false,"rental_uris":{"android":"levelo://app?vid=c7ab7fee-1071-448e-84a2-89013f46e67c","ios":"levelo://app?vid=c7ab7fee-1071-448e-84a2-89013f46e67c"},"vehicle_type_id":"4","last_reported":1685846399,"current_range_meters":0,"station_id":"","pricing_plan_id":"free"},{"bike_id":"3fa611d4-95f8-4469-8854-ac464baf2f34","system_id":"levelo_inurba_marseille","lat":43.276769,"lon":5.388787,"is_reserved":false,"is_disabled":false,"rental_uris":{"android":"levelo://app?vid=3fa611d4-95f8-4469-8854-ac464baf2f34","ios":"levelo://app?vid=3fa611d4-95f8-4469-8854-ac464baf2f34"},"vehicle_type_id":"4","last_reported":1685846399,"current_range_meters":4000,"station_id":"ce4bhi12rcd13ifvqfo0","pricing_plan_id":"free"},{"bike_id":"9908a2eb-cceb-4359-b2f6-31b6ef3dee84","system_id":"levelo_inurba_marseille","lat":43.275243,"lon":5.384237,"is_reserved":false,"is_disabled":false,"rental_uris":{"android":"levelo://app?vid=9908a2eb-cceb-4359-b2f6-31b6ef3dee84","ios":"levelo://app?vid=9908a2eb-cceb-4359-b2f6-31b6ef3dee84"},"vehicle_type_id":"4","last_reported":1685846399,"current_range_meters":24000,"station_id":"ce4bhe12rcd13ifvqf30","pricing_plan_id":"free"},{"bike_id":"72d6e606-7619-40a7-b7b3-8f993fd696e6","system_id":"levelo_inurba_marseille","lat":43.27651,"lon":5.3892,"is_reserved":false,"is_disabled":false,"rental_uris":{"android":"levelo://app?vid=72d6e606-7619-40a7-b7b3-8f993fd696e6","ios":"levelo://app?vid=72d6e606-7619-40a7-b7b3-8f993fd696e6"},"vehicle_type_id":"4","last_reported":1685846399,"current_range_meters":0,"station_id":"ce4bhi12rcd13ifvqfo0","pricing_plan_id":"free"},{"bike_id":"75f0d486-53fc-42cb-b503-b7d057083f35","system_id":"levelo_inurba_marseille","lat":43.29812,"lon":5.42092,"is_reserved":false,"is_disabled":false,"rental_uris":{"android":"levelo://app?vid=75f0d486-53fc-42cb-b503-b7d057083f35","ios":"levelo://app?vid=75f0d486-53fc-42cb-b503-b7d057083f35"},"vehicle_type_id":"4","last_reported":1685846399,"current_range_meters":0,"station_id":"","pricing_plan_id":"free"},{"bike_id":"9db9545d-f63d-42be-a674-9c25625f916b","system_id":"levelo_inurba_marseille","lat":43.29387,"lon":5.41914,"is_reserved":false,"is_disabled":false,"rental_uris":{"android":"levelo://app?vid=9db9545d-f63d-42be-a674-9c25625f916b","ios":"levelo://app?vid=9db9545d-f63d-42be-a674-9c25625f916b"},"vehicle_type_id":"4","last_reported":1685846399,"current_range_meters":10000,"station_id":"","pricing_plan_id":"free"},{"bike_id":"4d80717c-1ab1-4ff1-8e16-4b8981f90281","system_id":"levelo_inurba_marseille","lat":43.32835,"lon":5.42141,"is_reserved":false,"is_disabled":false,"rental_uris":{"android":"levelo://app?vid=4d80717c-1ab1-4ff1-8e16-4b8981f90281","ios":"levelo://app?vid=4d80717c-1ab1-4ff1-8e16-4b8981f90281"},"vehicle_type_id":"4","last_reported":1685846399,"current_range_meters":28000,"station_id":"","pricing_plan_id":"free"},{"bike_id":"a84231d7-b115-48f9-83c2-de4be815397a","system_id":"levelo_inurba_marseille","lat":43.2743,"lon":5.39418,"is_reserved":false,"is_disabled":false,"rental_uris":{"android":"levelo://app?vid=a84231d7-b115-48f9-83c2-de4be815397a","ios":"levelo://app?vid=a84231d7-b115-48f9-83c2-de4be815397a"},"vehicle_type_id":"4","last_reported":1685846399,"current_range_meters":0,"station_id":"","pricing_plan_id":"free"},{"bike_id":"29b800ee-8a42-4138-bb32-f0ff066e749c","system_id":"levelo_inurba_marseille","lat":43.304096,"lon":5.425385,"is_reserved":false,"is_disabled":false,"rental_uris":{"android":"levelo://app?vid=29b800ee-8a42-4138-bb32-f0ff066e749c","ios":"levelo://app?vid=29b800ee-8a42-4138-bb32-f0ff066e749c"},"vehicle_type_id":"4","last_reported":1685846399,"current_range_meters":26400,"station_id":"ce4bhoh2rcd13ifvqh6g","pricing_plan_id":"free"},{"bike_id":"68ad8803-9419-430b-a6f5-e27fe31a638b","system_id":"levelo_inurba_marseille","lat":43.304096,"lon":5.425385,"is_reserved":false,"is_disabled":false,"rental_uris":{"android":"levelo://app?vid=68ad8803-9419-430b-a6f5-e27fe31a638b","ios":"levelo://app?vid=68ad8803-9419-430b-a6f5-e27fe31a638b"},"vehicle_type_id":"4","last_reported":1685846399,"current_range_meters":10000,"station_id":"ce4bhoh2rcd13ifvqh6g","pricing_plan_id":"free"},{"bike_id":"fcdd316d-6015-4872-9ac8-f6bb4c137424","system_id":"levelo_inurba_marseille","lat":43.304096,"lon":5.425385,"is_reserved":false,"is_disabled":false,"rental_uris":{"android":"levelo://app?vid=fcdd316d-6015-4872-9ac8-f6bb4c137424","ios":"levelo://app?vid=fcdd316d-6015-4872-9ac8-f6bb4c137424"},"vehicle_type_id":"4","last_reported":1685846399,"current_range_meters":28000,"station_id":"ce4bhoh2rcd13ifvqh6g","pricing_plan_id":"free"},{"bike_id":"4cec600c-9ec5-4de7-b9e3-85463f9d0871","system_id":"levelo_inurba_marseille","lat":43.304096,"lon":5.425385,"is_reserved":false,"is_disabled":false,"rental_uris":{"android":"levelo://app?vid=4cec600c-9ec5-4de7-b9e3-85463f9d0871","ios":"levelo://app?vid=4cec600c-9ec5-4de7-b9e3-85463f9d0871"},"vehicle_type_id":"4","last_reported":1685846399,"current_range_meters":25600,"station_id":"ce4bhoh2rcd13ifvqh6g","pricing_plan_id":"free"},{"bike_id":"0d4b7817-28f4-49af-b88e-725d817ac5fc","system_id":"levelo_inurba_marseille","lat":43.272116,"lon":5.391763,"is_reserved":false,"is_disabled":false,"rental_uris":{"android":"levelo://app?vid=0d4b7817-28f4-49af-b88e-725d817ac5fc","ios":"levelo://app?vid=0d4b7817-28f4-49af-b88e-725d817ac5fc"},"vehicle_type_id":"4","last_reported":1685846399,"current_range_meters":30000,"station_id":"ce4bhhp2rcd13ifvqfm0","pricing_plan_id":"free"},{"bike_id":"28a18cb0-ab9b-4ee9-a56a-75d4d69631cd","system_id":"levelo_inurba_marseille","lat":43.278128,"lon":5.407195,"is_reserved":false,"is_disabled":false,"rental_uris":{"android":"levelo://app?vid=28a18cb0-ab9b-4ee9-a56a-75d4d69631cd","ios":"levelo://app?vid=28a18cb0-ab9b-4ee9-a56a-75d4d69631cd"},"vehicle_type_id":"4","last_reported":1685846399,"current_range_meters":26400,"station_id":"ce4bhnh2rcd13ifvqgtg","pricing_plan_id":"free"},{"bike_id":"42771c4a-ad62-4630-8bf4-dce689a16d1c","system_id":"levelo_inurba_marseille","lat":43.269319,"lon":5.389397,"is_reserved":false,"is_disabled":false,"rental_uris":{"android":"levelo://app?vid=42771c4a-ad62-4630-8bf4-dce689a16d1c","ios":"levelo://app?vid=42771c4a-ad62-4630-8bf4-dce689a16d1c"},"vehicle_type_id":"4","last_reported":1685846399,"current_range_meters":24000,"station_id":"ce4bhhh2rcd13ifvqfl0","pricing_plan_id":"free"},{"bike_id":"d34d1afe-78c5-4ca7-9ab2-4c94e39b15df","system_id":"levelo_inurba_marseille","lat":43.269319,"lon":5.389397,"is_reserved":false,"is_disabled":false,"rental_uris":{"android":"levelo://app?vid=d34d1afe-78c5-4ca7-9ab2-4c94e39b15df","ios":"levelo://app?vid=d34d1afe-78c5-4ca7-9ab2-4c94e39b15df"},"vehicle_type_id":"4","last_reported":1685846399,"current_range_meters":12000,"station_id":"ce4bhhh2rcd13ifvqfl0","pricing_plan_id":"free"},{"bike_id":"538129da-7eee-4fee-b737-a0d01a9f0540","system_id":"levelo_inurba_marseille","lat":43.26681,"lon":5.382694,"is_reserved":false,"is_disabled":false,"rental_uris":{"android":"levelo://app?vid=538129da-7eee-4fee-b737-a0d01a9f0540","ios":"levelo://app?vid=538129da-7eee-4fee-b737-a0d01a9f0540"},"vehicle_type_id":"4","last_reported":1685846399,"current_range_meters":21200,"station_id":"ce4bhg92rcd13ifvqf90","pricing_plan_id":"free"},{"bike_id":"477c9b24-a1bd-4af2-9e3a-7a10b9af13d1","system_id":"levelo_inurba_marseille","lat":43.31706,"lon":5.43318,"is_reserved":false,"is_disabled":false,"rental_uris":{"android":"levelo://app?vid=477c9b24-a1bd-4af2-9e3a-7a10b9af13d1","ios":"levelo://app?vid=477c9b24-a1bd-4af2-9e3a-7a10b9af13d1"},"vehicle_type_id":"4","last_reported":1685846399,"current_range_meters":0,"station_id":"","pricing_plan_id":"free"},