{"last_updated":1737065277,"ttl":60,"version":"2.2","data":{"bikes":[{"bike_id":"97285aa9-5761-409a-831f-0e86e3084153","system_id":"levelo_inurba_marseille","lat":43.31317,"lon":5.39723,"is_reserved":false,"is_disabled":false,"rental_uris":{"android":"levelo://app?vid=97285aa9-5761-409a-831f-0e86e3084153","ios":"levelo://app?vid=97285aa9-5761-409a-831f-0e86e3084153"},"vehicle_type_id":"4","last_reported":1737065277,"current_range_meters":38800,"station_id":"ce4bgvp2rcd13ifvqcu0","pricing_plan_id":"cebpf4jnsgd1na2vs0mg"},{"bike_id":"fbba789f-860c-4d62-8452-c64ff2ef0dd3","system_id":"levelo_inurba_marseille","lat":43.25145,"lon":5.40331,"is_reserved":false,"is_disabled":false,"rental_uris":{"android":"levelo://app?vid=fbba789f-860c-4d62-8452-c64ff2ef0dd3","ios":"levelo://app?vid=fbba789f-860c-4d62-8452-c64ff2ef0dd3"},"vehicle_type_id":"4","last_reported":1737065277,"current_range_meters":25200,"station_id":"ce4bhlh2rcd13ifvqgig","pricing_plan_id":"cebpf4jnsgd1na2vs0mg"},{"bike_id":"e40b7c60-2fc0-44af-954b-2ed7110cf526","system_id":"levelo_inurba_marseille","lat":43.285666,"lon":5.39492,"is_reserved":false,"is_disabled":false,"rental_uris":{"android":"levelo://app?vid=e40b7c60-2fc0-44af-954b-2ed7110cf526","ios":"levelo://app?vid=e40b7c60-2fc0-44af-954b-2ed7110cf526"},"vehicle_type_id":"4","last_reported":1737065277,"current_range_meters":20400,"station_id":"ce4bh292rcd13ifvqdg0","pricing_plan_id":"cebpf4jnsgd1na2vs0mg"},{"bike_id":"d1625a4a-8a24-47e6-97c9-23684f501ba7","system_id":"levelo_inurba_marseille","lat":43.2588,"lon":5.39899,"is_reserved":false,"is_disabled":false,"rental_uris":{"android":"levelo://app?vid=d1625a4a-8a24-47e6-97c9-23684f501ba7","ios":"levelo://app?vid=d1625a4a-8a24-47e6-97c9-23684f501ba7"},"vehicle_type_id":"4","last_reported":1737065277,"current_range_meters":20800,"station_id":"ce4bhl92rcd13ifvqghg","pricing_plan_id":"cebpf4jnsgd1na2vs0mg"},{"bike_id":"a39c946b-f215-435b-b58f-d6dc4c7b0aaf","system_id":"levelo_inurba_marseille","lat":43.28161,"lon":5.42662,"is_reserved":false,"is_disabled":true,"rental_uris":{"android":"levelo://app?vid=a39c946b-f215-435b-b58f-d6dc4c7b0aaf","ios":"levelo://app?vid=a39c946b-f215-435b-b58f-d6dc4c7b0aaf"},"vehicle_type_id":"4","last_reported":1737065277,"current_range_meters":36800,"station_id":"ce4bhnh2rcd13ifvqgug","pricing_plan_id":"cebpf4jnsgd1na2vs0mg"},{"bike_id":"f920b982-cf2b-4f22-a8e5-d4ce681958df","system_id":"levelo_inurba_marseille","lat":43.29786,"lon":5.40396,"is_reserved":false,"is_disabled":false,"rental_uris":{"android":"levelo://app?vid=f920b982-cf2b-4f22-a8e5-d4ce681958df","ios":"levelo://app?vid=f920b982-cf2b-4f22-a8e5-d4ce681958df"},"vehicle_type_id":"4","last_reported":1737065277,"current_range_meters":39200,"station_id":"ce4bh112rcd13ifvqd90","pricing_plan_id":"cebpf4jnsgd1na2vs0mg"},{"bike_id":"b355638a-d9dc-41e1-950f-80e4bf648aca","system_id":"levelo_inurba_marseille","lat":43.3126,"lon":5.40168,"is_reserved":false,"is_disabled":false,"rental_uris":{"android":"levelo://app?vid=b355638a-d9dc-41e1-950f-80e4bf648aca","ios":"levelo://app?vid=b355638a-d9dc-41e1-950f-80e4bf648aca"},"vehicle_type_id":"4","last_reported":1737065277,"current_range_meters":39200,"station_id":"ce4bh092rcd13ifvqd30","pricing_plan_id":"cebpf4jnsgd1na2vs0mg"},{"bike_id":"ce241059-3c7c-456b-a9a5-a235e66427e4","system_id":"levelo_inurba_marseille","lat":43.28841,"lon":5.39314,"is_reserved":false,"is_disabled":false,"rental_uris":{"android":"levelo://app?vid=ce241059-3c7c-456b-a9a5-a235e66427e4","ios":"levelo://app?vid=ce241059-3c7c-456b-a9a5-a235e66427e4"},"vehicle_type_id":"4","last_reported":1737065277,"current_range_meters":36400,"station_id":"ce4bh2p2rcd13ifvqdi0","pricing_plan_id":"cebpf4jnsgd1na2vs0mg"},{"bike_id":"8505e10a-29a8-44b8-b526-fecdb1b5d9ce","system_id":"levelo_inurba_marseille","lat":43.31494,"lon":5.37303,"is_reserved":false,"is_disabled":false,"rental_uris":{"android":"levelo://app?vid=8505e10a-29a8-44b8-b526-fecdb1b5d9ce","ios":"levelo://app?vid=8505e10a-29a8-44b8-b526-fecdb1b5d9ce"},"vehicle_type_id":"4","last_reported":1737065277,"current_range_meters":25200,"station_id":"ce4bgt12rcd13ifvqcd0","pricing_plan_id":"cebpf4jnsgd1na2vs0mg"},{"bike_id":"25b01166-8b4c-49d6-8386-8f83eb8111f5","system_id":"levelo_inurba_marseille","lat":43.25805,"lon":5.39465,"is_reserved":false,"is_disabled":false,"rental_uris":{"android":"levelo://app?vid=25b01166-8b4c-49d6-8386-8f83eb8111f5","ios":"levelo://app?vid=25b01166-8b4c-49d6-8386-8f83eb8111f5"},"vehicle_type_id":"4","last_reported":1737065277,"current_range_meters":38800,"station_id":"ce4bhip2rcd13ifvqft0","pricing_plan_id":"cebpf4jnsgd1na2vs0mg"},{"bike_id":"afa9a233-a1a9-47bf-97ab-a0aa5414ed67","system_id":"levelo_inurba_marseille","lat":43.28941,"lon":5.36633,"is_reserved":false,"is_disabled":false,"rental_uris":{"android":"levelo://app?vid=afa9a233-a1a9-47bf-97ab-a0aa5414ed67","ios":"levelo://app?vid=afa9a233-a1a9-47bf-97ab-a0aa5414ed67"},"vehicle_type_id":"4","last_reported":1737065277,"current_range_meters":33200,"station_id":"ce4bhap2rcd13ifvqek0","pricing_plan_id":"cebpf4jnsgd1na2vs0mg"},{"bike_id":"302ab681-9b5d-4689-8679-3cf53f5e36dc","system_id":"levelo_inurba_marseille","lat":43.28724,"lon":5.36112,"is_reserved":false,"is_disabled":false,"rental_uris":{"android":"levelo://app?vid=302ab681-9b5d-4689-8679-3cf53f5e36dc","ios":"levelo://app?vid=302ab681-9b5d-4689-8679-3cf53f5e36dc"},"vehicle_type_id":"4","last_reported":1737065277,"current_range_meters":33200,"station_id":"cki0cbj6b192h4jlfktg","pricing_plan_id":"cebpf4jnsgd1na2vs0mg"},{"bike_id":"4c981b7a-6a20-4f99-8f7f-b78dfe740cbc","system_id":"levelo_inurba_marseille","lat":43.27935,"lon":5.39611,"is_reserved":false,"is_disabled":false,"rental_uris":{"android":"levelo://app?vid=4c981b7a-6a20-4f99-8f7f-b78dfe740cbc","ios":"levelo://app?vid=4c981b7a-6a20-4f99-8f7f-b78dfe740cbc"},"vehicle_type_id":"4","last_reported":1737065277,"current_range_meters":38800,"station_id":"ce4bhf92rcd13ifvqf40","pricing_plan_id":"cebpf4jnsgd1na2vs0mg"},{"bike_id":"044de657-125b-44b9-a9ca-b96ab86f3594","system_id":"levelo_inurba_marseille","lat":43.27569,"lon":5.3839,"is_reserved":false,"is_disabled":false,"rental_uris":{"android":"levelo://app?vid=044de657-125b-44b9-a9ca-b96ab86f3594","ios":"levelo://app?vid=044de657-125b-44b9-a9ca-b96ab86f3594"},"vehicle_type_id":"4","last_reported":1737065277,"current_range_meters":36800,"station_id":"ce4bhh92rcd13ifvqfi0","pricing_plan_id":"cebpf4jnsgd1na2vs0mg"},{"bike_id":"c46fdbbf-0c6e-4103-9a90-9cfa4fc71f4a","system_id":"levelo_inurba_marseille","lat":43.29506,"lon":5.39417,"is_reserved":false,"is_disabled":false,"rental_uris":{"android":"levelo://app?vid=c46fdbbf-0c6e-4103-9a90-9cfa4fc71f4a","ios":"levelo://app?vid=c46fdbbf-0c6e-4103-9a90-9cfa4fc71f4a"},"vehicle_type_id":"4","last_reported":1737065277,"current_range_meters":24800,"station_id":"ce4bh292rcd13ifvqdf0","pricing_plan_id":"cebpf4jnsgd1na2vs0mg"},{"bike_id":"37eef42d-706e-47f5-94c0-ed430293a5ec","system_id":"levelo_inurba_marseille","lat":43.30911,"lon":5.36841,"is_reserved":false,"is_disabled":false,"rental_uris":{"android":"levelo://app?vid=37eef42d-706e-47f5-94c0-ed430293a5ec","ios":"levelo://app?vid=37eef42d-706e-47f5-94c0-ed430293a5ec"},"vehicle_type_id":"4","last_reported":1737065277,"current_range_meters":38800,"station_id":"ce4bgn92rcd13ifvqbvg","pricing_plan_id":"cebpf4jnsgd1na2vs0mg"},{"bike_id":"2bf65692-cbc9-4581-916b-1c0b607a4dbb","system_id":"levelo_inurba_marseille","lat":43.28425,"lon":5.39171,"is_reserved":false,"is_disabled":false,"rental_uris":{"android":"levelo://app?vid=2bf65692-cbc9-4581-916b-1c0b607a4dbb","ios":"levelo://app?vid=2bf65692-cbc9-4581-916b-1c0b607a4dbb"},"vehicle_type_id":"4","last_reported":1737065277,"current_range_meters":28000,"station_id":"ce4bhoh2rcd13ifvqh5g","pricing_plan_id":"cebpf4jnsgd1na2vs0mg"},{"bike_id":"8800286a-027a-4841-87ae-71bd90fd9e19","system_id":"levelo_inurba_marseille","lat":43.28667,"lon":5.363494,"is_reserved":false,"is_disabled":false,"rental_uris":{"android":"levelo://app?vid=8800286a-027a-4841-87ae-71bd90fd9e19","ios":"levelo://app?vid=8800286a-027a-4841-87ae-71bd90fd9e19"},"vehicle_type_id":"4","last_reported":1737065277,"current_range_meters":39200,"station_id":"ce4bhah2rcd13ifvqej0","pricing_plan_id":"cebpf4jnsgd1na2vs0mg"},{"bike_id":"772a3851-d924-485d-a431-ba064f24a126","system_id":"levelo_inurba_marseille","lat":43.29525,"lon":5.39038,"is_reserved":false,"is_disabled":false,"rental_uris":{"android":"levelo://app?vid=772a3851-d924-485d-a431-ba064f24a126","ios":"levelo://app?vid=772a3851-d924-485d-a431-ba064f24a126"},"vehicle_type_id":"4","last_reported":1737065277,"current_range_meters":27600,"station_id":"ce4bh3p2rcd13ifvqdp0","pricing_plan_id":"cebpf4jnsgd1na2vs0mg"},{"bike_id":"98431729-94fb-4241-805d-8415886c3e70","system_id":"levelo_inurba_marseille","lat":43.28274,"lon":5.35066,"is_reserved":false,"is_disabled":false,"rental_uris":{"android":"levelo://app?vid=98431729-94fb-4241-805d-8415886c3e70","ios":"levelo://app?vid=98431729-94fb-4241-805d-8415886c3e70"},"vehicle_type_id":"4","last_reported":1737065277,"current_range_meters":24800,"station_id":"ce4bhbp2rcd13ifvqerg","pricing_plan_id":"cebpf4jnsgd1na2vs0mg"},{"bike_id":"42554d49-7970-45e1-b8b6-fa216bab7b05","system_id":"levelo_inurba_marseille","lat":43.2941,"lon":5.38634,"is_reserved":false,"is_disabled":false,"rental_uris":{"android":"levelo://app?vid=42554d49-7970-45e1-b8b6-fa216bab7b05","ios":"levelo://app?vid=42554d49-7970-45e1-b8b6-fa216bab7b05"},"vehicle_type_id":"4","last_reported":1737065277,"current_range_meters":38800,"station_id":"ce4bh2h2rcd13ifvqdh0","pricing_plan_id":"cebpf4jnsgd1na2vs0mg"},{"bike_id":"a920ddac-3c1b-47f2-a8b1-da6f51ba3922","system_id":"levelo_inurba_marseille","lat":43.28627,"lon":5.35092,"is_reserved":false,"is_disabled":false,"rental_uris":{"android":"levelo://app?vid=a920ddac-3c1b-47f2-a8b1-da6f51ba3922","ios":"levelo://app?vid=a920ddac-3c1b-47f2-a8b1-da6f51ba3922"},"vehicle_type_id":"4","last_reported":1737065277,"current_range_meters":6800,"station_id":"ce4bhch2rcd13ifvqeug","pricing_plan_id":"cebpf4jnsgd1na2vs0mg"},{"bike_id":"85697b48-7ca0-4d57-bbd7-b28f626dd05b","system_id":"levelo_inurba_marseille","lat":43.28563,"lon":5.3601,"is_reserved":false,"is_disabled":false,"rental_uris":{"android":"levelo://app?vid=85697b48-7ca0-4d57-bbd7-b28f626dd05b","ios":"levelo://app?vid=85697b48-7ca0-4d57-bbd7-b28f626dd05b"},"vehicle_type_id":"4","last_reported":1737065277,"current_range_meters":4000,"station_id":"","pricing_plan_id":"cebpf4jnsgd1na2vs0mg"},{"bike_id":"aa1c2cd9-ddaa-4aee-8c47-810e68694606","system_id":"levelo_inurba_marseille","lat":43.31701,"lon":5.37783,"is_reserved":false,"is_disabled":false,"rental_uris":{"android":"levelo://app?vid=aa1c2cd9-ddaa-4aee-8c47-810e68694606","ios":"levelo://app?vid=aa1c2cd9-ddaa-4aee-8c47-810e68694606"},"vehicle_type_id":"4","last_reported":1737065277,"current_range_meters":24000,"station_id":"ce4bgth2rcd13ifvqch0","pricing_plan_id":"cebpf4jnsgd1na2vs0mg"},{"bike_id":"b0d616df-438f-4390-8d78-180d41030b27","system_id":"levelo_inurba_marseille","lat":43.26786,"lon":5.39415,"is_reserved":false,"is_disabled":false,"rental_uris":{"android":"levelo://app?vid=b0d616df-438f-4390-8d78-180d41030b27","ios":"levelo://app?vid=b0d616df-438f-4390-8d78-180d41030b27"},"vehicle_type_id":"4","last_reported":1737065277,"current_range_meters":38000,"station_id":"ce4bhh12rcd13ifvqfg0","pricing_plan_id":"cebpf4jnsgd1na2vs0mg"},{"bike_id":"c4fc9679-1008-473b-9e9b-26f1ed62312e","system_id":"levelo_inurba_marseille","lat":43.22921,"lon":5.35393,"is_reserved":false,"is_disabled":false,"rental_uris":{"android":"levelo://app?vid=c4fc9679-1008-473b-9e9b-26f1ed62312e","ios":"levelo://app?vid=c4fc9679-1008-473b-9e9b-26f1ed62312e"},"vehicle_type_id":"4","last_reported":1737065277,"current_range_meters":21600,"station_id":"cpo3532slgdg3j2ikp40","pricing_plan_id":"cebpf4jnsgd1na2vs0mg"},{"bike_id":"21e56c0b-70fb-4f91-b013-839c200c270f","system_id":"levelo_inurba_marseille","lat":43.29509,"lon":5.39401,"is_reserved":false,"is_disabled":false,"rental_uris":{"android":"levelo://app?vid=21e56c0b-70fb-4f91-b013-839c200c270f","ios":"levelo://app?vid=21e56c0b-70fb-4f91-b013-839c200c270f"},"vehicle_type_id":"4","last_reported":1737065277,"current_range_meters":24800,"station_id":"ce4bh292rcd13ifvqdf0","pricing_plan_id":"cebpf4jnsgd1na2vs0mg"},{"bike_id":"220ab61f-f38e-47e4-81a4-94aca747a8b9","system_id":"levelo_inurba_marseille","lat":43.24075,"lon":5.37627,"is_reserved":false,"is_disabled":false,"rental_uris":{"android":"levelo://app?vid=220ab61f-f38e-47e4-81a4-94aca747a8b9","ios":"levelo://app?vid=220ab61f-f38e-47e4-81a4-94aca747a8b9"},"vehicle_type_id":"4","last_reported":1737065277,"current_range_meters":37600,"station_id":"ce4bhnp2rcd13ifvqgvg","pricing_plan_id":"cebpf4jnsgd1na2vs0mg"},{"bike_id":"0e842b39-329d-48e2-b781-7e3babc96cf4","system_id":"levelo_inurba_marseille","lat":43.229399,"lon":5.353798,"is_reserved":false,"is_disabled":false,"rental_uris":{"android":"levelo://app?vid=0e842b39-329d-48e2-b781-7e3babc96cf4","ios":"levelo://app?vid=0e842b39-329d-48e2-b781-7e3babc96cf4"},"vehicle_type_id":"4","last_reported":1737065277,"current_range_meters":12400,"station_id":"cpo3532slgdg3j2ikp40","pricing_plan_id":"cebpf4jnsgd1na2vs0mg"},{"bike_id":"b2b43ba9-f831-4834-bb86-d1e019a01bab","system_id":"levelo_inurba_marseille","lat":43.30313,"lon":5.36895,"is_reserved":false,"is_disabled":false,"rental_uris":{"android":"levelo://app?vid=b2b43ba9-f831-4834-bb86-d1e019a01bab","ios":"levelo://app?vid=b2b43ba9-f831-4834-bb86-d1e019a01bab"},"vehicle_type_id":"4","last_reported":1737065277,"current_range_meters":38800,"station_id":"ce4bgqh2rcd13ifvqc5g","pricing_plan_id":"cebpf4jnsgd1na2vs0mg"},{"bike_id":"99edffd1-a5ba-4759-befa-f12a00faec89","system_id":"levelo_inurba_marseille","lat":43.28575,"lon":5.39491,"is_reserved":false,"is_disabled":true,"rental_uris":{"android":"levelo://app?vid=99edffd1-a5ba-4759-befa-f12a00faec89","ios":"levelo://app?vid=99edffd1-a5ba-4759-befa-f12a00faec89"},"vehicle_type_id":"4","last_reported":1737065277,"current_range_meters":12400,"station_id":"ce4bh292rcd13ifvqdg0","pricing_plan_id":"cebpf4jnsgd1na2vs0mg"},{"bike_id":"0ac8c9de-930b-4f5b-af4a-b48038f658a1","system_id":"levelo_inurba_marseille","lat":43.28034,"lon":5.36936,"is_reserved":false,"is_disabled":false,"rental_uris":{"android":"levelo://app?vid=0ac8c9de-930b-4f5b-af4a-b48038f658a1","ios":"levelo://app?vid=0ac8c9de-930b-4f5b-af4a-b48038f658a1"},"vehicle_type_id":"4","last_reported":1737065277,"current_range_meters":17600,"station_id":"ce4bha12rcd13ifvqef0","pricing_plan_id":"cebpf4jnsgd1na2vs0mg"},{"bike_id":"240793b7-2334-47eb-b07b-36073cab0422","system_id":"levelo_inurba_marseille","lat":43.23186,"lon":5.39974,"is_reserved":false,"is_disabled":false,"rental_uris":{"android":"levelo://app?vid=240793b7-2334-47eb-b07b-36073cab0422","ios":"levelo://app?vid=240793b7-2334-47eb-b07b-36073cab0422"},"vehicle_type_id":"4","last_reported":1737065277,"current_range_meters":39200,"station_id":"ce4bhn12rcd13ifvqgqg","pricing_plan_id":"cebpf4jnsgd1na2vs0mg"},{"bike_id":"4c95b24d-5e81-4bcc-9c3f-8e13fb6505af","system_id":"levelo_inurba_marseille","lat":43.27316,"lon":5.39926,"is_reserved":false,"is_disabled":false,"rental_uris":{"android":"levelo://app?vid=4c95b24d-5e81-4bcc-9c3f-8e13fb6505af","ios":"levelo://app?vid=4c95b24d-5e81-4bcc-9c3f-8e13fb6505af"},"vehicle_type_id":"4","last_reported":1737065277,"current_range_meters":37600,"station_id":"","pricing_plan_id":"cebpf4jnsgd1na2vs0mg"},{"bike_id":"555fd2c6-35d6-4cab-814b-3f26ef4c69e2","system_id":"levelo_inurba_marseille","lat":43.29243,"lon":5.38437,"is_reserved":false,"is_disabled":false,"rental_uris":{"android":"levelo://app?vid=555fd2c6-35d6-4cab-814b-3f26ef4c69e2","ios":"levelo://app?vid=555fd2c6-35d6-4cab-814b-3f26ef4c69e2"},"vehicle_type_id":"4","last_reported":1737065277,"current_range_meters":38800,"station_id":"ce4bh692rcd13ifvqea0","pricing_plan_id":"cebpf4jnsgd1na2vs0mg"},{"bike_id":"a262b8c3-1be1-4041-a54a-9049b3ba3668","system_id":"levelo_inurba_marseille","lat":43.28728,"lon":5.36083,"is_reserved":false,"is_disabled":false,"rental_uris":{"android":"levelo://app?vid=a262b8c3-1be1-4041-a54a-9049b3ba3668","ios":"levelo://app?vid=a262b8c3-1be1-4041-a54a-9049b3ba3668"},"vehicle_type_id":"4","last_reported":1737065277,"current_range_meters":38800,"station_id":"cki0cbj6b192h4jlfktg","pricing_plan_id":"cebpf4jnsgd1na2vs0mg"},{"bike_id":"8240d19d-0738-4c35-b97a-8d2f95fb533d","system_id":"levelo_inurba_marseille","lat":43.27626,"lon":5.36112,"is_reserved":false,"is_disabled":false,"rental_uris":{"android":"levelo://app?vid=8240d19d-0738-4c35-b97a-8d2f95fb533d","ios":"levelo://app?vid=8240d19d-0738-4c35-b97a-8d2f95fb533d"},"vehicle_type_id":"4","last_reported":1737065277,"current_range_meters":17600,"station_id":"ce4bgj92rcd13ifvqbe0","pricing_plan_id":"cebpf4jnsgd1na2vs0mg"},{"bike_id":"71f83f18-c7e9-4e3c-9894-dc3c29078a76","system_id":"levelo_inurba_marseille","lat":43.30136,"lon":5.39876,"is_reserved":false,"is_disabled":false,"rental_uris":{"android":"levelo://app?vid=71f83f18-c7e9-4e3c-9894-dc3c29078a76","ios":"levelo://app?vid=71f83f18-c7e9-4e3c-9894-dc3c29078a76"},"vehicle_type_id":"4","last_reported":1737065277,"current_range_meters":38800,"station_id":"ce4bh0h2rcd13ifvqd40","pricing_plan_id":"cebpf4jnsgd1na2vs0mg"},{"bike_id":"70199fc2-df6a-4ec4-910c-a63d7bb31e5e","system_id":"levelo_inurba_marseille","lat":43.2916,"lon":5.35803,"is_reserved":false,"is_disabled":false,"rental_uris":{"android":"levelo://app?vid=70199fc2-df6a-4ec4-910c-a63d7bb31e5e","ios":"levelo://app?vid=70199fc2-df6a-4ec4-910c-a63d7bb31e5e"},"vehicle_type_id":"4","last_reported":1737065277,"current_range_meters":38800,"station_id":"ce4bhb12rcd13ifvqel0","pricing_plan_id":"cebpf4jnsgd1na2vs0mg"},{"bike_id":"7edfd060-522f-4e8d-bd3c-29a71f6f685e","system_id":"levelo_inurba_marseille","lat":43.275624,"lon":5.384193,"is_reserved":false,"is_disabled":false,"rental_uris":{"android":"levelo://app?vid=7edfd060-522f-4e8d-bd3c-29a71f6f685e","ios":"levelo://app?vid=7edfd060-522f-4e8d-bd3c-29a71f6f685e"},"vehicle_type_id":"4","last_reported":1737065277,"current_range_meters":38800,"station_id":"ce4bhh92rcd13ifvqfi0","pricing_plan_id":"cebpf4jnsgd1na2vs0mg"},{"bike_id":"66ec8711-3dbc-48f7-b091-25773ac6b77c","system_id":"levelo_inurba_marseille","lat":43.28125,"lon":5.44219,"is_reserved":false,"is_disabled":true,"rental_uris":{"android":"levelo://app?vid=66ec8711-3dbc-48f7-b091-25773ac6b77c","ios":"levelo://app?vid=66ec8711-3dbc-48f7-b091-25773ac6b77c"},"vehicle_type_id":"4","last_reported":1737065277,"current_range_meters":0,"station_id":"","pricing_plan_id":"cebpf4jnsgd1na2vs0mg"},{"bike_id":"ab7ec029-5b96-4032-b6e7-f917f6f5563c","system_id":"levelo_inurba_marseille","lat":43.29534,"lon":5.38537,"is_reserved":false,"is_disabled":false,"rental_uris":{"android":"levelo://app?vid=ab7ec029-5b96-4032-b6e7-f917f6f5563c","ios":"levelo://app?vid=ab7ec029-5b96-4032-b6e7-f917f6f5563c"},"vehicle_type_id":"4","last_reported":1737065277,"current_range_meters":23200,"station_id":"ce4bgih2rcd13ifvqba0","pricing_plan_id":"cebpf4jnsgd1na2vs0mg"},{"bike_id":"85b17b88-0932-436f-a3cd-d6633f9898b6","system_id":"levelo_inurba_marseille","lat":43.23191,"lon":5.39976,"is_reserved":false,"is_disabled":false,"rental_uris":{"android":"levelo://app?vid=85b17b88-0932-436f-a3cd-d6633f9898b6","ios":"levelo://app?vid=85b17b88-0932-436f-a3cd-d6633f9898b6"},"vehicle_type_id":"4","last_reported":1737065277,"current_range_meters":39200,"station_id":"ce4bhn12rcd13ifvqgqg","pricing_plan_id":"cebpf4jnsgd1na2vs0mg"},{"bike_id":"3bd0f1fc-4c66-4b5c-ad9a-5973573db563","system_id":"levelo_inurba_marseille","lat":43.29421,"lon":5.38637,"is_reserved":false,"is_disabled":false,"rental_uris":{"android":"levelo://app?vid=3bd0f1fc-4c66-4b5c-ad9a-5973573db563","ios":"levelo://app?vid=3bd0f1fc-4c66-4b5c-ad9a-5973573db563"},"vehicle_type_id":"4","last_reported":1737065277,"current_range_meters":38800,"station_id":"ce4bh2h2rcd13ifvqdh0","pricing_plan_id":"cebpf4jnsgd1na2vs0mg"},{"bike_id":"d2ed35f8-7da5-4b4b-8781-01e92d76cd9e","system_id":"levelo_inurba_marseille","lat":43.28419,"lon":5.37523,"is_reserved":false,"is_disabled":false,"rental_uris":{"android":"levelo://app?vid=d2ed35f8-7da5-4b4b-8781-01e92d76cd9e","ios":"levelo://app?vid=d2ed35f8-7da5-4b4b-8781-01e92d76cd9e"},"vehicle_type_id":"4","last_reported":1737065277,"current_range_meters":38800,"station_id":"ce4bh412rcd13ifvqds0","pricing_plan_id":"cebpf4jnsgd1na2vs0mg"},{"bike_id":"18d8deee-1c5e-43f2-acc4-897789b5ade0","system_id":"levelo_inurba_marseille","lat":43.28429,"lon":5.39172,"is_reserved":false,"is_disabled":false,"rental_uris":{"android":"levelo://app?vid=18d8deee-1c5e-43f2-acc4-897789b5ade0","ios":"levelo://app?vid=18d8deee-1c5e-43f2-acc4-897789b5ade0"},"vehicle_type_id":"4","last_reported":1737065277,"current_range_meters":38800,"station_id":"ce4bhoh2rcd13ifvqh5g","pricing_plan_id":"cebpf4jnsgd1na2vs0mg"},{"bike_id":"09d51a14-46a9-4268-9e5f-24188260f5a5","system_id":"levelo_inurba_marseille","lat":43.31064,"lon":5.3836,"is_reserved":false,"is_disabled":false,"rental_uris":{"android":"levelo://app?vid=09d51a14-46a9-4268-9e5f-24188260f5a5","ios":"levelo://app?vid=09d51a14-46a9-4268-9e5f-24188260f5a5"},"vehicle_type_id":"4","last_reported":1737065277,"current_range_meters":33600,"station_id":"ce4bgv92rcd13ifvqcr0","pricing_plan_id":"cebpf4jnsgd1na2vs0mg"},{"bike_id":"a081f130-2639-43c2-92eb-70e044a75aa7","system_id":"levelo_inurba_marseille","lat":43.31484,"lon":5.37334,"is_reserved":false,"is_disabled":false,"rental_uris":{"android":"levelo://app?vid=a081f130-2639-43c2-92eb-70e044a75aa7","ios":"levelo://app?vid=a081f130-2639-43c2-92eb-70e044a75aa7"},"vehicle_type_id":"4","last_reported":1737065277,"current_range_meters":38000,"station_id":"ce4bgt12rcd13ifvqcd0","pricing_plan_id":"cebpf4jnsgd1na2vs0mg"},{"bike_id":"d24cc4d0-b965-4b7a-a720-659451b0da80","system_id":"levelo_inurba_marseille","lat":43.30138,"lon":5.39843,"is_reserved":false,"is_disabled":false,"rental_uris":{"android":"levelo://app?vid=d24cc4d0-b965-4b7a-a720-659451b0da80","ios":"levelo://app?vid=d24cc4d0-b965-4b7a-a720-659451b0da80"},"vehicle_type_id":"4","last_reported":1737065277,"current_range_meters":20800,"station_id":"ce4bh0h2rcd13ifvqd40","pricing_plan_id":"cebpf4jnsgd1na2vs0mg"},{"bike_id":"caaf3fcd-7509-41ff-95c7-a70afd46e800","system_id":"levelo_inurba_marseille","lat":43.31478,"lon":5.37283,"is_reserved":false,"is_disabled":false,"rental_uris":{"android":"levelo://app?vid=caaf3fcd-7509-41ff-95c7-a70afd46e800","ios":"levelo://app?vid=caaf3fcd-7509-41ff-95c7-a70afd46e800"},"vehicle_type_id":"4","last_reported":1737065277,"current_range_meters":36000,"station_id":"ce4bgt12rcd13ifvqcd0","pricing_plan_id":"cebpf4jnsgd1na2vs0mg"},{"bike_id":"87707ecc-a555-4041-b4c9-046040370b07","system_id":"levelo_inurba_marseille","lat":43.31972,"lon":5.38103,"is_reserved":false,"is_disabled":false,"rental_uris":{"android":"levelo://app?vid=87707ecc-a555-4041-b4c9-046040370b07","ios":"levelo://app?vid=87707ecc-a555-4041-b4c9-046040370b07"},"vehicle_type_id":"4","last_reported":1737065277,"current_range_meters":38800,"station_id":"ce4bhr12rcd13ifvqhpg","pricing_plan_id":"cebpf4jnsgd1na2vs0mg"},{"bike_id":"a4891c71-39ea-4c4a-80db-beca92933a7c","system_id":"levelo_inurba_marseille","lat":43.29175,"lon":5.37153,"is_reserved":false,"is_disabled":false,"rental_uris":{"android":"levelo://app?vid=a4891c71-39ea-4c4a-80db-beca92933a7c","ios":"levelo://app?vid=a4891c71-39ea-4c4a-80db-beca92933a7c"},"vehicle_type_id":"4","last_reported":1737065277,"current_range_meters":38000,"station_id":"ce4bha92rcd13ifvqeh0","pricing_plan_id":"cebpf4jnsgd1na2vs0mg"},{"bike_id":"f3a22efe-885e-4b13-9ca2-776fdd2f8daa","system_id":"levelo_inurba_marseille","lat":43.27904,"lon":5.39581,"is_reserved":false,"is_disabled":false,"rental_uris":{"android":"levelo://app?vid=f3a22efe-885e-4b13-9ca2-776fdd2f8daa","ios":"levelo://app?vid=f3a22efe-885e-4b13-9ca2-776fdd2f8daa"},"vehicle_type_id":"4","last_reported":1737065277,"current_range_meters":25200,"station_id":"ce4bhf92rcd13ifvqf40","pricing_plan_id":"cebpf4jnsgd1na2vs0mg"},{"bike_id":"4d21a537-3816-432c-8aec-6acfffac2e27","system_id":"levelo_inurba_marseille","lat":43.31893,"lon":5.40706,"is_reserved":false,"is_disabled":false,"rental_uris":{"android":"levelo://app?vid=4d21a537-3816-432c-8aec-6acfffac2e27","ios":"levelo://app?vid=4d21a537-3816-432c-8aec-6acfffac2e27"},"vehicle_type_id":"4","last_reported":1737065277,"current_range_meters":38400,"station_id":"ce4bhq12rcd13ifvqhig","pricing_plan_id":"cebpf4jnsgd1na2vs0mg"},{"bike_id":"9d6d1f26-fb82-4e0f-b072-6abb7d08dc00","system_id":"levelo_inurba_marseille","lat":43.2953,"lon":5.38549,"is_reserved":false,"is_disabled":false,"rental_uris":{"android":"levelo://app?vid=9d6d1f26-fb82-4e0f-b072-6abb7d08dc00","ios":"levelo://app?vid=9d6d1f26-fb82-4e0f-b072-6abb7d08dc00"},"vehicle_type_id":"4","last_reported":1737065277,"current_range_meters":24000,"station_id":"ce4bgih2rcd13ifvqba0","pricing_plan_id":"cebpf4jnsgd1na2vs0mg"},{"bike_id":"8bac3a0f-be8b-4b58-816f-6b624bd5bcba","system_id":"levelo_inurba_marseille","lat":43.29611,"lon":5.3672,"is_reserved":false,"is_disabled":false,"rental_uris":{"android":"levelo://app?vid=8bac3a0f-be8b-4b58-816f-6b624bd5bcba","ios":"levelo://app?vid=8bac3a0f-be8b-4b58-816f-6b624bd5bcba"},"vehicle_type_id":"4","last_reported":1737065277,"current_range_meters":38400,"station_id":"ce4bgph2rcd13ifvqc2g","pricing_plan_id":"cebpf4jnsgd1na2vs0mg"},{"bike_id":"fa53afd0-c3c0-46c2-be7e-d056eb14f6b8","system_id":"levelo_inurba_marseille","lat":43.26056,"lon":5.39395,"is_reserved":false,"is_disabled":false,"rental_uris":{"android":"levelo://app?vid=fa53afd0-c3c0-46c2-be7e-d056eb14f6b8","ios":"levelo://app?vid=fa53afd0-c3c0-46c2-be7e-d056eb14f6b8"},"vehicle_type_id":"4","last_reported":1737065277,"current_range_meters":38400,"station_id":"ce4bhh92rcd13ifvqfj0","pricing_plan_id":"cebpf4jnsgd1na2vs0mg"},{"bike_id":"a47874b2-92b6-4162-9330-775ee9873e24","system_id":"levelo_inurba_marseille","lat":43.32345,"lon":5.4062,"is_reserved":false,"is_disabled":false,"rental_uris":{"android":"levelo://app?vid=a47874b2-92b6-4162-9330-775ee9873e24","ios":"levelo://app?vid=a47874b2-92b6-4162-9330-775ee9873e24"},"vehicle_type_id":"4","last_reported":1737065277,"current_range_meters":18000,"station_id":"ce4bhq92rcd13ifvqhjg","pricing_plan_id":"cebpf4jnsgd1na2vs0mg"},{"bike_id":"50474f82-faae-4cb8-a970-291e2ad23fd2","system_id":"levelo_inurba_marseille","lat":43.29519,"lon":5.38549,"is_reserved":false,"is_disabled":false,"rental_uris":{"android":"levelo://app?vid=50474f82-faae-4cb8-a970-291e2ad23fd2","ios":"levelo://app?vid=50474f82-faae-4cb8-a970-291e2ad23fd2"},"vehicle_type_id":"4","last_reported":1737065277,"current_range_meters":38800,"station_id":"ce4bgih2rcd13ifvqba0","pricing_plan_id":"cebpf4jnsgd1na2vs0mg"},{"bike_id":"6ce155e4-9b9a-4cb5-9b2b-f5c249b7b24c","system_id":"levelo_inurba_marseille","lat":43.30328,"lon":5.36896,"is_reserved":false,"is_disabled":false,"rental_uris":{"android":"levelo://app?vid=6ce155e4-9b9a-4cb5-9b2b-f5c249b7b24c","ios":"levelo://app?vid=6ce155e4-9b9a-4cb5-9b2b-f5c249b7b24c"},"vehicle_type_id":"4","last_reported":1737065277,"current_range_meters":38800,"station_id":"ce4bgqh2rcd13ifvqc5g","pricing_plan_id":"cebpf4jnsgd1na2vs0mg"},{"bike_id":"c7dc851d-4796-47e4-a4e5-11f33c4c6506","system_id":"levelo_inurba_marseille","lat":43.29039,"lon":5.39952,"is_reserved":false,"is_disabled":false,"rental_uris":{"android":"levelo://app?vid=c7dc851d-4796-47e4-a4e5-11f33c4c6506","ios":"levelo://app?vid=c7dc851d-4796-47e4-a4e5-11f33c4c6506"},"vehicle_type_id":"4","last_reported":1737065277,"current_range_meters":12400,"station_id":"ce4bh392rcd13ifvqdm0","pricing_plan_id":"cebpf4jnsgd1na2vs0mg"},{"bike_id":"155dbf4b-d6fe-46aa-9097-9994452a5158","system_id":"levelo_inurba_marseille","lat":43.23071,"lon":5.35488,"is_reserved":false,"is_disabled":false,"rental_uris":{"android":"levelo://app?vid=155dbf4b-d6fe-46aa-9097-9994452a5158","ios":"levelo://app?vid=155dbf4b-d6fe-46aa-9097-9994452a5158"},"vehicle_type_id":"4","last_reported":1737065277,"current_range_meters":8000,"station_id":"cpo3342slgdg3j2ifvpg","pricing_plan_id":"cebpf4jnsgd1na2vs0mg"},{"bike_id":"44d65a31-bb68-4e49-86bf-b4d0ff0902f2","system_id":"levelo_inurba_marseille","lat":43.28454,"lon":5.35884,"is_reserved":false,"is_disabled":false,"rental_uris":{"android":"levelo://app?vid=44d65a31-bb68-4e49-86bf-b4d0ff0902f2","ios":"levelo://app?vid=44d65a31-bb68-4e49-86bf-b4d0ff0902f2"},"vehicle_type_id":"4","last_reported":1737065277,"current_range_meters":38800,"station_id":"ce4bhah2rcd13ifvqei0","pricing_plan_id":"cebpf4jnsgd1na2vs0mg"},{"bike_id":"80bc6287-ce2b-4ae4-b9d5-67d3150daa6d","system_id":"levelo_inurba_marseille","lat":43.27191,"lon":5.40953,"is_reserved":false,"is_disabled":false,"rental_uris":{"android":"levelo://app?vid=80bc6287-ce2b-4ae4-b9d5-67d3150daa6d","ios":"levelo://app?vid=80bc6287-ce2b-4ae4-b9d5-67d3150daa6d"},"vehicle_type_id":"4","last_reported":1737065277,"current_range_meters":27600,"station_id":"ce4bhl12rcd13ifvqgf0","pricing_plan_id":"cebpf4jnsgd1na2vs0mg"},{"bike_id":"91dd189b-5adb-487a-9bc6-b2591da729ec","system_id":"levelo_inurba_marseille","lat":43.33727,"lon":5.3918,"is_reserved":false,"is_disabled":false,"rental_uris":{"android":"levelo://app?vid=91dd189b-5adb-487a-9bc6-b2591da729ec","ios":"levelo://app?vid=91dd189b-5adb-487a-9bc6-b2591da729ec"},"vehicle_type_id":"4","last_reported":1737065277,"current_range_meters":29600,"station_id":"ce4bhr92rcd13ifvqhsg","pricing_plan_id":"cebpf4jnsgd1na2vs0mg"},{"bike_id":"ca0daeb3-551a-47db-9568-cfb249748609","system_id":"levelo_inurba_marseille","lat":43.29983,"lon":5.38486,"is_reserved":false,"is_disabled":true,"rental_uris":{"android":"levelo://app?vid=ca0daeb3-551a-47db-9568-cfb249748609","ios":"levelo://app?vid=ca0daeb3-551a-47db-9568-cfb249748609"},"vehicle_type_id":"4","last_reported":1737065277,"current_range_meters":27600,"station_id":"ce4bgj92rcd13ifvqbd0","pricing_plan_id":"cebpf4jnsgd1na2vs0mg"},{"bike_id":"160c4de7-7f2e-4ddd-89ef-4765ad4546e8","system_id":"levelo_inurba_marseille","lat":43.289894,"lon":5.355998,"is_reserved":false,"is_disabled":false,"rental_uris":{"android":"levelo://app?vid=160c4de7-7f2e-4ddd-89ef-4765ad4546e8","ios":"levelo://app?vid=160c4de7-7f2e-4ddd-89ef-4765ad4546e8"},"vehicle_type_id":"4","last_reported":1737065277,"current_range_meters":36800,"station_id":"ce4bhb92rcd13ifvqen0","pricing_plan_id":"cebpf4jnsgd1na2vs0mg"},{"bike_id":"48797849-8121-4d6d-aaf8-da32dceb5e88","system_id":"levelo_inurba_marseille","lat":43.28571,"lon":5.39501,"is_reserved":false,"is_disabled":false,"rental_uris":{"android":"levelo://app?vid=48797849-8121-4d6d-aaf8-da32dceb5e88","ios":"levelo://app?vid=48797849-8121-4d6d-aaf8-da32dceb5e88"},"vehicle_type_id":"4","last_reported":1737065277,"current_range_meters":38800,"station_id":"ce4bh292rcd13ifvqdg0","pricing_plan_id":"cebpf4jnsgd1na2vs0mg"},{"bike_id":"f835befa-e0c4-4cbe-a2f0-932b8650c0b0","system_id":"levelo_inurba_marseille","lat":43.23192,"lon":5.39963,"is_reserved":false,"is_disabled":false,"rental_uris":{"android":"levelo://app?vid=f835befa-e0c4-4cbe-a2f0-932b8650c0b0","ios":"levelo://app?vid=f835befa-e0c4-4cbe-a2f0-932b8650c0b0"},"vehicle_type_id":"4","last_reported":1737065277,"current_range_meters":15200,"station_id":"ce4bhn12rcd13ifvqgqg","pricing_plan_id":"cebpf4jnsgd1na2vs0mg"},{"bike_id":"41b0b4ec-7526-4290-96f9-44cbe4cd1ada","system_id":"levelo_inurba_marseille","lat":43.26787,"lon":5.3942,"is_reserved":false,"is_disabled":true,"rental_uris":{"android":"levelo://app?vid=41b0b4ec-7526-4290-96f9-44cbe4cd1ada","ios":"levelo://app?vid=41b0b4ec-7526-4290-96f9-44cbe4cd1ada"},"vehicle_type_id":"4","last_reported":1737065277,"current_range_meters":19600,"station_id":"ce4bhh12rcd13ifvqfg0","pricing_plan_id":"cebpf4jnsgd1na2vs0mg"},{"bike_id":"e89a8ae0-c938-4233-8625-624323d1af53","system_id":"levelo_inurba_marseille","lat":43.26558,"lon":5.37279,"is_reserved":false,"is_disabled":false,"rental_uris":{"android":"levelo://app?vid=e89a8ae0-c938-4233-8625-624323d1af53","ios":"levelo://app?vid=e89a8ae0-c938-4233-8625-624323d1af53"},"vehicle_type_id":"4","last_reported":1737065277,"current_range_meters":6800,"station_id":"ce4bhg12rcd13ifvqf70","pricing_plan_id":"cebpf4jnsgd1na2vs0mg"},{"bike_id":"dd83d1be-c2fa-4d27-a156-169c858b21cb","system_id":"levelo_inurba_marseille","lat":43.30654,"lon":5.40065,"is_reserved":false,"is_disabled":false,"rental_uris":{"android":"levelo://app?vid=dd83d1be-c2fa-4d27-a156-169c858b21cb","ios":"levelo://app?vid=dd83d1be-c2fa-4d27-a156-169c858b21cb"},"vehicle_type_id":"4","last_reported":1737065277,"current_range_meters":14800,"station_id":"ce4bh112rcd13ifvqda0","pricing_plan_id":"cebpf4jnsgd1na2vs0mg"},{"bike_id":"4d67d339-e8e1-4f5a-8086-1d6e90a5223c","system_id":"levelo_inurba_marseille","lat":43.31427,"lon":5.37579,"is_reserved":false,"is_disabled":false,"rental_uris":{"android":"levelo://app?vid=4d67d339-e8e1-4f5a-8086-1d6e90a5223c","ios":"levelo://app?vid=4d67d339-e8e1-4f5a-8086-1d6e90a5223c"},"vehicle_type_id":"4","last_reported":1737065277,"current_range_meters":38400,"station_id":"","pricing_plan_id":"cebpf4jnsgd1na2vs0mg"},{"bike_id":"04ab2eff-d3a3-4ed1-81e9-0dbaaed79129","system_id":"levelo_inurba_marseille","lat":43.31116,"lon":5.37775,"is_reserved":false,"is_disabled":false,"rental_uris":{"android":"levelo://app?vid=04ab2eff-d3a3-4ed1-81e9-0dbaaed79129","ios":"levelo://app?vid=04ab2eff-d3a3-4ed1-81e9-0dbaaed79129"},"vehicle_type_id":"4","last_reported":1737065277,"current_range_meters":36800,"station_id":"ce4bgt92rcd13ifvqcg0","pricing_plan_id":"cebpf4jnsgd1na2vs0mg"},{"bike_id":"a4b54411-2ba2-4028-9667-02264decce2a","system_id":"levelo_inurba_marseille","lat":43.26787,"lon":5.39414,"is_reserved":false,"is_disabled":false,"rental_uris":{"android":"levelo://app?vid=a4b54411-2ba2-4028-9667-02264decce2a","ios":"levelo://app?vid=a4b54411-2ba2-4028-9667-02264decce2a"},"vehicle_type_id":"4","last_reported":1737065277,"current_range_meters":16400,"station_id":"ce4bhh12rcd13ifvqfg0","pricing_plan_id":"cebpf4jnsgd1na2vs0mg"},{"bike_id":"9dd5eb0e-e4b7-4224-8da7-7d77946e21bf","system_id":"levelo_inurba_marseille","lat":43.31039,"lon":5.3871,"is_reserved":false,"is_disabled":true,"rental_uris":{"android":"levelo://app?vid=9dd5eb0e-e4b7-4224-8da7-7d77946e21bf","ios":"levelo://app?vid=9dd5eb0e-e4b7-4224-8da7-7d77946e21bf"},"vehicle_type_id":"4","last_reported":1737065277,"current_range_meters":0,"station_id":"","pricing_plan_id":"cebpf4jnsgd1na2vs0mg"},{"bike_id":"2c839bfc-228b-4afd-9c45-0e54b8f36672","system_id":"levelo_inurba_marseille","lat":43.24653,"lon":5.38891,"is_reserved":false,"is_disabled":false,"rental_uris":{"android":"levelo://app?vid=2c839bfc-228b-4afd-9c45-0e54b8f36672","ios":"levelo://app?vid=2c839bfc-228b-4afd-9c45-0e54b8f36672"},"vehicle_type_id":"4","last_reported":1737065277,"current_range_meters":38800,"station_id":"ce4bhg12rcd13ifvqf60","pricing_plan_id":"cebpf4jnsgd1na2vs0mg"},{"bike_id":"b1ddeadc-31f1-42f9-9a80-512818b293b3","system_id":"levelo_inurba_marseille","lat":43.29433,"lon":5.3862,"is_reserved":false,"is_disabled":false,"rental_uris":{"android":"levelo://app?vid=b1ddeadc-31f1-42f9-9a80-512818b293b3","ios":"levelo://app?vid=b1ddeadc-31f1-42f9-9a80-512818b293b3"},"vehicle_type_id":"4","last_reported":1737065277,"current_range_meters":38800,"station_id":"ce4bh2h2rcd13ifvqdh0","pricing_plan_id":"cebpf4jnsgd1na2vs0mg"},{"bike_id":"0ffbb6d5-5f43-44c9-bcfe-382d025fc0c1","system_id":"levelo_inurba_marseille","lat":43.2468,"lon":5.38157,"is_reserved":false,"is_disabled":false,"rental_uris":{"android":"levelo://app?vid=0ffbb6d5-5f43-44c9-bcfe-382d025fc0c1","ios":"levelo://app?vid=0ffbb6d5-5f43-44c9-bcfe-382d025fc0c1"},"vehicle_type_id":"4","last_reported":1737065277,"current_range_meters":18000,"station_id":"ce4bhih2rcd13ifvqfr0","pricing_plan_id":"cebpf4jnsgd1na2vs0mg"},{"bike_id":"fed11d0f-977e-443b-a693-d5ff6345bfde","system_id":"levelo_inurba_marseille","lat":43.24081,"lon":5.3774,"is_reserved":false,"is_disabled":false,"rental_uris":{"android":"levelo://app?vid=fed11d0f-977e-443b-a693-d5ff6345bfde","ios":"levelo://app?vid=fed11d0f-977e-443b-a693-d5ff6345bfde"},"vehicle_type_id":"4","last_reported":1737065277,"current_range_meters":28000,"station_id":"ce4bhnp2rcd13ifvqgvg","pricing_plan_id":"cebpf4jnsgd1na2vs0mg"},{"bike_id":"b46c7224-7161-4e79-98da-de9652b9959c","system_id":"levelo_inurba_marseille","lat":43.31118,"lon":5.37761,"is_reserved":false,"is_disabled":false,"rental_uris":{"android":"levelo://app?vid=b46c7224-7161-4e79-98da-de9652b9959c","ios":"levelo://app?vid=b46c7224-7161-4e79-98da-de9652b9959c"},"vehicle_type_id":"4","last_reported":1737065277,"current_range_meters":38400,"station_id":"ce4bgt92rcd13ifvqcg0","pricing_plan_id":"cebpf4jnsgd1na2vs0mg"},{"bike_id":"7fd6797b-4ea9-4974-9f76-693189126bd7","system_id":"levelo_inurba_marseille","lat":43.295405,"lon":5.390222,"is_reserved":false,"is_disabled":false,"rental_uris":{"android":"levelo://app?vid=7fd6797b-4ea9-4974-9f76-693189126bd7","ios":"levelo://app?vid=7fd6797b-4ea9-4974-9f76-693189126bd7"},"vehicle_type_id":"4","last_reported":1737065277,"current_range_meters":31200,"station_id":"ce4bh3p2rcd13ifvqdp0","pricing_plan_id":"cebpf4jnsgd1na2vs0mg"},{"bike_id":"e1a3393e-ee05-4b1c-b9fb-3908e373ee14","system_id":"levelo_inurba_marseille","lat":43.26552,"lon":5.37293,"is_reserved":false,"is_disabled":true,"rental_uris":{"android":"levelo://app?vid=e1a3393e-ee05-4b1c-b9fb-3908e373ee14","ios":"levelo://app?vid=e1a3393e-ee05-4b1c-b9fb-3908e373ee14"},"vehicle_type_id":"4","last_reported":1737065277,"current_range_meters":6400,"station_id":"ce4bhg12rcd13ifvqf70","pricing_plan_id":"cebpf4jnsgd1na2vs0mg"},{"bike_id":"7c7fb340-91d3-481f-bef7-3c012bdf7da2","system_id":"levelo_inurba_marseille","lat":43.27984,"lon":5.41625,"is_reserved":false,"is_disabled":true,"rental_uris":{"android":"levelo://app?vid=7c7fb340-91d3-481f-bef7-3c012bdf7da2","ios":"levelo://app?vid=7c7fb340-91d3-481f-bef7-3c012bdf7da2"},"vehicle_type_id":"4","last_reported":1737065277,"current_range_meters":38400,"station_id":"ce4bho12rcd13ifvqh1g","pricing_plan_id":"cebpf4jnsgd1na2vs0mg"},{"bike_id":"d049be83-ab38-4bec-aeb8-0d3be3214f8e","system_id":"levelo_inurba_marseille","lat":43.28714,"lon":5.36118,"is_reserved":false,"is_disabled":false,"rental_uris":{"android":"levelo://app?vid=d049be83-ab38-4bec-aeb8-0d3be3214f8e","ios":"levelo://app?vid=d049be83-ab38-4bec-aeb8-0d3be3214f8e"},"vehicle_type_id":"4","last_reported":1737065277,"current_range_meters":10800,"station_id":"cki0cbj6b192h4jlfktg","pricing_plan_id":"cebpf4jnsgd1na2vs0mg"},{"bike_id":"7fa654ae-7830-4bb8-8064-8a9fb0bddebc","system_id":"levelo_inurba_marseille","lat":43.30888,"lon":5.39618,"is_reserved":false,"is_disabled":false,"rental_uris":{"android":"levelo://app?vid=7fa654ae-7830-4bb8-8064-8a9fb0bddebc","ios":"levelo://app?vid=7fa654ae-7830-4bb8-8064-8a9fb0bddebc"},"vehicle_type_id":"4","last_reported":1737065277,"current_range_meters":38800,"station_id":"ce4bh012rcd13ifvqcv0","pricing_plan_id":"cebpf4jnsgd1na2vs0mg"},{"bike_id":"25b90a90-681c-4a0d-a7c0-7d3d6738c181","system_id":"levelo_inurba_marseille","lat":43.31487,"lon":5.37298,"is_reserved":false,"is_disabled":false,"rental_uris":{"android":"levelo://app?vid=25b90a90-681c-4a0d-a7c0-7d3d6738c181","ios":"levelo://app?vid=25b90a90-681c-4a0d-a7c0-7d3d6738c181"},"vehicle_type_id":"4","last_reported":1737065277,"current_range_meters":27600,"station_id":"ce4bgt12rcd13ifvqcd0","pricing_plan_id":"cebpf4jnsgd1na2vs0mg"},{"bike_id":"57692b3a-b258-4369-8902-af7a7e41e7b7","system_id":"levelo_inurba_marseille","lat":43.29694,"lon":5.36587,"is_reserved":false,"is_disabled":false,"rental_uris":{"android":"levelo://app?vid=57692b3a-b258-4369-8902-af7a7e41e7b7","ios":"levelo://app?vid=57692b3a-b258-4369-8902-af7a7e41e7b7"},"vehicle_type_id":"4","last_reported":1737065277,"current_range_meters":32000,"station_id":"ce4bgn12rcd13ifvqbt0","pricing_plan_id":"cebpf4jnsgd1na2vs0mg"},{"bike_id":"46ba6b6d-9ee4-42b3-a0a1-c688f874954f","system_id":"levelo_inurba_marseille","lat":43.25088,"lon":5.39517,"is_reserved":false,"is_disabled":false,"rental_uris":{"android":"levelo://app?vid=46ba6b6d-9ee4-42b3-a0a1-c688f874954f","ios":"levelo://app?vid=46ba6b6d-9ee4-42b3-a0a1-c688f874954f"},"vehicle_type_id":"4","last_reported":1737065277,"current_range_meters":28400,"station_id":"ce4bhm12rcd13ifvqgkg","pricing_plan_id":"cebpf4jnsgd1na2vs0mg"},{"bike_id":"da8bb684-ff43-4d56-b4b8-d953e7f2b40a","system_id":"levelo_inurba_marseille","lat":43.31687,"lon":5.40474,"is_reserved":false,"is_disabled":false,"rental_uris":{"android":"levelo://app?vid=da8bb684-ff43-4d56-b4b8-d953e7f2b40a","ios":"levelo://app?vid=da8bb684-ff43-4d56-b4b8-d953e7f2b40a"},"vehicle_type_id":"4","last_reported":1737065277,"current_range_meters":12400,"station_id":"ce4bh012rcd13ifvqd00","pricing_plan_id":"cebpf4jnsgd1na2vs0mg"},{"bike_id":"7e053760-c04f-4b13-9566-126be82540c4","system_id":"levelo_inurba_marseille","lat":43.31271,"lon":5.40162,"is_reserved":false,"is_disabled":false,"rental_uris":{"android":"levelo://app?vid=7e053760-c04f-4b13-9566-126be82540c4","ios":"levelo://app?vid=7e053760-c04f-4b13-9566-126be82540c4"},"vehicle_type_id":"4","last_reported":1737065277,"current_range_meters":37600,"station_id":"ce4bh092rcd13ifvqd30","pricing_plan_id":"cebpf4jnsgd1na2vs0mg"},{"bike_id":"9c59dc6d-04e7-460e-97d6-c650219ed952","system_id":"levelo_inurba_marseille","lat":43.29261,"lon":5.3844,"is_reserved":false,"is_disabled":false,"rental_uris":{"android":"levelo://app?vid=9c59dc6d-04e7-460e-97d6-c650219ed952","ios":"levelo://app?vid=9c59dc6d-04e7-460e-97d6-c650219ed952"},"vehicle_type_id":"4","last_reported":1737065277,"current_range_meters":38800,"station_id":"ce4bh692rcd13ifvqea0","pricing_plan_id":"cebpf4jnsgd1na2vs0mg"},{"bike_id":"2bf14e65-d93d-45bb-bad1-71fdf26cad9f","system_id":"levelo_inurba_marseille","lat":43.25126,"lon":5.40319,"is_reserved":false,"is_disabled":false,"rental_uris":{"android":"levelo://app?vid=2bf14e65-d93d-45bb-bad1-71fdf26cad9f","ios":"levelo://app?vid=2bf14e65-d93d-45bb-bad1-71fdf26cad9f"},"vehicle_type_id":"4","last_reported":1737065277,"current_range_meters":9200,"station_id":"ce4bhlh2rcd13ifvqgig","pricing_plan_id":"cebpf4jnsgd1na2vs0mg"},{"bike_id":"116e7514-2e81-4563-a614-e60a431e2012","system_id":"levelo_inurba_marseille","lat":43.28668,"lon":5.36379,"is_reserved":false,"is_disabled":false,"rental_uris":{"android":"levelo://app?vid=116e7514-2e81-4563-a614-e60a431e2012","ios":"levelo://app?vid=116e7514-2e81-4563-a614-e60a431e2012"},"vehicle_type_id":"4","last_reported":1737065277,"current_range_meters":39200,"station_id":"ce4bhah2rcd13ifvqej0","pricing_plan_id":"cebpf4jnsgd1na2vs0mg"},{"bike_id":"e6d52744-fcef-4b04-b3e0-4aafb92377b1","system_id":"levelo_inurba_marseille","lat":43.30583,"lon":5.367177,"is_reserved":false,"is_disabled":true,"rental_uris":{"android":"levelo://app?vid=e6d52744-fcef-4b04-b3e0-4aafb92377b1","ios":"levelo://app?vid=e6d52744-fcef-4b04-b3e0-4aafb92377b1"},"vehicle_type_id":"4","last_reported":1737065277,"current_range_meters":36000,"station_id":"ce4bgrp2rcd13ifvqc9g","pricing_plan_id":"cebpf4jnsgd1na2vs0mg"},{"bike_id":"078fa2d8-b6e2-4689-814d-1564c1917c5d","system_id":"levelo_inurba_marseille","lat":43.2408,"lon":5.37735,"is_reserved":false,"is_disabled":false,"rental_uris":{"android":"levelo://app?vid=078fa2d8-b6e2-4689-814d-1564c1917c5d","ios":"levelo://app?vid=078fa2d8-b6e2-4689-814d-1564c1917c5d"},"vehicle_type_id":"4","last_reported":1737065277,"current_range_meters":38800,"station_id":"ce4bhnp2rcd13ifvqgvg","pricing_plan_id":"cebpf4jnsgd1na2vs0mg"},{"bike_id":"9be957d2-26d1-49a4-9f85-b06ee3432064","system_id":"levelo_inurba_marseille","lat":43.33737,"lon":5.39195,"is_reserved":false,"is_disabled":false,"rental_uris":{"android":"levelo://app?vid=9be957d2-26d1-49a4-9f85-b06ee3432064","ios":"levelo://app?vid=9be957d2-26d1-49a4-9f85-b06ee3432064"},"vehicle_type_id":"4","last_reported":1737065277,"current_range_meters":33200,"station_id":"ce4bhr92rcd13ifvqhsg","pricing_plan_id":"cebpf4jnsgd1na2vs0mg"},{"bike_id":"4488423e-fb64-4bbe-9192-9966dc0edac0","system_id":"levelo_inurba_marseille","lat":43.31697,"lon":5.37773,"is_reserved":false,"is_disabled":false,"rental_uris":{"android":"levelo://app?vid=4488423e-fb64-4bbe-9192-9966dc0edac0","ios":"levelo://app?vid=4488423e-fb64-4bbe-9192-9966dc0edac0"},"vehicle_type_id":"4","last_reported":1737065277,"current_range_meters":39200,"station_id":"ce4bgth2rcd13ifvqch0","pricing_plan_id":"cebpf4jnsgd1na2vs0mg"},{"bike_id":"99a31782-c2ee-4a27-b493-d0450f1fbc77","system_id":"levelo_inurba_marseille","lat":43.31494,"lon":5.37299,"is_reserved":false,"is_disabled":false,"rental_uris":{"android":"levelo://app?vid=99a31782-c2ee-4a27-b493-d0450f1fbc77","ios":"levelo://app?vid=99a31782-c2ee-4a27-b493-d0450f1fbc77"},"vehicle_type_id":"4","last_reported":1737065277,"current_range_meters":38800,"station_id":"ce4bgt12rcd13ifvqcd0","pricing_plan_id":"cebpf4jnsgd1na2vs0mg"},{"bike_id":"ece2ae38-fa22-411a-b4b6-2bec87a39b75","system_id":"levelo_inurba_marseille","lat":43.32547,"lon":5.41442,"is_reserved":false,"is_disabled":false,"rental_uris":{"android":"levelo://app?vid=ece2ae38-fa22-411a-b4b6-2bec87a39b75","ios":"levelo://app?vid=ece2ae38-fa22-411a-b4b6-2bec87a39b75"},"vehicle_type_id":"4","last_reported":1737065277,"current_range_meters":38800,"station_id":"ce4bhq12rcd13ifvqhhg","pricing_plan_id":"cebpf4jnsgd1na2vs0mg"},{"bike_id":"4a4bdb5d-7f2d-4b22-a0dd-b6ee22b2db6e","system_id":"levelo_inurba_marseille","lat":43.25095,"lon":5.39524,"is_reserved":false,"is_disabled":false,"rental_uris":{"android":"levelo://app?vid=4a4bdb5d-7f2d-4b22-a0dd-b6ee22b2db6e","ios":"levelo://app?vid=4a4bdb5d-7f2d-4b22-a0dd-b6ee22b2db6e"},"vehicle_type_id":"4","last_reported":1737065277,"current_range_meters":38800,"station_id":"ce4bhm12rcd13ifvqgkg","pricing_plan_id":"cebpf4jnsgd1na2vs0mg"},{"bike_id":"4d2298b4-b398-4a2e-ac8d-5af2053ce27d","system_id":"levelo_inurba_marseille","lat":43.27615,"lon":5.36126,"is_reserved":false,"is_disabled":false,"rental_uris":{"android":"levelo://app?vid=4d2298b4-b398-4a2e-ac8d-5af2053ce27d","ios":"levelo://app?vid=4d2298b4-b398-4a2e-ac8d-5af2053ce27d"},"vehicle_type_id":"4","last_reported":1737065277,"current_range_meters":38800,"station_id":"ce4bgj92rcd13ifvqbe0","pricing_plan_id":"cebpf4jnsgd1na2vs0mg"},{"bike_id":"c80d073d-15b7-492a-ac77-d80eda1527fe","system_id":"levelo_inurba_marseille","lat":43.28484,"lon":5.3844,"is_reserved":false,"is_disabled":false,"rental_uris":{"android":"levelo://app?vid=c80d073d-15b7-492a-ac77-d80eda1527fe","ios":"levelo://app?vid=c80d073d-15b7-492a-ac77-d80eda1527fe"},"vehicle_type_id":"4","last_reported":1737065277,"current_range_meters":35200,"station_id":"ce4bh512rcd13ifvqe3g","pricing_plan_id":"cebpf4jnsgd1na2vs0mg"},{"bike_id":"2e173970-2853-4269-802d-4856c1787808","system_id":"levelo_inurba_marseille","lat":43.28337,"lon":5.38102,"is_reserved":false,"is_disabled":false,"rental_uris":{"android":"levelo://app?vid=2e173970-2853-4269-802d-4856c1787808","ios":"levelo://app?vid=2e173970-2853-4269-802d-4856c1787808"},"vehicle_type_id":"4","last_reported":1737065277,"current_range_meters":38800,"station_id":"ce4bh412rcd13ifvqdr0","pricing_plan_id":"cebpf4jnsgd1na2vs0mg"},{"bike_id":"cbde3e7b-ef7d-4d8b-8e89-94ee02bd4784","system_id":"levelo_inurba_marseille","lat":43.26557,"lon":5.37279,"is_reserved":false,"is_disabled":false,"rental_uris":{"android":"levelo://app?vid=cbde3e7b-ef7d-4d8b-8e89-94ee02bd4784","ios":"levelo://app?vid=cbde3e7b-ef7d-4d8b-8e89-94ee02bd4784"},"vehicle_type_id":"4","last_reported":1737065277,"current_range_meters":23200,"station_id":"ce4bhg12rcd13ifvqf70","pricing_plan_id":"cebpf4jnsgd1na2vs0mg"},{"bike_id":"242e1a46-c878-4185-b387-d1a4f0fb8589","system_id":"levelo_inurba_marseille","lat":43.2767,"lon":5.4223,"is_reserved":false,"is_disabled":false,"rental_uris":{"android":"levelo://app?vid=242e1a46-c878-4185-b387-d1a4f0fb8589","ios":"levelo://app?vid=242e1a46-c878-4185-b387-d1a4f0fb8589"},"vehicle_type_id":"4","last_reported":1737065277,"current_range_meters":8400,"station_id":"","pricing_plan_id":"cebpf4jnsgd1na2vs0mg"},{"bike_id":"71845b4e-4f9c-4bb8-9a9c-5f8ddd03e282","system_id":"levelo_inurba_marseille","lat":43.28742,"lon":5.38888,"is_reserved":false,"is_disabled":false,"rental_uris":{"android":"levelo://app?vid=71845b4e-4f9c-4bb8-9a9c-5f8ddd03e282","ios":"levelo://app?vid=71845b4e-4f9c-4bb8-9a9c-5f8ddd03e282"},"vehicle_type_id":"4","last_reported":1737065277,"current_range_meters":22000,"station_id":"","pricing_plan_id":"cebpf4jnsgd1na2vs0mg"},{"bike_id":"d423e2c6-eb9c-4138-80c2-df50dbb59c49","system_id":"levelo_inurba_marseille","lat":43.30432,"lon":5.38886,"is_reserved":false,"is_disabled":false,"rental_uris":{"android":"levelo://app?vid=d423e2c6-eb9c-4138-80c2-df50dbb59c49","ios":"levelo://app?vid=d423e2c6-eb9c-4138-80c2-df50dbb59c49"},"vehicle_type_id":"4","last_reported":1737065277,"current_range_meters":39200,"station_id":"ce4bgk12rcd13ifvqbi0","pricing_plan_id":"cebpf4jnsgd1na2vs0mg"},{"bike_id":"da738d9e-7b5d-4b7d-a437-4d0a8b9a7557","system_id":"levelo_inurba_marseille","lat":43.29055,"lon":5.3997,"is_reserved":false,"is_disabled":false,"rental_uris":{"android":"levelo://app?vid=da738d9e-7b5d-4b7d-a437-4d0a8b9a7557","ios":"levelo://app?vid=da738d9e-7b5d-4b7d-a437-4d0a8b9a7557"},"vehicle_type_id":"4","last_reported":1737065277,"current_range_meters":6800,"station_id":"ce4bh392rcd13ifvqdm0","pricing_plan_id":"cebpf4jnsgd1na2vs0mg"},{"bike_id":"ceaa1458-83a9-43c8-aed6-e72ea07fb43a","system_id":"levelo_inurba_marseille","lat":43.31318,"lon":5.3971,"is_reserved":false,"is_disabled":false,"rental_uris":{"android":"levelo://app?vid=ceaa1458-83a9-43c8-aed6-e72ea07fb43a","ios":"levelo://app?vid=ceaa1458-83a9-43c8-aed6-e72ea07fb43a"},"vehicle_type_id":"4","last_reported":1737065277,"current_range_meters":12000,"station_id":"ce4bgvp2rcd13ifvqcu0","pricing_plan_id":"cebpf4jnsgd1na2vs0mg"},{"bike_id":"c7b548c0-92b1-4b91-b606-2d963bec61ed","system_id":"levelo_inurba_marseille","lat":43.27497,"lon":5.42451,"is_reserved":false,"is_disabled":false,"rental_uris":{"android":"levelo://app?vid=c7b548c0-92b1-4b91-b606-2d963bec61ed","ios":"levelo://app?vid=c7b548c0-92b1-4b91-b606-2d963bec61ed"},"vehicle_type_id":"4","last_reported":1737065277,"current_range_meters":18000,"station_id":"ce4bhn92rcd13ifvqgrg","pricing_plan_id":"cebpf4jnsgd1na2vs0mg"},{"bike_id":"227e2104-9342-467a-bb13-dc81a29065f7","system_id":"levelo_inurba_marseille","lat":43.284879,"lon":5.38949,"is_reserved":false,"is_disabled":false,"rental_uris":{"android":"levelo://app?vid=227e2104-9342-467a-bb13-dc81a29065f7","ios":"levelo://app?vid=227e2104-9342-467a-bb13-dc81a29065f7"},"vehicle_type_id":"4","last_reported":1737065277,"current_range_meters":28800,"station_id":"","pricing_plan_id":"cebpf4jnsgd1na2vs0mg"},{"bike_id":"b2632576-d2f4-4f91-975b-2a6e65937421","system_id":"levelo_inurba_marseille","lat":43.25067,"lon":5.39451,"is_reserved":false,"is_disabled":false,"rental_uris":{"android":"levelo://app?vid=b2632576-d2f4-4f91-975b-2a6e65937421","ios":"levelo://app?vid=b2632576-d2f4-4f91-975b-2a6e65937421"},"vehicle_type_id":"4","last_reported":1737065277,"current_range_meters":32400,"station_id":"","pricing_plan_id":"cebpf4jnsgd1na2vs0mg"},{"bike_id":"f694ea46-a655-4d9c-95ae-08da305fb8f7","system_id":"levelo_inurba_marseille","lat":43.29793,"lon":5.38083,"is_reserved":false,"is_disabled":false,"rental_uris":{"android":"levelo://app?vid=f694ea46-a655-4d9c-95ae-08da305fb8f7","ios":"levelo://app?vid=f694ea46-a655-4d9c-95ae-08da305fb8f7"},"vehicle_type_id":"4","last_reported":1737065277,"current_range_meters":36000,"station_id":"ce4bgip2rcd13ifvqbb0","pricing_plan_id":"cebpf4jnsgd1na2vs0mg"},{"bike_id":"6a1aca43-add9-4b6f-bb01-eda73237eebd","system_id":"levelo_inurba_marseille","lat":43.29254,"lon":5.38451,"is_reserved":false,"is_disabled":false,"rental_uris":{"android":"levelo://app?vid=6a1aca43-add9-4b6f-bb01-eda73237eebd","ios":"levelo://app?vid=6a1aca43-add9-4b6f-bb01-eda73237eebd"},"vehicle_type_id":"4","last_reported":1737065277,"current_range_meters":38800,"station_id":"ce4bh692rcd13ifvqea0","pricing_plan_id":"cebpf4jnsgd1na2vs0mg"},{"bike_id":"c2baf212-3b5f-423e-ad6b-f367686975c3","system_id":"levelo_inurba_marseille","lat":43.32482,"lon":5.36567,"is_reserved":false,"is_disabled":false,"rental_uris":{"android":"levelo://app?vid=c2baf212-3b5f-423e-ad6b-f367686975c3","ios":"levelo://app?vid=c2baf212-3b5f-423e-ad6b-f367686975c3"},"vehicle_type_id":"4","last_reported":1737065277,"current_range_meters":38400,"station_id":"ce4bhs12rcd13ifvqhvg","pricing_plan_id":"cebpf4jnsgd1na2vs0mg"},{"bike_id":"19806edc-2b8f-460c-be99-d8acb68ae6ea","system_id":"levelo_inurba_marseille","lat":43.29618,"lon":5.37728,"is_reserved":false,"is_disabled":false,"rental_uris":{"android":"levelo://app?vid=19806edc-2b8f-460c-be99-d8acb68ae6ea","ios":"levelo://app?vid=19806edc-2b8f-460c-be99-d8acb68ae6ea"},"vehicle_type_id":"4","last_reported":1737065277,"current_range_meters":24400,"station_id":"ce4bgi92rcd13ifvqb90","pricing_plan_id":"cebpf4jnsgd1na2vs0mg"},{"bike_id":"06847a7c-81a3-47a7-969a-ce10f7980e65","system_id":"levelo_inurba_marseille","lat":43.23161,"lon":5.43702,"is_reserved":false,"is_disabled":true,"rental_uris":{"android":"levelo://app?vid=06847a7c-81a3-47a7-969a-ce10f7980e65","ios":"levelo://app?vid=06847a7c-81a3-47a7-969a-ce10f7980e65"},"vehicle_type_id":"4","last_reported":1737065277,"current_range_meters":36800,"station_id":"ce4bhmp2rcd13ifvqgog","pricing_plan_id":"cebpf4jnsgd1na2vs0mg"},{"bike_id":"02db88da-fe69-4240-835f-2138ef5342eb","system_id":"levelo_inurba_marseille","lat":43.3111,"lon":5.37751,"is_reserved":false,"is_disabled":false,"rental_uris":{"android":"levelo://app?vid=02db88da-fe69-4240-835f-2138ef5342eb","ios":"levelo://app?vid=02db88da-fe69-4240-835f-2138ef5342eb"},"vehicle_type_id":"4","last_reported":1737065277,"current_range_meters":30000,"station_id":"ce4bgt92rcd13ifvqcg0","pricing_plan_id":"cebpf4jnsgd1na2vs0mg"},{"bike_id":"13692a24-fa14-4270-86ad-88f1c1d9b123","system_id":"levelo_inurba_marseille","lat":43.29226,"lon":5.36069,"is_reserved":false,"is_disabled":false,"rental_uris":{"android":"levelo://app?vid=13692a24-fa14-4270-86ad-88f1c1d9b123","ios":"levelo://app?vid=13692a24-fa14-4270-86ad-88f1c1d9b123"},"vehicle_type_id":"4","last_reported":1737065277,"current_range_meters":22000,"station_id":"ce4bhbh2rcd13ifvqeqg","pricing_plan_id":"cebpf4jnsgd1na2vs0mg"},{"bike_id":"68d2aa27-7285-4898-92ae-751a441b0c6a","system_id":"levelo_inurba_marseille","lat":43.29223,"lon":5.36069,"is_reserved":false,"is_disabled":false,"rental_uris":{"android":"levelo://app?vid=68d2aa27-7285-4898-92ae-751a441b0c6a","ios":"levelo://app?vid=68d2aa27-7285-4898-92ae-751a441b0c6a"},"vehicle_type_id":"4","last_reported":1737065277,"current_range_meters":38800,"station_id":"ce4bhbh2rcd13ifvqeqg","pricing_plan_id":"cebpf4jnsgd1na2vs0mg"},{"bike_id":"cd193a81-b114-46fc-aa0b-4f8b297c5418","system_id":"levelo_inurba_marseille","lat":43.28724,"lon":5.36096,"is_reserved":false,"is_disabled":false,"rental_uris":{"android":"levelo://app?vid=cd193a81-b114-46fc-aa0b-4f8b297c5418","ios":"levelo://app?vid=cd193a81-b114-46fc-aa0b-4f8b297c5418"},"vehicle_type_id":"4","last_reported":1737065277,"current_range_meters":26800,"station_id":"cki0cbj6b192h4jlfktg","pricing_plan_id":"cebpf4jnsgd1na2vs0mg"},{"bike_id":"a945b802-f786-4e4d-a7f4-95f9124b4c83","system_id":"levelo_inurba_marseille","lat":43.24804,"lon":5.37454,"is_reserved":false,"is_disabled":false,"rental_uris":{"android":"levelo://app?vid=a945b802-f786-4e4d-a7f4-95f9124b4c83","ios":"levelo://app?vid=a945b802-f786-4e4d-a7f4-95f9124b4c83"},"vehicle_type_id":"4","last_reported":1737065277,"current_range_meters":7200,"station_id":"ce4bhgh2rcd13ifvqfb0","pricing_plan_id":"cebpf4jnsgd1na2vs0mg"},{"bike_id":"8c82c8ec-f5f4-452b-934c-534c453fe619","system_id":"levelo_inurba_marseille","lat":43.26774,"lon":5.39421,"is_reserved":false,"is_disabled":false,"rental_uris":{"android":"levelo://app?vid=8c82c8ec-f5f4-452b-934c-534c453fe619","ios":"levelo://app?vid=8c82c8ec-f5f4-452b-934c-534c453fe619"},"vehicle_type_id":"4","last_reported":1737065277,"current_range_meters":20800,"station_id":"ce4bhh12rcd13ifvqfg0","pricing_plan_id":"cebpf4jnsgd1na2vs0mg"},{"bike_id":"450e4b2e-2717-46bb-9250-32754d000e21","system_id":"levelo_inurba_marseille","lat":43.31706,"lon":5.37763,"is_reserved":false,"is_disabled":false,"rental_uris":{"android":"levelo://app?vid=450e4b2e-2717-46bb-9250-32754d000e21","ios":"levelo://app?vid=450e4b2e-2717-46bb-9250-32754d000e21"},"vehicle_type_id":"4","last_reported":1737065277,"current_range_meters":39200,"station_id":"ce4bgth2rcd13ifvqch0","pricing_plan_id":"cebpf4jnsgd1na2vs0mg"},{"bike_id":"0d8b3f38-41dd-47ed-bfa6-3906b618d9f2","system_id":"levelo_inurba_marseille","lat":43.28263,"lon":5.35054,"is_reserved":false,"is_disabled":false,"rental_uris":{"android":"levelo://app?vid=0d8b3f38-41dd-47ed-bfa6-3906b618d9f2","ios":"levelo://app?vid=0d8b3f38-41dd-47ed-bfa6-3906b618d9f2"},"vehicle_type_id":"4","last_reported":1737065277,"current_range_meters":30000,"station_id":"ce4bhbp2rcd13ifvqerg","pricing_plan_id":"cebpf4jnsgd1na2vs0mg"},{"bike_id":"a24e8341-981e-470f-a0ca-616e2c3bb22b","system_id":"levelo_inurba_marseille","lat":43.30881,"lon":5.39649,"is_reserved":false,"is_disabled":false,"rental_uris":{"android":"levelo://app?vid=a24e8341-981e-470f-a0ca-616e2c3bb22b","ios":"levelo://app?vid=a24e8341-981e-470f-a0ca-616e2c3bb22b"},"vehicle_type_id":"4","last_reported":1737065277,"current_range_meters":35600,"station_id":"ce4bh012rcd13ifvqcv0","pricing_plan_id":"cebpf4jnsgd1na2vs0mg"},{"bike_id":"f10dec5a-e383-4b22-8edc-5f22d333e2f5","system_id":"levelo_inurba_marseille","lat":43.27172,"lon":5.40991,"is_reserved":false,"is_disabled":false,"rental_uris":{"android":"levelo://app?vid=f10dec5a-e383-4b22-8edc-5f22d333e2f5","ios":"levelo://app?vid=f10dec5a-e383-4b22-8edc-5f22d333e2f5"},"vehicle_type_id":"4","last_reported":1737065277,"current_range_meters":15200,"station_id":"ce4bhl12rcd13ifvqgf0","pricing_plan_id":"cebpf4jnsgd1na2vs0mg"},{"bike_id":"efd05c32-4d50-4342-9945-bb25c7efcd6f","system_id":"levelo_inurba_marseille","lat":43.27972,"lon":5.38741,"is_reserved":false,"is_disabled":false,"rental_uris":{"android":"levelo://app?vid=efd05c32-4d50-4342-9945-bb25c7efcd6f","ios":"levelo://app?vid=efd05c32-4d50-4342-9945-bb25c7efcd6f"},"vehicle_type_id":"4","last_reported":1737065277,"current_range_meters":35200,"station_id":"ce4bhg12rcd13ifvqf80","pricing_plan_id":"cebpf4jnsgd1na2vs0mg"},{"bike_id":"aac2ecf2-9c1e-46b0-98dd-0e3058686375","system_id":"levelo_inurba_marseille","lat":43.30142,"lon":5.39852,"is_reserved":false,"is_disabled":false,"rental_uris":{"android":"levelo://app?vid=aac2ecf2-9c1e-46b0-98dd-0e3058686375","ios":"levelo://app?vid=aac2ecf2-9c1e-46b0-98dd-0e3058686375"},"vehicle_type_id":"4","last_reported":1737065277,"current_range_meters":36800,"station_id":"ce4bh0h2rcd13ifvqd40","pricing_plan_id":"cebpf4jnsgd1na2vs0mg"},{"bike_id":"c328791d-530c-4303-9f7d-f03bb67bb1cf","system_id":"levelo_inurba_marseille","lat":43.29198,"lon":5.39322,"is_reserved":false,"is_disabled":false,"rental_uris":{"android":"levelo://app?vid=c328791d-530c-4303-9f7d-f03bb67bb1cf","ios":"levelo://app?vid=c328791d-530c-4303-9f7d-f03bb67bb1cf"},"vehicle_type_id":"4","last_reported":1737065277,"current_range_meters":14800,"station_id":"ce4bh192rcd13ifvqdd0","pricing_plan_id":"cebpf4jnsgd1na2vs0mg"},{"bike_id":"a4b779dc-e9f6-42d9-b786-46a4421bfccd","system_id":"levelo_inurba_marseille","lat":43.30595,"lon":5.37194,"is_reserved":false,"is_disabled":false,"rental_uris":{"android":"levelo://app?vid=a4b779dc-e9f6-42d9-b786-46a4421bfccd","ios":"levelo://app?vid=a4b779dc-e9f6-42d9-b786-46a4421bfccd"},"vehicle_type_id":"4","last_reported":1737065277,"current_range_meters":27600,"station_id":"ce4bgqh2rcd13ifvqc4g","pricing_plan_id":"cebpf4jnsgd1na2vs0mg"},{"bike_id":"03c74e58-dbbb-4ac2-a63a-bf8704430fa1","system_id":"levelo_inurba_marseille","lat":43.29534,"lon":5.38543,"is_reserved":false,"is_disabled":false,"rental_uris":{"android":"levelo://app?vid=03c74e58-dbbb-4ac2-a63a-bf8704430fa1","ios":"levelo://app?vid=03c74e58-dbbb-4ac2-a63a-bf8704430fa1"},"vehicle_type_id":"4","last_reported":1737065277,"current_range_meters":33600,"station_id":"ce4bgih2rcd13ifvqba0","pricing_plan_id":"cebpf4jnsgd1na2vs0mg"},{"bike_id":"12bcd203-0c70-43cc-9ea5-bb5bb69ec3a5","system_id":"levelo_inurba_marseille","lat":43.29255,"lon":5.38432,"is_reserved":false,"is_disabled":false,"rental_uris":{"android":"levelo://app?vid=12bcd203-0c70-43cc-9ea5-bb5bb69ec3a5","ios":"levelo://app?vid=12bcd203-0c70-43cc-9ea5-bb5bb69ec3a5"},"vehicle_type_id":"4","last_reported":1737065277,"current_range_meters":32800,"station_id":"ce4bh692rcd13ifvqea0","pricing_plan_id":"cebpf4jnsgd1na2vs0mg"},{"bike_id":"f21955f8-a46c-4890-be70-66409620de02","system_id":"levelo_inurba_marseille","lat":43.2319,"lon":5.39968,"is_reserved":false,"is_disabled":false,"rental_uris":{"android":"levelo://app?vid=f21955f8-a46c-4890-be70-66409620de02","ios":"levelo://app?vid=f21955f8-a46c-4890-be70-66409620de02"},"vehicle_type_id":"4","last_reported":1737065277,"current_range_meters":8400,"station_id":"ce4bhn12rcd13ifvqgqg","pricing_plan_id":"cebpf4jnsgd1na2vs0mg"},{"bike_id":"34709e64-d1c8-4538-88a5-33805792c0a5","system_id":"levelo_inurba_marseille","lat":43.25823,"lon":5.39425,"is_reserved":false,"is_disabled":false,"rental_uris":{"android":"levelo://app?vid=34709e64-d1c8-4538-88a5-33805792c0a5","ios":"levelo://app?vid=34709e64-d1c8-4538-88a5-33805792c0a5"},"vehicle_type_id":"4","last_reported":1737065277,"current_range_meters":38800,"station_id":"ce4bhip2rcd13ifvqft0","pricing_plan_id":"cebpf4jnsgd1na2vs0mg"},{"bike_id":"8d54b165-0ddd-439f-8b45-3ad6b5077290","system_id":"levelo_inurba_marseille","lat":43.290068,"lon":5.356113,"is_reserved":false,"is_disabled":false,"rental_uris":{"android":"levelo://app?vid=8d54b165-0ddd-439f-8b45-3ad6b5077290","ios":"levelo://app?vid=8d54b165-0ddd-439f-8b45-3ad6b5077290"},"vehicle_type_id":"4","last_reported":1737065277,"current_range_meters":37600,"station_id":"ce4bhb92rcd13ifvqen0","pricing_plan_id":"cebpf4jnsgd1na2vs0mg"},{"bike_id":"6a9e411c-b5e9-44f4-92e8-dd3893a908de","system_id":"levelo_inurba_marseille","lat":43.28083,"lon":5.39649,"is_reserved":false,"is_disabled":false,"rental_uris":{"android":"levelo://app?vid=6a9e411c-b5e9-44f4-92e8-dd3893a908de","ios":"levelo://app?vid=6a9e411c-b5e9-44f4-92e8-dd3893a908de"},"vehicle_type_id":"4","last_reported":1737065277,"current_range_meters":38000,"station_id":"ce4bho12rcd13ifvqh2g","pricing_plan_id":"cebpf4jnsgd1na2vs0mg"},{"bike_id":"f2be7778-b6de-4880-adcb-065b4a5b8e7d","system_id":"levelo_inurba_marseille","lat":43.32349,"lon":5.40616,"is_reserved":false,"is_disabled":false,"rental_uris":{"android":"levelo://app?vid=f2be7778-b6de-4880-adcb-065b4a5b8e7d","ios":"levelo://app?vid=f2be7778-b6de-4880-adcb-065b4a5b8e7d"},"vehicle_type_id":"4","last_reported":1737065277,"current_range_meters":38800,"station_id":"ce4bhq92rcd13ifvqhjg","pricing_plan_id":"cebpf4jnsgd1na2vs0mg"},{"bike_id":"7a26b63c-652f-4d2d-8353-1a9dfb4e945a","system_id":"levelo_inurba_marseille","lat":43.337312,"lon":5.391836,"is_reserved":false,"is_disabled":false,"rental_uris":{"android":"levelo://app?vid=7a26b63c-652f-4d2d-8353-1a9dfb4e945a","ios":"levelo://app?vid=7a26b63c-652f-4d2d-8353-1a9dfb4e945a"},"vehicle_type_id":"4","last_reported":1737065277,"current_range_meters":38800,"station_id":"ce4bhr92rcd13ifvqhsg","pricing_plan_id":"cebpf4jnsgd1na2vs0mg"},{"bike_id":"ea9bb7bb-0ac8-4ebe-9e37-cb0e88502b17","system_id":"levelo_inurba_marseille","lat":43.2904,"lon":5.37567,"is_reserved":false,"is_disabled":false,"rental_uris":{"android":"levelo://app?vid=ea9bb7bb-0ac8-4ebe-9e37-cb0e88502b17","ios":"levelo://app?vid=ea9bb7bb-0ac8-4ebe-9e37-cb0e88502b17"},"vehicle_type_id":"4","last_reported":1737065277,"current_range_meters":6000,"station_id":"ce4bh692rcd13ifvqe90","pricing_plan_id":"cebpf4jnsgd1na2vs0mg"},{"bike_id":"56b8e9bc-f750-4815-bc98-9098414d16db","system_id":"levelo_inurba_marseille","lat":43.23192,"lon":5.35555,"is_reserved":false,"is_disabled":true,"rental_uris":{"android":"levelo://app?vid=56b8e9bc-f750-4815-bc98-9098414d16db","ios":"levelo://app?vid=56b8e9bc-f750-4815-bc98-9098414d16db"},"vehicle_type_id":"4","last_reported":1737065277,"current_range_meters":0,"station_id":"ce4bhu92rcd13ifvqi70","pricing_plan_id":"cebpf4jnsgd1na2vs0mg"},{"bike_id":"91fc6ba3-f467-4b4f-b86f-00c0f05ad79b","system_id":"levelo_inurba_marseille","lat":43.29197,"lon":5.35802,"is_reserved":false,"is_disabled":false,"rental_uris":{"android":"levelo://app?vid=91fc6ba3-f467-4b4f-b86f-00c0f05ad79b","ios":"levelo://app?vid=91fc6ba3-f467-4b4f-b86f-00c0f05ad79b"},"vehicle_type_id":"4","last_reported":1737065277,"current_range_meters":37600,"station_id":"ce4bhb12rcd13ifvqel0","pricing_plan_id":"cebpf4jnsgd1na2vs0mg"},{"bike_id":"efc3d83f-d7a8-4c74-a1fb-2e2a9f71f030","system_id":"levelo_inurba_marseille","lat":43.29539,"lon":5.3854,"is_reserved":false,"is_disabled":false,"rental_uris":{"android":"levelo://app?vid=efc3d83f-d7a8-4c74-a1fb-2e2a9f71f030","ios":"levelo://app?vid=efc3d83f-d7a8-4c74-a1fb-2e2a9f71f030"},"vehicle_type_id":"4","last_reported":1737065277,"current_range_meters":28800,"station_id":"ce4bgih2rcd13ifvqba0","pricing_plan_id":"cebpf4jnsgd1na2vs0mg"},{"bike_id":"d7a710b0-adff-4c5c-bf44-f4013363962c","system_id":"levelo_inurba_marseille","lat":43.24672,"lon":5.39449,"is_reserved":false,"is_disabled":false,"rental_uris":{"android":"levelo://app?vid=d7a710b0-adff-4c5c-bf44-f4013363962c","ios":"levelo://app?vid=d7a710b0-adff-4c5c-bf44-f4013363962c"},"vehicle_type_id":"4","last_reported":1737065277,"current_range_meters":38000,"station_id":"","pricing_plan_id":"cebpf4jnsgd1na2vs0mg"},{"bike_id":"fe7ba5aa-2295-4219-b011-ec35d891e374","system_id":"levelo_inurba_marseille","lat":43.29796,"lon":5.39344,"is_reserved":false,"is_disabled":false,"rental_uris":{"android":"levelo://app?vid=fe7ba5aa-2295-4219-b011-ec35d891e374","ios":"levelo://app?vid=fe7ba5aa-2295-4219-b011-ec35d891e374"},"vehicle_type_id":"4","last_reported":1737065277,"current_range_meters":28000,"station_id":"chh1huq6cuj3fo74tm60","pricing_plan_id":"cebpf4jnsgd1na2vs0mg"},{"bike_id":"ab4d0db5-7b2b-48a8-af07-419462610c20","system_id":"levelo_inurba_marseille","lat":43.30958,"lon":5.39035,"is_reserved":false,"is_disabled":false,"rental_uris":{"android":"levelo://app?vid=ab4d0db5-7b2b-48a8-af07-419462610c20","ios":"levelo://app?vid=ab4d0db5-7b2b-48a8-af07-419462610c20"},"vehicle_type_id":"4","last_reported":1737065277,"current_range_meters":38800,"station_id":"ce4bgup2rcd13ifvqco0","pricing_plan_id":"cebpf4jnsgd1na2vs0mg"},{"bike_id":"3f2bda95-f7d8-4dc2-9ca2-f7b384ffcf66","system_id":"levelo_inurba_marseille","lat":43.29722,"lon":5.3771,"is_reserved":false,"is_disabled":false,"rental_uris":{"android":"levelo://app?vid=3f2bda95-f7d8-4dc2-9ca2-f7b384ffcf66","ios":"levelo://app?vid=3f2bda95-f7d8-4dc2-9ca2-f7b384ffcf66"},"vehicle_type_id":"4","last_reported":1737065277,"current_range_meters":36800,"station_id":"ce4bgkh2rcd13ifvqbl0","pricing_plan_id":"cebpf4jnsgd1na2vs0mg"},{"bike_id":"60c469fc-3d82-43ea-8ec4-fc0b26db70e6","system_id":"levelo_inurba_marseille","lat":43.24173,"lon":5.39732,"is_reserved":false,"is_disabled":false,"rental_uris":{"android":"levelo://app?vid=60c469fc-3d82-43ea-8ec4-fc0b26db70e6","ios":"levelo://app?vid=60c469fc-3d82-43ea-8ec4-fc0b26db70e6"},"vehicle_type_id":"4","last_reported":1737065277,"current_range_meters":27200,"station_id":"ce4bhn12rcd13ifvqgpg","pricing_plan_id":"cebpf4jnsgd1na2vs0mg"},{"bike_id":"a1efa4cb-90b8-4ba7-95c5-9f7094dd45e5","system_id":"levelo_inurba_marseille","lat":43.25115,"lon":5.40351,"is_reserved":false,"is_disabled":false,"rental_uris":{"android":"levelo://app?vid=a1efa4cb-90b8-4ba7-95c5-9f7094dd45e5","ios":"levelo://app?vid=a1efa4cb-90b8-4ba7-95c5-9f7094dd45e5"},"vehicle_type_id":"4","last_reported":1737065277,"current_range_meters":26000,"station_id":"ce4bhlh2rcd13ifvqgig","pricing_plan_id":"cebpf4jnsgd1na2vs0mg"},{"bike_id":"3badb9dc-30c2-4fd6-ba97-722705a3b10c","system_id":"levelo_inurba_marseille","lat":43.33024,"lon":5.39038,"is_reserved":false,"is_disabled":false,"rental_uris":{"android":"levelo://app?vid=3badb9dc-30c2-4fd6-ba97-722705a3b10c","ios":"levelo://app?vid=3badb9dc-30c2-4fd6-ba97-722705a3b10c"},"vehicle_type_id":"4","last_reported":1737065277,"current_range_meters":9200,"station_id":"ce4bhr92rcd13ifvqhrg","pricing_plan_id":"cebpf4jnsgd1na2vs0mg"},{"bike_id":"2e70836a-a10f-4618-953a-21e9a7e8b8d7","system_id":"levelo_inurba_marseille","lat":43.28412,"lon":5.37525,"is_reserved":false,"is_disabled":false,"rental_uris":{"android":"levelo://app?vid=2e70836a-a10f-4618-953a-21e9a7e8b8d7","ios":"levelo://app?vid=2e70836a-a10f-4618-953a-21e9a7e8b8d7"},"vehicle_type_id":"4","last_reported":1737065277,"current_range_meters":28400,"station_id":"ce4bh412rcd13ifvqds0","pricing_plan_id":"cebpf4jnsgd1na2vs0mg"},{"bike_id":"7607e5e4-bfb0-479d-9bfe-af6a7bc68285","system_id":"levelo_inurba_marseille","lat":43.28029,"lon":5.36946,"is_reserved":false,"is_disabled":false,"rental_uris":{"android":"levelo://app?vid=7607e5e4-bfb0-479d-9bfe-af6a7bc68285","ios":"levelo://app?vid=7607e5e4-bfb0-479d-9bfe-af6a7bc68285"},"vehicle_type_id":"4","last_reported":1737065277,"current_range_meters":16000,"station_id":"ce4bha12rcd13ifvqef0","pricing_plan_id":"cebpf4jnsgd1na2vs0mg"},{"bike_id":"22465212-93af-4e0b-b803-6ee82bba56d5","system_id":"levelo_inurba_marseille","lat":43.33769,"lon":5.37487,"is_reserved":false,"is_disabled":false,"rental_uris":{"android":"levelo://app?vid=22465212-93af-4e0b-b803-6ee82bba56d5","ios":"levelo://app?vid=22465212-93af-4e0b-b803-6ee82bba56d5"},"vehicle_type_id":"4","last_reported":1737065277,"current_range_meters":32800,"station_id":"","pricing_plan_id":"cebpf4jnsgd1na2vs0mg"},{"bike_id":"c51cc554-db55-4370-8ce5-1d643e4f4fac","system_id":"levelo_inurba_marseille","lat":43.31068,"lon":5.38373,"is_reserved":false,"is_disabled":false,"rental_uris":{"android":"levelo://app?vid=c51cc554-db55-4370-8ce5-1d643e4f4fac","ios":"levelo://app?vid=c51cc554-db55-4370-8ce5-1d643e4f4fac"},"vehicle_type_id":"4","last_reported":1737065277,"current_range_meters":38800,"station_id":"ce4bgv92rcd13ifvqcr0","pricing_plan_id":"cebpf4jnsgd1na2vs0mg"},{"bike_id":"950bc21b-63fe-44c1-b3fa-5c243fc9e8a8","system_id":"levelo_inurba_marseille","lat":43.28272,"lon":5.35051,"is_reserved":false,"is_disabled":false,"rental_uris":{"android":"levelo://app?vid=950bc21b-63fe-44c1-b3fa-5c243fc9e8a8","ios":"levelo://app?vid=950bc21b-63fe-44c1-b3fa-5c243fc9e8a8"},"vehicle_type_id":"4","last_reported":1737065277,"current_range_meters":26000,"station_id":"ce4bhbp2rcd13ifvqerg","pricing_plan_id":"cebpf4jnsgd1na2vs0mg"},{"bike_id":"fc705563-96e6-45d0-adb3-8588f3962dd4","system_id":"levelo_inurba_marseille","lat":43.32366,"lon":5.38893,"is_reserved":false,"is_disabled":false,"rental_uris":{"android":"levelo://app?vid=fc705563-96e6-45d0-adb3-8588f3962dd4","ios":"levelo://app?vid=fc705563-96e6-45d0-adb3-8588f3962dd4"},"vehicle_type_id":"4","last_reported":1737065277,"current_range_meters":31200,"station_id":"ce4bhqp2rcd13ifvqhog","pricing_plan_id":"cebpf4jnsgd1na2vs0mg"},{"bike_id":"116abbd6-c384-4026-9286-815c5e949b26","system_id":"levelo_inurba_marseille","lat":43.26804,"lon":5.40273,"is_reserved":false,"is_disabled":false,"rental_uris":{"android":"levelo://app?vid=116abbd6-c384-4026-9286-815c5e949b26","ios":"levelo://app?vid=116abbd6-c384-4026-9286-815c5e949b26"},"vehicle_type_id":"4","last_reported":1737065277,"current_range_meters":38800,"station_id":"ce501612rcd8frsf0b60","pricing_plan_id":"cebpf4jnsgd1na2vs0mg"},{"bike_id":"a8db5288-c1e8-4edb-9813-ff376462315e","system_id":"levelo_inurba_marseille","lat":43.29517,"lon":5.39401,"is_reserved":false,"is_disabled":false,"rental_uris":{"android":"levelo://app?vid=a8db5288-c1e8-4edb-9813-ff376462315e","ios":"levelo://app?vid=a8db5288-c1e8-4edb-9813-ff376462315e"},"vehicle_type_id":"4","last_reported":1737065277,"current_range_meters":18000,"station_id":"ce4bh292rcd13ifvqdf0","pricing_plan_id":"cebpf4jnsgd1na2vs0mg"},{"bike_id":"ec41b1e8-bba3-4e66-982f-aeea97468d8d","system_id":"levelo_inurba_marseille","lat":43.30633,"lon":5.40089,"is_reserved":false,"is_disabled":false,"rental_uris":{"android":"levelo://app?vid=ec41b1e8-bba3-4e66-982f-aeea97468d8d","ios":"levelo://app?vid=ec41b1e8-bba3-4e66-982f-aeea97468d8d"},"vehicle_type_id":"4","last_reported":1737065277,"current_range_meters":38800,"station_id":"ce4bh112rcd13ifvqda0","pricing_plan_id":"cebpf4jnsgd1na2vs0mg"},{"bike_id":"84708e74-0fe7-4fb2-addd-7c044bcdb32e","system_id":"levelo_inurba_marseille","lat":43.31998,"lon":5.38166,"is_reserved":false,"is_disabled":false,"rental_uris":{"android":"levelo://app?vid=84708e74-0fe7-4fb2-addd-7c044bcdb32e","ios":"levelo://app?vid=84708e74-0fe7-4fb2-addd-7c044bcdb32e"},"vehicle_type_id":"4","last_reported":1737065277,"current_range_meters":32000,"station_id":"ce4bhr12rcd13ifvqhpg","pricing_plan_id":"cebpf4jnsgd1na2vs0mg"},{"bike_id":"f66c6286-c4cd-419d-a794-1dcbc590ec83","system_id":"levelo_inurba_marseille","lat":43.26487,"lon":5.3958,"is_reserved":false,"is_disabled":true,"rental_uris":{"android":"levelo://app?vid=f66c6286-c4cd-419d-a794-1dcbc590ec83","ios":"levelo://app?vid=f66c6286-c4cd-419d-a794-1dcbc590ec83"},"vehicle_type_id":"4","last_reported":1737065277,"current_range_meters":2000,"station_id":"ce4bhi12rcd13ifvqfq0","pricing_plan_id":"cebpf4jnsgd1na2vs0mg"},{"bike_id":"4665b84d-70b6-4332-a9e2-7d81094a4c02","system_id":"levelo_inurba_marseille","lat":43.309016,"lon":5.368616,"is_reserved":false,"is_disabled":false,"rental_uris":{"android":"levelo://app?vid=4665b84d-70b6-4332-a9e2-7d81094a4c02","ios":"levelo://app?vid=4665b84d-70b6-4332-a9e2-7d81094a4c02"},"vehicle_type_id":"4","last_reported":1737065277,"current_range_meters":38800,"station_id":"ce4bgn92rcd13ifvqbvg","pricing_plan_id":"cebpf4jnsgd1na2vs0mg"},{"bike_id":"12d1acc0-d47e-4031-b610-839a5a37f231","system_id":"levelo_inurba_marseille","lat":43.30788,"lon":5.37661,"is_reserved":false,"is_disabled":false,"rental_uris":{"android":"levelo://app?vid=12d1acc0-d47e-4031-b610-839a5a37f231","ios":"levelo://app?vid=12d1acc0-d47e-4031-b610-839a5a37f231"},"vehicle_type_id":"4","last_reported":1737065277,"current_range_meters":30400,"station_id":"ce4bgv92rcd13ifvqcq0","pricing_plan_id":"cebpf4jnsgd1na2vs0mg"},{"bike_id":"c1931c17-ec2c-4cd3-aec6-7705546720d7","system_id":"levelo_inurba_marseille","lat":43.30881,"lon":5.37189,"is_reserved":false,"is_disabled":false,"rental_uris":{"android":"levelo://app?vid=c1931c17-ec2c-4cd3-aec6-7705546720d7","ios":"levelo://app?vid=c1931c17-ec2c-4cd3-aec6-7705546720d7"},"vehicle_type_id":"4","last_reported":1737065277,"current_range_meters":19600,"station_id":"ce4bguh2rcd13ifvqckg","pricing_plan_id":"cebpf4jnsgd1na2vs0mg"},{"bike_id":"84ea5426-3fce-4231-9bdf-a79c77ac6453","system_id":"levelo_inurba_marseille","lat":43.27914,"lon":5.39572,"is_reserved":false,"is_disabled":true,"rental_uris":{"android":"levelo://app?vid=84ea5426-3fce-4231-9bdf-a79c77ac6453","ios":"levelo://app?vid=84ea5426-3fce-4231-9bdf-a79c77ac6453"},"vehicle_type_id":"4","last_reported":1737065277,"current_range_meters":1200,"station_id":"ce4bhf92rcd13ifvqf40","pricing_plan_id":"cebpf4jnsgd1na2vs0mg"},{"bike_id":"e501bc45-b105-4431-b368-9d9682b80a8a","system_id":"levelo_inurba_marseille","lat":43.24378,"lon":5.37059,"is_reserved":false,"is_disabled":false,"rental_uris":{"android":"levelo://app?vid=e501bc45-b105-4431-b368-9d9682b80a8a","ios":"levelo://app?vid=e501bc45-b105-4431-b368-9d9682b80a8a"},"vehicle_type_id":"4","last_reported":1737065277,"current_range_meters":39200,"station_id":"ce4bhhh2rcd13ifvqfk0","pricing_plan_id":"cebpf4jnsgd1na2vs0mg"},{"bike_id":"24bcc0cf-8c95-40af-8068-dc3c48d5cf59","system_id":"levelo_inurba_marseille","lat":43.33603,"lon":5.40964,"is_reserved":false,"is_disabled":false,"rental_uris":{"android":"levelo://app?vid=24bcc0cf-8c95-40af-8068-dc3c48d5cf59","ios":"levelo://app?vid=24bcc0cf-8c95-40af-8068-dc3c48d5cf59"},"vehicle_type_id":"4","last_reported":1737065277,"current_range_meters":38800,"station_id":"ce4bhqh2rcd13ifvqhmg","pricing_plan_id":"cebpf4jnsgd1na2vs0mg"},{"bike_id":"88f06cab-f371-470b-85ff-7238b57cbcc5","system_id":"levelo_inurba_marseille","lat":43.258686,"lon":5.398966,"is_reserved":false,"is_disabled":false,"rental_uris":{"android":"levelo://app?vid=88f06cab-f371-470b-85ff-7238b57cbcc5","ios":"levelo://app?vid=88f06cab-f371-470b-85ff-7238b57cbcc5"},"vehicle_type_id":"4","last_reported":1737065277,"current_range_meters":28000,"station_id":"ce4bhl92rcd13ifvqghg","pricing_plan_id":"cebpf4jnsgd1na2vs0mg"},{"bike_id":"6a7366d7-ed8c-4629-bf0c-70c2abcda36d","system_id":"levelo_inurba_marseille","lat":43.23187,"lon":5.35559,"is_reserved":false,"is_disabled":false,"rental_uris":{"android":"levelo://app?vid=6a7366d7-ed8c-4629-bf0c-70c2abcda36d","ios":"levelo://app?vid=6a7366d7-ed8c-4629-bf0c-70c2abcda36d"},"vehicle_type_id":"4","last_reported":1737065277,"current_range_meters":9600,"station_id":"ce4bhu92rcd13ifvqi70","pricing_plan_id":"cebpf4jnsgd1na2vs0mg"},{"bike_id":"fb728eb9-c6dd-478e-b742-f6d266b3696e","system_id":"levelo_inurba_marseille","lat":43.24056,"lon":5.37731,"is_reserved":false,"is_disabled":false,"rental_uris":{"android":"levelo://app?vid=fb728eb9-c6dd-478e-b742-f6d266b3696e","ios":"levelo://app?vid=fb728eb9-c6dd-478e-b742-f6d266b3696e"},"vehicle_type_id":"4","last_reported":1737065277,"current_range_meters":38000,"station_id":"ce4bhnp2rcd13ifvqgvg","pricing_plan_id":"cebpf4jnsgd1na2vs0mg"},{"bike_id":"2d7f3353-743b-41e1-85f2-e32181d4ae48","system_id":"levelo_inurba_marseille","lat":43.32018,"lon":5.38168,"is_reserved":false,"is_disabled":false,"rental_uris":{"android":"levelo://app?vid=2d7f3353-743b-41e1-85f2-e32181d4ae48","ios":"levelo://app?vid=2d7f3353-743b-41e1-85f2-e32181d4ae48"},"vehicle_type_id":"4","last_reported":1737065277,"current_range_meters":31200,"station_id":"ce4bhr12rcd13ifvqhpg","pricing_plan_id":"cebpf4jnsgd1na2vs0mg"},{"bike_id":"573076c8-1172-47e5-b129-cb987286e5ee","system_id":"levelo_inurba_marseille","lat":43.278087,"lon":5.407137,"is_reserved":false,"is_disabled":false,"rental_uris":{"android":"levelo://app?vid=573076c8-1172-47e5-b129-cb987286e5ee","ios":"levelo://app?vid=573076c8-1172-47e5-b129-cb987286e5ee"},"vehicle_type_id":"4","last_reported":1737065277,"current_range_meters":38800,"station_id":"ce4bhnh2rcd13ifvqgtg","pricing_plan_id":"cebpf4jnsgd1na2vs0mg"},{"bike_id":"35deb437-7ef2-4ee7-9ea5-27ce0001ca7b","system_id":"levelo_inurba_marseille","lat":43.26062,"lon":5.39426,"is_reserved":false,"is_disabled":false,"rental_uris":{"android":"levelo://app?vid=35deb437-7ef2-4ee7-9ea5-27ce0001ca7b","ios":"levelo://app?vid=35deb437-7ef2-4ee7-9ea5-27ce0001ca7b"},"vehicle_type_id":"4","last_reported":1737065277,"current_range_meters":38800,"station_id":"ce4bhh92rcd13ifvqfj0","pricing_plan_id":"cebpf4jnsgd1na2vs0mg"},{"bike_id":"7ff35c55-e122-426b-a7cf-e2e2bbfe5981","system_id":"levelo_inurba_marseille","lat":43.29209,"lon":5.36905,"is_reserved":false,"is_disabled":false,"rental_uris":{"android":"levelo://app?vid=7ff35c55-e122-426b-a7cf-e2e2bbfe5981","ios":"levelo://app?vid=7ff35c55-e122-426b-a7cf-e2e2bbfe5981"},"vehicle_type_id":"4","last_reported":1737065277,"current_range_meters":22800,"station_id":"","pricing_plan_id":"cebpf4jnsgd1na2vs0mg"},{"bike_id":"74dd2b96-e42e-4604-90a2-ea12934db450","system_id":"levelo_inurba_marseille","lat":43.28694,"lon":5.37395,"is_reserved":false,"is_disabled":false,"rental_uris":{"android":"levelo://app?vid=74dd2b96-e42e-4604-90a2-ea12934db450","ios":"levelo://app?vid=74dd2b96-e42e-4604-90a2-ea12934db450"},"vehicle_type_id":"4","last_reported":1737065277,"current_range_meters":30800,"station_id":"ce4bh3p2rcd13ifvqdq0","pricing_plan_id":"cebpf4jnsgd1na2vs0mg"},{"bike_id":"006eddf6-3b41-4a21-a985-f7a4350b5bf4","system_id":"levelo_inurba_marseille","lat":43.26065,"lon":5.394,"is_reserved":false,"is_disabled":false,"rental_uris":{"android":"levelo://app?vid=006eddf6-3b41-4a21-a985-f7a4350b5bf4","ios":"levelo://app?vid=006eddf6-3b41-4a21-a985-f7a4350b5bf4"},"vehicle_type_id":"4","last_reported":1737065277,"current_range_meters":31200,"station_id":"ce4bhh92rcd13ifvqfj0","pricing_plan_id":"cebpf4jnsgd1na2vs0mg"},{"bike_id":"ed6fa31d-6e12-4552-91b0-03f764193d1c","system_id":"levelo_inurba_marseille","lat":43.30896,"lon":5.39624,"is_reserved":false,"is_disabled":false,"rental_uris":{"android":"levelo://app?vid=ed6fa31d-6e12-4552-91b0-03f764193d1c","ios":"levelo://app?vid=ed6fa31d-6e12-4552-91b0-03f764193d1c"},"vehicle_type_id":"4","last_reported":1737065277,"current_range_meters":19600,"station_id":"ce4bh012rcd13ifvqcv0","pricing_plan_id":"cebpf4jnsgd1na2vs0mg"},{"bike_id":"c53a13d8-e508-41ef-872c-825cbb6cc016","system_id":"levelo_inurba_marseille","lat":43.26803,"lon":5.402637,"is_reserved":false,"is_disabled":false,"rental_uris":{"android":"levelo://app?vid=c53a13d8-e508-41ef-872c-825cbb6cc016","ios":"levelo://app?vid=c53a13d8-e508-41ef-872c-825cbb6cc016"},"vehicle_type_id":"4","last_reported":1737065277,"current_range_meters":38800,"station_id":"ce501612rcd8frsf0b60","pricing_plan_id":"cebpf4jnsgd1na2vs0mg"},{"bike_id":"e2b2f78a-aa43-4460-82ba-2098e62e5e5c","system_id":"levelo_inurba_marseille","lat":43.32334,"lon":5.40614,"is_reserved":false,"is_disabled":false,"rental_uris":{"android":"levelo://app?vid=e2b2f78a-aa43-4460-82ba-2098e62e5e5c","ios":"levelo://app?vid=e2b2f78a-aa43-4460-82ba-2098e62e5e5c"},"vehicle_type_id":"4","last_reported":1737065277,"current_range_meters":38800,"station_id":"ce4bhq92rcd13ifvqhjg","pricing_plan_id":"cebpf4jnsgd1na2vs0mg"},{"bike_id":"36452efb-96f9-445e-b317-33f71c9508e2","system_id":"levelo_inurba_marseille","lat":43.29454,"lon":5.38638,"is_reserved":false,"is_disabled":false,"rental_uris":{"android":"levelo://app?vid=36452efb-96f9-445e-b317-33f71c9508e2","ios":"levelo://app?vid=36452efb-96f9-445e-b317-33f71c9508e2"},"vehicle_type_id":"4","last_reported":1737065277,"current_range_meters":36800,"station_id":"ce4bh2h2rcd13ifvqdh0","pricing_plan_id":"cebpf4jnsgd1na2vs0mg"},{"bike_id":"5d42a98e-bef8-43af-946e-751274f82d4c","system_id":"levelo_inurba_marseille","lat":43.236579,"lon":5.435953,"is_reserved":false,"is_disabled":true,"rental_uris":{"android":"levelo://app?vid=5d42a98e-bef8-43af-946e-751274f82d4c","ios":"levelo://app?vid=5d42a98e-bef8-43af-946e-751274f82d4c"},"vehicle_type_id":"4","last_reported":1737065277,"current_range_meters":30000,"station_id":"","pricing_plan_id":"cebpf4jnsgd1na2vs0mg"},{"bike_id":"ef59a094-e507-458b-9fe0-1886acf1ab85","system_id":"levelo_inurba_marseille","lat":43.29524,"lon":5.39037,"is_reserved":false,"is_disabled":false,"rental_uris":{"android":"levelo://app?vid=ef59a094-e507-458b-9fe0-1886acf1ab85","ios":"levelo://app?vid=ef59a094-e507-458b-9fe0-1886acf1ab85"},"vehicle_type_id":"4","last_reported":1737065277,"current_range_meters":39200,"station_id":"ce4bh3p2rcd13ifvqdp0","pricing_plan_id":"cebpf4jnsgd1na2vs0mg"},{"bike_id":"9fef62c1-09f6-4d53-ab83-76888bceebbd","system_id":"levelo_inurba_marseille","lat":43.26195,"lon":5.42069,"is_reserved":false,"is_disabled":false,"rental_uris":{"android":"levelo://app?vid=9fef62c1-09f6-4d53-ab83-76888bceebbd","ios":"levelo://app?vid=9fef62c1-09f6-4d53-ab83-76888bceebbd"},"vehicle_type_id":"4","last_reported":1737065277,"current_range_meters":27600,"station_id":"","pricing_plan_id":"cebpf4jnsgd1na2vs0mg"},{"bike_id":"e81fcb6d-fd74-41a0-9349-bad6277ce826","system_id":"levelo_inurba_marseille","lat":43.29252,"lon":5.40903,"is_reserved":false,"is_disabled":false,"rental_uris":{"android":"levelo://app?vid=e81fcb6d-fd74-41a0-9349-bad6277ce826","ios":"levelo://app?vid=e81fcb6d-fd74-41a0-9349-bad6277ce826"},"vehicle_type_id":"4","last_reported":1737065277,"current_range_meters":39200,"station_id":"ce4bh192rcd13ifvqdc0","pricing_plan_id":"cebpf4jnsgd1na2vs0mg"},{"bike_id":"28f470e6-004d-41dc-a451-c260ad329b1d","system_id":"levelo_inurba_marseille","lat":43.27564,"lon":5.3841,"is_reserved":false,"is_disabled":false,"rental_uris":{"android":"levelo://app?vid=28f470e6-004d-41dc-a451-c260ad329b1d","ios":"levelo://app?vid=28f470e6-004d-41dc-a451-c260ad329b1d"},"vehicle_type_id":"4","last_reported":1737065277,"current_range_meters":36000,"station_id":"ce4bhh92rcd13ifvqfi0","pricing_plan_id":"cebpf4jnsgd1na2vs0mg"},{"bike_id":"f82b49c3-eae7-4beb-9bf0-f2964a4e2408","system_id":"levelo_inurba_marseille","lat":43.25865,"lon":5.39918,"is_reserved":false,"is_disabled":false,"rental_uris":{"android":"levelo://app?vid=f82b49c3-eae7-4beb-9bf0-f2964a4e2408","ios":"levelo://app?vid=f82b49c3-eae7-4beb-9bf0-f2964a4e2408"},"vehicle_type_id":"4","last_reported":1737065277,"current_range_meters":38800,"station_id":"ce4bhl92rcd13ifvqghg","pricing_plan_id":"cebpf4jnsgd1na2vs0mg"},{"bike_id":"045d6361-141b-4b5e-b276-bc12318a4524","system_id":"levelo_inurba_marseille","lat":43.30799,"lon":5.38137,"is_reserved":false,"is_disabled":false,"rental_uris":{"android":"levelo://app?vid=045d6361-141b-4b5e-b276-bc12318a4524","ios":"levelo://app?vid=045d6361-141b-4b5e-b276-bc12318a4524"},"vehicle_type_id":"4","last_reported":1737065277,"current_range_meters":38800,"station_id":"ce4bgt12rcd13ifvqce0","pricing_plan_id":"cebpf4jnsgd1na2vs0mg"},{"bike_id":"c00bc195-a15c-4f3b-9a6a-fb6af373d505","system_id":"levelo_inurba_marseille","lat":43.33087,"lon":5.39018,"is_reserved":false,"is_disabled":false,"rental_uris":{"android":"levelo://app?vid=c00bc195-a15c-4f3b-9a6a-fb6af373d505","ios":"levelo://app?vid=c00bc195-a15c-4f3b-9a6a-fb6af373d505"},"vehicle_type_id":"4","last_reported":1737065277,"current_range_meters":25200,"station_id":"","pricing_plan_id":"cebpf4jnsgd1na2vs0mg"},{"bike_id":"71b9d26b-1162-49db-b498-f140bd0e1c7d","system_id":"levelo_inurba_marseille","lat":43.29787,"lon":5.39344,"is_reserved":false,"is_disabled":false,"rental_uris":{"android":"levelo://app?vid=71b9d26b-1162-49db-b498-f140bd0e1c7d","ios":"levelo://app?vid=71b9d26b-1162-49db-b498-f140bd0e1c7d"},"vehicle_type_id":"4","last_reported":1737065277,"current_range_meters":32800,"station_id":"chh1huq6cuj3fo74tm60","pricing_plan_id":"cebpf4jnsgd1na2vs0mg"},{"bike_id":"af42890a-d5d4-4834-b68c-d80fa7cff1ff","system_id":"levelo_inurba_marseille","lat":43.23963,"lon":5.3664,"is_reserved":false,"is_disabled":false,"rental_uris":{"android":"levelo://app?vid=af42890a-d5d4-4834-b68c-d80fa7cff1ff","ios":"levelo://app?vid=af42890a-d5d4-4834-b68c-d80fa7cff1ff"},"vehicle_type_id":"4","last_reported":1737065277,"current_range_meters":38400,"station_id":"ce4bhi12rcd13ifvqfp0","pricing_plan_id":"cebpf4jnsgd1na2vs0mg"},{"bike_id":"22bcfc63-71b5-42f3-bcaa-3c604649d561","system_id":"levelo_inurba_marseille","lat":43.29421,"lon":5.38628,"is_reserved":false,"is_disabled":false,"rental_uris":{"android":"levelo://app?vid=22bcfc63-71b5-42f3-bcaa-3c604649d561","ios":"levelo://app?vid=22bcfc63-71b5-42f3-bcaa-3c604649d561"},"vehicle_type_id":"4","last_reported":1737065277,"current_range_meters":38800,"station_id":"ce4bh2h2rcd13ifvqdh0","pricing_plan_id":"cebpf4jnsgd1na2vs0mg"},{"bike_id":"e21a33db-4ff7-44b2-a73f-b5c05a38c476","system_id":"levelo_inurba_marseille","lat":43.25487,"lon":5.37648,"is_reserved":false,"is_disabled":false,"rental_uris":{"android":"levelo://app?vid=e21a33db-4ff7-44b2-a73f-b5c05a38c476","ios":"levelo://app?vid=e21a33db-4ff7-44b2-a73f-b5c05a38c476"},"vehicle_type_id":"4","last_reported":1737065277,"current_range_meters":37600,"station_id":"ce4bhh12rcd13ifvqff0","pricing_plan_id":"cebpf4jnsgd1na2vs0mg"},{"bike_id":"38e219c7-228a-464d-b509-0cd18ab7322b","system_id":"levelo_inurba_marseille","lat":43.31284,"lon":5.40165,"is_reserved":false,"is_disabled":false,"rental_uris":{"android":"levelo://app?vid=38e219c7-228a-464d-b509-0cd18ab7322b","ios":"levelo://app?vid=38e219c7-228a-464d-b509-0cd18ab7322b"},"vehicle_type_id":"4","last_reported":1737065277,"current_range_meters":38000,"station_id":"ce4bh092rcd13ifvqd30","pricing_plan_id":"cebpf4jnsgd1na2vs0mg"},{"bike_id":"ea68a76e-b4c6-4be9-ab98-1a2f34b18dea","system_id":"levelo_inurba_marseille","lat":43.24171,"lon":5.39735,"is_reserved":false,"is_disabled":false,"rental_uris":{"android":"levelo://app?vid=ea68a76e-b4c6-4be9-ab98-1a2f34b18dea","ios":"levelo://app?vid=ea68a76e-b4c6-4be9-ab98-1a2f34b18dea"},"vehicle_type_id":"4","last_reported":1737065277,"current_range_meters":18000,"station_id":"ce4bhn12rcd13ifvqgpg","pricing_plan_id":"cebpf4jnsgd1na2vs0mg"},{"bike_id":"58874e58-1fb6-449a-9ea6-fb1d16457557","system_id":"levelo_inurba_marseille","lat":43.27564,"lon":5.38422,"is_reserved":false,"is_disabled":false,"rental_uris":{"android":"levelo://app?vid=58874e58-1fb6-449a-9ea6-fb1d16457557","ios":"levelo://app?vid=58874e58-1fb6-449a-9ea6-fb1d16457557"},"vehicle_type_id":"4","last_reported":1737065277,"current_range_meters":24000,"station_id":"ce4bhh92rcd13ifvqfi0","pricing_plan_id":"cebpf4jnsgd1na2vs0mg"},{"bike_id":"a486527d-ab61-4f0a-a481-7382e3f08ab1","system_id":"levelo_inurba_marseille","lat":43.28069,"lon":5.39645,"is_reserved":false,"is_disabled":false,"rental_uris":{"android":"levelo://app?vid=a486527d-ab61-4f0a-a481-7382e3f08ab1","ios":"levelo://app?vid=a486527d-ab61-4f0a-a481-7382e3f08ab1"},"vehicle_type_id":"4","last_reported":1737065277,"current_range_meters":18000,"station_id":"ce4bho12rcd13ifvqh2g","pricing_plan_id":"cebpf4jnsgd1na2vs0mg"},{"bike_id":"adcf948d-f764-4480-a63e-dadc9d72f803","system_id":"levelo_inurba_marseille","lat":43.317,"lon":5.3777,"is_reserved":false,"is_disabled":false,"rental_uris":{"android":"levelo://app?vid=adcf948d-f764-4480-a63e-dadc9d72f803","ios":"levelo://app?vid=adcf948d-f764-4480-a63e-dadc9d72f803"},"vehicle_type_id":"4","last_reported":1737065277,"current_range_meters":27600,"station_id":"ce4bgth2rcd13ifvqch0","pricing_plan_id":"cebpf4jnsgd1na2vs0mg"},{"bike_id":"7383474c-b45a-4438-837c-99d7ae866fe7","system_id":"levelo_inurba_marseille","lat":43.260605,"lon":5.393925,"is_reserved":false,"is_disabled":false,"rental_uris":{"android":"levelo://app?vid=7383474c-b45a-4438-837c-99d7ae866fe7","ios":"levelo://app?vid=7383474c-b45a-4438-837c-99d7ae866fe7"},"vehicle_type_id":"4","last_reported":1737065277,"current_range_meters":38800,"station_id":"ce4bhh92rcd13ifvqfj0","pricing_plan_id":"cebpf4jnsgd1na2vs0mg"},{"bike_id":"04087219-b91e-4c26-957d-42bfbda20cd2","system_id":"levelo_inurba_marseille","lat":43.27564,"lon":5.38422,"is_reserved":false,"is_disabled":false,"rental_uris":{"android":"levelo://app?vid=04087219-b91e-4c26-957d-42bfbda20cd2","ios":"levelo://app?vid=04087219-b91e-4c26-957d-42bfbda20cd2"},"vehicle_type_id":"4","last_reported":1737065277,"current_range_meters":36400,"station_id":"ce4bhh92rcd13ifvqfi0","pricing_plan_id":"cebpf4jnsgd1na2vs0mg"},{"bike_id":"69ae9584-9a03-4c67-af99-00b3bcfab561","system_id":"levelo_inurba_marseille","lat":43.27827,"lon":5.40714,"is_reserved":false,"is_disabled":false,"rental_uris":{"android":"levelo://app?vid=69ae9584-9a03-4c67-af99-00b3bcfab561","ios":"levelo://app?vid=69ae9584-9a03-4c67-af99-00b3bcfab561"},"vehicle_type_id":"4","last_reported":1737065277,"current_range_meters":30400,"station_id":"ce4bhnh2rcd13ifvqgtg","pricing_plan_id":"cebpf4jnsgd1na2vs0mg"},{"bike_id":"9eb8e58d-02d8-47e4-a3bd-13b422680bda","system_id":"levelo_inurba_marseille","lat":43.294219,"lon":5.386258,"is_reserved":false,"is_disabled":false,"rental_uris":{"android":"levelo://app?vid=9eb8e58d-02d8-47e4-a3bd-13b422680bda","ios":"levelo://app?vid=9eb8e58d-02d8-47e4-a3bd-13b422680bda"},"vehicle_type_id":"4","last_reported":1737065277,"current_range_meters":38800,"station_id":"ce4bh2h2rcd13ifvqdh0","pricing_plan_id":"cebpf4jnsgd1na2vs0mg"},{"bike_id":"b82c28aa-448a-4c9c-bdfb-9251a34cfa65","system_id":"levelo_inurba_marseille","lat":43.29182,"lon":5.39372,"is_reserved":false,"is_disabled":false,"rental_uris":{"android":"levelo://app?vid=b82c28aa-448a-4c9c-bdfb-9251a34cfa65","ios":"levelo://app?vid=b82c28aa-448a-4c9c-bdfb-9251a34cfa65"},"vehicle_type_id":"4","last_reported":1737065277,"current_range_meters":16400,"station_id":"","pricing_plan_id":"cebpf4jnsgd1na2vs0mg"},{"bike_id":"b40614b7-3a44-4202-8806-9fd2213aa7fa","system_id":"levelo_inurba_marseille","lat":43.29886,"lon":5.39737,"is_reserved":false,"is_disabled":false,"rental_uris":{"android":"levelo://app?vid=b40614b7-3a44-4202-8806-9fd2213aa7fa","ios":"levelo://app?vid=b40614b7-3a44-4202-8806-9fd2213aa7fa"},"vehicle_type_id":"4","last_reported":1737065277,"current_range_meters":28400,"station_id":"ce4bh0h2rcd13ifvqd50","pricing_plan_id":"cebpf4jnsgd1na2vs0mg"},{"bike_id":"edbc6385-e58d-40d1-a4cd-29d7cc705f4e","system_id":"levelo_inurba_marseille","lat":43.29331,"lon":5.3844,"is_reserved":false,"is_disabled":false,"rental_uris":{"android":"levelo://app?vid=edbc6385-e58d-40d1-a4cd-29d7cc705f4e","ios":"levelo://app?vid=edbc6385-e58d-40d1-a4cd-29d7cc705f4e"},"vehicle_type_id":"4","last_reported":1737065277,"current_range_meters":24000,"station_id":"","pricing_plan_id":"cebpf4jnsgd1na2vs0mg"},{"bike_id":"66ecc205-2fae-4213-9be3-91528272c1e6","system_id":"levelo_inurba_marseille","lat":43.23192,"lon":5.3555,"is_reserved":false,"is_disabled":false,"rental_uris":{"android":"levelo://app?vid=66ecc205-2fae-4213-9be3-91528272c1e6","ios":"levelo://app?vid=66ecc205-2fae-4213-9be3-91528272c1e6"},"vehicle_type_id":"4","last_reported":1737065277,"current_range_meters":38000,"station_id":"ce4bhu92rcd13ifvqi70","pricing_plan_id":"cebpf4jnsgd1na2vs0mg"},{"bike_id":"7c499445-ce78-43c5-b283-d6aa7b1f5c91","system_id":"levelo_inurba_marseille","lat":43.30138,"lon":5.38845,"is_reserved":false,"is_disabled":false,"rental_uris":{"android":"levelo://app?vid=7c499445-ce78-43c5-b283-d6aa7b1f5c91","ios":"levelo://app?vid=7c499445-ce78-43c5-b283-d6aa7b1f5c91"},"vehicle_type_id":"4","last_reported":1737065277,"current_range_meters":8000,"station_id":"","pricing_plan_id":"cebpf4jnsgd1na2vs0mg"},{"bike_id":"7bff17cc-1c44-40d8-87ad-42c14976da2f","system_id":"levelo_inurba_marseille","lat":43.30579,"lon":5.38108,"is_reserved":false,"is_disabled":false,"rental_uris":{"android":"levelo://app?vid=7bff17cc-1c44-40d8-87ad-42c14976da2f","ios":"levelo://app?vid=7bff17cc-1c44-40d8-87ad-42c14976da2f"},"vehicle_type_id":"4","last_reported":1737065277,"current_range_meters":10800,"station_id":"","pricing_plan_id":"cebpf4jnsgd1na2vs0mg"},{"bike_id":"44721705-52d0-4eba-b0b2-b41ea9586411","system_id":"levelo_inurba_marseille","lat":43.232,"lon":5.35546,"is_reserved":false,"is_disabled":false,"rental_uris":{"android":"levelo://app?vid=44721705-52d0-4eba-b0b2-b41ea9586411","ios":"levelo://app?vid=44721705-52d0-4eba-b0b2-b41ea9586411"},"vehicle_type_id":"4","last_reported":1737065277,"current_range_meters":32800,"station_id":"ce4bhu92rcd13ifvqi70","pricing_plan_id":"cebpf4jnsgd1na2vs0mg"},{"bike_id":"b1c76eb4-e5ec-4ec4-abcf-d9d0a5284616","system_id":"levelo_inurba_marseille","lat":43.28701,"lon":5.37388,"is_reserved":false,"is_disabled":false,"rental_uris":{"android":"levelo://app?vid=b1c76eb4-e5ec-4ec4-abcf-d9d0a5284616","ios":"levelo://app?vid=b1c76eb4-e5ec-4ec4-abcf-d9d0a5284616"},"vehicle_type_id":"4","last_reported":1737065277,"current_range_meters":36800,"station_id":"ce4bh3p2rcd13ifvqdq0","pricing_plan_id":"cebpf4jnsgd1na2vs0mg"},{"bike_id":"e5ec9bff-f396-47e1-bb83-9047625e0ba0","system_id":"levelo_inurba_marseille","lat":43.30456,"lon":5.38892,"is_reserved":false,"is_disabled":false,"rental_uris":{"android":"levelo://app?vid=e5ec9bff-f396-47e1-bb83-9047625e0ba0","ios":"levelo://app?vid=e5ec9bff-f396-47e1-bb83-9047625e0ba0"},"vehicle_type_id":"4","last_reported":1737065277,"current_range_meters":39200,"station_id":"ce4bgk12rcd13ifvqbi0","pricing_plan_id":"cebpf4jnsgd1na2vs0mg"},{"bike_id":"08f98970-10ec-408a-ae09-53fa74afe2ba","system_id":"levelo_inurba_marseille","lat":43.26805,"lon":5.40272,"is_reserved":false,"is_disabled":false,"rental_uris":{"android":"levelo://app?vid=08f98970-10ec-408a-ae09-53fa74afe2ba","ios":"levelo://app?vid=08f98970-10ec-408a-ae09-53fa74afe2ba"},"vehicle_type_id":"4","last_reported":1737065277,"current_range_meters":38800,"station_id":"ce501612rcd8frsf0b60","pricing_plan_id":"cebpf4jnsgd1na2vs0mg"},{"bike_id":"35dd015f-b258-486a-a092-392de90bf418","system_id":"levelo_inurba_marseille","lat":43.28469,"lon":5.38432,"is_reserved":false,"is_disabled":false,"rental_uris":{"android":"levelo://app?vid=35dd015f-b258-486a-a092-392de90bf418","ios":"levelo://app?vid=35dd015f-b258-486a-a092-392de90bf418"},"vehicle_type_id":"4","last_reported":1737065277,"current_range_meters":38000,"station_id":"ce4bh512rcd13ifvqe3g","pricing_plan_id":"cebpf4jnsgd1na2vs0mg"},{"bike_id":"65ce034a-f255-430b-b7d5-7d708fcfda04","system_id":"levelo_inurba_marseille","lat":43.28277,"lon":5.35072,"is_reserved":false,"is_disabled":false,"rental_uris":{"android":"levelo://app?vid=65ce034a-f255-430b-b7d5-7d708fcfda04","ios":"levelo://app?vid=65ce034a-f255-430b-b7d5-7d708fcfda04"},"vehicle_type_id":"4","last_reported":1737065277,"current_range_meters":38800,"station_id":"ce4bhbp2rcd13ifvqerg","pricing_plan_id":"cebpf4jnsgd1na2vs0mg"},{"bike_id":"8b3c2d11-48fd-4835-89bb-21ea4715e93f","system_id":"levelo_inurba_marseille","lat":43.29539,"lon":5.38545,"is_reserved":false,"is_disabled":false,"rental_uris":{"android":"levelo://app?vid=8b3c2d11-48fd-4835-89bb-21ea4715e93f","ios":"levelo://app?vid=8b3c2d11-48fd-4835-89bb-21ea4715e93f"},"vehicle_type_id":"4","last_reported":1737065277,"current_range_meters":11600,"station_id":"ce4bgih2rcd13ifvqba0","pricing_plan_id":"cebpf4jnsgd1na2vs0mg"},{"bike_id":"d0b99c82-423c-44ce-98f1-87a1e3a9dd17","system_id":"levelo_inurba_marseille","lat":43.29796,"lon":5.39345,"is_reserved":false,"is_disabled":false,"rental_uris":{"android":"levelo://app?vid=d0b99c82-423c-44ce-98f1-87a1e3a9dd17","ios":"levelo://app?vid=d0b99c82-423c-44ce-98f1-87a1e3a9dd17"},"vehicle_type_id":"4","last_reported":1737065277,"current_range_meters":12400,"station_id":"chh1huq6cuj3fo74tm60","pricing_plan_id":"cebpf4jnsgd1na2vs0mg"},{"bike_id":"e1f9a0b5-1419-4e67-ab24-a72ee45dfd85","system_id":"levelo_inurba_marseille","lat":43.241702,"lon":5.363885,"is_reserved":false,"is_disabled":false,"rental_uris":{"android":"levelo://app?vid=e1f9a0b5-1419-4e67-ab24-a72ee45dfd85","ios":"levelo://app?vid=e1f9a0b5-1419-4e67-ab24-a72ee45dfd85"},"vehicle_type_id":"4","last_reported":1737065277,"current_range_meters":18800,"station_id":"cpo36qri1sfpv3e86is0","pricing_plan_id":"cebpf4jnsgd1na2vs0mg"},{"bike_id":"b88b0b7d-040f-4bad-971b-f02cd58f287a","system_id":"levelo_inurba_marseille","lat":43.29419,"lon":5.38669,"is_reserved":false,"is_disabled":false,"rental_uris":{"android":"levelo://app?vid=b88b0b7d-040f-4bad-971b-f02cd58f287a","ios":"levelo://app?vid=b88b0b7d-040f-4bad-971b-f02cd58f287a"},"vehicle_type_id":"4","last_reported":1737065277,"current_range_meters":36800,"station_id":"ce4bh2h2rcd13ifvqdh0","pricing_plan_id":"cebpf4jnsgd1na2vs0mg"},{"bike_id":"f51a9b07-3004-4d58-8a3a-83c0d7d701ff","system_id":"levelo_inurba_marseille","lat":43.30425,"lon":5.38886,"is_reserved":false,"is_disabled":false,"rental_uris":{"android":"levelo://app?vid=f51a9b07-3004-4d58-8a3a-83c0d7d701ff","ios":"levelo://app?vid=f51a9b07-3004-4d58-8a3a-83c0d7d701ff"},"vehicle_type_id":"4","last_reported":1737065277,"current_range_meters":31200,"station_id":"ce4bgk12rcd13ifvqbi0","pricing_plan_id":"cebpf4jnsgd1na2vs0mg"},