{"last_updated":1719227339,"ttl":30,"version":"2.2","data":{"bikes":[{"bike_id":"8add79f2-0173-46f6-9d72-a4d604b17ce4","system_id":"levelo_inurba_marseille","lat":43.31341,"lon":5.367098,"is_reserved":false,"is_disabled":false,"rental_uris":{"android":"levelo://app?vid=8add79f2-0173-46f6-9d72-a4d604b17ce4","ios":"levelo://app?vid=8add79f2-0173-46f6-9d72-a4d604b17ce4"},"vehicle_type_id":"4","last_reported":1719227339,"current_range_meters":19200,"station_id":"ce4bgr92rcd13ifvqc6g","pricing_plan_id":"cebpf4jnsgd1na2vs0mg"},{"bike_id":"d16aa032-857b-421c-ae8b-2065d44fc3c0","system_id":"levelo_inurba_marseille","lat":43.31341,"lon":5.367098,"is_reserved":false,"is_disabled":false,"rental_uris":{"android":"levelo://app?vid=d16aa032-857b-421c-ae8b-2065d44fc3c0","ios":"levelo://app?vid=d16aa032-857b-421c-ae8b-2065d44fc3c0"},"vehicle_type_id":"4","last_reported":1719227339,"current_range_meters":19600,"station_id":"ce4bgr92rcd13ifvqc6g","pricing_plan_id":"cebpf4jnsgd1na2vs0mg"},{"bike_id":"d8409057-282b-4c52-b64c-a173978e17e5","system_id":"levelo_inurba_marseille","lat":43.31341,"lon":5.367098,"is_reserved":false,"is_disabled":false,"rental_uris":{"android":"levelo://app?vid=d8409057-282b-4c52-b64c-a173978e17e5","ios":"levelo://app?vid=d8409057-282b-4c52-b64c-a173978e17e5"},"vehicle_type_id":"4","last_reported":1719227339,"current_range_meters":32000,"station_id":"ce4bgr92rcd13ifvqc6g","pricing_plan_id":"cebpf4jnsgd1na2vs0mg"},{"bike_id":"ade9619b-6986-465b-99bb-064d99b920b3","system_id":"levelo_inurba_marseille","lat":43.31341,"lon":5.367098,"is_reserved":false,"is_disabled":false,"rental_uris":{"android":"levelo://app?vid=ade9619b-6986-465b-99bb-064d99b920b3","ios":"levelo://app?vid=ade9619b-6986-465b-99bb-064d99b920b3"},"vehicle_type_id":"4","last_reported":1719227339,"current_range_meters":11200,"station_id":"ce4bgr92rcd13ifvqc6g","pricing_plan_id":"cebpf4jnsgd1na2vs0mg"},{"bike_id":"405e03b2-ab38-4948-9e52-b40431e44963","system_id":"levelo_inurba_marseille","lat":43.31341,"lon":5.367098,"is_reserved":false,"is_disabled":false,"rental_uris":{"android":"levelo://app?vid=405e03b2-ab38-4948-9e52-b40431e44963","ios":"levelo://app?vid=405e03b2-ab38-4948-9e52-b40431e44963"},"vehicle_type_id":"4","last_reported":1719227339,"current_range_meters":5200,"station_id":"ce4bgr92rcd13ifvqc6g","pricing_plan_id":"cebpf4jnsgd1na2vs0mg"},{"bike_id":"3a6c9a53-6d12-4f1d-8607-e04e6d9599ba","system_id":"levelo_inurba_marseille","lat":43.312239,"lon":5.368562,"is_reserved":false,"is_disabled":false,"rental_uris":{"android":"levelo://app?vid=3a6c9a53-6d12-4f1d-8607-e04e6d9599ba","ios":"levelo://app?vid=3a6c9a53-6d12-4f1d-8607-e04e6d9599ba"},"vehicle_type_id":"4","last_reported":1719227339,"current_range_meters":31600,"station_id":"ce4bgl92rcd13ifvqbq0","pricing_plan_id":"cebpf4jnsgd1na2vs0mg"},{"bike_id":"9d078003-233b-4000-82ee-ebb106d842b6","system_id":"levelo_inurba_marseille","lat":43.312239,"lon":5.368562,"is_reserved":false,"is_disabled":false,"rental_uris":{"android":"levelo://app?vid=9d078003-233b-4000-82ee-ebb106d842b6","ios":"levelo://app?vid=9d078003-233b-4000-82ee-ebb106d842b6"},"vehicle_type_id":"4","last_reported":1719227339,"current_range_meters":10000,"station_id":"ce4bgl92rcd13ifvqbq0","pricing_plan_id":"cebpf4jnsgd1na2vs0mg"},{"bike_id":"856d4be4-07a6-4806-aedf-8943949ee82e","system_id":"levelo_inurba_marseille","lat":43.312239,"lon":5.368562,"is_reserved":false,"is_disabled":false,"rental_uris":{"android":"levelo://app?vid=856d4be4-07a6-4806-aedf-8943949ee82e","ios":"levelo://app?vid=856d4be4-07a6-4806-aedf-8943949ee82e"},"vehicle_type_id":"4","last_reported":1719227339,"current_range_meters":12000,"station_id":"ce4bgl92rcd13ifvqbq0","pricing_plan_id":"cebpf4jnsgd1na2vs0mg"},{"bike_id":"64e980df-b1bb-43dc-ba8c-ceb6aa35a323","system_id":"levelo_inurba_marseille","lat":43.312239,"lon":5.368562,"is_reserved":false,"is_disabled":false,"rental_uris":{"android":"levelo://app?vid=64e980df-b1bb-43dc-ba8c-ceb6aa35a323","ios":"levelo://app?vid=64e980df-b1bb-43dc-ba8c-ceb6aa35a323"},"vehicle_type_id":"4","last_reported":1719227339,"current_range_meters":19600,"station_id":"ce4bgl92rcd13ifvqbq0","pricing_plan_id":"cebpf4jnsgd1na2vs0mg"},{"bike_id":"0b2ff2e5-bcee-40e1-a9ad-781dfa94659b","system_id":"levelo_inurba_marseille","lat":43.312239,"lon":5.368562,"is_reserved":false,"is_disabled":false,"rental_uris":{"android":"levelo://app?vid=0b2ff2e5-bcee-40e1-a9ad-781dfa94659b","ios":"levelo://app?vid=0b2ff2e5-bcee-40e1-a9ad-781dfa94659b"},"vehicle_type_id":"4","last_reported":1719227339,"current_range_meters":24400,"station_id":"ce4bgl92rcd13ifvqbq0","pricing_plan_id":"cebpf4jnsgd1na2vs0mg"},{"bike_id":"5de5cbde-78fc-4545-ae57-f4259ee00d28","system_id":"levelo_inurba_marseille","lat":43.309076,"lon":5.368465,"is_reserved":false,"is_disabled":false,"rental_uris":{"android":"levelo://app?vid=5de5cbde-78fc-4545-ae57-f4259ee00d28","ios":"levelo://app?vid=5de5cbde-78fc-4545-ae57-f4259ee00d28"},"vehicle_type_id":"4","last_reported":1719227339,"current_range_meters":24400,"station_id":"ce4bgn92rcd13ifvqbvg","pricing_plan_id":"cebpf4jnsgd1na2vs0mg"},{"bike_id":"51450d8d-4fbb-4502-883d-9b1acfc2850a","system_id":"levelo_inurba_marseille","lat":43.309076,"lon":5.368465,"is_reserved":false,"is_disabled":false,"rental_uris":{"android":"levelo://app?vid=51450d8d-4fbb-4502-883d-9b1acfc2850a","ios":"levelo://app?vid=51450d8d-4fbb-4502-883d-9b1acfc2850a"},"vehicle_type_id":"4","last_reported":1719227339,"current_range_meters":29600,"station_id":"ce4bgn92rcd13ifvqbvg","pricing_plan_id":"cebpf4jnsgd1na2vs0mg"},{"bike_id":"74d5f98d-49f4-4afe-83bc-74199de21c93","system_id":"levelo_inurba_marseille","lat":43.309076,"lon":5.368465,"is_reserved":false,"is_disabled":false,"rental_uris":{"android":"levelo://app?vid=74d5f98d-49f4-4afe-83bc-74199de21c93","ios":"levelo://app?vid=74d5f98d-49f4-4afe-83bc-74199de21c93"},"vehicle_type_id":"4","last_reported":1719227339,"current_range_meters":9600,"station_id":"ce4bgn92rcd13ifvqbvg","pricing_plan_id":"cebpf4jnsgd1na2vs0mg"},{"bike_id":"5fa36c34-f70a-4660-a391-80a5494cb7fc","system_id":"levelo_inurba_marseille","lat":43.309076,"lon":5.368465,"is_reserved":false,"is_disabled":false,"rental_uris":{"android":"levelo://app?vid=5fa36c34-f70a-4660-a391-80a5494cb7fc","ios":"levelo://app?vid=5fa36c34-f70a-4660-a391-80a5494cb7fc"},"vehicle_type_id":"4","last_reported":1719227339,"current_range_meters":22800,"station_id":"ce4bgn92rcd13ifvqbvg","pricing_plan_id":"cebpf4jnsgd1na2vs0mg"},{"bike_id":"88279bcd-306d-413d-9170-f16698385da9","system_id":"levelo_inurba_marseille","lat":43.309132,"lon":5.368443,"is_reserved":false,"is_disabled":false,"rental_uris":{"android":"levelo://app?vid=88279bcd-306d-413d-9170-f16698385da9","ios":"levelo://app?vid=88279bcd-306d-413d-9170-f16698385da9"},"vehicle_type_id":"4","last_reported":1719227339,"current_range_meters":18400,"station_id":"ce4bgn92rcd13ifvqbvg","pricing_plan_id":"cebpf4jnsgd1na2vs0mg"},{"bike_id":"2d30d533-9b86-48a6-8dcd-eec071b241c8","system_id":"levelo_inurba_marseille","lat":43.309076,"lon":5.368465,"is_reserved":false,"is_disabled":false,"rental_uris":{"android":"levelo://app?vid=2d30d533-9b86-48a6-8dcd-eec071b241c8","ios":"levelo://app?vid=2d30d533-9b86-48a6-8dcd-eec071b241c8"},"vehicle_type_id":"4","last_reported":1719227339,"current_range_meters":17600,"station_id":"ce4bgn92rcd13ifvqbvg","pricing_plan_id":"cebpf4jnsgd1na2vs0mg"},{"bike_id":"d09266a0-4fee-452f-9d63-a49797a82fbc","system_id":"levelo_inurba_marseille","lat":43.309136,"lon":5.368507,"is_reserved":false,"is_disabled":false,"rental_uris":{"android":"levelo://app?vid=d09266a0-4fee-452f-9d63-a49797a82fbc","ios":"levelo://app?vid=d09266a0-4fee-452f-9d63-a49797a82fbc"},"vehicle_type_id":"4","last_reported":1719227339,"current_range_meters":16000,"station_id":"ce4bgn92rcd13ifvqbvg","pricing_plan_id":"cebpf4jnsgd1na2vs0mg"},{"bike_id":"d9fc6799-155b-411e-b8ab-9230ef6a152e","system_id":"levelo_inurba_marseille","lat":43.309076,"lon":5.368465,"is_reserved":false,"is_disabled":false,"rental_uris":{"android":"levelo://app?vid=d9fc6799-155b-411e-b8ab-9230ef6a152e","ios":"levelo://app?vid=d9fc6799-155b-411e-b8ab-9230ef6a152e"},"vehicle_type_id":"4","last_reported":1719227339,"current_range_meters":31200,"station_id":"ce4bgn92rcd13ifvqbvg","pricing_plan_id":"cebpf4jnsgd1na2vs0mg"},{"bike_id":"4d6cdbbe-b784-49ea-80b2-b781920f0676","system_id":"levelo_inurba_marseille","lat":43.309076,"lon":5.368465,"is_reserved":false,"is_disabled":false,"rental_uris":{"android":"levelo://app?vid=4d6cdbbe-b784-49ea-80b2-b781920f0676","ios":"levelo://app?vid=4d6cdbbe-b784-49ea-80b2-b781920f0676"},"vehicle_type_id":"4","last_reported":1719227339,"current_range_meters":32000,"station_id":"ce4bgn92rcd13ifvqbvg","pricing_plan_id":"cebpf4jnsgd1na2vs0mg"},{"bike_id":"bf14b00a-2c2d-4ed1-b2d5-ad656f7ce9fb","system_id":"levelo_inurba_marseille","lat":43.30911,"lon":5.368464,"is_reserved":false,"is_disabled":false,"rental_uris":{"android":"levelo://app?vid=bf14b00a-2c2d-4ed1-b2d5-ad656f7ce9fb","ios":"levelo://app?vid=bf14b00a-2c2d-4ed1-b2d5-ad656f7ce9fb"},"vehicle_type_id":"4","last_reported":1719227339,"current_range_meters":25200,"station_id":"ce4bgn92rcd13ifvqbvg","pricing_plan_id":"cebpf4jnsgd1na2vs0mg"},{"bike_id":"aded4956-d515-46ae-b02e-8f28c5364d25","system_id":"levelo_inurba_marseille","lat":43.30911,"lon":5.3685,"is_reserved":false,"is_disabled":false,"rental_uris":{"android":"levelo://app?vid=aded4956-d515-46ae-b02e-8f28c5364d25","ios":"levelo://app?vid=aded4956-d515-46ae-b02e-8f28c5364d25"},"vehicle_type_id":"4","last_reported":1719227339,"current_range_meters":24800,"station_id":"ce4bgn92rcd13ifvqbvg","pricing_plan_id":"cebpf4jnsgd1na2vs0mg"},{"bike_id":"76c3a090-4ce0-442a-9d14-b1c37b9ba85e","system_id":"levelo_inurba_marseille","lat":43.309076,"lon":5.368465,"is_reserved":false,"is_disabled":false,"rental_uris":{"android":"levelo://app?vid=76c3a090-4ce0-442a-9d14-b1c37b9ba85e","ios":"levelo://app?vid=76c3a090-4ce0-442a-9d14-b1c37b9ba85e"},"vehicle_type_id":"4","last_reported":1719227339,"current_range_meters":31600,"station_id":"ce4bgn92rcd13ifvqbvg","pricing_plan_id":"cebpf4jnsgd1na2vs0mg"},{"bike_id":"92c44e16-ec25-4577-88a5-66118e3e803d","system_id":"levelo_inurba_marseille","lat":43.309076,"lon":5.368465,"is_reserved":false,"is_disabled":false,"rental_uris":{"android":"levelo://app?vid=92c44e16-ec25-4577-88a5-66118e3e803d","ios":"levelo://app?vid=92c44e16-ec25-4577-88a5-66118e3e803d"},"vehicle_type_id":"4","last_reported":1719227339,"current_range_meters":27600,"station_id":"ce4bgn92rcd13ifvqbvg","pricing_plan_id":"cebpf4jnsgd1na2vs0mg"},{"bike_id":"07042176-1b2b-4486-9dc3-5b37db0cd453","system_id":"levelo_inurba_marseille","lat":43.309076,"lon":5.368465,"is_reserved":false,"is_disabled":false,"rental_uris":{"android":"levelo://app?vid=07042176-1b2b-4486-9dc3-5b37db0cd453","ios":"levelo://app?vid=07042176-1b2b-4486-9dc3-5b37db0cd453"},"vehicle_type_id":"4","last_reported":1719227339,"current_range_meters":19600,"station_id":"ce4bgn92rcd13ifvqbvg","pricing_plan_id":"cebpf4jnsgd1na2vs0mg"},{"bike_id":"f64a28ae-3dca-4fe5-ae94-113d03afa6e7","system_id":"levelo_inurba_marseille","lat":43.314811,"lon":5.373104,"is_reserved":false,"is_disabled":false,"rental_uris":{"android":"levelo://app?vid=f64a28ae-3dca-4fe5-ae94-113d03afa6e7","ios":"levelo://app?vid=f64a28ae-3dca-4fe5-ae94-113d03afa6e7"},"vehicle_type_id":"4","last_reported":1719227339,"current_range_meters":23600,"station_id":"ce4bgt12rcd13ifvqcd0","pricing_plan_id":"cebpf4jnsgd1na2vs0mg"},{"bike_id":"cf96b0b1-ee30-4915-8930-43950e64fa60","system_id":"levelo_inurba_marseille","lat":43.314905,"lon":5.373115,"is_reserved":false,"is_disabled":false,"rental_uris":{"android":"levelo://app?vid=cf96b0b1-ee30-4915-8930-43950e64fa60","ios":"levelo://app?vid=cf96b0b1-ee30-4915-8930-43950e64fa60"},"vehicle_type_id":"4","last_reported":1719227339,"current_range_meters":31200,"station_id":"ce4bgt12rcd13ifvqcd0","pricing_plan_id":"cebpf4jnsgd1na2vs0mg"},{"bike_id":"93dcb1e9-c17c-4948-b28c-082c97f9830d","system_id":"levelo_inurba_marseille","lat":43.309039,"lon":5.371797,"is_reserved":false,"is_disabled":false,"rental_uris":{"android":"levelo://app?vid=93dcb1e9-c17c-4948-b28c-082c97f9830d","ios":"levelo://app?vid=93dcb1e9-c17c-4948-b28c-082c97f9830d"},"vehicle_type_id":"4","last_reported":1719227339,"current_range_meters":15600,"station_id":"ce4bguh2rcd13ifvqckg","pricing_plan_id":"cebpf4jnsgd1na2vs0mg"},{"bike_id":"3e6229a9-daa1-4e8e-b7ec-60b28f97252f","system_id":"levelo_inurba_marseille","lat":43.314521,"lon":5.373709,"is_reserved":false,"is_disabled":false,"rental_uris":{"android":"levelo://app?vid=3e6229a9-daa1-4e8e-b7ec-60b28f97252f","ios":"levelo://app?vid=3e6229a9-daa1-4e8e-b7ec-60b28f97252f"},"vehicle_type_id":"4","last_reported":1719227339,"current_range_meters":1600,"station_id":"","pricing_plan_id":"cebpf4jnsgd1na2vs0mg"},{"bike_id":"77460ccb-960a-4153-8783-e0a172f31a95","system_id":"levelo_inurba_marseille","lat":43.314513,"lon":5.373723,"is_reserved":false,"is_disabled":false,"rental_uris":{"android":"levelo://app?vid=77460ccb-960a-4153-8783-e0a172f31a95","ios":"levelo://app?vid=77460ccb-960a-4153-8783-e0a172f31a95"},"vehicle_type_id":"4","last_reported":1719227339,"current_range_meters":6800,"station_id":"","pricing_plan_id":"cebpf4jnsgd1na2vs0mg"},{"bike_id":"ce35f461-c4e3-4a38-96f2-4940c1cca126","system_id":"levelo_inurba_marseille","lat":43.309034,"lon":5.371783,"is_reserved":false,"is_disabled":false,"rental_uris":{"android":"levelo://app?vid=ce35f461-c4e3-4a38-96f2-4940c1cca126","ios":"levelo://app?vid=ce35f461-c4e3-4a38-96f2-4940c1cca126"},"vehicle_type_id":"4","last_reported":1719227339,"current_range_meters":10000,"station_id":"ce4bguh2rcd13ifvqckg","pricing_plan_id":"cebpf4jnsgd1na2vs0mg"},{"bike_id":"32c9f45e-fc24-44da-af11-29465d655449","system_id":"levelo_inurba_marseille","lat":43.30537,"lon":5.367345,"is_reserved":false,"is_disabled":false,"rental_uris":{"android":"levelo://app?vid=32c9f45e-fc24-44da-af11-29465d655449","ios":"levelo://app?vid=32c9f45e-fc24-44da-af11-29465d655449"},"vehicle_type_id":"4","last_reported":1719227339,"current_range_meters":29200,"station_id":"ce4bgrp2rcd13ifvqc9g","pricing_plan_id":"cebpf4jnsgd1na2vs0mg"},{"bike_id":"280d6821-bd00-4b58-b28f-18b7a915d98c","system_id":"levelo_inurba_marseille","lat":43.30537,"lon":5.367345,"is_reserved":false,"is_disabled":false,"rental_uris":{"android":"levelo://app?vid=280d6821-bd00-4b58-b28f-18b7a915d98c","ios":"levelo://app?vid=280d6821-bd00-4b58-b28f-18b7a915d98c"},"vehicle_type_id":"4","last_reported":1719227339,"current_range_meters":20400,"station_id":"ce4bgrp2rcd13ifvqc9g","pricing_plan_id":"cebpf4jnsgd1na2vs0mg"},{"bike_id":"a450e2b4-a5de-4b0d-9b35-cf35a95e9a09","system_id":"levelo_inurba_marseille","lat":43.305712,"lon":5.365641,"is_reserved":false,"is_disabled":false,"rental_uris":{"android":"levelo://app?vid=a450e2b4-a5de-4b0d-9b35-cf35a95e9a09","ios":"levelo://app?vid=a450e2b4-a5de-4b0d-9b35-cf35a95e9a09"},"vehicle_type_id":"4","last_reported":1719227339,"current_range_meters":22400,"station_id":"ce4bgs12rcd13ifvqcag","pricing_plan_id":"cebpf4jnsgd1na2vs0mg"},{"bike_id":"fa10d84a-c797-4fcb-9a71-8517ef19b724","system_id":"levelo_inurba_marseille","lat":43.30537,"lon":5.367345,"is_reserved":false,"is_disabled":false,"rental_uris":{"android":"levelo://app?vid=fa10d84a-c797-4fcb-9a71-8517ef19b724","ios":"levelo://app?vid=fa10d84a-c797-4fcb-9a71-8517ef19b724"},"vehicle_type_id":"4","last_reported":1719227339,"current_range_meters":32000,"station_id":"ce4bgrp2rcd13ifvqc9g","pricing_plan_id":"cebpf4jnsgd1na2vs0mg"},{"bike_id":"99edf0d3-f9d7-4fe9-a6e5-807f0e2f78cb","system_id":"levelo_inurba_marseille","lat":43.305712,"lon":5.365641,"is_reserved":false,"is_disabled":false,"rental_uris":{"android":"levelo://app?vid=99edf0d3-f9d7-4fe9-a6e5-807f0e2f78cb","ios":"levelo://app?vid=99edf0d3-f9d7-4fe9-a6e5-807f0e2f78cb"},"vehicle_type_id":"4","last_reported":1719227339,"current_range_meters":19200,"station_id":"ce4bgs12rcd13ifvqcag","pricing_plan_id":"cebpf4jnsgd1na2vs0mg"},{"bike_id":"8b9dd646-305f-4ca7-86e4-cc0f330ead6b","system_id":"levelo_inurba_marseille","lat":43.305712,"lon":5.365641,"is_reserved":false,"is_disabled":false,"rental_uris":{"android":"levelo://app?vid=8b9dd646-305f-4ca7-86e4-cc0f330ead6b","ios":"levelo://app?vid=8b9dd646-305f-4ca7-86e4-cc0f330ead6b"},"vehicle_type_id":"4","last_reported":1719227339,"current_range_meters":15200,"station_id":"ce4bgs12rcd13ifvqcag","pricing_plan_id":"cebpf4jnsgd1na2vs0mg"},{"bike_id":"e0289a65-9e05-470d-a1e2-9de0daf4532d","system_id":"levelo_inurba_marseille","lat":43.30537,"lon":5.367345,"is_reserved":false,"is_disabled":false,"rental_uris":{"android":"levelo://app?vid=e0289a65-9e05-470d-a1e2-9de0daf4532d","ios":"levelo://app?vid=e0289a65-9e05-470d-a1e2-9de0daf4532d"},"vehicle_type_id":"4","last_reported":1719227339,"current_range_meters":23600,"station_id":"ce4bgrp2rcd13ifvqc9g","pricing_plan_id":"cebpf4jnsgd1na2vs0mg"},{"bike_id":"b3dd1d43-95f5-4f47-ab83-2766cadafacf","system_id":"levelo_inurba_marseille","lat":43.305712,"lon":5.365641,"is_reserved":false,"is_disabled":false,"rental_uris":{"android":"levelo://app?vid=b3dd1d43-95f5-4f47-ab83-2766cadafacf","ios":"levelo://app?vid=b3dd1d43-95f5-4f47-ab83-2766cadafacf"},"vehicle_type_id":"4","last_reported":1719227339,"current_range_meters":29600,"station_id":"ce4bgs12rcd13ifvqcag","pricing_plan_id":"cebpf4jnsgd1na2vs0mg"},{"bike_id":"c8bb0211-5deb-4a64-8e80-fa2a534c84f0","system_id":"levelo_inurba_marseille","lat":43.305712,"lon":5.365641,"is_reserved":false,"is_disabled":false,"rental_uris":{"android":"levelo://app?vid=c8bb0211-5deb-4a64-8e80-fa2a534c84f0","ios":"levelo://app?vid=c8bb0211-5deb-4a64-8e80-fa2a534c84f0"},"vehicle_type_id":"4","last_reported":1719227339,"current_range_meters":19600,"station_id":"ce4bgs12rcd13ifvqcag","pricing_plan_id":"cebpf4jnsgd1na2vs0mg"},{"bike_id":"a43e7e1e-e283-47ba-bb74-77104a25b45c","system_id":"levelo_inurba_marseille","lat":43.30532,"lon":5.36661,"is_reserved":false,"is_disabled":false,"rental_uris":{"android":"levelo://app?vid=a43e7e1e-e283-47ba-bb74-77104a25b45c","ios":"levelo://app?vid=a43e7e1e-e283-47ba-bb74-77104a25b45c"},"vehicle_type_id":"4","last_reported":1719227339,"current_range_meters":14800,"station_id":"","pricing_plan_id":"cebpf4jnsgd1na2vs0mg"},{"bike_id":"a65ad08a-c880-4a7d-a192-06e15497313f","system_id":"levelo_inurba_marseille","lat":43.305714,"lon":5.365633,"is_reserved":false,"is_disabled":false,"rental_uris":{"android":"levelo://app?vid=a65ad08a-c880-4a7d-a192-06e15497313f","ios":"levelo://app?vid=a65ad08a-c880-4a7d-a192-06e15497313f"},"vehicle_type_id":"4","last_reported":1719227339,"current_range_meters":6800,"station_id":"ce4bgs12rcd13ifvqcag","pricing_plan_id":"cebpf4jnsgd1na2vs0mg"},{"bike_id":"f4beddfd-f4c7-4441-a2a5-988b635e994d","system_id":"levelo_inurba_marseille","lat":43.305706,"lon":5.365654,"is_reserved":false,"is_disabled":false,"rental_uris":{"android":"levelo://app?vid=f4beddfd-f4c7-4441-a2a5-988b635e994d","ios":"levelo://app?vid=f4beddfd-f4c7-4441-a2a5-988b635e994d"},"vehicle_type_id":"4","last_reported":1719227339,"current_range_meters":19600,"station_id":"ce4bgs12rcd13ifvqcag","pricing_plan_id":"cebpf4jnsgd1na2vs0mg"},{"bike_id":"2cade751-b612-446d-87da-335c70be3254","system_id":"levelo_inurba_marseille","lat":43.305706,"lon":5.365654,"is_reserved":false,"is_disabled":false,"rental_uris":{"android":"levelo://app?vid=2cade751-b612-446d-87da-335c70be3254","ios":"levelo://app?vid=2cade751-b612-446d-87da-335c70be3254"},"vehicle_type_id":"4","last_reported":1719227339,"current_range_meters":8800,"station_id":"ce4bgs12rcd13ifvqcag","pricing_plan_id":"cebpf4jnsgd1na2vs0mg"},{"bike_id":"7dd37af0-f3d9-415c-9884-2a9edd64aac3","system_id":"levelo_inurba_marseille","lat":43.30531,"lon":5.36559,"is_reserved":false,"is_disabled":false,"rental_uris":{"android":"levelo://app?vid=7dd37af0-f3d9-415c-9884-2a9edd64aac3","ios":"levelo://app?vid=7dd37af0-f3d9-415c-9884-2a9edd64aac3"},"vehicle_type_id":"4","last_reported":1719227339,"current_range_meters":21200,"station_id":"","pricing_plan_id":"cebpf4jnsgd1na2vs0mg"},{"bike_id":"a3a95e8e-48ab-44d9-8442-b9e962df01b1","system_id":"levelo_inurba_marseille","lat":43.305706,"lon":5.365654,"is_reserved":false,"is_disabled":false,"rental_uris":{"android":"levelo://app?vid=a3a95e8e-48ab-44d9-8442-b9e962df01b1","ios":"levelo://app?vid=a3a95e8e-48ab-44d9-8442-b9e962df01b1"},"vehicle_type_id":"4","last_reported":1719227339,"current_range_meters":32000,"station_id":"ce4bgs12rcd13ifvqcag","pricing_plan_id":"cebpf4jnsgd1na2vs0mg"},{"bike_id":"7bf7e16d-d290-4df7-9de0-0b3da59c2f45","system_id":"levelo_inurba_marseille","lat":43.305989,"lon":5.37225,"is_reserved":false,"is_disabled":false,"rental_uris":{"android":"levelo://app?vid=7bf7e16d-d290-4df7-9de0-0b3da59c2f45","ios":"levelo://app?vid=7bf7e16d-d290-4df7-9de0-0b3da59c2f45"},"vehicle_type_id":"4","last_reported":1719227339,"current_range_meters":6400,"station_id":"ce4bgqh2rcd13ifvqc4g","pricing_plan_id":"cebpf4jnsgd1na2vs0mg"},{"bike_id":"d34538ca-2a53-4921-b1f8-1c0386a46661","system_id":"levelo_inurba_marseille","lat":43.311131,"lon":5.377651,"is_reserved":false,"is_disabled":false,"rental_uris":{"android":"levelo://app?vid=d34538ca-2a53-4921-b1f8-1c0386a46661","ios":"levelo://app?vid=d34538ca-2a53-4921-b1f8-1c0386a46661"},"vehicle_type_id":"4","last_reported":1719227339,"current_range_meters":19200,"station_id":"ce4bgt92rcd13ifvqcg0","pricing_plan_id":"cebpf4jnsgd1na2vs0mg"},{"bike_id":"8cd97ee1-bcd9-4072-a624-30a689cffd06","system_id":"levelo_inurba_marseille","lat":43.311131,"lon":5.377651,"is_reserved":false,"is_disabled":false,"rental_uris":{"android":"levelo://app?vid=8cd97ee1-bcd9-4072-a624-30a689cffd06","ios":"levelo://app?vid=8cd97ee1-bcd9-4072-a624-30a689cffd06"},"vehicle_type_id":"4","last_reported":1719227339,"current_range_meters":23200,"station_id":"ce4bgt92rcd13ifvqcg0","pricing_plan_id":"cebpf4jnsgd1na2vs0mg"},{"bike_id":"45fbadb6-c1f8-41cd-a8ec-2d5d12bf467a","system_id":"levelo_inurba_marseille","lat":43.307945,"lon":5.376487,"is_reserved":false,"is_disabled":false,"rental_uris":{"android":"levelo://app?vid=45fbadb6-c1f8-41cd-a8ec-2d5d12bf467a","ios":"levelo://app?vid=45fbadb6-c1f8-41cd-a8ec-2d5d12bf467a"},"vehicle_type_id":"4","last_reported":1719227339,"current_range_meters":27600,"station_id":"ce4bgv92rcd13ifvqcq0","pricing_plan_id":"cebpf4jnsgd1na2vs0mg"},{"bike_id":"897ab3fc-93e3-4dd2-a4b2-7739463ce675","system_id":"levelo_inurba_marseille","lat":43.307945,"lon":5.376487,"is_reserved":false,"is_disabled":false,"rental_uris":{"android":"levelo://app?vid=897ab3fc-93e3-4dd2-a4b2-7739463ce675","ios":"levelo://app?vid=897ab3fc-93e3-4dd2-a4b2-7739463ce675"},"vehicle_type_id":"4","last_reported":1719227339,"current_range_meters":21600,"station_id":"ce4bgv92rcd13ifvqcq0","pricing_plan_id":"cebpf4jnsgd1na2vs0mg"},{"bike_id":"b3255bb6-9d59-4259-b002-24b45fe23b32","system_id":"levelo_inurba_marseille","lat":43.317075,"lon":5.377367,"is_reserved":false,"is_disabled":false,"rental_uris":{"android":"levelo://app?vid=b3255bb6-9d59-4259-b002-24b45fe23b32","ios":"levelo://app?vid=b3255bb6-9d59-4259-b002-24b45fe23b32"},"vehicle_type_id":"4","last_reported":1719227339,"current_range_meters":26800,"station_id":"ce4bgth2rcd13ifvqch0","pricing_plan_id":"cebpf4jnsgd1na2vs0mg"},{"bike_id":"7f1738f2-3697-46c5-b535-c49cfafca6fb","system_id":"levelo_inurba_marseille","lat":43.317075,"lon":5.377367,"is_reserved":false,"is_disabled":false,"rental_uris":{"android":"levelo://app?vid=7f1738f2-3697-46c5-b535-c49cfafca6fb","ios":"levelo://app?vid=7f1738f2-3697-46c5-b535-c49cfafca6fb"},"vehicle_type_id":"4","last_reported":1719227339,"current_range_meters":21600,"station_id":"ce4bgth2rcd13ifvqch0","pricing_plan_id":"cebpf4jnsgd1na2vs0mg"},{"bike_id":"efcee4eb-3109-462c-ab7a-ddffc8654ebe","system_id":"levelo_inurba_marseille","lat":43.317075,"lon":5.377367,"is_reserved":false,"is_disabled":false,"rental_uris":{"android":"levelo://app?vid=efcee4eb-3109-462c-ab7a-ddffc8654ebe","ios":"levelo://app?vid=efcee4eb-3109-462c-ab7a-ddffc8654ebe"},"vehicle_type_id":"4","last_reported":1719227339,"current_range_meters":26800,"station_id":"ce4bgth2rcd13ifvqch0","pricing_plan_id":"cebpf4jnsgd1na2vs0mg"},{"bike_id":"676691dd-b0e9-4f2a-b1ec-a25753a7a627","system_id":"levelo_inurba_marseille","lat":43.317075,"lon":5.377367,"is_reserved":false,"is_disabled":false,"rental_uris":{"android":"levelo://app?vid=676691dd-b0e9-4f2a-b1ec-a25753a7a627","ios":"levelo://app?vid=676691dd-b0e9-4f2a-b1ec-a25753a7a627"},"vehicle_type_id":"4","last_reported":1719227339,"current_range_meters":27200,"station_id":"ce4bgth2rcd13ifvqch0","pricing_plan_id":"cebpf4jnsgd1na2vs0mg"},{"bike_id":"2b215899-eaaf-415a-aaa9-c3b1467ae69a","system_id":"levelo_inurba_marseille","lat":43.308953,"lon":5.378483,"is_reserved":false,"is_disabled":false,"rental_uris":{"android":"levelo://app?vid=2b215899-eaaf-415a-aaa9-c3b1467ae69a","ios":"levelo://app?vid=2b215899-eaaf-415a-aaa9-c3b1467ae69a"},"vehicle_type_id":"4","last_reported":1719227339,"current_range_meters":25600,"station_id":"","pricing_plan_id":"cebpf4jnsgd1na2vs0mg"},{"bike_id":"5f9974b6-691e-43a0-847c-e5f0df189325","system_id":"levelo_inurba_marseille","lat":43.315289,"lon":5.380349,"is_reserved":false,"is_disabled":false,"rental_uris":{"android":"levelo://app?vid=5f9974b6-691e-43a0-847c-e5f0df189325","ios":"levelo://app?vid=5f9974b6-691e-43a0-847c-e5f0df189325"},"vehicle_type_id":"4","last_reported":1719227339,"current_range_meters":22400,"station_id":"ce4bhsp2rcd13ifvqi50","pricing_plan_id":"cebpf4jnsgd1na2vs0mg"},{"bike_id":"dffe9397-1b6b-4dea-9db9-6caa42f0bf2c","system_id":"levelo_inurba_marseille","lat":43.301939,"lon":5.366286,"is_reserved":false,"is_disabled":false,"rental_uris":{"android":"levelo://app?vid=dffe9397-1b6b-4dea-9db9-6caa42f0bf2c","ios":"levelo://app?vid=dffe9397-1b6b-4dea-9db9-6caa42f0bf2c"},"vehicle_type_id":"4","last_reported":1719227339,"current_range_meters":1200,"station_id":"ce4bgrh2rcd13ifvqc8g","pricing_plan_id":"cebpf4jnsgd1na2vs0mg"},{"bike_id":"0db439be-6654-4bc7-a701-3106a1e318fd","system_id":"levelo_inurba_marseille","lat":43.30818,"lon":5.38147,"is_reserved":false,"is_disabled":false,"rental_uris":{"android":"levelo://app?vid=0db439be-6654-4bc7-a701-3106a1e318fd","ios":"levelo://app?vid=0db439be-6654-4bc7-a701-3106a1e318fd"},"vehicle_type_id":"4","last_reported":1719227339,"current_range_meters":30400,"station_id":"ce4bgt12rcd13ifvqce0","pricing_plan_id":"cebpf4jnsgd1na2vs0mg"},{"bike_id":"6917d0f7-c3f5-4848-809f-21829174c03a","system_id":"levelo_inurba_marseille","lat":43.308012,"lon":5.381511,"is_reserved":false,"is_disabled":false,"rental_uris":{"android":"levelo://app?vid=6917d0f7-c3f5-4848-809f-21829174c03a","ios":"levelo://app?vid=6917d0f7-c3f5-4848-809f-21829174c03a"},"vehicle_type_id":"4","last_reported":1719227339,"current_range_meters":31200,"station_id":"ce4bgt12rcd13ifvqce0","pricing_plan_id":"cebpf4jnsgd1na2vs0mg"},{"bike_id":"5e13449b-0685-49d6-917a-41672402c52c","system_id":"levelo_inurba_marseille","lat":43.304606,"lon":5.379026,"is_reserved":false,"is_disabled":false,"rental_uris":{"android":"levelo://app?vid=5e13449b-0685-49d6-917a-41672402c52c","ios":"levelo://app?vid=5e13449b-0685-49d6-917a-41672402c52c"},"vehicle_type_id":"4","last_reported":1719227339,"current_range_meters":9200,"station_id":"ce4bgup2rcd13ifvqcn0","pricing_plan_id":"cebpf4jnsgd1na2vs0mg"},{"bike_id":"190b156d-7012-40c0-b84f-f2d2217c883a","system_id":"levelo_inurba_marseille","lat":43.304606,"lon":5.379026,"is_reserved":false,"is_disabled":false,"rental_uris":{"android":"levelo://app?vid=190b156d-7012-40c0-b84f-f2d2217c883a","ios":"levelo://app?vid=190b156d-7012-40c0-b84f-f2d2217c883a"},"vehicle_type_id":"4","last_reported":1719227339,"current_range_meters":26000,"station_id":"ce4bgup2rcd13ifvqcn0","pricing_plan_id":"cebpf4jnsgd1na2vs0mg"},{"bike_id":"6672b37f-a4b6-450b-aef6-8cd768ca5796","system_id":"levelo_inurba_marseille","lat":43.324771,"lon":5.36557,"is_reserved":false,"is_disabled":false,"rental_uris":{"android":"levelo://app?vid=6672b37f-a4b6-450b-aef6-8cd768ca5796","ios":"levelo://app?vid=6672b37f-a4b6-450b-aef6-8cd768ca5796"},"vehicle_type_id":"4","last_reported":1719227339,"current_range_meters":10400,"station_id":"ce4bhs12rcd13ifvqhvg","pricing_plan_id":"cebpf4jnsgd1na2vs0mg"},{"bike_id":"0b9ebea7-000e-4059-b5cd-78bcf0fad5d6","system_id":"levelo_inurba_marseille","lat":43.324806,"lon":5.365777,"is_reserved":false,"is_disabled":false,"rental_uris":{"android":"levelo://app?vid=0b9ebea7-000e-4059-b5cd-78bcf0fad5d6","ios":"levelo://app?vid=0b9ebea7-000e-4059-b5cd-78bcf0fad5d6"},"vehicle_type_id":"4","last_reported":1719227339,"current_range_meters":20400,"station_id":"ce4bhs12rcd13ifvqhvg","pricing_plan_id":"cebpf4jnsgd1na2vs0mg"},{"bike_id":"621225d6-7f0a-4442-b147-1fb362e6e637","system_id":"levelo_inurba_marseille","lat":43.302784,"lon":5.377158,"is_reserved":false,"is_disabled":false,"rental_uris":{"android":"levelo://app?vid=621225d6-7f0a-4442-b147-1fb362e6e637","ios":"levelo://app?vid=621225d6-7f0a-4442-b147-1fb362e6e637"},"vehicle_type_id":"4","last_reported":1719227339,"current_range_meters":22000,"station_id":"ce4bguh2rcd13ifvqcj0","pricing_plan_id":"cebpf4jnsgd1na2vs0mg"},{"bike_id":"ad5e9e61-fa67-4362-82e0-1d2948acbde4","system_id":"levelo_inurba_marseille","lat":43.30142,"lon":5.3741,"is_reserved":false,"is_disabled":false,"rental_uris":{"android":"levelo://app?vid=ad5e9e61-fa67-4362-82e0-1d2948acbde4","ios":"levelo://app?vid=ad5e9e61-fa67-4362-82e0-1d2948acbde4"},"vehicle_type_id":"4","last_reported":1719227339,"current_range_meters":0,"station_id":"ce4bgs92rcd13ifvqcc0","pricing_plan_id":"cebpf4jnsgd1na2vs0mg"},{"bike_id":"d77a1216-0ecb-4bbf-a6e0-ae03cafccb38","system_id":"levelo_inurba_marseille","lat":43.302784,"lon":5.377158,"is_reserved":false,"is_disabled":false,"rental_uris":{"android":"levelo://app?vid=d77a1216-0ecb-4bbf-a6e0-ae03cafccb38","ios":"levelo://app?vid=d77a1216-0ecb-4bbf-a6e0-ae03cafccb38"},"vehicle_type_id":"4","last_reported":1719227339,"current_range_meters":24400,"station_id":"ce4bguh2rcd13ifvqcj0","pricing_plan_id":"cebpf4jnsgd1na2vs0mg"},{"bike_id":"79a882bd-7b6d-4f96-ba07-a730da640cdf","system_id":"levelo_inurba_marseille","lat":43.319935,"lon":5.381699,"is_reserved":false,"is_disabled":false,"rental_uris":{"android":"levelo://app?vid=79a882bd-7b6d-4f96-ba07-a730da640cdf","ios":"levelo://app?vid=79a882bd-7b6d-4f96-ba07-a730da640cdf"},"vehicle_type_id":"4","last_reported":1719227339,"current_range_meters":26400,"station_id":"ce4bhr12rcd13ifvqhpg","pricing_plan_id":"cebpf4jnsgd1na2vs0mg"},{"bike_id":"f2edd5dd-550f-442e-9bbd-84bb5594dadb","system_id":"levelo_inurba_marseille","lat":43.319935,"lon":5.381699,"is_reserved":false,"is_disabled":false,"rental_uris":{"android":"levelo://app?vid=f2edd5dd-550f-442e-9bbd-84bb5594dadb","ios":"levelo://app?vid=f2edd5dd-550f-442e-9bbd-84bb5594dadb"},"vehicle_type_id":"4","last_reported":1719227339,"current_range_meters":31200,"station_id":"ce4bhr12rcd13ifvqhpg","pricing_plan_id":"cebpf4jnsgd1na2vs0mg"},{"bike_id":"db7123c5-85b1-4270-9649-2b5dc3d8c011","system_id":"levelo_inurba_marseille","lat":43.299222,"lon":5.365554,"is_reserved":false,"is_disabled":false,"rental_uris":{"android":"levelo://app?vid=db7123c5-85b1-4270-9649-2b5dc3d8c011","ios":"levelo://app?vid=db7123c5-85b1-4270-9649-2b5dc3d8c011"},"vehicle_type_id":"4","last_reported":1719227339,"current_range_meters":19600,"station_id":"ce4bgm92rcd13ifvqbr0","pricing_plan_id":"cebpf4jnsgd1na2vs0mg"},{"bike_id":"a7f955a6-dc63-45ca-9cc2-2bfdf3de5d1c","system_id":"levelo_inurba_marseille","lat":43.299724,"lon":5.371829,"is_reserved":false,"is_disabled":false,"rental_uris":{"android":"levelo://app?vid=a7f955a6-dc63-45ca-9cc2-2bfdf3de5d1c","ios":"levelo://app?vid=a7f955a6-dc63-45ca-9cc2-2bfdf3de5d1c"},"vehicle_type_id":"4","last_reported":1719227339,"current_range_meters":26800,"station_id":"ce4bgr92rcd13ifvqc7g","pricing_plan_id":"cebpf4jnsgd1na2vs0mg"},{"bike_id":"137ce819-33e3-48de-89ab-27a0964e68ed","system_id":"levelo_inurba_marseille","lat":43.299724,"lon":5.371829,"is_reserved":false,"is_disabled":false,"rental_uris":{"android":"levelo://app?vid=137ce819-33e3-48de-89ab-27a0964e68ed","ios":"levelo://app?vid=137ce819-33e3-48de-89ab-27a0964e68ed"},"vehicle_type_id":"4","last_reported":1719227339,"current_range_meters":17600,"station_id":"ce4bgr92rcd13ifvqc7g","pricing_plan_id":"cebpf4jnsgd1na2vs0mg"},{"bike_id":"758fee6a-674d-4439-930f-db2c41f632e5","system_id":"levelo_inurba_marseille","lat":43.299209,"lon":5.365547,"is_reserved":false,"is_disabled":false,"rental_uris":{"android":"levelo://app?vid=758fee6a-674d-4439-930f-db2c41f632e5","ios":"levelo://app?vid=758fee6a-674d-4439-930f-db2c41f632e5"},"vehicle_type_id":"4","last_reported":1719227339,"current_range_meters":12400,"station_id":"ce4bgm92rcd13ifvqbr0","pricing_plan_id":"cebpf4jnsgd1na2vs0mg"},{"bike_id":"14f96911-2fee-468b-9d6b-300a69018f18","system_id":"levelo_inurba_marseille","lat":43.298433,"lon":5.362774,"is_reserved":false,"is_disabled":false,"rental_uris":{"android":"levelo://app?vid=14f96911-2fee-468b-9d6b-300a69018f18","ios":"levelo://app?vid=14f96911-2fee-468b-9d6b-300a69018f18"},"vehicle_type_id":"4","last_reported":1719227339,"current_range_meters":7200,"station_id":"ce4bgpp2rcd13ifvqc3g","pricing_plan_id":"cebpf4jnsgd1na2vs0mg"},{"bike_id":"c370a9af-5db2-4a7a-9ba2-c6b02d482e50","system_id":"levelo_inurba_marseille","lat":43.305364,"lon":5.384119,"is_reserved":false,"is_disabled":false,"rental_uris":{"android":"levelo://app?vid=c370a9af-5db2-4a7a-9ba2-c6b02d482e50","ios":"levelo://app?vid=c370a9af-5db2-4a7a-9ba2-c6b02d482e50"},"vehicle_type_id":"4","last_reported":1719227339,"current_range_meters":9200,"station_id":"ce4bgg92rcd13ifvqb30","pricing_plan_id":"cebpf4jnsgd1na2vs0mg"},{"bike_id":"016d6c52-4f49-433c-adde-2aa5ee916da8","system_id":"levelo_inurba_marseille","lat":43.299243,"lon":5.37481,"is_reserved":false,"is_disabled":false,"rental_uris":{"android":"levelo://app?vid=016d6c52-4f49-433c-adde-2aa5ee916da8","ios":"levelo://app?vid=016d6c52-4f49-433c-adde-2aa5ee916da8"},"vehicle_type_id":"4","last_reported":1719227339,"current_range_meters":31600,"station_id":"ce4bgjh2rcd13ifvqbg0","pricing_plan_id":"cebpf4jnsgd1na2vs0mg"},{"bike_id":"1d531ae3-67c1-407d-bfa4-dfbf768e3376","system_id":"levelo_inurba_marseille","lat":43.299243,"lon":5.374807,"is_reserved":false,"is_disabled":false,"rental_uris":{"android":"levelo://app?vid=1d531ae3-67c1-407d-bfa4-dfbf768e3376","ios":"levelo://app?vid=1d531ae3-67c1-407d-bfa4-dfbf768e3376"},"vehicle_type_id":"4","last_reported":1719227339,"current_range_meters":24000,"station_id":"ce4bgjh2rcd13ifvqbg0","pricing_plan_id":"cebpf4jnsgd1na2vs0mg"},{"bike_id":"249e0fd0-95f1-4dc4-a5d7-47a17f8af6ab","system_id":"levelo_inurba_marseille","lat":43.29793,"lon":5.37105,"is_reserved":false,"is_disabled":false,"rental_uris":{"android":"levelo://app?vid=249e0fd0-95f1-4dc4-a5d7-47a17f8af6ab","ios":"levelo://app?vid=249e0fd0-95f1-4dc4-a5d7-47a17f8af6ab"},"vehicle_type_id":"4","last_reported":1719227339,"current_range_meters":17200,"station_id":"ce4bgop2rcd13ifvqc1g","pricing_plan_id":"cebpf4jnsgd1na2vs0mg"},{"bike_id":"359943da-31ff-4294-8708-99e57f263c32","system_id":"levelo_inurba_marseille","lat":43.297774,"lon":5.370875,"is_reserved":false,"is_disabled":false,"rental_uris":{"android":"levelo://app?vid=359943da-31ff-4294-8708-99e57f263c32","ios":"levelo://app?vid=359943da-31ff-4294-8708-99e57f263c32"},"vehicle_type_id":"4","last_reported":1719227339,"current_range_meters":10800,"station_id":"ce4bgop2rcd13ifvqc1g","pricing_plan_id":"cebpf4jnsgd1na2vs0mg"},{"bike_id":"60979b1f-3cbe-421d-a685-8c0656492868","system_id":"levelo_inurba_marseille","lat":43.297774,"lon":5.370875,"is_reserved":false,"is_disabled":false,"rental_uris":{"android":"levelo://app?vid=60979b1f-3cbe-421d-a685-8c0656492868","ios":"levelo://app?vid=60979b1f-3cbe-421d-a685-8c0656492868"},"vehicle_type_id":"4","last_reported":1719227339,"current_range_meters":22400,"station_id":"ce4bgop2rcd13ifvqc1g","pricing_plan_id":"cebpf4jnsgd1na2vs0mg"},{"bike_id":"b5ffbb30-3d57-4198-8e9f-6404a7bd9fc4","system_id":"levelo_inurba_marseille","lat":43.297788,"lon":5.371007,"is_reserved":false,"is_disabled":false,"rental_uris":{"android":"levelo://app?vid=b5ffbb30-3d57-4198-8e9f-6404a7bd9fc4","ios":"levelo://app?vid=b5ffbb30-3d57-4198-8e9f-6404a7bd9fc4"},"vehicle_type_id":"4","last_reported":1719227339,"current_range_meters":14800,"station_id":"ce4bgop2rcd13ifvqc1g","pricing_plan_id":"cebpf4jnsgd1na2vs0mg"},{"bike_id":"7a02d7f4-7b20-4784-8fdb-0f2c683a9a78","system_id":"levelo_inurba_marseille","lat":43.297794,"lon":5.370888,"is_reserved":false,"is_disabled":false,"rental_uris":{"android":"levelo://app?vid=7a02d7f4-7b20-4784-8fdb-0f2c683a9a78","ios":"levelo://app?vid=7a02d7f4-7b20-4784-8fdb-0f2c683a9a78"},"vehicle_type_id":"4","last_reported":1719227339,"current_range_meters":31600,"station_id":"ce4bgop2rcd13ifvqc1g","pricing_plan_id":"cebpf4jnsgd1na2vs0mg"},{"bike_id":"6452bf88-9135-42a2-b3ca-42f8a03b04b9","system_id":"levelo_inurba_marseille","lat":43.2968,"lon":5.37291,"is_reserved":false,"is_disabled":false,"rental_uris":{"android":"levelo://app?vid=6452bf88-9135-42a2-b3ca-42f8a03b04b9","ios":"levelo://app?vid=6452bf88-9135-42a2-b3ca-42f8a03b04b9"},"vehicle_type_id":"4","last_reported":1719227339,"current_range_meters":25600,"station_id":"ce4bgk12rcd13ifvqbj0","pricing_plan_id":"cebpf4jnsgd1na2vs0mg"},{"bike_id":"c66c58ad-9ce5-4bbd-9605-6ea107df563f","system_id":"levelo_inurba_marseille","lat":43.2968,"lon":5.37291,"is_reserved":false,"is_disabled":false,"rental_uris":{"android":"levelo://app?vid=c66c58ad-9ce5-4bbd-9605-6ea107df563f","ios":"levelo://app?vid=c66c58ad-9ce5-4bbd-9605-6ea107df563f"},"vehicle_type_id":"4","last_reported":1719227339,"current_range_meters":9200,"station_id":"ce4bgk12rcd13ifvqbj0","pricing_plan_id":"cebpf4jnsgd1na2vs0mg"},{"bike_id":"2e44863f-0da8-4711-a8ed-9663bf4df966","system_id":"levelo_inurba_marseille","lat":43.2968,"lon":5.37291,"is_reserved":false,"is_disabled":false,"rental_uris":{"android":"levelo://app?vid=2e44863f-0da8-4711-a8ed-9663bf4df966","ios":"levelo://app?vid=2e44863f-0da8-4711-a8ed-9663bf4df966"},"vehicle_type_id":"4","last_reported":1719227339,"current_range_meters":18800,"station_id":"ce4bgk12rcd13ifvqbj0","pricing_plan_id":"cebpf4jnsgd1na2vs0mg"},{"bike_id":"23683e1e-cc09-4529-ae25-0e0ca550a291","system_id":"levelo_inurba_marseille","lat":43.2968,"lon":5.37291,"is_reserved":false,"is_disabled":false,"rental_uris":{"android":"levelo://app?vid=23683e1e-cc09-4529-ae25-0e0ca550a291","ios":"levelo://app?vid=23683e1e-cc09-4529-ae25-0e0ca550a291"},"vehicle_type_id":"4","last_reported":1719227339,"current_range_meters":25600,"station_id":"ce4bgk12rcd13ifvqbj0","pricing_plan_id":"cebpf4jnsgd1na2vs0mg"},{"bike_id":"9c6e2a17-b4d7-4558-b7a5-4e6a2db8c24b","system_id":"levelo_inurba_marseille","lat":43.2968,"lon":5.37291,"is_reserved":false,"is_disabled":false,"rental_uris":{"android":"levelo://app?vid=9c6e2a17-b4d7-4558-b7a5-4e6a2db8c24b","ios":"levelo://app?vid=9c6e2a17-b4d7-4558-b7a5-4e6a2db8c24b"},"vehicle_type_id":"4","last_reported":1719227339,"current_range_meters":0,"station_id":"ce4bgk12rcd13ifvqbj0","pricing_plan_id":"cebpf4jnsgd1na2vs0mg"},{"bike_id":"210aa917-e603-46b5-8bb4-6fb5accbf27a","system_id":"levelo_inurba_marseille","lat":43.2968,"lon":5.37291,"is_reserved":false,"is_disabled":false,"rental_uris":{"android":"levelo://app?vid=210aa917-e603-46b5-8bb4-6fb5accbf27a","ios":"levelo://app?vid=210aa917-e603-46b5-8bb4-6fb5accbf27a"},"vehicle_type_id":"4","last_reported":1719227339,"current_range_meters":31600,"station_id":"ce4bgk12rcd13ifvqbj0","pricing_plan_id":"cebpf4jnsgd1na2vs0mg"},{"bike_id":"6eac6bac-9987-49a8-9768-be20c2d06fa3","system_id":"levelo_inurba_marseille","lat":43.296131,"lon":5.370773,"is_reserved":false,"is_disabled":false,"rental_uris":{"android":"levelo://app?vid=6eac6bac-9987-49a8-9768-be20c2d06fa3","ios":"levelo://app?vid=6eac6bac-9987-49a8-9768-be20c2d06fa3"},"vehicle_type_id":"4","last_reported":1719227339,"current_range_meters":26800,"station_id":"ce4bgnh2rcd13ifvqc0g","pricing_plan_id":"cebpf4jnsgd1na2vs0mg"},{"bike_id":"131c48f8-3f4d-4d67-8b1d-60d0752c9ae7","system_id":"levelo_inurba_marseille","lat":43.296131,"lon":5.370773,"is_reserved":false,"is_disabled":false,"rental_uris":{"android":"levelo://app?vid=131c48f8-3f4d-4d67-8b1d-60d0752c9ae7","ios":"levelo://app?vid=131c48f8-3f4d-4d67-8b1d-60d0752c9ae7"},"vehicle_type_id":"4","last_reported":1719227339,"current_range_meters":31200,"station_id":"ce4bgnh2rcd13ifvqc0g","pricing_plan_id":"cebpf4jnsgd1na2vs0mg"},{"bike_id":"9121089f-0d15-4046-bcce-cb03e06609e5","system_id":"levelo_inurba_marseille","lat":43.296129,"lon":5.370777,"is_reserved":false,"is_disabled":false,"rental_uris":{"android":"levelo://app?vid=9121089f-0d15-4046-bcce-cb03e06609e5","ios":"levelo://app?vid=9121089f-0d15-4046-bcce-cb03e06609e5"},"vehicle_type_id":"4","last_reported":1719227339,"current_range_meters":26400,"station_id":"ce4bgnh2rcd13ifvqc0g","pricing_plan_id":"cebpf4jnsgd1na2vs0mg"},{"bike_id":"3c93704b-3e73-40b7-90c7-251ea870cd6f","system_id":"levelo_inurba_marseille","lat":43.296131,"lon":5.370773,"is_reserved":false,"is_disabled":false,"rental_uris":{"android":"levelo://app?vid=3c93704b-3e73-40b7-90c7-251ea870cd6f","ios":"levelo://app?vid=3c93704b-3e73-40b7-90c7-251ea870cd6f"},"vehicle_type_id":"4","last_reported":1719227339,"current_range_meters":29600,"station_id":"ce4bgnh2rcd13ifvqc0g","pricing_plan_id":"cebpf4jnsgd1na2vs0mg"},{"bike_id":"3a65742d-78c2-41a9-a0f0-bf9fed7d5e28","system_id":"levelo_inurba_marseille","lat":43.296131,"lon":5.370791,"is_reserved":false,"is_disabled":false,"rental_uris":{"android":"levelo://app?vid=3a65742d-78c2-41a9-a0f0-bf9fed7d5e28","ios":"levelo://app?vid=3a65742d-78c2-41a9-a0f0-bf9fed7d5e28"},"vehicle_type_id":"4","last_reported":1719227339,"current_range_meters":15200,"station_id":"ce4bgnh2rcd13ifvqc0g","pricing_plan_id":"cebpf4jnsgd1na2vs0mg"},{"bike_id":"ed833196-b5b6-4dd3-9a78-742b1f54f311","system_id":"levelo_inurba_marseille","lat":43.29573,"lon":5.367355,"is_reserved":false,"is_disabled":false,"rental_uris":{"android":"levelo://app?vid=ed833196-b5b6-4dd3-9a78-742b1f54f311","ios":"levelo://app?vid=ed833196-b5b6-4dd3-9a78-742b1f54f311"},"vehicle_type_id":"4","last_reported":1719227339,"current_range_meters":28400,"station_id":"ce4bgph2rcd13ifvqc2g","pricing_plan_id":"cebpf4jnsgd1na2vs0mg"},{"bike_id":"3bd21867-e853-4d18-a5f2-ac63ecb192f3","system_id":"levelo_inurba_marseille","lat":43.29573,"lon":5.367355,"is_reserved":false,"is_disabled":false,"rental_uris":{"android":"levelo://app?vid=3bd21867-e853-4d18-a5f2-ac63ecb192f3","ios":"levelo://app?vid=3bd21867-e853-4d18-a5f2-ac63ecb192f3"},"vehicle_type_id":"4","last_reported":1719227339,"current_range_meters":26000,"station_id":"ce4bgph2rcd13ifvqc2g","pricing_plan_id":"cebpf4jnsgd1na2vs0mg"},{"bike_id":"daddafde-f302-4e81-99da-8979aad37fc8","system_id":"levelo_inurba_marseille","lat":43.29573,"lon":5.367355,"is_reserved":false,"is_disabled":false,"rental_uris":{"android":"levelo://app?vid=daddafde-f302-4e81-99da-8979aad37fc8","ios":"levelo://app?vid=daddafde-f302-4e81-99da-8979aad37fc8"},"vehicle_type_id":"4","last_reported":1719227339,"current_range_meters":31600,"station_id":"ce4bgph2rcd13ifvqc2g","pricing_plan_id":"cebpf4jnsgd1na2vs0mg"},{"bike_id":"836e7b53-1db4-4270-a091-8b57092aa714","system_id":"levelo_inurba_marseille","lat":43.29573,"lon":5.367355,"is_reserved":false,"is_disabled":false,"rental_uris":{"android":"levelo://app?vid=836e7b53-1db4-4270-a091-8b57092aa714","ios":"levelo://app?vid=836e7b53-1db4-4270-a091-8b57092aa714"},"vehicle_type_id":"4","last_reported":1719227339,"current_range_meters":18400,"station_id":"ce4bgph2rcd13ifvqc2g","pricing_plan_id":"cebpf4jnsgd1na2vs0mg"},{"bike_id":"e3993150-7a56-42c0-9052-75e656ea86d4","system_id":"levelo_inurba_marseille","lat":43.29733,"lon":5.37677,"is_reserved":false,"is_disabled":false,"rental_uris":{"android":"levelo://app?vid=e3993150-7a56-42c0-9052-75e656ea86d4","ios":"levelo://app?vid=e3993150-7a56-42c0-9052-75e656ea86d4"},"vehicle_type_id":"4","last_reported":1719227339,"current_range_meters":28000,"station_id":"ce4bgkh2rcd13ifvqbl0","pricing_plan_id":"cebpf4jnsgd1na2vs0mg"},{"bike_id":"9a1a525f-24fb-4429-9e21-36c03f5154ac","system_id":"levelo_inurba_marseille","lat":43.29731,"lon":5.37683,"is_reserved":false,"is_disabled":false,"rental_uris":{"android":"levelo://app?vid=9a1a525f-24fb-4429-9e21-36c03f5154ac","ios":"levelo://app?vid=9a1a525f-24fb-4429-9e21-36c03f5154ac"},"vehicle_type_id":"4","last_reported":1719227339,"current_range_meters":30400,"station_id":"ce4bgkh2rcd13ifvqbl0","pricing_plan_id":"cebpf4jnsgd1na2vs0mg"},{"bike_id":"1f562c63-ebce-4617-b9cd-8866b1ff6f03","system_id":"levelo_inurba_marseille","lat":43.296921,"lon":5.376579,"is_reserved":false,"is_disabled":false,"rental_uris":{"android":"levelo://app?vid=1f562c63-ebce-4617-b9cd-8866b1ff6f03","ios":"levelo://app?vid=1f562c63-ebce-4617-b9cd-8866b1ff6f03"},"vehicle_type_id":"4","last_reported":1719227339,"current_range_meters":11200,"station_id":"ce4bgkh2rcd13ifvqbl0","pricing_plan_id":"cebpf4jnsgd1na2vs0mg"},{"bike_id":"e94a3054-6223-4a43-8635-af178dc01016","system_id":"levelo_inurba_marseille","lat":43.317557,"lon":5.390173,"is_reserved":false,"is_disabled":false,"rental_uris":{"android":"levelo://app?vid=e94a3054-6223-4a43-8635-af178dc01016","ios":"levelo://app?vid=e94a3054-6223-4a43-8635-af178dc01016"},"vehicle_type_id":"4","last_reported":1719227339,"current_range_meters":30000,"station_id":"ce4bhqp2rcd13ifvqhng","pricing_plan_id":"cebpf4jnsgd1na2vs0mg"},{"bike_id":"7f6f2740-c1ef-404b-81aa-aa640c17c0d0","system_id":"levelo_inurba_marseille","lat":43.298037,"lon":5.381066,"is_reserved":false,"is_disabled":false,"rental_uris":{"android":"levelo://app?vid=7f6f2740-c1ef-404b-81aa-aa640c17c0d0","ios":"levelo://app?vid=7f6f2740-c1ef-404b-81aa-aa640c17c0d0"},"vehicle_type_id":"4","last_reported":1719227339,"current_range_meters":0,"station_id":"ce4bgip2rcd13ifvqbb0","pricing_plan_id":"cebpf4jnsgd1na2vs0mg"},{"bike_id":"0e57a13e-3794-4c1f-bd94-318d3adbd635","system_id":"levelo_inurba_marseille","lat":43.298037,"lon":5.381066,"is_reserved":false,"is_disabled":false,"rental_uris":{"android":"levelo://app?vid=0e57a13e-3794-4c1f-bd94-318d3adbd635","ios":"levelo://app?vid=0e57a13e-3794-4c1f-bd94-318d3adbd635"},"vehicle_type_id":"4","last_reported":1719227339,"current_range_meters":24400,"station_id":"ce4bgip2rcd13ifvqbb0","pricing_plan_id":"cebpf4jnsgd1na2vs0mg"},{"bike_id":"dbae20b6-2b75-4aec-a78e-3ddb663701eb","system_id":"levelo_inurba_marseille","lat":43.298037,"lon":5.381066,"is_reserved":false,"is_disabled":false,"rental_uris":{"android":"levelo://app?vid=dbae20b6-2b75-4aec-a78e-3ddb663701eb","ios":"levelo://app?vid=dbae20b6-2b75-4aec-a78e-3ddb663701eb"},"vehicle_type_id":"4","last_reported":1719227339,"current_range_meters":0,"station_id":"ce4bgip2rcd13ifvqbb0","pricing_plan_id":"cebpf4jnsgd1na2vs0mg"},{"bike_id":"1037f4eb-8914-48a7-b1e9-26bd4c1616cc","system_id":"levelo_inurba_marseille","lat":43.304274,"lon":5.388873,"is_reserved":false,"is_disabled":false,"rental_uris":{"android":"levelo://app?vid=1037f4eb-8914-48a7-b1e9-26bd4c1616cc","ios":"levelo://app?vid=1037f4eb-8914-48a7-b1e9-26bd4c1616cc"},"vehicle_type_id":"4","last_reported":1719227339,"current_range_meters":400,"station_id":"ce4bgk12rcd13ifvqbi0","pricing_plan_id":"cebpf4jnsgd1na2vs0mg"},{"bike_id":"5ca1889d-f088-4444-a7ae-e6ba50a8001a","system_id":"levelo_inurba_marseille","lat":43.29564,"lon":5.37504,"is_reserved":false,"is_disabled":false,"rental_uris":{"android":"levelo://app?vid=5ca1889d-f088-4444-a7ae-e6ba50a8001a","ios":"levelo://app?vid=5ca1889d-f088-4444-a7ae-e6ba50a8001a"},"vehicle_type_id":"4","last_reported":1719227339,"current_range_meters":8400,"station_id":"ce4bgh92rcd13ifvqb50","pricing_plan_id":"cebpf4jnsgd1na2vs0mg"},{"bike_id":"f9032885-82db-4855-a5a4-8d1bf014741f","system_id":"levelo_inurba_marseille","lat":43.298037,"lon":5.381066,"is_reserved":false,"is_disabled":false,"rental_uris":{"android":"levelo://app?vid=f9032885-82db-4855-a5a4-8d1bf014741f","ios":"levelo://app?vid=f9032885-82db-4855-a5a4-8d1bf014741f"},"vehicle_type_id":"4","last_reported":1719227339,"current_range_meters":31200,"station_id":"ce4bgip2rcd13ifvqbb0","pricing_plan_id":"cebpf4jnsgd1na2vs0mg"},{"bike_id":"c1202355-3c20-4710-b994-e5489e9df253","system_id":"levelo_inurba_marseille","lat":43.296263,"lon":5.377094,"is_reserved":false,"is_disabled":false,"rental_uris":{"android":"levelo://app?vid=c1202355-3c20-4710-b994-e5489e9df253","ios":"levelo://app?vid=c1202355-3c20-4710-b994-e5489e9df253"},"vehicle_type_id":"4","last_reported":1719227339,"current_range_meters":23600,"station_id":"ce4bgi92rcd13ifvqb90","pricing_plan_id":"cebpf4jnsgd1na2vs0mg"},{"bike_id":"b1648b5f-3c13-4614-b999-4755918b0514","system_id":"levelo_inurba_marseille","lat":43.296263,"lon":5.377094,"is_reserved":false,"is_disabled":false,"rental_uris":{"android":"levelo://app?vid=b1648b5f-3c13-4614-b999-4755918b0514","ios":"levelo://app?vid=b1648b5f-3c13-4614-b999-4755918b0514"},"vehicle_type_id":"4","last_reported":1719227339,"current_range_meters":10000,"station_id":"ce4bgi92rcd13ifvqb90","pricing_plan_id":"cebpf4jnsgd1na2vs0mg"},{"bike_id":"ce57a3e3-b7be-4251-8631-3be061e38841","system_id":"levelo_inurba_marseille","lat":43.296277,"lon":5.377108,"is_reserved":false,"is_disabled":false,"rental_uris":{"android":"levelo://app?vid=ce57a3e3-b7be-4251-8631-3be061e38841","ios":"levelo://app?vid=ce57a3e3-b7be-4251-8631-3be061e38841"},"vehicle_type_id":"4","last_reported":1719227339,"current_range_meters":13600,"station_id":"ce4bgi92rcd13ifvqb90","pricing_plan_id":"cebpf4jnsgd1na2vs0mg"},{"bike_id":"def2ec4d-a8ce-4bfa-854c-1561ba9c958f","system_id":"levelo_inurba_marseille","lat":43.295279,"lon":5.375048,"is_reserved":false,"is_disabled":false,"rental_uris":{"android":"levelo://app?vid=def2ec4d-a8ce-4bfa-854c-1561ba9c958f","ios":"levelo://app?vid=def2ec4d-a8ce-4bfa-854c-1561ba9c958f"},"vehicle_type_id":"4","last_reported":1719227339,"current_range_meters":13200,"station_id":"ce4bgkp2rcd13ifvqbmg","pricing_plan_id":"cebpf4jnsgd1na2vs0mg"},{"bike_id":"e8eb258e-f7b7-429f-ab14-fa981054121d","system_id":"levelo_inurba_marseille","lat":43.299717,"lon":5.384845,"is_reserved":false,"is_disabled":false,"rental_uris":{"android":"levelo://app?vid=e8eb258e-f7b7-429f-ab14-fa981054121d","ios":"levelo://app?vid=e8eb258e-f7b7-429f-ab14-fa981054121d"},"vehicle_type_id":"4","last_reported":1719227339,"current_range_meters":8800,"station_id":"ce4bgj92rcd13ifvqbd0","pricing_plan_id":"cebpf4jnsgd1na2vs0mg"},{"bike_id":"e3cbc45e-136d-442e-828a-7874ad4b8b0b","system_id":"levelo_inurba_marseille","lat":43.299707,"lon":5.384859,"is_reserved":false,"is_disabled":false,"rental_uris":{"android":"levelo://app?vid=e3cbc45e-136d-442e-828a-7874ad4b8b0b","ios":"levelo://app?vid=e3cbc45e-136d-442e-828a-7874ad4b8b0b"},"vehicle_type_id":"4","last_reported":1719227339,"current_range_meters":26800,"station_id":"ce4bgj92rcd13ifvqbd0","pricing_plan_id":"cebpf4jnsgd1na2vs0mg"},{"bike_id":"8a55730b-1fe2-41df-b09b-de42333ddd81","system_id":"levelo_inurba_marseille","lat":43.30206,"lon":5.38814,"is_reserved":false,"is_disabled":false,"rental_uris":{"android":"levelo://app?vid=8a55730b-1fe2-41df-b09b-de42333ddd81","ios":"levelo://app?vid=8a55730b-1fe2-41df-b09b-de42333ddd81"},"vehicle_type_id":"4","last_reported":1719227339,"current_range_meters":10800,"station_id":"","pricing_plan_id":"cebpf4jnsgd1na2vs0mg"},{"bike_id":"645d2c90-18fa-42d2-b441-06bf6d801e08","system_id":"levelo_inurba_marseille","lat":43.31407,"lon":5.39269,"is_reserved":false,"is_disabled":false,"rental_uris":{"android":"levelo://app?vid=645d2c90-18fa-42d2-b441-06bf6d801e08","ios":"levelo://app?vid=645d2c90-18fa-42d2-b441-06bf6d801e08"},"vehicle_type_id":"4","last_reported":1719227339,"current_range_meters":9600,"station_id":"","pricing_plan_id":"cebpf4jnsgd1na2vs0mg"},{"bike_id":"bc84e107-4dc0-411a-a4ee-f66ba65d4e91","system_id":"levelo_inurba_marseille","lat":43.32367,"lon":5.388836,"is_reserved":false,"is_disabled":false,"rental_uris":{"android":"levelo://app?vid=bc84e107-4dc0-411a-a4ee-f66ba65d4e91","ios":"levelo://app?vid=bc84e107-4dc0-411a-a4ee-f66ba65d4e91"},"vehicle_type_id":"4","last_reported":1719227339,"current_range_meters":21200,"station_id":"ce4bhqp2rcd13ifvqhog","pricing_plan_id":"cebpf4jnsgd1na2vs0mg"},{"bike_id":"0f4ab82f-64e1-4beb-babe-025bc5c002a7","system_id":"levelo_inurba_marseille","lat":43.29601,"lon":5.381084,"is_reserved":false,"is_disabled":false,"rental_uris":{"android":"levelo://app?vid=0f4ab82f-64e1-4beb-babe-025bc5c002a7","ios":"levelo://app?vid=0f4ab82f-64e1-4beb-babe-025bc5c002a7"},"vehicle_type_id":"4","last_reported":1719227339,"current_range_meters":2800,"station_id":"ce4bgl12rcd13ifvqbo0","pricing_plan_id":"cebpf4jnsgd1na2vs0mg"},{"bike_id":"9a3bc96c-0fc9-43f9-a995-95d2103b12ce","system_id":"levelo_inurba_marseille","lat":43.29292,"lon":5.37441,"is_reserved":false,"is_disabled":false,"rental_uris":{"android":"levelo://app?vid=9a3bc96c-0fc9-43f9-a995-95d2103b12ce","ios":"levelo://app?vid=9a3bc96c-0fc9-43f9-a995-95d2103b12ce"},"vehicle_type_id":"4","last_reported":1719227339,"current_range_meters":0,"station_id":"ce4bgi12rcd13ifvqb70","pricing_plan_id":"cebpf4jnsgd1na2vs0mg"},{"bike_id":"e01b06b2-cdd0-4262-9ca8-854b40d6242b","system_id":"levelo_inurba_marseille","lat":43.293009,"lon":5.374584,"is_reserved":false,"is_disabled":false,"rental_uris":{"android":"levelo://app?vid=e01b06b2-cdd0-4262-9ca8-854b40d6242b","ios":"levelo://app?vid=e01b06b2-cdd0-4262-9ca8-854b40d6242b"},"vehicle_type_id":"4","last_reported":1719227339,"current_range_meters":24800,"station_id":"ce4bgi12rcd13ifvqb70","pricing_plan_id":"cebpf4jnsgd1na2vs0mg"},{"bike_id":"f0a0cc3b-df3c-4bbc-a33b-f249b1e49a2a","system_id":"levelo_inurba_marseille","lat":43.2936,"lon":5.37835,"is_reserved":false,"is_disabled":false,"rental_uris":{"android":"levelo://app?vid=f0a0cc3b-df3c-4bbc-a33b-f249b1e49a2a","ios":"levelo://app?vid=f0a0cc3b-df3c-4bbc-a33b-f249b1e49a2a"},"vehicle_type_id":"4","last_reported":1719227339,"current_range_meters":31600,"station_id":"ce4bgjh2rcd13ifvqbf0","pricing_plan_id":"cebpf4jnsgd1na2vs0mg"},{"bike_id":"ec05f7e0-6a9c-4f19-921b-76a3a19a41f3","system_id":"levelo_inurba_marseille","lat":43.303002,"lon":5.392142,"is_reserved":false,"is_disabled":false,"rental_uris":{"android":"levelo://app?vid=ec05f7e0-6a9c-4f19-921b-76a3a19a41f3","ios":"levelo://app?vid=ec05f7e0-6a9c-4f19-921b-76a3a19a41f3"},"vehicle_type_id":"4","last_reported":1719227339,"current_range_meters":0,"station_id":"ce4bgkh2rcd13ifvqbk0","pricing_plan_id":"cebpf4jnsgd1na2vs0mg"},{"bike_id":"834e3b88-e579-42d5-8dbf-4d4b480d0153","system_id":"levelo_inurba_marseille","lat":43.2936,"lon":5.37835,"is_reserved":false,"is_disabled":false,"rental_uris":{"android":"levelo://app?vid=834e3b88-e579-42d5-8dbf-4d4b480d0153","ios":"levelo://app?vid=834e3b88-e579-42d5-8dbf-4d4b480d0153"},"vehicle_type_id":"4","last_reported":1719227339,"current_range_meters":11200,"station_id":"ce4bgjh2rcd13ifvqbf0","pricing_plan_id":"cebpf4jnsgd1na2vs0mg"},{"bike_id":"c93bacab-9175-46fb-aad5-b93bd953e244","system_id":"levelo_inurba_marseille","lat":43.292311,"lon":5.360731,"is_reserved":false,"is_disabled":false,"rental_uris":{"android":"levelo://app?vid=c93bacab-9175-46fb-aad5-b93bd953e244","ios":"levelo://app?vid=c93bacab-9175-46fb-aad5-b93bd953e244"},"vehicle_type_id":"4","last_reported":1719227339,"current_range_meters":31200,"station_id":"ce4bhbh2rcd13ifvqeqg","pricing_plan_id":"cebpf4jnsgd1na2vs0mg"},{"bike_id":"6b433e78-23da-4dc1-b81f-b4fbce3c031f","system_id":"levelo_inurba_marseille","lat":43.292311,"lon":5.360731,"is_reserved":false,"is_disabled":false,"rental_uris":{"android":"levelo://app?vid=6b433e78-23da-4dc1-b81f-b4fbce3c031f","ios":"levelo://app?vid=6b433e78-23da-4dc1-b81f-b4fbce3c031f"},"vehicle_type_id":"4","last_reported":1719227339,"current_range_meters":16800,"station_id":"ce4bhbh2rcd13ifvqeqg","pricing_plan_id":"cebpf4jnsgd1na2vs0mg"},{"bike_id":"611c35e7-674c-48f1-8817-69bcb08e95b4","system_id":"levelo_inurba_marseille","lat":43.298764,"lon":5.388973,"is_reserved":false,"is_disabled":false,"rental_uris":{"android":"levelo://app?vid=611c35e7-674c-48f1-8817-69bcb08e95b4","ios":"levelo://app?vid=611c35e7-674c-48f1-8817-69bcb08e95b4"},"vehicle_type_id":"4","last_reported":1719227339,"current_range_meters":28800,"station_id":"ce4bh392rcd13ifvqdl0","pricing_plan_id":"cebpf4jnsgd1na2vs0mg"},{"bike_id":"066e68e1-c4ea-45de-9c72-80c0ce098bf9","system_id":"levelo_inurba_marseille","lat":43.291994,"lon":5.357886,"is_reserved":false,"is_disabled":false,"rental_uris":{"android":"levelo://app?vid=066e68e1-c4ea-45de-9c72-80c0ce098bf9","ios":"levelo://app?vid=066e68e1-c4ea-45de-9c72-80c0ce098bf9"},"vehicle_type_id":"4","last_reported":1719227339,"current_range_meters":3600,"station_id":"ce4bhb12rcd13ifvqel0","pricing_plan_id":"cebpf4jnsgd1na2vs0mg"},{"bike_id":"17004b90-97db-43cf-9fd2-c48536b56e73","system_id":"levelo_inurba_marseille","lat":43.291994,"lon":5.357886,"is_reserved":false,"is_disabled":false,"rental_uris":{"android":"levelo://app?vid=17004b90-97db-43cf-9fd2-c48536b56e73","ios":"levelo://app?vid=17004b90-97db-43cf-9fd2-c48536b56e73"},"vehicle_type_id":"4","last_reported":1719227339,"current_range_meters":10400,"station_id":"ce4bhb12rcd13ifvqel0","pricing_plan_id":"cebpf4jnsgd1na2vs0mg"},{"bike_id":"98d4bd6d-ca40-49a2-96e9-fd5d7b4a848a","system_id":"levelo_inurba_marseille","lat":43.292005,"lon":5.357875,"is_reserved":false,"is_disabled":false,"rental_uris":{"android":"levelo://app?vid=98d4bd6d-ca40-49a2-96e9-fd5d7b4a848a","ios":"levelo://app?vid=98d4bd6d-ca40-49a2-96e9-fd5d7b4a848a"},"vehicle_type_id":"4","last_reported":1719227339,"current_range_meters":10800,"station_id":"ce4bhb12rcd13ifvqel0","pricing_plan_id":"cebpf4jnsgd1na2vs0mg"},{"bike_id":"290f00cb-dc21-424f-9c6c-5fc29c2593a6","system_id":"levelo_inurba_marseille","lat":43.309047,"lon":5.396551,"is_reserved":false,"is_disabled":false,"rental_uris":{"android":"levelo://app?vid=290f00cb-dc21-424f-9c6c-5fc29c2593a6","ios":"levelo://app?vid=290f00cb-dc21-424f-9c6c-5fc29c2593a6"},"vehicle_type_id":"4","last_reported":1719227339,"current_range_meters":16800,"station_id":"ce4bh012rcd13ifvqcv0","pricing_plan_id":"cebpf4jnsgd1na2vs0mg"},{"bike_id":"8ecdb498-04b1-4118-aaf8-e101e246964a","system_id":"levelo_inurba_marseille","lat":43.33214,"lon":5.38084,"is_reserved":false,"is_disabled":false,"rental_uris":{"android":"levelo://app?vid=8ecdb498-04b1-4118-aaf8-e101e246964a","ios":"levelo://app?vid=8ecdb498-04b1-4118-aaf8-e101e246964a"},"vehicle_type_id":"4","last_reported":1719227339,"current_range_meters":0,"station_id":"","pricing_plan_id":"cebpf4jnsgd1na2vs0mg"},{"bike_id":"59b4f4dc-b2e0-40bf-8df4-0496108cdd48","system_id":"levelo_inurba_marseille","lat":43.29529,"lon":5.385581,"is_reserved":false,"is_disabled":false,"rental_uris":{"android":"levelo://app?vid=59b4f4dc-b2e0-40bf-8df4-0496108cdd48","ios":"levelo://app?vid=59b4f4dc-b2e0-40bf-8df4-0496108cdd48"},"vehicle_type_id":"4","last_reported":1719227339,"current_range_meters":17200,"station_id":"ce4bgih2rcd13ifvqba0","pricing_plan_id":"cebpf4jnsgd1na2vs0mg"},{"bike_id":"beb86ad6-3341-4907-ad5b-f954a523c0a6","system_id":"levelo_inurba_marseille","lat":43.309038,"lon":5.396546,"is_reserved":false,"is_disabled":false,"rental_uris":{"android":"levelo://app?vid=beb86ad6-3341-4907-ad5b-f954a523c0a6","ios":"levelo://app?vid=beb86ad6-3341-4907-ad5b-f954a523c0a6"},"vehicle_type_id":"4","last_reported":1719227339,"current_range_meters":20800,"station_id":"ce4bh012rcd13ifvqcv0","pricing_plan_id":"cebpf4jnsgd1na2vs0mg"},{"bike_id":"1e119ec0-453f-4f5f-9e89-40a81ff397b9","system_id":"levelo_inurba_marseille","lat":43.29529,"lon":5.385581,"is_reserved":false,"is_disabled":false,"rental_uris":{"android":"levelo://app?vid=1e119ec0-453f-4f5f-9e89-40a81ff397b9","ios":"levelo://app?vid=1e119ec0-453f-4f5f-9e89-40a81ff397b9"},"vehicle_type_id":"4","last_reported":1719227339,"current_range_meters":31200,"station_id":"ce4bgih2rcd13ifvqba0","pricing_plan_id":"cebpf4jnsgd1na2vs0mg"},{"bike_id":"d95e3c52-5e98-450c-b8f8-d443d0a01243","system_id":"levelo_inurba_marseille","lat":43.29529,"lon":5.385581,"is_reserved":false,"is_disabled":false,"rental_uris":{"android":"levelo://app?vid=d95e3c52-5e98-450c-b8f8-d443d0a01243","ios":"levelo://app?vid=d95e3c52-5e98-450c-b8f8-d443d0a01243"},"vehicle_type_id":"4","last_reported":1719227339,"current_range_meters":20800,"station_id":"ce4bgih2rcd13ifvqba0","pricing_plan_id":"cebpf4jnsgd1na2vs0mg"},{"bike_id":"78574894-a0c9-4276-82a9-5046b11351b0","system_id":"levelo_inurba_marseille","lat":43.302008,"lon":5.394694,"is_reserved":false,"is_disabled":false,"rental_uris":{"android":"levelo://app?vid=78574894-a0c9-4276-82a9-5046b11351b0","ios":"levelo://app?vid=78574894-a0c9-4276-82a9-5046b11351b0"},"vehicle_type_id":"4","last_reported":1719227339,"current_range_meters":15600,"station_id":"ce4bh0p2rcd13ifvqd70","pricing_plan_id":"cebpf4jnsgd1na2vs0mg"},{"bike_id":"bc4f0c8e-65ad-4744-8898-e1d8d1bd0907","system_id":"levelo_inurba_marseille","lat":43.290624,"lon":5.359245,"is_reserved":false,"is_disabled":false,"rental_uris":{"android":"levelo://app?vid=bc4f0c8e-65ad-4744-8898-e1d8d1bd0907","ios":"levelo://app?vid=bc4f0c8e-65ad-4744-8898-e1d8d1bd0907"},"vehicle_type_id":"4","last_reported":1719227339,"current_range_meters":24400,"station_id":"ce4bha92rcd13ifvqeg0","pricing_plan_id":"cebpf4jnsgd1na2vs0mg"},{"bike_id":"8e39ab4a-4989-4613-9263-5d62dd7831cd","system_id":"levelo_inurba_marseille","lat":43.290631,"lon":5.359244,"is_reserved":false,"is_disabled":false,"rental_uris":{"android":"levelo://app?vid=8e39ab4a-4989-4613-9263-5d62dd7831cd","ios":"levelo://app?vid=8e39ab4a-4989-4613-9263-5d62dd7831cd"},"vehicle_type_id":"4","last_reported":1719227339,"current_range_meters":29600,"station_id":"ce4bha92rcd13ifvqeg0","pricing_plan_id":"cebpf4jnsgd1na2vs0mg"},{"bike_id":"7eb8ed75-1818-4db6-9f5d-742f5b0e7b16","system_id":"levelo_inurba_marseille","lat":43.290624,"lon":5.359245,"is_reserved":false,"is_disabled":false,"rental_uris":{"android":"levelo://app?vid=7eb8ed75-1818-4db6-9f5d-742f5b0e7b16","ios":"levelo://app?vid=7eb8ed75-1818-4db6-9f5d-742f5b0e7b16"},"vehicle_type_id":"4","last_reported":1719227339,"current_range_meters":16000,"station_id":"ce4bha92rcd13ifvqeg0","pricing_plan_id":"cebpf4jnsgd1na2vs0mg"},{"bike_id":"56fb4efa-4566-4748-ab38-debbc4cc55e0","system_id":"levelo_inurba_marseille","lat":43.289468,"lon":5.363719,"is_reserved":false,"is_disabled":false,"rental_uris":{"android":"levelo://app?vid=56fb4efa-4566-4748-ab38-debbc4cc55e0","ios":"levelo://app?vid=56fb4efa-4566-4748-ab38-debbc4cc55e0"},"vehicle_type_id":"4","last_reported":1719227339,"current_range_meters":13600,"station_id":"ce4bhc92rcd13ifvqetg","pricing_plan_id":"cebpf4jnsgd1na2vs0mg"},{"bike_id":"b6dfa6e8-5f67-4538-a0b7-0415c1ae0fa9","system_id":"levelo_inurba_marseille","lat":43.294162,"lon":5.386292,"is_reserved":false,"is_disabled":false,"rental_uris":{"android":"levelo://app?vid=b6dfa6e8-5f67-4538-a0b7-0415c1ae0fa9","ios":"levelo://app?vid=b6dfa6e8-5f67-4538-a0b7-0415c1ae0fa9"},"vehicle_type_id":"4","last_reported":1719227339,"current_range_meters":15600,"station_id":"ce4bh2h2rcd13ifvqdh0","pricing_plan_id":"cebpf4jnsgd1na2vs0mg"},{"bike_id":"903b0fdd-fb40-48a0-ba06-c57fa46b162d","system_id":"levelo_inurba_marseille","lat":43.289184,"lon":5.366408,"is_reserved":false,"is_disabled":false,"rental_uris":{"android":"levelo://app?vid=903b0fdd-fb40-48a0-ba06-c57fa46b162d","ios":"levelo://app?vid=903b0fdd-fb40-48a0-ba06-c57fa46b162d"},"vehicle_type_id":"4","last_reported":1719227339,"current_range_meters":29600,"station_id":"ce4bhap2rcd13ifvqek0","pricing_plan_id":"cebpf4jnsgd1na2vs0mg"},{"bike_id":"3d02e57f-fe9d-410a-ad73-f5042ad68b13","system_id":"levelo_inurba_marseille","lat":43.289468,"lon":5.363719,"is_reserved":false,"is_disabled":false,"rental_uris":{"android":"levelo://app?vid=3d02e57f-fe9d-410a-ad73-f5042ad68b13","ios":"levelo://app?vid=3d02e57f-fe9d-410a-ad73-f5042ad68b13"},"vehicle_type_id":"4","last_reported":1719227339,"current_range_meters":2000,"station_id":"ce4bhc92rcd13ifvqetg","pricing_plan_id":"cebpf4jnsgd1na2vs0mg"},{"bike_id":"b25667a3-d054-4b1d-bc20-973295b1d72c","system_id":"levelo_inurba_marseille","lat":43.290104,"lon":5.356111,"is_reserved":false,"is_disabled":false,"rental_uris":{"android":"levelo://app?vid=b25667a3-d054-4b1d-bc20-973295b1d72c","ios":"levelo://app?vid=b25667a3-d054-4b1d-bc20-973295b1d72c"},"vehicle_type_id":"4","last_reported":1719227339,"current_range_meters":24800,"station_id":"ce4bhb92rcd13ifvqen0","pricing_plan_id":"cebpf4jnsgd1na2vs0mg"},{"bike_id":"921331b2-b1ba-4c13-8c6d-c6c2a191affe","system_id":"levelo_inurba_marseille","lat":43.290103,"lon":5.356114,"is_reserved":false,"is_disabled":false,"rental_uris":{"android":"levelo://app?vid=921331b2-b1ba-4c13-8c6d-c6c2a191affe","ios":"levelo://app?vid=921331b2-b1ba-4c13-8c6d-c6c2a191affe"},"vehicle_type_id":"4","last_reported":1719227339,"current_range_meters":18000,"station_id":"ce4bhb92rcd13ifvqen0","pricing_plan_id":"cebpf4jnsgd1na2vs0mg"},{"bike_id":"f76fbbb5-beb9-42c0-9ca0-c08ba5c1c9c9","system_id":"levelo_inurba_marseille","lat":43.290104,"lon":5.356111,"is_reserved":false,"is_disabled":false,"rental_uris":{"android":"levelo://app?vid=f76fbbb5-beb9-42c0-9ca0-c08ba5c1c9c9","ios":"levelo://app?vid=f76fbbb5-beb9-42c0-9ca0-c08ba5c1c9c9"},"vehicle_type_id":"4","last_reported":1719227339,"current_range_meters":24800,"station_id":"ce4bhb92rcd13ifvqen0","pricing_plan_id":"cebpf4jnsgd1na2vs0mg"},{"bike_id":"7d4d5598-2eff-4a88-b58a-be547e9f447e","system_id":"levelo_inurba_marseille","lat":43.290104,"lon":5.356111,"is_reserved":false,"is_disabled":false,"rental_uris":{"android":"levelo://app?vid=7d4d5598-2eff-4a88-b58a-be547e9f447e","ios":"levelo://app?vid=7d4d5598-2eff-4a88-b58a-be547e9f447e"},"vehicle_type_id":"4","last_reported":1719227339,"current_range_meters":32000,"station_id":"ce4bhb92rcd13ifvqen0","pricing_plan_id":"cebpf4jnsgd1na2vs0mg"},{"bike_id":"79420116-be07-4404-bcba-faa77ae139d7","system_id":"levelo_inurba_marseille","lat":43.290104,"lon":5.356111,"is_reserved":false,"is_disabled":false,"rental_uris":{"android":"levelo://app?vid=79420116-be07-4404-bcba-faa77ae139d7","ios":"levelo://app?vid=79420116-be07-4404-bcba-faa77ae139d7"},"vehicle_type_id":"4","last_reported":1719227339,"current_range_meters":18400,"station_id":"ce4bhb92rcd13ifvqen0","pricing_plan_id":"cebpf4jnsgd1na2vs0mg"},{"bike_id":"8de8bb37-609a-4c45-931f-d7af335508ec","system_id":"levelo_inurba_marseille","lat":43.290104,"lon":5.356111,"is_reserved":false,"is_disabled":false,"rental_uris":{"android":"levelo://app?vid=8de8bb37-609a-4c45-931f-d7af335508ec","ios":"levelo://app?vid=8de8bb37-609a-4c45-931f-d7af335508ec"},"vehicle_type_id":"4","last_reported":1719227339,"current_range_meters":17200,"station_id":"ce4bhb92rcd13ifvqen0","pricing_plan_id":"cebpf4jnsgd1na2vs0mg"},{"bike_id":"53940598-a258-4a2d-beee-5394b36ddda8","system_id":"levelo_inurba_marseille","lat":43.290103,"lon":5.356114,"is_reserved":false,"is_disabled":false,"rental_uris":{"android":"levelo://app?vid=53940598-a258-4a2d-beee-5394b36ddda8","ios":"levelo://app?vid=53940598-a258-4a2d-beee-5394b36ddda8"},"vehicle_type_id":"4","last_reported":1719227339,"current_range_meters":31200,"station_id":"ce4bhb92rcd13ifvqen0","pricing_plan_id":"cebpf4jnsgd1na2vs0mg"},{"bike_id":"5ad6c485-f517-44cc-af7b-c30e771988d8","system_id":"levelo_inurba_marseille","lat":43.290103,"lon":5.356114,"is_reserved":false,"is_disabled":false,"rental_uris":{"android":"levelo://app?vid=5ad6c485-f517-44cc-af7b-c30e771988d8","ios":"levelo://app?vid=5ad6c485-f517-44cc-af7b-c30e771988d8"},"vehicle_type_id":"4","last_reported":1719227339,"current_range_meters":5600,"station_id":"ce4bhb92rcd13ifvqen0","pricing_plan_id":"cebpf4jnsgd1na2vs0mg"},{"bike_id":"cd839d6a-aba3-4692-a3f8-c53a4dfe7781","system_id":"levelo_inurba_marseille","lat":43.290103,"lon":5.356114,"is_reserved":false,"is_disabled":false,"rental_uris":{"android":"levelo://app?vid=cd839d6a-aba3-4692-a3f8-c53a4dfe7781","ios":"levelo://app?vid=cd839d6a-aba3-4692-a3f8-c53a4dfe7781"},"vehicle_type_id":"4","last_reported":1719227339,"current_range_meters":31600,"station_id":"ce4bhb92rcd13ifvqen0","pricing_plan_id":"cebpf4jnsgd1na2vs0mg"},{"bike_id":"3313ba5d-aad8-4d44-af98-2a369a6a554b","system_id":"levelo_inurba_marseille","lat":43.290104,"lon":5.356111,"is_reserved":false,"is_disabled":false,"rental_uris":{"android":"levelo://app?vid=3313ba5d-aad8-4d44-af98-2a369a6a554b","ios":"levelo://app?vid=3313ba5d-aad8-4d44-af98-2a369a6a554b"},"vehicle_type_id":"4","last_reported":1719227339,"current_range_meters":18000,"station_id":"ce4bhb92rcd13ifvqen0","pricing_plan_id":"cebpf4jnsgd1na2vs0mg"},{"bike_id":"fcd07f08-05b6-4ab7-a233-16ec8e61b582","system_id":"levelo_inurba_marseille","lat":43.290104,"lon":5.356111,"is_reserved":false,"is_disabled":false,"rental_uris":{"android":"levelo://app?vid=fcd07f08-05b6-4ab7-a233-16ec8e61b582","ios":"levelo://app?vid=fcd07f08-05b6-4ab7-a233-16ec8e61b582"},"vehicle_type_id":"4","last_reported":1719227339,"current_range_meters":22400,"station_id":"ce4bhb92rcd13ifvqen0","pricing_plan_id":"cebpf4jnsgd1na2vs0mg"},{"bike_id":"b16efc0e-b099-43dc-9b9c-c5ce5c3fa91b","system_id":"levelo_inurba_marseille","lat":43.290104,"lon":5.356111,"is_reserved":false,"is_disabled":false,"rental_uris":{"android":"levelo://app?vid=b16efc0e-b099-43dc-9b9c-c5ce5c3fa91b","ios":"levelo://app?vid=b16efc0e-b099-43dc-9b9c-c5ce5c3fa91b"},"vehicle_type_id":"4","last_reported":1719227339,"current_range_meters":12000,"station_id":"ce4bhb92rcd13ifvqen0","pricing_plan_id":"cebpf4jnsgd1na2vs0mg"},{"bike_id":"6565b16f-1848-4cc3-aff5-4707e09ad18a","system_id":"levelo_inurba_marseille","lat":43.290103,"lon":5.356114,"is_reserved":false,"is_disabled":false,"rental_uris":{"android":"levelo://app?vid=6565b16f-1848-4cc3-aff5-4707e09ad18a","ios":"levelo://app?vid=6565b16f-1848-4cc3-aff5-4707e09ad18a"},"vehicle_type_id":"4","last_reported":1719227339,"current_range_meters":16400,"station_id":"ce4bhb92rcd13ifvqen0","pricing_plan_id":"cebpf4jnsgd1na2vs0mg"},{"bike_id":"558e2f17-5928-43fb-b323-4b8a58bbe4f9","system_id":"levelo_inurba_marseille","lat":43.290103,"lon":5.356114,"is_reserved":false,"is_disabled":false,"rental_uris":{"android":"levelo://app?vid=558e2f17-5928-43fb-b323-4b8a58bbe4f9","ios":"levelo://app?vid=558e2f17-5928-43fb-b323-4b8a58bbe4f9"},"vehicle_type_id":"4","last_reported":1719227339,"current_range_meters":18400,"station_id":"ce4bhb92rcd13ifvqen0","pricing_plan_id":"cebpf4jnsgd1na2vs0mg"},{"bike_id":"646d128e-c8fc-440d-adc4-c4bf0528d286","system_id":"levelo_inurba_marseille","lat":43.290103,"lon":5.356114,"is_reserved":false,"is_disabled":false,"rental_uris":{"android":"levelo://app?vid=646d128e-c8fc-440d-adc4-c4bf0528d286","ios":"levelo://app?vid=646d128e-c8fc-440d-adc4-c4bf0528d286"},"vehicle_type_id":"4","last_reported":1719227339,"current_range_meters":17200,"station_id":"ce4bhb92rcd13ifvqen0","pricing_plan_id":"cebpf4jnsgd1na2vs0mg"},{"bike_id":"8682b433-081f-4b4a-9606-af2e04ac9908","system_id":"levelo_inurba_marseille","lat":43.290103,"lon":5.356114,"is_reserved":false,"is_disabled":false,"rental_uris":{"android":"levelo://app?vid=8682b433-081f-4b4a-9606-af2e04ac9908","ios":"levelo://app?vid=8682b433-081f-4b4a-9606-af2e04ac9908"},"vehicle_type_id":"4","last_reported":1719227339,"current_range_meters":25600,"station_id":"ce4bhb92rcd13ifvqen0","pricing_plan_id":"cebpf4jnsgd1na2vs0mg"},{"bike_id":"21ace40a-25a2-42cc-bc84-a556e43765f1","system_id":"levelo_inurba_marseille","lat":43.290103,"lon":5.356114,"is_reserved":false,"is_disabled":false,"rental_uris":{"android":"levelo://app?vid=21ace40a-25a2-42cc-bc84-a556e43765f1","ios":"levelo://app?vid=21ace40a-25a2-42cc-bc84-a556e43765f1"},"vehicle_type_id":"4","last_reported":1719227339,"current_range_meters":14800,"station_id":"ce4bhb92rcd13ifvqen0","pricing_plan_id":"cebpf4jnsgd1na2vs0mg"},{"bike_id":"ea4e3f72-fc2b-4942-9de6-7fa2eaa6ee3f","system_id":"levelo_inurba_marseille","lat":43.290104,"lon":5.356111,"is_reserved":false,"is_disabled":false,"rental_uris":{"android":"levelo://app?vid=ea4e3f72-fc2b-4942-9de6-7fa2eaa6ee3f","ios":"levelo://app?vid=ea4e3f72-fc2b-4942-9de6-7fa2eaa6ee3f"},"vehicle_type_id":"4","last_reported":1719227339,"current_range_meters":31600,"station_id":"ce4bhb92rcd13ifvqen0","pricing_plan_id":"cebpf4jnsgd1na2vs0mg"},{"bike_id":"aee786d7-751d-4b5c-a212-c5a19ca4cd5d","system_id":"levelo_inurba_marseille","lat":43.290104,"lon":5.356111,"is_reserved":false,"is_disabled":false,"rental_uris":{"android":"levelo://app?vid=aee786d7-751d-4b5c-a212-c5a19ca4cd5d","ios":"levelo://app?vid=aee786d7-751d-4b5c-a212-c5a19ca4cd5d"},"vehicle_type_id":"4","last_reported":1719227339,"current_range_meters":20000,"station_id":"ce4bhb92rcd13ifvqen0","pricing_plan_id":"cebpf4jnsgd1na2vs0mg"},{"bike_id":"a23fc587-a814-432c-b667-57bb8d25543d","system_id":"levelo_inurba_marseille","lat":43.29779,"lon":5.39334,"is_reserved":false,"is_disabled":false,"rental_uris":{"android":"levelo://app?vid=a23fc587-a814-432c-b667-57bb8d25543d","ios":"levelo://app?vid=a23fc587-a814-432c-b667-57bb8d25543d"},"vehicle_type_id":"4","last_reported":1719227339,"current_range_meters":26800,"station_id":"chh1huq6cuj3fo74tm60","pricing_plan_id":"cebpf4jnsgd1na2vs0mg"},{"bike_id":"9216a8cd-ec62-46dc-8292-2494f413efe1","system_id":"levelo_inurba_marseille","lat":43.297815,"lon":5.393548,"is_reserved":false,"is_disabled":false,"rental_uris":{"android":"levelo://app?vid=9216a8cd-ec62-46dc-8292-2494f413efe1","ios":"levelo://app?vid=9216a8cd-ec62-46dc-8292-2494f413efe1"},"vehicle_type_id":"4","last_reported":1719227339,"current_range_meters":28800,"station_id":"chh1huq6cuj3fo74tm60","pricing_plan_id":"cebpf4jnsgd1na2vs0mg"},{"bike_id":"9daf3343-836b-4361-a699-50f9bd4102e9","system_id":"levelo_inurba_marseille","lat":43.2953,"lon":5.39032,"is_reserved":false,"is_disabled":false,"rental_uris":{"android":"levelo://app?vid=9daf3343-836b-4361-a699-50f9bd4102e9","ios":"levelo://app?vid=9daf3343-836b-4361-a699-50f9bd4102e9"},"vehicle_type_id":"4","last_reported":1719227339,"current_range_meters":29200,"station_id":"ce4bh3p2rcd13ifvqdp0","pricing_plan_id":"cebpf4jnsgd1na2vs0mg"},{"bike_id":"3f5538de-2f6f-4857-ad9b-2276408d3ba5","system_id":"levelo_inurba_marseille","lat":43.289741,"lon":5.378306,"is_reserved":false,"is_disabled":false,"rental_uris":{"android":"levelo://app?vid=3f5538de-2f6f-4857-ad9b-2276408d3ba5","ios":"levelo://app?vid=3f5538de-2f6f-4857-ad9b-2276408d3ba5"},"vehicle_type_id":"4","last_reported":1719227339,"current_range_meters":0,"station_id":"ce4bh9p2rcd13ifvqed0","pricing_plan_id":"cebpf4jnsgd1na2vs0mg"},{"bike_id":"d82f62a1-69dc-4ab9-ab2a-8731f592361e","system_id":"levelo_inurba_marseille","lat":43.330442,"lon":5.389148,"is_reserved":false,"is_disabled":false,"rental_uris":{"android":"levelo://app?vid=d82f62a1-69dc-4ab9-ab2a-8731f592361e","ios":"levelo://app?vid=d82f62a1-69dc-4ab9-ab2a-8731f592361e"},"vehicle_type_id":"4","last_reported":1719227339,"current_range_meters":31600,"station_id":"ce4bhr92rcd13ifvqhrg","pricing_plan_id":"cebpf4jnsgd1na2vs0mg"},{"bike_id":"e8af5abd-94f8-44f9-b40d-c21b8db984e9","system_id":"levelo_inurba_marseille","lat":43.28973,"lon":5.378403,"is_reserved":false,"is_disabled":false,"rental_uris":{"android":"levelo://app?vid=e8af5abd-94f8-44f9-b40d-c21b8db984e9","ios":"levelo://app?vid=e8af5abd-94f8-44f9-b40d-c21b8db984e9"},"vehicle_type_id":"4","last_reported":1719227339,"current_range_meters":5200,"station_id":"ce4bh9p2rcd13ifvqed0","pricing_plan_id":"cebpf4jnsgd1na2vs0mg"},{"bike_id":"3a9902a4-8a18-4061-af7a-135694cebbc8","system_id":"levelo_inurba_marseille","lat":43.330442,"lon":5.389148,"is_reserved":false,"is_disabled":false,"rental_uris":{"android":"levelo://app?vid=3a9902a4-8a18-4061-af7a-135694cebbc8","ios":"levelo://app?vid=3a9902a4-8a18-4061-af7a-135694cebbc8"},"vehicle_type_id":"4","last_reported":1719227339,"current_range_meters":800,"station_id":"ce4bhr92rcd13ifvqhrg","pricing_plan_id":"cebpf4jnsgd1na2vs0mg"},{"bike_id":"f2e8682b-c3fc-45a8-bfc5-fb534c803180","system_id":"levelo_inurba_marseille","lat":43.28856,"lon":5.358371,"is_reserved":false,"is_disabled":false,"rental_uris":{"android":"levelo://app?vid=f2e8682b-c3fc-45a8-bfc5-fb534c803180","ios":"levelo://app?vid=f2e8682b-c3fc-45a8-bfc5-fb534c803180"},"vehicle_type_id":"4","last_reported":1719227339,"current_range_meters":19200,"station_id":"ce4bhb12rcd13ifvqem0","pricing_plan_id":"cebpf4jnsgd1na2vs0mg"},{"bike_id":"bc6a4b57-b9a9-4670-a5db-9bee7d171b50","system_id":"levelo_inurba_marseille","lat":43.309371,"lon":5.401449,"is_reserved":false,"is_disabled":false,"rental_uris":{"android":"levelo://app?vid=bc6a4b57-b9a9-4670-a5db-9bee7d171b50","ios":"levelo://app?vid=bc6a4b57-b9a9-4670-a5db-9bee7d171b50"},"vehicle_type_id":"4","last_reported":1719227339,"current_range_meters":2000,"station_id":"ce4bgvp2rcd13ifvqct0","pricing_plan_id":"cebpf4jnsgd1na2vs0mg"},{"bike_id":"c3ddbe4a-157d-4893-acf1-f1f626a65d21","system_id":"levelo_inurba_marseille","lat":43.337442,"lon":5.374648,"is_reserved":false,"is_disabled":false,"rental_uris":{"android":"levelo://app?vid=c3ddbe4a-157d-4893-acf1-f1f626a65d21","ios":"levelo://app?vid=c3ddbe4a-157d-4893-acf1-f1f626a65d21"},"vehicle_type_id":"0","last_reported":1719227339,"current_range_meters":15600,"station_id":"","pricing_plan_id":"cebpf4jnsgd1na2vs0mg"},{"bike_id":"1a1f70f2-2f3d-4842-b35e-e803deb79013","system_id":"levelo_inurba_marseille","lat":43.301117,"lon":5.398795,"is_reserved":false,"is_disabled":false,"rental_uris":{"android":"levelo://app?vid=1a1f70f2-2f3d-4842-b35e-e803deb79013","ios":"levelo://app?vid=1a1f70f2-2f3d-4842-b35e-e803deb79013"},"vehicle_type_id":"4","last_reported":1719227339,"current_range_meters":28800,"station_id":"ce4bh0h2rcd13ifvqd40","pricing_plan_id":"cebpf4jnsgd1na2vs0mg"},{"bike_id":"9a29c011-7eeb-4eea-9519-a94137a09bbc","system_id":"levelo_inurba_marseille","lat":43.301117,"lon":5.398795,"is_reserved":false,"is_disabled":false,"rental_uris":{"android":"levelo://app?vid=9a29c011-7eeb-4eea-9519-a94137a09bbc","ios":"levelo://app?vid=9a29c011-7eeb-4eea-9519-a94137a09bbc"},"vehicle_type_id":"4","last_reported":1719227339,"current_range_meters":0,"station_id":"ce4bh0h2rcd13ifvqd40","pricing_plan_id":"cebpf4jnsgd1na2vs0mg"},{"bike_id":"e7606d5e-fe7c-4708-9c91-074da1c70438","system_id":"levelo_inurba_marseille","lat":43.28727,"lon":5.36078,"is_reserved":false,"is_disabled":false,"rental_uris":{"android":"levelo://app?vid=e7606d5e-fe7c-4708-9c91-074da1c70438","ios":"levelo://app?vid=e7606d5e-fe7c-4708-9c91-074da1c70438"},"vehicle_type_id":"4","last_reported":1719227339,"current_range_meters":25200,"station_id":"cki0cbj6b192h4jlfktg","pricing_plan_id":"cebpf4jnsgd1na2vs0mg"},{"bike_id":"f2e91461-89f5-4410-ba3d-edf289a70fb8","system_id":"levelo_inurba_marseille","lat":43.28727,"lon":5.36078,"is_reserved":false,"is_disabled":false,"rental_uris":{"android":"levelo://app?vid=f2e91461-89f5-4410-ba3d-edf289a70fb8","ios":"levelo://app?vid=f2e91461-89f5-4410-ba3d-edf289a70fb8"},"vehicle_type_id":"4","last_reported":1719227339,"current_range_meters":12000,"station_id":"cki0cbj6b192h4jlfktg","pricing_plan_id":"cebpf4jnsgd1na2vs0mg"},{"bike_id":"8ec6ee52-fe65-463d-9a5e-0fa520a70384","system_id":"levelo_inurba_marseille","lat":43.28727,"lon":5.36078,"is_reserved":false,"is_disabled":false,"rental_uris":{"android":"levelo://app?vid=8ec6ee52-fe65-463d-9a5e-0fa520a70384","ios":"levelo://app?vid=8ec6ee52-fe65-463d-9a5e-0fa520a70384"},"vehicle_type_id":"4","last_reported":1719227339,"current_range_meters":26400,"station_id":"cki0cbj6b192h4jlfktg","pricing_plan_id":"cebpf4jnsgd1na2vs0mg"},{"bike_id":"cf7965b9-a0d1-40f7-b7ca-7d142d6e99df","system_id":"levelo_inurba_marseille","lat":43.28677,"lon":5.36347,"is_reserved":false,"is_disabled":false,"rental_uris":{"android":"levelo://app?vid=cf7965b9-a0d1-40f7-b7ca-7d142d6e99df","ios":"levelo://app?vid=cf7965b9-a0d1-40f7-b7ca-7d142d6e99df"},"vehicle_type_id":"4","last_reported":1719227339,"current_range_meters":15200,"station_id":"ce4bhah2rcd13ifvqej0","pricing_plan_id":"cebpf4jnsgd1na2vs0mg"},{"bike_id":"80e4c61f-bb4b-40e9-8880-a2983449eb16","system_id":"levelo_inurba_marseille","lat":43.286591,"lon":5.363346,"is_reserved":false,"is_disabled":false,"rental_uris":{"android":"levelo://app?vid=80e4c61f-bb4b-40e9-8880-a2983449eb16","ios":"levelo://app?vid=80e4c61f-bb4b-40e9-8880-a2983449eb16"},"vehicle_type_id":"4","last_reported":1719227339,"current_range_meters":12400,"station_id":"ce4bhah2rcd13ifvqej0","pricing_plan_id":"cebpf4jnsgd1na2vs0mg"},{"bike_id":"9ee81539-6f33-4a31-9d1b-59c61bd2d682","system_id":"levelo_inurba_marseille","lat":43.286961,"lon":5.373785,"is_reserved":false,"is_disabled":false,"rental_uris":{"android":"levelo://app?vid=9ee81539-6f33-4a31-9d1b-59c61bd2d682","ios":"levelo://app?vid=9ee81539-6f33-4a31-9d1b-59c61bd2d682"},"vehicle_type_id":"4","last_reported":1719227339,"current_range_meters":0,"station_id":"ce4bh3p2rcd13ifvqdq0","pricing_plan_id":"cebpf4jnsgd1na2vs0mg"},{"bike_id":"677da76f-a646-4755-9791-7a82a4f5a760","system_id":"levelo_inurba_marseille","lat":43.286593,"lon":5.363346,"is_reserved":false,"is_disabled":false,"rental_uris":{"android":"levelo://app?vid=677da76f-a646-4755-9791-7a82a4f5a760","ios":"levelo://app?vid=677da76f-a646-4755-9791-7a82a4f5a760"},"vehicle_type_id":"4","last_reported":1719227339,"current_range_meters":4400,"station_id":"ce4bhah2rcd13ifvqej0","pricing_plan_id":"cebpf4jnsgd1na2vs0mg"},{"bike_id":"1309aeb5-394d-49fa-8e20-d2c857914186","system_id":"levelo_inurba_marseille","lat":43.298681,"lon":5.397225,"is_reserved":false,"is_disabled":false,"rental_uris":{"android":"levelo://app?vid=1309aeb5-394d-49fa-8e20-d2c857914186","ios":"levelo://app?vid=1309aeb5-394d-49fa-8e20-d2c857914186"},"vehicle_type_id":"4","last_reported":1719227339,"current_range_meters":19600,"station_id":"ce4bh0h2rcd13ifvqd50","pricing_plan_id":"cebpf4jnsgd1na2vs0mg"},{"bike_id":"a11f6fd5-cd73-4e7f-897d-033401eeffda","system_id":"levelo_inurba_marseille","lat":43.286961,"lon":5.373785,"is_reserved":false,"is_disabled":false,"rental_uris":{"android":"levelo://app?vid=a11f6fd5-cd73-4e7f-897d-033401eeffda","ios":"levelo://app?vid=a11f6fd5-cd73-4e7f-897d-033401eeffda"},"vehicle_type_id":"4","last_reported":1719227339,"current_range_meters":24400,"station_id":"ce4bh3p2rcd13ifvqdq0","pricing_plan_id":"cebpf4jnsgd1na2vs0mg"},{"bike_id":"6eacca42-0a44-4992-990c-b3060bd561e8","system_id":"levelo_inurba_marseille","lat":43.286961,"lon":5.373785,"is_reserved":false,"is_disabled":false,"rental_uris":{"android":"levelo://app?vid=6eacca42-0a44-4992-990c-b3060bd561e8","ios":"levelo://app?vid=6eacca42-0a44-4992-990c-b3060bd561e8"},"vehicle_type_id":"4","last_reported":1719227339,"current_range_meters":25600,"station_id":"ce4bh3p2rcd13ifvqdq0","pricing_plan_id":"cebpf4jnsgd1na2vs0mg"},{"bike_id":"44fe2ad1-536f-46cc-aac4-eac2ef3c3164","system_id":"levelo_inurba_marseille","lat":43.295194,"lon":5.39397,"is_reserved":false,"is_disabled":false,"rental_uris":{"android":"levelo://app?vid=44fe2ad1-536f-46cc-aac4-eac2ef3c3164","ios":"levelo://app?vid=44fe2ad1-536f-46cc-aac4-eac2ef3c3164"},"vehicle_type_id":"4","last_reported":1719227339,"current_range_meters":30000,"station_id":"ce4bh292rcd13ifvqdf0","pricing_plan_id":"cebpf4jnsgd1na2vs0mg"},{"bike_id":"13fd25e1-3196-43d2-bd08-fd8522dda304","system_id":"levelo_inurba_marseille","lat":43.289307,"lon":5.38406,"is_reserved":false,"is_disabled":false,"rental_uris":{"android":"levelo://app?vid=13fd25e1-3196-43d2-bd08-fd8522dda304","ios":"levelo://app?vid=13fd25e1-3196-43d2-bd08-fd8522dda304"},"vehicle_type_id":"4","last_reported":1719227339,"current_range_meters":16400,"station_id":"ce4bh612rcd13ifvqe6g","pricing_plan_id":"cebpf4jnsgd1na2vs0mg"},{"bike_id":"f2d67550-1c6c-4315-8853-93891c8cfcd5","system_id":"levelo_inurba_marseille","lat":43.289307,"lon":5.38406,"is_reserved":false,"is_disabled":false,"rental_uris":{"android":"levelo://app?vid=f2d67550-1c6c-4315-8853-93891c8cfcd5","ios":"levelo://app?vid=f2d67550-1c6c-4315-8853-93891c8cfcd5"},"vehicle_type_id":"4","last_reported":1719227339,"current_range_meters":19600,"station_id":"ce4bh612rcd13ifvqe6g","pricing_plan_id":"cebpf4jnsgd1na2vs0mg"},{"bike_id":"9a61117b-b94c-4e89-9617-de4088192239","system_id":"levelo_inurba_marseille","lat":43.286039,"lon":5.370681,"is_reserved":false,"is_disabled":false,"rental_uris":{"android":"levelo://app?vid=9a61117b-b94c-4e89-9617-de4088192239","ios":"levelo://app?vid=9a61117b-b94c-4e89-9617-de4088192239"},"vehicle_type_id":"4","last_reported":1719227339,"current_range_meters":19600,"station_id":"ce4bht12rcd13ifvqi60","pricing_plan_id":"cebpf4jnsgd1na2vs0mg"},{"bike_id":"bfabff03-5b90-4e7f-b18e-ad6f83a2f49a","system_id":"levelo_inurba_marseille","lat":43.286039,"lon":5.370681,"is_reserved":false,"is_disabled":false,"rental_uris":{"android":"levelo://app?vid=bfabff03-5b90-4e7f-b18e-ad6f83a2f49a","ios":"levelo://app?vid=bfabff03-5b90-4e7f-b18e-ad6f83a2f49a"},"vehicle_type_id":"4","last_reported":1719227339,"current_range_meters":18000,"station_id":"ce4bht12rcd13ifvqi60","pricing_plan_id":"cebpf4jnsgd1na2vs0mg"},{"bike_id":"0ce73b70-d53d-4e3a-bbb1-339086f97ca4","system_id":"levelo_inurba_marseille","lat":43.287185,"lon":5.379373,"is_reserved":false,"is_disabled":false,"rental_uris":{"android":"levelo://app?vid=0ce73b70-d53d-4e3a-bbb1-339086f97ca4","ios":"levelo://app?vid=0ce73b70-d53d-4e3a-bbb1-339086f97ca4"},"vehicle_type_id":"4","last_reported":1719227339,"current_range_meters":23600,"station_id":"ce4bh9p2rcd13ifvqec0","pricing_plan_id":"cebpf4jnsgd1na2vs0mg"},{"bike_id":"190527c2-251a-422d-a383-2ce6676c506f","system_id":"levelo_inurba_marseille","lat":43.284534,"lon":5.358662,"is_reserved":false,"is_disabled":false,"rental_uris":{"android":"levelo://app?vid=190527c2-251a-422d-a383-2ce6676c506f","ios":"levelo://app?vid=190527c2-251a-422d-a383-2ce6676c506f"},"vehicle_type_id":"4","last_reported":1719227339,"current_range_meters":28800,"station_id":"ce4bhah2rcd13ifvqei0","pricing_plan_id":"cebpf4jnsgd1na2vs0mg"},{"bike_id":"03f51db6-da60-42e5-94c2-49e668f45769","system_id":"levelo_inurba_marseille","lat":43.28447,"lon":5.359,"is_reserved":false,"is_disabled":false,"rental_uris":{"android":"levelo://app?vid=03f51db6-da60-42e5-94c2-49e668f45769","ios":"levelo://app?vid=03f51db6-da60-42e5-94c2-49e668f45769"},"vehicle_type_id":"4","last_reported":1719227339,"current_range_meters":11200,"station_id":"ce4bhah2rcd13ifvqei0","pricing_plan_id":"cebpf4jnsgd1na2vs0mg"},{"bike_id":"1efc2d98-8576-4684-b1c0-fcb296291954","system_id":"levelo_inurba_marseille","lat":43.28617,"lon":5.35106,"is_reserved":false,"is_disabled":false,"rental_uris":{"android":"levelo://app?vid=1efc2d98-8576-4684-b1c0-fcb296291954","ios":"levelo://app?vid=1efc2d98-8576-4684-b1c0-fcb296291954"},"vehicle_type_id":"4","last_reported":1719227339,"current_range_meters":18400,"station_id":"ce4bhch2rcd13ifvqeug","pricing_plan_id":"cebpf4jnsgd1na2vs0mg"},{"bike_id":"8ca1c810-930f-43d9-9985-2c3ff66b1bb8","system_id":"levelo_inurba_marseille","lat":43.285848,"lon":5.350787,"is_reserved":false,"is_disabled":false,"rental_uris":{"android":"levelo://app?vid=8ca1c810-930f-43d9-9985-2c3ff66b1bb8","ios":"levelo://app?vid=8ca1c810-930f-43d9-9985-2c3ff66b1bb8"},"vehicle_type_id":"4","last_reported":1719227339,"current_range_meters":31200,"station_id":"ce4bhch2rcd13ifvqeug","pricing_plan_id":"cebpf4jnsgd1na2vs0mg"},{"bike_id":"2bee6d0c-221c-40f1-9ff6-16e3df609f3c","system_id":"levelo_inurba_marseille","lat":43.285848,"lon":5.350787,"is_reserved":false,"is_disabled":false,"rental_uris":{"android":"levelo://app?vid=2bee6d0c-221c-40f1-9ff6-16e3df609f3c","ios":"levelo://app?vid=2bee6d0c-221c-40f1-9ff6-16e3df609f3c"},"vehicle_type_id":"4","last_reported":1719227339,"current_range_meters":16400,"station_id":"ce4bhch2rcd13ifvqeug","pricing_plan_id":"cebpf4jnsgd1na2vs0mg"},{"bike_id":"e2e352af-05fd-457e-8b06-1b8d4db9ec23","system_id":"levelo_inurba_marseille","lat":43.285848,"lon":5.350787,"is_reserved":false,"is_disabled":false,"rental_uris":{"android":"levelo://app?vid=e2e352af-05fd-457e-8b06-1b8d4db9ec23","ios":"levelo://app?vid=e2e352af-05fd-457e-8b06-1b8d4db9ec23"},"vehicle_type_id":"4","last_reported":1719227339,"current_range_meters":22000,"station_id":"ce4bhch2rcd13ifvqeug","pricing_plan_id":"cebpf4jnsgd1na2vs0mg"},{"bike_id":"2141565c-c5d0-421f-a443-c7dff1ba5462","system_id":"levelo_inurba_marseille","lat":43.285848,"lon":5.350787,"is_reserved":false,"is_disabled":false,"rental_uris":{"android":"levelo://app?vid=2141565c-c5d0-421f-a443-c7dff1ba5462","ios":"levelo://app?vid=2141565c-c5d0-421f-a443-c7dff1ba5462"},"vehicle_type_id":"4","last_reported":1719227339,"current_range_meters":23600,"station_id":"ce4bhch2rcd13ifvqeug","pricing_plan_id":"cebpf4jnsgd1na2vs0mg"},{"bike_id":"341774fa-8712-427a-972a-fc9e48cccc7e","system_id":"levelo_inurba_marseille","lat":43.295713,"lon":5.399639,"is_reserved":false,"is_disabled":false,"rental_uris":{"android":"levelo://app?vid=341774fa-8712-427a-972a-fc9e48cccc7e","ios":"levelo://app?vid=341774fa-8712-427a-972a-fc9e48cccc7e"},"vehicle_type_id":"4","last_reported":1719227339,"current_range_meters":6400,"station_id":"ce4bh312rcd13ifvqdj0","pricing_plan_id":"cebpf4jnsgd1na2vs0mg"},{"bike_id":"28b876bc-6cf4-4487-8f3a-208c137667f7","system_id":"levelo_inurba_marseille","lat":43.283998,"lon":5.375062,"is_reserved":false,"is_disabled":false,"rental_uris":{"android":"levelo://app?vid=28b876bc-6cf4-4487-8f3a-208c137667f7","ios":"levelo://app?vid=28b876bc-6cf4-4487-8f3a-208c137667f7"},"vehicle_type_id":"4","last_reported":1719227339,"current_range_meters":28000,"station_id":"ce4bh412rcd13ifvqds0","pricing_plan_id":"cebpf4jnsgd1na2vs0mg"},{"bike_id":"ccc1afc7-168c-4315-900d-1dc969b9045e","system_id":"levelo_inurba_marseille","lat":43.283998,"lon":5.375062,"is_reserved":false,"is_disabled":false,"rental_uris":{"android":"levelo://app?vid=ccc1afc7-168c-4315-900d-1dc969b9045e","ios":"levelo://app?vid=ccc1afc7-168c-4315-900d-1dc969b9045e"},"vehicle_type_id":"4","last_reported":1719227339,"current_range_meters":24000,"station_id":"ce4bh412rcd13ifvqds0","pricing_plan_id":"cebpf4jnsgd1na2vs0mg"},{"bike_id":"9725b92f-a585-4b7b-b7a0-ba5b63b87680","system_id":"levelo_inurba_marseille","lat":43.283998,"lon":5.375062,"is_reserved":false,"is_disabled":false,"rental_uris":{"android":"levelo://app?vid=9725b92f-a585-4b7b-b7a0-ba5b63b87680","ios":"levelo://app?vid=9725b92f-a585-4b7b-b7a0-ba5b63b87680"},"vehicle_type_id":"4","last_reported":1719227339,"current_range_meters":28000,"station_id":"ce4bh412rcd13ifvqds0","pricing_plan_id":"cebpf4jnsgd1na2vs0mg"},{"bike_id":"e59fbb45-20b5-4103-bd92-bcef8795e151","system_id":"levelo_inurba_marseille","lat":43.295713,"lon":5.399639,"is_reserved":false,"is_disabled":false,"rental_uris":{"android":"levelo://app?vid=e59fbb45-20b5-4103-bd92-bcef8795e151","ios":"levelo://app?vid=e59fbb45-20b5-4103-bd92-bcef8795e151"},"vehicle_type_id":"4","last_reported":1719227339,"current_range_meters":22400,"station_id":"ce4bh312rcd13ifvqdj0","pricing_plan_id":"cebpf4jnsgd1na2vs0mg"},{"bike_id":"4cb723c9-4faf-426e-a91e-98da0f1917d6","system_id":"levelo_inurba_marseille","lat":43.286595,"lon":5.386795,"is_reserved":false,"is_disabled":false,"rental_uris":{"android":"levelo://app?vid=4cb723c9-4faf-426e-a91e-98da0f1917d6","ios":"levelo://app?vid=4cb723c9-4faf-426e-a91e-98da0f1917d6"},"vehicle_type_id":"4","last_reported":1719227339,"current_range_meters":0,"station_id":"ce4bh492rcd13ifvqdug","pricing_plan_id":"cebpf4jnsgd1na2vs0mg"},{"bike_id":"028f4aa8-f07b-4653-9966-e3f240ccffa2","system_id":"levelo_inurba_marseille","lat":43.286595,"lon":5.386795,"is_reserved":false,"is_disabled":false,"rental_uris":{"android":"levelo://app?vid=028f4aa8-f07b-4653-9966-e3f240ccffa2","ios":"levelo://app?vid=028f4aa8-f07b-4653-9966-e3f240ccffa2"},"vehicle_type_id":"4","last_reported":1719227339,"current_range_meters":11200,"station_id":"ce4bh492rcd13ifvqdug","pricing_plan_id":"cebpf4jnsgd1na2vs0mg"},{"bike_id":"ae9b5ce9-6f88-463f-bbd0-9f4d2e0ba9d0","system_id":"levelo_inurba_marseille","lat":43.286442,"lon":5.385996,"is_reserved":false,"is_disabled":false,"rental_uris":{"android":"levelo://app?vid=ae9b5ce9-6f88-463f-bbd0-9f4d2e0ba9d0","ios":"levelo://app?vid=ae9b5ce9-6f88-463f-bbd0-9f4d2e0ba9d0"},"vehicle_type_id":"4","last_reported":1719227339,"current_range_meters":0,"station_id":"","pricing_plan_id":"cebpf4jnsgd1na2vs0mg"},{"bike_id":"4e6a3dda-0fd1-441b-b03b-9266b262b67c","system_id":"levelo_inurba_marseille","lat":43.286595,"lon":5.386795,"is_reserved":false,"is_disabled":false,"rental_uris":{"android":"levelo://app?vid=4e6a3dda-0fd1-441b-b03b-9266b262b67c","ios":"levelo://app?vid=4e6a3dda-0fd1-441b-b03b-9266b262b67c"},"vehicle_type_id":"4","last_reported":1719227339,"current_range_meters":22400,"station_id":"ce4bh492rcd13ifvqdug","pricing_plan_id":"cebpf4jnsgd1na2vs0mg"},{"bike_id":"2ce108cc-0c53-41db-86c5-367fb1849ff1","system_id":"levelo_inurba_marseille","lat":43.319179,"lon":5.407725,"is_reserved":false,"is_disabled":false,"rental_uris":{"android":"levelo://app?vid=2ce108cc-0c53-41db-86c5-367fb1849ff1","ios":"levelo://app?vid=2ce108cc-0c53-41db-86c5-367fb1849ff1"},"vehicle_type_id":"4","last_reported":1719227339,"current_range_meters":16400,"station_id":"ce4bhq12rcd13ifvqhig","pricing_plan_id":"cebpf4jnsgd1na2vs0mg"},{"bike_id":"9d8fa027-64d3-4504-b892-366646de05cd","system_id":"levelo_inurba_marseille","lat":43.33717,"lon":5.391857,"is_reserved":false,"is_disabled":false,"rental_uris":{"android":"levelo://app?vid=9d8fa027-64d3-4504-b892-366646de05cd","ios":"levelo://app?vid=9d8fa027-64d3-4504-b892-366646de05cd"},"vehicle_type_id":"4","last_reported":1719227339,"current_range_meters":20400,"station_id":"ce4bhr92rcd13ifvqhsg","pricing_plan_id":"cebpf4jnsgd1na2vs0mg"},{"bike_id":"0e107605-5600-4751-9215-21d6b9e34346","system_id":"levelo_inurba_marseille","lat":43.33717,"lon":5.391857,"is_reserved":false,"is_disabled":false,"rental_uris":{"android":"levelo://app?vid=0e107605-5600-4751-9215-21d6b9e34346","ios":"levelo://app?vid=0e107605-5600-4751-9215-21d6b9e34346"},"vehicle_type_id":"4","last_reported":1719227339,"current_range_meters":15200,"station_id":"ce4bhr92rcd13ifvqhsg","pricing_plan_id":"cebpf4jnsgd1na2vs0mg"},{"bike_id":"c131bd2d-65ac-491c-83c8-1f3af0a2a548","system_id":"levelo_inurba_marseille","lat":43.337168,"lon":5.391825,"is_reserved":false,"is_disabled":false,"rental_uris":{"android":"levelo://app?vid=c131bd2d-65ac-491c-83c8-1f3af0a2a548","ios":"levelo://app?vid=c131bd2d-65ac-491c-83c8-1f3af0a2a548"},"vehicle_type_id":"4","last_reported":1719227339,"current_range_meters":31200,"station_id":"ce4bhr92rcd13ifvqhsg","pricing_plan_id":"cebpf4jnsgd1na2vs0mg"},{"bike_id":"18be6030-042f-47c9-bb49-98f28945beee","system_id":"levelo_inurba_marseille","lat":43.33717,"lon":5.391857,"is_reserved":false,"is_disabled":false,"rental_uris":{"android":"levelo://app?vid=18be6030-042f-47c9-bb49-98f28945beee","ios":"levelo://app?vid=18be6030-042f-47c9-bb49-98f28945beee"},"vehicle_type_id":"4","last_reported":1719227339,"current_range_meters":17200,"station_id":"ce4bhr92rcd13ifvqhsg","pricing_plan_id":"cebpf4jnsgd1na2vs0mg"},{"bike_id":"35c395d2-571d-4363-9ed5-a8c3394bad7a","system_id":"levelo_inurba_marseille","lat":43.285187,"lon":5.385368,"is_reserved":false,"is_disabled":false,"rental_uris":{"android":"levelo://app?vid=35c395d2-571d-4363-9ed5-a8c3394bad7a","ios":"levelo://app?vid=35c395d2-571d-4363-9ed5-a8c3394bad7a"},"vehicle_type_id":"4","last_reported":1719227339,"current_range_meters":18000,"station_id":"","pricing_plan_id":"cebpf4jnsgd1na2vs0mg"},{"bike_id":"eb981c43-160d-48ef-975b-9994eda4b7a9","system_id":"levelo_inurba_marseille","lat":43.284787,"lon":5.384116,"is_reserved":false,"is_disabled":false,"rental_uris":{"android":"levelo://app?vid=eb981c43-160d-48ef-975b-9994eda4b7a9","ios":"levelo://app?vid=eb981c43-160d-48ef-975b-9994eda4b7a9"},"vehicle_type_id":"4","last_reported":1719227339,"current_range_meters":0,"station_id":"ce4bh512rcd13ifvqe3g","pricing_plan_id":"cebpf4jnsgd1na2vs0mg"},{"bike_id":"ac8b38c4-4b58-41d3-949b-1132b607609e","system_id":"levelo_inurba_marseille","lat":43.284793,"lon":5.384113,"is_reserved":false,"is_disabled":false,"rental_uris":{"android":"levelo://app?vid=ac8b38c4-4b58-41d3-949b-1132b607609e","ios":"levelo://app?vid=ac8b38c4-4b58-41d3-949b-1132b607609e"},"vehicle_type_id":"4","last_reported":1719227339,"current_range_meters":0,"station_id":"ce4bh512rcd13ifvqe3g","pricing_plan_id":"cebpf4jnsgd1na2vs0mg"},{"bike_id":"02bb8f1d-899a-4a4f-8ee0-d49515f2c260","system_id":"levelo_inurba_marseille","lat":43.297946,"lon":5.404063,"is_reserved":false,"is_disabled":false,"rental_uris":{"android":"levelo://app?vid=02bb8f1d-899a-4a4f-8ee0-d49515f2c260","ios":"levelo://app?vid=02bb8f1d-899a-4a4f-8ee0-d49515f2c260"},"vehicle_type_id":"4","last_reported":1719227339,"current_range_meters":27600,"station_id":"ce4bh112rcd13ifvqd90","pricing_plan_id":"cebpf4jnsgd1na2vs0mg"},{"bike_id":"e37859c9-a92c-48ab-a4cf-e748edb07589","system_id":"levelo_inurba_marseille","lat":43.284217,"lon":5.349697,"is_reserved":false,"is_disabled":false,"rental_uris":{"android":"levelo://app?vid=e37859c9-a92c-48ab-a4cf-e748edb07589","ios":"levelo://app?vid=e37859c9-a92c-48ab-a4cf-e748edb07589"},"vehicle_type_id":"4","last_reported":1719227339,"current_range_meters":10800,"station_id":"ce4bhbh2rcd13ifvqepg","pricing_plan_id":"cebpf4jnsgd1na2vs0mg"},{"bike_id":"e699e983-8267-41b6-82db-5be2799caf66","system_id":"levelo_inurba_marseille","lat":43.28427,"lon":5.3499,"is_reserved":false,"is_disabled":false,"rental_uris":{"android":"levelo://app?vid=e699e983-8267-41b6-82db-5be2799caf66","ios":"levelo://app?vid=e699e983-8267-41b6-82db-5be2799caf66"},"vehicle_type_id":"4","last_reported":1719227339,"current_range_meters":27600,"station_id":"ce4bhbh2rcd13ifvqepg","pricing_plan_id":"cebpf4jnsgd1na2vs0mg"},{"bike_id":"407fcde9-2b2e-475a-bf14-e5f1f0dd46b7","system_id":"levelo_inurba_marseille","lat":43.284278,"lon":5.34985,"is_reserved":false,"is_disabled":false,"rental_uris":{"android":"levelo://app?vid=407fcde9-2b2e-475a-bf14-e5f1f0dd46b7","ios":"levelo://app?vid=407fcde9-2b2e-475a-bf14-e5f1f0dd46b7"},"vehicle_type_id":"4","last_reported":1719227339,"current_range_meters":22000,"station_id":"ce4bhbh2rcd13ifvqepg","pricing_plan_id":"cebpf4jnsgd1na2vs0mg"},{"bike_id":"1d028968-6409-4134-bdfd-228bad3a98bf","system_id":"levelo_inurba_marseille","lat":43.284214,"lon":5.349706,"is_reserved":false,"is_disabled":false,"rental_uris":{"android":"levelo://app?vid=1d028968-6409-4134-bdfd-228bad3a98bf","ios":"levelo://app?vid=1d028968-6409-4134-bdfd-228bad3a98bf"},"vehicle_type_id":"4","last_reported":1719227339,"current_range_meters":14800,"station_id":"ce4bhbh2rcd13ifvqepg","pricing_plan_id":"cebpf4jnsgd1na2vs0mg"},{"bike_id":"28761dc2-c3e2-4105-ad39-2b45f9cf9ec1","system_id":"levelo_inurba_marseille","lat":43.28424,"lon":5.3499,"is_reserved":false,"is_disabled":false,"rental_uris":{"android":"levelo://app?vid=28761dc2-c3e2-4105-ad39-2b45f9cf9ec1","ios":"levelo://app?vid=28761dc2-c3e2-4105-ad39-2b45f9cf9ec1"},"vehicle_type_id":"4","last_reported":1719227339,"current_range_meters":24800,"station_id":"ce4bhbh2rcd13ifvqepg","pricing_plan_id":"cebpf4jnsgd1na2vs0mg"},