{"last_updated":1732172957,"ttl":60,"version":"2.2","data":{"bikes":[{"bike_id":"b071aedb-1c7f-4beb-b6b0-0fdd8399e33d","system_id":"levelo_inurba_marseille","lat":43.29783,"lon":5.39362,"is_reserved":false,"is_disabled":false,"rental_uris":{"android":"levelo://app?vid=b071aedb-1c7f-4beb-b6b0-0fdd8399e33d","ios":"levelo://app?vid=b071aedb-1c7f-4beb-b6b0-0fdd8399e33d"},"vehicle_type_id":"4","last_reported":1732172957,"current_range_meters":9200,"station_id":"chh1huq6cuj3fo74tm60","pricing_plan_id":"cebpf4jnsgd1na2vs0mg"},{"bike_id":"9e79d79f-c5c8-42da-9931-cbf2367a62ea","system_id":"levelo_inurba_marseille","lat":43.27493,"lon":5.42454,"is_reserved":false,"is_disabled":false,"rental_uris":{"android":"levelo://app?vid=9e79d79f-c5c8-42da-9931-cbf2367a62ea","ios":"levelo://app?vid=9e79d79f-c5c8-42da-9931-cbf2367a62ea"},"vehicle_type_id":"4","last_reported":1732172957,"current_range_meters":21600,"station_id":"ce4bhn92rcd13ifvqgrg","pricing_plan_id":"cebpf4jnsgd1na2vs0mg"},{"bike_id":"eb1fd276-641d-4de0-bfa8-6c1377f03001","system_id":"levelo_inurba_marseille","lat":43.24664,"lon":5.38159,"is_reserved":false,"is_disabled":false,"rental_uris":{"android":"levelo://app?vid=eb1fd276-641d-4de0-bfa8-6c1377f03001","ios":"levelo://app?vid=eb1fd276-641d-4de0-bfa8-6c1377f03001"},"vehicle_type_id":"4","last_reported":1732172957,"current_range_meters":8800,"station_id":"ce4bhih2rcd13ifvqfr0","pricing_plan_id":"cebpf4jnsgd1na2vs0mg"},{"bike_id":"1c795457-ec2c-4a4b-a69c-fc6b1ce6728d","system_id":"levelo_inurba_marseille","lat":43.27614,"lon":5.36106,"is_reserved":false,"is_disabled":false,"rental_uris":{"android":"levelo://app?vid=1c795457-ec2c-4a4b-a69c-fc6b1ce6728d","ios":"levelo://app?vid=1c795457-ec2c-4a4b-a69c-fc6b1ce6728d"},"vehicle_type_id":"4","last_reported":1732172957,"current_range_meters":27200,"station_id":"ce4bgj92rcd13ifvqbe0","pricing_plan_id":"cebpf4jnsgd1na2vs0mg"},{"bike_id":"3d4f4541-0ce5-44c4-b89f-9a920af4dfeb","system_id":"levelo_inurba_marseille","lat":43.27322,"lon":5.39081,"is_reserved":false,"is_disabled":true,"rental_uris":{"android":"levelo://app?vid=3d4f4541-0ce5-44c4-b89f-9a920af4dfeb","ios":"levelo://app?vid=3d4f4541-0ce5-44c4-b89f-9a920af4dfeb"},"vehicle_type_id":"4","last_reported":1732172957,"current_range_meters":26800,"station_id":"ce4bhgp2rcd13ifvqfe0","pricing_plan_id":"cebpf4jnsgd1na2vs0mg"},{"bike_id":"d2581040-8772-4d35-a569-af5f240334a7","system_id":"levelo_inurba_marseille","lat":43.26943,"lon":5.40242,"is_reserved":false,"is_disabled":true,"rental_uris":{"android":"levelo://app?vid=d2581040-8772-4d35-a569-af5f240334a7","ios":"levelo://app?vid=d2581040-8772-4d35-a569-af5f240334a7"},"vehicle_type_id":"4","last_reported":1732172957,"current_range_meters":11200,"station_id":"cjm6bp8fraef2m0cb0m0","pricing_plan_id":"cebpf4jnsgd1na2vs0mg"},{"bike_id":"7ced6b3f-d1e7-4e9e-b0a2-0d21e9e94c16","system_id":"levelo_inurba_marseille","lat":43.3171,"lon":5.37745,"is_reserved":false,"is_disabled":false,"rental_uris":{"android":"levelo://app?vid=7ced6b3f-d1e7-4e9e-b0a2-0d21e9e94c16","ios":"levelo://app?vid=7ced6b3f-d1e7-4e9e-b0a2-0d21e9e94c16"},"vehicle_type_id":"4","last_reported":1732172957,"current_range_meters":24400,"station_id":"ce4bgth2rcd13ifvqch0","pricing_plan_id":"cebpf4jnsgd1na2vs0mg"},{"bike_id":"be97b7ff-a776-4abb-98b4-c9cc68de032d","system_id":"levelo_inurba_marseille","lat":43.28148,"lon":5.42645,"is_reserved":false,"is_disabled":false,"rental_uris":{"android":"levelo://app?vid=be97b7ff-a776-4abb-98b4-c9cc68de032d","ios":"levelo://app?vid=be97b7ff-a776-4abb-98b4-c9cc68de032d"},"vehicle_type_id":"4","last_reported":1732172957,"current_range_meters":31200,"station_id":"ce4bhnh2rcd13ifvqgug","pricing_plan_id":"cebpf4jnsgd1na2vs0mg"},{"bike_id":"faaa07fe-d059-4c7c-8d3a-4406c48468a3","system_id":"levelo_inurba_marseille","lat":43.25106,"lon":5.40323,"is_reserved":false,"is_disabled":false,"rental_uris":{"android":"levelo://app?vid=faaa07fe-d059-4c7c-8d3a-4406c48468a3","ios":"levelo://app?vid=faaa07fe-d059-4c7c-8d3a-4406c48468a3"},"vehicle_type_id":"4","last_reported":1732172957,"current_range_meters":37600,"station_id":"ce4bhlh2rcd13ifvqgig","pricing_plan_id":"cebpf4jnsgd1na2vs0mg"},{"bike_id":"8e6a3078-d201-4b7f-83a6-596972387b0b","system_id":"levelo_inurba_marseille","lat":43.26957,"lon":5.38635,"is_reserved":false,"is_disabled":false,"rental_uris":{"android":"levelo://app?vid=8e6a3078-d201-4b7f-83a6-596972387b0b","ios":"levelo://app?vid=8e6a3078-d201-4b7f-83a6-596972387b0b"},"vehicle_type_id":"4","last_reported":1732172957,"current_range_meters":38800,"station_id":"ce4bhh92rcd13ifvqfh0","pricing_plan_id":"cebpf4jnsgd1na2vs0mg"},{"bike_id":"59cbe2d2-9619-43b0-b66f-5d0ab3322deb","system_id":"levelo_inurba_marseille","lat":43.28984,"lon":5.37829,"is_reserved":false,"is_disabled":false,"rental_uris":{"android":"levelo://app?vid=59cbe2d2-9619-43b0-b66f-5d0ab3322deb","ios":"levelo://app?vid=59cbe2d2-9619-43b0-b66f-5d0ab3322deb"},"vehicle_type_id":"4","last_reported":1732172957,"current_range_meters":20000,"station_id":"ce4bh9p2rcd13ifvqed0","pricing_plan_id":"cebpf4jnsgd1na2vs0mg"},{"bike_id":"1f203897-1164-43c5-8a36-2a35df13aaf6","system_id":"levelo_inurba_marseille","lat":43.2315,"lon":5.43709,"is_reserved":false,"is_disabled":false,"rental_uris":{"android":"levelo://app?vid=1f203897-1164-43c5-8a36-2a35df13aaf6","ios":"levelo://app?vid=1f203897-1164-43c5-8a36-2a35df13aaf6"},"vehicle_type_id":"4","last_reported":1732172957,"current_range_meters":36800,"station_id":"ce4bhmp2rcd13ifvqgog","pricing_plan_id":"cebpf4jnsgd1na2vs0mg"},{"bike_id":"4be3997b-0298-4a92-a78f-ce2230a4e3ad","system_id":"levelo_inurba_marseille","lat":43.29907,"lon":5.38132,"is_reserved":false,"is_disabled":true,"rental_uris":{"android":"levelo://app?vid=4be3997b-0298-4a92-a78f-ce2230a4e3ad","ios":"levelo://app?vid=4be3997b-0298-4a92-a78f-ce2230a4e3ad"},"vehicle_type_id":"4","last_reported":1732172957,"current_range_meters":34800,"station_id":"ce4bgj12rcd13ifvqbc0","pricing_plan_id":"cebpf4jnsgd1na2vs0mg"},{"bike_id":"efa3445d-2a68-4f6c-a741-070af9897f81","system_id":"levelo_inurba_marseille","lat":43.25869,"lon":5.399,"is_reserved":false,"is_disabled":false,"rental_uris":{"android":"levelo://app?vid=efa3445d-2a68-4f6c-a741-070af9897f81","ios":"levelo://app?vid=efa3445d-2a68-4f6c-a741-070af9897f81"},"vehicle_type_id":"4","last_reported":1732172957,"current_range_meters":39200,"station_id":"ce4bhl92rcd13ifvqghg","pricing_plan_id":"cebpf4jnsgd1na2vs0mg"},{"bike_id":"82e67282-7550-4191-b613-a36c4f6c3f51","system_id":"levelo_inurba_marseille","lat":43.281076,"lon":5.378329,"is_reserved":false,"is_disabled":false,"rental_uris":{"android":"levelo://app?vid=82e67282-7550-4191-b613-a36c4f6c3f51","ios":"levelo://app?vid=82e67282-7550-4191-b613-a36c4f6c3f51"},"vehicle_type_id":"4","last_reported":1732172957,"current_range_meters":37600,"station_id":"ce4bha12rcd13ifvqee0","pricing_plan_id":"cebpf4jnsgd1na2vs0mg"},{"bike_id":"730321d2-de66-475f-920a-cd577dc02cf8","system_id":"levelo_inurba_marseille","lat":43.31756,"lon":5.39027,"is_reserved":false,"is_disabled":false,"rental_uris":{"android":"levelo://app?vid=730321d2-de66-475f-920a-cd577dc02cf8","ios":"levelo://app?vid=730321d2-de66-475f-920a-cd577dc02cf8"},"vehicle_type_id":"4","last_reported":1732172957,"current_range_meters":28000,"station_id":"ce4bhqp2rcd13ifvqhng","pricing_plan_id":"cebpf4jnsgd1na2vs0mg"},{"bike_id":"edacc0c1-f61b-4cea-8cec-ede526e0bc8f","system_id":"levelo_inurba_marseille","lat":43.28662,"lon":5.36353,"is_reserved":false,"is_disabled":false,"rental_uris":{"android":"levelo://app?vid=edacc0c1-f61b-4cea-8cec-ede526e0bc8f","ios":"levelo://app?vid=edacc0c1-f61b-4cea-8cec-ede526e0bc8f"},"vehicle_type_id":"4","last_reported":1732172957,"current_range_meters":38800,"station_id":"ce4bhah2rcd13ifvqej0","pricing_plan_id":"cebpf4jnsgd1na2vs0mg"},{"bike_id":"b4ab4146-923f-4142-95f1-909b0de1e378","system_id":"levelo_inurba_marseille","lat":43.30597,"lon":5.39356,"is_reserved":false,"is_disabled":false,"rental_uris":{"android":"levelo://app?vid=b4ab4146-923f-4142-95f1-909b0de1e378","ios":"levelo://app?vid=b4ab4146-923f-4142-95f1-909b0de1e378"},"vehicle_type_id":"4","last_reported":1732172957,"current_range_meters":28400,"station_id":"ce4bh0p2rcd13ifvqd80","pricing_plan_id":"cebpf4jnsgd1na2vs0mg"},{"bike_id":"abf14045-7373-4299-9a7a-84e64d567425","system_id":"levelo_inurba_marseille","lat":43.24657,"lon":5.38906,"is_reserved":false,"is_disabled":false,"rental_uris":{"android":"levelo://app?vid=abf14045-7373-4299-9a7a-84e64d567425","ios":"levelo://app?vid=abf14045-7373-4299-9a7a-84e64d567425"},"vehicle_type_id":"4","last_reported":1732172957,"current_range_meters":8400,"station_id":"ce4bhg12rcd13ifvqf60","pricing_plan_id":"cebpf4jnsgd1na2vs0mg"},{"bike_id":"a16a5937-1321-480e-9fab-5b69eb1275b9","system_id":"levelo_inurba_marseille","lat":43.28969,"lon":5.3785,"is_reserved":false,"is_disabled":false,"rental_uris":{"android":"levelo://app?vid=a16a5937-1321-480e-9fab-5b69eb1275b9","ios":"levelo://app?vid=a16a5937-1321-480e-9fab-5b69eb1275b9"},"vehicle_type_id":"4","last_reported":1732172957,"current_range_meters":36000,"station_id":"ce4bh9p2rcd13ifvqed0","pricing_plan_id":"cebpf4jnsgd1na2vs0mg"},{"bike_id":"aaa68104-60d6-454b-9438-4e38b46ffb6c","system_id":"levelo_inurba_marseille","lat":43.30818,"lon":5.37047,"is_reserved":false,"is_disabled":false,"rental_uris":{"android":"levelo://app?vid=aaa68104-60d6-454b-9438-4e38b46ffb6c","ios":"levelo://app?vid=aaa68104-60d6-454b-9438-4e38b46ffb6c"},"vehicle_type_id":"4","last_reported":1732172957,"current_range_meters":18000,"station_id":"","pricing_plan_id":"cebpf4jnsgd1na2vs0mg"},{"bike_id":"0db4f76c-1d65-4917-9f73-6e83e8aaeb7c","system_id":"levelo_inurba_marseille","lat":43.33024,"lon":5.39038,"is_reserved":false,"is_disabled":false,"rental_uris":{"android":"levelo://app?vid=0db4f76c-1d65-4917-9f73-6e83e8aaeb7c","ios":"levelo://app?vid=0db4f76c-1d65-4917-9f73-6e83e8aaeb7c"},"vehicle_type_id":"4","last_reported":1732172957,"current_range_meters":38400,"station_id":"ce4bhr92rcd13ifvqhrg","pricing_plan_id":"cebpf4jnsgd1na2vs0mg"},{"bike_id":"c3f669fb-c0a1-40a2-b308-18d7974d90a3","system_id":"levelo_inurba_marseille","lat":43.30466,"lon":5.37914,"is_reserved":false,"is_disabled":false,"rental_uris":{"android":"levelo://app?vid=c3f669fb-c0a1-40a2-b308-18d7974d90a3","ios":"levelo://app?vid=c3f669fb-c0a1-40a2-b308-18d7974d90a3"},"vehicle_type_id":"4","last_reported":1732172957,"current_range_meters":17600,"station_id":"ce4bgup2rcd13ifvqcn0","pricing_plan_id":"cebpf4jnsgd1na2vs0mg"},{"bike_id":"d2321b4c-ae3a-4b43-8bcd-12cb7984481d","system_id":"levelo_inurba_marseille","lat":43.30761,"lon":5.37035,"is_reserved":false,"is_disabled":false,"rental_uris":{"android":"levelo://app?vid=d2321b4c-ae3a-4b43-8bcd-12cb7984481d","ios":"levelo://app?vid=d2321b4c-ae3a-4b43-8bcd-12cb7984481d"},"vehicle_type_id":"4","last_reported":1732172957,"current_range_meters":24800,"station_id":"","pricing_plan_id":"cebpf4jnsgd1na2vs0mg"},{"bike_id":"0e1f739f-b14b-40e5-9fa4-2a5ffd4939f0","system_id":"levelo_inurba_marseille","lat":43.29786,"lon":5.3934,"is_reserved":false,"is_disabled":false,"rental_uris":{"android":"levelo://app?vid=0e1f739f-b14b-40e5-9fa4-2a5ffd4939f0","ios":"levelo://app?vid=0e1f739f-b14b-40e5-9fa4-2a5ffd4939f0"},"vehicle_type_id":"4","last_reported":1732172957,"current_range_meters":38800,"station_id":"chh1huq6cuj3fo74tm60","pricing_plan_id":"cebpf4jnsgd1na2vs0mg"},{"bike_id":"bba6d091-61aa-40e6-8fa2-73310e975759","system_id":"levelo_inurba_marseille","lat":43.24655,"lon":5.38156,"is_reserved":false,"is_disabled":true,"rental_uris":{"android":"levelo://app?vid=bba6d091-61aa-40e6-8fa2-73310e975759","ios":"levelo://app?vid=bba6d091-61aa-40e6-8fa2-73310e975759"},"vehicle_type_id":"4","last_reported":1732172957,"current_range_meters":0,"station_id":"","pricing_plan_id":"cebpf4jnsgd1na2vs0mg"},{"bike_id":"c13375de-94cd-4b76-86e1-225efd43cccd","system_id":"levelo_inurba_marseille","lat":43.2573,"lon":5.4113,"is_reserved":false,"is_disabled":false,"rental_uris":{"android":"levelo://app?vid=c13375de-94cd-4b76-86e1-225efd43cccd","ios":"levelo://app?vid=c13375de-94cd-4b76-86e1-225efd43cccd"},"vehicle_type_id":"4","last_reported":1732172957,"current_range_meters":31200,"station_id":"ce4bhkp2rcd13ifvqgd0","pricing_plan_id":"cebpf4jnsgd1na2vs0mg"},{"bike_id":"1a2b45b6-17d7-4592-8140-142385f04b6a","system_id":"levelo_inurba_marseille","lat":43.2509,"lon":5.39517,"is_reserved":false,"is_disabled":false,"rental_uris":{"android":"levelo://app?vid=1a2b45b6-17d7-4592-8140-142385f04b6a","ios":"levelo://app?vid=1a2b45b6-17d7-4592-8140-142385f04b6a"},"vehicle_type_id":"4","last_reported":1732172957,"current_range_meters":8000,"station_id":"ce4bhm12rcd13ifvqgkg","pricing_plan_id":"cebpf4jnsgd1na2vs0mg"},{"bike_id":"74d30473-e3ad-4b45-8228-c3bca8161ca2","system_id":"levelo_inurba_marseille","lat":43.28721,"lon":5.37944,"is_reserved":false,"is_disabled":false,"rental_uris":{"android":"levelo://app?vid=74d30473-e3ad-4b45-8228-c3bca8161ca2","ios":"levelo://app?vid=74d30473-e3ad-4b45-8228-c3bca8161ca2"},"vehicle_type_id":"4","last_reported":1732172957,"current_range_meters":8800,"station_id":"ce4bh9p2rcd13ifvqec0","pricing_plan_id":"cebpf4jnsgd1na2vs0mg"},{"bike_id":"a8ace031-e725-4f62-9512-9d46cfb2ecd9","system_id":"levelo_inurba_marseille","lat":43.28033,"lon":5.36948,"is_reserved":false,"is_disabled":false,"rental_uris":{"android":"levelo://app?vid=a8ace031-e725-4f62-9512-9d46cfb2ecd9","ios":"levelo://app?vid=a8ace031-e725-4f62-9512-9d46cfb2ecd9"},"vehicle_type_id":"4","last_reported":1732172957,"current_range_meters":38400,"station_id":"ce4bha12rcd13ifvqef0","pricing_plan_id":"cebpf4jnsgd1na2vs0mg"},{"bike_id":"5c3000a0-a190-4007-a723-aa2707fd1ce3","system_id":"levelo_inurba_marseille","lat":43.2293,"lon":5.35381,"is_reserved":false,"is_disabled":false,"rental_uris":{"android":"levelo://app?vid=5c3000a0-a190-4007-a723-aa2707fd1ce3","ios":"levelo://app?vid=5c3000a0-a190-4007-a723-aa2707fd1ce3"},"vehicle_type_id":"4","last_reported":1732172957,"current_range_meters":39200,"station_id":"cpo3532slgdg3j2ikp40","pricing_plan_id":"cebpf4jnsgd1na2vs0mg"},{"bike_id":"749dcff2-f3db-46db-bd3a-aabc18114a16","system_id":"levelo_inurba_marseille","lat":43.3122,"lon":5.36862,"is_reserved":false,"is_disabled":false,"rental_uris":{"android":"levelo://app?vid=749dcff2-f3db-46db-bd3a-aabc18114a16","ios":"levelo://app?vid=749dcff2-f3db-46db-bd3a-aabc18114a16"},"vehicle_type_id":"4","last_reported":1732172957,"current_range_meters":21600,"station_id":"ce4bgl92rcd13ifvqbq0","pricing_plan_id":"cebpf4jnsgd1na2vs0mg"},{"bike_id":"d3b991c8-e147-493a-ac75-acba4d513004","system_id":"levelo_inurba_marseille","lat":43.30145,"lon":5.38068,"is_reserved":false,"is_disabled":false,"rental_uris":{"android":"levelo://app?vid=d3b991c8-e147-493a-ac75-acba4d513004","ios":"levelo://app?vid=d3b991c8-e147-493a-ac75-acba4d513004"},"vehicle_type_id":"4","last_reported":1732172957,"current_range_meters":20000,"station_id":"ce4bgjp2rcd13ifvqbh0","pricing_plan_id":"cebpf4jnsgd1na2vs0mg"},{"bike_id":"ecaee357-99b9-424d-91f8-f69785085b19","system_id":"levelo_inurba_marseille","lat":43.31486,"lon":5.37304,"is_reserved":false,"is_disabled":false,"rental_uris":{"android":"levelo://app?vid=ecaee357-99b9-424d-91f8-f69785085b19","ios":"levelo://app?vid=ecaee357-99b9-424d-91f8-f69785085b19"},"vehicle_type_id":"4","last_reported":1732172957,"current_range_meters":35600,"station_id":"ce4bgt12rcd13ifvqcd0","pricing_plan_id":"cebpf4jnsgd1na2vs0mg"},{"bike_id":"981ed85f-84f9-4e13-be52-37837a082771","system_id":"levelo_inurba_marseille","lat":43.31888,"lon":5.40746,"is_reserved":false,"is_disabled":false,"rental_uris":{"android":"levelo://app?vid=981ed85f-84f9-4e13-be52-37837a082771","ios":"levelo://app?vid=981ed85f-84f9-4e13-be52-37837a082771"},"vehicle_type_id":"4","last_reported":1732172957,"current_range_meters":14000,"station_id":"ce4bhq12rcd13ifvqhig","pricing_plan_id":"cebpf4jnsgd1na2vs0mg"},{"bike_id":"771a590e-af65-48d4-813a-c5e1d4911c8c","system_id":"levelo_inurba_marseille","lat":43.24084,"lon":5.37758,"is_reserved":false,"is_disabled":false,"rental_uris":{"android":"levelo://app?vid=771a590e-af65-48d4-813a-c5e1d4911c8c","ios":"levelo://app?vid=771a590e-af65-48d4-813a-c5e1d4911c8c"},"vehicle_type_id":"4","last_reported":1732172957,"current_range_meters":8400,"station_id":"ce4bhnp2rcd13ifvqgvg","pricing_plan_id":"cebpf4jnsgd1na2vs0mg"},{"bike_id":"432aba52-4bc0-4760-9e83-3d541c4c77e5","system_id":"levelo_inurba_marseille","lat":43.30596,"lon":5.39355,"is_reserved":false,"is_disabled":false,"rental_uris":{"android":"levelo://app?vid=432aba52-4bc0-4760-9e83-3d541c4c77e5","ios":"levelo://app?vid=432aba52-4bc0-4760-9e83-3d541c4c77e5"},"vehicle_type_id":"4","last_reported":1732172957,"current_range_meters":20400,"station_id":"ce4bh0p2rcd13ifvqd80","pricing_plan_id":"cebpf4jnsgd1na2vs0mg"},{"bike_id":"dbd50350-c164-47c6-b7a0-cf0404142f4d","system_id":"levelo_inurba_marseille","lat":43.30332,"lon":5.36906,"is_reserved":false,"is_disabled":false,"rental_uris":{"android":"levelo://app?vid=dbd50350-c164-47c6-b7a0-cf0404142f4d","ios":"levelo://app?vid=dbd50350-c164-47c6-b7a0-cf0404142f4d"},"vehicle_type_id":"4","last_reported":1732172957,"current_range_meters":27600,"station_id":"ce4bgqh2rcd13ifvqc5g","pricing_plan_id":"cebpf4jnsgd1na2vs0mg"},{"bike_id":"dfbbfc9a-fdbf-4082-9cba-21a1647010b7","system_id":"levelo_inurba_marseille","lat":43.30531,"lon":5.36542,"is_reserved":false,"is_disabled":false,"rental_uris":{"android":"levelo://app?vid=dfbbfc9a-fdbf-4082-9cba-21a1647010b7","ios":"levelo://app?vid=dfbbfc9a-fdbf-4082-9cba-21a1647010b7"},"vehicle_type_id":"4","last_reported":1732172957,"current_range_meters":37600,"station_id":"ce4bgs12rcd13ifvqcag","pricing_plan_id":"cebpf4jnsgd1na2vs0mg"},{"bike_id":"f1a5529f-d308-4bb7-8ccd-2d79295e5b55","system_id":"levelo_inurba_marseille","lat":43.25574,"lon":5.38232,"is_reserved":false,"is_disabled":false,"rental_uris":{"android":"levelo://app?vid=f1a5529f-d308-4bb7-8ccd-2d79295e5b55","ios":"levelo://app?vid=f1a5529f-d308-4bb7-8ccd-2d79295e5b55"},"vehicle_type_id":"4","last_reported":1732172957,"current_range_meters":37600,"station_id":"ce4bhih2rcd13ifvqfs0","pricing_plan_id":"cebpf4jnsgd1na2vs0mg"},{"bike_id":"53d877f0-3d5a-465c-a97b-d0a50a6d75d5","system_id":"levelo_inurba_marseille","lat":43.29048,"lon":5.37164,"is_reserved":false,"is_disabled":false,"rental_uris":{"android":"levelo://app?vid=53d877f0-3d5a-465c-a97b-d0a50a6d75d5","ios":"levelo://app?vid=53d877f0-3d5a-465c-a97b-d0a50a6d75d5"},"vehicle_type_id":"4","last_reported":1732172957,"current_range_meters":25600,"station_id":"ce4bh2h2rcd13ifvqdh0","pricing_plan_id":"cebpf4jnsgd1na2vs0mg"},{"bike_id":"d8ed98be-1661-407e-8262-dbbd5ed45cf9","system_id":"levelo_inurba_marseille","lat":43.29362,"lon":5.37828,"is_reserved":false,"is_disabled":false,"rental_uris":{"android":"levelo://app?vid=d8ed98be-1661-407e-8262-dbbd5ed45cf9","ios":"levelo://app?vid=d8ed98be-1661-407e-8262-dbbd5ed45cf9"},"vehicle_type_id":"4","last_reported":1732172957,"current_range_meters":22800,"station_id":"ce4bgjh2rcd13ifvqbf0","pricing_plan_id":"cebpf4jnsgd1na2vs0mg"},{"bike_id":"1cd0daee-d68a-4e66-9883-fbe67fd8260f","system_id":"levelo_inurba_marseille","lat":43.30589,"lon":5.37127,"is_reserved":false,"is_disabled":true,"rental_uris":{"android":"levelo://app?vid=1cd0daee-d68a-4e66-9883-fbe67fd8260f","ios":"levelo://app?vid=1cd0daee-d68a-4e66-9883-fbe67fd8260f"},"vehicle_type_id":"4","last_reported":1732172957,"current_range_meters":0,"station_id":"","pricing_plan_id":"cebpf4jnsgd1na2vs0mg"},{"bike_id":"cff9e3c1-54d7-4a20-a660-9a6c236fb05f","system_id":"levelo_inurba_marseille","lat":43.29816,"lon":5.38085,"is_reserved":false,"is_disabled":false,"rental_uris":{"android":"levelo://app?vid=cff9e3c1-54d7-4a20-a660-9a6c236fb05f","ios":"levelo://app?vid=cff9e3c1-54d7-4a20-a660-9a6c236fb05f"},"vehicle_type_id":"4","last_reported":1732172957,"current_range_meters":32800,"station_id":"ce4bgip2rcd13ifvqbb0","pricing_plan_id":"cebpf4jnsgd1na2vs0mg"},{"bike_id":"772ce743-8958-4198-b3ba-b6e0d96fa296","system_id":"levelo_inurba_marseille","lat":43.24168,"lon":5.36402,"is_reserved":false,"is_disabled":false,"rental_uris":{"android":"levelo://app?vid=772ce743-8958-4198-b3ba-b6e0d96fa296","ios":"levelo://app?vid=772ce743-8958-4198-b3ba-b6e0d96fa296"},"vehicle_type_id":"4","last_reported":1732172957,"current_range_meters":7200,"station_id":"cpo36qri1sfpv3e86is0","pricing_plan_id":"cebpf4jnsgd1na2vs0mg"},{"bike_id":"6ac813fd-2f8a-4e96-83c3-26fdfb134841","system_id":"levelo_inurba_marseille","lat":43.28929,"lon":5.36401,"is_reserved":false,"is_disabled":false,"rental_uris":{"android":"levelo://app?vid=6ac813fd-2f8a-4e96-83c3-26fdfb134841","ios":"levelo://app?vid=6ac813fd-2f8a-4e96-83c3-26fdfb134841"},"vehicle_type_id":"4","last_reported":1732172957,"current_range_meters":9600,"station_id":"ce4bhc92rcd13ifvqetg","pricing_plan_id":"cebpf4jnsgd1na2vs0mg"},{"bike_id":"2a81cbdb-97b5-46f3-9e50-9c25319002bf","system_id":"levelo_inurba_marseille","lat":43.28155,"lon":5.42648,"is_reserved":false,"is_disabled":false,"rental_uris":{"android":"levelo://app?vid=2a81cbdb-97b5-46f3-9e50-9c25319002bf","ios":"levelo://app?vid=2a81cbdb-97b5-46f3-9e50-9c25319002bf"},"vehicle_type_id":"4","last_reported":1732172957,"current_range_meters":29600,"station_id":"ce4bhnh2rcd13ifvqgug","pricing_plan_id":"cebpf4jnsgd1na2vs0mg"},{"bike_id":"597cb1c5-c680-49ef-9a1a-84a53b157037","system_id":"levelo_inurba_marseille","lat":43.32367,"lon":5.38881,"is_reserved":false,"is_disabled":false,"rental_uris":{"android":"levelo://app?vid=597cb1c5-c680-49ef-9a1a-84a53b157037","ios":"levelo://app?vid=597cb1c5-c680-49ef-9a1a-84a53b157037"},"vehicle_type_id":"4","last_reported":1732172957,"current_range_meters":9200,"station_id":"ce4bhqp2rcd13ifvqhog","pricing_plan_id":"cebpf4jnsgd1na2vs0mg"},{"bike_id":"663a436d-e5d4-40a5-9343-b72b3b5f024a","system_id":"levelo_inurba_marseille","lat":43.31694,"lon":5.40477,"is_reserved":false,"is_disabled":false,"rental_uris":{"android":"levelo://app?vid=663a436d-e5d4-40a5-9343-b72b3b5f024a","ios":"levelo://app?vid=663a436d-e5d4-40a5-9343-b72b3b5f024a"},"vehicle_type_id":"4","last_reported":1732172957,"current_range_meters":32800,"station_id":"ce4bh012rcd13ifvqd00","pricing_plan_id":"cebpf4jnsgd1na2vs0mg"},{"bike_id":"05286363-317d-4e5a-bd27-dc5666b9628b","system_id":"levelo_inurba_marseille","lat":43.2467,"lon":5.38154,"is_reserved":false,"is_disabled":false,"rental_uris":{"android":"levelo://app?vid=05286363-317d-4e5a-bd27-dc5666b9628b","ios":"levelo://app?vid=05286363-317d-4e5a-bd27-dc5666b9628b"},"vehicle_type_id":"4","last_reported":1732172957,"current_range_meters":37600,"station_id":"ce4bhih2rcd13ifvqfr0","pricing_plan_id":"cebpf4jnsgd1na2vs0mg"},{"bike_id":"7f877509-5630-4c4e-8eed-7196410a5768","system_id":"levelo_inurba_marseille","lat":43.26959,"lon":5.38636,"is_reserved":false,"is_disabled":false,"rental_uris":{"android":"levelo://app?vid=7f877509-5630-4c4e-8eed-7196410a5768","ios":"levelo://app?vid=7f877509-5630-4c4e-8eed-7196410a5768"},"vehicle_type_id":"4","last_reported":1732172957,"current_range_meters":33600,"station_id":"ce4bhh92rcd13ifvqfh0","pricing_plan_id":"cebpf4jnsgd1na2vs0mg"},{"bike_id":"c8e78444-aed0-42c2-bd60-bd5ebc177c5c","system_id":"levelo_inurba_marseille","lat":43.29931,"lon":5.36548,"is_reserved":false,"is_disabled":true,"rental_uris":{"android":"levelo://app?vid=c8e78444-aed0-42c2-bd60-bd5ebc177c5c","ios":"levelo://app?vid=c8e78444-aed0-42c2-bd60-bd5ebc177c5c"},"vehicle_type_id":"4","last_reported":1732172957,"current_range_meters":25200,"station_id":"ce4bgm92rcd13ifvqbr0","pricing_plan_id":"cebpf4jnsgd1na2vs0mg"},{"bike_id":"f13daa65-5e1f-41dd-a29b-60f9b1412065","system_id":"levelo_inurba_marseille","lat":43.28038,"lon":5.36938,"is_reserved":false,"is_disabled":false,"rental_uris":{"android":"levelo://app?vid=f13daa65-5e1f-41dd-a29b-60f9b1412065","ios":"levelo://app?vid=f13daa65-5e1f-41dd-a29b-60f9b1412065"},"vehicle_type_id":"4","last_reported":1732172957,"current_range_meters":25200,"station_id":"ce4bha12rcd13ifvqef0","pricing_plan_id":"cebpf4jnsgd1na2vs0mg"},{"bike_id":"a764c778-c8a8-4fae-886e-64f3d5668825","system_id":"levelo_inurba_marseille","lat":43.28156,"lon":5.42644,"is_reserved":false,"is_disabled":false,"rental_uris":{"android":"levelo://app?vid=a764c778-c8a8-4fae-886e-64f3d5668825","ios":"levelo://app?vid=a764c778-c8a8-4fae-886e-64f3d5668825"},"vehicle_type_id":"4","last_reported":1732172957,"current_range_meters":25600,"station_id":"ce4bhnh2rcd13ifvqgug","pricing_plan_id":"cebpf4jnsgd1na2vs0mg"},{"bike_id":"c135e75e-8f72-424b-a248-3608ebd51264","system_id":"levelo_inurba_marseille","lat":43.24079,"lon":5.37758,"is_reserved":false,"is_disabled":false,"rental_uris":{"android":"levelo://app?vid=c135e75e-8f72-424b-a248-3608ebd51264","ios":"levelo://app?vid=c135e75e-8f72-424b-a248-3608ebd51264"},"vehicle_type_id":"4","last_reported":1732172957,"current_range_meters":32400,"station_id":"ce4bhnp2rcd13ifvqgvg","pricing_plan_id":"cebpf4jnsgd1na2vs0mg"},{"bike_id":"038b7562-af30-427c-ab77-3507254a73d5","system_id":"levelo_inurba_marseille","lat":43.2943,"lon":5.37896,"is_reserved":false,"is_disabled":false,"rental_uris":{"android":"levelo://app?vid=038b7562-af30-427c-ab77-3507254a73d5","ios":"levelo://app?vid=038b7562-af30-427c-ab77-3507254a73d5"},"vehicle_type_id":"4","last_reported":1732172957,"current_range_meters":35600,"station_id":"ce4bgl12rcd13ifvqbo0","pricing_plan_id":"cebpf4jnsgd1na2vs0mg"},{"bike_id":"c5672302-88fb-43d4-bead-9c5fc5687965","system_id":"levelo_inurba_marseille","lat":43.28101,"lon":5.37843,"is_reserved":false,"is_disabled":false,"rental_uris":{"android":"levelo://app?vid=c5672302-88fb-43d4-bead-9c5fc5687965","ios":"levelo://app?vid=c5672302-88fb-43d4-bead-9c5fc5687965"},"vehicle_type_id":"4","last_reported":1732172957,"current_range_meters":36400,"station_id":"ce4bha12rcd13ifvqee0","pricing_plan_id":"cebpf4jnsgd1na2vs0mg"},{"bike_id":"5dd4afbb-16bd-43bd-b0db-67e7146c68d0","system_id":"levelo_inurba_marseille","lat":43.30542,"lon":5.36696,"is_reserved":false,"is_disabled":false,"rental_uris":{"android":"levelo://app?vid=5dd4afbb-16bd-43bd-b0db-67e7146c68d0","ios":"levelo://app?vid=5dd4afbb-16bd-43bd-b0db-67e7146c68d0"},"vehicle_type_id":"4","last_reported":1732172957,"current_range_meters":33200,"station_id":"ce4bgrp2rcd13ifvqc9g","pricing_plan_id":"cebpf4jnsgd1na2vs0mg"},{"bike_id":"b07c8d71-9f91-4dfb-9a6f-7692d91e4f9e","system_id":"levelo_inurba_marseille","lat":43.28458,"lon":5.35888,"is_reserved":false,"is_disabled":false,"rental_uris":{"android":"levelo://app?vid=b07c8d71-9f91-4dfb-9a6f-7692d91e4f9e","ios":"levelo://app?vid=b07c8d71-9f91-4dfb-9a6f-7692d91e4f9e"},"vehicle_type_id":"4","last_reported":1732172957,"current_range_meters":38000,"station_id":"ce4bhah2rcd13ifvqei0","pricing_plan_id":"cebpf4jnsgd1na2vs0mg"},{"bike_id":"571825fc-1c1f-4e61-ba4d-fc13912fcda9","system_id":"levelo_inurba_marseille","lat":43.32486,"lon":5.36561,"is_reserved":false,"is_disabled":false,"rental_uris":{"android":"levelo://app?vid=571825fc-1c1f-4e61-ba4d-fc13912fcda9","ios":"levelo://app?vid=571825fc-1c1f-4e61-ba4d-fc13912fcda9"},"vehicle_type_id":"4","last_reported":1732172957,"current_range_meters":30800,"station_id":"ce4bhs12rcd13ifvqhvg","pricing_plan_id":"cebpf4jnsgd1na2vs0mg"},{"bike_id":"e519296a-3af7-4b5a-b47f-9489af46c691","system_id":"levelo_inurba_marseille","lat":43.28348,"lon":5.38101,"is_reserved":false,"is_disabled":false,"rental_uris":{"android":"levelo://app?vid=e519296a-3af7-4b5a-b47f-9489af46c691","ios":"levelo://app?vid=e519296a-3af7-4b5a-b47f-9489af46c691"},"vehicle_type_id":"4","last_reported":1732172957,"current_range_meters":38400,"station_id":"ce4bh412rcd13ifvqdr0","pricing_plan_id":"cebpf4jnsgd1na2vs0mg"},{"bike_id":"76e17cd8-88f3-4cf8-8aa8-3372f4a4238c","system_id":"levelo_inurba_marseille","lat":43.28934,"lon":5.36642,"is_reserved":false,"is_disabled":false,"rental_uris":{"android":"levelo://app?vid=76e17cd8-88f3-4cf8-8aa8-3372f4a4238c","ios":"levelo://app?vid=76e17cd8-88f3-4cf8-8aa8-3372f4a4238c"},"vehicle_type_id":"4","last_reported":1732172957,"current_range_meters":6800,"station_id":"ce4bhap2rcd13ifvqek0","pricing_plan_id":"cebpf4jnsgd1na2vs0mg"},{"bike_id":"4e0ae9d0-4853-4c4a-8966-a6752727c462","system_id":"levelo_inurba_marseille","lat":43.28945,"lon":5.39631,"is_reserved":false,"is_disabled":true,"rental_uris":{"android":"levelo://app?vid=4e0ae9d0-4853-4c4a-8966-a6752727c462","ios":"levelo://app?vid=4e0ae9d0-4853-4c4a-8966-a6752727c462"},"vehicle_type_id":"4","last_reported":1732172957,"current_range_meters":0,"station_id":"ce4bh3h2rcd13ifvqdn0","pricing_plan_id":"cebpf4jnsgd1na2vs0mg"},{"bike_id":"8341de1f-4ae5-45ac-b9ec-87c64d574f9e","system_id":"levelo_inurba_marseille","lat":43.2987,"lon":5.38904,"is_reserved":false,"is_disabled":false,"rental_uris":{"android":"levelo://app?vid=8341de1f-4ae5-45ac-b9ec-87c64d574f9e","ios":"levelo://app?vid=8341de1f-4ae5-45ac-b9ec-87c64d574f9e"},"vehicle_type_id":"4","last_reported":1732172957,"current_range_meters":32400,"station_id":"ce4bh392rcd13ifvqdl0","pricing_plan_id":"cebpf4jnsgd1na2vs0mg"},{"bike_id":"3ecbe8b4-e7b3-4d48-8da7-065da53b17e1","system_id":"levelo_inurba_marseille","lat":43.29001,"lon":5.35605,"is_reserved":false,"is_disabled":false,"rental_uris":{"android":"levelo://app?vid=3ecbe8b4-e7b3-4d48-8da7-065da53b17e1","ios":"levelo://app?vid=3ecbe8b4-e7b3-4d48-8da7-065da53b17e1"},"vehicle_type_id":"4","last_reported":1732172957,"current_range_meters":18000,"station_id":"ce4bhb92rcd13ifvqen0","pricing_plan_id":"cebpf4jnsgd1na2vs0mg"},{"bike_id":"17a1ee21-a849-4433-badc-5af1a287346d","system_id":"levelo_inurba_marseille","lat":43.24587,"lon":5.37414,"is_reserved":false,"is_disabled":true,"rental_uris":{"android":"levelo://app?vid=17a1ee21-a849-4433-badc-5af1a287346d","ios":"levelo://app?vid=17a1ee21-a849-4433-badc-5af1a287346d"},"vehicle_type_id":"4","last_reported":1732172957,"current_range_meters":0,"station_id":"","pricing_plan_id":"cebpf4jnsgd1na2vs0mg"},{"bike_id":"03421a45-dbd0-4aee-87d7-d692d3894540","system_id":"levelo_inurba_marseille","lat":43.26227,"lon":5.37507,"is_reserved":false,"is_disabled":true,"rental_uris":{"android":"levelo://app?vid=03421a45-dbd0-4aee-87d7-d692d3894540","ios":"levelo://app?vid=03421a45-dbd0-4aee-87d7-d692d3894540"},"vehicle_type_id":"4","last_reported":1732172957,"current_range_meters":0,"station_id":"","pricing_plan_id":"cebpf4jnsgd1na2vs0mg"},{"bike_id":"658bd189-5f21-4976-ac6a-9932b26f588b","system_id":"levelo_inurba_marseille","lat":43.26573,"lon":5.3901,"is_reserved":false,"is_disabled":false,"rental_uris":{"android":"levelo://app?vid=658bd189-5f21-4976-ac6a-9932b26f588b","ios":"levelo://app?vid=658bd189-5f21-4976-ac6a-9932b26f588b"},"vehicle_type_id":"4","last_reported":1732172957,"current_range_meters":8400,"station_id":"ce4bhe12rcd13ifvqf30","pricing_plan_id":"cebpf4jnsgd1na2vs0mg"},{"bike_id":"f0fa4e60-0a2b-48c7-9942-83170358dd4a","system_id":"levelo_inurba_marseille","lat":43.32283,"lon":5.38276,"is_reserved":false,"is_disabled":false,"rental_uris":{"android":"levelo://app?vid=f0fa4e60-0a2b-48c7-9942-83170358dd4a","ios":"levelo://app?vid=f0fa4e60-0a2b-48c7-9942-83170358dd4a"},"vehicle_type_id":"4","last_reported":1732172957,"current_range_meters":37600,"station_id":"ce4bhr12rcd13ifvqhqg","pricing_plan_id":"cebpf4jnsgd1na2vs0mg"},{"bike_id":"c8758428-5e84-4795-8090-e358b663fb7b","system_id":"levelo_inurba_marseille","lat":43.26485,"lon":5.39548,"is_reserved":false,"is_disabled":false,"rental_uris":{"android":"levelo://app?vid=c8758428-5e84-4795-8090-e358b663fb7b","ios":"levelo://app?vid=c8758428-5e84-4795-8090-e358b663fb7b"},"vehicle_type_id":"4","last_reported":1732172957,"current_range_meters":30000,"station_id":"ce4bhi12rcd13ifvqfq0","pricing_plan_id":"cebpf4jnsgd1na2vs0mg"},{"bike_id":"5c5222dc-c9e9-4134-9926-f13e5276b66c","system_id":"levelo_inurba_marseille","lat":43.32356,"lon":5.38871,"is_reserved":false,"is_disabled":false,"rental_uris":{"android":"levelo://app?vid=5c5222dc-c9e9-4134-9926-f13e5276b66c","ios":"levelo://app?vid=5c5222dc-c9e9-4134-9926-f13e5276b66c"},"vehicle_type_id":"4","last_reported":1732172957,"current_range_meters":38400,"station_id":"ce4bhqp2rcd13ifvqhog","pricing_plan_id":"cebpf4jnsgd1na2vs0mg"},{"bike_id":"90ac26d5-9529-453b-899d-d375e9bc235f","system_id":"levelo_inurba_marseille","lat":43.28264,"lon":5.3506,"is_reserved":false,"is_disabled":true,"rental_uris":{"android":"levelo://app?vid=90ac26d5-9529-453b-899d-d375e9bc235f","ios":"levelo://app?vid=90ac26d5-9529-453b-899d-d375e9bc235f"},"vehicle_type_id":"4","last_reported":1732172957,"current_range_meters":800,"station_id":"ce4bhbp2rcd13ifvqerg","pricing_plan_id":"cebpf4jnsgd1na2vs0mg"},{"bike_id":"f5cf085e-8694-4c6f-ba9c-aa6e0d3c58c6","system_id":"levelo_inurba_marseille","lat":43.33643,"lon":5.35553,"is_reserved":false,"is_disabled":true,"rental_uris":{"android":"levelo://app?vid=f5cf085e-8694-4c6f-ba9c-aa6e0d3c58c6","ios":"levelo://app?vid=f5cf085e-8694-4c6f-ba9c-aa6e0d3c58c6"},"vehicle_type_id":"4","last_reported":1732172957,"current_range_meters":8400,"station_id":"","pricing_plan_id":"cebpf4jnsgd1na2vs0mg"},{"bike_id":"3d2beca7-eef0-4bae-98e1-8b3de347272c","system_id":"levelo_inurba_marseille","lat":43.23194,"lon":5.35554,"is_reserved":false,"is_disabled":false,"rental_uris":{"android":"levelo://app?vid=3d2beca7-eef0-4bae-98e1-8b3de347272c","ios":"levelo://app?vid=3d2beca7-eef0-4bae-98e1-8b3de347272c"},"vehicle_type_id":"4","last_reported":1732172957,"current_range_meters":34000,"station_id":"ce4bhu92rcd13ifvqi70","pricing_plan_id":"cebpf4jnsgd1na2vs0mg"},{"bike_id":"92ee25e8-d8cc-41be-af41-d98025481e9c","system_id":"levelo_inurba_marseille","lat":43.30326,"lon":5.40437,"is_reserved":false,"is_disabled":false,"rental_uris":{"android":"levelo://app?vid=92ee25e8-d8cc-41be-af41-d98025481e9c","ios":"levelo://app?vid=92ee25e8-d8cc-41be-af41-d98025481e9c"},"vehicle_type_id":"4","last_reported":1732172957,"current_range_meters":37600,"station_id":"ce4bh012rcd13ifvqd10","pricing_plan_id":"cebpf4jnsgd1na2vs0mg"},{"bike_id":"a1529ae5-93e5-4314-98be-8be4cef599cf","system_id":"levelo_inurba_marseille","lat":43.28938,"lon":5.36628,"is_reserved":false,"is_disabled":true,"rental_uris":{"android":"levelo://app?vid=a1529ae5-93e5-4314-98be-8be4cef599cf","ios":"levelo://app?vid=a1529ae5-93e5-4314-98be-8be4cef599cf"},"vehicle_type_id":"4","last_reported":1732172957,"current_range_meters":14800,"station_id":"ce4bhap2rcd13ifvqek0","pricing_plan_id":"cebpf4jnsgd1na2vs0mg"},{"bike_id":"addb07af-1175-4580-8ec9-c8d6ce9acad2","system_id":"levelo_inurba_marseille","lat":43.29303,"lon":5.37154,"is_reserved":false,"is_disabled":false,"rental_uris":{"android":"levelo://app?vid=addb07af-1175-4580-8ec9-c8d6ce9acad2","ios":"levelo://app?vid=addb07af-1175-4580-8ec9-c8d6ce9acad2"},"vehicle_type_id":"4","last_reported":1732172957,"current_range_meters":38800,"station_id":"ce4bgh92rcd13ifvqb40","pricing_plan_id":"cebpf4jnsgd1na2vs0mg"},{"bike_id":"15b534be-26ef-474a-b7be-5b2ef6fc9870","system_id":"levelo_inurba_marseille","lat":43.313273,"lon":5.374787,"is_reserved":false,"is_disabled":false,"rental_uris":{"android":"levelo://app?vid=15b534be-26ef-474a-b7be-5b2ef6fc9870","ios":"levelo://app?vid=15b534be-26ef-474a-b7be-5b2ef6fc9870"},"vehicle_type_id":"4","last_reported":1732172957,"current_range_meters":26000,"station_id":"","pricing_plan_id":"cebpf4jnsgd1na2vs0mg"},{"bike_id":"e57590cc-a844-462b-b95c-023047b497c3","system_id":"levelo_inurba_marseille","lat":43.26027,"lon":5.3755,"is_reserved":false,"is_disabled":false,"rental_uris":{"android":"levelo://app?vid=e57590cc-a844-462b-b95c-023047b497c3","ios":"levelo://app?vid=e57590cc-a844-462b-b95c-023047b497c3"},"vehicle_type_id":"4","last_reported":1732172957,"current_range_meters":38800,"station_id":"ce4bhgh2rcd13ifvqfa0","pricing_plan_id":"cebpf4jnsgd1na2vs0mg"},{"bike_id":"02548de1-a79f-4bc6-8c03-f2b86f8bd8f9","system_id":"levelo_inurba_marseille","lat":43.3236,"lon":5.38878,"is_reserved":false,"is_disabled":false,"rental_uris":{"android":"levelo://app?vid=02548de1-a79f-4bc6-8c03-f2b86f8bd8f9","ios":"levelo://app?vid=02548de1-a79f-4bc6-8c03-f2b86f8bd8f9"},"vehicle_type_id":"4","last_reported":1732172957,"current_range_meters":9200,"station_id":"ce4bhqp2rcd13ifvqhog","pricing_plan_id":"cebpf4jnsgd1na2vs0mg"},{"bike_id":"7ef9a5ef-b3b2-4ff2-82cc-f161ced30464","system_id":"levelo_inurba_marseille","lat":43.29415,"lon":5.38612,"is_reserved":false,"is_disabled":true,"rental_uris":{"android":"levelo://app?vid=7ef9a5ef-b3b2-4ff2-82cc-f161ced30464","ios":"levelo://app?vid=7ef9a5ef-b3b2-4ff2-82cc-f161ced30464"},"vehicle_type_id":"4","last_reported":1732172957,"current_range_meters":36000,"station_id":"ce4bh2h2rcd13ifvqdh0","pricing_plan_id":"cebpf4jnsgd1na2vs0mg"},{"bike_id":"ccd208dd-3d0b-41e2-93a6-fda6e537f6b8","system_id":"levelo_inurba_marseille","lat":43.31345,"lon":5.36705,"is_reserved":false,"is_disabled":false,"rental_uris":{"android":"levelo://app?vid=ccd208dd-3d0b-41e2-93a6-fda6e537f6b8","ios":"levelo://app?vid=ccd208dd-3d0b-41e2-93a6-fda6e537f6b8"},"vehicle_type_id":"4","last_reported":1732172957,"current_range_meters":6800,"station_id":"ce4bgr92rcd13ifvqc6g","pricing_plan_id":"cebpf4jnsgd1na2vs0mg"},{"bike_id":"a8fe9131-8324-4d62-abb6-9a4ec7f0a4a8","system_id":"levelo_inurba_marseille","lat":43.31484,"lon":5.37296,"is_reserved":false,"is_disabled":true,"rental_uris":{"android":"levelo://app?vid=a8fe9131-8324-4d62-abb6-9a4ec7f0a4a8","ios":"levelo://app?vid=a8fe9131-8324-4d62-abb6-9a4ec7f0a4a8"},"vehicle_type_id":"4","last_reported":1732172957,"current_range_meters":800,"station_id":"ce4bgt12rcd13ifvqcd0","pricing_plan_id":"cebpf4jnsgd1na2vs0mg"},{"bike_id":"85c168ab-0317-43fc-8de8-3e1ddbea3975","system_id":"levelo_inurba_marseille","lat":43.29364,"lon":5.37833,"is_reserved":false,"is_disabled":false,"rental_uris":{"android":"levelo://app?vid=85c168ab-0317-43fc-8de8-3e1ddbea3975","ios":"levelo://app?vid=85c168ab-0317-43fc-8de8-3e1ddbea3975"},"vehicle_type_id":"4","last_reported":1732172957,"current_range_meters":38800,"station_id":"ce4bgjh2rcd13ifvqbf0","pricing_plan_id":"cebpf4jnsgd1na2vs0mg"},{"bike_id":"1b068b64-e256-4306-b8b9-5fe3e2829256","system_id":"levelo_inurba_marseille","lat":43.30464,"lon":5.37912,"is_reserved":false,"is_disabled":false,"rental_uris":{"android":"levelo://app?vid=1b068b64-e256-4306-b8b9-5fe3e2829256","ios":"levelo://app?vid=1b068b64-e256-4306-b8b9-5fe3e2829256"},"vehicle_type_id":"4","last_reported":1732172957,"current_range_meters":8000,"station_id":"ce4bgup2rcd13ifvqcn0","pricing_plan_id":"cebpf4jnsgd1na2vs0mg"},{"bike_id":"8d5e8e54-f87c-49b3-8720-7e21078f8fcd","system_id":"levelo_inurba_marseille","lat":43.2648,"lon":5.39549,"is_reserved":false,"is_disabled":false,"rental_uris":{"android":"levelo://app?vid=8d5e8e54-f87c-49b3-8720-7e21078f8fcd","ios":"levelo://app?vid=8d5e8e54-f87c-49b3-8720-7e21078f8fcd"},"vehicle_type_id":"4","last_reported":1732172957,"current_range_meters":38000,"station_id":"ce4bhi12rcd13ifvqfq0","pricing_plan_id":"cebpf4jnsgd1na2vs0mg"},{"bike_id":"844cb461-f780-45f5-88b2-3951b51e6462","system_id":"levelo_inurba_marseille","lat":43.30111,"lon":5.37819,"is_reserved":false,"is_disabled":true,"rental_uris":{"android":"levelo://app?vid=844cb461-f780-45f5-88b2-3951b51e6462","ios":"levelo://app?vid=844cb461-f780-45f5-88b2-3951b51e6462"},"vehicle_type_id":"4","last_reported":1732172957,"current_range_meters":0,"station_id":"","pricing_plan_id":"cebpf4jnsgd1na2vs0mg"},{"bike_id":"996fb4ce-aa12-4592-b2df-cd3716958cb1","system_id":"levelo_inurba_marseille","lat":43.25938,"lon":5.40905,"is_reserved":false,"is_disabled":false,"rental_uris":{"android":"levelo://app?vid=996fb4ce-aa12-4592-b2df-cd3716958cb1","ios":"levelo://app?vid=996fb4ce-aa12-4592-b2df-cd3716958cb1"},"vehicle_type_id":"4","last_reported":1732172957,"current_range_meters":20800,"station_id":"ce4bhm92rcd13ifvqglg","pricing_plan_id":"cebpf4jnsgd1na2vs0mg"},{"bike_id":"484efa0b-84f8-4eb4-8bff-ae1e3e3f9091","system_id":"levelo_inurba_marseille","lat":43.30463,"lon":5.37896,"is_reserved":false,"is_disabled":false,"rental_uris":{"android":"levelo://app?vid=484efa0b-84f8-4eb4-8bff-ae1e3e3f9091","ios":"levelo://app?vid=484efa0b-84f8-4eb4-8bff-ae1e3e3f9091"},"vehicle_type_id":"4","last_reported":1732172957,"current_range_meters":39200,"station_id":"ce4bgup2rcd13ifvqcn0","pricing_plan_id":"cebpf4jnsgd1na2vs0mg"},{"bike_id":"3cb6bce8-4776-4f28-9176-b2adbc88abb1","system_id":"levelo_inurba_marseille","lat":43.26952,"lon":5.38631,"is_reserved":false,"is_disabled":false,"rental_uris":{"android":"levelo://app?vid=3cb6bce8-4776-4f28-9176-b2adbc88abb1","ios":"levelo://app?vid=3cb6bce8-4776-4f28-9176-b2adbc88abb1"},"vehicle_type_id":"4","last_reported":1732172957,"current_range_meters":29600,"station_id":"ce4bhh92rcd13ifvqfh0","pricing_plan_id":"cebpf4jnsgd1na2vs0mg"},{"bike_id":"a35a4db5-3682-4a97-bcfc-0d8c1332dce1","system_id":"levelo_inurba_marseille","lat":43.27056,"lon":5.40262,"is_reserved":false,"is_disabled":false,"rental_uris":{"android":"levelo://app?vid=a35a4db5-3682-4a97-bcfc-0d8c1332dce1","ios":"levelo://app?vid=a35a4db5-3682-4a97-bcfc-0d8c1332dce1"},"vehicle_type_id":"4","last_reported":1732172957,"current_range_meters":14800,"station_id":"ce4bhk92rcd13ifvqgc0","pricing_plan_id":"cebpf4jnsgd1na2vs0mg"},{"bike_id":"bbf93218-68ad-4601-9ca1-23dbf504d3d0","system_id":"levelo_inurba_marseille","lat":43.28726,"lon":5.36091,"is_reserved":false,"is_disabled":true,"rental_uris":{"android":"levelo://app?vid=bbf93218-68ad-4601-9ca1-23dbf504d3d0","ios":"levelo://app?vid=bbf93218-68ad-4601-9ca1-23dbf504d3d0"},"vehicle_type_id":"4","last_reported":1732172957,"current_range_meters":0,"station_id":"cki0cbj6b192h4jlfktg","pricing_plan_id":"cebpf4jnsgd1na2vs0mg"},{"bike_id":"cdaafd2d-0da1-4fac-9881-15c66a7cd7c0","system_id":"levelo_inurba_marseille","lat":43.23151,"lon":5.43707,"is_reserved":false,"is_disabled":false,"rental_uris":{"android":"levelo://app?vid=cdaafd2d-0da1-4fac-9881-15c66a7cd7c0","ios":"levelo://app?vid=cdaafd2d-0da1-4fac-9881-15c66a7cd7c0"},"vehicle_type_id":"4","last_reported":1732172957,"current_range_meters":38800,"station_id":"ce4bhmp2rcd13ifvqgog","pricing_plan_id":"cebpf4jnsgd1na2vs0mg"},{"bike_id":"4614d75e-f019-45c6-ba9e-78d75d402087","system_id":"levelo_inurba_marseille","lat":43.34142,"lon":5.40903,"is_reserved":false,"is_disabled":false,"rental_uris":{"android":"levelo://app?vid=4614d75e-f019-45c6-ba9e-78d75d402087","ios":"levelo://app?vid=4614d75e-f019-45c6-ba9e-78d75d402087"},"vehicle_type_id":"4","last_reported":1732172957,"current_range_meters":34000,"station_id":"ce4bhqh2rcd13ifvqhlg","pricing_plan_id":"cebpf4jnsgd1na2vs0mg"},{"bike_id":"1d606ca2-d831-4cab-8cc3-213a7446614a","system_id":"levelo_inurba_marseille","lat":43.31486,"lon":5.37306,"is_reserved":false,"is_disabled":false,"rental_uris":{"android":"levelo://app?vid=1d606ca2-d831-4cab-8cc3-213a7446614a","ios":"levelo://app?vid=1d606ca2-d831-4cab-8cc3-213a7446614a"},"vehicle_type_id":"4","last_reported":1732172957,"current_range_meters":26800,"station_id":"ce4bgt12rcd13ifvqcd0","pricing_plan_id":"cebpf4jnsgd1na2vs0mg"},{"bike_id":"8d5ad0a8-268e-4afd-be61-7919f93826c7","system_id":"levelo_inurba_marseille","lat":43.29918,"lon":5.37475,"is_reserved":false,"is_disabled":true,"rental_uris":{"android":"levelo://app?vid=8d5ad0a8-268e-4afd-be61-7919f93826c7","ios":"levelo://app?vid=8d5ad0a8-268e-4afd-be61-7919f93826c7"},"vehicle_type_id":"4","last_reported":1732172957,"current_range_meters":34800,"station_id":"ce4bgjh2rcd13ifvqbg0","pricing_plan_id":"cebpf4jnsgd1na2vs0mg"},{"bike_id":"7bc52ef8-b780-4f98-8fa2-b2125397c84e","system_id":"levelo_inurba_marseille","lat":43.32366,"lon":5.38888,"is_reserved":false,"is_disabled":false,"rental_uris":{"android":"levelo://app?vid=7bc52ef8-b780-4f98-8fa2-b2125397c84e","ios":"levelo://app?vid=7bc52ef8-b780-4f98-8fa2-b2125397c84e"},"vehicle_type_id":"4","last_reported":1732172957,"current_range_meters":33200,"station_id":"ce4bhqp2rcd13ifvqhog","pricing_plan_id":"cebpf4jnsgd1na2vs0mg"},{"bike_id":"91d7d4ba-408f-4de3-986e-78550b1598da","system_id":"levelo_inurba_marseille","lat":43.32607,"lon":5.38755,"is_reserved":false,"is_disabled":false,"rental_uris":{"android":"levelo://app?vid=91d7d4ba-408f-4de3-986e-78550b1598da","ios":"levelo://app?vid=91d7d4ba-408f-4de3-986e-78550b1598da"},"vehicle_type_id":"4","last_reported":1732172957,"current_range_meters":8000,"station_id":"","pricing_plan_id":"cebpf4jnsgd1na2vs0mg"},{"bike_id":"20b8fda3-25c0-47ec-9e06-266171433333","system_id":"levelo_inurba_marseille","lat":43.24387,"lon":5.37051,"is_reserved":false,"is_disabled":false,"rental_uris":{"android":"levelo://app?vid=20b8fda3-25c0-47ec-9e06-266171433333","ios":"levelo://app?vid=20b8fda3-25c0-47ec-9e06-266171433333"},"vehicle_type_id":"4","last_reported":1732172957,"current_range_meters":38800,"station_id":"ce4bhhh2rcd13ifvqfk0","pricing_plan_id":"cebpf4jnsgd1na2vs0mg"},{"bike_id":"21e611ca-1d52-46b2-9962-730ca3426b93","system_id":"levelo_inurba_marseille","lat":43.31483,"lon":5.37307,"is_reserved":false,"is_disabled":false,"rental_uris":{"android":"levelo://app?vid=21e611ca-1d52-46b2-9962-730ca3426b93","ios":"levelo://app?vid=21e611ca-1d52-46b2-9962-730ca3426b93"},"vehicle_type_id":"4","last_reported":1732172957,"current_range_meters":18000,"station_id":"ce4bgt12rcd13ifvqcd0","pricing_plan_id":"cebpf4jnsgd1na2vs0mg"},{"bike_id":"8eb93167-4b65-485d-8184-38b36a0fe079","system_id":"levelo_inurba_marseille","lat":43.28852,"lon":5.3585,"is_reserved":false,"is_disabled":false,"rental_uris":{"android":"levelo://app?vid=8eb93167-4b65-485d-8184-38b36a0fe079","ios":"levelo://app?vid=8eb93167-4b65-485d-8184-38b36a0fe079"},"vehicle_type_id":"4","last_reported":1732172957,"current_range_meters":21600,"station_id":"ce4bhb12rcd13ifvqem0","pricing_plan_id":"cebpf4jnsgd1na2vs0mg"},{"bike_id":"8b09ebd1-a82c-4c50-a6f1-82290ab766c7","system_id":"levelo_inurba_marseille","lat":43.27065,"lon":5.42277,"is_reserved":false,"is_disabled":false,"rental_uris":{"android":"levelo://app?vid=8b09ebd1-a82c-4c50-a6f1-82290ab766c7","ios":"levelo://app?vid=8b09ebd1-a82c-4c50-a6f1-82290ab766c7"},"vehicle_type_id":"4","last_reported":1732172957,"current_range_meters":38800,"station_id":"ce4bhk92rcd13ifvqgb0","pricing_plan_id":"cebpf4jnsgd1na2vs0mg"},{"bike_id":"28b485e5-b4cd-46c6-bbdc-bd8618fabcc8","system_id":"levelo_inurba_marseille","lat":43.23186,"lon":5.39991,"is_reserved":false,"is_disabled":false,"rental_uris":{"android":"levelo://app?vid=28b485e5-b4cd-46c6-bbdc-bd8618fabcc8","ios":"levelo://app?vid=28b485e5-b4cd-46c6-bbdc-bd8618fabcc8"},"vehicle_type_id":"4","last_reported":1732172957,"current_range_meters":9600,"station_id":"ce4bhn12rcd13ifvqgqg","pricing_plan_id":"cebpf4jnsgd1na2vs0mg"},{"bike_id":"425d9d72-803f-43c6-8737-c5bee2843511","system_id":"levelo_inurba_marseille","lat":43.30466,"lon":5.37906,"is_reserved":false,"is_disabled":false,"rental_uris":{"android":"levelo://app?vid=425d9d72-803f-43c6-8737-c5bee2843511","ios":"levelo://app?vid=425d9d72-803f-43c6-8737-c5bee2843511"},"vehicle_type_id":"4","last_reported":1732172957,"current_range_meters":38000,"station_id":"ce4bgup2rcd13ifvqcn0","pricing_plan_id":"cebpf4jnsgd1na2vs0mg"},{"bike_id":"f3d1de11-ea0c-4809-8e9c-3957146035eb","system_id":"levelo_inurba_marseille","lat":43.26025,"lon":5.37553,"is_reserved":false,"is_disabled":false,"rental_uris":{"android":"levelo://app?vid=f3d1de11-ea0c-4809-8e9c-3957146035eb","ios":"levelo://app?vid=f3d1de11-ea0c-4809-8e9c-3957146035eb"},"vehicle_type_id":"4","last_reported":1732172957,"current_range_meters":34000,"station_id":"ce4bhgh2rcd13ifvqfa0","pricing_plan_id":"cebpf4jnsgd1na2vs0mg"},{"bike_id":"319639f6-c364-407e-9612-56f449d4d076","system_id":"levelo_inurba_marseille","lat":43.28077,"lon":5.39662,"is_reserved":false,"is_disabled":true,"rental_uris":{"android":"levelo://app?vid=319639f6-c364-407e-9612-56f449d4d076","ios":"levelo://app?vid=319639f6-c364-407e-9612-56f449d4d076"},"vehicle_type_id":"4","last_reported":1732172957,"current_range_meters":0,"station_id":"ce4bho12rcd13ifvqh2g","pricing_plan_id":"cebpf4jnsgd1na2vs0mg"},{"bike_id":"9d1b7cbb-98fa-41ad-94a0-1a65bb16f3d3","system_id":"levelo_inurba_marseille","lat":43.31762,"lon":5.39016,"is_reserved":false,"is_disabled":false,"rental_uris":{"android":"levelo://app?vid=9d1b7cbb-98fa-41ad-94a0-1a65bb16f3d3","ios":"levelo://app?vid=9d1b7cbb-98fa-41ad-94a0-1a65bb16f3d3"},"vehicle_type_id":"4","last_reported":1732172957,"current_range_meters":9200,"station_id":"ce4bhqp2rcd13ifvqhng","pricing_plan_id":"cebpf4jnsgd1na2vs0mg"},{"bike_id":"401ba890-da26-4a3a-814c-dae1af1c581b","system_id":"levelo_inurba_marseille","lat":43.26956,"lon":5.38634,"is_reserved":false,"is_disabled":false,"rental_uris":{"android":"levelo://app?vid=401ba890-da26-4a3a-814c-dae1af1c581b","ios":"levelo://app?vid=401ba890-da26-4a3a-814c-dae1af1c581b"},"vehicle_type_id":"4","last_reported":1732172957,"current_range_meters":7200,"station_id":"ce4bhh92rcd13ifvqfh0","pricing_plan_id":"cebpf4jnsgd1na2vs0mg"},{"bike_id":"1951da77-c259-424b-b12e-3b8bb4eeaeca","system_id":"levelo_inurba_marseille","lat":43.29067,"lon":5.3716,"is_reserved":false,"is_disabled":true,"rental_uris":{"android":"levelo://app?vid=1951da77-c259-424b-b12e-3b8bb4eeaeca","ios":"levelo://app?vid=1951da77-c259-424b-b12e-3b8bb4eeaeca"},"vehicle_type_id":"4","last_reported":1732172957,"current_range_meters":0,"station_id":"ce4bh5p2rcd13ifvqe4g","pricing_plan_id":"cebpf4jnsgd1na2vs0mg"},{"bike_id":"403d1fe9-5696-465c-8a76-0fc328542722","system_id":"levelo_inurba_marseille","lat":43.29806,"lon":5.404006,"is_reserved":false,"is_disabled":false,"rental_uris":{"android":"levelo://app?vid=403d1fe9-5696-465c-8a76-0fc328542722","ios":"levelo://app?vid=403d1fe9-5696-465c-8a76-0fc328542722"},"vehicle_type_id":"4","last_reported":1732172957,"current_range_meters":8400,"station_id":"ce4bh112rcd13ifvqd90","pricing_plan_id":"cebpf4jnsgd1na2vs0mg"},{"bike_id":"53bbdfc0-4d63-4cc4-86e6-4ec910061123","system_id":"levelo_inurba_marseille","lat":43.30907,"lon":5.36703,"is_reserved":false,"is_disabled":true,"rental_uris":{"android":"levelo://app?vid=53bbdfc0-4d63-4cc4-86e6-4ec910061123","ios":"levelo://app?vid=53bbdfc0-4d63-4cc4-86e6-4ec910061123"},"vehicle_type_id":"4","last_reported":1732172957,"current_range_meters":0,"station_id":"","pricing_plan_id":"cebpf4jnsgd1na2vs0mg"},{"bike_id":"7129faee-e2b6-422c-bd6a-0829869de055","system_id":"levelo_inurba_marseille","lat":43.28345,"lon":5.3811,"is_reserved":false,"is_disabled":false,"rental_uris":{"android":"levelo://app?vid=7129faee-e2b6-422c-bd6a-0829869de055","ios":"levelo://app?vid=7129faee-e2b6-422c-bd6a-0829869de055"},"vehicle_type_id":"4","last_reported":1732172957,"current_range_meters":9200,"station_id":"ce4bh412rcd13ifvqdr0","pricing_plan_id":"cebpf4jnsgd1na2vs0mg"},{"bike_id":"8b018c25-8d74-4a64-a8ef-2a282361b7e2","system_id":"levelo_inurba_marseille","lat":43.30211,"lon":5.39449,"is_reserved":false,"is_disabled":false,"rental_uris":{"android":"levelo://app?vid=8b018c25-8d74-4a64-a8ef-2a282361b7e2","ios":"levelo://app?vid=8b018c25-8d74-4a64-a8ef-2a282361b7e2"},"vehicle_type_id":"4","last_reported":1732172957,"current_range_meters":35200,"station_id":"ce4bh0p2rcd13ifvqd70","pricing_plan_id":"cebpf4jnsgd1na2vs0mg"},{"bike_id":"36f35e04-537f-4b65-bfc8-cddde59926f9","system_id":"levelo_inurba_marseille","lat":43.27492,"lon":5.42458,"is_reserved":false,"is_disabled":false,"rental_uris":{"android":"levelo://app?vid=36f35e04-537f-4b65-bfc8-cddde59926f9","ios":"levelo://app?vid=36f35e04-537f-4b65-bfc8-cddde59926f9"},"vehicle_type_id":"4","last_reported":1732172957,"current_range_meters":33200,"station_id":"ce4bhn92rcd13ifvqgrg","pricing_plan_id":"cebpf4jnsgd1na2vs0mg"},{"bike_id":"3193222d-584b-4642-a1d8-0c04b2309736","system_id":"levelo_inurba_marseille","lat":43.33727,"lon":5.39185,"is_reserved":false,"is_disabled":false,"rental_uris":{"android":"levelo://app?vid=3193222d-584b-4642-a1d8-0c04b2309736","ios":"levelo://app?vid=3193222d-584b-4642-a1d8-0c04b2309736"},"vehicle_type_id":"4","last_reported":1732172957,"current_range_meters":8400,"station_id":"ce4bhr92rcd13ifvqhsg","pricing_plan_id":"cebpf4jnsgd1na2vs0mg"},{"bike_id":"9b4d52a8-a22b-418c-a556-65afaca3a235","system_id":"levelo_inurba_marseille","lat":43.33757,"lon":5.37458,"is_reserved":false,"is_disabled":false,"rental_uris":{"android":"levelo://app?vid=9b4d52a8-a22b-418c-a556-65afaca3a235","ios":"levelo://app?vid=9b4d52a8-a22b-418c-a556-65afaca3a235"},"vehicle_type_id":"4","last_reported":1732172957,"current_range_meters":12000,"station_id":"","pricing_plan_id":"cebpf4jnsgd1na2vs0mg"},{"bike_id":"73c69716-fcc7-4f45-bed0-b0ab78cb3c77","system_id":"levelo_inurba_marseille","lat":43.28267,"lon":5.35069,"is_reserved":false,"is_disabled":false,"rental_uris":{"android":"levelo://app?vid=73c69716-fcc7-4f45-bed0-b0ab78cb3c77","ios":"levelo://app?vid=73c69716-fcc7-4f45-bed0-b0ab78cb3c77"},"vehicle_type_id":"4","last_reported":1732172957,"current_range_meters":16000,"station_id":"ce4bhbp2rcd13ifvqerg","pricing_plan_id":"cebpf4jnsgd1na2vs0mg"},{"bike_id":"90e1718d-cd99-4c8d-9c36-9960f11e6e9c","system_id":"levelo_inurba_marseille","lat":43.3093,"lon":5.40148,"is_reserved":false,"is_disabled":false,"rental_uris":{"android":"levelo://app?vid=90e1718d-cd99-4c8d-9c36-9960f11e6e9c","ios":"levelo://app?vid=90e1718d-cd99-4c8d-9c36-9960f11e6e9c"},"vehicle_type_id":"4","last_reported":1732172957,"current_range_meters":9200,"station_id":"ce4bgvp2rcd13ifvqct0","pricing_plan_id":"cebpf4jnsgd1na2vs0mg"},{"bike_id":"4271307a-1e8f-4ec3-92c3-b1cc077db63a","system_id":"levelo_inurba_marseille","lat":43.28399,"lon":5.37516,"is_reserved":false,"is_disabled":true,"rental_uris":{"android":"levelo://app?vid=4271307a-1e8f-4ec3-92c3-b1cc077db63a","ios":"levelo://app?vid=4271307a-1e8f-4ec3-92c3-b1cc077db63a"},"vehicle_type_id":"4","last_reported":1732172957,"current_range_meters":36800,"station_id":"ce4bh412rcd13ifvqds0","pricing_plan_id":"cebpf4jnsgd1na2vs0mg"},{"bike_id":"13b56afa-018b-4abe-9633-b9cde5e2bde9","system_id":"levelo_inurba_marseille","lat":43.33724,"lon":5.39176,"is_reserved":false,"is_disabled":false,"rental_uris":{"android":"levelo://app?vid=13b56afa-018b-4abe-9633-b9cde5e2bde9","ios":"levelo://app?vid=13b56afa-018b-4abe-9633-b9cde5e2bde9"},"vehicle_type_id":"4","last_reported":1732172957,"current_range_meters":8000,"station_id":"ce4bhr92rcd13ifvqhsg","pricing_plan_id":"cebpf4jnsgd1na2vs0mg"},{"bike_id":"b3f92679-c034-48d5-8a4c-3aa874030b97","system_id":"levelo_inurba_marseille","lat":43.26954,"lon":5.38631,"is_reserved":false,"is_disabled":false,"rental_uris":{"android":"levelo://app?vid=b3f92679-c034-48d5-8a4c-3aa874030b97","ios":"levelo://app?vid=b3f92679-c034-48d5-8a4c-3aa874030b97"},"vehicle_type_id":"4","last_reported":1732172957,"current_range_meters":6400,"station_id":"ce4bhh92rcd13ifvqfh0","pricing_plan_id":"cebpf4jnsgd1na2vs0mg"},{"bike_id":"b60cc273-b0c2-42b6-a0f5-c2faf3f8160b","system_id":"levelo_inurba_marseille","lat":43.2293,"lon":5.35379,"is_reserved":false,"is_disabled":false,"rental_uris":{"android":"levelo://app?vid=b60cc273-b0c2-42b6-a0f5-c2faf3f8160b","ios":"levelo://app?vid=b60cc273-b0c2-42b6-a0f5-c2faf3f8160b"},"vehicle_type_id":"4","last_reported":1732172957,"current_range_meters":19200,"station_id":"cpo3532slgdg3j2ikp40","pricing_plan_id":"cebpf4jnsgd1na2vs0mg"},{"bike_id":"8ae288fe-7f9e-4636-bc68-3daa0c790f34","system_id":"levelo_inurba_marseille","lat":43.2467,"lon":5.38162,"is_reserved":false,"is_disabled":false,"rental_uris":{"android":"levelo://app?vid=8ae288fe-7f9e-4636-bc68-3daa0c790f34","ios":"levelo://app?vid=8ae288fe-7f9e-4636-bc68-3daa0c790f34"},"vehicle_type_id":"4","last_reported":1732172957,"current_range_meters":37600,"station_id":"ce4bhih2rcd13ifvqfr0","pricing_plan_id":"cebpf4jnsgd1na2vs0mg"},{"bike_id":"516f967a-b2c8-4590-b172-4a72c4814913","system_id":"levelo_inurba_marseille","lat":43.29802,"lon":5.38104,"is_reserved":false,"is_disabled":false,"rental_uris":{"android":"levelo://app?vid=516f967a-b2c8-4590-b172-4a72c4814913","ios":"levelo://app?vid=516f967a-b2c8-4590-b172-4a72c4814913"},"vehicle_type_id":"4","last_reported":1732172957,"current_range_meters":28400,"station_id":"ce4bgip2rcd13ifvqbb0","pricing_plan_id":"cebpf4jnsgd1na2vs0mg"},{"bike_id":"f8d773ad-6117-441c-8a1f-2ad7889ac928","system_id":"levelo_inurba_marseille","lat":43.337444,"lon":5.374475,"is_reserved":false,"is_disabled":false,"rental_uris":{"android":"levelo://app?vid=f8d773ad-6117-441c-8a1f-2ad7889ac928","ios":"levelo://app?vid=f8d773ad-6117-441c-8a1f-2ad7889ac928"},"vehicle_type_id":"4","last_reported":1732172957,"current_range_meters":29600,"station_id":"","pricing_plan_id":"cebpf4jnsgd1na2vs0mg"},{"bike_id":"2196e330-a7aa-4092-bb99-58cef0d5e930","system_id":"levelo_inurba_marseille","lat":43.25093,"lon":5.39514,"is_reserved":false,"is_disabled":false,"rental_uris":{"android":"levelo://app?vid=2196e330-a7aa-4092-bb99-58cef0d5e930","ios":"levelo://app?vid=2196e330-a7aa-4092-bb99-58cef0d5e930"},"vehicle_type_id":"4","last_reported":1732172957,"current_range_meters":36800,"station_id":"ce4bhm12rcd13ifvqgkg","pricing_plan_id":"cebpf4jnsgd1na2vs0mg"},{"bike_id":"a32613c2-ce23-4c6b-99d9-f02f377bc95a","system_id":"levelo_inurba_marseille","lat":43.337444,"lon":5.374475,"is_reserved":false,"is_disabled":false,"rental_uris":{"android":"levelo://app?vid=a32613c2-ce23-4c6b-99d9-f02f377bc95a","ios":"levelo://app?vid=a32613c2-ce23-4c6b-99d9-f02f377bc95a"},"vehicle_type_id":"4","last_reported":1732172957,"current_range_meters":35200,"station_id":"","pricing_plan_id":"cebpf4jnsgd1na2vs0mg"},{"bike_id":"612e2fb5-5bdd-4493-9d90-eaa49396d072","system_id":"levelo_inurba_marseille","lat":43.30572,"lon":5.36526,"is_reserved":false,"is_disabled":false,"rental_uris":{"android":"levelo://app?vid=612e2fb5-5bdd-4493-9d90-eaa49396d072","ios":"levelo://app?vid=612e2fb5-5bdd-4493-9d90-eaa49396d072"},"vehicle_type_id":"4","last_reported":1732172957,"current_range_meters":38400,"station_id":"ce4bgs12rcd13ifvqcag","pricing_plan_id":"cebpf4jnsgd1na2vs0mg"},{"bike_id":"d0f7dee5-1fcd-40e7-9140-535ea223380c","system_id":"levelo_inurba_marseille","lat":43.30143,"lon":5.37414,"is_reserved":false,"is_disabled":true,"rental_uris":{"android":"levelo://app?vid=d0f7dee5-1fcd-40e7-9140-535ea223380c","ios":"levelo://app?vid=d0f7dee5-1fcd-40e7-9140-535ea223380c"},"vehicle_type_id":"4","last_reported":1732172957,"current_range_meters":0,"station_id":"ce4bgs92rcd13ifvqcc0","pricing_plan_id":"cebpf4jnsgd1na2vs0mg"},{"bike_id":"de46fe59-4b40-462b-bf05-d23dba3167e1","system_id":"levelo_inurba_marseille","lat":43.30464,"lon":5.37914,"is_reserved":false,"is_disabled":false,"rental_uris":{"android":"levelo://app?vid=de46fe59-4b40-462b-bf05-d23dba3167e1","ios":"levelo://app?vid=de46fe59-4b40-462b-bf05-d23dba3167e1"},"vehicle_type_id":"4","last_reported":1732172957,"current_range_meters":19200,"station_id":"ce4bgup2rcd13ifvqcn0","pricing_plan_id":"cebpf4jnsgd1na2vs0mg"},{"bike_id":"b99ba3e1-e974-498d-875b-314f8acf8ef3","system_id":"levelo_inurba_marseille","lat":43.29709,"lon":5.37701,"is_reserved":false,"is_disabled":false,"rental_uris":{"android":"levelo://app?vid=b99ba3e1-e974-498d-875b-314f8acf8ef3","ios":"levelo://app?vid=b99ba3e1-e974-498d-875b-314f8acf8ef3"},"vehicle_type_id":"4","last_reported":1732172957,"current_range_meters":23200,"station_id":"ce4bgkh2rcd13ifvqbl0","pricing_plan_id":"cebpf4jnsgd1na2vs0mg"},{"bike_id":"3d5128a7-9ff2-401b-ba15-fe4bcd6b65d0","system_id":"levelo_inurba_marseille","lat":43.28344,"lon":5.38112,"is_reserved":false,"is_disabled":false,"rental_uris":{"android":"levelo://app?vid=3d5128a7-9ff2-401b-ba15-fe4bcd6b65d0","ios":"levelo://app?vid=3d5128a7-9ff2-401b-ba15-fe4bcd6b65d0"},"vehicle_type_id":"4","last_reported":1732172957,"current_range_meters":20800,"station_id":"ce4bh412rcd13ifvqdr0","pricing_plan_id":"cebpf4jnsgd1na2vs0mg"},{"bike_id":"8c0fad5b-09fe-44a2-9d48-caadd5b9d707","system_id":"levelo_inurba_marseille","lat":43.29195,"lon":5.358,"is_reserved":false,"is_disabled":false,"rental_uris":{"android":"levelo://app?vid=8c0fad5b-09fe-44a2-9d48-caadd5b9d707","ios":"levelo://app?vid=8c0fad5b-09fe-44a2-9d48-caadd5b9d707"},"vehicle_type_id":"4","last_reported":1732172957,"current_range_meters":38800,"station_id":"ce4bhb12rcd13ifvqel0","pricing_plan_id":"cebpf4jnsgd1na2vs0mg"},{"bike_id":"889549f4-52db-4c10-8952-2d713c9cb7e7","system_id":"levelo_inurba_marseille","lat":43.24081,"lon":5.37744,"is_reserved":false,"is_disabled":false,"rental_uris":{"android":"levelo://app?vid=889549f4-52db-4c10-8952-2d713c9cb7e7","ios":"levelo://app?vid=889549f4-52db-4c10-8952-2d713c9cb7e7"},"vehicle_type_id":"4","last_reported":1732172957,"current_range_meters":38800,"station_id":"ce4bhnp2rcd13ifvqgvg","pricing_plan_id":"cebpf4jnsgd1na2vs0mg"},{"bike_id":"2bb310e5-e4d7-4417-9b1b-3190420a02b9","system_id":"levelo_inurba_marseille","lat":43.27493,"lon":5.42452,"is_reserved":false,"is_disabled":false,"rental_uris":{"android":"levelo://app?vid=2bb310e5-e4d7-4417-9b1b-3190420a02b9","ios":"levelo://app?vid=2bb310e5-e4d7-4417-9b1b-3190420a02b9"},"vehicle_type_id":"4","last_reported":1732172957,"current_range_meters":7200,"station_id":"ce4bhn92rcd13ifvqgrg","pricing_plan_id":"cebpf4jnsgd1na2vs0mg"},{"bike_id":"5d7c7e18-46df-45d9-9f55-fcd8cde11a15","system_id":"levelo_inurba_marseille","lat":43.30914,"lon":5.36853,"is_reserved":false,"is_disabled":false,"rental_uris":{"android":"levelo://app?vid=5d7c7e18-46df-45d9-9f55-fcd8cde11a15","ios":"levelo://app?vid=5d7c7e18-46df-45d9-9f55-fcd8cde11a15"},"vehicle_type_id":"4","last_reported":1732172957,"current_range_meters":26800,"station_id":"ce4bgn92rcd13ifvqbvg","pricing_plan_id":"cebpf4jnsgd1na2vs0mg"},{"bike_id":"3216b61f-4778-4a26-84c3-6e8c22d7e753","system_id":"levelo_inurba_marseille","lat":43.30463,"lon":5.37906,"is_reserved":false,"is_disabled":false,"rental_uris":{"android":"levelo://app?vid=3216b61f-4778-4a26-84c3-6e8c22d7e753","ios":"levelo://app?vid=3216b61f-4778-4a26-84c3-6e8c22d7e753"},"vehicle_type_id":"4","last_reported":1732172957,"current_range_meters":28800,"station_id":"ce4bgup2rcd13ifvqcn0","pricing_plan_id":"cebpf4jnsgd1na2vs0mg"},{"bike_id":"f1bff6ab-ba9d-4935-9e1f-decb2768df8c","system_id":"levelo_inurba_marseille","lat":43.24176,"lon":5.39732,"is_reserved":false,"is_disabled":false,"rental_uris":{"android":"levelo://app?vid=f1bff6ab-ba9d-4935-9e1f-decb2768df8c","ios":"levelo://app?vid=f1bff6ab-ba9d-4935-9e1f-decb2768df8c"},"vehicle_type_id":"4","last_reported":1732172957,"current_range_meters":38800,"station_id":"ce4bhn12rcd13ifvqgpg","pricing_plan_id":"cebpf4jnsgd1na2vs0mg"},{"bike_id":"5d65b627-3435-4723-9775-b5218e9b2a7a","system_id":"levelo_inurba_marseille","lat":43.27199,"lon":5.39193,"is_reserved":false,"is_disabled":true,"rental_uris":{"android":"levelo://app?vid=5d65b627-3435-4723-9775-b5218e9b2a7a","ios":"levelo://app?vid=5d65b627-3435-4723-9775-b5218e9b2a7a"},"vehicle_type_id":"4","last_reported":1732172957,"current_range_meters":6000,"station_id":"ce4bhhp2rcd13ifvqfm0","pricing_plan_id":"cebpf4jnsgd1na2vs0mg"},{"bike_id":"32c2fe9f-a607-4c07-a100-4beef28636ed","system_id":"levelo_inurba_marseille","lat":43.32479,"lon":5.36568,"is_reserved":false,"is_disabled":false,"rental_uris":{"android":"levelo://app?vid=32c2fe9f-a607-4c07-a100-4beef28636ed","ios":"levelo://app?vid=32c2fe9f-a607-4c07-a100-4beef28636ed"},"vehicle_type_id":"4","last_reported":1732172957,"current_range_meters":26800,"station_id":"ce4bhs12rcd13ifvqhvg","pricing_plan_id":"cebpf4jnsgd1na2vs0mg"},{"bike_id":"62f80dfe-2553-425c-bb5b-b64087271808","system_id":"levelo_inurba_marseille","lat":43.26568,"lon":5.39015,"is_reserved":false,"is_disabled":false,"rental_uris":{"android":"levelo://app?vid=62f80dfe-2553-425c-bb5b-b64087271808","ios":"levelo://app?vid=62f80dfe-2553-425c-bb5b-b64087271808"},"vehicle_type_id":"4","last_reported":1732172957,"current_range_meters":14800,"station_id":"ce4bhe12rcd13ifvqf30","pricing_plan_id":"cebpf4jnsgd1na2vs0mg"},{"bike_id":"1904e4d6-e1e0-456f-9800-8b0e0e7107b4","system_id":"levelo_inurba_marseille","lat":43.23152,"lon":5.43708,"is_reserved":false,"is_disabled":false,"rental_uris":{"android":"levelo://app?vid=1904e4d6-e1e0-456f-9800-8b0e0e7107b4","ios":"levelo://app?vid=1904e4d6-e1e0-456f-9800-8b0e0e7107b4"},"vehicle_type_id":"4","last_reported":1732172957,"current_range_meters":38800,"station_id":"ce4bhmp2rcd13ifvqgog","pricing_plan_id":"cebpf4jnsgd1na2vs0mg"},{"bike_id":"5a47745c-6a4d-4757-9605-6bf781e62bc6","system_id":"levelo_inurba_marseille","lat":43.30604,"lon":5.39372,"is_reserved":false,"is_disabled":false,"rental_uris":{"android":"levelo://app?vid=5a47745c-6a4d-4757-9605-6bf781e62bc6","ios":"levelo://app?vid=5a47745c-6a4d-4757-9605-6bf781e62bc6"},"vehicle_type_id":"4","last_reported":1732172957,"current_range_meters":12000,"station_id":"ce4bh0p2rcd13ifvqd80","pricing_plan_id":"cebpf4jnsgd1na2vs0mg"},{"bike_id":"61e62137-b985-40ef-b89e-e4a989ce5dcb","system_id":"levelo_inurba_marseille","lat":43.24549,"lon":5.39522,"is_reserved":false,"is_disabled":false,"rental_uris":{"android":"levelo://app?vid=61e62137-b985-40ef-b89e-e4a989ce5dcb","ios":"levelo://app?vid=61e62137-b985-40ef-b89e-e4a989ce5dcb"},"vehicle_type_id":"4","last_reported":1732172957,"current_range_meters":25600,"station_id":"ce4bhlp2rcd13ifvqgjg","pricing_plan_id":"cebpf4jnsgd1na2vs0mg"},{"bike_id":"1eff5ce5-2d56-4465-a12c-60db9ec2175a","system_id":"levelo_inurba_marseille","lat":43.22931,"lon":5.35371,"is_reserved":false,"is_disabled":false,"rental_uris":{"android":"levelo://app?vid=1eff5ce5-2d56-4465-a12c-60db9ec2175a","ios":"levelo://app?vid=1eff5ce5-2d56-4465-a12c-60db9ec2175a"},"vehicle_type_id":"4","last_reported":1732172957,"current_range_meters":10800,"station_id":"cpo3532slgdg3j2ikp40","pricing_plan_id":"cebpf4jnsgd1na2vs0mg"},{"bike_id":"8278194e-922b-4b22-8002-3b0ab18ba877","system_id":"levelo_inurba_marseille","lat":43.25824,"lon":5.39438,"is_reserved":false,"is_disabled":false,"rental_uris":{"android":"levelo://app?vid=8278194e-922b-4b22-8002-3b0ab18ba877","ios":"levelo://app?vid=8278194e-922b-4b22-8002-3b0ab18ba877"},"vehicle_type_id":"4","last_reported":1732172957,"current_range_meters":36800,"station_id":"ce4bhip2rcd13ifvqft0","pricing_plan_id":"cebpf4jnsgd1na2vs0mg"},{"bike_id":"ce6d46e5-4223-4bce-a0db-85f63ca84039","system_id":"levelo_inurba_marseille","lat":43.30132,"lon":5.40058,"is_reserved":false,"is_disabled":false,"rental_uris":{"android":"levelo://app?vid=ce6d46e5-4223-4bce-a0db-85f63ca84039","ios":"levelo://app?vid=ce6d46e5-4223-4bce-a0db-85f63ca84039"},"vehicle_type_id":"4","last_reported":1732172957,"current_range_meters":3200,"station_id":"","pricing_plan_id":"cebpf4jnsgd1na2vs0mg"},{"bike_id":"f1126846-151c-41db-a723-1b5f4b356b87","system_id":"levelo_inurba_marseille","lat":43.32366,"lon":5.38881,"is_reserved":false,"is_disabled":true,"rental_uris":{"android":"levelo://app?vid=f1126846-151c-41db-a723-1b5f4b356b87","ios":"levelo://app?vid=f1126846-151c-41db-a723-1b5f4b356b87"},"vehicle_type_id":"4","last_reported":1732172957,"current_range_meters":9600,"station_id":"ce4bhqp2rcd13ifvqhog","pricing_plan_id":"cebpf4jnsgd1na2vs0mg"},{"bike_id":"c0008e2c-2fe7-4f6e-83fc-7d1e580eeeb3","system_id":"levelo_inurba_marseille","lat":43.28939,"lon":5.36406,"is_reserved":false,"is_disabled":false,"rental_uris":{"android":"levelo://app?vid=c0008e2c-2fe7-4f6e-83fc-7d1e580eeeb3","ios":"levelo://app?vid=c0008e2c-2fe7-4f6e-83fc-7d1e580eeeb3"},"vehicle_type_id":"4","last_reported":1732172957,"current_range_meters":11200,"station_id":"ce4bhc92rcd13ifvqetg","pricing_plan_id":"cebpf4jnsgd1na2vs0mg"},{"bike_id":"a03a7595-f740-48d1-8ea5-ada900f1fd1c","system_id":"levelo_inurba_marseille","lat":43.29601,"lon":5.38106,"is_reserved":false,"is_disabled":false,"rental_uris":{"android":"levelo://app?vid=a03a7595-f740-48d1-8ea5-ada900f1fd1c","ios":"levelo://app?vid=a03a7595-f740-48d1-8ea5-ada900f1fd1c"},"vehicle_type_id":"4","last_reported":1732172957,"current_range_meters":9600,"station_id":"ce4bgl12rcd13ifvqbo0","pricing_plan_id":"cebpf4jnsgd1na2vs0mg"},{"bike_id":"bb0c3f1a-df1d-4299-9694-d266c6a6ea87","system_id":"levelo_inurba_marseille","lat":43.29027,"lon":5.38645,"is_reserved":false,"is_disabled":false,"rental_uris":{"android":"levelo://app?vid=bb0c3f1a-df1d-4299-9694-d266c6a6ea87","ios":"levelo://app?vid=bb0c3f1a-df1d-4299-9694-d266c6a6ea87"},"vehicle_type_id":"4","last_reported":1732172957,"current_range_meters":34000,"station_id":"ce4bh4p2rcd13ifvqe0g","pricing_plan_id":"cebpf4jnsgd1na2vs0mg"},{"bike_id":"9c4a655e-2680-4a60-a844-6a2ea62fb4b1","system_id":"levelo_inurba_marseille","lat":43.26066,"lon":5.39394,"is_reserved":false,"is_disabled":false,"rental_uris":{"android":"levelo://app?vid=9c4a655e-2680-4a60-a844-6a2ea62fb4b1","ios":"levelo://app?vid=9c4a655e-2680-4a60-a844-6a2ea62fb4b1"},"vehicle_type_id":"4","last_reported":1732172957,"current_range_meters":21600,"station_id":"ce4bhh92rcd13ifvqfj0","pricing_plan_id":"cebpf4jnsgd1na2vs0mg"},{"bike_id":"6e1202d7-79a0-4929-9ed3-a6242fdc8587","system_id":"levelo_inurba_marseille","lat":43.2557,"lon":5.3823,"is_reserved":false,"is_disabled":false,"rental_uris":{"android":"levelo://app?vid=6e1202d7-79a0-4929-9ed3-a6242fdc8587","ios":"levelo://app?vid=6e1202d7-79a0-4929-9ed3-a6242fdc8587"},"vehicle_type_id":"4","last_reported":1732172957,"current_range_meters":38800,"station_id":"ce4bhih2rcd13ifvqfs0","pricing_plan_id":"cebpf4jnsgd1na2vs0mg"},{"bike_id":"dd50244d-ee40-40af-a341-2c3a52c102cc","system_id":"levelo_inurba_marseille","lat":43.29596,"lon":5.38099,"is_reserved":false,"is_disabled":false,"rental_uris":{"android":"levelo://app?vid=dd50244d-ee40-40af-a341-2c3a52c102cc","ios":"levelo://app?vid=dd50244d-ee40-40af-a341-2c3a52c102cc"},"vehicle_type_id":"4","last_reported":1732172957,"current_range_meters":37600,"station_id":"ce4bgl12rcd13ifvqbo0","pricing_plan_id":"cebpf4jnsgd1na2vs0mg"},{"bike_id":"d5e18f5c-b2ab-4047-84c8-18de805c95b5","system_id":"levelo_inurba_marseille","lat":43.26958,"lon":5.38625,"is_reserved":false,"is_disabled":false,"rental_uris":{"android":"levelo://app?vid=d5e18f5c-b2ab-4047-84c8-18de805c95b5","ios":"levelo://app?vid=d5e18f5c-b2ab-4047-84c8-18de805c95b5"},"vehicle_type_id":"4","last_reported":1732172957,"current_range_meters":8800,"station_id":"ce4bhh92rcd13ifvqfh0","pricing_plan_id":"cebpf4jnsgd1na2vs0mg"},{"bike_id":"e840fe4f-47a0-4d31-8133-7c332a3d517a","system_id":"levelo_inurba_marseille","lat":43.31078,"lon":5.42432,"is_reserved":false,"is_disabled":true,"rental_uris":{"android":"levelo://app?vid=e840fe4f-47a0-4d31-8133-7c332a3d517a","ios":"levelo://app?vid=e840fe4f-47a0-4d31-8133-7c332a3d517a"},"vehicle_type_id":"4","last_reported":1732172957,"current_range_meters":7200,"station_id":"ce4bhp92rcd13ifvqhag","pricing_plan_id":"cebpf4jnsgd1na2vs0mg"},{"bike_id":"fbdc3998-a170-4688-bc44-6f50e3f8a7d1","system_id":"levelo_inurba_marseille","lat":43.28131,"lon":5.44204,"is_reserved":false,"is_disabled":false,"rental_uris":{"android":"levelo://app?vid=fbdc3998-a170-4688-bc44-6f50e3f8a7d1","ios":"levelo://app?vid=fbdc3998-a170-4688-bc44-6f50e3f8a7d1"},"vehicle_type_id":"4","last_reported":1732172957,"current_range_meters":28000,"station_id":"","pricing_plan_id":"cebpf4jnsgd1na2vs0mg"},{"bike_id":"bddc9a6b-d391-4649-8529-577b18b484fd","system_id":"levelo_inurba_marseille","lat":43.26943,"lon":5.40258,"is_reserved":false,"is_disabled":false,"rental_uris":{"android":"levelo://app?vid=bddc9a6b-d391-4649-8529-577b18b484fd","ios":"levelo://app?vid=bddc9a6b-d391-4649-8529-577b18b484fd"},"vehicle_type_id":"4","last_reported":1732172957,"current_range_meters":38800,"station_id":"cjm6bp8fraef2m0cb0m0","pricing_plan_id":"cebpf4jnsgd1na2vs0mg"},{"bike_id":"d0b25063-484d-4898-a808-84974f7eed8c","system_id":"levelo_inurba_marseille","lat":43.31711,"lon":5.37745,"is_reserved":false,"is_disabled":false,"rental_uris":{"android":"levelo://app?vid=d0b25063-484d-4898-a808-84974f7eed8c","ios":"levelo://app?vid=d0b25063-484d-4898-a808-84974f7eed8c"},"vehicle_type_id":"4","last_reported":1732172957,"current_range_meters":39200,"station_id":"ce4bgth2rcd13ifvqch0","pricing_plan_id":"cebpf4jnsgd1na2vs0mg"},{"bike_id":"f6ca9245-191f-4978-98c5-b08ce79f5b19","system_id":"levelo_inurba_marseille","lat":43.25867,"lon":5.39898,"is_reserved":false,"is_disabled":false,"rental_uris":{"android":"levelo://app?vid=f6ca9245-191f-4978-98c5-b08ce79f5b19","ios":"levelo://app?vid=f6ca9245-191f-4978-98c5-b08ce79f5b19"},"vehicle_type_id":"4","last_reported":1732172957,"current_range_meters":24000,"station_id":"ce4bhl92rcd13ifvqghg","pricing_plan_id":"cebpf4jnsgd1na2vs0mg"},{"bike_id":"e3a6dc38-acbb-44b9-99a8-254c335baf3f","system_id":"levelo_inurba_marseille","lat":43.30945,"lon":5.39038,"is_reserved":false,"is_disabled":false,"rental_uris":{"android":"levelo://app?vid=e3a6dc38-acbb-44b9-99a8-254c335baf3f","ios":"levelo://app?vid=e3a6dc38-acbb-44b9-99a8-254c335baf3f"},"vehicle_type_id":"4","last_reported":1732172957,"current_range_meters":30800,"station_id":"ce4bgup2rcd13ifvqco0","pricing_plan_id":"cebpf4jnsgd1na2vs0mg"},{"bike_id":"8cc7352f-3c13-425b-aa23-9042a82a1b7f","system_id":"levelo_inurba_marseille","lat":43.29807,"lon":5.3821,"is_reserved":false,"is_disabled":false,"rental_uris":{"android":"levelo://app?vid=8cc7352f-3c13-425b-aa23-9042a82a1b7f","ios":"levelo://app?vid=8cc7352f-3c13-425b-aa23-9042a82a1b7f"},"vehicle_type_id":"4","last_reported":1732172957,"current_range_meters":38800,"station_id":"ce4bgip2rcd13ifvqbb0","pricing_plan_id":"cebpf4jnsgd1na2vs0mg"},{"bike_id":"9b3fbf62-4f4c-46b4-9c62-9854a41b7d49","system_id":"levelo_inurba_marseille","lat":43.31709,"lon":5.3775,"is_reserved":false,"is_disabled":false,"rental_uris":{"android":"levelo://app?vid=9b3fbf62-4f4c-46b4-9c62-9854a41b7d49","ios":"levelo://app?vid=9b3fbf62-4f4c-46b4-9c62-9854a41b7d49"},"vehicle_type_id":"4","last_reported":1732172957,"current_range_meters":38800,"station_id":"ce4bgth2rcd13ifvqch0","pricing_plan_id":"cebpf4jnsgd1na2vs0mg"},{"bike_id":"5b0e878f-3396-4e57-89e3-c677fa45b15f","system_id":"levelo_inurba_marseille","lat":43.32342,"lon":5.40625,"is_reserved":false,"is_disabled":true,"rental_uris":{"android":"levelo://app?vid=5b0e878f-3396-4e57-89e3-c677fa45b15f","ios":"levelo://app?vid=5b0e878f-3396-4e57-89e3-c677fa45b15f"},"vehicle_type_id":"4","last_reported":1732172957,"current_range_meters":0,"station_id":"ce4bhq92rcd13ifvqhjg","pricing_plan_id":"cebpf4jnsgd1na2vs0mg"},{"bike_id":"7eaf5910-b4db-4259-961f-d6ce83b4b295","system_id":"levelo_inurba_marseille","lat":43.33766,"lon":5.3744,"is_reserved":false,"is_disabled":false,"rental_uris":{"android":"levelo://app?vid=7eaf5910-b4db-4259-961f-d6ce83b4b295","ios":"levelo://app?vid=7eaf5910-b4db-4259-961f-d6ce83b4b295"},"vehicle_type_id":"4","last_reported":1732172957,"current_range_meters":36400,"station_id":"","pricing_plan_id":"cebpf4jnsgd1na2vs0mg"},{"bike_id":"42d6fa67-3d3d-427c-a63a-15e267a4a6ee","system_id":"levelo_inurba_marseille","lat":43.27948,"lon":5.41041,"is_reserved":false,"is_disabled":true,"rental_uris":{"android":"levelo://app?vid=42d6fa67-3d3d-427c-a63a-15e267a4a6ee","ios":"levelo://app?vid=42d6fa67-3d3d-427c-a63a-15e267a4a6ee"},"vehicle_type_id":"4","last_reported":1732172957,"current_range_meters":24800,"station_id":"ce4bhnp2rcd13ifvqh0g","pricing_plan_id":"cebpf4jnsgd1na2vs0mg"},{"bike_id":"cc117559-4bc2-479f-ac3c-e53578e5e43c","system_id":"levelo_inurba_marseille","lat":43.29633,"lon":5.40595,"is_reserved":false,"is_disabled":false,"rental_uris":{"android":"levelo://app?vid=cc117559-4bc2-479f-ac3c-e53578e5e43c","ios":"levelo://app?vid=cc117559-4bc2-479f-ac3c-e53578e5e43c"},"vehicle_type_id":"4","last_reported":1732172957,"current_range_meters":24000,"station_id":"ce4bh0h2rcd13ifvqd60","pricing_plan_id":"cebpf4jnsgd1na2vs0mg"},{"bike_id":"700ea2a3-ed76-44fc-90ea-8d57f2970876","system_id":"levelo_inurba_marseille","lat":43.29876,"lon":5.39739,"is_reserved":false,"is_disabled":true,"rental_uris":{"android":"levelo://app?vid=700ea2a3-ed76-44fc-90ea-8d57f2970876","ios":"levelo://app?vid=700ea2a3-ed76-44fc-90ea-8d57f2970876"},"vehicle_type_id":"4","last_reported":1732172957,"current_range_meters":38800,"station_id":"ce4bh0h2rcd13ifvqd50","pricing_plan_id":"cebpf4jnsgd1na2vs0mg"},{"bike_id":"b657f2b3-3394-41f1-8cef-dfdb6e6e98bd","system_id":"levelo_inurba_marseille","lat":43.30926,"lon":5.40145,"is_reserved":false,"is_disabled":false,"rental_uris":{"android":"levelo://app?vid=b657f2b3-3394-41f1-8cef-dfdb6e6e98bd","ios":"levelo://app?vid=b657f2b3-3394-41f1-8cef-dfdb6e6e98bd"},"vehicle_type_id":"4","last_reported":1732172957,"current_range_meters":36000,"station_id":"ce4bgvp2rcd13ifvqct0","pricing_plan_id":"cebpf4jnsgd1na2vs0mg"},{"bike_id":"6a1cf72b-8b4d-4929-af84-9c436a903bb4","system_id":"levelo_inurba_marseille","lat":43.29918,"lon":5.37486,"is_reserved":false,"is_disabled":false,"rental_uris":{"android":"levelo://app?vid=6a1cf72b-8b4d-4929-af84-9c436a903bb4","ios":"levelo://app?vid=6a1cf72b-8b4d-4929-af84-9c436a903bb4"},"vehicle_type_id":"4","last_reported":1732172957,"current_range_meters":37600,"station_id":"ce4bgjh2rcd13ifvqbg0","pricing_plan_id":"cebpf4jnsgd1na2vs0mg"},{"bike_id":"764d66c0-b96f-43a0-8094-144e0b2a8845","system_id":"levelo_inurba_marseille","lat":43.29258,"lon":5.409072,"is_reserved":false,"is_disabled":false,"rental_uris":{"android":"levelo://app?vid=764d66c0-b96f-43a0-8094-144e0b2a8845","ios":"levelo://app?vid=764d66c0-b96f-43a0-8094-144e0b2a8845"},"vehicle_type_id":"4","last_reported":1732172957,"current_range_meters":35200,"station_id":"ce4bh192rcd13ifvqdc0","pricing_plan_id":"cebpf4jnsgd1na2vs0mg"},{"bike_id":"dde2d1c0-21e7-474d-b99a-203046690589","system_id":"levelo_inurba_marseille","lat":43.31885,"lon":5.40748,"is_reserved":false,"is_disabled":false,"rental_uris":{"android":"levelo://app?vid=dde2d1c0-21e7-474d-b99a-203046690589","ios":"levelo://app?vid=dde2d1c0-21e7-474d-b99a-203046690589"},"vehicle_type_id":"4","last_reported":1732172957,"current_range_meters":30800,"station_id":"ce4bhq12rcd13ifvqhig","pricing_plan_id":"cebpf4jnsgd1na2vs0mg"},{"bike_id":"b40ede3d-3df1-4e75-aa7c-f784505f0ad9","system_id":"levelo_inurba_marseille","lat":43.31997,"lon":5.3815,"is_reserved":false,"is_disabled":false,"rental_uris":{"android":"levelo://app?vid=b40ede3d-3df1-4e75-aa7c-f784505f0ad9","ios":"levelo://app?vid=b40ede3d-3df1-4e75-aa7c-f784505f0ad9"},"vehicle_type_id":"4","last_reported":1732172957,"current_range_meters":39200,"station_id":"ce4bhr12rcd13ifvqhpg","pricing_plan_id":"cebpf4jnsgd1na2vs0mg"},{"bike_id":"94f8ecd5-3389-4064-b8dc-49a1f1c19eef","system_id":"levelo_inurba_marseille","lat":43.26948,"lon":5.38627,"is_reserved":false,"is_disabled":false,"rental_uris":{"android":"levelo://app?vid=94f8ecd5-3389-4064-b8dc-49a1f1c19eef","ios":"levelo://app?vid=94f8ecd5-3389-4064-b8dc-49a1f1c19eef"},"vehicle_type_id":"4","last_reported":1732172957,"current_range_meters":31200,"station_id":"ce4bhh92rcd13ifvqfh0","pricing_plan_id":"cebpf4jnsgd1na2vs0mg"},{"bike_id":"5b5f4604-3a82-4584-a08b-4bc79bf3d12b","system_id":"levelo_inurba_marseille","lat":43.30902,"lon":5.37161,"is_reserved":false,"is_disabled":false,"rental_uris":{"android":"levelo://app?vid=5b5f4604-3a82-4584-a08b-4bc79bf3d12b","ios":"levelo://app?vid=5b5f4604-3a82-4584-a08b-4bc79bf3d12b"},"vehicle_type_id":"4","last_reported":1732172957,"current_range_meters":9600,"station_id":"ce4bguh2rcd13ifvqckg","pricing_plan_id":"cebpf4jnsgd1na2vs0mg"},{"bike_id":"9578ee9f-beb9-42e9-a863-107df67e6c7b","system_id":"levelo_inurba_marseille","lat":43.25869,"lon":5.39902,"is_reserved":false,"is_disabled":false,"rental_uris":{"android":"levelo://app?vid=9578ee9f-beb9-42e9-a863-107df67e6c7b","ios":"levelo://app?vid=9578ee9f-beb9-42e9-a863-107df67e6c7b"},"vehicle_type_id":"4","last_reported":1732172957,"current_range_meters":18000,"station_id":"ce4bhl92rcd13ifvqghg","pricing_plan_id":"cebpf4jnsgd1na2vs0mg"},{"bike_id":"fdac78ea-7537-4171-bbcc-7e4b899fe408","system_id":"levelo_inurba_marseille","lat":43.32539,"lon":5.41426,"is_reserved":false,"is_disabled":false,"rental_uris":{"android":"levelo://app?vid=fdac78ea-7537-4171-bbcc-7e4b899fe408","ios":"levelo://app?vid=fdac78ea-7537-4171-bbcc-7e4b899fe408"},"vehicle_type_id":"4","last_reported":1732172957,"current_range_meters":36000,"station_id":"ce4bhq12rcd13ifvqhhg","pricing_plan_id":"cebpf4jnsgd1na2vs0mg"},{"bike_id":"cae080ee-7c9f-46a0-b9fc-d77e4f0f6295","system_id":"levelo_inurba_marseille","lat":43.34011,"lon":5.42293,"is_reserved":false,"is_disabled":true,"rental_uris":{"android":"levelo://app?vid=cae080ee-7c9f-46a0-b9fc-d77e4f0f6295","ios":"levelo://app?vid=cae080ee-7c9f-46a0-b9fc-d77e4f0f6295"},"vehicle_type_id":"4","last_reported":1732172957,"current_range_meters":1600,"station_id":"","pricing_plan_id":"cebpf4jnsgd1na2vs0mg"},{"bike_id":"a13d3387-f991-4615-ad72-55b943b5271f","system_id":"levelo_inurba_marseille","lat":43.29004,"lon":5.3561,"is_reserved":false,"is_disabled":false,"rental_uris":{"android":"levelo://app?vid=a13d3387-f991-4615-ad72-55b943b5271f","ios":"levelo://app?vid=a13d3387-f991-4615-ad72-55b943b5271f"},"vehicle_type_id":"4","last_reported":1732172957,"current_range_meters":36000,"station_id":"ce4bhb92rcd13ifvqen0","pricing_plan_id":"cebpf4jnsgd1na2vs0mg"},{"bike_id":"552ae1f9-34eb-4d70-a19b-3616d3661778","system_id":"levelo_inurba_marseille","lat":43.33721,"lon":5.3918,"is_reserved":false,"is_disabled":false,"rental_uris":{"android":"levelo://app?vid=552ae1f9-34eb-4d70-a19b-3616d3661778","ios":"levelo://app?vid=552ae1f9-34eb-4d70-a19b-3616d3661778"},"vehicle_type_id":"4","last_reported":1732172957,"current_range_meters":30400,"station_id":"ce4bhr92rcd13ifvqhsg","pricing_plan_id":"cebpf4jnsgd1na2vs0mg"},{"bike_id":"aba241e1-89f6-4d1b-8913-170b48ceb347","system_id":"levelo_inurba_marseille","lat":43.30599,"lon":5.37236,"is_reserved":false,"is_disabled":false,"rental_uris":{"android":"levelo://app?vid=aba241e1-89f6-4d1b-8913-170b48ceb347","ios":"levelo://app?vid=aba241e1-89f6-4d1b-8913-170b48ceb347"},"vehicle_type_id":"4","last_reported":1732172957,"current_range_meters":34000,"station_id":"ce4bgqh2rcd13ifvqc4g","pricing_plan_id":"cebpf4jnsgd1na2vs0mg"},{"bike_id":"c7918193-fa65-4835-86b6-87f36f654569","system_id":"levelo_inurba_marseille","lat":43.2315,"lon":5.43725,"is_reserved":false,"is_disabled":false,"rental_uris":{"android":"levelo://app?vid=c7918193-fa65-4835-86b6-87f36f654569","ios":"levelo://app?vid=c7918193-fa65-4835-86b6-87f36f654569"},"vehicle_type_id":"4","last_reported":1732172957,"current_range_meters":19200,"station_id":"ce4bhmp2rcd13ifvqgog","pricing_plan_id":"cebpf4jnsgd1na2vs0mg"},{"bike_id":"efe8e488-fe62-4230-b6a7-900375ec95dd","system_id":"levelo_inurba_marseille","lat":43.23175,"lon":5.39998,"is_reserved":false,"is_disabled":false,"rental_uris":{"android":"levelo://app?vid=efe8e488-fe62-4230-b6a7-900375ec95dd","ios":"levelo://app?vid=efe8e488-fe62-4230-b6a7-900375ec95dd"},"vehicle_type_id":"4","last_reported":1732172957,"current_range_meters":16000,"station_id":"ce4bhn12rcd13ifvqgqg","pricing_plan_id":"cebpf4jnsgd1na2vs0mg"},{"bike_id":"7a942108-16ea-4f98-9d80-82c238759071","system_id":"levelo_inurba_marseille","lat":43.29565,"lon":5.39965,"is_reserved":false,"is_disabled":true,"rental_uris":{"android":"levelo://app?vid=7a942108-16ea-4f98-9d80-82c238759071","ios":"levelo://app?vid=7a942108-16ea-4f98-9d80-82c238759071"},"vehicle_type_id":"4","last_reported":1732172957,"current_range_meters":35600,"station_id":"ce4bh312rcd13ifvqdj0","pricing_plan_id":"cebpf4jnsgd1na2vs0mg"},{"bike_id":"028e5427-36e2-49e1-b3db-260058fffb58","system_id":"levelo_inurba_marseille","lat":43.25578,"lon":5.38236,"is_reserved":false,"is_disabled":false,"rental_uris":{"android":"levelo://app?vid=028e5427-36e2-49e1-b3db-260058fffb58","ios":"levelo://app?vid=028e5427-36e2-49e1-b3db-260058fffb58"},"vehicle_type_id":"4","last_reported":1732172957,"current_range_meters":24400,"station_id":"ce4bhih2rcd13ifvqfs0","pricing_plan_id":"cebpf4jnsgd1na2vs0mg"},{"bike_id":"91f0893f-6c9c-447a-87d6-53127af86d60","system_id":"levelo_inurba_marseille","lat":43.25089,"lon":5.39516,"is_reserved":false,"is_disabled":false,"rental_uris":{"android":"levelo://app?vid=91f0893f-6c9c-447a-87d6-53127af86d60","ios":"levelo://app?vid=91f0893f-6c9c-447a-87d6-53127af86d60"},"vehicle_type_id":"4","last_reported":1732172957,"current_range_meters":17200,"station_id":"ce4bhm12rcd13ifvqgkg","pricing_plan_id":"cebpf4jnsgd1na2vs0mg"},{"bike_id":"ced66872-059d-4268-815d-080a073d130d","system_id":"levelo_inurba_marseille","lat":43.33609,"lon":5.41033,"is_reserved":false,"is_disabled":false,"rental_uris":{"android":"levelo://app?vid=ced66872-059d-4268-815d-080a073d130d","ios":"levelo://app?vid=ced66872-059d-4268-815d-080a073d130d"},"vehicle_type_id":"4","last_reported":1732172957,"current_range_meters":12400,"station_id":"ce4bhqh2rcd13ifvqhmg","pricing_plan_id":"cebpf4jnsgd1na2vs0mg"},{"bike_id":"7e17a81f-3b24-49e1-a5fc-e88f9462d78d","system_id":"levelo_inurba_marseille","lat":43.28413,"lon":5.40932,"is_reserved":false,"is_disabled":false,"rental_uris":{"android":"levelo://app?vid=7e17a81f-3b24-49e1-a5fc-e88f9462d78d","ios":"levelo://app?vid=7e17a81f-3b24-49e1-a5fc-e88f9462d78d"},"vehicle_type_id":"4","last_reported":1732172957,"current_range_meters":9600,"station_id":"","pricing_plan_id":"cebpf4jnsgd1na2vs0mg"},{"bike_id":"0d5efe48-32bd-461f-be09-c1d5e2d6ef37","system_id":"levelo_inurba_marseille","lat":43.32366,"lon":5.38883,"is_reserved":false,"is_disabled":false,"rental_uris":{"android":"levelo://app?vid=0d5efe48-32bd-461f-be09-c1d5e2d6ef37","ios":"levelo://app?vid=0d5efe48-32bd-461f-be09-c1d5e2d6ef37"},"vehicle_type_id":"4","last_reported":1732172957,"current_range_meters":38400,"station_id":"ce4bhqp2rcd13ifvqhog","pricing_plan_id":"cebpf4jnsgd1na2vs0mg"},{"bike_id":"feef18d9-267d-4d53-86f9-9c4304aa064a","system_id":"levelo_inurba_marseille","lat":43.26928,"lon":5.38925,"is_reserved":false,"is_disabled":false,"rental_uris":{"android":"levelo://app?vid=feef18d9-267d-4d53-86f9-9c4304aa064a","ios":"levelo://app?vid=feef18d9-267d-4d53-86f9-9c4304aa064a"},"vehicle_type_id":"4","last_reported":1732172957,"current_range_meters":38400,"station_id":"ce4bhhh2rcd13ifvqfl0","pricing_plan_id":"cebpf4jnsgd1na2vs0mg"},{"bike_id":"333a86a2-7564-4eee-9a00-7e17ed496a16","system_id":"levelo_inurba_marseille","lat":43.24817,"lon":5.37449,"is_reserved":false,"is_disabled":false,"rental_uris":{"android":"levelo://app?vid=333a86a2-7564-4eee-9a00-7e17ed496a16","ios":"levelo://app?vid=333a86a2-7564-4eee-9a00-7e17ed496a16"},"vehicle_type_id":"4","last_reported":1732172957,"current_range_meters":10800,"station_id":"ce4bhgh2rcd13ifvqfb0","pricing_plan_id":"cebpf4jnsgd1na2vs0mg"},{"bike_id":"41b66025-5082-421d-922c-552de41f1f1b","system_id":"levelo_inurba_marseille","lat":43.33795,"lon":5.37474,"is_reserved":false,"is_disabled":false,"rental_uris":{"android":"levelo://app?vid=41b66025-5082-421d-922c-552de41f1f1b","ios":"levelo://app?vid=41b66025-5082-421d-922c-552de41f1f1b"},"vehicle_type_id":"4","last_reported":1732172957,"current_range_meters":32800,"station_id":"","pricing_plan_id":"cebpf4jnsgd1na2vs0mg"},{"bike_id":"d06c5d2b-89c9-478d-9d8b-4df89e03cac0","system_id":"levelo_inurba_marseille","lat":43.31059,"lon":5.38951,"is_reserved":false,"is_disabled":false,"rental_uris":{"android":"levelo://app?vid=d06c5d2b-89c9-478d-9d8b-4df89e03cac0","ios":"levelo://app?vid=d06c5d2b-89c9-478d-9d8b-4df89e03cac0"},"vehicle_type_id":"4","last_reported":1732172957,"current_range_meters":38800,"station_id":"ce4bgup2rcd13ifvqco0","pricing_plan_id":"cebpf4jnsgd1na2vs0mg"},{"bike_id":"b88d1c52-81b3-4ffb-8aa2-85566462bd87","system_id":"levelo_inurba_marseille","lat":43.32539,"lon":5.41456,"is_reserved":false,"is_disabled":false,"rental_uris":{"android":"levelo://app?vid=b88d1c52-81b3-4ffb-8aa2-85566462bd87","ios":"levelo://app?vid=b88d1c52-81b3-4ffb-8aa2-85566462bd87"},"vehicle_type_id":"4","last_reported":1732172957,"current_range_meters":38800,"station_id":"ce4bhq12rcd13ifvqhhg","pricing_plan_id":"cebpf4jnsgd1na2vs0mg"},{"bike_id":"d7024946-60bc-4f94-92f6-14d43db9549d","system_id":"levelo_inurba_marseille","lat":43.30465,"lon":5.37908,"is_reserved":false,"is_disabled":false,"rental_uris":{"android":"levelo://app?vid=d7024946-60bc-4f94-92f6-14d43db9549d","ios":"levelo://app?vid=d7024946-60bc-4f94-92f6-14d43db9549d"},"vehicle_type_id":"4","last_reported":1732172957,"current_range_meters":26000,"station_id":"ce4bgup2rcd13ifvqcn0","pricing_plan_id":"cebpf4jnsgd1na2vs0mg"},{"bike_id":"4a4cc085-31f4-43ee-9696-71a106728b96","system_id":"levelo_inurba_marseille","lat":43.30931,"lon":5.40147,"is_reserved":false,"is_disabled":false,"rental_uris":{"android":"levelo://app?vid=4a4cc085-31f4-43ee-9696-71a106728b96","ios":"levelo://app?vid=4a4cc085-31f4-43ee-9696-71a106728b96"},"vehicle_type_id":"4","last_reported":1732172957,"current_range_meters":38400,"station_id":"ce4bgvp2rcd13ifvqct0","pricing_plan_id":"cebpf4jnsgd1na2vs0mg"},{"bike_id":"ca486df7-b50c-4fa3-9ab1-a4cd00a0b3bb","system_id":"levelo_inurba_marseille","lat":43.29271,"lon":5.40127,"is_reserved":false,"is_disabled":true,"rental_uris":{"android":"levelo://app?vid=ca486df7-b50c-4fa3-9ab1-a4cd00a0b3bb","ios":"levelo://app?vid=ca486df7-b50c-4fa3-9ab1-a4cd00a0b3bb"},"vehicle_type_id":"4","last_reported":1732172957,"current_range_meters":23200,"station_id":"ce4bh312rcd13ifvqdk0","pricing_plan_id":"cebpf4jnsgd1na2vs0mg"},{"bike_id":"545e0fc8-9864-4713-9710-375fa1e188c6","system_id":"levelo_inurba_marseille","lat":43.25938,"lon":5.40909,"is_reserved":false,"is_disabled":false,"rental_uris":{"android":"levelo://app?vid=545e0fc8-9864-4713-9710-375fa1e188c6","ios":"levelo://app?vid=545e0fc8-9864-4713-9710-375fa1e188c6"},"vehicle_type_id":"4","last_reported":1732172957,"current_range_meters":6800,"station_id":"ce4bhm92rcd13ifvqglg","pricing_plan_id":"cebpf4jnsgd1na2vs0mg"},{"bike_id":"3242b0f3-4f3f-462c-b731-c30f560a3efa","system_id":"levelo_inurba_marseille","lat":43.317559,"lon":5.390222,"is_reserved":false,"is_disabled":false,"rental_uris":{"android":"levelo://app?vid=3242b0f3-4f3f-462c-b731-c30f560a3efa","ios":"levelo://app?vid=3242b0f3-4f3f-462c-b731-c30f560a3efa"},"vehicle_type_id":"4","last_reported":1732172957,"current_range_meters":26800,"station_id":"ce4bhqp2rcd13ifvqhng","pricing_plan_id":"cebpf4jnsgd1na2vs0mg"},{"bike_id":"f971862f-2336-4b3f-b3d4-b0e85fc44764","system_id":"levelo_inurba_marseille","lat":43.25104,"lon":5.40325,"is_reserved":false,"is_disabled":false,"rental_uris":{"android":"levelo://app?vid=f971862f-2336-4b3f-b3d4-b0e85fc44764","ios":"levelo://app?vid=f971862f-2336-4b3f-b3d4-b0e85fc44764"},"vehicle_type_id":"4","last_reported":1732172957,"current_range_meters":36800,"station_id":"ce4bhlh2rcd13ifvqgig","pricing_plan_id":"cebpf4jnsgd1na2vs0mg"},{"bike_id":"90b8ee9f-f3b8-4a80-aeaf-56aa4ef99d68","system_id":"levelo_inurba_marseille","lat":43.30586,"lon":5.39315,"is_reserved":false,"is_disabled":false,"rental_uris":{"android":"levelo://app?vid=90b8ee9f-f3b8-4a80-aeaf-56aa4ef99d68","ios":"levelo://app?vid=90b8ee9f-f3b8-4a80-aeaf-56aa4ef99d68"},"vehicle_type_id":"4","last_reported":1732172957,"current_range_meters":21600,"station_id":"ce4bh0p2rcd13ifvqd80","pricing_plan_id":"cebpf4jnsgd1na2vs0mg"},{"bike_id":"7da372fc-3699-4a05-96fa-9342ec3ef374","system_id":"levelo_inurba_marseille","lat":43.25719,"lon":5.4111,"is_reserved":false,"is_disabled":false,"rental_uris":{"android":"levelo://app?vid=7da372fc-3699-4a05-96fa-9342ec3ef374","ios":"levelo://app?vid=7da372fc-3699-4a05-96fa-9342ec3ef374"},"vehicle_type_id":"4","last_reported":1732172957,"current_range_meters":38800,"station_id":"ce4bhkp2rcd13ifvqgd0","pricing_plan_id":"cebpf4jnsgd1na2vs0mg"},{"bike_id":"e5951ee3-4a5a-4ebb-b469-096c5188dfa3","system_id":"levelo_inurba_marseille","lat":43.23188,"lon":5.3556,"is_reserved":false,"is_disabled":false,"rental_uris":{"android":"levelo://app?vid=e5951ee3-4a5a-4ebb-b469-096c5188dfa3","ios":"levelo://app?vid=e5951ee3-4a5a-4ebb-b469-096c5188dfa3"},"vehicle_type_id":"4","last_reported":1732172957,"current_range_meters":36000,"station_id":"ce4bhu92rcd13ifvqi70","pricing_plan_id":"cebpf4jnsgd1na2vs0mg"},{"bike_id":"b2f6b9cf-69db-40ab-8230-689c41a2c16c","system_id":"levelo_inurba_marseille","lat":43.24166,"lon":5.36395,"is_reserved":false,"is_disabled":false,"rental_uris":{"android":"levelo://app?vid=b2f6b9cf-69db-40ab-8230-689c41a2c16c","ios":"levelo://app?vid=b2f6b9cf-69db-40ab-8230-689c41a2c16c"},"vehicle_type_id":"4","last_reported":1732172957,"current_range_meters":34800,"station_id":"cpo36qri1sfpv3e86is0","pricing_plan_id":"cebpf4jnsgd1na2vs0mg"},{"bike_id":"58a208f4-fd83-44a4-bf12-9a135848ed36","system_id":"levelo_inurba_marseille","lat":43.3372,"lon":5.39184,"is_reserved":false,"is_disabled":false,"rental_uris":{"android":"levelo://app?vid=58a208f4-fd83-44a4-bf12-9a135848ed36","ios":"levelo://app?vid=58a208f4-fd83-44a4-bf12-9a135848ed36"},"vehicle_type_id":"4","last_reported":1732172957,"current_range_meters":39200,"station_id":"ce4bhr92rcd13ifvqhsg","pricing_plan_id":"cebpf4jnsgd1na2vs0mg"},{"bike_id":"2dc62d2b-79ca-433b-ad6f-17fb4bb3bae5","system_id":"levelo_inurba_marseille","lat":43.24073,"lon":5.37758,"is_reserved":false,"is_disabled":false,"rental_uris":{"android":"levelo://app?vid=2dc62d2b-79ca-433b-ad6f-17fb4bb3bae5","ios":"levelo://app?vid=2dc62d2b-79ca-433b-ad6f-17fb4bb3bae5"},"vehicle_type_id":"4","last_reported":1732172957,"current_range_meters":31200,"station_id":"ce4bhnp2rcd13ifvqgvg","pricing_plan_id":"cebpf4jnsgd1na2vs0mg"},{"bike_id":"8a826e68-9096-4b87-8b0e-da09f86fa1aa","system_id":"levelo_inurba_marseille","lat":43.29582,"lon":5.36742,"is_reserved":false,"is_disabled":false,"rental_uris":{"android":"levelo://app?vid=8a826e68-9096-4b87-8b0e-da09f86fa1aa","ios":"levelo://app?vid=8a826e68-9096-4b87-8b0e-da09f86fa1aa"},"vehicle_type_id":"4","last_reported":1732172957,"current_range_meters":25200,"station_id":"ce4bgph2rcd13ifvqc2g","pricing_plan_id":"cebpf4jnsgd1na2vs0mg"},{"bike_id":"d81ab7a3-51c2-4185-a371-62197aa1f5e2","system_id":"levelo_inurba_marseille","lat":43.31283,"lon":5.38684,"is_reserved":false,"is_disabled":false,"rental_uris":{"android":"levelo://app?vid=d81ab7a3-51c2-4185-a371-62197aa1f5e2","ios":"levelo://app?vid=d81ab7a3-51c2-4185-a371-62197aa1f5e2"},"vehicle_type_id":"4","last_reported":1732172957,"current_range_meters":27200,"station_id":"","pricing_plan_id":"cebpf4jnsgd1na2vs0mg"},{"bike_id":"2fdc2020-285e-4a6a-a71d-c29abfc6593b","system_id":"levelo_inurba_marseille","lat":43.29577,"lon":5.37518,"is_reserved":false,"is_disabled":true,"rental_uris":{"android":"levelo://app?vid=2fdc2020-285e-4a6a-a71d-c29abfc6593b","ios":"levelo://app?vid=2fdc2020-285e-4a6a-a71d-c29abfc6593b"},"vehicle_type_id":"4","last_reported":1732172957,"current_range_meters":7200,"station_id":"ce4bgh92rcd13ifvqb50","pricing_plan_id":"cebpf4jnsgd1na2vs0mg"},{"bike_id":"9d927b2c-5799-4a1d-8ed5-cefb9f6b7b58","system_id":"levelo_inurba_marseille","lat":43.32288,"lon":5.38264,"is_reserved":false,"is_disabled":false,"rental_uris":{"android":"levelo://app?vid=9d927b2c-5799-4a1d-8ed5-cefb9f6b7b58","ios":"levelo://app?vid=9d927b2c-5799-4a1d-8ed5-cefb9f6b7b58"},"vehicle_type_id":"4","last_reported":1732172957,"current_range_meters":37600,"station_id":"ce4bhr12rcd13ifvqhqg","pricing_plan_id":"cebpf4jnsgd1na2vs0mg"},{"bike_id":"b4f5058c-3ecb-4b26-b3c8-2a8728311a15","system_id":"levelo_inurba_marseille","lat":43.27492,"lon":5.42451,"is_reserved":false,"is_disabled":false,"rental_uris":{"android":"levelo://app?vid=b4f5058c-3ecb-4b26-b3c8-2a8728311a15","ios":"levelo://app?vid=b4f5058c-3ecb-4b26-b3c8-2a8728311a15"},"vehicle_type_id":"4","last_reported":1732172957,"current_range_meters":7200,"station_id":"ce4bhn92rcd13ifvqgrg","pricing_plan_id":"cebpf4jnsgd1na2vs0mg"},{"bike_id":"036145f2-25f3-431d-8452-bf74254a5141","system_id":"levelo_inurba_marseille","lat":43.31758,"lon":5.39018,"is_reserved":false,"is_disabled":false,"rental_uris":{"android":"levelo://app?vid=036145f2-25f3-431d-8452-bf74254a5141","ios":"levelo://app?vid=036145f2-25f3-431d-8452-bf74254a5141"},"vehicle_type_id":"4","last_reported":1732172957,"current_range_meters":39200,"station_id":"ce4bhqp2rcd13ifvqhng","pricing_plan_id":"cebpf4jnsgd1na2vs0mg"},{"bike_id":"85e1739a-ab66-4928-a190-7784d23831b8","system_id":"levelo_inurba_marseille","lat":43.27986,"lon":5.3873,"is_reserved":false,"is_disabled":false,"rental_uris":{"android":"levelo://app?vid=85e1739a-ab66-4928-a190-7784d23831b8","ios":"levelo://app?vid=85e1739a-ab66-4928-a190-7784d23831b8"},"vehicle_type_id":"4","last_reported":1732172957,"current_range_meters":30000,"station_id":"ce4bhg12rcd13ifvqf80","pricing_plan_id":"cebpf4jnsgd1na2vs0mg"},{"bike_id":"5c53cfbd-2547-413a-b79a-f8cc3b1ca992","system_id":"levelo_inurba_marseille","lat":43.32106,"lon":5.36781,"is_reserved":false,"is_disabled":false,"rental_uris":{"android":"levelo://app?vid=5c53cfbd-2547-413a-b79a-f8cc3b1ca992","ios":"levelo://app?vid=5c53cfbd-2547-413a-b79a-f8cc3b1ca992"},"vehicle_type_id":"4","last_reported":1732172957,"current_range_meters":24000,"station_id":"ce4bhrh2rcd13ifvqhug","pricing_plan_id":"cebpf4jnsgd1na2vs0mg"},{"bike_id":"5be086de-002c-4a6b-8a2f-2036995347ff","system_id":"levelo_inurba_marseille","lat":43.29225,"lon":5.36063,"is_reserved":false,"is_disabled":false,"rental_uris":{"android":"levelo://app?vid=5be086de-002c-4a6b-8a2f-2036995347ff","ios":"levelo://app?vid=5be086de-002c-4a6b-8a2f-2036995347ff"},"vehicle_type_id":"4","last_reported":1732172957,"current_range_meters":38800,"station_id":"ce4bhbh2rcd13ifvqeqg","pricing_plan_id":"cebpf4jnsgd1na2vs0mg"},{"bike_id":"6d08fe60-3a80-4556-99b7-a96657c10a0a","system_id":"levelo_inurba_marseille","lat":43.2656,"lon":5.39013,"is_reserved":false,"is_disabled":false,"rental_uris":{"android":"levelo://app?vid=6d08fe60-3a80-4556-99b7-a96657c10a0a","ios":"levelo://app?vid=6d08fe60-3a80-4556-99b7-a96657c10a0a"},"vehicle_type_id":"4","last_reported":1732172957,"current_range_meters":6800,"station_id":"ce4bhe12rcd13ifvqf30","pricing_plan_id":"cebpf4jnsgd1na2vs0mg"},{"bike_id":"f786c67d-5db5-4718-bece-061de4975fd6","system_id":"levelo_inurba_marseille","lat":43.32476,"lon":5.36562,"is_reserved":false,"is_disabled":false,"rental_uris":{"android":"levelo://app?vid=f786c67d-5db5-4718-bece-061de4975fd6","ios":"levelo://app?vid=f786c67d-5db5-4718-bece-061de4975fd6"},"vehicle_type_id":"4","last_reported":1732172957,"current_range_meters":33600,"station_id":"ce4bhs12rcd13ifvqhvg","pricing_plan_id":"cebpf4jnsgd1na2vs0mg"},{"bike_id":"4674a573-a71e-41c0-a925-5c021c5e6c25","system_id":"levelo_inurba_marseille","lat":43.29425,"lon":5.37458,"is_reserved":false,"is_disabled":true,"rental_uris":{"android":"levelo://app?vid=4674a573-a71e-41c0-a925-5c021c5e6c25","ios":"levelo://app?vid=4674a573-a71e-41c0-a925-5c021c5e6c25"},"vehicle_type_id":"4","last_reported":1732172957,"current_range_meters":0,"station_id":"","pricing_plan_id":"cebpf4jnsgd1na2vs0mg"},{"bike_id":"ad8d03a1-1638-43ad-84b0-b4c469a0f0f0","system_id":"levelo_inurba_marseille","lat":43.337444,"lon":5.374475,"is_reserved":false,"is_disabled":false,"rental_uris":{"android":"levelo://app?vid=ad8d03a1-1638-43ad-84b0-b4c469a0f0f0","ios":"levelo://app?vid=ad8d03a1-1638-43ad-84b0-b4c469a0f0f0"},"vehicle_type_id":"4","last_reported":1732172957,"current_range_meters":33200,"station_id":"ce4bhr92rcd13ifvqhsg","pricing_plan_id":"cebpf4jnsgd1na2vs0mg"},{"bike_id":"67aa7146-27b4-412c-8ae3-b7ae9f592399","system_id":"levelo_inurba_marseille","lat":43.30151,"lon":5.38079,"is_reserved":false,"is_disabled":false,"rental_uris":{"android":"levelo://app?vid=67aa7146-27b4-412c-8ae3-b7ae9f592399","ios":"levelo://app?vid=67aa7146-27b4-412c-8ae3-b7ae9f592399"},