{"last_updated":1731928109,"ttl":60,"version":"2.2","data":{"bikes":[{"bike_id":"d156847a-ba51-48d7-ae19-397cfb973d50","system_id":"levelo_inurba_marseille","lat":43.337444,"lon":5.374475,"is_reserved":false,"is_disabled":false,"rental_uris":{"android":"levelo://app?vid=d156847a-ba51-48d7-ae19-397cfb973d50","ios":"levelo://app?vid=d156847a-ba51-48d7-ae19-397cfb973d50"},"vehicle_type_id":"4","last_reported":1731928110,"current_range_meters":37600,"station_id":"","pricing_plan_id":"cebpf4jnsgd1na2vs0mg"},{"bike_id":"71ad5317-72da-49ab-bd09-9f41acc7f593","system_id":"levelo_inurba_marseille","lat":43.29895,"lon":5.43667,"is_reserved":false,"is_disabled":false,"rental_uris":{"android":"levelo://app?vid=71ad5317-72da-49ab-bd09-9f41acc7f593","ios":"levelo://app?vid=71ad5317-72da-49ab-bd09-9f41acc7f593"},"vehicle_type_id":"4","last_reported":1731928110,"current_range_meters":30400,"station_id":"ce4bhpp2rcd13ifvqhfg","pricing_plan_id":"cebpf4jnsgd1na2vs0mg"},{"bike_id":"fb3af305-4514-454e-b4a1-f28931733540","system_id":"levelo_inurba_marseille","lat":43.23186,"lon":5.39982,"is_reserved":false,"is_disabled":false,"rental_uris":{"android":"levelo://app?vid=fb3af305-4514-454e-b4a1-f28931733540","ios":"levelo://app?vid=fb3af305-4514-454e-b4a1-f28931733540"},"vehicle_type_id":"4","last_reported":1731928110,"current_range_meters":33600,"station_id":"ce4bhn12rcd13ifvqgqg","pricing_plan_id":"cebpf4jnsgd1na2vs0mg"},{"bike_id":"00a3a936-ff59-4f94-bc54-3faa47720f29","system_id":"levelo_inurba_marseille","lat":43.337444,"lon":5.374475,"is_reserved":false,"is_disabled":false,"rental_uris":{"android":"levelo://app?vid=00a3a936-ff59-4f94-bc54-3faa47720f29","ios":"levelo://app?vid=00a3a936-ff59-4f94-bc54-3faa47720f29"},"vehicle_type_id":"4","last_reported":1731928110,"current_range_meters":38800,"station_id":"","pricing_plan_id":"cebpf4jnsgd1na2vs0mg"},{"bike_id":"fbeed0de-9fe4-4f4b-b7c3-43123a2fbb74","system_id":"levelo_inurba_marseille","lat":43.337444,"lon":5.374475,"is_reserved":false,"is_disabled":false,"rental_uris":{"android":"levelo://app?vid=fbeed0de-9fe4-4f4b-b7c3-43123a2fbb74","ios":"levelo://app?vid=fbeed0de-9fe4-4f4b-b7c3-43123a2fbb74"},"vehicle_type_id":"4","last_reported":1731928110,"current_range_meters":38800,"station_id":"ce4bh3p2rcd13ifvqdp0","pricing_plan_id":"cebpf4jnsgd1na2vs0mg"},{"bike_id":"4dcf46ca-97d3-4646-8193-7170ea46e339","system_id":"levelo_inurba_marseille","lat":43.24078,"lon":5.37747,"is_reserved":false,"is_disabled":false,"rental_uris":{"android":"levelo://app?vid=4dcf46ca-97d3-4646-8193-7170ea46e339","ios":"levelo://app?vid=4dcf46ca-97d3-4646-8193-7170ea46e339"},"vehicle_type_id":"4","last_reported":1731928110,"current_range_meters":6400,"station_id":"ce4bhnp2rcd13ifvqgvg","pricing_plan_id":"cebpf4jnsgd1na2vs0mg"},{"bike_id":"2e66412e-a746-4193-8247-3c6a25e145b8","system_id":"levelo_inurba_marseille","lat":43.29257,"lon":5.40896,"is_reserved":false,"is_disabled":false,"rental_uris":{"android":"levelo://app?vid=2e66412e-a746-4193-8247-3c6a25e145b8","ios":"levelo://app?vid=2e66412e-a746-4193-8247-3c6a25e145b8"},"vehicle_type_id":"4","last_reported":1731928110,"current_range_meters":38400,"station_id":"ce4bh192rcd13ifvqdc0","pricing_plan_id":"cebpf4jnsgd1na2vs0mg"},{"bike_id":"200e5d46-ec0f-4c49-9c1e-e56a20aaa7e1","system_id":"levelo_inurba_marseille","lat":43.28029,"lon":5.36946,"is_reserved":false,"is_disabled":false,"rental_uris":{"android":"levelo://app?vid=200e5d46-ec0f-4c49-9c1e-e56a20aaa7e1","ios":"levelo://app?vid=200e5d46-ec0f-4c49-9c1e-e56a20aaa7e1"},"vehicle_type_id":"4","last_reported":1731928110,"current_range_meters":36400,"station_id":"ce4bha12rcd13ifvqef0","pricing_plan_id":"cebpf4jnsgd1na2vs0mg"},{"bike_id":"4c07d5e4-3f48-4074-a1ad-89c1a59ccdd6","system_id":"levelo_inurba_marseille","lat":43.28074,"lon":5.39653,"is_reserved":false,"is_disabled":false,"rental_uris":{"android":"levelo://app?vid=4c07d5e4-3f48-4074-a1ad-89c1a59ccdd6","ios":"levelo://app?vid=4c07d5e4-3f48-4074-a1ad-89c1a59ccdd6"},"vehicle_type_id":"4","last_reported":1731928110,"current_range_meters":16000,"station_id":"ce4bho12rcd13ifvqh2g","pricing_plan_id":"cebpf4jnsgd1na2vs0mg"},{"bike_id":"e4d4b6a3-efd8-4f6a-b18f-9e5609305c48","system_id":"levelo_inurba_marseille","lat":43.25598,"lon":5.38229,"is_reserved":false,"is_disabled":false,"rental_uris":{"android":"levelo://app?vid=e4d4b6a3-efd8-4f6a-b18f-9e5609305c48","ios":"levelo://app?vid=e4d4b6a3-efd8-4f6a-b18f-9e5609305c48"},"vehicle_type_id":"4","last_reported":1731928110,"current_range_meters":14800,"station_id":"ce4bhih2rcd13ifvqfs0","pricing_plan_id":"cebpf4jnsgd1na2vs0mg"},{"bike_id":"0672d165-d197-4474-bbec-2df95543fd2f","system_id":"levelo_inurba_marseille","lat":43.29903,"lon":5.43668,"is_reserved":false,"is_disabled":false,"rental_uris":{"android":"levelo://app?vid=0672d165-d197-4474-bbec-2df95543fd2f","ios":"levelo://app?vid=0672d165-d197-4474-bbec-2df95543fd2f"},"vehicle_type_id":"4","last_reported":1731928110,"current_range_meters":38000,"station_id":"ce4bhpp2rcd13ifvqhfg","pricing_plan_id":"cebpf4jnsgd1na2vs0mg"},{"bike_id":"8e1608f7-0c9d-4d5a-bdae-d5e906f9b475","system_id":"levelo_inurba_marseille","lat":43.23158,"lon":5.43721,"is_reserved":false,"is_disabled":false,"rental_uris":{"android":"levelo://app?vid=8e1608f7-0c9d-4d5a-bdae-d5e906f9b475","ios":"levelo://app?vid=8e1608f7-0c9d-4d5a-bdae-d5e906f9b475"},"vehicle_type_id":"4","last_reported":1731928110,"current_range_meters":24800,"station_id":"ce4bhmp2rcd13ifvqgog","pricing_plan_id":"cebpf4jnsgd1na2vs0mg"},{"bike_id":"5cf6163b-0b69-4ea6-9575-0a2ed6c16fe9","system_id":"levelo_inurba_marseille","lat":43.27068,"lon":5.42278,"is_reserved":false,"is_disabled":false,"rental_uris":{"android":"levelo://app?vid=5cf6163b-0b69-4ea6-9575-0a2ed6c16fe9","ios":"levelo://app?vid=5cf6163b-0b69-4ea6-9575-0a2ed6c16fe9"},"vehicle_type_id":"4","last_reported":1731928110,"current_range_meters":6400,"station_id":"ce4bhk92rcd13ifvqgb0","pricing_plan_id":"cebpf4jnsgd1na2vs0mg"},{"bike_id":"66b263f2-3f26-4f34-a1cf-e201e386381d","system_id":"levelo_inurba_marseille","lat":43.287,"lon":5.37385,"is_reserved":false,"is_disabled":false,"rental_uris":{"android":"levelo://app?vid=66b263f2-3f26-4f34-a1cf-e201e386381d","ios":"levelo://app?vid=66b263f2-3f26-4f34-a1cf-e201e386381d"},"vehicle_type_id":"4","last_reported":1731928110,"current_range_meters":36000,"station_id":"ce4bh3p2rcd13ifvqdq0","pricing_plan_id":"cebpf4jnsgd1na2vs0mg"},{"bike_id":"44a8d448-fd1f-4e4a-80ce-a94368837126","system_id":"levelo_inurba_marseille","lat":43.23156,"lon":5.43703,"is_reserved":false,"is_disabled":false,"rental_uris":{"android":"levelo://app?vid=44a8d448-fd1f-4e4a-80ce-a94368837126","ios":"levelo://app?vid=44a8d448-fd1f-4e4a-80ce-a94368837126"},"vehicle_type_id":"4","last_reported":1731928110,"current_range_meters":24400,"station_id":"ce4bhmp2rcd13ifvqgog","pricing_plan_id":"cebpf4jnsgd1na2vs0mg"},{"bike_id":"bf5ad7b1-1f19-4c85-901a-eabb6d2ff88f","system_id":"levelo_inurba_marseille","lat":43.29511,"lon":5.39007,"is_reserved":false,"is_disabled":false,"rental_uris":{"android":"levelo://app?vid=bf5ad7b1-1f19-4c85-901a-eabb6d2ff88f","ios":"levelo://app?vid=bf5ad7b1-1f19-4c85-901a-eabb6d2ff88f"},"vehicle_type_id":"4","last_reported":1731928110,"current_range_meters":19600,"station_id":"ce4bh3p2rcd13ifvqdp0","pricing_plan_id":"cebpf4jnsgd1na2vs0mg"},{"bike_id":"4c167bc3-2964-4625-adc0-c92e539ad80f","system_id":"levelo_inurba_marseille","lat":43.28287,"lon":5.40788,"is_reserved":false,"is_disabled":false,"rental_uris":{"android":"levelo://app?vid=4c167bc3-2964-4625-adc0-c92e539ad80f","ios":"levelo://app?vid=4c167bc3-2964-4625-adc0-c92e539ad80f"},"vehicle_type_id":"4","last_reported":1731928110,"current_range_meters":30000,"station_id":"","pricing_plan_id":"cebpf4jnsgd1na2vs0mg"},{"bike_id":"c8489ce6-a164-4c8b-a213-e85ecbee835a","system_id":"levelo_inurba_marseille","lat":43.31223,"lon":5.36848,"is_reserved":false,"is_disabled":false,"rental_uris":{"android":"levelo://app?vid=c8489ce6-a164-4c8b-a213-e85ecbee835a","ios":"levelo://app?vid=c8489ce6-a164-4c8b-a213-e85ecbee835a"},"vehicle_type_id":"4","last_reported":1731928110,"current_range_meters":20800,"station_id":"ce4bgl92rcd13ifvqbq0","pricing_plan_id":"cebpf4jnsgd1na2vs0mg"},{"bike_id":"dc24ccdd-f78a-4bfd-b60d-87b5aafd671c","system_id":"levelo_inurba_marseille","lat":43.30541,"lon":5.36531,"is_reserved":false,"is_disabled":false,"rental_uris":{"android":"levelo://app?vid=dc24ccdd-f78a-4bfd-b60d-87b5aafd671c","ios":"levelo://app?vid=dc24ccdd-f78a-4bfd-b60d-87b5aafd671c"},"vehicle_type_id":"4","last_reported":1731928110,"current_range_meters":33200,"station_id":"ce4bgs12rcd13ifvqcag","pricing_plan_id":"cebpf4jnsgd1na2vs0mg"},{"bike_id":"29b67bb6-1301-47e1-90a2-e8f6fac75ff1","system_id":"levelo_inurba_marseille","lat":43.30599,"lon":5.37221,"is_reserved":false,"is_disabled":false,"rental_uris":{"android":"levelo://app?vid=29b67bb6-1301-47e1-90a2-e8f6fac75ff1","ios":"levelo://app?vid=29b67bb6-1301-47e1-90a2-e8f6fac75ff1"},"vehicle_type_id":"4","last_reported":1731928110,"current_range_meters":38800,"station_id":"ce4bgqh2rcd13ifvqc4g","pricing_plan_id":"cebpf4jnsgd1na2vs0mg"},{"bike_id":"c2f56778-e4ea-4c73-adff-0c3013639f0e","system_id":"levelo_inurba_marseille","lat":43.29552,"lon":5.42301,"is_reserved":false,"is_disabled":false,"rental_uris":{"android":"levelo://app?vid=c2f56778-e4ea-4c73-adff-0c3013639f0e","ios":"levelo://app?vid=c2f56778-e4ea-4c73-adff-0c3013639f0e"},"vehicle_type_id":"4","last_reported":1731928110,"current_range_meters":38800,"station_id":"ce4bhph2rcd13ifvqhdg","pricing_plan_id":"cebpf4jnsgd1na2vs0mg"},{"bike_id":"c3e4d78a-dd1f-4cf1-b44e-038eff147532","system_id":"levelo_inurba_marseille","lat":43.29581,"lon":5.36736,"is_reserved":false,"is_disabled":false,"rental_uris":{"android":"levelo://app?vid=c3e4d78a-dd1f-4cf1-b44e-038eff147532","ios":"levelo://app?vid=c3e4d78a-dd1f-4cf1-b44e-038eff147532"},"vehicle_type_id":"4","last_reported":1731928110,"current_range_meters":38800,"station_id":"ce4bgph2rcd13ifvqc2g","pricing_plan_id":"cebpf4jnsgd1na2vs0mg"},{"bike_id":"6b0ea79e-cb12-4a50-9845-e4686b3cacc8","system_id":"levelo_inurba_marseille","lat":43.295751,"lon":5.399791,"is_reserved":false,"is_disabled":false,"rental_uris":{"android":"levelo://app?vid=6b0ea79e-cb12-4a50-9845-e4686b3cacc8","ios":"levelo://app?vid=6b0ea79e-cb12-4a50-9845-e4686b3cacc8"},"vehicle_type_id":"4","last_reported":1731928110,"current_range_meters":5600,"station_id":"","pricing_plan_id":"cebpf4jnsgd1na2vs0mg"},{"bike_id":"3de79762-7d3a-4ddd-9398-05d2c68d3618","system_id":"levelo_inurba_marseille","lat":43.33756,"lon":5.37458,"is_reserved":false,"is_disabled":false,"rental_uris":{"android":"levelo://app?vid=3de79762-7d3a-4ddd-9398-05d2c68d3618","ios":"levelo://app?vid=3de79762-7d3a-4ddd-9398-05d2c68d3618"},"vehicle_type_id":"4","last_reported":1731928110,"current_range_meters":36800,"station_id":"","pricing_plan_id":"cebpf4jnsgd1na2vs0mg"},{"bike_id":"c6f935b5-1fb8-4ac2-948d-41849ba56e58","system_id":"levelo_inurba_marseille","lat":43.30887,"lon":5.3965,"is_reserved":false,"is_disabled":false,"rental_uris":{"android":"levelo://app?vid=c6f935b5-1fb8-4ac2-948d-41849ba56e58","ios":"levelo://app?vid=c6f935b5-1fb8-4ac2-948d-41849ba56e58"},"vehicle_type_id":"4","last_reported":1731928110,"current_range_meters":37600,"station_id":"ce4bh012rcd13ifvqcv0","pricing_plan_id":"cebpf4jnsgd1na2vs0mg"},{"bike_id":"f65f2de6-593f-43d7-85e7-8d6d4605c51b","system_id":"levelo_inurba_marseille","lat":43.2481,"lon":5.37462,"is_reserved":false,"is_disabled":false,"rental_uris":{"android":"levelo://app?vid=f65f2de6-593f-43d7-85e7-8d6d4605c51b","ios":"levelo://app?vid=f65f2de6-593f-43d7-85e7-8d6d4605c51b"},"vehicle_type_id":"4","last_reported":1731928110,"current_range_meters":6800,"station_id":"ce4bhgh2rcd13ifvqfb0","pricing_plan_id":"cebpf4jnsgd1na2vs0mg"},{"bike_id":"e564c6bf-05ad-4d88-a069-e0fe90f490f7","system_id":"levelo_inurba_marseille","lat":43.29623,"lon":5.37168,"is_reserved":false,"is_disabled":false,"rental_uris":{"android":"levelo://app?vid=e564c6bf-05ad-4d88-a069-e0fe90f490f7","ios":"levelo://app?vid=e564c6bf-05ad-4d88-a069-e0fe90f490f7"},"vehicle_type_id":"4","last_reported":1731928110,"current_range_meters":8400,"station_id":"ce4bgnh2rcd13ifvqc0g","pricing_plan_id":"cebpf4jnsgd1na2vs0mg"},{"bike_id":"e0b967c0-b35f-4934-9248-f55c41b4f08b","system_id":"levelo_inurba_marseille","lat":43.28151,"lon":5.4422,"is_reserved":false,"is_disabled":false,"rental_uris":{"android":"levelo://app?vid=e0b967c0-b35f-4934-9248-f55c41b4f08b","ios":"levelo://app?vid=e0b967c0-b35f-4934-9248-f55c41b4f08b"},"vehicle_type_id":"4","last_reported":1731928110,"current_range_meters":3600,"station_id":"","pricing_plan_id":"cebpf4jnsgd1na2vs0mg"},{"bike_id":"57edd0e2-68de-4e93-a8c5-cbb7808c0b01","system_id":"levelo_inurba_marseille","lat":43.24807,"lon":5.37479,"is_reserved":false,"is_disabled":false,"rental_uris":{"android":"levelo://app?vid=57edd0e2-68de-4e93-a8c5-cbb7808c0b01","ios":"levelo://app?vid=57edd0e2-68de-4e93-a8c5-cbb7808c0b01"},"vehicle_type_id":"4","last_reported":1731928110,"current_range_meters":19600,"station_id":"ce4bhgh2rcd13ifvqfb0","pricing_plan_id":"cebpf4jnsgd1na2vs0mg"},{"bike_id":"0b38b36a-cb8f-48e5-a013-7abb6c4dcc0e","system_id":"levelo_inurba_marseille","lat":43.27996,"lon":5.40018,"is_reserved":false,"is_disabled":false,"rental_uris":{"android":"levelo://app?vid=0b38b36a-cb8f-48e5-a013-7abb6c4dcc0e","ios":"levelo://app?vid=0b38b36a-cb8f-48e5-a013-7abb6c4dcc0e"},"vehicle_type_id":"4","last_reported":1731928110,"current_range_meters":29600,"station_id":"ce4bho92rcd13ifvqh4g","pricing_plan_id":"cebpf4jnsgd1na2vs0mg"},{"bike_id":"4ce2bd69-819e-43e6-97a3-4dd30d8e5432","system_id":"levelo_inurba_marseille","lat":43.29732,"lon":5.37692,"is_reserved":false,"is_disabled":false,"rental_uris":{"android":"levelo://app?vid=4ce2bd69-819e-43e6-97a3-4dd30d8e5432","ios":"levelo://app?vid=4ce2bd69-819e-43e6-97a3-4dd30d8e5432"},"vehicle_type_id":"4","last_reported":1731928110,"current_range_meters":38000,"station_id":"ce4bgkh2rcd13ifvqbl0","pricing_plan_id":"cebpf4jnsgd1na2vs0mg"},{"bike_id":"c511fd07-80b8-40bf-b12a-703bb4ad4920","system_id":"levelo_inurba_marseille","lat":43.29717,"lon":5.37688,"is_reserved":false,"is_disabled":false,"rental_uris":{"android":"levelo://app?vid=c511fd07-80b8-40bf-b12a-703bb4ad4920","ios":"levelo://app?vid=c511fd07-80b8-40bf-b12a-703bb4ad4920"},"vehicle_type_id":"4","last_reported":1731928110,"current_range_meters":28800,"station_id":"ce4bgkh2rcd13ifvqbl0","pricing_plan_id":"cebpf4jnsgd1na2vs0mg"},{"bike_id":"4305c1d1-ca62-4e47-ac96-b9970d6e957d","system_id":"levelo_inurba_marseille","lat":43.23194,"lon":5.35547,"is_reserved":false,"is_disabled":false,"rental_uris":{"android":"levelo://app?vid=4305c1d1-ca62-4e47-ac96-b9970d6e957d","ios":"levelo://app?vid=4305c1d1-ca62-4e47-ac96-b9970d6e957d"},"vehicle_type_id":"4","last_reported":1731928110,"current_range_meters":38800,"station_id":"ce4bhu92rcd13ifvqi70","pricing_plan_id":"cebpf4jnsgd1na2vs0mg"},{"bike_id":"2bd3ae1c-22d2-4b0f-9fd7-42d6b84fc3a3","system_id":"levelo_inurba_marseille","lat":43.33601,"lon":5.41023,"is_reserved":false,"is_disabled":false,"rental_uris":{"android":"levelo://app?vid=2bd3ae1c-22d2-4b0f-9fd7-42d6b84fc3a3","ios":"levelo://app?vid=2bd3ae1c-22d2-4b0f-9fd7-42d6b84fc3a3"},"vehicle_type_id":"4","last_reported":1731928110,"current_range_meters":11600,"station_id":"ce4bhqh2rcd13ifvqhmg","pricing_plan_id":"cebpf4jnsgd1na2vs0mg"},{"bike_id":"dc428551-50aa-4983-9c8b-2c83409f0683","system_id":"levelo_inurba_marseille","lat":43.30148,"lon":5.3807,"is_reserved":false,"is_disabled":false,"rental_uris":{"android":"levelo://app?vid=dc428551-50aa-4983-9c8b-2c83409f0683","ios":"levelo://app?vid=dc428551-50aa-4983-9c8b-2c83409f0683"},"vehicle_type_id":"4","last_reported":1731928110,"current_range_meters":35200,"station_id":"ce4bgjp2rcd13ifvqbh0","pricing_plan_id":"cebpf4jnsgd1na2vs0mg"},{"bike_id":"1a93d716-7d0d-4e27-983d-5b1a467137b7","system_id":"levelo_inurba_marseille","lat":43.30879,"lon":5.39635,"is_reserved":false,"is_disabled":false,"rental_uris":{"android":"levelo://app?vid=1a93d716-7d0d-4e27-983d-5b1a467137b7","ios":"levelo://app?vid=1a93d716-7d0d-4e27-983d-5b1a467137b7"},"vehicle_type_id":"4","last_reported":1731928110,"current_range_meters":38000,"station_id":"ce4bh012rcd13ifvqcv0","pricing_plan_id":"cebpf4jnsgd1na2vs0mg"},{"bike_id":"3ba2b2e1-3c95-4de7-915d-86cf8ebac199","system_id":"levelo_inurba_marseille","lat":43.23151,"lon":5.43723,"is_reserved":false,"is_disabled":false,"rental_uris":{"android":"levelo://app?vid=3ba2b2e1-3c95-4de7-915d-86cf8ebac199","ios":"levelo://app?vid=3ba2b2e1-3c95-4de7-915d-86cf8ebac199"},"vehicle_type_id":"4","last_reported":1731928110,"current_range_meters":27600,"station_id":"ce4bhmp2rcd13ifvqgog","pricing_plan_id":"cebpf4jnsgd1na2vs0mg"},{"bike_id":"57ad4db7-d586-447b-b87c-ff696e31b362","system_id":"levelo_inurba_marseille","lat":43.3176,"lon":5.39021,"is_reserved":false,"is_disabled":false,"rental_uris":{"android":"levelo://app?vid=57ad4db7-d586-447b-b87c-ff696e31b362","ios":"levelo://app?vid=57ad4db7-d586-447b-b87c-ff696e31b362"},"vehicle_type_id":"4","last_reported":1731928110,"current_range_meters":37600,"station_id":"ce4bhqp2rcd13ifvqhng","pricing_plan_id":"cebpf4jnsgd1na2vs0mg"},{"bike_id":"d2f0f3fe-5594-42dd-8e69-8cdbebee7e7d","system_id":"levelo_inurba_marseille","lat":43.23146,"lon":5.43718,"is_reserved":false,"is_disabled":false,"rental_uris":{"android":"levelo://app?vid=d2f0f3fe-5594-42dd-8e69-8cdbebee7e7d","ios":"levelo://app?vid=d2f0f3fe-5594-42dd-8e69-8cdbebee7e7d"},"vehicle_type_id":"4","last_reported":1731928110,"current_range_meters":16800,"station_id":"ce4bhmp2rcd13ifvqgog","pricing_plan_id":"cebpf4jnsgd1na2vs0mg"},{"bike_id":"2c4874ef-9abd-4400-8cd7-bafe971a0da7","system_id":"levelo_inurba_marseille","lat":43.26673,"lon":5.38268,"is_reserved":false,"is_disabled":false,"rental_uris":{"android":"levelo://app?vid=2c4874ef-9abd-4400-8cd7-bafe971a0da7","ios":"levelo://app?vid=2c4874ef-9abd-4400-8cd7-bafe971a0da7"},"vehicle_type_id":"4","last_reported":1731928110,"current_range_meters":32400,"station_id":"ce4bhg92rcd13ifvqf90","pricing_plan_id":"cebpf4jnsgd1na2vs0mg"},{"bike_id":"7a9e5a7a-7ba8-4a5c-b594-af07b2383425","system_id":"levelo_inurba_marseille","lat":43.336,"lon":5.4104,"is_reserved":false,"is_disabled":false,"rental_uris":{"android":"levelo://app?vid=7a9e5a7a-7ba8-4a5c-b594-af07b2383425","ios":"levelo://app?vid=7a9e5a7a-7ba8-4a5c-b594-af07b2383425"},"vehicle_type_id":"4","last_reported":1731928110,"current_range_meters":28800,"station_id":"ce4bhqh2rcd13ifvqhmg","pricing_plan_id":"cebpf4jnsgd1na2vs0mg"},{"bike_id":"20b8bb00-4fa4-49d3-b00f-f353e411e243","system_id":"levelo_inurba_marseille","lat":43.27069,"lon":5.42273,"is_reserved":false,"is_disabled":false,"rental_uris":{"android":"levelo://app?vid=20b8bb00-4fa4-49d3-b00f-f353e411e243","ios":"levelo://app?vid=20b8bb00-4fa4-49d3-b00f-f353e411e243"},"vehicle_type_id":"4","last_reported":1731928110,"current_range_meters":16400,"station_id":"ce4bhk92rcd13ifvqgb0","pricing_plan_id":"cebpf4jnsgd1na2vs0mg"},{"bike_id":"5f89f61e-343d-4cfe-8829-222555f36d01","system_id":"levelo_inurba_marseille","lat":43.31358,"lon":5.36715,"is_reserved":false,"is_disabled":false,"rental_uris":{"android":"levelo://app?vid=5f89f61e-343d-4cfe-8829-222555f36d01","ios":"levelo://app?vid=5f89f61e-343d-4cfe-8829-222555f36d01"},"vehicle_type_id":"4","last_reported":1731928110,"current_range_meters":38800,"station_id":"ce4bgr92rcd13ifvqc6g","pricing_plan_id":"cebpf4jnsgd1na2vs0mg"},{"bike_id":"d9b6a954-c381-46d3-a61f-c50a38a06549","system_id":"levelo_inurba_marseille","lat":43.31323,"lon":5.39684,"is_reserved":false,"is_disabled":false,"rental_uris":{"android":"levelo://app?vid=d9b6a954-c381-46d3-a61f-c50a38a06549","ios":"levelo://app?vid=d9b6a954-c381-46d3-a61f-c50a38a06549"},"vehicle_type_id":"4","last_reported":1731928110,"current_range_meters":20400,"station_id":"ce4bgvp2rcd13ifvqcu0","pricing_plan_id":"cebpf4jnsgd1na2vs0mg"},{"bike_id":"2f95783f-9c5b-4f17-a689-c595e1bf2f80","system_id":"levelo_inurba_marseille","lat":43.28035,"lon":5.36952,"is_reserved":false,"is_disabled":false,"rental_uris":{"android":"levelo://app?vid=2f95783f-9c5b-4f17-a689-c595e1bf2f80","ios":"levelo://app?vid=2f95783f-9c5b-4f17-a689-c595e1bf2f80"},"vehicle_type_id":"4","last_reported":1731928110,"current_range_meters":30000,"station_id":"ce4bha12rcd13ifvqef0","pricing_plan_id":"cebpf4jnsgd1na2vs0mg"},{"bike_id":"10dc04fe-e3bf-435d-bf01-2e0d45200714","system_id":"levelo_inurba_marseille","lat":43.29609,"lon":5.37704,"is_reserved":false,"is_disabled":false,"rental_uris":{"android":"levelo://app?vid=10dc04fe-e3bf-435d-bf01-2e0d45200714","ios":"levelo://app?vid=10dc04fe-e3bf-435d-bf01-2e0d45200714"},"vehicle_type_id":"4","last_reported":1731928110,"current_range_meters":38800,"station_id":"ce4bgi92rcd13ifvqb90","pricing_plan_id":"cebpf4jnsgd1na2vs0mg"},{"bike_id":"2149d86d-d69f-40a3-bff7-455d1f3bb22f","system_id":"levelo_inurba_marseille","lat":43.30276,"lon":5.37721,"is_reserved":false,"is_disabled":false,"rental_uris":{"android":"levelo://app?vid=2149d86d-d69f-40a3-bff7-455d1f3bb22f","ios":"levelo://app?vid=2149d86d-d69f-40a3-bff7-455d1f3bb22f"},"vehicle_type_id":"4","last_reported":1731928110,"current_range_meters":36800,"station_id":"ce4bguh2rcd13ifvqcj0","pricing_plan_id":"cebpf4jnsgd1na2vs0mg"},{"bike_id":"0037c62e-50ee-41a8-945a-3f9a1405ce9d","system_id":"levelo_inurba_marseille","lat":43.31325,"lon":5.39696,"is_reserved":false,"is_disabled":false,"rental_uris":{"android":"levelo://app?vid=0037c62e-50ee-41a8-945a-3f9a1405ce9d","ios":"levelo://app?vid=0037c62e-50ee-41a8-945a-3f9a1405ce9d"},"vehicle_type_id":"4","last_reported":1731928110,"current_range_meters":39200,"station_id":"ce4bgvp2rcd13ifvqcu0","pricing_plan_id":"cebpf4jnsgd1na2vs0mg"},{"bike_id":"5cad086e-cb7b-4491-81b8-b4839c9d4e1f","system_id":"levelo_inurba_marseille","lat":43.3361,"lon":5.41027,"is_reserved":false,"is_disabled":false,"rental_uris":{"android":"levelo://app?vid=5cad086e-cb7b-4491-81b8-b4839c9d4e1f","ios":"levelo://app?vid=5cad086e-cb7b-4491-81b8-b4839c9d4e1f"},"vehicle_type_id":"4","last_reported":1731928110,"current_range_meters":36400,"station_id":"ce4bhqh2rcd13ifvqhmg","pricing_plan_id":"cebpf4jnsgd1na2vs0mg"},{"bike_id":"8c43ec51-a327-446e-8cf3-4b92e82d4a0c","system_id":"levelo_inurba_marseille","lat":43.31361,"lon":5.36705,"is_reserved":false,"is_disabled":false,"rental_uris":{"android":"levelo://app?vid=8c43ec51-a327-446e-8cf3-4b92e82d4a0c","ios":"levelo://app?vid=8c43ec51-a327-446e-8cf3-4b92e82d4a0c"},"vehicle_type_id":"4","last_reported":1731928110,"current_range_meters":38800,"station_id":"ce4bgr92rcd13ifvqc6g","pricing_plan_id":"cebpf4jnsgd1na2vs0mg"},{"bike_id":"27757d2e-94cc-46f1-b4e2-8780c773e562","system_id":"levelo_inurba_marseille","lat":43.34141,"lon":5.40898,"is_reserved":false,"is_disabled":false,"rental_uris":{"android":"levelo://app?vid=27757d2e-94cc-46f1-b4e2-8780c773e562","ios":"levelo://app?vid=27757d2e-94cc-46f1-b4e2-8780c773e562"},"vehicle_type_id":"4","last_reported":1731928110,"current_range_meters":28800,"station_id":"ce4bhqh2rcd13ifvqhlg","pricing_plan_id":"cebpf4jnsgd1na2vs0mg"},{"bike_id":"b2ba89af-6757-479d-bac0-4ca56f0725ca","system_id":"levelo_inurba_marseille","lat":43.30906,"lon":5.3685,"is_reserved":false,"is_disabled":false,"rental_uris":{"android":"levelo://app?vid=b2ba89af-6757-479d-bac0-4ca56f0725ca","ios":"levelo://app?vid=b2ba89af-6757-479d-bac0-4ca56f0725ca"},"vehicle_type_id":"4","last_reported":1731928110,"current_range_meters":30800,"station_id":"ce4bgn92rcd13ifvqbvg","pricing_plan_id":"cebpf4jnsgd1na2vs0mg"},{"bike_id":"f493fbd1-a6d2-46e7-bd5f-a282c47329e6","system_id":"levelo_inurba_marseille","lat":43.29901,"lon":5.43662,"is_reserved":false,"is_disabled":false,"rental_uris":{"android":"levelo://app?vid=f493fbd1-a6d2-46e7-bd5f-a282c47329e6","ios":"levelo://app?vid=f493fbd1-a6d2-46e7-bd5f-a282c47329e6"},"vehicle_type_id":"4","last_reported":1731928110,"current_range_meters":39200,"station_id":"ce4bhpp2rcd13ifvqhfg","pricing_plan_id":"cebpf4jnsgd1na2vs0mg"},{"bike_id":"0e841474-d88b-404e-8cc1-c96b9af392c3","system_id":"levelo_inurba_marseille","lat":43.24668,"lon":5.38158,"is_reserved":false,"is_disabled":false,"rental_uris":{"android":"levelo://app?vid=0e841474-d88b-404e-8cc1-c96b9af392c3","ios":"levelo://app?vid=0e841474-d88b-404e-8cc1-c96b9af392c3"},"vehicle_type_id":"4","last_reported":1731928110,"current_range_meters":38800,"station_id":"ce4bhih2rcd13ifvqfr0","pricing_plan_id":"cebpf4jnsgd1na2vs0mg"},{"bike_id":"5f7af20b-8740-416c-a770-66f799e39f12","system_id":"levelo_inurba_marseille","lat":43.30527,"lon":5.36538,"is_reserved":false,"is_disabled":false,"rental_uris":{"android":"levelo://app?vid=5f7af20b-8740-416c-a770-66f799e39f12","ios":"levelo://app?vid=5f7af20b-8740-416c-a770-66f799e39f12"},"vehicle_type_id":"4","last_reported":1731928110,"current_range_meters":25600,"station_id":"ce4bgs12rcd13ifvqcag","pricing_plan_id":"cebpf4jnsgd1na2vs0mg"},{"bike_id":"84224ccb-c473-401a-82b7-1eb00590305a","system_id":"levelo_inurba_marseille","lat":43.29957,"lon":5.41324,"is_reserved":false,"is_disabled":false,"rental_uris":{"android":"levelo://app?vid=84224ccb-c473-401a-82b7-1eb00590305a","ios":"levelo://app?vid=84224ccb-c473-401a-82b7-1eb00590305a"},"vehicle_type_id":"4","last_reported":1731928110,"current_range_meters":38800,"station_id":"ce4bhp12rcd13ifvqh9g","pricing_plan_id":"cebpf4jnsgd1na2vs0mg"},{"bike_id":"c3b2f2e4-a56b-4032-90ec-36bdae251001","system_id":"levelo_inurba_marseille","lat":43.30539,"lon":5.36534,"is_reserved":false,"is_disabled":false,"rental_uris":{"android":"levelo://app?vid=c3b2f2e4-a56b-4032-90ec-36bdae251001","ios":"levelo://app?vid=c3b2f2e4-a56b-4032-90ec-36bdae251001"},"vehicle_type_id":"4","last_reported":1731928110,"current_range_meters":38400,"station_id":"ce4bgs12rcd13ifvqcag","pricing_plan_id":"cebpf4jnsgd1na2vs0mg"},{"bike_id":"ee44fa09-3983-4198-9ef0-8e49c8d0c680","system_id":"levelo_inurba_marseille","lat":43.260201,"lon":5.408889,"is_reserved":false,"is_disabled":false,"rental_uris":{"android":"levelo://app?vid=ee44fa09-3983-4198-9ef0-8e49c8d0c680","ios":"levelo://app?vid=ee44fa09-3983-4198-9ef0-8e49c8d0c680"},"vehicle_type_id":"4","last_reported":1731928110,"current_range_meters":19600,"station_id":"ce4bhkp2rcd13ifvqgd0","pricing_plan_id":"cebpf4jnsgd1na2vs0mg"},{"bike_id":"01272bd5-a2c0-44b6-b76e-87cd305d9451","system_id":"levelo_inurba_marseille","lat":43.3302,"lon":5.39044,"is_reserved":false,"is_disabled":false,"rental_uris":{"android":"levelo://app?vid=01272bd5-a2c0-44b6-b76e-87cd305d9451","ios":"levelo://app?vid=01272bd5-a2c0-44b6-b76e-87cd305d9451"},"vehicle_type_id":"4","last_reported":1731928110,"current_range_meters":9600,"station_id":"ce4bhr92rcd13ifvqhrg","pricing_plan_id":"cebpf4jnsgd1na2vs0mg"},{"bike_id":"7694d120-882b-4df8-9318-0f76e5aee323","system_id":"levelo_inurba_marseille","lat":43.29805,"lon":5.37729,"is_reserved":false,"is_disabled":false,"rental_uris":{"android":"levelo://app?vid=7694d120-882b-4df8-9318-0f76e5aee323","ios":"levelo://app?vid=7694d120-882b-4df8-9318-0f76e5aee323"},"vehicle_type_id":"4","last_reported":1731928110,"current_range_meters":30400,"station_id":"","pricing_plan_id":"cebpf4jnsgd1na2vs0mg"},{"bike_id":"891094ec-2367-48fe-988f-7aeca1d5a466","system_id":"levelo_inurba_marseille","lat":43.27995,"lon":5.40017,"is_reserved":false,"is_disabled":false,"rental_uris":{"android":"levelo://app?vid=891094ec-2367-48fe-988f-7aeca1d5a466","ios":"levelo://app?vid=891094ec-2367-48fe-988f-7aeca1d5a466"},"vehicle_type_id":"4","last_reported":1731928110,"current_range_meters":38800,"station_id":"ce4bho92rcd13ifvqh4g","pricing_plan_id":"cebpf4jnsgd1na2vs0mg"},{"bike_id":"8a5f23ee-ed6f-4d20-a0e5-4fc90a1a04b0","system_id":"levelo_inurba_marseille","lat":43.29575,"lon":5.36745,"is_reserved":false,"is_disabled":false,"rental_uris":{"android":"levelo://app?vid=8a5f23ee-ed6f-4d20-a0e5-4fc90a1a04b0","ios":"levelo://app?vid=8a5f23ee-ed6f-4d20-a0e5-4fc90a1a04b0"},"vehicle_type_id":"4","last_reported":1731928110,"current_range_meters":32400,"station_id":"ce4bgph2rcd13ifvqc2g","pricing_plan_id":"cebpf4jnsgd1na2vs0mg"},{"bike_id":"544bce55-1e85-4e98-a209-2af12c13b1c9","system_id":"levelo_inurba_marseille","lat":43.31537,"lon":5.38032,"is_reserved":false,"is_disabled":false,"rental_uris":{"android":"levelo://app?vid=544bce55-1e85-4e98-a209-2af12c13b1c9","ios":"levelo://app?vid=544bce55-1e85-4e98-a209-2af12c13b1c9"},"vehicle_type_id":"4","last_reported":1731928110,"current_range_meters":17200,"station_id":"ce4bhsp2rcd13ifvqi50","pricing_plan_id":"cebpf4jnsgd1na2vs0mg"},{"bike_id":"91ade9a4-a826-46c2-80cb-12654846f984","system_id":"levelo_inurba_marseille","lat":43.3229,"lon":5.38282,"is_reserved":false,"is_disabled":false,"rental_uris":{"android":"levelo://app?vid=91ade9a4-a826-46c2-80cb-12654846f984","ios":"levelo://app?vid=91ade9a4-a826-46c2-80cb-12654846f984"},"vehicle_type_id":"4","last_reported":1731928110,"current_range_meters":38000,"station_id":"ce4bhr12rcd13ifvqhqg","pricing_plan_id":"cebpf4jnsgd1na2vs0mg"},{"bike_id":"cb3165b9-4890-480d-ae63-784fba188dfc","system_id":"levelo_inurba_marseille","lat":43.2707,"lon":5.42278,"is_reserved":false,"is_disabled":false,"rental_uris":{"android":"levelo://app?vid=cb3165b9-4890-480d-ae63-784fba188dfc","ios":"levelo://app?vid=cb3165b9-4890-480d-ae63-784fba188dfc"},"vehicle_type_id":"4","last_reported":1731928110,"current_range_meters":39200,"station_id":"ce4bhk92rcd13ifvqgb0","pricing_plan_id":"cebpf4jnsgd1na2vs0mg"},{"bike_id":"686f7aac-3b09-4535-bb65-bd5180cb6ffc","system_id":"levelo_inurba_marseille","lat":43.27369,"lon":5.36262,"is_reserved":false,"is_disabled":false,"rental_uris":{"android":"levelo://app?vid=686f7aac-3b09-4535-bb65-bd5180cb6ffc","ios":"levelo://app?vid=686f7aac-3b09-4535-bb65-bd5180cb6ffc"},"vehicle_type_id":"4","last_reported":1731928110,"current_range_meters":38000,"station_id":"ce4bhbh2rcd13ifvqeo0","pricing_plan_id":"cebpf4jnsgd1na2vs0mg"},{"bike_id":"60e96299-3374-4fa9-9947-cd233d5b71c1","system_id":"levelo_inurba_marseille","lat":43.2903,"lon":5.3865,"is_reserved":false,"is_disabled":false,"rental_uris":{"android":"levelo://app?vid=60e96299-3374-4fa9-9947-cd233d5b71c1","ios":"levelo://app?vid=60e96299-3374-4fa9-9947-cd233d5b71c1"},"vehicle_type_id":"4","last_reported":1731928110,"current_range_meters":32800,"station_id":"ce4bh4p2rcd13ifvqe0g","pricing_plan_id":"cebpf4jnsgd1na2vs0mg"},{"bike_id":"35e7f4dd-1710-4233-8e4e-e20c05772655","system_id":"levelo_inurba_marseille","lat":43.29583,"lon":5.3674,"is_reserved":false,"is_disabled":false,"rental_uris":{"android":"levelo://app?vid=35e7f4dd-1710-4233-8e4e-e20c05772655","ios":"levelo://app?vid=35e7f4dd-1710-4233-8e4e-e20c05772655"},"vehicle_type_id":"4","last_reported":1731928110,"current_range_meters":37600,"station_id":"ce4bgph2rcd13ifvqc2g","pricing_plan_id":"cebpf4jnsgd1na2vs0mg"},{"bike_id":"5938f129-0be9-4612-acac-86791f6673ad","system_id":"levelo_inurba_marseille","lat":43.28199,"lon":5.4437,"is_reserved":false,"is_disabled":false,"rental_uris":{"android":"levelo://app?vid=5938f129-0be9-4612-acac-86791f6673ad","ios":"levelo://app?vid=5938f129-0be9-4612-acac-86791f6673ad"},"vehicle_type_id":"4","last_reported":1731928110,"current_range_meters":8400,"station_id":"","pricing_plan_id":"cebpf4jnsgd1na2vs0mg"},{"bike_id":"4ddda77b-3169-4448-8e06-10231f4b4780","system_id":"levelo_inurba_marseille","lat":43.2408,"lon":5.37752,"is_reserved":false,"is_disabled":false,"rental_uris":{"android":"levelo://app?vid=4ddda77b-3169-4448-8e06-10231f4b4780","ios":"levelo://app?vid=4ddda77b-3169-4448-8e06-10231f4b4780"},"vehicle_type_id":"4","last_reported":1731928110,"current_range_meters":26000,"station_id":"ce4bhnp2rcd13ifvqgvg","pricing_plan_id":"cebpf4jnsgd1na2vs0mg"},{"bike_id":"a5c6397b-4773-4673-8f19-a09873f0e2b0","system_id":"levelo_inurba_marseille","lat":43.3029,"lon":5.37691,"is_reserved":false,"is_disabled":false,"rental_uris":{"android":"levelo://app?vid=a5c6397b-4773-4673-8f19-a09873f0e2b0","ios":"levelo://app?vid=a5c6397b-4773-4673-8f19-a09873f0e2b0"},"vehicle_type_id":"4","last_reported":1731928110,"current_range_meters":38800,"station_id":"ce4bguh2rcd13ifvqcj0","pricing_plan_id":"cebpf4jnsgd1na2vs0mg"},{"bike_id":"5ed22230-ed97-489b-a6af-ba06152c21b7","system_id":"levelo_inurba_marseille","lat":43.23153,"lon":5.43723,"is_reserved":false,"is_disabled":false,"rental_uris":{"android":"levelo://app?vid=5ed22230-ed97-489b-a6af-ba06152c21b7","ios":"levelo://app?vid=5ed22230-ed97-489b-a6af-ba06152c21b7"},"vehicle_type_id":"4","last_reported":1731928110,"current_range_meters":5600,"station_id":"ce4bhmp2rcd13ifvqgog","pricing_plan_id":"cebpf4jnsgd1na2vs0mg"},{"bike_id":"3d889148-005b-4d14-b3f5-0166b79de543","system_id":"levelo_inurba_marseille","lat":43.30544,"lon":5.36702,"is_reserved":false,"is_disabled":false,"rental_uris":{"android":"levelo://app?vid=3d889148-005b-4d14-b3f5-0166b79de543","ios":"levelo://app?vid=3d889148-005b-4d14-b3f5-0166b79de543"},"vehicle_type_id":"4","last_reported":1731928110,"current_range_meters":24400,"station_id":"ce4bgrp2rcd13ifvqc9g","pricing_plan_id":"cebpf4jnsgd1na2vs0mg"},{"bike_id":"12867844-fa2a-41b2-8d74-706d4ef15909","system_id":"levelo_inurba_marseille","lat":43.33757,"lon":5.37435,"is_reserved":false,"is_disabled":false,"rental_uris":{"android":"levelo://app?vid=12867844-fa2a-41b2-8d74-706d4ef15909","ios":"levelo://app?vid=12867844-fa2a-41b2-8d74-706d4ef15909"},"vehicle_type_id":"4","last_reported":1731928110,"current_range_meters":28400,"station_id":"","pricing_plan_id":"cebpf4jnsgd1na2vs0mg"},{"bike_id":"7b630d00-e5f7-4050-907e-76b8f215fc8d","system_id":"levelo_inurba_marseille","lat":43.29585,"lon":5.36734,"is_reserved":false,"is_disabled":false,"rental_uris":{"android":"levelo://app?vid=7b630d00-e5f7-4050-907e-76b8f215fc8d","ios":"levelo://app?vid=7b630d00-e5f7-4050-907e-76b8f215fc8d"},"vehicle_type_id":"4","last_reported":1731928110,"current_range_meters":29600,"station_id":"ce4bgph2rcd13ifvqc2g","pricing_plan_id":"cebpf4jnsgd1na2vs0mg"},{"bike_id":"15ad2919-0075-4621-9e40-4578cf26d3dc","system_id":"levelo_inurba_marseille","lat":43.34142,"lon":5.40902,"is_reserved":false,"is_disabled":false,"rental_uris":{"android":"levelo://app?vid=15ad2919-0075-4621-9e40-4578cf26d3dc","ios":"levelo://app?vid=15ad2919-0075-4621-9e40-4578cf26d3dc"},"vehicle_type_id":"4","last_reported":1731928110,"current_range_meters":20000,"station_id":"ce4bhqh2rcd13ifvqhlg","pricing_plan_id":"cebpf4jnsgd1na2vs0mg"},{"bike_id":"0ae325b1-7e11-4dbc-8dbb-1c881b0b94d4","system_id":"levelo_inurba_marseille","lat":43.24804,"lon":5.37453,"is_reserved":false,"is_disabled":false,"rental_uris":{"android":"levelo://app?vid=0ae325b1-7e11-4dbc-8dbb-1c881b0b94d4","ios":"levelo://app?vid=0ae325b1-7e11-4dbc-8dbb-1c881b0b94d4"},"vehicle_type_id":"4","last_reported":1731928110,"current_range_meters":37600,"station_id":"ce4bhgh2rcd13ifvqfb0","pricing_plan_id":"cebpf4jnsgd1na2vs0mg"},{"bike_id":"7a771648-63f5-4c34-b7b5-423a1240d23d","system_id":"levelo_inurba_marseille","lat":43.29837,"lon":5.36259,"is_reserved":false,"is_disabled":false,"rental_uris":{"android":"levelo://app?vid=7a771648-63f5-4c34-b7b5-423a1240d23d","ios":"levelo://app?vid=7a771648-63f5-4c34-b7b5-423a1240d23d"},"vehicle_type_id":"4","last_reported":1731928110,"current_range_meters":38800,"station_id":"ce4bgpp2rcd13ifvqc3g","pricing_plan_id":"cebpf4jnsgd1na2vs0mg"},{"bike_id":"c9ba69ea-7684-458f-901a-166daea52dd5","system_id":"levelo_inurba_marseille","lat":43.29629,"lon":5.40591,"is_reserved":false,"is_disabled":false,"rental_uris":{"android":"levelo://app?vid=c9ba69ea-7684-458f-901a-166daea52dd5","ios":"levelo://app?vid=c9ba69ea-7684-458f-901a-166daea52dd5"},"vehicle_type_id":"4","last_reported":1731928110,"current_range_meters":34800,"station_id":"ce4bh0h2rcd13ifvqd60","pricing_plan_id":"cebpf4jnsgd1na2vs0mg"},{"bike_id":"2ab8409f-9fe9-4e30-a01e-a61c2b05ddd8","system_id":"levelo_inurba_marseille","lat":43.28263,"lon":5.35072,"is_reserved":false,"is_disabled":false,"rental_uris":{"android":"levelo://app?vid=2ab8409f-9fe9-4e30-a01e-a61c2b05ddd8","ios":"levelo://app?vid=2ab8409f-9fe9-4e30-a01e-a61c2b05ddd8"},"vehicle_type_id":"4","last_reported":1731928110,"current_range_meters":37600,"station_id":"ce4bhbp2rcd13ifvqerg","pricing_plan_id":"cebpf4jnsgd1na2vs0mg"},{"bike_id":"d7858290-a409-4351-861d-a1a90bf483cf","system_id":"levelo_inurba_marseille","lat":43.30529,"lon":5.36535,"is_reserved":false,"is_disabled":false,"rental_uris":{"android":"levelo://app?vid=d7858290-a409-4351-861d-a1a90bf483cf","ios":"levelo://app?vid=d7858290-a409-4351-861d-a1a90bf483cf"},"vehicle_type_id":"4","last_reported":1731928110,"current_range_meters":13600,"station_id":"ce4bgs12rcd13ifvqcag","pricing_plan_id":"cebpf4jnsgd1na2vs0mg"},{"bike_id":"f5a042e4-9244-45ca-a000-cfabc5edd18a","system_id":"levelo_inurba_marseille","lat":43.27066,"lon":5.42277,"is_reserved":false,"is_disabled":false,"rental_uris":{"android":"levelo://app?vid=f5a042e4-9244-45ca-a000-cfabc5edd18a","ios":"levelo://app?vid=f5a042e4-9244-45ca-a000-cfabc5edd18a"},"vehicle_type_id":"4","last_reported":1731928110,"current_range_meters":8800,"station_id":"ce4bhk92rcd13ifvqgb0","pricing_plan_id":"cebpf4jnsgd1na2vs0mg"},{"bike_id":"438c7460-0f2d-492b-8a11-5a4b3f82e315","system_id":"levelo_inurba_marseille","lat":43.27989,"lon":5.41661,"is_reserved":false,"is_disabled":false,"rental_uris":{"android":"levelo://app?vid=438c7460-0f2d-492b-8a11-5a4b3f82e315","ios":"levelo://app?vid=438c7460-0f2d-492b-8a11-5a4b3f82e315"},"vehicle_type_id":"4","last_reported":1731928110,"current_range_meters":38400,"station_id":"ce4bho12rcd13ifvqh1g","pricing_plan_id":"cebpf4jnsgd1na2vs0mg"},{"bike_id":"10808265-c82e-4663-ad34-00454e769817","system_id":"levelo_inurba_marseille","lat":43.23187,"lon":5.3999,"is_reserved":false,"is_disabled":false,"rental_uris":{"android":"levelo://app?vid=10808265-c82e-4663-ad34-00454e769817","ios":"levelo://app?vid=10808265-c82e-4663-ad34-00454e769817"},"vehicle_type_id":"4","last_reported":1731928110,"current_range_meters":27200,"station_id":"ce4bhn12rcd13ifvqgqg","pricing_plan_id":"cebpf4jnsgd1na2vs0mg"},{"bike_id":"cccc15e4-d2c8-45f7-abbe-e5b3cb8bc634","system_id":"levelo_inurba_marseille","lat":43.27072,"lon":5.4228,"is_reserved":false,"is_disabled":false,"rental_uris":{"android":"levelo://app?vid=cccc15e4-d2c8-45f7-abbe-e5b3cb8bc634","ios":"levelo://app?vid=cccc15e4-d2c8-45f7-abbe-e5b3cb8bc634"},"vehicle_type_id":"4","last_reported":1731928110,"current_range_meters":6400,"station_id":"ce4bhk92rcd13ifvqgb0","pricing_plan_id":"cebpf4jnsgd1na2vs0mg"},{"bike_id":"db4635d4-6f19-490d-8e77-59de79432c97","system_id":"levelo_inurba_marseille","lat":43.29569,"lon":5.39969,"is_reserved":false,"is_disabled":false,"rental_uris":{"android":"levelo://app?vid=db4635d4-6f19-490d-8e77-59de79432c97","ios":"levelo://app?vid=db4635d4-6f19-490d-8e77-59de79432c97"},"vehicle_type_id":"4","last_reported":1731928110,"current_range_meters":16400,"station_id":"ce4bh312rcd13ifvqdj0","pricing_plan_id":"cebpf4jnsgd1na2vs0mg"},{"bike_id":"e4d33ed1-742f-49f3-adbf-78ac4798197d","system_id":"levelo_inurba_marseille","lat":43.31759,"lon":5.39016,"is_reserved":false,"is_disabled":false,"rental_uris":{"android":"levelo://app?vid=e4d33ed1-742f-49f3-adbf-78ac4798197d","ios":"levelo://app?vid=e4d33ed1-742f-49f3-adbf-78ac4798197d"},"vehicle_type_id":"4","last_reported":1731928110,"current_range_meters":38800,"station_id":"ce4bhqp2rcd13ifvqhng","pricing_plan_id":"cebpf4jnsgd1na2vs0mg"},{"bike_id":"2ec448d8-ab1e-4b5b-9ab7-4092c37c8982","system_id":"levelo_inurba_marseille","lat":43.31233,"lon":5.3686,"is_reserved":false,"is_disabled":false,"rental_uris":{"android":"levelo://app?vid=2ec448d8-ab1e-4b5b-9ab7-4092c37c8982","ios":"levelo://app?vid=2ec448d8-ab1e-4b5b-9ab7-4092c37c8982"},"vehicle_type_id":"4","last_reported":1731928110,"current_range_meters":39200,"station_id":"ce4bgl92rcd13ifvqbq0","pricing_plan_id":"cebpf4jnsgd1na2vs0mg"},{"bike_id":"fe452959-f152-41c8-8a20-9e0e74f17d40","system_id":"levelo_inurba_marseille","lat":43.29895,"lon":5.43669,"is_reserved":false,"is_disabled":false,"rental_uris":{"android":"levelo://app?vid=fe452959-f152-41c8-8a20-9e0e74f17d40","ios":"levelo://app?vid=fe452959-f152-41c8-8a20-9e0e74f17d40"},"vehicle_type_id":"4","last_reported":1731928110,"current_range_meters":30000,"station_id":"ce4bhpp2rcd13ifvqhfg","pricing_plan_id":"cebpf4jnsgd1na2vs0mg"},{"bike_id":"94b96e1a-875a-4fb2-8a15-489944c1a547","system_id":"levelo_inurba_marseille","lat":43.2668,"lon":5.38267,"is_reserved":false,"is_disabled":false,"rental_uris":{"android":"levelo://app?vid=94b96e1a-875a-4fb2-8a15-489944c1a547","ios":"levelo://app?vid=94b96e1a-875a-4fb2-8a15-489944c1a547"},"vehicle_type_id":"4","last_reported":1731928110,"current_range_meters":29600,"station_id":"ce4bhg92rcd13ifvqf90","pricing_plan_id":"cebpf4jnsgd1na2vs0mg"},{"bike_id":"f78e874f-2bcc-46c3-917b-baae845142a0","system_id":"levelo_inurba_marseille","lat":43.27493,"lon":5.42457,"is_reserved":false,"is_disabled":false,"rental_uris":{"android":"levelo://app?vid=f78e874f-2bcc-46c3-917b-baae845142a0","ios":"levelo://app?vid=f78e874f-2bcc-46c3-917b-baae845142a0"},"vehicle_type_id":"4","last_reported":1731928110,"current_range_meters":36400,"station_id":"ce4bhn92rcd13ifvqgrg","pricing_plan_id":"cebpf4jnsgd1na2vs0mg"},{"bike_id":"25b88bfe-7484-4157-a357-9153908c9526","system_id":"levelo_inurba_marseille","lat":43.305543,"lon":5.384121,"is_reserved":false,"is_disabled":false,"rental_uris":{"android":"levelo://app?vid=25b88bfe-7484-4157-a357-9153908c9526","ios":"levelo://app?vid=25b88bfe-7484-4157-a357-9153908c9526"},"vehicle_type_id":"4","last_reported":1731928110,"current_range_meters":36000,"station_id":"ce4bgg92rcd13ifvqb30","pricing_plan_id":"cebpf4jnsgd1na2vs0mg"},{"bike_id":"2b135088-fe40-4977-a7a1-99b110ce0bdd","system_id":"levelo_inurba_marseille","lat":43.30609,"lon":5.37226,"is_reserved":false,"is_disabled":false,"rental_uris":{"android":"levelo://app?vid=2b135088-fe40-4977-a7a1-99b110ce0bdd","ios":"levelo://app?vid=2b135088-fe40-4977-a7a1-99b110ce0bdd"},"vehicle_type_id":"4","last_reported":1731928110,"current_range_meters":6800,"station_id":"ce4bgqh2rcd13ifvqc4g","pricing_plan_id":"cebpf4jnsgd1na2vs0mg"},{"bike_id":"afd5e78f-339a-41d4-9c5d-45b35f2e47fe","system_id":"levelo_inurba_marseille","lat":43.31362,"lon":5.36695,"is_reserved":false,"is_disabled":false,"rental_uris":{"android":"levelo://app?vid=afd5e78f-339a-41d4-9c5d-45b35f2e47fe","ios":"levelo://app?vid=afd5e78f-339a-41d4-9c5d-45b35f2e47fe"},"vehicle_type_id":"4","last_reported":1731928110,"current_range_meters":25200,"station_id":"ce4bgr92rcd13ifvqc6g","pricing_plan_id":"cebpf4jnsgd1na2vs0mg"},{"bike_id":"2c701139-65d9-4f7e-aa56-d8a3e9cdf1ad","system_id":"levelo_inurba_marseille","lat":43.30459,"lon":5.37899,"is_reserved":false,"is_disabled":false,"rental_uris":{"android":"levelo://app?vid=2c701139-65d9-4f7e-aa56-d8a3e9cdf1ad","ios":"levelo://app?vid=2c701139-65d9-4f7e-aa56-d8a3e9cdf1ad"},"vehicle_type_id":"4","last_reported":1731928110,"current_range_meters":9600,"station_id":"ce4bgup2rcd13ifvqcn0","pricing_plan_id":"cebpf4jnsgd1na2vs0mg"},{"bike_id":"760ce630-691d-4b7e-a664-23f33f9864c6","system_id":"levelo_inurba_marseille","lat":43.27845,"lon":5.392483,"is_reserved":false,"is_disabled":false,"rental_uris":{"android":"levelo://app?vid=760ce630-691d-4b7e-a664-23f33f9864c6","ios":"levelo://app?vid=760ce630-691d-4b7e-a664-23f33f9864c6"},"vehicle_type_id":"4","last_reported":1731928110,"current_range_meters":19200,"station_id":"ce4bhjp2rcd13ifvqga0","pricing_plan_id":"cebpf4jnsgd1na2vs0mg"},{"bike_id":"b83c55ab-7175-41c8-8f53-ec83f682914d","system_id":"levelo_inurba_marseille","lat":43.28261,"lon":5.35055,"is_reserved":false,"is_disabled":false,"rental_uris":{"android":"levelo://app?vid=b83c55ab-7175-41c8-8f53-ec83f682914d","ios":"levelo://app?vid=b83c55ab-7175-41c8-8f53-ec83f682914d"},"vehicle_type_id":"4","last_reported":1731928110,"current_range_meters":36800,"station_id":"ce4bhbp2rcd13ifvqerg","pricing_plan_id":"cebpf4jnsgd1na2vs0mg"},{"bike_id":"e73206b1-cfd7-4ecb-ba5a-91c351b433ae","system_id":"levelo_inurba_marseille","lat":43.33606,"lon":5.41018,"is_reserved":false,"is_disabled":false,"rental_uris":{"android":"levelo://app?vid=e73206b1-cfd7-4ecb-ba5a-91c351b433ae","ios":"levelo://app?vid=e73206b1-cfd7-4ecb-ba5a-91c351b433ae"},"vehicle_type_id":"4","last_reported":1731928110,"current_range_meters":35200,"station_id":"ce4bhqh2rcd13ifvqhmg","pricing_plan_id":"cebpf4jnsgd1na2vs0mg"},{"bike_id":"bfd64417-e6fd-45ae-b899-e06cad147021","system_id":"levelo_inurba_marseille","lat":43.31225,"lon":5.36866,"is_reserved":false,"is_disabled":false,"rental_uris":{"android":"levelo://app?vid=bfd64417-e6fd-45ae-b899-e06cad147021","ios":"levelo://app?vid=bfd64417-e6fd-45ae-b899-e06cad147021"},"vehicle_type_id":"4","last_reported":1731928110,"current_range_meters":36400,"station_id":"ce4bgl92rcd13ifvqbq0","pricing_plan_id":"cebpf4jnsgd1na2vs0mg"},{"bike_id":"7d672f00-807f-4797-bc98-b9c9999e1004","system_id":"levelo_inurba_marseille","lat":43.25121,"lon":5.40321,"is_reserved":false,"is_disabled":false,"rental_uris":{"android":"levelo://app?vid=7d672f00-807f-4797-bc98-b9c9999e1004","ios":"levelo://app?vid=7d672f00-807f-4797-bc98-b9c9999e1004"},"vehicle_type_id":"4","last_reported":1731928110,"current_range_meters":38800,"station_id":"ce4bhlh2rcd13ifvqgig","pricing_plan_id":"cebpf4jnsgd1na2vs0mg"},{"bike_id":"631d2d14-efd4-4b0b-889f-708a61b56711","system_id":"levelo_inurba_marseille","lat":43.31232,"lon":5.3686,"is_reserved":false,"is_disabled":false,"rental_uris":{"android":"levelo://app?vid=631d2d14-efd4-4b0b-889f-708a61b56711","ios":"levelo://app?vid=631d2d14-efd4-4b0b-889f-708a61b56711"},"vehicle_type_id":"4","last_reported":1731928110,"current_range_meters":16800,"station_id":"ce4bgl92rcd13ifvqbq0","pricing_plan_id":"cebpf4jnsgd1na2vs0mg"},{"bike_id":"c66a46ef-4089-45bd-9f70-e99b818fb74d","system_id":"levelo_inurba_marseille","lat":43.31708,"lon":5.37752,"is_reserved":false,"is_disabled":false,"rental_uris":{"android":"levelo://app?vid=c66a46ef-4089-45bd-9f70-e99b818fb74d","ios":"levelo://app?vid=c66a46ef-4089-45bd-9f70-e99b818fb74d"},"vehicle_type_id":"4","last_reported":1731928110,"current_range_meters":37600,"station_id":"ce4bgth2rcd13ifvqch0","pricing_plan_id":"cebpf4jnsgd1na2vs0mg"},{"bike_id":"ba94a499-681f-4073-a81d-a75ea052c67b","system_id":"levelo_inurba_marseille","lat":43.2895,"lon":5.36391,"is_reserved":false,"is_disabled":false,"rental_uris":{"android":"levelo://app?vid=ba94a499-681f-4073-a81d-a75ea052c67b","ios":"levelo://app?vid=ba94a499-681f-4073-a81d-a75ea052c67b"},"vehicle_type_id":"4","last_reported":1731928110,"current_range_meters":25600,"station_id":"ce4bhc92rcd13ifvqetg","pricing_plan_id":"cebpf4jnsgd1na2vs0mg"},{"bike_id":"8cdbbb9d-e54c-4963-8b6c-ba5d001805cc","system_id":"levelo_inurba_marseille","lat":43.28149,"lon":5.44217,"is_reserved":false,"is_disabled":false,"rental_uris":{"android":"levelo://app?vid=8cdbbb9d-e54c-4963-8b6c-ba5d001805cc","ios":"levelo://app?vid=8cdbbb9d-e54c-4963-8b6c-ba5d001805cc"},"vehicle_type_id":"4","last_reported":1731928110,"current_range_meters":30400,"station_id":"","pricing_plan_id":"cebpf4jnsgd1na2vs0mg"},{"bike_id":"9c8dde07-f8d0-4395-b303-8e9924f31ab4","system_id":"levelo_inurba_marseille","lat":43.26935,"lon":5.38917,"is_reserved":false,"is_disabled":false,"rental_uris":{"android":"levelo://app?vid=9c8dde07-f8d0-4395-b303-8e9924f31ab4","ios":"levelo://app?vid=9c8dde07-f8d0-4395-b303-8e9924f31ab4"},"vehicle_type_id":"4","last_reported":1731928110,"current_range_meters":27600,"station_id":"ce4bhhh2rcd13ifvqfl0","pricing_plan_id":"cebpf4jnsgd1na2vs0mg"},{"bike_id":"287328ca-6410-4dad-9f25-80a687da9f46","system_id":"levelo_inurba_marseille","lat":43.25863,"lon":5.39897,"is_reserved":false,"is_disabled":false,"rental_uris":{"android":"levelo://app?vid=287328ca-6410-4dad-9f25-80a687da9f46","ios":"levelo://app?vid=287328ca-6410-4dad-9f25-80a687da9f46"},"vehicle_type_id":"4","last_reported":1731928110,"current_range_meters":38800,"station_id":"ce4bhl92rcd13ifvqghg","pricing_plan_id":"cebpf4jnsgd1na2vs0mg"},{"bike_id":"9d0ff97e-4153-45c9-bb5a-0bdd6df51804","system_id":"levelo_inurba_marseille","lat":43.3248,"lon":5.36572,"is_reserved":false,"is_disabled":false,"rental_uris":{"android":"levelo://app?vid=9d0ff97e-4153-45c9-bb5a-0bdd6df51804","ios":"levelo://app?vid=9d0ff97e-4153-45c9-bb5a-0bdd6df51804"},"vehicle_type_id":"4","last_reported":1731928110,"current_range_meters":10800,"station_id":"ce4bhs12rcd13ifvqhvg","pricing_plan_id":"cebpf4jnsgd1na2vs0mg"},{"bike_id":"982f0a40-68bd-47bf-9ce9-a0e0c59e5ba4","system_id":"levelo_inurba_marseille","lat":43.29052,"lon":5.35899,"is_reserved":false,"is_disabled":false,"rental_uris":{"android":"levelo://app?vid=982f0a40-68bd-47bf-9ce9-a0e0c59e5ba4","ios":"levelo://app?vid=982f0a40-68bd-47bf-9ce9-a0e0c59e5ba4"},"vehicle_type_id":"4","last_reported":1731928110,"current_range_meters":38800,"station_id":"ce4bha92rcd13ifvqeg0","pricing_plan_id":"cebpf4jnsgd1na2vs0mg"},{"bike_id":"d5b73dbc-f48c-4fb5-9efc-2ed2616a6865","system_id":"levelo_inurba_marseille","lat":43.27917,"lon":5.39583,"is_reserved":false,"is_disabled":false,"rental_uris":{"android":"levelo://app?vid=d5b73dbc-f48c-4fb5-9efc-2ed2616a6865","ios":"levelo://app?vid=d5b73dbc-f48c-4fb5-9efc-2ed2616a6865"},"vehicle_type_id":"4","last_reported":1731928110,"current_range_meters":36000,"station_id":"ce4bhf92rcd13ifvqf40","pricing_plan_id":"cebpf4jnsgd1na2vs0mg"},{"bike_id":"99e250a3-df4c-4b34-9509-c05720c8abf5","system_id":"levelo_inurba_marseille","lat":43.30547,"lon":5.36524,"is_reserved":false,"is_disabled":false,"rental_uris":{"android":"levelo://app?vid=99e250a3-df4c-4b34-9509-c05720c8abf5","ios":"levelo://app?vid=99e250a3-df4c-4b34-9509-c05720c8abf5"},"vehicle_type_id":"4","last_reported":1731928110,"current_range_meters":17200,"station_id":"ce4bgs12rcd13ifvqcag","pricing_plan_id":"cebpf4jnsgd1na2vs0mg"},{"bike_id":"c137ad19-1d76-4102-b396-b36fb3e5c779","system_id":"levelo_inurba_marseille","lat":43.31234,"lon":5.36866,"is_reserved":false,"is_disabled":false,"rental_uris":{"android":"levelo://app?vid=c137ad19-1d76-4102-b396-b36fb3e5c779","ios":"levelo://app?vid=c137ad19-1d76-4102-b396-b36fb3e5c779"},"vehicle_type_id":"4","last_reported":1731928110,"current_range_meters":31200,"station_id":"ce4bgl92rcd13ifvqbq0","pricing_plan_id":"cebpf4jnsgd1na2vs0mg"},{"bike_id":"9edad666-34fc-4d66-98f5-658cf456eaae","system_id":"levelo_inurba_marseille","lat":43.29572,"lon":5.37518,"is_reserved":false,"is_disabled":false,"rental_uris":{"android":"levelo://app?vid=9edad666-34fc-4d66-98f5-658cf456eaae","ios":"levelo://app?vid=9edad666-34fc-4d66-98f5-658cf456eaae"},"vehicle_type_id":"4","last_reported":1731928110,"current_range_meters":26000,"station_id":"ce4bgh92rcd13ifvqb50","pricing_plan_id":"cebpf4jnsgd1na2vs0mg"},{"bike_id":"3cd98eea-66f5-43b0-8b49-e8aae1bc7f37","system_id":"levelo_inurba_marseille","lat":43.29621,"lon":5.37169,"is_reserved":false,"is_disabled":false,"rental_uris":{"android":"levelo://app?vid=3cd98eea-66f5-43b0-8b49-e8aae1bc7f37","ios":"levelo://app?vid=3cd98eea-66f5-43b0-8b49-e8aae1bc7f37"},"vehicle_type_id":"4","last_reported":1731928110,"current_range_meters":36800,"station_id":"ce4bgnh2rcd13ifvqc0g","pricing_plan_id":"cebpf4jnsgd1na2vs0mg"},{"bike_id":"6dd9a57e-edc2-488a-bac5-f0f19f79cd60","system_id":"levelo_inurba_marseille","lat":43.29979,"lon":5.3848,"is_reserved":false,"is_disabled":false,"rental_uris":{"android":"levelo://app?vid=6dd9a57e-edc2-488a-bac5-f0f19f79cd60","ios":"levelo://app?vid=6dd9a57e-edc2-488a-bac5-f0f19f79cd60"},"vehicle_type_id":"4","last_reported":1731928110,"current_range_meters":38800,"station_id":"ce4bgj92rcd13ifvqbd0","pricing_plan_id":"cebpf4jnsgd1na2vs0mg"},{"bike_id":"d7c19367-c8e9-4fd4-b53c-c81bf98e7dce","system_id":"levelo_inurba_marseille","lat":43.29576,"lon":5.36758,"is_reserved":false,"is_disabled":false,"rental_uris":{"android":"levelo://app?vid=d7c19367-c8e9-4fd4-b53c-c81bf98e7dce","ios":"levelo://app?vid=d7c19367-c8e9-4fd4-b53c-c81bf98e7dce"},"vehicle_type_id":"4","last_reported":1731928110,"current_range_meters":33200,"station_id":"ce4bgph2rcd13ifvqc2g","pricing_plan_id":"cebpf4jnsgd1na2vs0mg"},{"bike_id":"ce249102-5132-45ee-9b83-fc2ea0c15102","system_id":"levelo_inurba_marseille","lat":43.23153,"lon":5.4371,"is_reserved":false,"is_disabled":false,"rental_uris":{"android":"levelo://app?vid=ce249102-5132-45ee-9b83-fc2ea0c15102","ios":"levelo://app?vid=ce249102-5132-45ee-9b83-fc2ea0c15102"},"vehicle_type_id":"4","last_reported":1731928110,"current_range_meters":39200,"station_id":"ce4bhmp2rcd13ifvqgog","pricing_plan_id":"cebpf4jnsgd1na2vs0mg"},{"bike_id":"6d757fef-4f26-43f9-ac2c-ffab39bf7dae","system_id":"levelo_inurba_marseille","lat":43.32249,"lon":5.36901,"is_reserved":false,"is_disabled":false,"rental_uris":{"android":"levelo://app?vid=6d757fef-4f26-43f9-ac2c-ffab39bf7dae","ios":"levelo://app?vid=6d757fef-4f26-43f9-ac2c-ffab39bf7dae"},"vehicle_type_id":"4","last_reported":1731928110,"current_range_meters":11200,"station_id":"","pricing_plan_id":"cebpf4jnsgd1na2vs0mg"},{"bike_id":"a27fae53-a388-4b56-8b9c-5fd22b6fb21a","system_id":"levelo_inurba_marseille","lat":43.26199,"lon":5.37925,"is_reserved":false,"is_disabled":false,"rental_uris":{"android":"levelo://app?vid=a27fae53-a388-4b56-8b9c-5fd22b6fb21a","ios":"levelo://app?vid=a27fae53-a388-4b56-8b9c-5fd22b6fb21a"},"vehicle_type_id":"4","last_reported":1731928110,"current_range_meters":27600,"station_id":"ce4bhjp2rcd13ifvqg90","pricing_plan_id":"cebpf4jnsgd1na2vs0mg"},{"bike_id":"8cd7dd04-2cd8-4cc7-a6f2-60fdc686aad3","system_id":"levelo_inurba_marseille","lat":43.25579,"lon":5.38232,"is_reserved":false,"is_disabled":false,"rental_uris":{"android":"levelo://app?vid=8cd7dd04-2cd8-4cc7-a6f2-60fdc686aad3","ios":"levelo://app?vid=8cd7dd04-2cd8-4cc7-a6f2-60fdc686aad3"},"vehicle_type_id":"4","last_reported":1731928110,"current_range_meters":18000,"station_id":"ce4bhih2rcd13ifvqfs0","pricing_plan_id":"cebpf4jnsgd1na2vs0mg"},{"bike_id":"d21d17e7-2f48-45e6-a424-c15abbaa2ab7","system_id":"levelo_inurba_marseille","lat":43.24544,"lon":5.39525,"is_reserved":false,"is_disabled":false,"rental_uris":{"android":"levelo://app?vid=d21d17e7-2f48-45e6-a424-c15abbaa2ab7","ios":"levelo://app?vid=d21d17e7-2f48-45e6-a424-c15abbaa2ab7"},"vehicle_type_id":"4","last_reported":1731928110,"current_range_meters":22800,"station_id":"ce4bhlp2rcd13ifvqgjg","pricing_plan_id":"cebpf4jnsgd1na2vs0mg"},{"bike_id":"3f4cfda2-06d7-42d5-a506-6b6eb38b77c3","system_id":"levelo_inurba_marseille","lat":43.29575,"lon":5.37499,"is_reserved":false,"is_disabled":false,"rental_uris":{"android":"levelo://app?vid=3f4cfda2-06d7-42d5-a506-6b6eb38b77c3","ios":"levelo://app?vid=3f4cfda2-06d7-42d5-a506-6b6eb38b77c3"},"vehicle_type_id":"4","last_reported":1731928110,"current_range_meters":38800,"station_id":"ce4bgh92rcd13ifvqb50","pricing_plan_id":"cebpf4jnsgd1na2vs0mg"},{"bike_id":"1ede608c-8dec-484d-9315-76e0e8eb111a","system_id":"levelo_inurba_marseille","lat":43.24082,"lon":5.37747,"is_reserved":false,"is_disabled":false,"rental_uris":{"android":"levelo://app?vid=1ede608c-8dec-484d-9315-76e0e8eb111a","ios":"levelo://app?vid=1ede608c-8dec-484d-9315-76e0e8eb111a"},"vehicle_type_id":"4","last_reported":1731928110,"current_range_meters":38000,"station_id":"ce4bhnp2rcd13ifvqgvg","pricing_plan_id":"cebpf4jnsgd1na2vs0mg"},{"bike_id":"449d1953-47f7-4ead-9975-96c2e0235a90","system_id":"levelo_inurba_marseille","lat":43.30881,"lon":5.39637,"is_reserved":false,"is_disabled":false,"rental_uris":{"android":"levelo://app?vid=449d1953-47f7-4ead-9975-96c2e0235a90","ios":"levelo://app?vid=449d1953-47f7-4ead-9975-96c2e0235a90"},"vehicle_type_id":"4","last_reported":1731928110,"current_range_meters":17200,"station_id":"ce4bh012rcd13ifvqcv0","pricing_plan_id":"cebpf4jnsgd1na2vs0mg"},{"bike_id":"7e5e29dd-7333-42b8-8c25-a7ee1b9edb1b","system_id":"levelo_inurba_marseille","lat":43.26028,"lon":5.37547,"is_reserved":false,"is_disabled":false,"rental_uris":{"android":"levelo://app?vid=7e5e29dd-7333-42b8-8c25-a7ee1b9edb1b","ios":"levelo://app?vid=7e5e29dd-7333-42b8-8c25-a7ee1b9edb1b"},"vehicle_type_id":"4","last_reported":1731928110,"current_range_meters":38000,"station_id":"ce4bhgh2rcd13ifvqfa0","pricing_plan_id":"cebpf4jnsgd1na2vs0mg"},{"bike_id":"6b8c4514-cb85-4a2a-9925-6fb4153b9632","system_id":"levelo_inurba_marseille","lat":43.29554,"lon":5.42276,"is_reserved":false,"is_disabled":false,"rental_uris":{"android":"levelo://app?vid=6b8c4514-cb85-4a2a-9925-6fb4153b9632","ios":"levelo://app?vid=6b8c4514-cb85-4a2a-9925-6fb4153b9632"},"vehicle_type_id":"4","last_reported":1731928110,"current_range_meters":38000,"station_id":"ce4bhph2rcd13ifvqhdg","pricing_plan_id":"cebpf4jnsgd1na2vs0mg"},{"bike_id":"909a618f-fa02-4ee0-97c6-1f5dcd97f129","system_id":"levelo_inurba_marseille","lat":43.2884,"lon":5.35844,"is_reserved":false,"is_disabled":false,"rental_uris":{"android":"levelo://app?vid=909a618f-fa02-4ee0-97c6-1f5dcd97f129","ios":"levelo://app?vid=909a618f-fa02-4ee0-97c6-1f5dcd97f129"},"vehicle_type_id":"4","last_reported":1731928110,"current_range_meters":38800,"station_id":"ce4bhb12rcd13ifvqem0","pricing_plan_id":"cebpf4jnsgd1na2vs0mg"},{"bike_id":"1648b433-26ee-4cd6-8cfd-b0f40190cfa5","system_id":"levelo_inurba_marseille","lat":43.24182,"lon":5.39724,"is_reserved":false,"is_disabled":false,"rental_uris":{"android":"levelo://app?vid=1648b433-26ee-4cd6-8cfd-b0f40190cfa5","ios":"levelo://app?vid=1648b433-26ee-4cd6-8cfd-b0f40190cfa5"},"vehicle_type_id":"4","last_reported":1731928110,"current_range_meters":27600,"station_id":"ce4bhn12rcd13ifvqgpg","pricing_plan_id":"cebpf4jnsgd1na2vs0mg"},{"bike_id":"1053b5d1-416f-45c9-93b7-c25f16720cad","system_id":"levelo_inurba_marseille","lat":43.29273,"lon":5.36839,"is_reserved":false,"is_disabled":false,"rental_uris":{"android":"levelo://app?vid=1053b5d1-416f-45c9-93b7-c25f16720cad","ios":"levelo://app?vid=1053b5d1-416f-45c9-93b7-c25f16720cad"},"vehicle_type_id":"4","last_reported":1731928110,"current_range_meters":39200,"station_id":"ce4bhbp2rcd13ifvqesg","pricing_plan_id":"cebpf4jnsgd1na2vs0mg"},{"bike_id":"e4765857-643a-42e2-824a-e756c674e2f8","system_id":"levelo_inurba_marseille","lat":43.31483,"lon":5.37308,"is_reserved":false,"is_disabled":false,"rental_uris":{"android":"levelo://app?vid=e4765857-643a-42e2-824a-e756c674e2f8","ios":"levelo://app?vid=e4765857-643a-42e2-824a-e756c674e2f8"},"vehicle_type_id":"4","last_reported":1731928110,"current_range_meters":38000,"station_id":"ce4bgt12rcd13ifvqcd0","pricing_plan_id":"cebpf4jnsgd1na2vs0mg"},{"bike_id":"cc911dbc-2c04-4373-b6ec-a968894c44ba","system_id":"levelo_inurba_marseille","lat":43.29936,"lon":5.36531,"is_reserved":false,"is_disabled":false,"rental_uris":{"android":"levelo://app?vid=cc911dbc-2c04-4373-b6ec-a968894c44ba","ios":"levelo://app?vid=cc911dbc-2c04-4373-b6ec-a968894c44ba"},"vehicle_type_id":"4","last_reported":1731928110,"current_range_meters":30800,"station_id":"ce4bgm92rcd13ifvqbr0","pricing_plan_id":"cebpf4jnsgd1na2vs0mg"},{"bike_id":"ff9cc865-fa8d-4c6d-8640-7eb270f686f8","system_id":"levelo_inurba_marseille","lat":43.24541,"lon":5.39522,"is_reserved":false,"is_disabled":false,"rental_uris":{"android":"levelo://app?vid=ff9cc865-fa8d-4c6d-8640-7eb270f686f8","ios":"levelo://app?vid=ff9cc865-fa8d-4c6d-8640-7eb270f686f8"},"vehicle_type_id":"4","last_reported":1731928110,"current_range_meters":36800,"station_id":"ce4bhlp2rcd13ifvqgjg","pricing_plan_id":"cebpf4jnsgd1na2vs0mg"},{"bike_id":"5b68b47d-8e20-408c-ba7c-a1ddd0c3ac27","system_id":"levelo_inurba_marseille","lat":43.29575,"lon":5.37519,"is_reserved":false,"is_disabled":false,"rental_uris":{"android":"levelo://app?vid=5b68b47d-8e20-408c-ba7c-a1ddd0c3ac27","ios":"levelo://app?vid=5b68b47d-8e20-408c-ba7c-a1ddd0c3ac27"},"vehicle_type_id":"4","last_reported":1731928110,"current_range_meters":20400,"station_id":"ce4bgh92rcd13ifvqb50","pricing_plan_id":"cebpf4jnsgd1na2vs0mg"},{"bike_id":"468e9c67-f4c1-47bc-9db9-b0ede4c36f07","system_id":"levelo_inurba_marseille","lat":43.29529,"lon":5.3854,"is_reserved":false,"is_disabled":false,"rental_uris":{"android":"levelo://app?vid=468e9c67-f4c1-47bc-9db9-b0ede4c36f07","ios":"levelo://app?vid=468e9c67-f4c1-47bc-9db9-b0ede4c36f07"},"vehicle_type_id":"4","last_reported":1731928110,"current_range_meters":30800,"station_id":"ce4bgih2rcd13ifvqba0","pricing_plan_id":"cebpf4jnsgd1na2vs0mg"},{"bike_id":"fc24aac1-6d84-4a21-9982-e3e30c297a56","system_id":"levelo_inurba_marseille","lat":43.2311,"lon":5.35498,"is_reserved":false,"is_disabled":false,"rental_uris":{"android":"levelo://app?vid=fc24aac1-6d84-4a21-9982-e3e30c297a56","ios":"levelo://app?vid=fc24aac1-6d84-4a21-9982-e3e30c297a56"},"vehicle_type_id":"4","last_reported":1731928110,"current_range_meters":19600,"station_id":"ce4bhu92rcd13ifvqi70","pricing_plan_id":"cebpf4jnsgd1na2vs0mg"},{"bike_id":"b0756bfa-37d8-4cbd-99b2-b3a6b25ddc5a","system_id":"levelo_inurba_marseille","lat":43.286926,"lon":5.399904,"is_reserved":false,"is_disabled":false,"rental_uris":{"android":"levelo://app?vid=b0756bfa-37d8-4cbd-99b2-b3a6b25ddc5a","ios":"levelo://app?vid=b0756bfa-37d8-4cbd-99b2-b3a6b25ddc5a"},"vehicle_type_id":"4","last_reported":1731928110,"current_range_meters":19600,"station_id":"ce4bho92rcd13ifvqh3g","pricing_plan_id":"cebpf4jnsgd1na2vs0mg"},{"bike_id":"a7c79c91-f65f-4d3e-9c2f-4982d33bdfbf","system_id":"levelo_inurba_marseille","lat":43.30315,"lon":5.39207,"is_reserved":false,"is_disabled":false,"rental_uris":{"android":"levelo://app?vid=a7c79c91-f65f-4d3e-9c2f-4982d33bdfbf","ios":"levelo://app?vid=a7c79c91-f65f-4d3e-9c2f-4982d33bdfbf"},"vehicle_type_id":"4","last_reported":1731928110,"current_range_meters":32800,"station_id":"ce4bgkh2rcd13ifvqbk0","pricing_plan_id":"cebpf4jnsgd1na2vs0mg"},{"bike_id":"ecc6fda2-058e-459c-8c0f-0f1da247a3de","system_id":"levelo_inurba_marseille","lat":43.30531,"lon":5.36697,"is_reserved":false,"is_disabled":false,"rental_uris":{"android":"levelo://app?vid=ecc6fda2-058e-459c-8c0f-0f1da247a3de","ios":"levelo://app?vid=ecc6fda2-058e-459c-8c0f-0f1da247a3de"},"vehicle_type_id":"4","last_reported":1731928110,"current_range_meters":38800,"station_id":"ce4bgrp2rcd13ifvqc9g","pricing_plan_id":"cebpf4jnsgd1na2vs0mg"},{"bike_id":"18528ce7-176e-4d1d-a4fd-e96b7804f9d5","system_id":"levelo_inurba_marseille","lat":43.28465,"lon":5.35899,"is_reserved":false,"is_disabled":false,"rental_uris":{"android":"levelo://app?vid=18528ce7-176e-4d1d-a4fd-e96b7804f9d5","ios":"levelo://app?vid=18528ce7-176e-4d1d-a4fd-e96b7804f9d5"},"vehicle_type_id":"4","last_reported":1731928110,"current_range_meters":36000,"station_id":"ce4bhah2rcd13ifvqei0","pricing_plan_id":"cebpf4jnsgd1na2vs0mg"},{"bike_id":"10e8c460-7c45-40bf-a332-0ff83d1fa71f","system_id":"levelo_inurba_marseille","lat":43.30536,"lon":5.36703,"is_reserved":false,"is_disabled":false,"rental_uris":{"android":"levelo://app?vid=10e8c460-7c45-40bf-a332-0ff83d1fa71f","ios":"levelo://app?vid=10e8c460-7c45-40bf-a332-0ff83d1fa71f"},"vehicle_type_id":"4","last_reported":1731928110,"current_range_meters":38800,"station_id":"ce4bgrp2rcd13ifvqc9g","pricing_plan_id":"cebpf4jnsgd1na2vs0mg"},{"bike_id":"9c577393-f35c-4b59-82b1-f7c1bb6a1b8f","system_id":"levelo_inurba_marseille","lat":43.24547,"lon":5.39524,"is_reserved":false,"is_disabled":false,"rental_uris":{"android":"levelo://app?vid=9c577393-f35c-4b59-82b1-f7c1bb6a1b8f","ios":"levelo://app?vid=9c577393-f35c-4b59-82b1-f7c1bb6a1b8f"},"vehicle_type_id":"4","last_reported":1731928110,"current_range_meters":18000,"station_id":"ce4bhlp2rcd13ifvqgjg","pricing_plan_id":"cebpf4jnsgd1na2vs0mg"},{"bike_id":"000bbcc5-291b-4365-9f84-9ac6e1b6e584","system_id":"levelo_inurba_marseille","lat":43.28,"lon":5.40013,"is_reserved":false,"is_disabled":false,"rental_uris":{"android":"levelo://app?vid=000bbcc5-291b-4365-9f84-9ac6e1b6e584","ios":"levelo://app?vid=000bbcc5-291b-4365-9f84-9ac6e1b6e584"},"vehicle_type_id":"4","last_reported":1731928110,"current_range_meters":34800,"station_id":"ce4bho92rcd13ifvqh4g","pricing_plan_id":"cebpf4jnsgd1na2vs0mg"},{"bike_id":"1f63fbfa-e227-4feb-b197-71d69cb760af","system_id":"levelo_inurba_marseille","lat":43.26062,"lon":5.39394,"is_reserved":false,"is_disabled":false,"rental_uris":{"android":"levelo://app?vid=1f63fbfa-e227-4feb-b197-71d69cb760af","ios":"levelo://app?vid=1f63fbfa-e227-4feb-b197-71d69cb760af"},"vehicle_type_id":"4","last_reported":1731928110,"current_range_meters":3200,"station_id":"ce4bhh92rcd13ifvqfj0","pricing_plan_id":"cebpf4jnsgd1na2vs0mg"},{"bike_id":"10d64864-cb06-4542-9a64-4a9e76c76caa","system_id":"levelo_inurba_marseille","lat":43.26683,"lon":5.38263,"is_reserved":false,"is_disabled":false,"rental_uris":{"android":"levelo://app?vid=10d64864-cb06-4542-9a64-4a9e76c76caa","ios":"levelo://app?vid=10d64864-cb06-4542-9a64-4a9e76c76caa"},"vehicle_type_id":"4","last_reported":1731928110,"current_range_meters":26000,"station_id":"ce4bhg92rcd13ifvqf90","pricing_plan_id":"cebpf4jnsgd1na2vs0mg"},{"bike_id":"475290c4-27aa-445d-baab-c53c24b225ac","system_id":"levelo_inurba_marseille","lat":43.24548,"lon":5.39524,"is_reserved":false,"is_disabled":false,"rental_uris":{"android":"levelo://app?vid=475290c4-27aa-445d-baab-c53c24b225ac","ios":"levelo://app?vid=475290c4-27aa-445d-baab-c53c24b225ac"},"vehicle_type_id":"4","last_reported":1731928110,"current_range_meters":38800,"station_id":"ce4bhlp2rcd13ifvqgjg","pricing_plan_id":"cebpf4jnsgd1na2vs0mg"},{"bike_id":"e205eda1-6c0c-474a-ab19-cfae7837a923","system_id":"levelo_inurba_marseille","lat":43.28616,"lon":5.35105,"is_reserved":false,"is_disabled":false,"rental_uris":{"android":"levelo://app?vid=e205eda1-6c0c-474a-ab19-cfae7837a923","ios":"levelo://app?vid=e205eda1-6c0c-474a-ab19-cfae7837a923"},"vehicle_type_id":"4","last_reported":1731928110,"current_range_meters":8800,"station_id":"ce4bhch2rcd13ifvqeug","pricing_plan_id":"cebpf4jnsgd1na2vs0mg"},{"bike_id":"6d977a47-f5d0-491f-8347-20b45413b83b","system_id":"levelo_inurba_marseille","lat":43.27937,"lon":5.41047,"is_reserved":false,"is_disabled":false,"rental_uris":{"android":"levelo://app?vid=6d977a47-f5d0-491f-8347-20b45413b83b","ios":"levelo://app?vid=6d977a47-f5d0-491f-8347-20b45413b83b"},"vehicle_type_id":"4","last_reported":1731928110,"current_range_meters":33600,"station_id":"ce4bhnp2rcd13ifvqh0g","pricing_plan_id":"cebpf4jnsgd1na2vs0mg"},{"bike_id":"da515a69-6a73-42f2-a2f4-9829e3175d2f","system_id":"levelo_inurba_marseille","lat":43.30254,"lon":5.40064,"is_reserved":false,"is_disabled":false,"rental_uris":{"android":"levelo://app?vid=da515a69-6a73-42f2-a2f4-9829e3175d2f","ios":"levelo://app?vid=da515a69-6a73-42f2-a2f4-9829e3175d2f"},"vehicle_type_id":"4","last_reported":1731928110,"current_range_meters":36000,"station_id":"ce4bgvh2rcd13ifvqcs0","pricing_plan_id":"cebpf4jnsgd1na2vs0mg"},{"bike_id":"6f41a04c-b36d-4229-bd32-b215b478999f","system_id":"levelo_inurba_marseille","lat":43.23183,"lon":5.39984,"is_reserved":false,"is_disabled":false,"rental_uris":{"android":"levelo://app?vid=6f41a04c-b36d-4229-bd32-b215b478999f","ios":"levelo://app?vid=6f41a04c-b36d-4229-bd32-b215b478999f"},"vehicle_type_id":"4","last_reported":1731928110,"current_range_meters":19600,"station_id":"ce4bhn12rcd13ifvqgqg","pricing_plan_id":"cebpf4jnsgd1na2vs0mg"},{"bike_id":"72b96922-5842-4fb8-9252-39ddcfd38a5f","system_id":"levelo_inurba_marseille","lat":43.27996,"lon":5.40018,"is_reserved":false,"is_disabled":false,"rental_uris":{"android":"levelo://app?vid=72b96922-5842-4fb8-9252-39ddcfd38a5f","ios":"levelo://app?vid=72b96922-5842-4fb8-9252-39ddcfd38a5f"},"vehicle_type_id":"4","last_reported":1731928110,"current_range_meters":25200,"station_id":"ce4bho92rcd13ifvqh4g","pricing_plan_id":"cebpf4jnsgd1na2vs0mg"},{"bike_id":"57e4cbd9-496a-46ca-92ab-a9501b32000d","system_id":"levelo_inurba_marseille","lat":43.23176,"lon":5.3998,"is_reserved":false,"is_disabled":false,"rental_uris":{"android":"levelo://app?vid=57e4cbd9-496a-46ca-92ab-a9501b32000d","ios":"levelo://app?vid=57e4cbd9-496a-46ca-92ab-a9501b32000d"},"vehicle_type_id":"4","last_reported":1731928110,"current_range_meters":38000,"station_id":"ce4bhn12rcd13ifvqgqg","pricing_plan_id":"cebpf4jnsgd1na2vs0mg"},{"bike_id":"a6b8c285-acc9-4039-9531-1aae39136a33","system_id":"levelo_inurba_marseille","lat":43.312042,"lon":5.367348,"is_reserved":false,"is_disabled":false,"rental_uris":{"android":"levelo://app?vid=a6b8c285-acc9-4039-9531-1aae39136a33","ios":"levelo://app?vid=a6b8c285-acc9-4039-9531-1aae39136a33"},"vehicle_type_id":"4","last_reported":1731928110,"current_range_meters":6400,"station_id":"","pricing_plan_id":"cebpf4jnsgd1na2vs0mg"},{"bike_id":"11f81d72-c8e7-4ef6-b62d-17f40c3efe62","system_id":"levelo_inurba_marseille","lat":43.321,"lon":5.36777,"is_reserved":false,"is_disabled":false,"rental_uris":{"android":"levelo://app?vid=11f81d72-c8e7-4ef6-b62d-17f40c3efe62","ios":"levelo://app?vid=11f81d72-c8e7-4ef6-b62d-17f40c3efe62"},"vehicle_type_id":"4","last_reported":1731928110,"current_range_meters":36000,"station_id":"ce4bhrh2rcd13ifvqhug","pricing_plan_id":"cebpf4jnsgd1na2vs0mg"},{"bike_id":"34b9f970-27e7-43cb-bb06-ac9397ebf150","system_id":"levelo_inurba_marseille","lat":43.24083,"lon":5.37741,"is_reserved":false,"is_disabled":false,"rental_uris":{"android":"levelo://app?vid=34b9f970-27e7-43cb-bb06-ac9397ebf150","ios":"levelo://app?vid=34b9f970-27e7-43cb-bb06-ac9397ebf150"},"vehicle_type_id":"4","last_reported":1731928110,"current_range_meters":18800,"station_id":"ce4bhnp2rcd13ifvqgvg","pricing_plan_id":"cebpf4jnsgd1na2vs0mg"},{"bike_id":"39208c10-828e-4392-9aa2-019dd2bc97c3","system_id":"levelo_inurba_marseille","lat":43.27996,"lon":5.4001,"is_reserved":false,"is_disabled":false,"rental_uris":{"android":"levelo://app?vid=39208c10-828e-4392-9aa2-019dd2bc97c3","ios":"levelo://app?vid=39208c10-828e-4392-9aa2-019dd2bc97c3"},"vehicle_type_id":"4","last_reported":1731928110,"current_range_meters":25600,"station_id":"ce4bho92rcd13ifvqh4g","pricing_plan_id":"cebpf4jnsgd1na2vs0mg"},{"bike_id":"85d7d09d-be00-404d-926a-c068167e1ca6","system_id":"levelo_inurba_marseille","lat":43.30545,"lon":5.36548,"is_reserved":false,"is_disabled":false,"rental_uris":{"android":"levelo://app?vid=85d7d09d-be00-404d-926a-c068167e1ca6","ios":"levelo://app?vid=85d7d09d-be00-404d-926a-c068167e1ca6"},"vehicle_type_id":"4","last_reported":1731928110,"current_range_meters":3600,"station_id":"ce4bgs12rcd13ifvqcag","pricing_plan_id":"cebpf4jnsgd1na2vs0mg"},{"bike_id":"9af3cdec-4f63-4439-b320-1cf5e6351989","system_id":"levelo_inurba_marseille","lat":43.2619,"lon":5.37446,"is_reserved":false,"is_disabled":false,"rental_uris":{"android":"levelo://app?vid=9af3cdec-4f63-4439-b320-1cf5e6351989","ios":"levelo://app?vid=9af3cdec-4f63-4439-b320-1cf5e6351989"},"vehicle_type_id":"4","last_reported":1731928110,"current_range_meters":27200,"station_id":"ce4bhgp2rcd13ifvqfc0","pricing_plan_id":"cebpf4jnsgd1na2vs0mg"},{"bike_id":"370e1d1e-fada-427c-9d01-8103329c91ea","system_id":"levelo_inurba_marseille","lat":43.28263,"lon":5.350613,"is_reserved":false,"is_disabled":false,"rental_uris":{"android":"levelo://app?vid=370e1d1e-fada-427c-9d01-8103329c91ea","ios":"levelo://app?vid=370e1d1e-fada-427c-9d01-8103329c91ea"},"vehicle_type_id":"4","last_reported":1731928110,"current_range_meters":38800,"station_id":"ce4bhbp2rcd13ifvqerg","pricing_plan_id":"cebpf4jnsgd1na2vs0mg"},{"bike_id":"30623e0d-666e-459c-8ee2-dd2be51ba16a","system_id":"levelo_inurba_marseille","lat":43.27991,"lon":5.40019,"is_reserved":false,"is_disabled":false,"rental_uris":{"android":"levelo://app?vid=30623e0d-666e-459c-8ee2-dd2be51ba16a","ios":"levelo://app?vid=30623e0d-666e-459c-8ee2-dd2be51ba16a"},"vehicle_type_id":"4","last_reported":1731928110,"current_range_meters":6800,"station_id":"ce4bho92rcd13ifvqh4g","pricing_plan_id":"cebpf4jnsgd1na2vs0mg"},{"bike_id":"e1a28b36-0717-4e37-be43-98104648c62b","system_id":"levelo_inurba_marseille","lat":43.24394,"lon":5.37065,"is_reserved":false,"is_disabled":false,"rental_uris":{"android":"levelo://app?vid=e1a28b36-0717-4e37-be43-98104648c62b","ios":"levelo://app?vid=e1a28b36-0717-4e37-be43-98104648c62b"},"vehicle_type_id":"4","last_reported":1731928110,"current_range_meters":6400,"station_id":"ce4bhhh2rcd13ifvqfk0","pricing_plan_id":"cebpf4jnsgd1na2vs0mg"},{"bike_id":"c51f4d7b-b912-4619-a0f6-68e640c96bcd","system_id":"levelo_inurba_marseille","lat":43.31359,"lon":5.36703,"is_reserved":false,"is_disabled":false,"rental_uris":{"android":"levelo://app?vid=c51f4d7b-b912-4619-a0f6-68e640c96bcd","ios":"levelo://app?vid=c51f4d7b-b912-4619-a0f6-68e640c96bcd"},"vehicle_type_id":"4","last_reported":1731928110,"current_range_meters":38800,"station_id":"ce4bgr92rcd13ifvqc6g","pricing_plan_id":"cebpf4jnsgd1na2vs0mg"},{"bike_id":"92ac4858-87d6-4ceb-8f6e-004635a816a8","system_id":"levelo_inurba_marseille","lat":43.27789,"lon":5.40729,"is_reserved":false,"is_disabled":false,"rental_uris":{"android":"levelo://app?vid=92ac4858-87d6-4ceb-8f6e-004635a816a8","ios":"levelo://app?vid=92ac4858-87d6-4ceb-8f6e-004635a816a8"},"vehicle_type_id":"4","last_reported":1731928110,"current_range_meters":22800,"station_id":"ce4bhnh2rcd13ifvqgtg","pricing_plan_id":"cebpf4jnsgd1na2vs0mg"},{"bike_id":"f06aec30-7855-4a0d-b633-cdddcf2ba86a","system_id":"levelo_inurba_marseille","lat":43.30536,"lon":5.36545,"is_reserved":false,"is_disabled":false,"rental_uris":{"android":"levelo://app?vid=f06aec30-7855-4a0d-b633-cdddcf2ba86a","ios":"levelo://app?vid=f06aec30-7855-4a0d-b633-cdddcf2ba86a"},"vehicle_type_id":"4","last_reported":1731928110,"current_range_meters":6400,"station_id":"ce4bgs12rcd13ifvqcag","pricing_plan_id":"cebpf4jnsgd1na2vs0mg"},{"bike_id":"bf5881fa-4d9d-4dc8-b253-41223199274e","system_id":"levelo_inurba_marseille","lat":43.24182,"lon":5.3973,"is_reserved":false,"is_disabled":false,"rental_uris":{"android":"levelo://app?vid=bf5881fa-4d9d-4dc8-b253-41223199274e","ios":"levelo://app?vid=bf5881fa-4d9d-4dc8-b253-41223199274e"},"vehicle_type_id":"4","last_reported":1731928110,"current_range_meters":38800,"station_id":"ce4bhn12rcd13ifvqgpg","pricing_plan_id":"cebpf4jnsgd1na2vs0mg"},{"bike_id":"ec2351d1-10f8-43e0-aebc-df5382abbad8","system_id":"levelo_inurba_marseille","lat":43.23148,"lon":5.43721,"is_reserved":false,"is_disabled":false,"rental_uris":{"android":"levelo://app?vid=ec2351d1-10f8-43e0-aebc-df5382abbad8","ios":"levelo://app?vid=ec2351d1-10f8-43e0-aebc-df5382abbad8"},"vehicle_type_id":"4","last_reported":1731928110,"current_range_meters":22000,"station_id":"ce4bhmp2rcd13ifvqgog","pricing_plan_id":"cebpf4jnsgd1na2vs0mg"},{"bike_id":"7465bc4b-7341-47ef-959d-45c0a1d37e4c","system_id":"levelo_inurba_marseille","lat":43.24084,"lon":5.37742,"is_reserved":false,"is_disabled":false,"rental_uris":{"android":"levelo://app?vid=7465bc4b-7341-47ef-959d-45c0a1d37e4c","ios":"levelo://app?vid=7465bc4b-7341-47ef-959d-45c0a1d37e4c"},"vehicle_type_id":"4","last_reported":1731928110,"current_range_meters":24800,"station_id":"ce4bhnp2rcd13ifvqgvg","pricing_plan_id":"cebpf4jnsgd1na2vs0mg"},{"bike_id":"fca1fce2-decb-4bcf-993a-23c8516f0462","system_id":"levelo_inurba_marseille","lat":43.27902,"lon":5.41216,"is_reserved":false,"is_disabled":false,"rental_uris":{"android":"levelo://app?vid=fca1fce2-decb-4bcf-993a-23c8516f0462","ios":"levelo://app?vid=fca1fce2-decb-4bcf-993a-23c8516f0462"},"vehicle_type_id":"4","last_reported":1731928110,"current_range_meters":27200,"station_id":"","pricing_plan_id":"cebpf4jnsgd1na2vs0mg"},{"bike_id":"57dc2663-41ba-423a-9cf7-dfac34fc4dfa","system_id":"levelo_inurba_marseille","lat":43.26806,"lon":5.40267,"is_reserved":false,"is_disabled":false,"rental_uris":{"android":"levelo://app?vid=57dc2663-41ba-423a-9cf7-dfac34fc4dfa","ios":"levelo://app?vid=57dc2663-41ba-423a-9cf7-dfac34fc4dfa"},"vehicle_type_id":"4","last_reported":1731928110,"current_range_meters":12000,"station_id":"ce501612rcd8frsf0b60","pricing_plan_id":"cebpf4jnsgd1na2vs0mg"},{"bike_id":"8f426890-14c3-4f84-af0e-ede85f28b7aa","system_id":"levelo_inurba_marseille","lat":43.23148,"lon":5.4372,"is_reserved":false,"is_disabled":false,"rental_uris":{"android":"levelo://app?vid=8f426890-14c3-4f84-af0e-ede85f28b7aa","ios":"levelo://app?vid=8f426890-14c3-4f84-af0e-ede85f28b7aa"},"vehicle_type_id":"4","last_reported":1731928110,"current_range_meters":19200,"station_id":"ce4bhmp2rcd13ifvqgog","pricing_plan_id":"cebpf4jnsgd1na2vs0mg"},{"bike_id":"867379cc-d2ef-4147-91e9-90a3b2e48906","system_id":"levelo_inurba_marseille","lat":43.30474,"lon":5.379,"is_reserved":false,"is_disabled":false,"rental_uris":{"android":"levelo://app?vid=867379cc-d2ef-4147-91e9-90a3b2e48906","ios":"levelo://app?vid=867379cc-d2ef-4147-91e9-90a3b2e48906"},"vehicle_type_id":"4","last_reported":1731928110,"current_range_meters":38000,"station_id":"ce4bgup2rcd13ifvqcn0","pricing_plan_id":"cebpf4jnsgd1na2vs0mg"},{"bike_id":"25e9b8f0-4e43-46b3-a670-6cc0b06ff3f8","system_id":"levelo_inurba_marseille","lat":43.33606,"lon":5.41025,"is_reserved":false,"is_disabled":false,"rental_uris":{"android":"levelo://app?vid=25e9b8f0-4e43-46b3-a670-6cc0b06ff3f8","ios":"levelo://app?vid=25e9b8f0-4e43-46b3-a670-6cc0b06ff3f8"},"vehicle_type_id":"4","last_reported":1731928110,"current_range_meters":38800,"station_id":"ce4bhqh2rcd13ifvqhmg","pricing_plan_id":"cebpf4jnsgd1na2vs0mg"},{"bike_id":"264fdb9c-80e3-44be-8463-62f7b0470c33","system_id":"levelo_inurba_marseille","lat":43.29039,"lon":5.37571,"is_reserved":false,"is_disabled":false,"rental_uris":{"android":"levelo://app?vid=264fdb9c-80e3-44be-8463-62f7b0470c33","ios":"levelo://app?vid=264fdb9c-80e3-44be-8463-62f7b0470c33"},"vehicle_type_id":"4","last_reported":1731928110,"current_range_meters":38800,"station_id":"ce4bh692rcd13ifvqe90","pricing_plan_id":"cebpf4jnsgd1na2vs0mg"},{"bike_id":"fcc3bb46-7516-43b0-811a-0a0d7e3d2379","system_id":"levelo_inurba_marseille","lat":43.31229,"lon":5.3686,"is_reserved":false,"is_disabled":false,"rental_uris":{"android":"levelo://app?vid=fcc3bb46-7516-43b0-811a-0a0d7e3d2379","ios":"levelo://app?vid=fcc3bb46-7516-43b0-811a-0a0d7e3d2379"},"vehicle_type_id":"4","last_reported":1731928110,"current_range_meters":38400,"station_id":"ce4bgl92rcd13ifvqbq0","pricing_plan_id":"cebpf4jnsgd1na2vs0mg"},{"bike_id":"01feae37-ffbb-4487-a5b2-da0cbb94773d","system_id":"levelo_inurba_marseille","lat":43.32037,"lon":5.41576,"is_reserved":false,"is_disabled":false,"rental_uris":{"android":"levelo://app?vid=01feae37-ffbb-4487-a5b2-da0cbb94773d","ios":"levelo://app?vid=01feae37-ffbb-4487-a5b2-da0cbb94773d"},"vehicle_type_id":"4","last_reported":1731928110,"current_range_meters":37600,"station_id":"ce4bhq92rcd13ifvqhkg","pricing_plan_id":"cebpf4jnsgd1na2vs0mg"},{"bike_id":"e97d111e-f7b3-4f1e-8e41-4c8c0033e505","system_id":"levelo_inurba_marseille","lat":43.28106,"lon":5.37822,"is_reserved":false,"is_disabled":false,"rental_uris":{"android":"levelo://app?vid=e97d111e-f7b3-4f1e-8e41-4c8c0033e505","ios":"levelo://app?vid=e97d111e-f7b3-4f1e-8e41-4c8c0033e505"},"vehicle_type_id":"4","last_reported":1731928110,"current_range_meters":38800,"station_id":"ce4bha12rcd13ifvqee0","pricing_plan_id":"cebpf4jnsgd1na2vs0mg"},{"bike_id":"27b863c6-ef53-4b45-8031-3d72c0b6bc5c","system_id":"levelo_inurba_marseille","lat":43.25864,"lon":5.39906,"is_reserved":false,"is_disabled":false,"rental_uris":{"android":"levelo://app?vid=27b863c6-ef53-4b45-8031-3d72c0b6bc5c","ios":"levelo://app?vid=27b863c6-ef53-4b45-8031-3d72c0b6bc5c"},"vehicle_type_id":"4","last_reported":1731928110,"current_range_meters":28800,"station_id":"ce4bhl92rcd13ifvqghg","pricing_plan_id":"cebpf4jnsgd1na2vs0mg"},{"bike_id":"d8e8b981-42e2-475f-b097-cf09e75e8523","system_id":"levelo_inurba_marseille","lat":43.28613,"lon":5.37055,"is_reserved":false,"is_disabled":false,"rental_uris":{"android":"levelo://app?vid=d8e8b981-42e2-475f-b097-cf09e75e8523","ios":"levelo://app?vid=d8e8b981-42e2-475f-b097-cf09e75e8523"},"vehicle_type_id":"4","last_reported":1731928110,"current_range_meters":22400,"station_id":"ce4bht12rcd13ifvqi60","pricing_plan_id":"cebpf4jnsgd1na2vs0mg"},{"bike_id":"1897c97b-2984-4772-8025-9b4f30e242e7","system_id":"levelo_inurba_marseille","lat":43.30312,"lon":5.36886,"is_reserved":false,"is_disabled":false,"rental_uris":{"android":"levelo://app?vid=1897c97b-2984-4772-8025-9b4f30e242e7","ios":"levelo://app?vid=1897c97b-2984-4772-8025-9b4f30e242e7"},"vehicle_type_id":"4","last_reported":1731928110,"current_range_meters":16400,"station_id":"ce4bgqh2rcd13ifvqc5g","pricing_plan_id":"cebpf4jnsgd1na2vs0mg"},{"bike_id":"350a877c-82fd-4243-8ac7-d3eb5b5c1d07","system_id":"levelo_inurba_marseille","lat":43.27206,"lon":5.3918,"is_reserved":false,"is_disabled":false,"rental_uris":{"android":"levelo://app?vid=350a877c-82fd-4243-8ac7-d3eb5b5c1d07","ios":"levelo://app?vid=350a877c-82fd-4243-8ac7-d3eb5b5c1d07"},"vehicle_type_id":"4","last_reported":1731928110,"current_range_meters":36800,"station_id":"ce4bhhp2rcd13ifvqfm0","pricing_plan_id":"cebpf4jnsgd1na2vs0mg"},{"bike_id":"5fe0f24c-5a44-4b8f-8a24-e40c0f946e5e","system_id":"levelo_inurba_marseille","lat":43.231578,"lon":5.436976,"is_reserved":false,"is_disabled":false,"rental_uris":{"android":"levelo://app?vid=5fe0f24c-5a44-4b8f-8a24-e40c0f946e5e","ios":"levelo://app?vid=5fe0f24c-5a44-4b8f-8a24-e40c0f946e5e"},"vehicle_type_id":"4","last_reported":1731928110,"current_range_meters":6400,"station_id":"ce4bhmp2rcd13ifvqgog","pricing_plan_id":"cebpf4jnsgd1na2vs0mg"},{"bike_id":"11009a1e-1f42-46f5-9698-aea4ec9da179","system_id":"levelo_inurba_marseille","lat":43.3248,"lon":5.36557,"is_reserved":false,"is_disabled":false,"rental_uris":{"android":"levelo://app?vid=11009a1e-1f42-46f5-9698-aea4ec9da179","ios":"levelo://app?vid=11009a1e-1f42-46f5-9698-aea4ec9da179"},"vehicle_type_id":"4","last_reported":1731928110,"current_range_meters":26800,"station_id":"ce4bhs12rcd13ifvqhvg","pricing_plan_id":"cebpf4jnsgd1na2vs0mg"},{"bike_id":"f70b0a2c-9a11-4a75-9ff3-47f32334e77c","system_id":"levelo_inurba_marseille","lat":43.25108,"lon":5.40319,"is_reserved":false,"is_disabled":false,"rental_uris":{"android":"levelo://app?vid=f70b0a2c-9a11-4a75-9ff3-47f32334e77c","ios":"levelo://app?vid=f70b0a2c-9a11-4a75-9ff3-47f32334e77c"},"vehicle_type_id":"4","last_reported":1731928110,"current_range_meters":3200,"station_id":"ce4bhlh2rcd13ifvqgig","pricing_plan_id":"cebpf4jnsgd1na2vs0mg"},{"bike_id":"8f191948-4a07-47c7-9f04-5e1f6813a104","system_id":"levelo_inurba_marseille","lat":43.29649,"lon":5.37648,"is_reserved":false,"is_disabled":false,"rental_uris":{"android":"levelo://app?vid=8f191948-4a07-47c7-9f04-5e1f6813a104","ios":"levelo://app?vid=8f191948-4a07-47c7-9f04-5e1f6813a104"},"vehicle_type_id":"4","last_reported":1731928110,"current_range_meters":3600,"station_id":"","pricing_plan_id":"cebpf4jnsgd1na2vs0mg"},{"bike_id":"7174d6a2-3f65-4ff0-8252-138e4d064a24","system_id":"levelo_inurba_marseille","lat":43.33753,"lon":5.37473,"is_reserved":false,"is_disabled":false,"rental_uris":{"android":"levelo://app?vid=7174d6a2-3f65-4ff0-8252-138e4d064a24","ios":"levelo://app?vid=7174d6a2-3f65-4ff0-8252-138e4d064a24"},"vehicle_type_id":"4","last_reported":1731928110,"current_range_meters":38800,"station_id":"","pricing_plan_id":"cebpf4jnsgd1na2vs0mg"},{"bike_id":"620495cf-697c-4096-abd1-9a6530d798c4","system_id":"levelo_inurba_marseille","lat":43.30189,"lon":5.36604,"is_reserved":false,"is_disabled":false,"rental_uris":{"android":"levelo://app?vid=620495cf-697c-4096-abd1-9a6530d798c4","ios":"levelo://app?vid=620495cf-697c-4096-abd1-9a6530d798c4"},"vehicle_type_id":"4","last_reported":1731928110,"current_range_meters":15200,"station_id":"ce4bgrh2rcd13ifvqc8g","pricing_plan_id":"cebpf4jnsgd1na2vs0mg"},{"bike_id":"316f2772-3cb9-425c-b810-f74fba63a1fd","system_id":"levelo_inurba_marseille","lat":43.28028,"lon":5.36943,"is_reserved":false,"is_disabled":false,"rental_uris":{"android":"levelo://app?vid=316f2772-3cb9-425c-b810-f74fba63a1fd","ios":"levelo://app?vid=316f2772-3cb9-425c-b810-f74fba63a1fd"},"vehicle_type_id":"4","last_reported":1731928110,"current_range_meters":28000,"station_id":"ce4bha12rcd13ifvqef0","pricing_plan_id":"cebpf4jnsgd1na2vs0mg"},{"bike_id":"4a034c2e-a42c-4280-a35b-b7904d750273","system_id":"levelo_inurba_marseille","lat":43.29519,"lon":5.39038,"is_reserved":false,"is_disabled":false,"rental_uris":{"android":"levelo://app?vid=4a034c2e-a42c-4280-a35b-b7904d750273","ios":"levelo://app?vid=4a034c2e-a42c-4280-a35b-b7904d750273"},"vehicle_type_id":"4","last_reported":1731928110,"current_range_meters":34800,"station_id":"ce4bh3p2rcd13ifvqdp0","pricing_plan_id":"cebpf4jnsgd1na2vs0mg"},{"bike_id":"c113368e-053f-42a4-828a-08ff823a47c7","system_id":"levelo_inurba_marseille","lat":43.23962,"lon":5.36627,"is_reserved":false,"is_disabled":false,"rental_uris":{"android":"levelo://app?vid=c113368e-053f-42a4-828a-08ff823a47c7","ios":"levelo://app?vid=c113368e-053f-42a4-828a-08ff823a47c7"},"vehicle_type_id":"4","last_reported":1731928110,"current_range_meters":18000,"station_id":"ce4bhi12rcd13ifvqfp0","pricing_plan_id":"cebpf4jnsgd1na2vs0mg"},{"bike_id":"16cf35d0-5635-4441-99d6-8b5473fa062e","system_id":"levelo_inurba_marseille","lat":43.29866,"lon":5.3973,"is_reserved":false,"is_disabled":false,"rental_uris":{"android":"levelo://app?vid=16cf35d0-5635-4441-99d6-8b5473fa062e","ios":"levelo://app?vid=16cf35d0-5635-4441-99d6-8b5473fa062e"},"vehicle_type_id":"4","last_reported":1731928110,"current_range_meters":7200,"station_id":"ce4bh0h2rcd13ifvqd50","pricing_plan_id":"cebpf4jnsgd1na2vs0mg"},{"bike_id":"3c7108fb-85fe-43b6-95ce-e6a5e6d34b1a","system_id":"levelo_inurba_marseille","lat":43.33741,"lon":5.39184,"is_reserved":false,"is_disabled":false,"rental_uris":{"android":"levelo://app?vid=3c7108fb-85fe-43b6-95ce-e6a5e6d34b1a","ios":"levelo://app?vid=3c7108fb-85fe-43b6-95ce-e6a5e6d34b1a"},"vehicle_type_id":"4","last_reported":1731928110,"current_range_meters":24800,"station_id":"ce4bhr92rcd13ifvqhsg","pricing_plan_id":"cebpf4jnsgd1na2vs0mg"},{"bike_id":"4c046958-8b89-4a7f-bc5e-a543c6a560e6","system_id":"levelo_inurba_marseille","lat":43.28572,"lon":5.39499,"is_reserved":false,"is_disabled":false,"rental_uris":{"android":"levelo://app?vid=4c046958-8b89-4a7f-bc5e-a543c6a560e6","ios":"levelo://app?vid=4c046958-8b89-4a7f-bc5e-a543c6a560e6"},"vehicle_type_id":"4","last_reported":1731928110,"current_range_meters":37600,"station_id":"ce4bh292rcd13ifvqdg0","pricing_plan_id":"cebpf4jnsgd1na2vs0mg"},{"bike_id":"f89608a0-a462-4d8a-90bd-be58df046942","system_id":"levelo_inurba_marseille","lat":43.25116,"lon":5.40317,"is_reserved":false,"is_disabled":false,"rental_uris":{"android":"levelo://app?vid=f89608a0-a462-4d8a-90bd-be58df046942","ios":"levelo://app?vid=f89608a0-a462-4d8a-90bd-be58df046942"},"vehicle_type_id":"4","last_reported":1731928110,"current_range_meters":26000,"station_id":"ce4bhlh2rcd13ifvqgig","pricing_plan_id":"cebpf4jnsgd1na2vs0mg"},{"bike_id":"e07300b7-8408-4b0c-a4bb-bd9affbf124d","system_id":"levelo_inurba_marseille","lat":43.3089,"lon":5.3963,"is_reserved":false,"is_disabled":false,"rental_uris":{"android":"levelo://app?vid=e07300b7-8408-4b0c-a4bb-bd9affbf124d","ios":"levelo://app?vid=e07300b7-8408-4b0c-a4bb-bd9affbf124d"},"vehicle_type_id":"4","last_reported":1731928110,"current_range_meters":8400,"station_id":"ce4bh012rcd13ifvqcv0","pricing_plan_id":"cebpf4jnsgd1na2vs0mg"},{"bike_id":"7f003688-ac6e-45aa-a9fa-340a110ebfaa","system_id":"levelo_inurba_marseille","lat":43.287323,"lon":5.3651,"is_reserved":false,"is_disabled":false,"rental_uris":{"android":"levelo://app?vid=7f003688-ac6e-45aa-a9fa-340a110ebfaa","ios":"levelo://app?vid=7f003688-ac6e-45aa-a9fa-340a110ebfaa"},"vehicle_type_id":"4","last_reported":1731928110,"current_range_meters":10800,"station_id":"ce4bhah2rcd13ifvqej0","pricing_plan_id":"cebpf4jnsgd1na2vs0mg"},{"bike_id":"c71998b4-4e49-4022-8ad1-687216411ec6","system_id":"levelo_inurba_marseille","lat":43.23184,"lon":5.39967,"is_reserved":false,"is_disabled":false,"rental_uris":{"android":"levelo://app?vid=c71998b4-4e49-4022-8ad1-687216411ec6","ios":"levelo://app?vid=c71998b4-4e49-4022-8ad1-687216411ec6"},"vehicle_type_id":"4","last_reported":1731928110,"current_range_meters":27600,"station_id":"ce4bhn12rcd13ifvqgqg","pricing_plan_id":"cebpf4jnsgd1na2vs0mg"},{"bike_id":"e0500e76-9b1d-4cdf-81a0-bac96644b86a","system_id":"levelo_inurba_marseille","lat":43.24671,"lon":5.3816,"is_reserved":false,"is_disabled":false,"rental_uris":{"android":"levelo://app?vid=e0500e76-9b1d-4cdf-81a0-bac96644b86a","ios":"levelo://app?vid=e0500e76-9b1d-4cdf-81a0-bac96644b86a"},"vehicle_type_id":"4","last_reported":1731928110,"current_range_meters":32000,"station_id":"ce4bhih2rcd13ifvqfr0","pricing_plan_id":"cebpf4jnsgd1na2vs0mg"},{"bike_id":"43155b5a-94b8-41f8-b3fe-ed8339ffbcce","system_id":"levelo_inurba_marseille","lat":43.27493,"lon":5.42453,"is_reserved":false,"is_disabled":false,"rental_uris":{"android":"levelo://app?vid=43155b5a-94b8-41f8-b3fe-ed8339ffbcce","ios":"levelo://app?vid=43155b5a-94b8-41f8-b3fe-ed8339ffbcce"},"vehicle_type_id":"4","last_reported":1731928110,"current_range_meters":37600,"station_id":"ce4bhn92rcd13ifvqgrg","pricing_plan_id":"cebpf4jnsgd1na2vs0mg"},{"bike_id":"0b3b6491-bd9e-419d-bde7-ee6587f6a4a5","system_id":"levelo_inurba_marseille","lat":43.30311,"lon":5.40073,"is_reserved":false,"is_disabled":false,"rental_uris":{"android":"levelo://app?vid=0b3b6491-bd9e-419d-bde7-ee6587f6a4a5","ios":"levelo://app?vid=0b3b6491-bd9e-419d-bde7-ee6587f6a4a5"},"vehicle_type_id":"4","last_reported":1731928110,"current_range_meters":28000,"station_id":"ce4bh112rcd13ifvqd90","pricing_plan_id":"cebpf4jnsgd1na2vs0mg"},{"bike_id":"59401be2-5718-4be8-82ee-8365723c5b07","system_id":"levelo_inurba_marseille","lat":43.30137,"lon":5.37424,"is_reserved":false,"is_disabled":false,"rental_uris":{"android":"levelo://app?vid=59401be2-5718-4be8-82ee-8365723c5b07","ios":"levelo://app?vid=59401be2-5718-4be8-82ee-8365723c5b07"},"vehicle_type_id":"4","last_reported":1731928110,"current_range_meters":38800,"station_id":"ce4bgs92rcd13ifvqcc0","pricing_plan_id":"cebpf4jnsgd1na2vs0mg"},{"bike_id":"02d5d3c2-b7cd-48db-85ea-26185ba30fb6","system_id":"levelo_inurba_marseille","lat":43.25864,"lon":5.39913,"is_reserved":false,"is_disabled":false,"rental_uris":{"android":"levelo://app?vid=02d5d3c2-b7cd-48db-85ea-26185ba30fb6","ios":"levelo://app?vid=02d5d3c2-b7cd-48db-85ea-26185ba30fb6"},"vehicle_type_id":"4","last_reported":1731928110,"current_range_meters":21600,"station_id":"ce4bhl92rcd13ifvqghg","pricing_plan_id":"cebpf4jnsgd1na2vs0mg"},{"bike_id":"806534df-6460-4a48-97a7-63ebdc1286cb","system_id":"levelo_inurba_marseille","lat":43.29572,"lon":5.36734,"is_reserved":false,"is_disabled":false,"rental_uris":{"android":"levelo://app?vid=806534df-6460-4a48-97a7-63ebdc1286cb","ios":"levelo://app?vid=806534df-6460-4a48-97a7-63ebdc1286cb"},"vehicle_type_id":"4","last_reported":1731928110,"current_range_meters":30800,"station_id":"ce4bgph2rcd13ifvqc2g","pricing_plan_id":"cebpf4jnsgd1na2vs0mg"},{"bike_id":"bca878b7-33e6-4f22-84e5-f48ea6a2a6c8","system_id":"levelo_inurba_marseille","lat":43.30536,"lon":5.36698,"is_reserved":false,"is_disabled":false,"rental_uris":{"android":"levelo://app?vid=bca878b7-33e6-4f22-84e5-f48ea6a2a6c8","ios":"levelo://app?vid=bca878b7-33e6-4f22-84e5-f48ea6a2a6c8"},"vehicle_type_id":"4","last_reported":1731928110,"current_range_meters":27600,"station_id":"ce4bgrp2rcd13ifvqc9g","pricing_plan_id":"cebpf4jnsgd1na2vs0mg"},{"bike_id":"30f1691a-cecb-4fca-a73e-17558b7cf3ab","system_id":"levelo_inurba_marseille","lat":43.26062,"lon":5.39396,"is_reserved":false,"is_disabled":false,"rental_uris":{"android":"levelo://app?vid=30f1691a-cecb-4fca-a73e-17558b7cf3ab","ios":"levelo://app?vid=30f1691a-cecb-4fca-a73e-17558b7cf3ab"},"vehicle_type_id":"4","last_reported":1731928110,"current_range_meters":16400,"station_id":"ce4bhh92rcd13ifvqfj0","pricing_plan_id":"cebpf4jnsgd1na2vs0mg"},{"bike_id":"38643586-abf1-49b3-ae92-ded19ae2d617","system_id":"levelo_inurba_marseille","lat":43.2674,"lon":5.38374,"is_reserved":false,"is_disabled":false,"rental_uris":{"android":"levelo://app?vid=38643586-abf1-49b3-ae92-ded19ae2d617","ios":"levelo://app?vid=38643586-abf1-49b3-ae92-ded19ae2d617"},"vehicle_type_id":"4","last_reported":1731928110,"current_range_meters":24000,"station_id":"ce4bho12rcd13ifvqh2g","pricing_plan_id":"cebpf4jnsgd1na2vs0mg"},{"bike_id":"a3d98d77-92cc-4a58-b469-0632bebf6c0a","system_id":"levelo_inurba_marseille","lat":43.24411,"lon":5.40331,"is_reserved":false,"is_disabled":false,"rental_uris":{"android":"levelo://app?vid=a3d98d77-92cc-4a58-b469-0632bebf6c0a","ios":"levelo://app?vid=a3d98d77-92cc-4a58-b469-0632bebf6c0a"},"vehicle_type_id":"4","last_reported":1731928110,"current_range_meters":2800,"station_id":"","pricing_plan_id":"cebpf4jnsgd1na2vs0mg"},{"bike_id":"ddf3c492-94d5-4348-9e99-fe5014601706","system_id":"levelo_inurba_marseille","lat":43.3136,"lon":5.36716,"is_reserved":false,"is_disabled":false,"rental_uris":{"android":"levelo://app?vid=ddf3c492-94d5-4348-9e99-fe5014601706","ios":"levelo://app?vid=ddf3c492-94d5-4348-9e99-fe5014601706"},"vehicle_type_id":"4","last_reported":1731928110,"current_range_meters":11200,"station_id":"ce4bgr92rcd13ifvqc6g","pricing_plan_id":"cebpf4jnsgd1na2vs0mg"},{"bike_id":"3bd95869-13c4-4f5d-a1bd-0d40cdc02ae6","system_id":"levelo_inurba_marseille","lat":43.3014,"lon":5.37422,"is_reserved":false,"is_disabled":false,"rental_uris":{"android":"levelo://app?vid=3bd95869-13c4-4f5d-a1bd-0d40cdc02ae6","ios":"levelo://app?vid=3bd95869-13c4-4f5d-a1bd-0d40cdc02ae6"},"vehicle_type_id":"4","last_reported":1731928110,"current_range_meters":38000,"station_id":"ce4bgs92rcd13ifvqcc0","pricing_plan_id":"cebpf4jnsgd1na2vs0mg"},{"bike_id":"69d7719d-6825-423a-a3f9-766b86458100","system_id":"levelo_inurba_marseille","lat":43.29913,"lon":5.37469,"is_reserved":false,"is_disabled":false,"rental_uris":{"android":"levelo://app?vid=69d7719d-6825-423a-a3f9-766b86458100","ios":"levelo://app?vid=69d7719d-6825-423a-a3f9-766b86458100"},"vehicle_type_id":"4","last_reported":1731928110,"current_range_meters":37600,"station_id":"ce4bgjh2rcd13ifvqbg0","pricing_plan_id":"cebpf4jnsgd1na2vs0mg"},{"bike_id":"8f771c01-2239-45e5-9a13-b7f42325109b","system_id":"levelo_inurba_marseille","lat":43.26944,"lon":5.40244,"is_reserved":false,"is_disabled":false,"rental_uris":{"android":"levelo://app?vid=8f771c01-2239-45e5-9a13-b7f42325109b","ios":"levelo://app?vid=8f771c01-2239-45e5-9a13-b7f42325109b"},"vehicle_type_id":"4","last_reported":1731928110,"current_range_meters":28800,"station_id":"cjm6bp8fraef2m0cb0m0","pricing_plan_id":"cebpf4jnsgd1na2vs0mg"},{"bike_id":"1f4aed10-450b-4e6a-8e41-3d49c5cc71f5","system_id":"levelo_inurba_marseille","lat":43.31727,"lon":5.42403,"is_reserved":false,"is_disabled":false,"rental_uris":{"android":"levelo://app?vid=1f4aed10-450b-4e6a-8e41-3d49c5cc71f5","ios":"levelo://app?vid=1f4aed10-450b-4e6a-8e41-3d49c5cc71f5"},"vehicle_type_id":"4","last_reported":1731928110,"current_range_meters":38000,"station_id":"ce4bhp92rcd13ifvqhbg","pricing_plan_id":"cebpf4jnsgd1na2vs0mg"},{"bike_id":"80f4c831-5a0b-4ab6-87a6-5c6b38505ad9","system_id":"levelo_inurba_marseille","lat":43.24663,"lon":5.38166,"is_reserved":false,"is_disabled":false,"rental_uris":{"android":"levelo://app?vid=80f4c831-5a0b-4ab6-87a6-5c6b38505ad9","ios":"levelo://app?vid=80f4c831-5a0b-4ab6-87a6-5c6b38505ad9"},"vehicle_type_id":"4","last_reported":1731928110,"current_range_meters":23200,"station_id":"ce4bhih2rcd13ifvqfr0","pricing_plan_id":"cebpf4jnsgd1na2vs0mg"},{"bike_id":"61ed146f-0f93-4613-8c33-944753d9b428","system_id":"levelo_inurba_marseille","lat":43.25108,"lon":5.40331,"is_reserved":false,"is_disabled":false,"rental_uris":{"android":"levelo://app?vid=61ed146f-0f93-4613-8c33-944753d9b428","ios":"levelo://app?vid=61ed146f-0f93-4613-8c33-944753d9b428"},"vehicle_type_id":"4","last_reported":1731928110,"current_range_meters":38800,"station_id":"ce4bhlh2rcd13ifvqgig","pricing_plan_id":"cebpf4jnsgd1na2vs0mg"},{"bike_id":"4e959f14-1d34-421c-a54f-d09585d69070","system_id":"levelo_inurba_marseille","lat":43.2958,"lon":5.36735,"is_reserved":false,"is_disabled":false,"rental_uris":{"android":"levelo://app?vid=4e959f14-1d34-421c-a54f-d09585d69070","ios":"levelo://app?vid=4e959f14-1d34-421c-a54f-d09585d69070"},"vehicle_type_id":"4","last_reported":1731928110,"current_range_meters":34800,"station_id":"ce4bgph2rcd13ifvqc2g","pricing_plan_id":"cebpf4jnsgd1na2vs0mg"},{"bike_id":"73baadea-7791-4d53-b87f-9077ffceaafa","system_id":"levelo_inurba_marseille","lat":43.30524,"lon":5.3671,"is_reserved":false,"is_disabled":false,"rental_uris":{"android":"levelo://app?vid=73baadea-7791-4d53-b87f-9077ffceaafa","ios":"levelo://app?vid=73baadea-7791-4d53-b87f-9077ffceaafa"},"vehicle_type_id":"4","last_reported":1731928110,"current_range_meters":3200,"station_id":"ce4bgrp2rcd13ifvqc9g","pricing_plan_id":"cebpf4jnsgd1na2vs0mg"},{"bike_id":"d8d0bb1f-7702-4932-be79-af1a2a1b70f3","system_id":"levelo_inurba_marseille","lat":43.28151,"lon":5.42633,"is_reserved":false,"is_disabled":false,"rental_uris":{"android":"levelo://app?vid=d8d0bb1f-7702-4932-be79-af1a2a1b70f3","ios":"levelo://app?vid=d8d0bb1f-7702-4932-be79-af1a2a1b70f3"},"vehicle_type_id":"4","last_reported":1731928110,"current_range_meters":37600,"station_id":"ce4bhnh2rcd13ifvqgug","pricing_plan_id":"cebpf4jnsgd1na2vs0mg"},{"bike_id":"e9e9f546-a583-41ca-b04b-5917e19f8974","system_id":"levelo_inurba_marseille","lat":43.28148,"lon":5.4422,"is_reserved":false,"is_disabled":false,"rental_uris":{"android":"levelo://app?vid=e9e9f546-a583-41ca-b04b-5917e19f8974","ios":"levelo://app?vid=e9e9f546-a583-41ca-b04b-5917e19f8974"},"vehicle_type_id":"4","last_reported":1731928110,"current_range_meters":24000,"station_id":"","pricing_plan_id":"cebpf4jnsgd1na2vs0mg"},{"bike_id":"eaca45ed-40fc-432d-9d3f-62bdb306bb84","system_id":"levelo_inurba_marseille","lat":43.3035,"lon":5.41869,"is_reserved":false,"is_disabled":false,"rental_uris":{"android":"levelo://app?vid=eaca45ed-40fc-432d-9d3f-62bdb306bb84","ios":"levelo://app?vid=eaca45ed-40fc-432d-9d3f-62bdb306bb84"},"vehicle_type_id":"4","last_reported":1731928110,"current_range_meters":39200,"station_id":"ce4bhop2rcd13ifvqh7g","pricing_plan_id":"cebpf4jnsgd1na2vs0mg"},{"bike_id":"aa48eebb-261d-4a58-b140-d1b3292c7681","system_id":"levelo_inurba_marseille","lat":43.30534,"lon":5.3655,"is_reserved":false,"is_disabled":false,"rental_uris":{"android":"levelo://app?vid=aa48eebb-261d-4a58-b140-d1b3292c7681","ios":"levelo://app?vid=aa48eebb-261d-4a58-b140-d1b3292c7681"},"vehicle_type_id":"4","last_reported":1731928110,"current_range_meters":24800,"station_id":"ce4bgs12rcd13ifvqcag","pricing_plan_id":"cebpf4jnsgd1na2vs0mg"},{"bike_id":"4f9247ce-c838-4b5f-ac04-8e236b16a028","system_id":"levelo_inurba_marseille","lat":43.31471,"lon":5.37304,"is_reserved":false,"is_disabled":false,"rental_uris":{"android":"levelo://app?vid=4f9247ce-c838-4b5f-ac04-8e236b16a028","ios":"levelo://app?vid=4f9247ce-c838-4b5f-ac04-8e236b16a028"},"vehicle_type_id":"4","last_reported":1731928110,"current_range_meters":19200,"station_id":"","pricing_plan_id":"cebpf4jnsgd1na2vs0mg"},{"bike_id":"63bc9f38-b54a-4fd3-9c01-5b443ea5176c","system_id":"levelo_inurba_marseille","lat":43.31659,"lon":5.40435,"is_reserved":false,"is_disabled":false,"rental_uris":{"android":"levelo://app?vid=63bc9f38-b54a-4fd3-9c01-5b443ea5176c","ios":"levelo://app?vid=63bc9f38-b54a-4fd3-9c01-5b443ea5176c"},"vehicle_type_id":"4","last_reported":1731928110,"current_range_meters":22400,"station_id":"ce4bgkp2rcd13ifvqbmg","pricing_plan_id":"cebpf4jnsgd1na2vs0mg"},