{"last_updated":1753078671,"ttl":60,"version":"2.2","data":{"bikes":[{"bike_id":"53b742a7-31ae-4272-9bba-7740339e2a2f","system_id":"levelo_inurba_marseille","lat":43.33747,"lon":5.37463,"is_reserved":false,"is_disabled":false,"rental_uris":{"android":"levelo://app?vid=53b742a7-31ae-4272-9bba-7740339e2a2f","ios":"levelo://app?vid=53b742a7-31ae-4272-9bba-7740339e2a2f"},"vehicle_type_id":"1","last_reported":1753078671,"current_range_meters":7200,"station_id":"","pricing_plan_id":"cebpf4jnsgd1na2vs0mg"},{"bike_id":"78cf64b6-550a-44f0-8152-cbd9443a024f","system_id":"levelo_inurba_marseille","lat":43.300555,"lon":5.366061,"is_reserved":false,"is_disabled":false,"rental_uris":{"android":"levelo://app?vid=78cf64b6-550a-44f0-8152-cbd9443a024f","ios":"levelo://app?vid=78cf64b6-550a-44f0-8152-cbd9443a024f"},"vehicle_type_id":"4","last_reported":1753078671,"current_range_meters":2800,"station_id":"","pricing_plan_id":"cebpf4jnsgd1na2vs0mg"},{"bike_id":"57bb565d-2136-465a-803d-648474c4a3a7","system_id":"levelo_inurba_marseille","lat":43.33114,"lon":5.35513,"is_reserved":false,"is_disabled":false,"rental_uris":{"android":"levelo://app?vid=57bb565d-2136-465a-803d-648474c4a3a7","ios":"levelo://app?vid=57bb565d-2136-465a-803d-648474c4a3a7"},"vehicle_type_id":"4","last_reported":1753078671,"current_range_meters":2800,"station_id":"","pricing_plan_id":"cebpf4jnsgd1na2vs0mg"},{"bike_id":"55aa679c-ef7c-4be1-9335-f946e851cf8c","system_id":"levelo_inurba_marseille","lat":43.25366,"lon":5.37571,"is_reserved":false,"is_disabled":true,"rental_uris":{"android":"levelo://app?vid=55aa679c-ef7c-4be1-9335-f946e851cf8c","ios":"levelo://app?vid=55aa679c-ef7c-4be1-9335-f946e851cf8c"},"vehicle_type_id":"4","last_reported":1753078671,"current_range_meters":3200,"station_id":"","pricing_plan_id":"cebpf4jnsgd1na2vs0mg"},{"bike_id":"21298d24-a76a-4fd6-88f9-bc3c3feeeed6","system_id":"levelo_inurba_marseille","lat":43.24697,"lon":5.38176,"is_reserved":false,"is_disabled":false,"rental_uris":{"android":"levelo://app?vid=21298d24-a76a-4fd6-88f9-bc3c3feeeed6","ios":"levelo://app?vid=21298d24-a76a-4fd6-88f9-bc3c3feeeed6"},"vehicle_type_id":"4","last_reported":1753078671,"current_range_meters":3200,"station_id":"ce4bhih2rcd13ifvqfr0","pricing_plan_id":"cebpf4jnsgd1na2vs0mg"},{"bike_id":"6f18ab1b-0c74-47b1-bed8-837677176207","system_id":"levelo_inurba_marseille","lat":43.32007,"lon":5.40971,"is_reserved":false,"is_disabled":true,"rental_uris":{"android":"levelo://app?vid=6f18ab1b-0c74-47b1-bed8-837677176207","ios":"levelo://app?vid=6f18ab1b-0c74-47b1-bed8-837677176207"},"vehicle_type_id":"4","last_reported":1753078671,"current_range_meters":3200,"station_id":"","pricing_plan_id":"cebpf4jnsgd1na2vs0mg"},{"bike_id":"bb1cd7a1-464c-4c8c-b894-6306d52075e4","system_id":"levelo_inurba_marseille","lat":43.35051,"lon":5.34995,"is_reserved":false,"is_disabled":false,"rental_uris":{"android":"levelo://app?vid=bb1cd7a1-464c-4c8c-b894-6306d52075e4","ios":"levelo://app?vid=bb1cd7a1-464c-4c8c-b894-6306d52075e4"},"vehicle_type_id":"4","last_reported":1753078671,"current_range_meters":3600,"station_id":"","pricing_plan_id":"cebpf4jnsgd1na2vs0mg"},{"bike_id":"433415c1-acea-4306-b3ad-c55437db8988","system_id":"levelo_inurba_marseille","lat":43.29485,"lon":5.3818,"is_reserved":false,"is_disabled":false,"rental_uris":{"android":"levelo://app?vid=433415c1-acea-4306-b3ad-c55437db8988","ios":"levelo://app?vid=433415c1-acea-4306-b3ad-c55437db8988"},"vehicle_type_id":"4","last_reported":1753078671,"current_range_meters":3600,"station_id":"","pricing_plan_id":"cebpf4jnsgd1na2vs0mg"},{"bike_id":"2d5426b7-c5ef-4761-9a4a-28e19dac621a","system_id":"levelo_inurba_marseille","lat":43.30405,"lon":5.41302,"is_reserved":false,"is_disabled":true,"rental_uris":{"android":"levelo://app?vid=2d5426b7-c5ef-4761-9a4a-28e19dac621a","ios":"levelo://app?vid=2d5426b7-c5ef-4761-9a4a-28e19dac621a"},"vehicle_type_id":"4","last_reported":1753078671,"current_range_meters":3600,"station_id":"ce4bhop2rcd13ifvqh8g","pricing_plan_id":"cebpf4jnsgd1na2vs0mg"},{"bike_id":"475b9799-8c28-49d7-a2bd-b989a871d401","system_id":"levelo_inurba_marseille","lat":43.240742,"lon":5.377536,"is_reserved":false,"is_disabled":true,"rental_uris":{"android":"levelo://app?vid=475b9799-8c28-49d7-a2bd-b989a871d401","ios":"levelo://app?vid=475b9799-8c28-49d7-a2bd-b989a871d401"},"vehicle_type_id":"4","last_reported":1753078671,"current_range_meters":4400,"station_id":"ce4bhnp2rcd13ifvqgvg","pricing_plan_id":"cebpf4jnsgd1na2vs0mg"},{"bike_id":"06fcaf41-a3b3-4096-a515-28545e82af83","system_id":"levelo_inurba_marseille","lat":43.227004,"lon":5.348081,"is_reserved":false,"is_disabled":false,"rental_uris":{"android":"levelo://app?vid=06fcaf41-a3b3-4096-a515-28545e82af83","ios":"levelo://app?vid=06fcaf41-a3b3-4096-a515-28545e82af83"},"vehicle_type_id":"4","last_reported":1753078671,"current_range_meters":4400,"station_id":"","pricing_plan_id":"cebpf4jnsgd1na2vs0mg"},{"bike_id":"ac141403-2eff-454e-8bd1-3d400d40ed2b","system_id":"levelo_inurba_marseille","lat":43.33095,"lon":5.40015,"is_reserved":false,"is_disabled":false,"rental_uris":{"android":"levelo://app?vid=ac141403-2eff-454e-8bd1-3d400d40ed2b","ios":"levelo://app?vid=ac141403-2eff-454e-8bd1-3d400d40ed2b"},"vehicle_type_id":"4","last_reported":1753078671,"current_range_meters":5600,"station_id":"","pricing_plan_id":"cebpf4jnsgd1na2vs0mg"},{"bike_id":"192c0fa5-c826-4847-bdd0-11edb7180ff9","system_id":"levelo_inurba_marseille","lat":43.306653,"lon":5.4009,"is_reserved":false,"is_disabled":true,"rental_uris":{"android":"levelo://app?vid=192c0fa5-c826-4847-bdd0-11edb7180ff9","ios":"levelo://app?vid=192c0fa5-c826-4847-bdd0-11edb7180ff9"},"vehicle_type_id":"4","last_reported":1753078671,"current_range_meters":5600,"station_id":"ce4bh112rcd13ifvqda0","pricing_plan_id":"cebpf4jnsgd1na2vs0mg"},{"bike_id":"4bb36c15-2025-4484-8609-cef2870d8bf7","system_id":"levelo_inurba_marseille","lat":43.29774,"lon":5.3811,"is_reserved":false,"is_disabled":true,"rental_uris":{"android":"levelo://app?vid=4bb36c15-2025-4484-8609-cef2870d8bf7","ios":"levelo://app?vid=4bb36c15-2025-4484-8609-cef2870d8bf7"},"vehicle_type_id":"4","last_reported":1753078671,"current_range_meters":6400,"station_id":"ce4bgip2rcd13ifvqbb0","pricing_plan_id":"cebpf4jnsgd1na2vs0mg"},{"bike_id":"1bd67b17-c499-42cd-90ef-f1feca5f9c95","system_id":"levelo_inurba_marseille","lat":43.30425,"lon":5.41268,"is_reserved":false,"is_disabled":false,"rental_uris":{"android":"levelo://app?vid=1bd67b17-c499-42cd-90ef-f1feca5f9c95","ios":"levelo://app?vid=1bd67b17-c499-42cd-90ef-f1feca5f9c95"},"vehicle_type_id":"4","last_reported":1753078671,"current_range_meters":6400,"station_id":"ce4bhop2rcd13ifvqh8g","pricing_plan_id":"cebpf4jnsgd1na2vs0mg"},{"bike_id":"dbe3f53f-5cf1-428e-b135-1e976ecdd9e1","system_id":"levelo_inurba_marseille","lat":43.229295,"lon":5.353761,"is_reserved":false,"is_disabled":true,"rental_uris":{"android":"levelo://app?vid=dbe3f53f-5cf1-428e-b135-1e976ecdd9e1","ios":"levelo://app?vid=dbe3f53f-5cf1-428e-b135-1e976ecdd9e1"},"vehicle_type_id":"4","last_reported":1753078671,"current_range_meters":6400,"station_id":"","pricing_plan_id":"cebpf4jnsgd1na2vs0mg"},{"bike_id":"11a43a3e-2d75-4df3-ba59-43e1875d5f3e","system_id":"levelo_inurba_marseille","lat":43.24169,"lon":5.3641,"is_reserved":false,"is_disabled":false,"rental_uris":{"android":"levelo://app?vid=11a43a3e-2d75-4df3-ba59-43e1875d5f3e","ios":"levelo://app?vid=11a43a3e-2d75-4df3-ba59-43e1875d5f3e"},"vehicle_type_id":"4","last_reported":1753078671,"current_range_meters":6800,"station_id":"cpo36qri1sfpv3e86is0","pricing_plan_id":"cebpf4jnsgd1na2vs0mg"},{"bike_id":"0fd02cf6-67fb-4589-807f-241dd50b7e1a","system_id":"levelo_inurba_marseille","lat":43.299113,"lon":5.436555,"is_reserved":false,"is_disabled":true,"rental_uris":{"android":"levelo://app?vid=0fd02cf6-67fb-4589-807f-241dd50b7e1a","ios":"levelo://app?vid=0fd02cf6-67fb-4589-807f-241dd50b7e1a"},"vehicle_type_id":"4","last_reported":1753078671,"current_range_meters":7200,"station_id":"ce4bhpp2rcd13ifvqhfg","pricing_plan_id":"cebpf4jnsgd1na2vs0mg"},{"bike_id":"589de5b0-1c97-4dc8-b509-5ff6bef86054","system_id":"levelo_inurba_marseille","lat":43.270702,"lon":5.422745,"is_reserved":false,"is_disabled":false,"rental_uris":{"android":"levelo://app?vid=589de5b0-1c97-4dc8-b509-5ff6bef86054","ios":"levelo://app?vid=589de5b0-1c97-4dc8-b509-5ff6bef86054"},"vehicle_type_id":"4","last_reported":1753078671,"current_range_meters":7200,"station_id":"ce4bhk92rcd13ifvqgb0","pricing_plan_id":"cebpf4jnsgd1na2vs0mg"},{"bike_id":"a0e74e33-81fa-409c-a810-25d94bdbb1b1","system_id":"levelo_inurba_marseille","lat":43.30436,"lon":5.39746,"is_reserved":false,"is_disabled":false,"rental_uris":{"android":"levelo://app?vid=a0e74e33-81fa-409c-a810-25d94bdbb1b1","ios":"levelo://app?vid=a0e74e33-81fa-409c-a810-25d94bdbb1b1"},"vehicle_type_id":"4","last_reported":1753078671,"current_range_meters":7200,"station_id":"ce4bh092rcd13ifvqd20","pricing_plan_id":"cebpf4jnsgd1na2vs0mg"},{"bike_id":"cbd7089c-9d2d-42db-a268-faaaa69d7343","system_id":"levelo_inurba_marseille","lat":43.26243,"lon":5.37434,"is_reserved":false,"is_disabled":true,"rental_uris":{"android":"levelo://app?vid=cbd7089c-9d2d-42db-a268-faaaa69d7343","ios":"levelo://app?vid=cbd7089c-9d2d-42db-a268-faaaa69d7343"},"vehicle_type_id":"4","last_reported":1753078671,"current_range_meters":7200,"station_id":"","pricing_plan_id":"cebpf4jnsgd1na2vs0mg"},{"bike_id":"ff4d55d2-06e1-4a89-ba66-8dfb99920e85","system_id":"levelo_inurba_marseille","lat":43.28944,"lon":5.36394,"is_reserved":false,"is_disabled":false,"rental_uris":{"android":"levelo://app?vid=ff4d55d2-06e1-4a89-ba66-8dfb99920e85","ios":"levelo://app?vid=ff4d55d2-06e1-4a89-ba66-8dfb99920e85"},"vehicle_type_id":"4","last_reported":1753078671,"current_range_meters":7200,"station_id":"ce4bhc92rcd13ifvqetg","pricing_plan_id":"cebpf4jnsgd1na2vs0mg"},{"bike_id":"e34c59a8-9881-4210-8ea6-1138fe1fe497","system_id":"levelo_inurba_marseille","lat":43.29566,"lon":5.37527,"is_reserved":false,"is_disabled":false,"rental_uris":{"android":"levelo://app?vid=e34c59a8-9881-4210-8ea6-1138fe1fe497","ios":"levelo://app?vid=e34c59a8-9881-4210-8ea6-1138fe1fe497"},"vehicle_type_id":"4","last_reported":1753078671,"current_range_meters":7200,"station_id":"ce4bgh92rcd13ifvqb50","pricing_plan_id":"cebpf4jnsgd1na2vs0mg"},{"bike_id":"f70a938e-963a-438a-83e4-629be62d883f","system_id":"levelo_inurba_marseille","lat":43.31686,"lon":5.40467,"is_reserved":false,"is_disabled":false,"rental_uris":{"android":"levelo://app?vid=f70a938e-963a-438a-83e4-629be62d883f","ios":"levelo://app?vid=f70a938e-963a-438a-83e4-629be62d883f"},"vehicle_type_id":"4","last_reported":1753078671,"current_range_meters":7200,"station_id":"ce4bh012rcd13ifvqd00","pricing_plan_id":"cebpf4jnsgd1na2vs0mg"},{"bike_id":"cf9f7b6f-b252-45aa-bd41-e7b8a5947e88","system_id":"levelo_inurba_marseille","lat":43.269491,"lon":5.402858,"is_reserved":false,"is_disabled":true,"rental_uris":{"android":"levelo://app?vid=cf9f7b6f-b252-45aa-bd41-e7b8a5947e88","ios":"levelo://app?vid=cf9f7b6f-b252-45aa-bd41-e7b8a5947e88"},"vehicle_type_id":"4","last_reported":1753078671,"current_range_meters":8000,"station_id":"cjm6bp8fraef2m0cb0m0","pricing_plan_id":"cebpf4jnsgd1na2vs0mg"},{"bike_id":"2f7b9cdf-b6c7-4492-81a2-2bd894f35745","system_id":"levelo_inurba_marseille","lat":43.23087,"lon":5.35492,"is_reserved":false,"is_disabled":true,"rental_uris":{"android":"levelo://app?vid=2f7b9cdf-b6c7-4492-81a2-2bd894f35745","ios":"levelo://app?vid=2f7b9cdf-b6c7-4492-81a2-2bd894f35745"},"vehicle_type_id":"4","last_reported":1753078671,"current_range_meters":8000,"station_id":"cpo3342slgdg3j2ifvpg","pricing_plan_id":"cebpf4jnsgd1na2vs0mg"},{"bike_id":"ed415a14-b4b4-4caf-8a06-7fd1c907bac5","system_id":"levelo_inurba_marseille","lat":43.21519,"lon":5.34631,"is_reserved":false,"is_disabled":false,"rental_uris":{"android":"levelo://app?vid=ed415a14-b4b4-4caf-8a06-7fd1c907bac5","ios":"levelo://app?vid=ed415a14-b4b4-4caf-8a06-7fd1c907bac5"},"vehicle_type_id":"4","last_reported":1753078671,"current_range_meters":8000,"station_id":"","pricing_plan_id":"cebpf4jnsgd1na2vs0mg"},{"bike_id":"506d4972-4152-4f4c-b8da-e763d1a6a8d8","system_id":"levelo_inurba_marseille","lat":43.29749,"lon":5.37728,"is_reserved":false,"is_disabled":false,"rental_uris":{"android":"levelo://app?vid=506d4972-4152-4f4c-b8da-e763d1a6a8d8","ios":"levelo://app?vid=506d4972-4152-4f4c-b8da-e763d1a6a8d8"},"vehicle_type_id":"4","last_reported":1753078671,"current_range_meters":8000,"station_id":"","pricing_plan_id":"cebpf4jnsgd1na2vs0mg"},{"bike_id":"20597f8e-6c1b-4a51-9e3f-8ecf88381375","system_id":"levelo_inurba_marseille","lat":43.303127,"lon":5.392019,"is_reserved":false,"is_disabled":true,"rental_uris":{"android":"levelo://app?vid=20597f8e-6c1b-4a51-9e3f-8ecf88381375","ios":"levelo://app?vid=20597f8e-6c1b-4a51-9e3f-8ecf88381375"},"vehicle_type_id":"4","last_reported":1753078671,"current_range_meters":8400,"station_id":"ce4bgkh2rcd13ifvqbk0","pricing_plan_id":"cebpf4jnsgd1na2vs0mg"},{"bike_id":"adf2f93e-5697-4454-a36b-6d759fee574b","system_id":"levelo_inurba_marseille","lat":43.30936,"lon":5.40137,"is_reserved":false,"is_disabled":false,"rental_uris":{"android":"levelo://app?vid=adf2f93e-5697-4454-a36b-6d759fee574b","ios":"levelo://app?vid=adf2f93e-5697-4454-a36b-6d759fee574b"},"vehicle_type_id":"4","last_reported":1753078671,"current_range_meters":8400,"station_id":"ce4bgvp2rcd13ifvqct0","pricing_plan_id":"cebpf4jnsgd1na2vs0mg"},{"bike_id":"b24994f1-f2b3-4095-ba25-5cbdfd11f070","system_id":"levelo_inurba_marseille","lat":43.285606,"lon":5.394874,"is_reserved":false,"is_disabled":false,"rental_uris":{"android":"levelo://app?vid=b24994f1-f2b3-4095-ba25-5cbdfd11f070","ios":"levelo://app?vid=b24994f1-f2b3-4095-ba25-5cbdfd11f070"},"vehicle_type_id":"4","last_reported":1753078671,"current_range_meters":8400,"station_id":"ce4bh292rcd13ifvqdg0","pricing_plan_id":"cebpf4jnsgd1na2vs0mg"},{"bike_id":"a6de290b-5c15-427b-bc37-8301607e1735","system_id":"levelo_inurba_marseille","lat":43.337444,"lon":5.374475,"is_reserved":false,"is_disabled":false,"rental_uris":{"android":"levelo://app?vid=a6de290b-5c15-427b-bc37-8301607e1735","ios":"levelo://app?vid=a6de290b-5c15-427b-bc37-8301607e1735"},"vehicle_type_id":"4","last_reported":1753078671,"current_range_meters":8800,"station_id":"","pricing_plan_id":"cebpf4jnsgd1na2vs0mg"},{"bike_id":"892e06aa-05f6-415f-96f6-13455b0802de","system_id":"levelo_inurba_marseille","lat":43.29695,"lon":5.37489,"is_reserved":false,"is_disabled":false,"rental_uris":{"android":"levelo://app?vid=892e06aa-05f6-415f-96f6-13455b0802de","ios":"levelo://app?vid=892e06aa-05f6-415f-96f6-13455b0802de"},"vehicle_type_id":"4","last_reported":1753078671,"current_range_meters":8800,"station_id":"","pricing_plan_id":"cebpf4jnsgd1na2vs0mg"},{"bike_id":"3f561109-530a-4f4a-bea6-72000561ab89","system_id":"levelo_inurba_marseille","lat":43.30353,"lon":5.41876,"is_reserved":false,"is_disabled":false,"rental_uris":{"android":"levelo://app?vid=3f561109-530a-4f4a-bea6-72000561ab89","ios":"levelo://app?vid=3f561109-530a-4f4a-bea6-72000561ab89"},"vehicle_type_id":"4","last_reported":1753078671,"current_range_meters":8800,"station_id":"ce4bhop2rcd13ifvqh7g","pricing_plan_id":"cebpf4jnsgd1na2vs0mg"},{"bike_id":"c2ea4085-f07d-4f51-b765-531f288de438","system_id":"levelo_inurba_marseille","lat":43.311196,"lon":5.377631,"is_reserved":false,"is_disabled":false,"rental_uris":{"android":"levelo://app?vid=c2ea4085-f07d-4f51-b765-531f288de438","ios":"levelo://app?vid=c2ea4085-f07d-4f51-b765-531f288de438"},"vehicle_type_id":"4","last_reported":1753078671,"current_range_meters":8800,"station_id":"ce4bgt92rcd13ifvqcg0","pricing_plan_id":"cebpf4jnsgd1na2vs0mg"},{"bike_id":"f18952d9-de72-4b00-ac50-ca46d1bc16b9","system_id":"levelo_inurba_marseille","lat":43.21189,"lon":5.35064,"is_reserved":false,"is_disabled":false,"rental_uris":{"android":"levelo://app?vid=f18952d9-de72-4b00-ac50-ca46d1bc16b9","ios":"levelo://app?vid=f18952d9-de72-4b00-ac50-ca46d1bc16b9"},"vehicle_type_id":"4","last_reported":1753078671,"current_range_meters":8800,"station_id":"st_cvj6sg6p6f1abm77japg","pricing_plan_id":"cebpf4jnsgd1na2vs0mg"},{"bike_id":"44928af5-ecdb-44f9-80d6-1c5ee3bd5558","system_id":"levelo_inurba_marseille","lat":43.2679,"lon":5.39411,"is_reserved":false,"is_disabled":false,"rental_uris":{"android":"levelo://app?vid=44928af5-ecdb-44f9-80d6-1c5ee3bd5558","ios":"levelo://app?vid=44928af5-ecdb-44f9-80d6-1c5ee3bd5558"},"vehicle_type_id":"4","last_reported":1753078671,"current_range_meters":8800,"station_id":"ce4bhh12rcd13ifvqfg0","pricing_plan_id":"cebpf4jnsgd1na2vs0mg"},{"bike_id":"d25b3b74-1eb0-48d4-998a-10d14228da57","system_id":"levelo_inurba_marseille","lat":43.29704,"lon":5.366185,"is_reserved":false,"is_disabled":true,"rental_uris":{"android":"levelo://app?vid=d25b3b74-1eb0-48d4-998a-10d14228da57","ios":"levelo://app?vid=d25b3b74-1eb0-48d4-998a-10d14228da57"},"vehicle_type_id":"4","last_reported":1753078671,"current_range_meters":9200,"station_id":"ce4bgn12rcd13ifvqbt0","pricing_plan_id":"cebpf4jnsgd1na2vs0mg"},{"bike_id":"4ab4f454-b73c-4834-be84-c07b6e377fc6","system_id":"levelo_inurba_marseille","lat":43.28156,"lon":5.42644,"is_reserved":false,"is_disabled":false,"rental_uris":{"android":"levelo://app?vid=4ab4f454-b73c-4834-be84-c07b6e377fc6","ios":"levelo://app?vid=4ab4f454-b73c-4834-be84-c07b6e377fc6"},"vehicle_type_id":"4","last_reported":1753078671,"current_range_meters":9200,"station_id":"ce4bhnh2rcd13ifvqgug","pricing_plan_id":"cebpf4jnsgd1na2vs0mg"},{"bike_id":"36e55ae0-7b30-4256-91ca-28d1d3f39f54","system_id":"levelo_inurba_marseille","lat":43.311217,"lon":5.37767,"is_reserved":false,"is_disabled":false,"rental_uris":{"android":"levelo://app?vid=36e55ae0-7b30-4256-91ca-28d1d3f39f54","ios":"levelo://app?vid=36e55ae0-7b30-4256-91ca-28d1d3f39f54"},"vehicle_type_id":"4","last_reported":1753078671,"current_range_meters":9200,"station_id":"ce4bgt92rcd13ifvqcg0","pricing_plan_id":"cebpf4jnsgd1na2vs0mg"},{"bike_id":"19e0fa65-1237-4675-b13f-ff1c19513f61","system_id":"levelo_inurba_marseille","lat":43.30153,"lon":5.38088,"is_reserved":false,"is_disabled":false,"rental_uris":{"android":"levelo://app?vid=19e0fa65-1237-4675-b13f-ff1c19513f61","ios":"levelo://app?vid=19e0fa65-1237-4675-b13f-ff1c19513f61"},"vehicle_type_id":"4","last_reported":1753078671,"current_range_meters":9200,"station_id":"ce4bgjp2rcd13ifvqbh0","pricing_plan_id":"cebpf4jnsgd1na2vs0mg"},{"bike_id":"cba53f56-59f4-4b5d-8dff-d402dde25f99","system_id":"levelo_inurba_marseille","lat":43.26555,"lon":5.37287,"is_reserved":false,"is_disabled":false,"rental_uris":{"android":"levelo://app?vid=cba53f56-59f4-4b5d-8dff-d402dde25f99","ios":"levelo://app?vid=cba53f56-59f4-4b5d-8dff-d402dde25f99"},"vehicle_type_id":"4","last_reported":1753078671,"current_range_meters":9600,"station_id":"ce4bhg12rcd13ifvqf70","pricing_plan_id":"cebpf4jnsgd1na2vs0mg"},{"bike_id":"e16ce09c-16e0-4914-bf0f-e92d0933f493","system_id":"levelo_inurba_marseille","lat":43.304084,"lon":5.4129,"is_reserved":false,"is_disabled":false,"rental_uris":{"android":"levelo://app?vid=e16ce09c-16e0-4914-bf0f-e92d0933f493","ios":"levelo://app?vid=e16ce09c-16e0-4914-bf0f-e92d0933f493"},"vehicle_type_id":"4","last_reported":1753078671,"current_range_meters":9600,"station_id":"ce4bhop2rcd13ifvqh8g","pricing_plan_id":"cebpf4jnsgd1na2vs0mg"},{"bike_id":"ec56498c-7315-46d2-8779-4f1d12c61dba","system_id":"levelo_inurba_marseille","lat":43.26747,"lon":5.37776,"is_reserved":false,"is_disabled":false,"rental_uris":{"android":"levelo://app?vid=ec56498c-7315-46d2-8779-4f1d12c61dba","ios":"levelo://app?vid=ec56498c-7315-46d2-8779-4f1d12c61dba"},"vehicle_type_id":"4","last_reported":1753078671,"current_range_meters":9600,"station_id":"","pricing_plan_id":"cebpf4jnsgd1na2vs0mg"},{"bike_id":"de2298d8-8fca-44aa-a250-75dd5435ec44","system_id":"levelo_inurba_marseille","lat":43.309455,"lon":5.390317,"is_reserved":false,"is_disabled":false,"rental_uris":{"android":"levelo://app?vid=de2298d8-8fca-44aa-a250-75dd5435ec44","ios":"levelo://app?vid=de2298d8-8fca-44aa-a250-75dd5435ec44"},"vehicle_type_id":"4","last_reported":1753078671,"current_range_meters":9600,"station_id":"ce4bgup2rcd13ifvqco0","pricing_plan_id":"cebpf4jnsgd1na2vs0mg"},{"bike_id":"9036d315-4723-4cdd-9f68-856fe767f9c3","system_id":"levelo_inurba_marseille","lat":43.33162,"lon":5.38169,"is_reserved":false,"is_disabled":false,"rental_uris":{"android":"levelo://app?vid=9036d315-4723-4cdd-9f68-856fe767f9c3","ios":"levelo://app?vid=9036d315-4723-4cdd-9f68-856fe767f9c3"},"vehicle_type_id":"4","last_reported":1753078671,"current_range_meters":10000,"station_id":"","pricing_plan_id":"cebpf4jnsgd1na2vs0mg"},{"bike_id":"96793585-b370-4499-97b5-55297e845c8f","system_id":"levelo_inurba_marseille","lat":43.217513,"lon":5.346101,"is_reserved":false,"is_disabled":true,"rental_uris":{"android":"levelo://app?vid=96793585-b370-4499-97b5-55297e845c8f","ios":"levelo://app?vid=96793585-b370-4499-97b5-55297e845c8f"},"vehicle_type_id":"4","last_reported":1753078671,"current_range_meters":10000,"station_id":"st_cvj6r9ubvosntc0bgbag","pricing_plan_id":"cebpf4jnsgd1na2vs0mg"},{"bike_id":"fa06e38c-58b9-4aea-bcf5-74a645703fd3","system_id":"levelo_inurba_marseille","lat":43.28723,"lon":5.39993,"is_reserved":false,"is_disabled":false,"rental_uris":{"android":"levelo://app?vid=fa06e38c-58b9-4aea-bcf5-74a645703fd3","ios":"levelo://app?vid=fa06e38c-58b9-4aea-bcf5-74a645703fd3"},"vehicle_type_id":"4","last_reported":1753078671,"current_range_meters":10000,"station_id":"ce4bho92rcd13ifvqh3g","pricing_plan_id":"cebpf4jnsgd1na2vs0mg"},{"bike_id":"1e8b1880-264c-4b77-bf82-6c996a6dc688","system_id":"levelo_inurba_marseille","lat":43.21206,"lon":5.35059,"is_reserved":false,"is_disabled":false,"rental_uris":{"android":"levelo://app?vid=1e8b1880-264c-4b77-bf82-6c996a6dc688","ios":"levelo://app?vid=1e8b1880-264c-4b77-bf82-6c996a6dc688"},"vehicle_type_id":"4","last_reported":1753078671,"current_range_meters":10000,"station_id":"st_cvj6sg6p6f1abm77japg","pricing_plan_id":"cebpf4jnsgd1na2vs0mg"},{"bike_id":"59617e16-d273-470f-a969-2783d8608691","system_id":"levelo_inurba_marseille","lat":43.29813,"lon":5.3932,"is_reserved":false,"is_disabled":false,"rental_uris":{"android":"levelo://app?vid=59617e16-d273-470f-a969-2783d8608691","ios":"levelo://app?vid=59617e16-d273-470f-a969-2783d8608691"},"vehicle_type_id":"4","last_reported":1753078671,"current_range_meters":10000,"station_id":"chh1huq6cuj3fo74tm60","pricing_plan_id":"cebpf4jnsgd1na2vs0mg"},{"bike_id":"f96368a8-c94b-4619-a4ff-e99b0b02d119","system_id":"levelo_inurba_marseille","lat":43.308851,"lon":5.371987,"is_reserved":false,"is_disabled":false,"rental_uris":{"android":"levelo://app?vid=f96368a8-c94b-4619-a4ff-e99b0b02d119","ios":"levelo://app?vid=f96368a8-c94b-4619-a4ff-e99b0b02d119"},"vehicle_type_id":"4","last_reported":1753078671,"current_range_meters":10000,"station_id":"ce4bguh2rcd13ifvqckg","pricing_plan_id":"cebpf4jnsgd1na2vs0mg"},{"bike_id":"95b5bcfa-54af-48c0-bd18-8f73f959ce2b","system_id":"levelo_inurba_marseille","lat":43.31935,"lon":5.37313,"is_reserved":false,"is_disabled":true,"rental_uris":{"android":"levelo://app?vid=95b5bcfa-54af-48c0-bd18-8f73f959ce2b","ios":"levelo://app?vid=95b5bcfa-54af-48c0-bd18-8f73f959ce2b"},"vehicle_type_id":"4","last_reported":1753078671,"current_range_meters":10000,"station_id":"","pricing_plan_id":"cebpf4jnsgd1na2vs0mg"},{"bike_id":"299ec8a6-d5a7-41ea-8121-1c7f792257d2","system_id":"levelo_inurba_marseille","lat":43.27382,"lon":5.36255,"is_reserved":false,"is_disabled":false,"rental_uris":{"android":"levelo://app?vid=299ec8a6-d5a7-41ea-8121-1c7f792257d2","ios":"levelo://app?vid=299ec8a6-d5a7-41ea-8121-1c7f792257d2"},"vehicle_type_id":"4","last_reported":1753078671,"current_range_meters":10800,"station_id":"ce4bhbh2rcd13ifvqeo0","pricing_plan_id":"cebpf4jnsgd1na2vs0mg"},{"bike_id":"f335eb8b-f2b0-48df-963c-2425602f9038","system_id":"levelo_inurba_marseille","lat":43.27058,"lon":5.40129,"is_reserved":false,"is_disabled":false,"rental_uris":{"android":"levelo://app?vid=f335eb8b-f2b0-48df-963c-2425602f9038","ios":"levelo://app?vid=f335eb8b-f2b0-48df-963c-2425602f9038"},"vehicle_type_id":"4","last_reported":1753078671,"current_range_meters":10800,"station_id":"","pricing_plan_id":"cebpf4jnsgd1na2vs0mg"},{"bike_id":"86c3422c-5828-4ec9-8c82-7bec17ac3699","system_id":"levelo_inurba_marseille","lat":43.231853,"lon":5.399791,"is_reserved":false,"is_disabled":false,"rental_uris":{"android":"levelo://app?vid=86c3422c-5828-4ec9-8c82-7bec17ac3699","ios":"levelo://app?vid=86c3422c-5828-4ec9-8c82-7bec17ac3699"},"vehicle_type_id":"4","last_reported":1753078671,"current_range_meters":10800,"station_id":"ce4bhn12rcd13ifvqgqg","pricing_plan_id":"cebpf4jnsgd1na2vs0mg"},{"bike_id":"7f7c773c-89c7-4474-b9ba-9373822aea52","system_id":"levelo_inurba_marseille","lat":43.25883,"lon":5.39902,"is_reserved":false,"is_disabled":true,"rental_uris":{"android":"levelo://app?vid=7f7c773c-89c7-4474-b9ba-9373822aea52","ios":"levelo://app?vid=7f7c773c-89c7-4474-b9ba-9373822aea52"},"vehicle_type_id":"4","last_reported":1753078671,"current_range_meters":10800,"station_id":"ce4bhl92rcd13ifvqghg","pricing_plan_id":"cebpf4jnsgd1na2vs0mg"},{"bike_id":"b9d2f6b1-2316-4e08-a5d8-0d15d3bb3c6d","system_id":"levelo_inurba_marseille","lat":43.27433,"lon":5.38774,"is_reserved":false,"is_disabled":false,"rental_uris":{"android":"levelo://app?vid=b9d2f6b1-2316-4e08-a5d8-0d15d3bb3c6d","ios":"levelo://app?vid=b9d2f6b1-2316-4e08-a5d8-0d15d3bb3c6d"},"vehicle_type_id":"4","last_reported":1753078671,"current_range_meters":10800,"station_id":"","pricing_plan_id":"cebpf4jnsgd1na2vs0mg"},{"bike_id":"053762ef-2967-4c03-83aa-9c21c06b9aed","system_id":"levelo_inurba_marseille","lat":43.24081,"lon":5.37722,"is_reserved":false,"is_disabled":false,"rental_uris":{"android":"levelo://app?vid=053762ef-2967-4c03-83aa-9c21c06b9aed","ios":"levelo://app?vid=053762ef-2967-4c03-83aa-9c21c06b9aed"},"vehicle_type_id":"4","last_reported":1753078671,"current_range_meters":10800,"station_id":"ce4bhnp2rcd13ifvqgvg","pricing_plan_id":"cebpf4jnsgd1na2vs0mg"},{"bike_id":"dee6628b-f370-478a-a4db-32c84542aee7","system_id":"levelo_inurba_marseille","lat":43.33279,"lon":5.39013,"is_reserved":false,"is_disabled":false,"rental_uris":{"android":"levelo://app?vid=dee6628b-f370-478a-a4db-32c84542aee7","ios":"levelo://app?vid=dee6628b-f370-478a-a4db-32c84542aee7"},"vehicle_type_id":"4","last_reported":1753078671,"current_range_meters":10800,"station_id":"","pricing_plan_id":"cebpf4jnsgd1na2vs0mg"},{"bike_id":"63b0b856-af33-4970-b22e-c07117f2395e","system_id":"levelo_inurba_marseille","lat":43.211821,"lon":5.350786,"is_reserved":false,"is_disabled":false,"rental_uris":{"android":"levelo://app?vid=63b0b856-af33-4970-b22e-c07117f2395e","ios":"levelo://app?vid=63b0b856-af33-4970-b22e-c07117f2395e"},"vehicle_type_id":"4","last_reported":1753078671,"current_range_meters":10800,"station_id":"st_cvj6sg6p6f1abm77japg","pricing_plan_id":"cebpf4jnsgd1na2vs0mg"},{"bike_id":"d73f155c-efdb-4286-b5c7-5cca8c6dda7e","system_id":"levelo_inurba_marseille","lat":43.306307,"lon":5.373518,"is_reserved":false,"is_disabled":false,"rental_uris":{"android":"levelo://app?vid=d73f155c-efdb-4286-b5c7-5cca8c6dda7e","ios":"levelo://app?vid=d73f155c-efdb-4286-b5c7-5cca8c6dda7e"},"vehicle_type_id":"4","last_reported":1753078671,"current_range_meters":11200,"station_id":"","pricing_plan_id":"cebpf4jnsgd1na2vs0mg"},{"bike_id":"696c5e5f-ee49-4cdd-b0d3-ceab6c87d298","system_id":"levelo_inurba_marseille","lat":43.32091,"lon":5.36743,"is_reserved":false,"is_disabled":false,"rental_uris":{"android":"levelo://app?vid=696c5e5f-ee49-4cdd-b0d3-ceab6c87d298","ios":"levelo://app?vid=696c5e5f-ee49-4cdd-b0d3-ceab6c87d298"},"vehicle_type_id":"4","last_reported":1753078671,"current_range_meters":11200,"station_id":"ce4bhrh2rcd13ifvqhug","pricing_plan_id":"cebpf4jnsgd1na2vs0mg"},{"bike_id":"17ff8e7b-19e7-48fe-9d2e-33d7e41620c6","system_id":"levelo_inurba_marseille","lat":43.336,"lon":5.41031,"is_reserved":false,"is_disabled":false,"rental_uris":{"android":"levelo://app?vid=17ff8e7b-19e7-48fe-9d2e-33d7e41620c6","ios":"levelo://app?vid=17ff8e7b-19e7-48fe-9d2e-33d7e41620c6"},"vehicle_type_id":"4","last_reported":1753078671,"current_range_meters":11200,"station_id":"ce4bhqh2rcd13ifvqhmg","pricing_plan_id":"cebpf4jnsgd1na2vs0mg"},{"bike_id":"0e9dbe4f-d79d-4d8f-b425-0e74eb551795","system_id":"levelo_inurba_marseille","lat":43.314857,"lon":5.372999,"is_reserved":false,"is_disabled":false,"rental_uris":{"android":"levelo://app?vid=0e9dbe4f-d79d-4d8f-b425-0e74eb551795","ios":"levelo://app?vid=0e9dbe4f-d79d-4d8f-b425-0e74eb551795"},"vehicle_type_id":"4","last_reported":1753078671,"current_range_meters":11200,"station_id":"ce4bgt12rcd13ifvqcd0","pricing_plan_id":"cebpf4jnsgd1na2vs0mg"},{"bike_id":"02c734a1-449a-4577-93cf-d6c608c78150","system_id":"levelo_inurba_marseille","lat":43.287198,"lon":5.379309,"is_reserved":false,"is_disabled":false,"rental_uris":{"android":"levelo://app?vid=02c734a1-449a-4577-93cf-d6c608c78150","ios":"levelo://app?vid=02c734a1-449a-4577-93cf-d6c608c78150"},"vehicle_type_id":"4","last_reported":1753078671,"current_range_meters":11200,"station_id":"ce4bh9p2rcd13ifvqec0","pricing_plan_id":"cebpf4jnsgd1na2vs0mg"},{"bike_id":"0f07c0e6-8028-4fab-9691-a2c5085cf8ec","system_id":"levelo_inurba_marseille","lat":43.323558,"lon":5.388864,"is_reserved":false,"is_disabled":false,"rental_uris":{"android":"levelo://app?vid=0f07c0e6-8028-4fab-9691-a2c5085cf8ec","ios":"levelo://app?vid=0f07c0e6-8028-4fab-9691-a2c5085cf8ec"},"vehicle_type_id":"4","last_reported":1753078671,"current_range_meters":11200,"station_id":"ce4bhqp2rcd13ifvqhog","pricing_plan_id":"cebpf4jnsgd1na2vs0mg"},{"bike_id":"53a4d0d9-c032-4a10-8bd9-b77c80605247","system_id":"levelo_inurba_marseille","lat":43.289516,"lon":5.430108,"is_reserved":false,"is_disabled":false,"rental_uris":{"android":"levelo://app?vid=53a4d0d9-c032-4a10-8bd9-b77c80605247","ios":"levelo://app?vid=53a4d0d9-c032-4a10-8bd9-b77c80605247"},"vehicle_type_id":"4","last_reported":1753078671,"current_range_meters":11200,"station_id":"","pricing_plan_id":"cebpf4jnsgd1na2vs0mg"},{"bike_id":"aa7039ed-31a0-4747-a640-e94f3558d15e","system_id":"levelo_inurba_marseille","lat":43.22489,"lon":5.34767,"is_reserved":false,"is_disabled":true,"rental_uris":{"android":"levelo://app?vid=aa7039ed-31a0-4747-a640-e94f3558d15e","ios":"levelo://app?vid=aa7039ed-31a0-4747-a640-e94f3558d15e"},"vehicle_type_id":"4","last_reported":1753078671,"current_range_meters":11200,"station_id":"","pricing_plan_id":"cebpf4jnsgd1na2vs0mg"},{"bike_id":"24677df8-3180-482b-ad1e-30fa45751a3e","system_id":"levelo_inurba_marseille","lat":43.25897,"lon":5.40873,"is_reserved":false,"is_disabled":false,"rental_uris":{"android":"levelo://app?vid=24677df8-3180-482b-ad1e-30fa45751a3e","ios":"levelo://app?vid=24677df8-3180-482b-ad1e-30fa45751a3e"},"vehicle_type_id":"4","last_reported":1753078671,"current_range_meters":11200,"station_id":"ce4bhm92rcd13ifvqglg","pricing_plan_id":"cebpf4jnsgd1na2vs0mg"},{"bike_id":"c9695da4-3048-4cfc-83f0-62c3fac1ccbe","system_id":"levelo_inurba_marseille","lat":43.23052,"lon":5.3547,"is_reserved":false,"is_disabled":true,"rental_uris":{"android":"levelo://app?vid=c9695da4-3048-4cfc-83f0-62c3fac1ccbe","ios":"levelo://app?vid=c9695da4-3048-4cfc-83f0-62c3fac1ccbe"},"vehicle_type_id":"4","last_reported":1753078671,"current_range_meters":11600,"station_id":"cpo3342slgdg3j2ifvpg","pricing_plan_id":"cebpf4jnsgd1na2vs0mg"},{"bike_id":"af252e6d-0391-4a71-b983-fef075601b6e","system_id":"levelo_inurba_marseille","lat":43.29843,"lon":5.36268,"is_reserved":false,"is_disabled":false,"rental_uris":{"android":"levelo://app?vid=af252e6d-0391-4a71-b983-fef075601b6e","ios":"levelo://app?vid=af252e6d-0391-4a71-b983-fef075601b6e"},"vehicle_type_id":"4","last_reported":1753078671,"current_range_meters":11600,"station_id":"ce4bgpp2rcd13ifvqc3g","pricing_plan_id":"cebpf4jnsgd1na2vs0mg"},{"bike_id":"d3aca52a-4e64-461a-8fd1-e9a035bafbdf","system_id":"levelo_inurba_marseille","lat":43.257213,"lon":5.411019,"is_reserved":false,"is_disabled":false,"rental_uris":{"android":"levelo://app?vid=d3aca52a-4e64-461a-8fd1-e9a035bafbdf","ios":"levelo://app?vid=d3aca52a-4e64-461a-8fd1-e9a035bafbdf"},"vehicle_type_id":"4","last_reported":1753078671,"current_range_meters":11600,"station_id":"","pricing_plan_id":"cebpf4jnsgd1na2vs0mg"},{"bike_id":"967f3721-5a41-4b64-b968-a8a3ef0bca32","system_id":"levelo_inurba_marseille","lat":43.26677,"lon":5.38263,"is_reserved":false,"is_disabled":false,"rental_uris":{"android":"levelo://app?vid=967f3721-5a41-4b64-b968-a8a3ef0bca32","ios":"levelo://app?vid=967f3721-5a41-4b64-b968-a8a3ef0bca32"},"vehicle_type_id":"4","last_reported":1753078671,"current_range_meters":11600,"station_id":"ce4bhg92rcd13ifvqf90","pricing_plan_id":"cebpf4jnsgd1na2vs0mg"},{"bike_id":"23f21bdc-1c7d-4006-9e38-5013f12c7208","system_id":"levelo_inurba_marseille","lat":43.29014,"lon":5.38642,"is_reserved":false,"is_disabled":false,"rental_uris":{"android":"levelo://app?vid=23f21bdc-1c7d-4006-9e38-5013f12c7208","ios":"levelo://app?vid=23f21bdc-1c7d-4006-9e38-5013f12c7208"},"vehicle_type_id":"4","last_reported":1753078671,"current_range_meters":11600,"station_id":"ce4bh4p2rcd13ifvqe0g","pricing_plan_id":"cebpf4jnsgd1na2vs0mg"},{"bike_id":"f097f4fd-65a9-4d2d-a886-e496b4f0d541","system_id":"levelo_inurba_marseille","lat":43.304477,"lon":5.378913,"is_reserved":false,"is_disabled":false,"rental_uris":{"android":"levelo://app?vid=f097f4fd-65a9-4d2d-a886-e496b4f0d541","ios":"levelo://app?vid=f097f4fd-65a9-4d2d-a886-e496b4f0d541"},"vehicle_type_id":"4","last_reported":1753078671,"current_range_meters":12000,"station_id":"ce4bgup2rcd13ifvqcn0","pricing_plan_id":"cebpf4jnsgd1na2vs0mg"},{"bike_id":"eb240428-00e7-472b-91f5-4bf4c52fb633","system_id":"levelo_inurba_marseille","lat":43.262091,"lon":5.379196,"is_reserved":false,"is_disabled":true,"rental_uris":{"android":"levelo://app?vid=eb240428-00e7-472b-91f5-4bf4c52fb633","ios":"levelo://app?vid=eb240428-00e7-472b-91f5-4bf4c52fb633"},"vehicle_type_id":"4","last_reported":1753078671,"current_range_meters":12000,"station_id":"","pricing_plan_id":"cebpf4jnsgd1na2vs0mg"},{"bike_id":"c1e6057c-ff5a-4477-a9f1-93444a633642","system_id":"levelo_inurba_marseille","lat":43.27138,"lon":5.39093,"is_reserved":false,"is_disabled":false,"rental_uris":{"android":"levelo://app?vid=c1e6057c-ff5a-4477-a9f1-93444a633642","ios":"levelo://app?vid=c1e6057c-ff5a-4477-a9f1-93444a633642"},"vehicle_type_id":"4","last_reported":1753078671,"current_range_meters":12000,"station_id":"","pricing_plan_id":"cebpf4jnsgd1na2vs0mg"},{"bike_id":"482f6641-abe7-4780-9bcd-2e246966a766","system_id":"levelo_inurba_marseille","lat":43.28723,"lon":5.37925,"is_reserved":false,"is_disabled":false,"rental_uris":{"android":"levelo://app?vid=482f6641-abe7-4780-9bcd-2e246966a766","ios":"levelo://app?vid=482f6641-abe7-4780-9bcd-2e246966a766"},"vehicle_type_id":"4","last_reported":1753078671,"current_range_meters":12000,"station_id":"ce4bh9p2rcd13ifvqec0","pricing_plan_id":"cebpf4jnsgd1na2vs0mg"},{"bike_id":"37d8cb1b-1988-4390-9e4c-4eca73c82c19","system_id":"levelo_inurba_marseille","lat":43.261907,"lon":5.374534,"is_reserved":false,"is_disabled":true,"rental_uris":{"android":"levelo://app?vid=37d8cb1b-1988-4390-9e4c-4eca73c82c19","ios":"levelo://app?vid=37d8cb1b-1988-4390-9e4c-4eca73c82c19"},"vehicle_type_id":"4","last_reported":1753078671,"current_range_meters":12000,"station_id":"ce4bhgp2rcd13ifvqfc0","pricing_plan_id":"cebpf4jnsgd1na2vs0mg"},{"bike_id":"d9ffc317-5093-4b79-a3ac-b6a04220854f","system_id":"levelo_inurba_marseille","lat":43.28718,"lon":5.37932,"is_reserved":false,"is_disabled":false,"rental_uris":{"android":"levelo://app?vid=d9ffc317-5093-4b79-a3ac-b6a04220854f","ios":"levelo://app?vid=d9ffc317-5093-4b79-a3ac-b6a04220854f"},"vehicle_type_id":"4","last_reported":1753078671,"current_range_meters":12000,"station_id":"ce4bh9p2rcd13ifvqec0","pricing_plan_id":"cebpf4jnsgd1na2vs0mg"},{"bike_id":"5254ef52-4a45-4f30-9678-2eb03ca8cf75","system_id":"levelo_inurba_marseille","lat":43.26787,"lon":5.39413,"is_reserved":false,"is_disabled":false,"rental_uris":{"android":"levelo://app?vid=5254ef52-4a45-4f30-9678-2eb03ca8cf75","ios":"levelo://app?vid=5254ef52-4a45-4f30-9678-2eb03ca8cf75"},"vehicle_type_id":"4","last_reported":1753078671,"current_range_meters":12400,"station_id":"ce4bhh12rcd13ifvqfg0","pricing_plan_id":"cebpf4jnsgd1na2vs0mg"},{"bike_id":"218a227e-c64f-4f98-8a22-59cb1cdfd846","system_id":"levelo_inurba_marseille","lat":43.24053,"lon":5.37717,"is_reserved":false,"is_disabled":true,"rental_uris":{"android":"levelo://app?vid=218a227e-c64f-4f98-8a22-59cb1cdfd846","ios":"levelo://app?vid=218a227e-c64f-4f98-8a22-59cb1cdfd846"},"vehicle_type_id":"4","last_reported":1753078671,"current_range_meters":12400,"station_id":"ce4bhnp2rcd13ifvqgvg","pricing_plan_id":"cebpf4jnsgd1na2vs0mg"},{"bike_id":"818af348-8353-408a-a5a7-73a4f441ee47","system_id":"levelo_inurba_marseille","lat":43.31352,"lon":5.3848,"is_reserved":false,"is_disabled":false,"rental_uris":{"android":"levelo://app?vid=818af348-8353-408a-a5a7-73a4f441ee47","ios":"levelo://app?vid=818af348-8353-408a-a5a7-73a4f441ee47"},"vehicle_type_id":"4","last_reported":1753078671,"current_range_meters":12400,"station_id":"ce4bgt92rcd13ifvqcf0","pricing_plan_id":"cebpf4jnsgd1na2vs0mg"},{"bike_id":"ff304561-c8ce-4ac1-9008-9c7fa7a2d85b","system_id":"levelo_inurba_marseille","lat":43.29264,"lon":5.38441,"is_reserved":false,"is_disabled":true,"rental_uris":{"android":"levelo://app?vid=ff304561-c8ce-4ac1-9008-9c7fa7a2d85b","ios":"levelo://app?vid=ff304561-c8ce-4ac1-9008-9c7fa7a2d85b"},"vehicle_type_id":"4","last_reported":1753078671,"current_range_meters":12400,"station_id":"ce4bh692rcd13ifvqea0","pricing_plan_id":"cebpf4jnsgd1na2vs0mg"},{"bike_id":"cb331a89-56a6-4651-9865-7241cd4ca587","system_id":"levelo_inurba_marseille","lat":43.324731,"lon":5.365934,"is_reserved":false,"is_disabled":false,"rental_uris":{"android":"levelo://app?vid=cb331a89-56a6-4651-9865-7241cd4ca587","ios":"levelo://app?vid=cb331a89-56a6-4651-9865-7241cd4ca587"},"vehicle_type_id":"4","last_reported":1753078671,"current_range_meters":12400,"station_id":"ce4bhs12rcd13ifvqhvg","pricing_plan_id":"cebpf4jnsgd1na2vs0mg"},{"bike_id":"8eafeccf-ef09-43c0-9e3e-e74fecc1cfa1","system_id":"levelo_inurba_marseille","lat":43.290356,"lon":5.399576,"is_reserved":false,"is_disabled":false,"rental_uris":{"android":"levelo://app?vid=8eafeccf-ef09-43c0-9e3e-e74fecc1cfa1","ios":"levelo://app?vid=8eafeccf-ef09-43c0-9e3e-e74fecc1cfa1"},"vehicle_type_id":"4","last_reported":1753078671,"current_range_meters":12400,"station_id":"ce4bh392rcd13ifvqdm0","pricing_plan_id":"cebpf4jnsgd1na2vs0mg"},{"bike_id":"bdc1fd4b-3be2-43ec-8490-24512b54e93c","system_id":"levelo_inurba_marseille","lat":43.28867,"lon":5.39314,"is_reserved":false,"is_disabled":false,"rental_uris":{"android":"levelo://app?vid=bdc1fd4b-3be2-43ec-8490-24512b54e93c","ios":"levelo://app?vid=bdc1fd4b-3be2-43ec-8490-24512b54e93c"},"vehicle_type_id":"4","last_reported":1753078671,"current_range_meters":12400,"station_id":"ce4bh2p2rcd13ifvqdi0","pricing_plan_id":"cebpf4jnsgd1na2vs0mg"},{"bike_id":"53cb4f43-b1af-4efe-9f40-e0338804f4d4","system_id":"levelo_inurba_marseille","lat":43.31275,"lon":5.39061,"is_reserved":false,"is_disabled":false,"rental_uris":{"android":"levelo://app?vid=53cb4f43-b1af-4efe-9f40-e0338804f4d4","ios":"levelo://app?vid=53cb4f43-b1af-4efe-9f40-e0338804f4d4"},"vehicle_type_id":"4","last_reported":1753078671,"current_range_meters":12400,"station_id":"","pricing_plan_id":"cebpf4jnsgd1na2vs0mg"},{"bike_id":"0cb2c80a-7457-4a4a-ad92-f0361b5225d6","system_id":"levelo_inurba_marseille","lat":43.24413,"lon":5.37413,"is_reserved":false,"is_disabled":false,"rental_uris":{"android":"levelo://app?vid=0cb2c80a-7457-4a4a-ad92-f0361b5225d6","ios":"levelo://app?vid=0cb2c80a-7457-4a4a-ad92-f0361b5225d6"},"vehicle_type_id":"4","last_reported":1753078671,"current_range_meters":12400,"station_id":"","pricing_plan_id":"cebpf4jnsgd1na2vs0mg"},{"bike_id":"c3fbbd79-0d90-4c63-8b12-2bbe58e8c01e","system_id":"levelo_inurba_marseille","lat":43.30424,"lon":5.39748,"is_reserved":false,"is_disabled":false,"rental_uris":{"android":"levelo://app?vid=c3fbbd79-0d90-4c63-8b12-2bbe58e8c01e","ios":"levelo://app?vid=c3fbbd79-0d90-4c63-8b12-2bbe58e8c01e"},"vehicle_type_id":"4","last_reported":1753078671,"current_range_meters":12400,"station_id":"ce4bh092rcd13ifvqd20","pricing_plan_id":"cebpf4jnsgd1na2vs0mg"},{"bike_id":"89954574-8c17-4192-a9ff-7a3c7f4c8faa","system_id":"levelo_inurba_marseille","lat":43.279987,"lon":5.400227,"is_reserved":false,"is_disabled":false,"rental_uris":{"android":"levelo://app?vid=89954574-8c17-4192-a9ff-7a3c7f4c8faa","ios":"levelo://app?vid=89954574-8c17-4192-a9ff-7a3c7f4c8faa"},"vehicle_type_id":"4","last_reported":1753078671,"current_range_meters":12400,"station_id":"ce4bho92rcd13ifvqh4g","pricing_plan_id":"cebpf4jnsgd1na2vs0mg"},{"bike_id":"cb599135-ead6-44c9-b629-d9185cd1ffbf","system_id":"levelo_inurba_marseille","lat":43.32485,"lon":5.36558,"is_reserved":false,"is_disabled":false,"rental_uris":{"android":"levelo://app?vid=cb599135-ead6-44c9-b629-d9185cd1ffbf","ios":"levelo://app?vid=cb599135-ead6-44c9-b629-d9185cd1ffbf"},"vehicle_type_id":"4","last_reported":1753078671,"current_range_meters":12800,"station_id":"ce4bhs12rcd13ifvqhvg","pricing_plan_id":"cebpf4jnsgd1na2vs0mg"},{"bike_id":"341eec4e-ddcf-4f75-95c6-ecd84ef432ec","system_id":"levelo_inurba_marseille","lat":43.2292,"lon":5.35372,"is_reserved":false,"is_disabled":false,"rental_uris":{"android":"levelo://app?vid=341eec4e-ddcf-4f75-95c6-ecd84ef432ec","ios":"levelo://app?vid=341eec4e-ddcf-4f75-95c6-ecd84ef432ec"},"vehicle_type_id":"4","last_reported":1753078671,"current_range_meters":12800,"station_id":"cpo3532slgdg3j2ikp40","pricing_plan_id":"cebpf4jnsgd1na2vs0mg"},{"bike_id":"4c8283f7-9214-4f90-b93f-b371d5ff3abb","system_id":"levelo_inurba_marseille","lat":43.21209,"lon":5.35079,"is_reserved":false,"is_disabled":false,"rental_uris":{"android":"levelo://app?vid=4c8283f7-9214-4f90-b93f-b371d5ff3abb","ios":"levelo://app?vid=4c8283f7-9214-4f90-b93f-b371d5ff3abb"},"vehicle_type_id":"4","last_reported":1753078671,"current_range_meters":12800,"station_id":"st_cvj6sg6p6f1abm77japg","pricing_plan_id":"cebpf4jnsgd1na2vs0mg"},{"bike_id":"27f7a596-6914-46e0-aa3c-8eca9f5470d3","system_id":"levelo_inurba_marseille","lat":43.270658,"lon":5.402418,"is_reserved":false,"is_disabled":false,"rental_uris":{"android":"levelo://app?vid=27f7a596-6914-46e0-aa3c-8eca9f5470d3","ios":"levelo://app?vid=27f7a596-6914-46e0-aa3c-8eca9f5470d3"},"vehicle_type_id":"4","last_reported":1753078671,"current_range_meters":12800,"station_id":"ce4bhk92rcd13ifvqgc0","pricing_plan_id":"cebpf4jnsgd1na2vs0mg"},{"bike_id":"4e5823ac-9313-4e20-81da-720a18c2dac7","system_id":"levelo_inurba_marseille","lat":43.321162,"lon":5.367682,"is_reserved":false,"is_disabled":false,"rental_uris":{"android":"levelo://app?vid=4e5823ac-9313-4e20-81da-720a18c2dac7","ios":"levelo://app?vid=4e5823ac-9313-4e20-81da-720a18c2dac7"},"vehicle_type_id":"4","last_reported":1753078671,"current_range_meters":12800,"station_id":"ce4bhrh2rcd13ifvqhug","pricing_plan_id":"cebpf4jnsgd1na2vs0mg"},{"bike_id":"03772b11-05f4-48cd-b352-479340b3f53c","system_id":"levelo_inurba_marseille","lat":43.284773,"lon":5.384351,"is_reserved":false,"is_disabled":true,"rental_uris":{"android":"levelo://app?vid=03772b11-05f4-48cd-b352-479340b3f53c","ios":"levelo://app?vid=03772b11-05f4-48cd-b352-479340b3f53c"},"vehicle_type_id":"4","last_reported":1753078671,"current_range_meters":12800,"station_id":"ce4bh512rcd13ifvqe3g","pricing_plan_id":"cebpf4jnsgd1na2vs0mg"},{"bike_id":"42752829-3ee2-4e84-849d-429017304915","system_id":"levelo_inurba_marseille","lat":43.284709,"lon":5.358887,"is_reserved":false,"is_disabled":true,"rental_uris":{"android":"levelo://app?vid=42752829-3ee2-4e84-849d-429017304915","ios":"levelo://app?vid=42752829-3ee2-4e84-849d-429017304915"},"vehicle_type_id":"4","last_reported":1753078671,"current_range_meters":12800,"station_id":"ce4bhah2rcd13ifvqei0","pricing_plan_id":"cebpf4jnsgd1na2vs0mg"},{"bike_id":"4825f572-5606-4699-8c58-8ed13b8f359f","system_id":"levelo_inurba_marseille","lat":43.241682,"lon":5.36405,"is_reserved":false,"is_disabled":true,"rental_uris":{"android":"levelo://app?vid=4825f572-5606-4699-8c58-8ed13b8f359f","ios":"levelo://app?vid=4825f572-5606-4699-8c58-8ed13b8f359f"},"vehicle_type_id":"4","last_reported":1753078671,"current_range_meters":13600,"station_id":"cpo36qri1sfpv3e86is0","pricing_plan_id":"cebpf4jnsgd1na2vs0mg"},{"bike_id":"736c363b-3641-43dd-b890-bd43d8fd5283","system_id":"levelo_inurba_marseille","lat":43.2118,"lon":5.35074,"is_reserved":false,"is_disabled":false,"rental_uris":{"android":"levelo://app?vid=736c363b-3641-43dd-b890-bd43d8fd5283","ios":"levelo://app?vid=736c363b-3641-43dd-b890-bd43d8fd5283"},"vehicle_type_id":"4","last_reported":1753078671,"current_range_meters":13600,"station_id":"st_cvj6sg6p6f1abm77japg","pricing_plan_id":"cebpf4jnsgd1na2vs0mg"},{"bike_id":"f3f581c3-7fd6-46b6-b25c-df950de01306","system_id":"levelo_inurba_marseille","lat":43.287159,"lon":5.399829,"is_reserved":false,"is_disabled":false,"rental_uris":{"android":"levelo://app?vid=f3f581c3-7fd6-46b6-b25c-df950de01306","ios":"levelo://app?vid=f3f581c3-7fd6-46b6-b25c-df950de01306"},"vehicle_type_id":"4","last_reported":1753078671,"current_range_meters":13600,"station_id":"ce4bho92rcd13ifvqh3g","pricing_plan_id":"cebpf4jnsgd1na2vs0mg"},{"bike_id":"39c73ab5-aa84-4b41-a331-aa54fba87979","system_id":"levelo_inurba_marseille","lat":43.27075,"lon":5.42274,"is_reserved":false,"is_disabled":false,"rental_uris":{"android":"levelo://app?vid=39c73ab5-aa84-4b41-a331-aa54fba87979","ios":"levelo://app?vid=39c73ab5-aa84-4b41-a331-aa54fba87979"},"vehicle_type_id":"4","last_reported":1753078671,"current_range_meters":13600,"station_id":"ce4bhk92rcd13ifvqgb0","pricing_plan_id":"cebpf4jnsgd1na2vs0mg"},{"bike_id":"c82a52a4-3569-456f-8537-5f2257772393","system_id":"levelo_inurba_marseille","lat":43.28371,"lon":5.38617,"is_reserved":false,"is_disabled":false,"rental_uris":{"android":"levelo://app?vid=c82a52a4-3569-456f-8537-5f2257772393","ios":"levelo://app?vid=c82a52a4-3569-456f-8537-5f2257772393"},"vehicle_type_id":"4","last_reported":1753078671,"current_range_meters":13600,"station_id":"ce4bh492rcd13ifvqdvg","pricing_plan_id":"cebpf4jnsgd1na2vs0mg"},{"bike_id":"4355836e-ae99-4039-b85f-c4e239c9dca5","system_id":"levelo_inurba_marseille","lat":43.29888,"lon":5.43667,"is_reserved":false,"is_disabled":false,"rental_uris":{"android":"levelo://app?vid=4355836e-ae99-4039-b85f-c4e239c9dca5","ios":"levelo://app?vid=4355836e-ae99-4039-b85f-c4e239c9dca5"},"vehicle_type_id":"4","last_reported":1753078671,"current_range_meters":14000,"station_id":"ce4bhpp2rcd13ifvqhfg","pricing_plan_id":"cebpf4jnsgd1na2vs0mg"},{"bike_id":"e0785b12-a3f3-4d52-8157-2005b5688f24","system_id":"levelo_inurba_marseille","lat":43.287112,"lon":5.379354,"is_reserved":false,"is_disabled":false,"rental_uris":{"android":"levelo://app?vid=e0785b12-a3f3-4d52-8157-2005b5688f24","ios":"levelo://app?vid=e0785b12-a3f3-4d52-8157-2005b5688f24"},"vehicle_type_id":"4","last_reported":1753078671,"current_range_meters":14000,"station_id":"ce4bh9p2rcd13ifvqec0","pricing_plan_id":"cebpf4jnsgd1na2vs0mg"},{"bike_id":"61544ea3-a0b6-4fb1-9f76-fa48ec8fc6a3","system_id":"levelo_inurba_marseille","lat":43.302793,"lon":5.376953,"is_reserved":false,"is_disabled":false,"rental_uris":{"android":"levelo://app?vid=61544ea3-a0b6-4fb1-9f76-fa48ec8fc6a3","ios":"levelo://app?vid=61544ea3-a0b6-4fb1-9f76-fa48ec8fc6a3"},"vehicle_type_id":"4","last_reported":1753078671,"current_range_meters":14000,"station_id":"ce4bguh2rcd13ifvqcj0","pricing_plan_id":"cebpf4jnsgd1na2vs0mg"},{"bike_id":"7230cb4d-8cd2-4957-9d99-c27265ab6ce1","system_id":"levelo_inurba_marseille","lat":43.29299,"lon":5.37168,"is_reserved":false,"is_disabled":false,"rental_uris":{"android":"levelo://app?vid=7230cb4d-8cd2-4957-9d99-c27265ab6ce1","ios":"levelo://app?vid=7230cb4d-8cd2-4957-9d99-c27265ab6ce1"},"vehicle_type_id":"4","last_reported":1753078671,"current_range_meters":14000,"station_id":"","pricing_plan_id":"cebpf4jnsgd1na2vs0mg"},{"bike_id":"01ef6f38-0cb9-4831-9c9a-0f76f326e484","system_id":"levelo_inurba_marseille","lat":43.28999,"lon":5.356169,"is_reserved":false,"is_disabled":true,"rental_uris":{"android":"levelo://app?vid=01ef6f38-0cb9-4831-9c9a-0f76f326e484","ios":"levelo://app?vid=01ef6f38-0cb9-4831-9c9a-0f76f326e484"},"vehicle_type_id":"4","last_reported":1753078671,"current_range_meters":14400,"station_id":"ce4bhb92rcd13ifvqen0","pricing_plan_id":"cebpf4jnsgd1na2vs0mg"},{"bike_id":"1705f469-72b3-4b6b-a3ab-684dfcba22ca","system_id":"levelo_inurba_marseille","lat":43.26567,"lon":5.39002,"is_reserved":false,"is_disabled":false,"rental_uris":{"android":"levelo://app?vid=1705f469-72b3-4b6b-a3ab-684dfcba22ca","ios":"levelo://app?vid=1705f469-72b3-4b6b-a3ab-684dfcba22ca"},"vehicle_type_id":"4","last_reported":1753078671,"current_range_meters":14400,"station_id":"ce4bhe12rcd13ifvqf30","pricing_plan_id":"cebpf4jnsgd1na2vs0mg"},{"bike_id":"7a173a54-9897-4a65-8849-8cba105d2c35","system_id":"levelo_inurba_marseille","lat":43.31119,"lon":5.37767,"is_reserved":false,"is_disabled":false,"rental_uris":{"android":"levelo://app?vid=7a173a54-9897-4a65-8849-8cba105d2c35","ios":"levelo://app?vid=7a173a54-9897-4a65-8849-8cba105d2c35"},"vehicle_type_id":"4","last_reported":1753078671,"current_range_meters":14800,"station_id":"ce4bgt92rcd13ifvqcg0","pricing_plan_id":"cebpf4jnsgd1na2vs0mg"},{"bike_id":"3d36c590-bfb3-4f3d-a821-3b0275041fa7","system_id":"levelo_inurba_marseille","lat":43.304238,"lon":5.413039,"is_reserved":false,"is_disabled":false,"rental_uris":{"android":"levelo://app?vid=3d36c590-bfb3-4f3d-a821-3b0275041fa7","ios":"levelo://app?vid=3d36c590-bfb3-4f3d-a821-3b0275041fa7"},"vehicle_type_id":"4","last_reported":1753078671,"current_range_meters":14800,"station_id":"ce4bhop2rcd13ifvqh8g","pricing_plan_id":"cebpf4jnsgd1na2vs0mg"},{"bike_id":"8b70e333-db95-4dad-9f25-3f58617e52f2","system_id":"levelo_inurba_marseille","lat":43.29898,"lon":5.43644,"is_reserved":false,"is_disabled":false,"rental_uris":{"android":"levelo://app?vid=8b70e333-db95-4dad-9f25-3f58617e52f2","ios":"levelo://app?vid=8b70e333-db95-4dad-9f25-3f58617e52f2"},"vehicle_type_id":"4","last_reported":1753078671,"current_range_meters":14800,"station_id":"ce4bhpp2rcd13ifvqhfg","pricing_plan_id":"cebpf4jnsgd1na2vs0mg"},{"bike_id":"d2a9ef2a-3ecf-454e-ac8d-c81b3a196753","system_id":"levelo_inurba_marseille","lat":43.28623,"lon":5.3822,"is_reserved":false,"is_disabled":false,"rental_uris":{"android":"levelo://app?vid=d2a9ef2a-3ecf-454e-ac8d-c81b3a196753","ios":"levelo://app?vid=d2a9ef2a-3ecf-454e-ac8d-c81b3a196753"},"vehicle_type_id":"4","last_reported":1753078671,"current_range_meters":14800,"station_id":"","pricing_plan_id":"cebpf4jnsgd1na2vs0mg"},{"bike_id":"841226dc-d800-4af0-adb4-d3fc7c7cf8e8","system_id":"levelo_inurba_marseille","lat":43.29552,"lon":5.42298,"is_reserved":false,"is_disabled":true,"rental_uris":{"android":"levelo://app?vid=841226dc-d800-4af0-adb4-d3fc7c7cf8e8","ios":"levelo://app?vid=841226dc-d800-4af0-adb4-d3fc7c7cf8e8"},"vehicle_type_id":"4","last_reported":1753078671,"current_range_meters":14800,"station_id":"ce4bhph2rcd13ifvqhdg","pricing_plan_id":"cebpf4jnsgd1na2vs0mg"},{"bike_id":"c3108234-85f0-454a-b0a6-60fa8653d492","system_id":"levelo_inurba_marseille","lat":43.27064,"lon":5.42263,"is_reserved":false,"is_disabled":false,"rental_uris":{"android":"levelo://app?vid=c3108234-85f0-454a-b0a6-60fa8653d492","ios":"levelo://app?vid=c3108234-85f0-454a-b0a6-60fa8653d492"},"vehicle_type_id":"4","last_reported":1753078671,"current_range_meters":14800,"station_id":"ce4bhk92rcd13ifvqgb0","pricing_plan_id":"cebpf4jnsgd1na2vs0mg"},{"bike_id":"43e703c6-9907-49a0-ac06-2809026f4383","system_id":"levelo_inurba_marseille","lat":43.22499,"lon":5.34777,"is_reserved":false,"is_disabled":false,"rental_uris":{"android":"levelo://app?vid=43e703c6-9907-49a0-ac06-2809026f4383","ios":"levelo://app?vid=43e703c6-9907-49a0-ac06-2809026f4383"},"vehicle_type_id":"4","last_reported":1753078671,"current_range_meters":14800,"station_id":"st_cvj5dfep6f1abm77gieg","pricing_plan_id":"cebpf4jnsgd1na2vs0mg"},{"bike_id":"52fc553f-1e8c-4701-a604-31e90c76b1d4","system_id":"levelo_inurba_marseille","lat":43.31466,"lon":5.37327,"is_reserved":false,"is_disabled":false,"rental_uris":{"android":"levelo://app?vid=52fc553f-1e8c-4701-a604-31e90c76b1d4","ios":"levelo://app?vid=52fc553f-1e8c-4701-a604-31e90c76b1d4"},"vehicle_type_id":"4","last_reported":1753078671,"current_range_meters":15200,"station_id":"ce4bgt12rcd13ifvqcd0","pricing_plan_id":"cebpf4jnsgd1na2vs0mg"},{"bike_id":"4fd0694f-0d35-473d-a82b-3d5b06754cb4","system_id":"levelo_inurba_marseille","lat":43.32435,"lon":5.44897,"is_reserved":false,"is_disabled":false,"rental_uris":{"android":"levelo://app?vid=4fd0694f-0d35-473d-a82b-3d5b06754cb4","ios":"levelo://app?vid=4fd0694f-0d35-473d-a82b-3d5b06754cb4"},"vehicle_type_id":"4","last_reported":1753078671,"current_range_meters":15200,"station_id":"","pricing_plan_id":"cebpf4jnsgd1na2vs0mg"},{"bike_id":"b6380031-1931-4b9b-95e3-9731b8b81348","system_id":"levelo_inurba_marseille","lat":43.29765,"lon":5.37101,"is_reserved":false,"is_disabled":true,"rental_uris":{"android":"levelo://app?vid=b6380031-1931-4b9b-95e3-9731b8b81348","ios":"levelo://app?vid=b6380031-1931-4b9b-95e3-9731b8b81348"},"vehicle_type_id":"4","last_reported":1753078671,"current_range_meters":15200,"station_id":"ce4bgop2rcd13ifvqc1g","pricing_plan_id":"cebpf4jnsgd1na2vs0mg"},{"bike_id":"d100812f-9e77-4b3a-a11b-18211b570584","system_id":"levelo_inurba_marseille","lat":43.32465,"lon":5.36563,"is_reserved":false,"is_disabled":false,"rental_uris":{"android":"levelo://app?vid=d100812f-9e77-4b3a-a11b-18211b570584","ios":"levelo://app?vid=d100812f-9e77-4b3a-a11b-18211b570584"},"vehicle_type_id":"4","last_reported":1753078671,"current_range_meters":15200,"station_id":"ce4bhs12rcd13ifvqhvg","pricing_plan_id":"cebpf4jnsgd1na2vs0mg"},{"bike_id":"428abd34-efd3-468f-8690-edd428d4e84d","system_id":"levelo_inurba_marseille","lat":43.28159,"lon":5.42644,"is_reserved":false,"is_disabled":false,"rental_uris":{"android":"levelo://app?vid=428abd34-efd3-468f-8690-edd428d4e84d","ios":"levelo://app?vid=428abd34-efd3-468f-8690-edd428d4e84d"},"vehicle_type_id":"4","last_reported":1753078671,"current_range_meters":15200,"station_id":"ce4bhnh2rcd13ifvqgug","pricing_plan_id":"cebpf4jnsgd1na2vs0mg"},{"bike_id":"c47c4612-aa9a-40e0-9a78-5da247b20688","system_id":"levelo_inurba_marseille","lat":43.22505,"lon":5.34779,"is_reserved":false,"is_disabled":false,"rental_uris":{"android":"levelo://app?vid=c47c4612-aa9a-40e0-9a78-5da247b20688","ios":"levelo://app?vid=c47c4612-aa9a-40e0-9a78-5da247b20688"},"vehicle_type_id":"4","last_reported":1753078671,"current_range_meters":15200,"station_id":"st_cvj5dfep6f1abm77gieg","pricing_plan_id":"cebpf4jnsgd1na2vs0mg"},{"bike_id":"1bff2a07-f5ea-43a5-9113-6ab29a6a6cf8","system_id":"levelo_inurba_marseille","lat":43.31273,"lon":5.40155,"is_reserved":false,"is_disabled":false,"rental_uris":{"android":"levelo://app?vid=1bff2a07-f5ea-43a5-9113-6ab29a6a6cf8","ios":"levelo://app?vid=1bff2a07-f5ea-43a5-9113-6ab29a6a6cf8"},"vehicle_type_id":"4","last_reported":1753078671,"current_range_meters":16000,"station_id":"ce4bh092rcd13ifvqd30","pricing_plan_id":"cebpf4jnsgd1na2vs0mg"},{"bike_id":"6f26a76c-e266-4fba-94d6-363420aae210","system_id":"levelo_inurba_marseille","lat":43.304212,"lon":5.397561,"is_reserved":false,"is_disabled":false,"rental_uris":{"android":"levelo://app?vid=6f26a76c-e266-4fba-94d6-363420aae210","ios":"levelo://app?vid=6f26a76c-e266-4fba-94d6-363420aae210"},"vehicle_type_id":"4","last_reported":1753078671,"current_range_meters":16000,"station_id":"ce4bh092rcd13ifvqd20","pricing_plan_id":"cebpf4jnsgd1na2vs0mg"},{"bike_id":"474ac65d-bd8b-4629-a217-92eff3842408","system_id":"levelo_inurba_marseille","lat":43.29374,"lon":5.37859,"is_reserved":false,"is_disabled":false,"rental_uris":{"android":"levelo://app?vid=474ac65d-bd8b-4629-a217-92eff3842408","ios":"levelo://app?vid=474ac65d-bd8b-4629-a217-92eff3842408"},"vehicle_type_id":"4","last_reported":1753078671,"current_range_meters":16000,"station_id":"ce4bgjh2rcd13ifvqbf0","pricing_plan_id":"cebpf4jnsgd1na2vs0mg"},{"bike_id":"cba0a76f-9781-4d60-8f58-176edd478839","system_id":"levelo_inurba_marseille","lat":43.33751,"lon":5.3743,"is_reserved":false,"is_disabled":false,"rental_uris":{"android":"levelo://app?vid=cba0a76f-9781-4d60-8f58-176edd478839","ios":"levelo://app?vid=cba0a76f-9781-4d60-8f58-176edd478839"},"vehicle_type_id":"4","last_reported":1753078671,"current_range_meters":16000,"station_id":"","pricing_plan_id":"cebpf4jnsgd1na2vs0mg"},{"bike_id":"c9070665-9df3-4d88-9457-2dce5256ff0f","system_id":"levelo_inurba_marseille","lat":43.24056,"lon":5.37732,"is_reserved":false,"is_disabled":false,"rental_uris":{"android":"levelo://app?vid=c9070665-9df3-4d88-9457-2dce5256ff0f","ios":"levelo://app?vid=c9070665-9df3-4d88-9457-2dce5256ff0f"},"vehicle_type_id":"4","last_reported":1753078671,"current_range_meters":16000,"station_id":"ce4bhnp2rcd13ifvqgvg","pricing_plan_id":"cebpf4jnsgd1na2vs0mg"},{"bike_id":"ceb96c26-eaea-4088-a7bc-97e5808605fb","system_id":"levelo_inurba_marseille","lat":43.274231,"lon":5.39418,"is_reserved":false,"is_disabled":false,"rental_uris":{"android":"levelo://app?vid=ceb96c26-eaea-4088-a7bc-97e5808605fb","ios":"levelo://app?vid=ceb96c26-eaea-4088-a7bc-97e5808605fb"},"vehicle_type_id":"4","last_reported":1753078671,"current_range_meters":16000,"station_id":"ce4bhdp2rcd13ifvqf20","pricing_plan_id":"cebpf4jnsgd1na2vs0mg"},{"bike_id":"ac49738a-4d4f-43d3-9c67-46980e61ae95","system_id":"levelo_inurba_marseille","lat":43.31725,"lon":5.37703,"is_reserved":false,"is_disabled":false,"rental_uris":{"android":"levelo://app?vid=ac49738a-4d4f-43d3-9c67-46980e61ae95","ios":"levelo://app?vid=ac49738a-4d4f-43d3-9c67-46980e61ae95"},"vehicle_type_id":"4","last_reported":1753078671,"current_range_meters":16000,"station_id":"ce4bgth2rcd13ifvqch0","pricing_plan_id":"cebpf4jnsgd1na2vs0mg"},{"bike_id":"ff5bba57-6d14-4f97-bab2-4d71c3e63161","system_id":"levelo_inurba_marseille","lat":43.21193,"lon":5.35075,"is_reserved":false,"is_disabled":false,"rental_uris":{"android":"levelo://app?vid=ff5bba57-6d14-4f97-bab2-4d71c3e63161","ios":"levelo://app?vid=ff5bba57-6d14-4f97-bab2-4d71c3e63161"},"vehicle_type_id":"4","last_reported":1753078671,"current_range_meters":16400,"station_id":"st_cvj6sg6p6f1abm77japg","pricing_plan_id":"cebpf4jnsgd1na2vs0mg"},{"bike_id":"244230c4-fc1b-47ca-a384-ba61f28ab013","system_id":"levelo_inurba_marseille","lat":43.27207,"lon":5.39186,"is_reserved":false,"is_disabled":false,"rental_uris":{"android":"levelo://app?vid=244230c4-fc1b-47ca-a384-ba61f28ab013","ios":"levelo://app?vid=244230c4-fc1b-47ca-a384-ba61f28ab013"},"vehicle_type_id":"4","last_reported":1753078671,"current_range_meters":16400,"station_id":"ce4bhhp2rcd13ifvqfm0","pricing_plan_id":"cebpf4jnsgd1na2vs0mg"},{"bike_id":"551976cf-01df-4655-b8b6-f004d6681f19","system_id":"levelo_inurba_marseille","lat":43.270591,"lon":5.402599,"is_reserved":false,"is_disabled":true,"rental_uris":{"android":"levelo://app?vid=551976cf-01df-4655-b8b6-f004d6681f19","ios":"levelo://app?vid=551976cf-01df-4655-b8b6-f004d6681f19"},"vehicle_type_id":"4","last_reported":1753078671,"current_range_meters":16400,"station_id":"ce4bhk92rcd13ifvqgc0","pricing_plan_id":"cebpf4jnsgd1na2vs0mg"},{"bike_id":"19665075-1169-45a7-af41-9f1c346d2c17","system_id":"levelo_inurba_marseille","lat":43.23951,"lon":5.36662,"is_reserved":false,"is_disabled":true,"rental_uris":{"android":"levelo://app?vid=19665075-1169-45a7-af41-9f1c346d2c17","ios":"levelo://app?vid=19665075-1169-45a7-af41-9f1c346d2c17"},"vehicle_type_id":"4","last_reported":1753078671,"current_range_meters":16400,"station_id":"ce4bhi12rcd13ifvqfp0","pricing_plan_id":"cebpf4jnsgd1na2vs0mg"},{"bike_id":"25ba3407-5a3a-4241-bff3-f1bbd1fc5162","system_id":"levelo_inurba_marseille","lat":43.292554,"lon":5.409104,"is_reserved":false,"is_disabled":false,"rental_uris":{"android":"levelo://app?vid=25ba3407-5a3a-4241-bff3-f1bbd1fc5162","ios":"levelo://app?vid=25ba3407-5a3a-4241-bff3-f1bbd1fc5162"},"vehicle_type_id":"4","last_reported":1753078671,"current_range_meters":16400,"station_id":"ce4bh192rcd13ifvqdc0","pricing_plan_id":"cebpf4jnsgd1na2vs0mg"},{"bike_id":"a0d354d7-2bf5-4aec-8013-b95deff3ae53","system_id":"levelo_inurba_marseille","lat":43.2119,"lon":5.350769,"is_reserved":false,"is_disabled":false,"rental_uris":{"android":"levelo://app?vid=a0d354d7-2bf5-4aec-8013-b95deff3ae53","ios":"levelo://app?vid=a0d354d7-2bf5-4aec-8013-b95deff3ae53"},"vehicle_type_id":"4","last_reported":1753078671,"current_range_meters":16400,"station_id":"","pricing_plan_id":"cebpf4jnsgd1na2vs0mg"},{"bike_id":"178d0536-e2c6-4541-b83d-8283c0ff21e5","system_id":"levelo_inurba_marseille","lat":43.25936,"lon":5.40912,"is_reserved":false,"is_disabled":false,"rental_uris":{"android":"levelo://app?vid=178d0536-e2c6-4541-b83d-8283c0ff21e5","ios":"levelo://app?vid=178d0536-e2c6-4541-b83d-8283c0ff21e5"},"vehicle_type_id":"4","last_reported":1753078671,"current_range_meters":16400,"station_id":"ce4bhm92rcd13ifvqglg","pricing_plan_id":"cebpf4jnsgd1na2vs0mg"},{"bike_id":"3117258b-a0b2-4038-960e-7505313a6719","system_id":"levelo_inurba_marseille","lat":43.321103,"lon":5.3677,"is_reserved":false,"is_disabled":false,"rental_uris":{"android":"levelo://app?vid=3117258b-a0b2-4038-960e-7505313a6719","ios":"levelo://app?vid=3117258b-a0b2-4038-960e-7505313a6719"},"vehicle_type_id":"4","last_reported":1753078671,"current_range_meters":16400,"station_id":"ce4bhrh2rcd13ifvqhug","pricing_plan_id":"cebpf4jnsgd1na2vs0mg"},{"bike_id":"c695f162-6b42-40d7-8780-ed224e75f8e8","system_id":"levelo_inurba_marseille","lat":43.22824,"lon":5.34984,"is_reserved":false,"is_disabled":false,"rental_uris":{"android":"levelo://app?vid=c695f162-6b42-40d7-8780-ed224e75f8e8","ios":"levelo://app?vid=c695f162-6b42-40d7-8780-ed224e75f8e8"},"vehicle_type_id":"4","last_reported":1753078671,"current_range_meters":16400,"station_id":"","pricing_plan_id":"cebpf4jnsgd1na2vs0mg"},{"bike_id":"7f65ce50-53c3-4a03-9179-831deed16192","system_id":"levelo_inurba_marseille","lat":43.23201,"lon":5.3558,"is_reserved":false,"is_disabled":false,"rental_uris":{"android":"levelo://app?vid=7f65ce50-53c3-4a03-9179-831deed16192","ios":"levelo://app?vid=7f65ce50-53c3-4a03-9179-831deed16192"},"vehicle_type_id":"4","last_reported":1753078671,"current_range_meters":16400,"station_id":"ce4bhu92rcd13ifvqi70","pricing_plan_id":"cebpf4jnsgd1na2vs0mg"},{"bike_id":"a150e1d6-c311-468e-81dc-881f6dfaeb28","system_id":"levelo_inurba_marseille","lat":43.23207,"lon":5.35558,"is_reserved":false,"is_disabled":false,"rental_uris":{"android":"levelo://app?vid=a150e1d6-c311-468e-81dc-881f6dfaeb28","ios":"levelo://app?vid=a150e1d6-c311-468e-81dc-881f6dfaeb28"},"vehicle_type_id":"4","last_reported":1753078671,"current_range_meters":16400,"station_id":"ce4bhu92rcd13ifvqi70","pricing_plan_id":"cebpf4jnsgd1na2vs0mg"},{"bike_id":"ef5bec01-1508-4f8d-9a81-91129dfbdd34","system_id":"levelo_inurba_marseille","lat":43.25165,"lon":5.4036,"is_reserved":false,"is_disabled":false,"rental_uris":{"android":"levelo://app?vid=ef5bec01-1508-4f8d-9a81-91129dfbdd34","ios":"levelo://app?vid=ef5bec01-1508-4f8d-9a81-91129dfbdd34"},"vehicle_type_id":"4","last_reported":1753078671,"current_range_meters":16400,"station_id":"","pricing_plan_id":"cebpf4jnsgd1na2vs0mg"},{"bike_id":"02bda465-5730-4d42-a0d1-5ffc89217a3f","system_id":"levelo_inurba_marseille","lat":43.28258,"lon":5.35066,"is_reserved":false,"is_disabled":false,"rental_uris":{"android":"levelo://app?vid=02bda465-5730-4d42-a0d1-5ffc89217a3f","ios":"levelo://app?vid=02bda465-5730-4d42-a0d1-5ffc89217a3f"},"vehicle_type_id":"4","last_reported":1753078671,"current_range_meters":16400,"station_id":"","pricing_plan_id":"cebpf4jnsgd1na2vs0mg"},{"bike_id":"57abbde9-9ee5-483b-8063-641c82b7c2e7","system_id":"levelo_inurba_marseille","lat":43.23188,"lon":5.3999,"is_reserved":false,"is_disabled":false,"rental_uris":{"android":"levelo://app?vid=57abbde9-9ee5-483b-8063-641c82b7c2e7","ios":"levelo://app?vid=57abbde9-9ee5-483b-8063-641c82b7c2e7"},"vehicle_type_id":"4","last_reported":1753078671,"current_range_meters":16400,"station_id":"ce4bhn12rcd13ifvqgqg","pricing_plan_id":"cebpf4jnsgd1na2vs0mg"},{"bike_id":"8ec3987c-4e5e-4f67-aba7-96e36709e826","system_id":"levelo_inurba_marseille","lat":43.32717,"lon":5.41002,"is_reserved":false,"is_disabled":false,"rental_uris":{"android":"levelo://app?vid=8ec3987c-4e5e-4f67-aba7-96e36709e826","ios":"levelo://app?vid=8ec3987c-4e5e-4f67-aba7-96e36709e826"},"vehicle_type_id":"4","last_reported":1753078671,"current_range_meters":16400,"station_id":"","pricing_plan_id":"cebpf4jnsgd1na2vs0mg"},{"bike_id":"e1183c21-e307-44ba-8e82-6accb247eae0","system_id":"levelo_inurba_marseille","lat":43.29038,"lon":5.39965,"is_reserved":false,"is_disabled":false,"rental_uris":{"android":"levelo://app?vid=e1183c21-e307-44ba-8e82-6accb247eae0","ios":"levelo://app?vid=e1183c21-e307-44ba-8e82-6accb247eae0"},"vehicle_type_id":"4","last_reported":1753078671,"current_range_meters":16800,"station_id":"ce4bh392rcd13ifvqdm0","pricing_plan_id":"cebpf4jnsgd1na2vs0mg"},{"bike_id":"b7e0d1c7-c592-40ed-8a46-5c539fa1d393","system_id":"levelo_inurba_marseille","lat":43.301342,"lon":5.398634,"is_reserved":false,"is_disabled":false,"rental_uris":{"android":"levelo://app?vid=b7e0d1c7-c592-40ed-8a46-5c539fa1d393","ios":"levelo://app?vid=b7e0d1c7-c592-40ed-8a46-5c539fa1d393"},"vehicle_type_id":"4","last_reported":1753078671,"current_range_meters":16800,"station_id":"ce4bh0h2rcd13ifvqd40","pricing_plan_id":"cebpf4jnsgd1na2vs0mg"},{"bike_id":"d2547933-ca48-418a-b2e1-db528c786820","system_id":"levelo_inurba_marseille","lat":43.23206,"lon":5.35542,"is_reserved":false,"is_disabled":false,"rental_uris":{"android":"levelo://app?vid=d2547933-ca48-418a-b2e1-db528c786820","ios":"levelo://app?vid=d2547933-ca48-418a-b2e1-db528c786820"},"vehicle_type_id":"4","last_reported":1753078671,"current_range_meters":16800,"station_id":"ce4bhu92rcd13ifvqi70","pricing_plan_id":"cebpf4jnsgd1na2vs0mg"},{"bike_id":"ea8732f4-0a6d-48aa-9a2f-8257067a4a7d","system_id":"levelo_inurba_marseille","lat":43.31486,"lon":5.3729,"is_reserved":false,"is_disabled":false,"rental_uris":{"android":"levelo://app?vid=ea8732f4-0a6d-48aa-9a2f-8257067a4a7d","ios":"levelo://app?vid=ea8732f4-0a6d-48aa-9a2f-8257067a4a7d"},"vehicle_type_id":"4","last_reported":1753078671,"current_range_meters":16800,"station_id":"ce4bgt12rcd13ifvqcd0","pricing_plan_id":"cebpf4jnsgd1na2vs0mg"},{"bike_id":"ecdfd721-9355-47ec-bb72-adc3ee5af59a","system_id":"levelo_inurba_marseille","lat":43.27187,"lon":5.4098,"is_reserved":false,"is_disabled":false,"rental_uris":{"android":"levelo://app?vid=ecdfd721-9355-47ec-bb72-adc3ee5af59a","ios":"levelo://app?vid=ecdfd721-9355-47ec-bb72-adc3ee5af59a"},"vehicle_type_id":"4","last_reported":1753078671,"current_range_meters":16800,"station_id":"ce4bhl12rcd13ifvqgf0","pricing_plan_id":"cebpf4jnsgd1na2vs0mg"},{"bike_id":"15859cd3-d785-4a8f-ae1f-8acb5a6b79a4","system_id":"levelo_inurba_marseille","lat":43.23219,"lon":5.35527,"is_reserved":false,"is_disabled":true,"rental_uris":{"android":"levelo://app?vid=15859cd3-d785-4a8f-ae1f-8acb5a6b79a4","ios":"levelo://app?vid=15859cd3-d785-4a8f-ae1f-8acb5a6b79a4"},"vehicle_type_id":"4","last_reported":1753078671,"current_range_meters":16800,"station_id":"ce4bhu92rcd13ifvqi70","pricing_plan_id":"cebpf4jnsgd1na2vs0mg"},{"bike_id":"42c6daca-a04f-4385-b335-d79919ebfbf3","system_id":"levelo_inurba_marseille","lat":43.32472,"lon":5.36566,"is_reserved":false,"is_disabled":false,"rental_uris":{"android":"levelo://app?vid=42c6daca-a04f-4385-b335-d79919ebfbf3","ios":"levelo://app?vid=42c6daca-a04f-4385-b335-d79919ebfbf3"},"vehicle_type_id":"4","last_reported":1753078671,"current_range_meters":16800,"station_id":"ce4bhs12rcd13ifvqhvg","pricing_plan_id":"cebpf4jnsgd1na2vs0mg"},{"bike_id":"1c22819b-ef69-41c3-af80-068c7a58af48","system_id":"levelo_inurba_marseille","lat":43.321075,"lon":5.367847,"is_reserved":false,"is_disabled":false,"rental_uris":{"android":"levelo://app?vid=1c22819b-ef69-41c3-af80-068c7a58af48","ios":"levelo://app?vid=1c22819b-ef69-41c3-af80-068c7a58af48"},"vehicle_type_id":"4","last_reported":1753078671,"current_range_meters":16800,"station_id":"ce4bhrh2rcd13ifvqhug","pricing_plan_id":"cebpf4jnsgd1na2vs0mg"},{"bike_id":"50d16da1-39af-48c8-9080-8fc1a2184959","system_id":"levelo_inurba_marseille","lat":43.211916,"lon":5.350736,"is_reserved":false,"is_disabled":false,"rental_uris":{"android":"levelo://app?vid=50d16da1-39af-48c8-9080-8fc1a2184959","ios":"levelo://app?vid=50d16da1-39af-48c8-9080-8fc1a2184959"},"vehicle_type_id":"4","last_reported":1753078671,"current_range_meters":16800,"station_id":"st_cvj6sg6p6f1abm77japg","pricing_plan_id":"cebpf4jnsgd1na2vs0mg"},{"bike_id":"5a42e90a-94ef-4a1b-b43d-3c279f1b53e1","system_id":"levelo_inurba_marseille","lat":43.231901,"lon":5.355554,"is_reserved":false,"is_disabled":false,"rental_uris":{"android":"levelo://app?vid=5a42e90a-94ef-4a1b-b43d-3c279f1b53e1","ios":"levelo://app?vid=5a42e90a-94ef-4a1b-b43d-3c279f1b53e1"},"vehicle_type_id":"4","last_reported":1753078671,"current_range_meters":16800,"station_id":"ce4bhu92rcd13ifvqi70","pricing_plan_id":"cebpf4jnsgd1na2vs0mg"},{"bike_id":"d778a561-0abe-4676-9dca-d85a214615cb","system_id":"levelo_inurba_marseille","lat":43.337743,"lon":5.374289,"is_reserved":false,"is_disabled":false,"rental_uris":{"android":"levelo://app?vid=d778a561-0abe-4676-9dca-d85a214615cb","ios":"levelo://app?vid=d778a561-0abe-4676-9dca-d85a214615cb"},"vehicle_type_id":"4","last_reported":1753078671,"current_range_meters":17200,"station_id":"","pricing_plan_id":"cebpf4jnsgd1na2vs0mg"},{"bike_id":"9712abd4-d23f-44a8-af60-9dfddebb10eb","system_id":"levelo_inurba_marseille","lat":43.32479,"lon":5.36568,"is_reserved":false,"is_disabled":false,"rental_uris":{"android":"levelo://app?vid=9712abd4-d23f-44a8-af60-9dfddebb10eb","ios":"levelo://app?vid=9712abd4-d23f-44a8-af60-9dfddebb10eb"},"vehicle_type_id":"4","last_reported":1753078671,"current_range_meters":17200,"station_id":"ce4bhs12rcd13ifvqhvg","pricing_plan_id":"cebpf4jnsgd1na2vs0mg"},{"bike_id":"c4ddf749-008b-4a14-af16-f3a13a431402","system_id":"levelo_inurba_marseille","lat":43.211864,"lon":5.350789,"is_reserved":false,"is_disabled":false,"rental_uris":{"android":"levelo://app?vid=c4ddf749-008b-4a14-af16-f3a13a431402","ios":"levelo://app?vid=c4ddf749-008b-4a14-af16-f3a13a431402"},"vehicle_type_id":"4","last_reported":1753078671,"current_range_meters":17200,"station_id":"st_cvj6sg6p6f1abm77japg","pricing_plan_id":"cebpf4jnsgd1na2vs0mg"},{"bike_id":"85414a3a-8e19-4139-9cbb-1bedd74e2ef2","system_id":"levelo_inurba_marseille","lat":43.2321,"lon":5.35553,"is_reserved":false,"is_disabled":false,"rental_uris":{"android":"levelo://app?vid=85414a3a-8e19-4139-9cbb-1bedd74e2ef2","ios":"levelo://app?vid=85414a3a-8e19-4139-9cbb-1bedd74e2ef2"},"vehicle_type_id":"4","last_reported":1753078671,"current_range_meters":17200,"station_id":"ce4bhu92rcd13ifvqi70","pricing_plan_id":"cebpf4jnsgd1na2vs0mg"},{"bike_id":"6cf1ed0c-445d-47e0-a831-c7549e62beed","system_id":"levelo_inurba_marseille","lat":43.304484,"lon":5.388958,"is_reserved":false,"is_disabled":true,"rental_uris":{"android":"levelo://app?vid=6cf1ed0c-445d-47e0-a831-c7549e62beed","ios":"levelo://app?vid=6cf1ed0c-445d-47e0-a831-c7549e62beed"},"vehicle_type_id":"4","last_reported":1753078671,"current_range_meters":17200,"station_id":"ce4bgk12rcd13ifvqbi0","pricing_plan_id":"cebpf4jnsgd1na2vs0mg"},{"bike_id":"8e7beff7-775d-4a5d-a875-86c3add653bc","system_id":"levelo_inurba_marseille","lat":43.2872,"lon":5.39953,"is_reserved":false,"is_disabled":false,"rental_uris":{"android":"levelo://app?vid=8e7beff7-775d-4a5d-a875-86c3add653bc","ios":"levelo://app?vid=8e7beff7-775d-4a5d-a875-86c3add653bc"},"vehicle_type_id":"4","last_reported":1753078671,"current_range_meters":17200,"station_id":"ce4bho92rcd13ifvqh3g","pricing_plan_id":"cebpf4jnsgd1na2vs0mg"},{"bike_id":"a95607eb-463b-4cda-a224-f545762ec41b","system_id":"levelo_inurba_marseille","lat":43.294262,"lon":5.385989,"is_reserved":false,"is_disabled":false,"rental_uris":{"android":"levelo://app?vid=a95607eb-463b-4cda-a224-f545762ec41b","ios":"levelo://app?vid=a95607eb-463b-4cda-a224-f545762ec41b"},"vehicle_type_id":"4","last_reported":1753078671,"current_range_meters":17200,"station_id":"ce4bh2h2rcd13ifvqdh0","pricing_plan_id":"cebpf4jnsgd1na2vs0mg"},{"bike_id":"055a12f0-dad3-4df2-b0f9-1cb950dc4471","system_id":"levelo_inurba_marseille","lat":43.29423,"lon":5.38605,"is_reserved":false,"is_disabled":false,"rental_uris":{"android":"levelo://app?vid=055a12f0-dad3-4df2-b0f9-1cb950dc4471","ios":"levelo://app?vid=055a12f0-dad3-4df2-b0f9-1cb950dc4471"},"vehicle_type_id":"4","last_reported":1753078671,"current_range_meters":17200,"station_id":"ce4bh2h2rcd13ifvqdh0","pricing_plan_id":"cebpf4jnsgd1na2vs0mg"},{"bike_id":"c4324aff-291c-4a78-bd83-b065cd60e8d1","system_id":"levelo_inurba_marseille","lat":43.231961,"lon":5.355445,"is_reserved":false,"is_disabled":false,"rental_uris":{"android":"levelo://app?vid=c4324aff-291c-4a78-bd83-b065cd60e8d1","ios":"levelo://app?vid=c4324aff-291c-4a78-bd83-b065cd60e8d1"},"vehicle_type_id":"4","last_reported":1753078671,"current_range_meters":17200,"station_id":"ce4bhu92rcd13ifvqi70","pricing_plan_id":"cebpf4jnsgd1na2vs0mg"},{"bike_id":"b2450978-2353-4d4d-93bd-ec44ae81fd08","system_id":"levelo_inurba_marseille","lat":43.288361,"lon":5.393258,"is_reserved":false,"is_disabled":false,"rental_uris":{"android":"levelo://app?vid=b2450978-2353-4d4d-93bd-ec44ae81fd08","ios":"levelo://app?vid=b2450978-2353-4d4d-93bd-ec44ae81fd08"},"vehicle_type_id":"4","last_reported":1753078671,"current_range_meters":17200,"station_id":"ce4bh2p2rcd13ifvqdi0","pricing_plan_id":"cebpf4jnsgd1na2vs0mg"},{"bike_id":"3865ff14-736d-4b19-8f7c-e2d5e48a50d2","system_id":"levelo_inurba_marseille","lat":43.32366,"lon":5.38885,"is_reserved":false,"is_disabled":false,"rental_uris":{"android":"levelo://app?vid=3865ff14-736d-4b19-8f7c-e2d5e48a50d2","ios":"levelo://app?vid=3865ff14-736d-4b19-8f7c-e2d5e48a50d2"},"vehicle_type_id":"4","last_reported":1753078671,"current_range_meters":17200,"station_id":"ce4bhqp2rcd13ifvqhog","pricing_plan_id":"cebpf4jnsgd1na2vs0mg"},{"bike_id":"ab67d62d-583f-4f74-976b-3e9f5750f312","system_id":"levelo_inurba_marseille","lat":43.29704,"lon":5.36586,"is_reserved":false,"is_disabled":false,"rental_uris":{"android":"levelo://app?vid=ab67d62d-583f-4f74-976b-3e9f5750f312","ios":"levelo://app?vid=ab67d62d-583f-4f74-976b-3e9f5750f312"},"vehicle_type_id":"4","last_reported":1753078671,"current_range_meters":17200,"station_id":"ce4bgn12rcd13ifvqbt0","pricing_plan_id":"cebpf4jnsgd1na2vs0mg"},{"bike_id":"9b3aacf5-1c8a-44ba-830c-34d695c8f727","system_id":"levelo_inurba_marseille","lat":43.261888,"lon":5.37451,"is_reserved":false,"is_disabled":true,"rental_uris":{"android":"levelo://app?vid=9b3aacf5-1c8a-44ba-830c-34d695c8f727","ios":"levelo://app?vid=9b3aacf5-1c8a-44ba-830c-34d695c8f727"},"vehicle_type_id":"4","last_reported":1753078671,"current_range_meters":17600,"station_id":"ce4bhgp2rcd13ifvqfc0","pricing_plan_id":"cebpf4jnsgd1na2vs0mg"},{"bike_id":"144d9ad2-f769-4753-8844-45fa575c03d8","system_id":"levelo_inurba_marseille","lat":43.29096,"lon":5.381701,"is_reserved":false,"is_disabled":true,"rental_uris":{"android":"levelo://app?vid=144d9ad2-f769-4753-8844-45fa575c03d8","ios":"levelo://app?vid=144d9ad2-f769-4753-8844-45fa575c03d8"},"vehicle_type_id":"4","last_reported":1753078671,"current_range_meters":17600,"station_id":"ce4bh512rcd13ifvqe2g","pricing_plan_id":"cebpf4jnsgd1na2vs0mg"},{"bike_id":"1edc5d4d-3e64-4fb9-b4f7-7e8ca62c6eba","system_id":"levelo_inurba_marseille","lat":43.23195,"lon":5.39963,"is_reserved":false,"is_disabled":false,"rental_uris":{"android":"levelo://app?vid=1edc5d4d-3e64-4fb9-b4f7-7e8ca62c6eba","ios":"levelo://app?vid=1edc5d4d-3e64-4fb9-b4f7-7e8ca62c6eba"},"vehicle_type_id":"4","last_reported":1753078671,"current_range_meters":17600,"station_id":"ce4bhn12rcd13ifvqgqg","pricing_plan_id":"cebpf4jnsgd1na2vs0mg"},{"bike_id":"4faa3c8e-9b5a-4d55-aebc-2e52610bf132","system_id":"levelo_inurba_marseille","lat":43.326415,"lon":5.423475,"is_reserved":false,"is_disabled":false,"rental_uris":{"android":"levelo://app?vid=4faa3c8e-9b5a-4d55-aebc-2e52610bf132","ios":"levelo://app?vid=4faa3c8e-9b5a-4d55-aebc-2e52610bf132"},"vehicle_type_id":"4","last_reported":1753078671,"current_range_meters":17600,"station_id":"","pricing_plan_id":"cebpf4jnsgd1na2vs0mg"},{"bike_id":"8423e589-47bf-47a8-b90f-452fc938c46b","system_id":"levelo_inurba_marseille","lat":43.323642,"lon":5.367671,"is_reserved":false,"is_disabled":false,"rental_uris":{"android":"levelo://app?vid=8423e589-47bf-47a8-b90f-452fc938c46b","ios":"levelo://app?vid=8423e589-47bf-47a8-b90f-452fc938c46b"},"vehicle_type_id":"4","last_reported":1753078671,"current_range_meters":17600,"station_id":"ce4bhsh2rcd13ifvqi2g","pricing_plan_id":"cebpf4jnsgd1na2vs0mg"},{"bike_id":"c5b002c8-7323-459c-85b1-2c49f242ef67","system_id":"levelo_inurba_marseille","lat":43.305083,"lon":5.393041,"is_reserved":false,"is_disabled":false,"rental_uris":{"android":"levelo://app?vid=c5b002c8-7323-459c-85b1-2c49f242ef67","ios":"levelo://app?vid=c5b002c8-7323-459c-85b1-2c49f242ef67"},"vehicle_type_id":"4","last_reported":1753078671,"current_range_meters":17600,"station_id":"","pricing_plan_id":"cebpf4jnsgd1na2vs0mg"},{"bike_id":"2d6095ea-f882-494d-a187-fa879408181e","system_id":"levelo_inurba_marseille","lat":43.25168,"lon":5.3736,"is_reserved":false,"is_disabled":false,"rental_uris":{"android":"levelo://app?vid=2d6095ea-f882-494d-a187-fa879408181e","ios":"levelo://app?vid=2d6095ea-f882-494d-a187-fa879408181e"},"vehicle_type_id":"4","last_reported":1753078671,"current_range_meters":17600,"station_id":"","pricing_plan_id":"cebpf4jnsgd1na2vs0mg"},{"bike_id":"e10dc17e-f970-454b-96c8-f9a38fee430d","system_id":"levelo_inurba_marseille","lat":43.33755,"lon":5.37485,"is_reserved":false,"is_disabled":false,"rental_uris":{"android":"levelo://app?vid=e10dc17e-f970-454b-96c8-f9a38fee430d","ios":"levelo://app?vid=e10dc17e-f970-454b-96c8-f9a38fee430d"},"vehicle_type_id":"4","last_reported":1753078671,"current_range_meters":18000,"station_id":"","pricing_plan_id":"cebpf4jnsgd1na2vs0mg"},{"bike_id":"402aa937-20f3-4a3d-a8f3-5a18633f6a79","system_id":"levelo_inurba_marseille","lat":43.306077,"lon":5.37204,"is_reserved":false,"is_disabled":false,"rental_uris":{"android":"levelo://app?vid=402aa937-20f3-4a3d-a8f3-5a18633f6a79","ios":"levelo://app?vid=402aa937-20f3-4a3d-a8f3-5a18633f6a79"},"vehicle_type_id":"4","last_reported":1753078671,"current_range_meters":18000,"station_id":"ce4bgqh2rcd13ifvqc4g","pricing_plan_id":"cebpf4jnsgd1na2vs0mg"},{"bike_id":"11896e7e-541b-43da-adf5-78ad222cf7a2","system_id":"levelo_inurba_marseille","lat":43.231982,"lon":5.355539,"is_reserved":false,"is_disabled":false,"rental_uris":{"android":"levelo://app?vid=11896e7e-541b-43da-adf5-78ad222cf7a2","ios":"levelo://app?vid=11896e7e-541b-43da-adf5-78ad222cf7a2"},"vehicle_type_id":"4","last_reported":1753078671,"current_range_meters":18000,"station_id":"ce4bhu92rcd13ifvqi70","pricing_plan_id":"cebpf4jnsgd1na2vs0mg"},{"bike_id":"4e3a9934-4f1f-44fc-83db-2f3d83ae9d8d","system_id":"levelo_inurba_marseille","lat":43.28355,"lon":5.41538,"is_reserved":false,"is_disabled":true,"rental_uris":{"android":"levelo://app?vid=4e3a9934-4f1f-44fc-83db-2f3d83ae9d8d","ios":"levelo://app?vid=4e3a9934-4f1f-44fc-83db-2f3d83ae9d8d"},"vehicle_type_id":"4","last_reported":1753078671,"current_range_meters":18800,"station_id":"","pricing_plan_id":"cebpf4jnsgd1na2vs0mg"},{"bike_id":"b6191c96-af83-462f-a3cc-e4778a781fff","system_id":"levelo_inurba_marseille","lat":43.211872,"lon":5.350684,"is_reserved":false,"is_disabled":false,"rental_uris":{"android":"levelo://app?vid=b6191c96-af83-462f-a3cc-e4778a781fff","ios":"levelo://app?vid=b6191c96-af83-462f-a3cc-e4778a781fff"},"vehicle_type_id":"4","last_reported":1753078671,"current_range_meters":18800,"station_id":"st_cvj6sg6p6f1abm77japg","pricing_plan_id":"cebpf4jnsgd1na2vs0mg"},{"bike_id":"383b9b1c-f5ef-4dd0-80b8-e2514dc6b601","system_id":"levelo_inurba_marseille","lat":43.27989,"lon":5.40012,"is_reserved":false,"is_disabled":false,"rental_uris":{"android":"levelo://app?vid=383b9b1c-f5ef-4dd0-80b8-e2514dc6b601","ios":"levelo://app?vid=383b9b1c-f5ef-4dd0-80b8-e2514dc6b601"},"vehicle_type_id":"4","last_reported":1753078671,"current_range_meters":18800,"station_id":"","pricing_plan_id":"cebpf4jnsgd1na2vs0mg"},{"bike_id":"91faf937-6768-4101-98da-411036d125c4","system_id":"levelo_inurba_marseille","lat":43.22951,"lon":5.35351,"is_reserved":false,"is_disabled":false,"rental_uris":{"android":"levelo://app?vid=91faf937-6768-4101-98da-411036d125c4","ios":"levelo://app?vid=91faf937-6768-4101-98da-411036d125c4"},"vehicle_type_id":"4","last_reported":1753078671,"current_range_meters":18800,"station_id":"cpo3532slgdg3j2ikp40","pricing_plan_id":"cebpf4jnsgd1na2vs0mg"},{"bike_id":"1ef2503f-ea41-4c4a-a986-942aff558f83","system_id":"levelo_inurba_marseille","lat":43.31696,"lon":5.40479,"is_reserved":false,"is_disabled":false,"rental_uris":{"android":"levelo://app?vid=1ef2503f-ea41-4c4a-a986-942aff558f83","ios":"levelo://app?vid=1ef2503f-ea41-4c4a-a986-942aff558f83"},"vehicle_type_id":"4","last_reported":1753078671,"current_range_meters":18800,"station_id":"ce4bh012rcd13ifvqd00","pricing_plan_id":"cebpf4jnsgd1na2vs0mg"},{"bike_id":"cf9c41eb-f80c-493b-b928-bdee1491bffb","system_id":"levelo_inurba_marseille","lat":43.31485,"lon":5.37309,"is_reserved":false,"is_disabled":false,"rental_uris":{"android":"levelo://app?vid=cf9c41eb-f80c-493b-b928-bdee1491bffb","ios":"levelo://app?vid=cf9c41eb-f80c-493b-b928-bdee1491bffb"},"vehicle_type_id":"4","last_reported":1753078671,"current_range_meters":18800,"station_id":"ce4bgt12rcd13ifvqcd0","pricing_plan_id":"cebpf4jnsgd1na2vs0mg"},{"bike_id":"cca108d3-2823-4bde-876c-9ba8667f69df","system_id":"levelo_inurba_marseille","lat":43.283006,"lon":5.433189,"is_reserved":false,"is_disabled":false,"rental_uris":{"android":"levelo://app?vid=cca108d3-2823-4bde-876c-9ba8667f69df","ios":"levelo://app?vid=cca108d3-2823-4bde-876c-9ba8667f69df"},"vehicle_type_id":"4","last_reported":1753078671,"current_range_meters":18800,"station_id":"","pricing_plan_id":"cebpf4jnsgd1na2vs0mg"},{"bike_id":"ccb3a2c1-5335-4346-b5bb-08cb08061e0e","system_id":"levelo_inurba_marseille","lat":43.297777,"lon":5.381044,"is_reserved":false,"is_disabled":true,"rental_uris":{"android":"levelo://app?vid=ccb3a2c1-5335-4346-b5bb-08cb08061e0e","ios":"levelo://app?vid=ccb3a2c1-5335-4346-b5bb-08cb08061e0e"},"vehicle_type_id":"4","last_reported":1753078671,"current_range_meters":18800,"station_id":"ce4bgip2rcd13ifvqbb0","pricing_plan_id":"cebpf4jnsgd1na2vs0mg"},{"bike_id":"728755e2-24c8-4bba-8ded-523c5feb93fd","system_id":"levelo_inurba_marseille","lat":43.310752,"lon":5.38356,"is_reserved":false,"is_disabled":false,"rental_uris":{"android":"levelo://app?vid=728755e2-24c8-4bba-8ded-523c5feb93fd","ios":"levelo://app?vid=728755e2-24c8-4bba-8ded-523c5feb93fd"},"vehicle_type_id":"4","last_reported":1753078671,"current_range_meters":18800,"station_id":"ce4bgv92rcd13ifvqcr0","pricing_plan_id":"cebpf4jnsgd1na2vs0mg"},{"bike_id":"5d8faae4-e96a-4185-aca5-13454c7a14ac","system_id":"levelo_inurba_marseille","lat":43.28696,"lon":5.37878,"is_reserved":false,"is_disabled":false,"rental_uris":{"android":"levelo://app?vid=5d8faae4-e96a-4185-aca5-13454c7a14ac","ios":"levelo://app?vid=5d8faae4-e96a-4185-aca5-13454c7a14ac"},"vehicle_type_id":"4","last_reported":1753078671,"current_range_meters":18800,"station_id":"","pricing_plan_id":"cebpf4jnsgd1na2vs0mg"},{"bike_id":"4d2fb385-600a-460f-817d-c81c8838ad28","system_id":"levelo_inurba_marseille","lat":43.323628,"lon":5.367474,"is_reserved":false,"is_disabled":false,"rental_uris":{"android":"levelo://app?vid=4d2fb385-600a-460f-817d-c81c8838ad28","ios":"levelo://app?vid=4d2fb385-600a-460f-817d-c81c8838ad28"},"vehicle_type_id":"4","last_reported":1753078671,"current_range_meters":19200,"station_id":"ce4bhsh2rcd13ifvqi2g","pricing_plan_id":"cebpf4jnsgd1na2vs0mg"},{"bike_id":"298d7476-28c7-4c61-8302-df95a7d5d3d6","system_id":"levelo_inurba_marseille","lat":43.22509,"lon":5.34747,"is_reserved":false,"is_disabled":false,"rental_uris":{"android":"levelo://app?vid=298d7476-28c7-4c61-8302-df95a7d5d3d6","ios":"levelo://app?vid=298d7476-28c7-4c61-8302-df95a7d5d3d6"},"vehicle_type_id":"4","last_reported":1753078671,"current_range_meters":19200,"station_id":"st_cvj5dfep6f1abm77gieg","pricing_plan_id":"cebpf4jnsgd1na2vs0mg"},{"bike_id":"a4fd0aca-d628-4240-908c-9980f2dea1ee","system_id":"levelo_inurba_marseille","lat":43.296844,"lon":5.372915,"is_reserved":false,"is_disabled":false,"rental_uris":{"android":"levelo://app?vid=a4fd0aca-d628-4240-908c-9980f2dea1ee","ios":"levelo://app?vid=a4fd0aca-d628-4240-908c-9980f2dea1ee"},"vehicle_type_id":"4","last_reported":1753078671,"current_range_meters":19200,"station_id":"ce4bgk12rcd13ifvqbj0","pricing_plan_id":"cebpf4jnsgd1na2vs0mg"},{"bike_id":"317fa6ce-5970-4342-9b73-d18fa2ab71b6","system_id":"levelo_inurba_marseille","lat":43.26681,"lon":5.38263,"is_reserved":false,"is_disabled":false,"rental_uris":{"android":"levelo://app?vid=317fa6ce-5970-4342-9b73-d18fa2ab71b6","ios":"levelo://app?vid=317fa6ce-5970-4342-9b73-d18fa2ab71b6"},"vehicle_type_id":"4","last_reported":1753078671,"current_range_meters":19200,"station_id":"ce4bhg92rcd13ifvqf90","pricing_plan_id":"cebpf4jnsgd1na2vs0mg"},{"bike_id":"263d4ced-6e04-4169-ac4b-7fa733c92fa6","system_id":"levelo_inurba_marseille","lat":43.3236,"lon":5.36749,"is_reserved":false,"is_disabled":false,"rental_uris":{"android":"levelo://app?vid=263d4ced-6e04-4169-ac4b-7fa733c92fa6","ios":"levelo://app?vid=263d4ced-6e04-4169-ac4b-7fa733c92fa6"},"vehicle_type_id":"4","last_reported":1753078671,"current_range_meters":19200,"station_id":"ce4bhsh2rcd13ifvqi2g","pricing_plan_id":"cebpf4jnsgd1na2vs0mg"},{"bike_id":"d2de94d4-e1d9-4df2-81f3-4cc2123ddefc","system_id":"levelo_inurba_marseille","lat":43.28706,"lon":5.3791,"is_reserved":false,"is_disabled":false,"rental_uris":{"android":"levelo://app?vid=d2de94d4-e1d9-4df2-81f3-4cc2123ddefc","ios":"levelo://app?vid=d2de94d4-e1d9-4df2-81f3-4cc2123ddefc"},"vehicle_type_id":"4","last_reported":1753078671,"current_range_meters":19600,"station_id":"ce4bh9p2rcd13ifvqec0","pricing_plan_id":"cebpf4jnsgd1na2vs0mg"},{"bike_id":"4e27f713-7e99-4e9a-93f6-7ecf301dd0f1","system_id":"levelo_inurba_marseille","lat":43.32529,"lon":5.45001,"is_reserved":false,"is_disabled":false,"rental_uris":{"android":"levelo://app?vid=4e27f713-7e99-4e9a-93f6-7ecf301dd0f1","ios":"levelo://app?vid=4e27f713-7e99-4e9a-93f6-7ecf301dd0f1"},"vehicle_type_id":"4","last_reported":1753078671,"current_range_meters":19600,"station_id":"","pricing_plan_id":"cebpf4jnsgd1na2vs0mg"},{"bike_id":"f2327917-3ceb-47fc-8c4f-bdfa40069235","system_id":"levelo_inurba_marseille","lat":43.311218,"lon":5.377701,"is_reserved":false,"is_disabled":false,"rental_uris":{"android":"levelo://app?vid=f2327917-3ceb-47fc-8c4f-bdfa40069235","ios":"levelo://app?vid=f2327917-3ceb-47fc-8c4f-bdfa40069235"},"vehicle_type_id":"4","last_reported":1753078671,"current_range_meters":19600,"station_id":"ce4bgt92rcd13ifvqcg0","pricing_plan_id":"cebpf4jnsgd1na2vs0mg"},{"bike_id":"58cbfa7e-c704-4866-ba9b-204648f1391a","system_id":"levelo_inurba_marseille","lat":43.299579,"lon":5.380973,"is_reserved":false,"is_disabled":true,"rental_uris":{"android":"levelo://app?vid=58cbfa7e-c704-4866-ba9b-204648f1391a","ios":"levelo://app?vid=58cbfa7e-c704-4866-ba9b-204648f1391a"},"vehicle_type_id":"4","last_reported":1753078671,"current_range_meters":19600,"station_id":"","pricing_plan_id":"cebpf4jnsgd1na2vs0mg"},{"bike_id":"668bfa40-7ae0-42dd-a6b6-6631a40f0c0f","system_id":"levelo_inurba_marseille","lat":43.331391,"lon":5.385995,"is_reserved":false,"is_disabled":false,"rental_uris":{"android":"levelo://app?vid=668bfa40-7ae0-42dd-a6b6-6631a40f0c0f","ios":"levelo://app?vid=668bfa40-7ae0-42dd-a6b6-6631a40f0c0f"},"vehicle_type_id":"4","last_reported":1753078671,"current_range_meters":19600,"station_id":"","pricing_plan_id":"cebpf4jnsgd1na2vs0mg"},{"bike_id":"5d969bc6-fed5-4d58-8941-4b302b560607","system_id":"levelo_inurba_marseille","lat":43.28485,"lon":5.38536,"is_reserved":false,"is_disabled":false,"rental_uris":{"android":"levelo://app?vid=5d969bc6-fed5-4d58-8941-4b302b560607","ios":"levelo://app?vid=5d969bc6-fed5-4d58-8941-4b302b560607"},"vehicle_type_id":"4","last_reported":1753078671,"current_range_meters":20000,"station_id":"","pricing_plan_id":"cebpf4jnsgd1na2vs0mg"},{"bike_id":"6fd60fcc-a488-429a-83dc-26c625b54d84","system_id":"levelo_inurba_marseille","lat":43.31481,"lon":5.3729,"is_reserved":false,"is_disabled":false,"rental_uris":{"android":"levelo://app?vid=6fd60fcc-a488-429a-83dc-26c625b54d84","ios":"levelo://app?vid=6fd60fcc-a488-429a-83dc-26c625b54d84"},"vehicle_type_id":"4","last_reported":1753078671,"current_range_meters":20000,"station_id":"ce4bgt12rcd13ifvqcd0","pricing_plan_id":"cebpf4jnsgd1na2vs0mg"},{"bike_id":"18cc91f1-6a27-49f5-9bb6-c6ee2ff7cdff","system_id":"levelo_inurba_marseille","lat":43.24076,"lon":5.37698,"is_reserved":false,"is_disabled":false,"rental_uris":{"android":"levelo://app?vid=18cc91f1-6a27-49f5-9bb6-c6ee2ff7cdff","ios":"levelo://app?vid=18cc91f1-6a27-49f5-9bb6-c6ee2ff7cdff"},"vehicle_type_id":"4","last_reported":1753078671,"current_range_meters":20000,"station_id":"","pricing_plan_id":"cebpf4jnsgd1na2vs0mg"},{"bike_id":"d2229c93-297f-41f1-8cb1-b4545e35da58","system_id":"levelo_inurba_marseille","lat":43.30888,"lon":5.37191,"is_reserved":false,"is_disabled":false,"rental_uris":{"android":"levelo://app?vid=d2229c93-297f-41f1-8cb1-b4545e35da58","ios":"levelo://app?vid=d2229c93-297f-41f1-8cb1-b4545e35da58"},"vehicle_type_id":"4","last_reported":1753078671,"current_range_meters":20000,"station_id":"ce4bguh2rcd13ifvqckg","pricing_plan_id":"cebpf4jnsgd1na2vs0mg"},{"bike_id":"13adf853-6ca7-4ebd-8c9f-f4512dd3a322","system_id":"levelo_inurba_marseille","lat":43.332879,"lon":5.398787,"is_reserved":false,"is_disabled":false,"rental_uris":{"android":"levelo://app?vid=13adf853-6ca7-4ebd-8c9f-f4512dd3a322","ios":"levelo://app?vid=13adf853-6ca7-4ebd-8c9f-f4512dd3a322"},"vehicle_type_id":"4","last_reported":1753078671,"current_range_meters":20000,"station_id":"","pricing_plan_id":"cebpf4jnsgd1na2vs0mg"},{"bike_id":"b598afb5-18ea-4fc7-810c-41611032c5d4","system_id":"levelo_inurba_marseille","lat":43.30468,"lon":5.37904,"is_reserved":false,"is_disabled":false,"rental_uris":{"android":"levelo://app?vid=b598afb5-18ea-4fc7-810c-41611032c5d4","ios":"levelo://app?vid=b598afb5-18ea-4fc7-810c-41611032c5d4"},"vehicle_type_id":"4","last_reported":1753078671,"current_range_meters":20000,"station_id":"ce4bgup2rcd13ifvqcn0","pricing_plan_id":"cebpf4jnsgd1na2vs0mg"},{"bike_id":"2975a10e-052a-4ed4-8afb-b52549159b49","system_id":"levelo_inurba_marseille","lat":43.32879,"lon":5.38749,"is_reserved":false,"is_disabled":false,"rental_uris":{"android":"levelo://app?vid=2975a10e-052a-4ed4-8afb-b52549159b49","ios":"levelo://app?vid=2975a10e-052a-4ed4-8afb-b52549159b49"},"vehicle_type_id":"4","last_reported":1753078671,"current_range_meters":20000,"station_id":"","pricing_plan_id":"cebpf4jnsgd1na2vs0mg"},{"bike_id":"f00edc13-f36f-48e1-91ef-9c20dba77eb5","system_id":"levelo_inurba_marseille","lat":43.337588,"lon":5.374346,"is_reserved":false,"is_disabled":false,"rental_uris":{"android":"levelo://app?vid=f00edc13-f36f-48e1-91ef-9c20dba77eb5","ios":"levelo://app?vid=f00edc13-f36f-48e1-91ef-9c20dba77eb5"},"vehicle_type_id":"4","last_reported":1753078671,"current_range_meters":20000,"station_id":"","pricing_plan_id":"cebpf4jnsgd1na2vs0mg"},{"bike_id":"e77da9ef-8155-42a4-a49c-30e2b59818cc","system_id":"levelo_inurba_marseille","lat":43.337444,"lon":5.374475,"is_reserved":false,"is_disabled":false,"rental_uris":{"android":"levelo://app?vid=e77da9ef-8155-42a4-a49c-30e2b59818cc","ios":"levelo://app?vid=e77da9ef-8155-42a4-a49c-30e2b59818cc"},"vehicle_type_id":"4","last_reported":1753078671,"current_range_meters":20000,"station_id":"","pricing_plan_id":"cebpf4jnsgd1na2vs0mg"},{"bike_id":"875c6470-4bd1-429a-b8f9-04be22eb75f1","system_id":"levelo_inurba_marseille","lat":43.23153,"lon":5.43722,"is_reserved":false,"is_disabled":false,"rental_uris":{"android":"levelo://app?vid=875c6470-4bd1-429a-b8f9-04be22eb75f1","ios":"levelo://app?vid=875c6470-4bd1-429a-b8f9-04be22eb75f1"},"vehicle_type_id":"4","last_reported":1753078671,"current_range_meters":20000,"station_id":"ce4bhmp2rcd13ifvqgog","pricing_plan_id":"cebpf4jnsgd1na2vs0mg"},{"bike_id":"b2f60a78-1919-4c57-93f1-f82fc2b8786f","system_id":"levelo_inurba_marseille","lat":43.27891,"lon":5.39145,"is_reserved":false,"is_disabled":true,"rental_uris":{"android":"levelo://app?vid=b2f60a78-1919-4c57-93f1-f82fc2b8786f","ios":"levelo://app?vid=b2f60a78-1919-4c57-93f1-f82fc2b8786f"},"vehicle_type_id":"4","last_reported":1753078671,"current_range_meters":20000,"station_id":"ce4bhjp2rcd13ifvqga0","pricing_plan_id":"cebpf4jnsgd1na2vs0mg"},{"bike_id":"fe732a6c-bff8-47cc-932a-3c976c2c7a76","system_id":"levelo_inurba_marseille","lat":43.280363,"lon":5.369555,"is_reserved":false,"is_disabled":true,"rental_uris":{"android":"levelo://app?vid=fe732a6c-bff8-47cc-932a-3c976c2c7a76","ios":"levelo://app?vid=fe732a6c-bff8-47cc-932a-3c976c2c7a76"},"vehicle_type_id":"4","last_reported":1753078671,"current_range_meters":20400,"station_id":"","pricing_plan_id":"cebpf4jnsgd1na2vs0mg"},{"bike_id":"8a9f8dc4-f073-4b8f-81d6-71fc4302315f","system_id":"levelo_inurba_marseille","lat":43.28448,"lon":5.40166,"is_reserved":false,"is_disabled":false,"rental_uris":{"android":"levelo://app?vid=8a9f8dc4-f073-4b8f-81d6-71fc4302315f","ios":"levelo://app?vid=8a9f8dc4-f073-4b8f-81d6-71fc4302315f"},"vehicle_type_id":"4","last_reported":1753078671,"current_range_meters":20400,"station_id":"","pricing_plan_id":"cebpf4jnsgd1na2vs0mg"},{"bike_id":"5140bb8e-c44f-4d3a-995a-3be3ee966f00","system_id":"levelo_inurba_marseille","lat":43.284244,"lon":5.375093,"is_reserved":false,"is_disabled":false,"rental_uris":{"android":"levelo://app?vid=5140bb8e-c44f-4d3a-995a-3be3ee966f00","ios":"levelo://app?vid=5140bb8e-c44f-4d3a-995a-3be3ee966f00"},"vehicle_type_id":"4","last_reported":1753078671,"current_range_meters":20400,"station_id":"ce4bh412rcd13ifvqds0","pricing_plan_id":"cebpf4jnsgd1na2vs0mg"},{"bike_id":"75a97bc5-9b71-419a-a337-1fe1aa86d6d3","system_id":"levelo_inurba_marseille","lat":43.310784,"lon":5.383609,"is_reserved":false,"is_disabled":false,"rental_uris":{"android":"levelo://app?vid=75a97bc5-9b71-419a-a337-1fe1aa86d6d3","ios":"levelo://app?vid=75a97bc5-9b71-419a-a337-1fe1aa86d6d3"},"vehicle_type_id":"4","last_reported":1753078671,"current_range_meters":20400,"station_id":"ce4bgv92rcd13ifvqcr0","pricing_plan_id":"cebpf4jnsgd1na2vs0mg"},{"bike_id":"b67ca3f0-e632-4b9e-ad2f-ba95e62966cd","system_id":"levelo_inurba_marseille","lat":43.32107,"lon":5.36768,"is_reserved":false,"is_disabled":false,"rental_uris":{"android":"levelo://app?vid=b67ca3f0-e632-4b9e-ad2f-ba95e62966cd","ios":"levelo://app?vid=b67ca3f0-e632-4b9e-ad2f-ba95e62966cd"},"vehicle_type_id":"4","last_reported":1753078671,"current_range_meters":20400,"station_id":"ce4bhrh2rcd13ifvqhug","pricing_plan_id":"cebpf4jnsgd1na2vs0mg"},{"bike_id":"3604a33e-983e-4330-ab63-f732f2d5cb74","system_id":"levelo_inurba_marseille","lat":43.30539,"lon":5.365,"is_reserved":false,"is_disabled":false,"rental_uris":{"android":"levelo://app?vid=3604a33e-983e-4330-ab63-f732f2d5cb74","ios":"levelo://app?vid=3604a33e-983e-4330-ab63-f732f2d5cb74"},"vehicle_type_id":"4","last_reported":1753078671,"current_range_meters":20400,"station_id":"","pricing_plan_id":"cebpf4jnsgd1na2vs0mg"},{"bike_id":"7c2d1fcc-642d-4b3e-b123-58c7a5afe87a","system_id":"levelo_inurba_marseille","lat":43.32383,"lon":5.38946,"is_reserved":false,"is_disabled":false,"rental_uris":{"android":"levelo://app?vid=7c2d1fcc-642d-4b3e-b123-58c7a5afe87a","ios":"levelo://app?vid=7c2d1fcc-642d-4b3e-b123-58c7a5afe87a"},"vehicle_type_id":"4","last_reported":1753078671,"current_range_meters":20400,"station_id":"","pricing_plan_id":"cebpf4jnsgd1na2vs0mg"},{"bike_id":"ee888420-9c39-4d92-ae08-a8ecacc0a319","system_id":"levelo_inurba_marseille","lat":43.28712,"lon":5.37918,"is_reserved":false,"is_disabled":false,"rental_uris":{"android":"levelo://app?vid=ee888420-9c39-4d92-ae08-a8ecacc0a319","ios":"levelo://app?vid=ee888420-9c39-4d92-ae08-a8ecacc0a319"},"vehicle_type_id":"4","last_reported":1753078671,"current_range_meters":20400,"station_id":"ce4bh9p2rcd13ifvqec0","pricing_plan_id":"cebpf4jnsgd1na2vs0mg"},{"bike_id":"248714f7-6b67-41ea-8351-7bfabeba0c01","system_id":"levelo_inurba_marseille","lat":43.25494,"lon":5.37643,"is_reserved":false,"is_disabled":true,"rental_uris":{"android":"levelo://app?vid=248714f7-6b67-41ea-8351-7bfabeba0c01","ios":"levelo://app?vid=248714f7-6b67-41ea-8351-7bfabeba0c01"},"vehicle_type_id":"4","last_reported":1753078671,"current_range_meters":20800,"station_id":"ce4bhh12rcd13ifvqff0","pricing_plan_id":"cebpf4jnsgd1na2vs0mg"},{"bike_id":"6c93957c-439a-4d9a-81df-092bf8c0d567","system_id":"levelo_inurba_marseille","lat":43.304269,"lon":5.412797,"is_reserved":false,"is_disabled":false,"rental_uris":{"android":"levelo://app?vid=6c93957c-439a-4d9a-81df-092bf8c0d567","ios":"levelo://app?vid=6c93957c-439a-4d9a-81df-092bf8c0d567"},"vehicle_type_id":"4","last_reported":1753078671,"current_range_meters":20800,"station_id":"ce4bhop2rcd13ifvqh8g","pricing_plan_id":"cebpf4jnsgd1na2vs0mg"},{"bike_id":"7c77537c-4798-4d3c-98d9-a14ce8881d96","system_id":"levelo_inurba_marseille","lat":43.28997,"lon":5.35606,"is_reserved":false,"is_disabled":false,"rental_uris":{"android":"levelo://app?vid=7c77537c-4798-4d3c-98d9-a14ce8881d96","ios":"levelo://app?vid=7c77537c-4798-4d3c-98d9-a14ce8881d96"},"vehicle_type_id":"4","last_reported":1753078671,"current_range_meters":20800,"station_id":"ce4bhb92rcd13ifvqen0","pricing_plan_id":"cebpf4jnsgd1na2vs0mg"},{"bike_id":"b4c1aa2a-e931-4ce6-8816-30ad77bdd520","system_id":"levelo_inurba_marseille","lat":43.241448,"lon":5.363743,"is_reserved":false,"is_disabled":false,"rental_uris":{"android":"levelo://app?vid=b4c1aa2a-e931-4ce6-8816-30ad77bdd520","ios":"levelo://app?vid=b4c1aa2a-e931-4ce6-8816-30ad77bdd520"},"vehicle_type_id":"4","last_reported":1753078671,"current_range_meters":20800,"station_id":"","pricing_plan_id":"cebpf4jnsgd1na2vs0mg"},{"bike_id":"c7b95f32-63d6-4543-b204-7aab471c5eb6","system_id":"levelo_inurba_marseille","lat":43.29058,"lon":5.3717,"is_reserved":false,"is_disabled":false,"rental_uris":{"android":"levelo://app?vid=c7b95f32-63d6-4543-b204-7aab471c5eb6","ios":"levelo://app?vid=c7b95f32-63d6-4543-b204-7aab471c5eb6"},"vehicle_type_id":"4","last_reported":1753078671,"current_range_meters":20800,"station_id":"ce4bh5p2rcd13ifvqe4g","pricing_plan_id":"cebpf4jnsgd1na2vs0mg"},{"bike_id":"f2ae3914-afd9-4ae9-b087-b6a8c5753948","system_id":"levelo_inurba_marseille","lat":43.32325,"lon":5.36721,"is_reserved":false,"is_disabled":false,"rental_uris":{"android":"levelo://app?vid=f2ae3914-afd9-4ae9-b087-b6a8c5753948","ios":"levelo://app?vid=f2ae3914-afd9-4ae9-b087-b6a8c5753948"},"vehicle_type_id":"4","last_reported":1753078671,"current_range_meters":20800,"station_id":"ce4bhsh2rcd13ifvqi2g","pricing_plan_id":"cebpf4jnsgd1na2vs0mg"},