{"last_updated":1679868379,"ttl":30,"version":"2.2","data":{"bikes":[{"bike_id":"577e9016-0318-450b-aec1-5a494a5337f3","system_id":"levelo_inurba_marseille","lat":43.312239,"lon":5.368562,"is_reserved":false,"is_disabled":false,"rental_uris":{"android":"levelo://app?vid=577e9016-0318-450b-aec1-5a494a5337f3","ios":"levelo://app?vid=577e9016-0318-450b-aec1-5a494a5337f3"},"vehicle_type_id":"4","last_reported":1679868379,"current_range_meters":7200,"station_id":"ce4bgl92rcd13ifvqbq0","pricing_plan_id":"free"},{"bike_id":"45ba2804-2ea8-42ca-b2d8-ce3bd1045fe0","system_id":"levelo_inurba_marseille","lat":43.309076,"lon":5.368465,"is_reserved":false,"is_disabled":false,"rental_uris":{"android":"levelo://app?vid=45ba2804-2ea8-42ca-b2d8-ce3bd1045fe0","ios":"levelo://app?vid=45ba2804-2ea8-42ca-b2d8-ce3bd1045fe0"},"vehicle_type_id":"4","last_reported":1679868379,"current_range_meters":9600,"station_id":"ce4bgn92rcd13ifvqbvg","pricing_plan_id":"free"},{"bike_id":"b892e1e4-0f67-4318-9af9-95b584452a62","system_id":"levelo_inurba_marseille","lat":43.31799,"lon":5.36955,"is_reserved":false,"is_disabled":false,"rental_uris":{"android":"levelo://app?vid=b892e1e4-0f67-4318-9af9-95b584452a62","ios":"levelo://app?vid=b892e1e4-0f67-4318-9af9-95b584452a62"},"vehicle_type_id":"4","last_reported":1679868379,"current_range_meters":6800,"station_id":"","pricing_plan_id":"free"},{"bike_id":"28159b16-005f-4265-a0a2-adeb875ea2c1","system_id":"levelo_inurba_marseille","lat":43.310727,"lon":5.378127,"is_reserved":false,"is_disabled":false,"rental_uris":{"android":"levelo://app?vid=28159b16-005f-4265-a0a2-adeb875ea2c1","ios":"levelo://app?vid=28159b16-005f-4265-a0a2-adeb875ea2c1"},"vehicle_type_id":"4","last_reported":1679868379,"current_range_meters":27200,"station_id":"ce4bgt12rcd13ifvqce0","pricing_plan_id":"free"},{"bike_id":"f0cdc5f1-9909-4d0e-98b6-9190d9c86bbe","system_id":"levelo_inurba_marseille","lat":43.305165,"lon":5.371966,"is_reserved":false,"is_disabled":false,"rental_uris":{"android":"levelo://app?vid=f0cdc5f1-9909-4d0e-98b6-9190d9c86bbe","ios":"levelo://app?vid=f0cdc5f1-9909-4d0e-98b6-9190d9c86bbe"},"vehicle_type_id":"4","last_reported":1679868379,"current_range_meters":0,"station_id":"","pricing_plan_id":"free"},{"bike_id":"ee673b97-7a15-4ee4-95e5-337583ccf2db","system_id":"levelo_inurba_marseille","lat":43.317075,"lon":5.377367,"is_reserved":false,"is_disabled":false,"rental_uris":{"android":"levelo://app?vid=ee673b97-7a15-4ee4-95e5-337583ccf2db","ios":"levelo://app?vid=ee673b97-7a15-4ee4-95e5-337583ccf2db"},"vehicle_type_id":"4","last_reported":1679868379,"current_range_meters":14400,"station_id":"ce4bgth2rcd13ifvqch0","pricing_plan_id":"free"},{"bike_id":"65696ac3-ba5b-455e-bc42-26e38e32dc30","system_id":"levelo_inurba_marseille","lat":43.317075,"lon":5.377367,"is_reserved":false,"is_disabled":false,"rental_uris":{"android":"levelo://app?vid=65696ac3-ba5b-455e-bc42-26e38e32dc30","ios":"levelo://app?vid=65696ac3-ba5b-455e-bc42-26e38e32dc30"},"vehicle_type_id":"4","last_reported":1679868379,"current_range_meters":23200,"station_id":"ce4bgth2rcd13ifvqch0","pricing_plan_id":"free"},{"bike_id":"c5516517-c1a9-4d4f-baea-91eeae9bc2ad","system_id":"levelo_inurba_marseille","lat":43.317075,"lon":5.377367,"is_reserved":false,"is_disabled":false,"rental_uris":{"android":"levelo://app?vid=c5516517-c1a9-4d4f-baea-91eeae9bc2ad","ios":"levelo://app?vid=c5516517-c1a9-4d4f-baea-91eeae9bc2ad"},"vehicle_type_id":"4","last_reported":1679868379,"current_range_meters":11600,"station_id":"ce4bgth2rcd13ifvqch0","pricing_plan_id":"free"},{"bike_id":"75ca38f0-e357-4410-886e-6709cb4261fe","system_id":"levelo_inurba_marseille","lat":43.301939,"lon":5.366286,"is_reserved":false,"is_disabled":false,"rental_uris":{"android":"levelo://app?vid=75ca38f0-e357-4410-886e-6709cb4261fe","ios":"levelo://app?vid=75ca38f0-e357-4410-886e-6709cb4261fe"},"vehicle_type_id":"4","last_reported":1679868379,"current_range_meters":10800,"station_id":"ce4bgrh2rcd13ifvqc8g","pricing_plan_id":"free"},{"bike_id":"db3c8a58-c66c-42bf-846d-78672da18a6c","system_id":"levelo_inurba_marseille","lat":43.30808,"lon":5.381496,"is_reserved":false,"is_disabled":false,"rental_uris":{"android":"levelo://app?vid=db3c8a58-c66c-42bf-846d-78672da18a6c","ios":"levelo://app?vid=db3c8a58-c66c-42bf-846d-78672da18a6c"},"vehicle_type_id":"4","last_reported":1679868379,"current_range_meters":0,"station_id":"","pricing_plan_id":"free"},{"bike_id":"b69e6aec-5c0b-4f29-8f8d-46ce876dc6b3","system_id":"levelo_inurba_marseille","lat":43.308012,"lon":5.381511,"is_reserved":false,"is_disabled":false,"rental_uris":{"android":"levelo://app?vid=b69e6aec-5c0b-4f29-8f8d-46ce876dc6b3","ios":"levelo://app?vid=b69e6aec-5c0b-4f29-8f8d-46ce876dc6b3"},"vehicle_type_id":"4","last_reported":1679868379,"current_range_meters":400,"station_id":"ce4bgt12rcd13ifvqce0","pricing_plan_id":"free"},{"bike_id":"3ba873c1-78f9-4c45-9f2d-f9c79065082f","system_id":"levelo_inurba_marseille","lat":43.308028,"lon":5.381564,"is_reserved":false,"is_disabled":false,"rental_uris":{"android":"levelo://app?vid=3ba873c1-78f9-4c45-9f2d-f9c79065082f","ios":"levelo://app?vid=3ba873c1-78f9-4c45-9f2d-f9c79065082f"},"vehicle_type_id":"4","last_reported":1679868379,"current_range_meters":0,"station_id":"","pricing_plan_id":"free"},{"bike_id":"760c0f92-dfa6-463c-a0ee-8a8b4c8035a8","system_id":"levelo_inurba_marseille","lat":43.313571,"lon":5.384829,"is_reserved":false,"is_disabled":false,"rental_uris":{"android":"levelo://app?vid=760c0f92-dfa6-463c-a0ee-8a8b4c8035a8","ios":"levelo://app?vid=760c0f92-dfa6-463c-a0ee-8a8b4c8035a8"},"vehicle_type_id":"4","last_reported":1679868379,"current_range_meters":0,"station_id":"ce4bgt92rcd13ifvqcf0","pricing_plan_id":"free"},{"bike_id":"edea085a-d8be-468a-9963-2f46b94a6b68","system_id":"levelo_inurba_marseille","lat":43.29905,"lon":5.37462,"is_reserved":false,"is_disabled":false,"rental_uris":{"android":"levelo://app?vid=edea085a-d8be-468a-9963-2f46b94a6b68","ios":"levelo://app?vid=edea085a-d8be-468a-9963-2f46b94a6b68"},"vehicle_type_id":"4","last_reported":1679868379,"current_range_meters":0,"station_id":"ce4bgjh2rcd13ifvqbg0","pricing_plan_id":"free"},{"bike_id":"9ac94b06-682d-479a-be08-e44d87e067eb","system_id":"levelo_inurba_marseille","lat":43.311722,"lon":5.387247,"is_reserved":false,"is_disabled":false,"rental_uris":{"android":"levelo://app?vid=9ac94b06-682d-479a-be08-e44d87e067eb","ios":"levelo://app?vid=9ac94b06-682d-479a-be08-e44d87e067eb"},"vehicle_type_id":"4","last_reported":1679868379,"current_range_meters":4000,"station_id":"ce4bgv12rcd13ifvqcp0","pricing_plan_id":"free"},{"bike_id":"c77a9407-21b6-4680-9a40-91281a9ad64a","system_id":"levelo_inurba_marseille","lat":43.328371,"lon":5.366912,"is_reserved":false,"is_disabled":false,"rental_uris":{"android":"levelo://app?vid=c77a9407-21b6-4680-9a40-91281a9ad64a","ios":"levelo://app?vid=c77a9407-21b6-4680-9a40-91281a9ad64a"},"vehicle_type_id":"4","last_reported":1679868379,"current_range_meters":0,"station_id":"ce4bhs92rcd13ifvqi0g","pricing_plan_id":"free"},{"bike_id":"24a0d8bd-0d61-4a8c-a691-309f576215da","system_id":"levelo_inurba_marseille","lat":43.300092,"lon":5.379555,"is_reserved":false,"is_disabled":false,"rental_uris":{"android":"levelo://app?vid=24a0d8bd-0d61-4a8c-a691-309f576215da","ios":"levelo://app?vid=24a0d8bd-0d61-4a8c-a691-309f576215da"},"vehicle_type_id":"4","last_reported":1679868379,"current_range_meters":0,"station_id":"","pricing_plan_id":"free"},{"bike_id":"dc9428f2-9d74-4f01-abab-f753aee95ff7","system_id":"levelo_inurba_marseille","lat":43.297335,"lon":5.376908,"is_reserved":false,"is_disabled":false,"rental_uris":{"android":"levelo://app?vid=dc9428f2-9d74-4f01-abab-f753aee95ff7","ios":"levelo://app?vid=dc9428f2-9d74-4f01-abab-f753aee95ff7"},"vehicle_type_id":"4","last_reported":1679868379,"current_range_meters":0,"station_id":"","pricing_plan_id":"free"},{"bike_id":"23b1b126-c240-4252-aa0d-742b5264b993","system_id":"levelo_inurba_marseille","lat":43.296921,"lon":5.376579,"is_reserved":false,"is_disabled":false,"rental_uris":{"android":"levelo://app?vid=23b1b126-c240-4252-aa0d-742b5264b993","ios":"levelo://app?vid=23b1b126-c240-4252-aa0d-742b5264b993"},"vehicle_type_id":"4","last_reported":1679868379,"current_range_meters":0,"station_id":"ce4bgkh2rcd13ifvqbl0","pricing_plan_id":"free"},{"bike_id":"4957af2f-5f0f-471f-bd4a-f3986287913f","system_id":"levelo_inurba_marseille","lat":43.309589,"lon":5.390258,"is_reserved":false,"is_disabled":false,"rental_uris":{"android":"levelo://app?vid=4957af2f-5f0f-471f-bd4a-f3986287913f","ios":"levelo://app?vid=4957af2f-5f0f-471f-bd4a-f3986287913f"},"vehicle_type_id":"4","last_reported":1679868379,"current_range_meters":0,"station_id":"ce4bgup2rcd13ifvqco0","pricing_plan_id":"free"},{"bike_id":"707fb9f0-9e32-4ad0-b652-4cdac7b569a0","system_id":"levelo_inurba_marseille","lat":43.317557,"lon":5.390173,"is_reserved":false,"is_disabled":false,"rental_uris":{"android":"levelo://app?vid=707fb9f0-9e32-4ad0-b652-4cdac7b569a0","ios":"levelo://app?vid=707fb9f0-9e32-4ad0-b652-4cdac7b569a0"},"vehicle_type_id":"4","last_reported":1679868379,"current_range_meters":18000,"station_id":"ce4bhqp2rcd13ifvqhng","pricing_plan_id":"free"},{"bike_id":"f7adf991-e24a-4129-9d96-415352780762","system_id":"levelo_inurba_marseille","lat":43.297941,"lon":5.381746,"is_reserved":false,"is_disabled":false,"rental_uris":{"android":"levelo://app?vid=f7adf991-e24a-4129-9d96-415352780762","ios":"levelo://app?vid=f7adf991-e24a-4129-9d96-415352780762"},"vehicle_type_id":"4","last_reported":1679868379,"current_range_meters":0,"station_id":"","pricing_plan_id":"free"},{"bike_id":"4ca1b17e-5f41-45e0-8b70-d5eeaf79dff0","system_id":"levelo_inurba_marseille","lat":43.305994,"lon":5.393687,"is_reserved":false,"is_disabled":false,"rental_uris":{"android":"levelo://app?vid=4ca1b17e-5f41-45e0-8b70-d5eeaf79dff0","ios":"levelo://app?vid=4ca1b17e-5f41-45e0-8b70-d5eeaf79dff0"},"vehicle_type_id":"4","last_reported":1679868379,"current_range_meters":22000,"station_id":"ce4bh0p2rcd13ifvqd80","pricing_plan_id":"free"},{"bike_id":"470f47c5-844e-4560-a8a0-c922d728ef7f","system_id":"levelo_inurba_marseille","lat":43.313291,"lon":5.396838,"is_reserved":false,"is_disabled":false,"rental_uris":{"android":"levelo://app?vid=470f47c5-844e-4560-a8a0-c922d728ef7f","ios":"levelo://app?vid=470f47c5-844e-4560-a8a0-c922d728ef7f"},"vehicle_type_id":"4","last_reported":1679868379,"current_range_meters":800,"station_id":"ce4bgvp2rcd13ifvqcu0","pricing_plan_id":"free"},{"bike_id":"1f552d56-e5c9-4dae-b943-5fe1bf88d2f8","system_id":"levelo_inurba_marseille","lat":43.29529,"lon":5.385581,"is_reserved":false,"is_disabled":false,"rental_uris":{"android":"levelo://app?vid=1f552d56-e5c9-4dae-b943-5fe1bf88d2f8","ios":"levelo://app?vid=1f552d56-e5c9-4dae-b943-5fe1bf88d2f8"},"vehicle_type_id":"4","last_reported":1679868379,"current_range_meters":3200,"station_id":"ce4bgih2rcd13ifvqba0","pricing_plan_id":"free"},{"bike_id":"95b9246b-0d70-4481-b1df-83fd7039394f","system_id":"levelo_inurba_marseille","lat":43.29529,"lon":5.385581,"is_reserved":false,"is_disabled":false,"rental_uris":{"android":"levelo://app?vid=95b9246b-0d70-4481-b1df-83fd7039394f","ios":"levelo://app?vid=95b9246b-0d70-4481-b1df-83fd7039394f"},"vehicle_type_id":"4","last_reported":1679868379,"current_range_meters":400,"station_id":"ce4bgih2rcd13ifvqba0","pricing_plan_id":"free"},{"bike_id":"61074bce-4359-4960-ba37-dafed3bfa35f","system_id":"levelo_inurba_marseille","lat":43.313638,"lon":5.397321,"is_reserved":false,"is_disabled":false,"rental_uris":{"android":"levelo://app?vid=61074bce-4359-4960-ba37-dafed3bfa35f","ios":"levelo://app?vid=61074bce-4359-4960-ba37-dafed3bfa35f"},"vehicle_type_id":"4","last_reported":1679868379,"current_range_meters":0,"station_id":"","pricing_plan_id":"free"},{"bike_id":"224c9665-236a-4a2f-8046-6473211985c6","system_id":"levelo_inurba_marseille","lat":43.29033,"lon":5.35906,"is_reserved":false,"is_disabled":false,"rental_uris":{"android":"levelo://app?vid=224c9665-236a-4a2f-8046-6473211985c6","ios":"levelo://app?vid=224c9665-236a-4a2f-8046-6473211985c6"},"vehicle_type_id":"4","last_reported":1679868379,"current_range_meters":0,"station_id":"ce4bha92rcd13ifvqeg0","pricing_plan_id":"free"},{"bike_id":"e3eff867-983b-444e-804f-91f5243bbe75","system_id":"levelo_inurba_marseille","lat":43.294162,"lon":5.386292,"is_reserved":false,"is_disabled":false,"rental_uris":{"android":"levelo://app?vid=e3eff867-983b-444e-804f-91f5243bbe75","ios":"levelo://app?vid=e3eff867-983b-444e-804f-91f5243bbe75"},"vehicle_type_id":"4","last_reported":1679868379,"current_range_meters":19200,"station_id":"ce4bh2h2rcd13ifvqdh0","pricing_plan_id":"free"},{"bike_id":"1b69fcbb-c153-4bcc-9e4d-9f117c8350a1","system_id":"levelo_inurba_marseille","lat":43.289429,"lon":5.366289,"is_reserved":false,"is_disabled":false,"rental_uris":{"android":"levelo://app?vid=1b69fcbb-c153-4bcc-9e4d-9f117c8350a1","ios":"levelo://app?vid=1b69fcbb-c153-4bcc-9e4d-9f117c8350a1"},"vehicle_type_id":"4","last_reported":1679868379,"current_range_meters":0,"station_id":"","pricing_plan_id":"free"},{"bike_id":"60995c9c-56c0-473e-9b6e-83455aa452e2","system_id":"levelo_inurba_marseille","lat":43.289417,"lon":5.366311,"is_reserved":false,"is_disabled":false,"rental_uris":{"android":"levelo://app?vid=60995c9c-56c0-473e-9b6e-83455aa452e2","ios":"levelo://app?vid=60995c9c-56c0-473e-9b6e-83455aa452e2"},"vehicle_type_id":"4","last_reported":1679868379,"current_range_meters":0,"station_id":"","pricing_plan_id":"free"},{"bike_id":"a0439902-a1ae-4232-b8b4-a6f754d2a2ca","system_id":"levelo_inurba_marseille","lat":43.33047,"lon":5.38918,"is_reserved":false,"is_disabled":false,"rental_uris":{"android":"levelo://app?vid=a0439902-a1ae-4232-b8b4-a6f754d2a2ca","ios":"levelo://app?vid=a0439902-a1ae-4232-b8b4-a6f754d2a2ca"},"vehicle_type_id":"4","last_reported":1679868379,"current_range_meters":0,"station_id":"","pricing_plan_id":"free"},{"bike_id":"660c76ca-7713-4cca-a795-889206550af5","system_id":"levelo_inurba_marseille","lat":43.28856,"lon":5.358371,"is_reserved":false,"is_disabled":false,"rental_uris":{"android":"levelo://app?vid=660c76ca-7713-4cca-a795-889206550af5","ios":"levelo://app?vid=660c76ca-7713-4cca-a795-889206550af5"},"vehicle_type_id":"4","last_reported":1679868379,"current_range_meters":28800,"station_id":"ce4bhb12rcd13ifvqem0","pricing_plan_id":"free"},{"bike_id":"5dbe79cc-8fb2-4919-b431-be73ab496c56","system_id":"levelo_inurba_marseille","lat":43.337463,"lon":5.37464,"is_reserved":false,"is_disabled":false,"rental_uris":{"android":"levelo://app?vid=5dbe79cc-8fb2-4919-b431-be73ab496c56","ios":"levelo://app?vid=5dbe79cc-8fb2-4919-b431-be73ab496c56"},"vehicle_type_id":"4","last_reported":1679868379,"current_range_meters":26800,"station_id":"","pricing_plan_id":"free"},{"bike_id":"8968d083-c90b-4061-b414-f502d4a28796","system_id":"levelo_inurba_marseille","lat":43.298681,"lon":5.397225,"is_reserved":false,"is_disabled":false,"rental_uris":{"android":"levelo://app?vid=8968d083-c90b-4061-b414-f502d4a28796","ios":"levelo://app?vid=8968d083-c90b-4061-b414-f502d4a28796"},"vehicle_type_id":"4","last_reported":1679868379,"current_range_meters":0,"station_id":"ce4bh0h2rcd13ifvqd50","pricing_plan_id":"free"},{"bike_id":"1eb5d89f-d2e9-4a36-8f38-00b01116e0d6","system_id":"levelo_inurba_marseille","lat":43.298681,"lon":5.397225,"is_reserved":false,"is_disabled":false,"rental_uris":{"android":"levelo://app?vid=1eb5d89f-d2e9-4a36-8f38-00b01116e0d6","ios":"levelo://app?vid=1eb5d89f-d2e9-4a36-8f38-00b01116e0d6"},"vehicle_type_id":"4","last_reported":1679868379,"current_range_meters":0,"station_id":"ce4bh0h2rcd13ifvqd50","pricing_plan_id":"free"},{"bike_id":"0dc94d3c-6a08-41a4-9be1-52cceeff8557","system_id":"levelo_inurba_marseille","lat":43.29023,"lon":5.386285,"is_reserved":false,"is_disabled":false,"rental_uris":{"android":"levelo://app?vid=0dc94d3c-6a08-41a4-9be1-52cceeff8557","ios":"levelo://app?vid=0dc94d3c-6a08-41a4-9be1-52cceeff8557"},"vehicle_type_id":"4","last_reported":1679868379,"current_range_meters":800,"station_id":"","pricing_plan_id":"free"},{"bike_id":"1d191d97-77b6-405a-b9c2-5f5dd1945ecd","system_id":"levelo_inurba_marseille","lat":43.326544,"lon":5.39844,"is_reserved":false,"is_disabled":false,"rental_uris":{"android":"levelo://app?vid=1d191d97-77b6-405a-b9c2-5f5dd1945ecd","ios":"levelo://app?vid=1d191d97-77b6-405a-b9c2-5f5dd1945ecd"},"vehicle_type_id":"4","last_reported":1679868379,"current_range_meters":4400,"station_id":"","pricing_plan_id":"free"},{"bike_id":"a6a41833-5cbc-4165-a08b-90d39c5b0da1","system_id":"levelo_inurba_marseille","lat":43.30032,"lon":5.40104,"is_reserved":false,"is_disabled":false,"rental_uris":{"android":"levelo://app?vid=a6a41833-5cbc-4165-a08b-90d39c5b0da1","ios":"levelo://app?vid=a6a41833-5cbc-4165-a08b-90d39c5b0da1"},"vehicle_type_id":"4","last_reported":1679868379,"current_range_meters":0,"station_id":"","pricing_plan_id":"free"},{"bike_id":"7f8e059c-2f96-455a-a071-0041eaae2c8f","system_id":"levelo_inurba_marseille","lat":43.288497,"lon":5.393089,"is_reserved":false,"is_disabled":false,"rental_uris":{"android":"levelo://app?vid=7f8e059c-2f96-455a-a071-0041eaae2c8f","ios":"levelo://app?vid=7f8e059c-2f96-455a-a071-0041eaae2c8f"},"vehicle_type_id":"4","last_reported":1679868379,"current_range_meters":0,"station_id":"ce4bh2p2rcd13ifvqdi0","pricing_plan_id":"free"},{"bike_id":"53468947-56d1-4ad8-9744-4fdbe0f3e220","system_id":"levelo_inurba_marseille","lat":43.288497,"lon":5.393089,"is_reserved":false,"is_disabled":false,"rental_uris":{"android":"levelo://app?vid=53468947-56d1-4ad8-9744-4fdbe0f3e220","ios":"levelo://app?vid=53468947-56d1-4ad8-9744-4fdbe0f3e220"},"vehicle_type_id":"4","last_reported":1679868379,"current_range_meters":0,"station_id":"ce4bh2p2rcd13ifvqdi0","pricing_plan_id":"free"},{"bike_id":"8cdb4b30-acfe-41c9-be58-0ccba1773928","system_id":"levelo_inurba_marseille","lat":43.288497,"lon":5.393089,"is_reserved":false,"is_disabled":false,"rental_uris":{"android":"levelo://app?vid=8cdb4b30-acfe-41c9-be58-0ccba1773928","ios":"levelo://app?vid=8cdb4b30-acfe-41c9-be58-0ccba1773928"},"vehicle_type_id":"4","last_reported":1679868379,"current_range_meters":0,"station_id":"ce4bh2p2rcd13ifvqdi0","pricing_plan_id":"free"},{"bike_id":"c42ea1de-615a-4594-a909-7bf087ecc2a1","system_id":"levelo_inurba_marseille","lat":43.281044,"lon":5.378308,"is_reserved":false,"is_disabled":false,"rental_uris":{"android":"levelo://app?vid=c42ea1de-615a-4594-a909-7bf087ecc2a1","ios":"levelo://app?vid=c42ea1de-615a-4594-a909-7bf087ecc2a1"},"vehicle_type_id":"4","last_reported":1679868379,"current_range_meters":0,"station_id":"ce4bha12rcd13ifvqee0","pricing_plan_id":"free"},{"bike_id":"65cde88b-920e-47fe-813f-d139c86f1f46","system_id":"levelo_inurba_marseille","lat":43.284462,"lon":5.392121,"is_reserved":false,"is_disabled":false,"rental_uris":{"android":"levelo://app?vid=65cde88b-920e-47fe-813f-d139c86f1f46","ios":"levelo://app?vid=65cde88b-920e-47fe-813f-d139c86f1f46"},"vehicle_type_id":"4","last_reported":1679868379,"current_range_meters":4400,"station_id":"ce4bhoh2rcd13ifvqh5g","pricing_plan_id":"free"},{"bike_id":"49fc7bc2-3fa5-41b5-bd83-a00934c51e95","system_id":"levelo_inurba_marseille","lat":43.284462,"lon":5.392121,"is_reserved":false,"is_disabled":false,"rental_uris":{"android":"levelo://app?vid=49fc7bc2-3fa5-41b5-bd83-a00934c51e95","ios":"levelo://app?vid=49fc7bc2-3fa5-41b5-bd83-a00934c51e95"},"vehicle_type_id":"4","last_reported":1679868379,"current_range_meters":11600,"station_id":"ce4bhoh2rcd13ifvqh5g","pricing_plan_id":"free"},{"bike_id":"f1b41a76-8edd-412b-85eb-ec5554023819","system_id":"levelo_inurba_marseille","lat":43.29155,"lon":5.403699,"is_reserved":false,"is_disabled":false,"rental_uris":{"android":"levelo://app?vid=f1b41a76-8edd-412b-85eb-ec5554023819","ios":"levelo://app?vid=f1b41a76-8edd-412b-85eb-ec5554023819"},"vehicle_type_id":"4","last_reported":1679868379,"current_range_meters":0,"station_id":"","pricing_plan_id":"free"},{"bike_id":"a9a1888c-f6e9-4d5d-a06f-1fdd32609903","system_id":"levelo_inurba_marseille","lat":43.304188,"lon":5.412904,"is_reserved":false,"is_disabled":false,"rental_uris":{"android":"levelo://app?vid=a9a1888c-f6e9-4d5d-a06f-1fdd32609903","ios":"levelo://app?vid=a9a1888c-f6e9-4d5d-a06f-1fdd32609903"},"vehicle_type_id":"4","last_reported":1679868379,"current_range_meters":9600,"station_id":"ce4bhop2rcd13ifvqh8g","pricing_plan_id":"free"},{"bike_id":"f1ed81b9-7ba6-4495-8bc8-c9ce82113d85","system_id":"levelo_inurba_marseille","lat":43.304188,"lon":5.412904,"is_reserved":false,"is_disabled":false,"rental_uris":{"android":"levelo://app?vid=f1ed81b9-7ba6-4495-8bc8-c9ce82113d85","ios":"levelo://app?vid=f1ed81b9-7ba6-4495-8bc8-c9ce82113d85"},"vehicle_type_id":"4","last_reported":1679868379,"current_range_meters":25600,"station_id":"ce4bhop2rcd13ifvqh8g","pricing_plan_id":"free"},{"bike_id":"6dd57aac-2670-4a07-931c-d6c547053895","system_id":"levelo_inurba_marseille","lat":43.287154,"lon":5.399979,"is_reserved":false,"is_disabled":false,"rental_uris":{"android":"levelo://app?vid=6dd57aac-2670-4a07-931c-d6c547053895","ios":"levelo://app?vid=6dd57aac-2670-4a07-931c-d6c547053895"},"vehicle_type_id":"4","last_reported":1679868379,"current_range_meters":400,"station_id":"ce4bho92rcd13ifvqh3g","pricing_plan_id":"free"},{"bike_id":"c25ece2b-30b7-416f-a155-f1fd516460a5","system_id":"levelo_inurba_marseille","lat":43.299579,"lon":5.413255,"is_reserved":false,"is_disabled":false,"rental_uris":{"android":"levelo://app?vid=c25ece2b-30b7-416f-a155-f1fd516460a5","ios":"levelo://app?vid=c25ece2b-30b7-416f-a155-f1fd516460a5"},"vehicle_type_id":"4","last_reported":1679868379,"current_range_meters":23600,"station_id":"ce4bhp12rcd13ifvqh9g","pricing_plan_id":"free"},{"bike_id":"adffd8c1-bbb5-4178-b22a-b61c63495138","system_id":"levelo_inurba_marseille","lat":43.320045,"lon":5.415048,"is_reserved":false,"is_disabled":false,"rental_uris":{"android":"levelo://app?vid=adffd8c1-bbb5-4178-b22a-b61c63495138","ios":"levelo://app?vid=adffd8c1-bbb5-4178-b22a-b61c63495138"},"vehicle_type_id":"4","last_reported":1679868379,"current_range_meters":3200,"station_id":"ce4bhq92rcd13ifvqhkg","pricing_plan_id":"free"},{"bike_id":"622e6c47-098c-4b11-8e3c-810f2636a14c","system_id":"levelo_inurba_marseille","lat":43.33612,"lon":5.410321,"is_reserved":false,"is_disabled":false,"rental_uris":{"android":"levelo://app?vid=622e6c47-098c-4b11-8e3c-810f2636a14c","ios":"levelo://app?vid=622e6c47-098c-4b11-8e3c-810f2636a14c"},"vehicle_type_id":"4","last_reported":1679868379,"current_range_meters":4800,"station_id":"ce4bhqh2rcd13ifvqhmg","pricing_plan_id":"free"},{"bike_id":"78afb77c-9aea-4cff-b9b7-7aab3427fa58","system_id":"levelo_inurba_marseille","lat":43.33612,"lon":5.410321,"is_reserved":false,"is_disabled":false,"rental_uris":{"android":"levelo://app?vid=78afb77c-9aea-4cff-b9b7-7aab3427fa58","ios":"levelo://app?vid=78afb77c-9aea-4cff-b9b7-7aab3427fa58"},"vehicle_type_id":"4","last_reported":1679868379,"current_range_meters":10800,"station_id":"ce4bhqh2rcd13ifvqhmg","pricing_plan_id":"free"},{"bike_id":"f92c47b1-d325-4af1-9d48-ca87bfbe0602","system_id":"levelo_inurba_marseille","lat":43.336134,"lon":5.410341,"is_reserved":false,"is_disabled":false,"rental_uris":{"android":"levelo://app?vid=f92c47b1-d325-4af1-9d48-ca87bfbe0602","ios":"levelo://app?vid=f92c47b1-d325-4af1-9d48-ca87bfbe0602"},"vehicle_type_id":"4","last_reported":1679868379,"current_range_meters":21600,"station_id":"ce4bhqh2rcd13ifvqhmg","pricing_plan_id":"free"},{"bike_id":"af35db3f-a58d-4bf4-aec8-098af38ff484","system_id":"levelo_inurba_marseille","lat":43.336134,"lon":5.410341,"is_reserved":false,"is_disabled":false,"rental_uris":{"android":"levelo://app?vid=af35db3f-a58d-4bf4-aec8-098af38ff484","ios":"levelo://app?vid=af35db3f-a58d-4bf4-aec8-098af38ff484"},"vehicle_type_id":"4","last_reported":1679868379,"current_range_meters":13200,"station_id":"ce4bhqh2rcd13ifvqhmg","pricing_plan_id":"free"},{"bike_id":"85a6db2e-c132-4f11-9938-cb8790a39ec3","system_id":"levelo_inurba_marseille","lat":43.336134,"lon":5.410341,"is_reserved":false,"is_disabled":false,"rental_uris":{"android":"levelo://app?vid=85a6db2e-c132-4f11-9938-cb8790a39ec3","ios":"levelo://app?vid=85a6db2e-c132-4f11-9938-cb8790a39ec3"},"vehicle_type_id":"4","last_reported":1679868379,"current_range_meters":0,"station_id":"ce4bhqh2rcd13ifvqhmg","pricing_plan_id":"free"},{"bike_id":"0f240ab7-50bb-494f-9903-82c0217c7ced","system_id":"levelo_inurba_marseille","lat":43.27667,"lon":5.38872,"is_reserved":false,"is_disabled":false,"rental_uris":{"android":"levelo://app?vid=0f240ab7-50bb-494f-9903-82c0217c7ced","ios":"levelo://app?vid=0f240ab7-50bb-494f-9903-82c0217c7ced"},"vehicle_type_id":"4","last_reported":1679868379,"current_range_meters":2800,"station_id":"ce4bhi12rcd13ifvqfo0","pricing_plan_id":"free"},{"bike_id":"305d0be7-5f30-4164-99ff-863ae1eef9b6","system_id":"levelo_inurba_marseille","lat":43.29552,"lon":5.42283,"is_reserved":false,"is_disabled":false,"rental_uris":{"android":"levelo://app?vid=305d0be7-5f30-4164-99ff-863ae1eef9b6","ios":"levelo://app?vid=305d0be7-5f30-4164-99ff-863ae1eef9b6"},"vehicle_type_id":"4","last_reported":1679868379,"current_range_meters":0,"station_id":"ce4bhph2rcd13ifvqhdg","pricing_plan_id":"free"},{"bike_id":"da8e27ce-b082-4045-9272-7bb0a358ce76","system_id":"levelo_inurba_marseille","lat":43.278128,"lon":5.407195,"is_reserved":false,"is_disabled":false,"rental_uris":{"android":"levelo://app?vid=da8e27ce-b082-4045-9272-7bb0a358ce76","ios":"levelo://app?vid=da8e27ce-b082-4045-9272-7bb0a358ce76"},"vehicle_type_id":"4","last_reported":1679868379,"current_range_meters":6000,"station_id":"ce4bhnh2rcd13ifvqgtg","pricing_plan_id":"free"},{"bike_id":"a338d855-4253-4e1e-b5f5-7dba8b9290a8","system_id":"levelo_inurba_marseille","lat":43.33873,"lon":5.41981,"is_reserved":false,"is_disabled":false,"rental_uris":{"android":"levelo://app?vid=a338d855-4253-4e1e-b5f5-7dba8b9290a8","ios":"levelo://app?vid=a338d855-4253-4e1e-b5f5-7dba8b9290a8"},"vehicle_type_id":"4","last_reported":1679868379,"current_range_meters":26800,"station_id":"","pricing_plan_id":"free"},{"bike_id":"2d8093ed-3d9e-4650-8092-1207c164e989","system_id":"levelo_inurba_marseille","lat":43.265714,"lon":5.372891,"is_reserved":false,"is_disabled":false,"rental_uris":{"android":"levelo://app?vid=2d8093ed-3d9e-4650-8092-1207c164e989","ios":"levelo://app?vid=2d8093ed-3d9e-4650-8092-1207c164e989"},"vehicle_type_id":"4","last_reported":1679868379,"current_range_meters":6000,"station_id":"ce4bhg12rcd13ifvqf70","pricing_plan_id":"free"},{"bike_id":"c54ed908-7b21-4f5c-b4d3-e287b1dda587","system_id":"levelo_inurba_marseille","lat":43.26549,"lon":5.37282,"is_reserved":false,"is_disabled":false,"rental_uris":{"android":"levelo://app?vid=c54ed908-7b21-4f5c-b4d3-e287b1dda587","ios":"levelo://app?vid=c54ed908-7b21-4f5c-b4d3-e287b1dda587"},"vehicle_type_id":"4","last_reported":1679868379,"current_range_meters":0,"station_id":"ce4bhg12rcd13ifvqf70","pricing_plan_id":"free"},{"bike_id":"1235e794-8b28-47c9-94e4-d4b352e3f408","system_id":"levelo_inurba_marseille","lat":43.26549,"lon":5.372938,"is_reserved":false,"is_disabled":false,"rental_uris":{"android":"levelo://app?vid=1235e794-8b28-47c9-94e4-d4b352e3f408","ios":"levelo://app?vid=1235e794-8b28-47c9-94e4-d4b352e3f408"},"vehicle_type_id":"4","last_reported":1679868379,"current_range_meters":0,"station_id":"","pricing_plan_id":"free"},{"bike_id":"f4da5c1e-bb08-42ce-92e5-2768460b386c","system_id":"levelo_inurba_marseille","lat":43.331864,"lon":5.431794,"is_reserved":false,"is_disabled":false,"rental_uris":{"android":"levelo://app?vid=f4da5c1e-bb08-42ce-92e5-2768460b386c","ios":"levelo://app?vid=f4da5c1e-bb08-42ce-92e5-2768460b386c"},"vehicle_type_id":"4","last_reported":1679868379,"current_range_meters":10400,"station_id":"","pricing_plan_id":"free"},{"bike_id":"d9ee510c-491e-4bc5-b33a-b6b4e44ea725","system_id":"levelo_inurba_marseille","lat":43.317104,"lon":5.436818,"is_reserved":false,"is_disabled":false,"rental_uris":{"android":"levelo://app?vid=d9ee510c-491e-4bc5-b33a-b6b4e44ea725","ios":"levelo://app?vid=d9ee510c-491e-4bc5-b33a-b6b4e44ea725"},"vehicle_type_id":"4","last_reported":1679868379,"current_range_meters":4800,"station_id":"ce4bhp92rcd13ifvqhcg","pricing_plan_id":"free"},{"bike_id":"0a1916b2-e0a8-4eb1-93d8-82fee26bf281","system_id":"levelo_inurba_marseille","lat":43.317104,"lon":5.436818,"is_reserved":false,"is_disabled":false,"rental_uris":{"android":"levelo://app?vid=0a1916b2-e0a8-4eb1-93d8-82fee26bf281","ios":"levelo://app?vid=0a1916b2-e0a8-4eb1-93d8-82fee26bf281"},"vehicle_type_id":"4","last_reported":1679868379,"current_range_meters":0,"station_id":"ce4bhp92rcd13ifvqhcg","pricing_plan_id":"free"},{"bike_id":"69600b78-0f44-40d0-ab39-402aca4eb68d","system_id":"levelo_inurba_marseille","lat":43.29896,"lon":5.43665,"is_reserved":false,"is_disabled":false,"rental_uris":{"android":"levelo://app?vid=69600b78-0f44-40d0-ab39-402aca4eb68d","ios":"levelo://app?vid=69600b78-0f44-40d0-ab39-402aca4eb68d"},"vehicle_type_id":"4","last_reported":1679868379,"current_range_meters":20400,"station_id":"","pricing_plan_id":"free"},{"bike_id":"fbe0a5d1-0e1b-4802-a643-ce32d4f1b31d","system_id":"levelo_inurba_marseille","lat":43.260909,"lon":5.397591,"is_reserved":false,"is_disabled":false,"rental_uris":{"android":"levelo://app?vid=fbe0a5d1-0e1b-4802-a643-ce32d4f1b31d","ios":"levelo://app?vid=fbe0a5d1-0e1b-4802-a643-ce32d4f1b31d"},"vehicle_type_id":"4","last_reported":1679868379,"current_range_meters":11200,"station_id":"ce4bhi12rcd13ifvqfq0","pricing_plan_id":"free"},{"bike_id":"43207228-b3fd-475f-ae03-41f3f0ffa8ba","system_id":"levelo_inurba_marseille","lat":43.260909,"lon":5.397591,"is_reserved":false,"is_disabled":false,"rental_uris":{"android":"levelo://app?vid=43207228-b3fd-475f-ae03-41f3f0ffa8ba","ios":"levelo://app?vid=43207228-b3fd-475f-ae03-41f3f0ffa8ba"},"vehicle_type_id":"4","last_reported":1679868379,"current_range_meters":6400,"station_id":"ce4bhi12rcd13ifvqfq0","pricing_plan_id":"free"},{"bike_id":"8e344158-5c99-46b8-b84a-a0b85f26dbf4","system_id":"levelo_inurba_marseille","lat":43.260909,"lon":5.397591,"is_reserved":false,"is_disabled":false,"rental_uris":{"android":"levelo://app?vid=8e344158-5c99-46b8-b84a-a0b85f26dbf4","ios":"levelo://app?vid=8e344158-5c99-46b8-b84a-a0b85f26dbf4"},"vehicle_type_id":"4","last_reported":1679868379,"current_range_meters":3200,"station_id":"ce4bhi12rcd13ifvqfq0","pricing_plan_id":"free"},{"bike_id":"de75e9e5-a260-49bf-a5ff-1926dc5f6150","system_id":"levelo_inurba_marseille","lat":43.255756,"lon":5.382303,"is_reserved":false,"is_disabled":false,"rental_uris":{"android":"levelo://app?vid=de75e9e5-a260-49bf-a5ff-1926dc5f6150","ios":"levelo://app?vid=de75e9e5-a260-49bf-a5ff-1926dc5f6150"},"vehicle_type_id":"4","last_reported":1679868379,"current_range_meters":28800,"station_id":"ce4bhih2rcd13ifvqfs0","pricing_plan_id":"free"},{"bike_id":"ea515e7d-cc29-4390-970c-f1d77b12cd20","system_id":"levelo_inurba_marseille","lat":43.254947,"lon":5.376454,"is_reserved":false,"is_disabled":false,"rental_uris":{"android":"levelo://app?vid=ea515e7d-cc29-4390-970c-f1d77b12cd20","ios":"levelo://app?vid=ea515e7d-cc29-4390-970c-f1d77b12cd20"},"vehicle_type_id":"4","last_reported":1679868379,"current_range_meters":10800,"station_id":"ce4bhh12rcd13ifvqff0","pricing_plan_id":"free"},{"bike_id":"cff3dab9-b857-454d-af8b-0ee175eb4045","system_id":"levelo_inurba_marseille","lat":43.254947,"lon":5.376454,"is_reserved":false,"is_disabled":false,"rental_uris":{"android":"levelo://app?vid=cff3dab9-b857-454d-af8b-0ee175eb4045","ios":"levelo://app?vid=cff3dab9-b857-454d-af8b-0ee175eb4045"},"vehicle_type_id":"4","last_reported":1679868379,"current_range_meters":28800,"station_id":"ce4bhh12rcd13ifvqff0","pricing_plan_id":"free"},{"bike_id":"c4bbe741-c10c-4b3c-94cf-2b04b35e90d3","system_id":"levelo_inurba_marseille","lat":43.254947,"lon":5.376454,"is_reserved":false,"is_disabled":false,"rental_uris":{"android":"levelo://app?vid=c4bbe741-c10c-4b3c-94cf-2b04b35e90d3","ios":"levelo://app?vid=c4bbe741-c10c-4b3c-94cf-2b04b35e90d3"},"vehicle_type_id":"4","last_reported":1679868379,"current_range_meters":16400,"station_id":"ce4bhh12rcd13ifvqff0","pricing_plan_id":"free"},{"bike_id":"b5505fc3-2cf8-4bb9-84fc-38472ac1234d","system_id":"levelo_inurba_marseille","lat":43.27076,"lon":5.4227,"is_reserved":false,"is_disabled":false,"rental_uris":{"android":"levelo://app?vid=b5505fc3-2cf8-4bb9-84fc-38472ac1234d","ios":"levelo://app?vid=b5505fc3-2cf8-4bb9-84fc-38472ac1234d"},"vehicle_type_id":"4","last_reported":1679868379,"current_range_meters":6400,"station_id":"ce4bhk92rcd13ifvqgb0","pricing_plan_id":"free"},{"bike_id":"08f6336a-adc1-49fc-bc78-b01afdfdfc7c","system_id":"levelo_inurba_marseille","lat":43.270721,"lon":5.422764,"is_reserved":false,"is_disabled":false,"rental_uris":{"android":"levelo://app?vid=08f6336a-adc1-49fc-bc78-b01afdfdfc7c","ios":"levelo://app?vid=08f6336a-adc1-49fc-bc78-b01afdfdfc7c"},"vehicle_type_id":"4","last_reported":1679868379,"current_range_meters":29200,"station_id":"ce4bhk92rcd13ifvqgb0","pricing_plan_id":"free"},{"bike_id":"91b41492-3837-4f8a-ab50-30fbf6b137cf","system_id":"levelo_inurba_marseille","lat":43.270721,"lon":5.422764,"is_reserved":false,"is_disabled":false,"rental_uris":{"android":"levelo://app?vid=91b41492-3837-4f8a-ab50-30fbf6b137cf","ios":"levelo://app?vid=91b41492-3837-4f8a-ab50-30fbf6b137cf"},"vehicle_type_id":"4","last_reported":1679868379,"current_range_meters":4400,"station_id":"ce4bhk92rcd13ifvqgb0","pricing_plan_id":"free"},{"bike_id":"e966b116-f1b6-413a-ac59-63e2ea4fa22f","system_id":"levelo_inurba_marseille","lat":43.270721,"lon":5.422764,"is_reserved":false,"is_disabled":false,"rental_uris":{"android":"levelo://app?vid=e966b116-f1b6-413a-ac59-63e2ea4fa22f","ios":"levelo://app?vid=e966b116-f1b6-413a-ac59-63e2ea4fa22f"},"vehicle_type_id":"4","last_reported":1679868379,"current_range_meters":3200,"station_id":"ce4bhk92rcd13ifvqgb0","pricing_plan_id":"free"},{"bike_id":"9fec407a-00ca-465f-8c87-4e5476d05cc9","system_id":"levelo_inurba_marseille","lat":43.25119,"lon":5.40315,"is_reserved":false,"is_disabled":false,"rental_uris":{"android":"levelo://app?vid=9fec407a-00ca-465f-8c87-4e5476d05cc9","ios":"levelo://app?vid=9fec407a-00ca-465f-8c87-4e5476d05cc9"},"vehicle_type_id":"4","last_reported":1679868379,"current_range_meters":3600,"station_id":"ce4bhlh2rcd13ifvqgig","pricing_plan_id":"free"},{"bike_id":"11ae550f-7082-400a-a1f9-079f4a67b0af","system_id":"levelo_inurba_marseille","lat":43.25102,"lon":5.403214,"is_reserved":false,"is_disabled":false,"rental_uris":{"android":"levelo://app?vid=11ae550f-7082-400a-a1f9-079f4a67b0af","ios":"levelo://app?vid=11ae550f-7082-400a-a1f9-079f4a67b0af"},"vehicle_type_id":"4","last_reported":1679868379,"current_range_meters":6000,"station_id":"ce4bhlh2rcd13ifvqgig","pricing_plan_id":"free"},{"bike_id":"0e1135ae-a901-45e5-bf14-1a90eca17423","system_id":"levelo_inurba_marseille","lat":43.25102,"lon":5.403214,"is_reserved":false,"is_disabled":false,"rental_uris":{"android":"levelo://app?vid=0e1135ae-a901-45e5-bf14-1a90eca17423","ios":"levelo://app?vid=0e1135ae-a901-45e5-bf14-1a90eca17423"},"vehicle_type_id":"4","last_reported":1679868379,"current_range_meters":21200,"station_id":"ce4bhlh2rcd13ifvqgig","pricing_plan_id":"free"},{"bike_id":"326cb4f4-cbdb-455e-ab52-28a8364df52c","system_id":"levelo_inurba_marseille","lat":43.246461,"lon":5.389014,"is_reserved":false,"is_disabled":false,"rental_uris":{"android":"levelo://app?vid=326cb4f4-cbdb-455e-ab52-28a8364df52c","ios":"levelo://app?vid=326cb4f4-cbdb-455e-ab52-28a8364df52c"},"vehicle_type_id":"4","last_reported":1679868379,"current_range_meters":16000,"station_id":"ce4bhg12rcd13ifvqf60","pricing_plan_id":"free"},{"bike_id":"8bcb4702-6194-43eb-a1fc-1fd70d7344b0","system_id":"levelo_inurba_marseille","lat":43.24397,"lon":5.3712,"is_reserved":false,"is_disabled":false,"rental_uris":{"android":"levelo://app?vid=8bcb4702-6194-43eb-a1fc-1fd70d7344b0","ios":"levelo://app?vid=8bcb4702-6194-43eb-a1fc-1fd70d7344b0"},"vehicle_type_id":"4","last_reported":1679868379,"current_range_meters":26400,"station_id":"ce4bhhh2rcd13ifvqfk0","pricing_plan_id":"free"},{"bike_id":"a797e941-4426-40eb-a320-8f2d1009450d","system_id":"levelo_inurba_marseille","lat":43.245581,"lon":5.395069,"is_reserved":false,"is_disabled":false,"rental_uris":{"android":"levelo://app?vid=a797e941-4426-40eb-a320-8f2d1009450d","ios":"levelo://app?vid=a797e941-4426-40eb-a320-8f2d1009450d"},"vehicle_type_id":"4","last_reported":1679868379,"current_range_meters":0,"station_id":"ce4bhlp2rcd13ifvqgjg","pricing_plan_id":"free"},{"bike_id":"1fde9e1d-5fd5-477c-9d4f-1dd57ba6b1b7","system_id":"levelo_inurba_marseille","lat":43.24076,"lon":5.37759,"is_reserved":false,"is_disabled":false,"rental_uris":{"android":"levelo://app?vid=1fde9e1d-5fd5-477c-9d4f-1dd57ba6b1b7","ios":"levelo://app?vid=1fde9e1d-5fd5-477c-9d4f-1dd57ba6b1b7"},"vehicle_type_id":"4","last_reported":1679868379,"current_range_meters":29600,"station_id":"ce4bhnp2rcd13ifvqgvg","pricing_plan_id":"free"},{"bike_id":"01390ef5-744a-40f2-a77b-906256da51e7","system_id":"levelo_inurba_marseille","lat":43.240623,"lon":5.377642,"is_reserved":false,"is_disabled":false,"rental_uris":{"android":"levelo://app?vid=01390ef5-744a-40f2-a77b-906256da51e7","ios":"levelo://app?vid=01390ef5-744a-40f2-a77b-906256da51e7"},"vehicle_type_id":"4","last_reported":1679868379,"current_range_meters":0,"station_id":"ce4bhnp2rcd13ifvqgvg","pricing_plan_id":"free"},{"bike_id":"d245cfdb-b3f5-40a7-baa3-2406ad54b4b5","system_id":"levelo_inurba_marseille","lat":43.28535,"lon":5.45978,"is_reserved":false,"is_disabled":false,"rental_uris":{"android":"levelo://app?vid=d245cfdb-b3f5-40a7-baa3-2406ad54b4b5","ios":"levelo://app?vid=d245cfdb-b3f5-40a7-baa3-2406ad54b4b5"},"vehicle_type_id":"4","last_reported":1679868379,"current_range_meters":25200,"station_id":"","pricing_plan_id":"free"},{"bike_id":"e229d9b3-fd72-4606-a5ed-f9cbcbdd08d0","system_id":"levelo_inurba_marseille","lat":43.239588,"lon":5.366238,"is_reserved":false,"is_disabled":false,"rental_uris":{"android":"levelo://app?vid=e229d9b3-fd72-4606-a5ed-f9cbcbdd08d0","ios":"levelo://app?vid=e229d9b3-fd72-4606-a5ed-f9cbcbdd08d0"},"vehicle_type_id":"4","last_reported":1679868379,"current_range_meters":0,"station_id":"ce4bhi12rcd13ifvqfp0","pricing_plan_id":"free"},{"bike_id":"99ec9591-689f-43c6-b4f0-94293b068ab3","system_id":"levelo_inurba_marseille","lat":43.24381,"lon":5.403058,"is_reserved":false,"is_disabled":false,"rental_uris":{"android":"levelo://app?vid=99ec9591-689f-43c6-b4f0-94293b068ab3","ios":"levelo://app?vid=99ec9591-689f-43c6-b4f0-94293b068ab3"},"vehicle_type_id":"4","last_reported":1679868379,"current_range_meters":11200,"station_id":"","pricing_plan_id":"free"},{"bike_id":"9854f26e-0aee-444b-b5de-a7f77e7f5713","system_id":"levelo_inurba_marseille","lat":43.241782,"lon":5.397261,"is_reserved":false,"is_disabled":false,"rental_uris":{"android":"levelo://app?vid=9854f26e-0aee-444b-b5de-a7f77e7f5713","ios":"levelo://app?vid=9854f26e-0aee-444b-b5de-a7f77e7f5713"},"vehicle_type_id":"4","last_reported":1679868379,"current_range_meters":4800,"station_id":"ce4bhn12rcd13ifvqgpg","pricing_plan_id":"free"},{"bike_id":"d90be3db-2000-4e04-a388-d792f5ae0cb3","system_id":"levelo_inurba_marseille","lat":43.241782,"lon":5.397264,"is_reserved":false,"is_disabled":false,"rental_uris":{"android":"levelo://app?vid=d90be3db-2000-4e04-a388-d792f5ae0cb3","ios":"levelo://app?vid=d90be3db-2000-4e04-a388-d792f5ae0cb3"},"vehicle_type_id":"4","last_reported":1679868379,"current_range_meters":0,"station_id":"ce4bhn12rcd13ifvqgpg","pricing_plan_id":"free"},{"bike_id":"70d1ed66-bb3a-4af1-a162-6bab3fb83bdc","system_id":"levelo_inurba_marseille","lat":43.231923,"lon":5.355545,"is_reserved":false,"is_disabled":false,"rental_uris":{"android":"levelo://app?vid=70d1ed66-bb3a-4af1-a162-6bab3fb83bdc","ios":"levelo://app?vid=70d1ed66-bb3a-4af1-a162-6bab3fb83bdc"},"vehicle_type_id":"4","last_reported":1679868379,"current_range_meters":22000,"station_id":"ce4bhu92rcd13ifvqi70","pricing_plan_id":"free"},{"bike_id":"12b9e0b7-199c-45f2-8c4f-e74fdb124d69","system_id":"levelo_inurba_marseille","lat":43.28463,"lon":5.48688,"is_reserved":false,"is_disabled":false,"rental_uris":{"android":"levelo://app?vid=12b9e0b7-199c-45f2-8c4f-e74fdb124d69","ios":"levelo://app?vid=12b9e0b7-199c-45f2-8c4f-e74fdb124d69"},"vehicle_type_id":"4","last_reported":1679868379,"current_range_meters":7200,"station_id":"","pricing_plan_id":"free"}]}}