{"last_updated":1753452712,"ttl":60,"version":"2.2","data":{"bikes":[{"bike_id":"8f1ac6b1-9977-492a-8fd6-7b5c92ac5bc5","system_id":"levelo_inurba_marseille","lat":43.243896,"lon":5.370652,"is_reserved":false,"is_disabled":false,"rental_uris":{"android":"levelo://app?vid=8f1ac6b1-9977-492a-8fd6-7b5c92ac5bc5","ios":"levelo://app?vid=8f1ac6b1-9977-492a-8fd6-7b5c92ac5bc5"},"vehicle_type_id":"4","last_reported":1753452712,"current_range_meters":2800,"station_id":"","pricing_plan_id":"cebpf4jnsgd1na2vs0mg"},{"bike_id":"44168810-6be7-466b-8eb0-56c888cc7160","system_id":"levelo_inurba_marseille","lat":43.30625,"lon":5.37373,"is_reserved":false,"is_disabled":false,"rental_uris":{"android":"levelo://app?vid=44168810-6be7-466b-8eb0-56c888cc7160","ios":"levelo://app?vid=44168810-6be7-466b-8eb0-56c888cc7160"},"vehicle_type_id":"4","last_reported":1753452712,"current_range_meters":2800,"station_id":"","pricing_plan_id":"cebpf4jnsgd1na2vs0mg"},{"bike_id":"2bf6bffe-b207-4557-83a8-5416ffb85e3b","system_id":"levelo_inurba_marseille","lat":43.297752,"lon":5.371104,"is_reserved":false,"is_disabled":false,"rental_uris":{"android":"levelo://app?vid=2bf6bffe-b207-4557-83a8-5416ffb85e3b","ios":"levelo://app?vid=2bf6bffe-b207-4557-83a8-5416ffb85e3b"},"vehicle_type_id":"4","last_reported":1753452712,"current_range_meters":3200,"station_id":"","pricing_plan_id":"cebpf4jnsgd1na2vs0mg"},{"bike_id":"6c5748dc-a04e-48ed-b8ca-a3f40ee96024","system_id":"levelo_inurba_marseille","lat":43.29779,"lon":5.39323,"is_reserved":false,"is_disabled":false,"rental_uris":{"android":"levelo://app?vid=6c5748dc-a04e-48ed-b8ca-a3f40ee96024","ios":"levelo://app?vid=6c5748dc-a04e-48ed-b8ca-a3f40ee96024"},"vehicle_type_id":"4","last_reported":1753452712,"current_range_meters":3600,"station_id":"chh1huq6cuj3fo74tm60","pricing_plan_id":"cebpf4jnsgd1na2vs0mg"},{"bike_id":"fe65d7d6-638d-40a5-bccf-533e7cf482a6","system_id":"levelo_inurba_marseille","lat":43.28342,"lon":5.43263,"is_reserved":false,"is_disabled":false,"rental_uris":{"android":"levelo://app?vid=fe65d7d6-638d-40a5-bccf-533e7cf482a6","ios":"levelo://app?vid=fe65d7d6-638d-40a5-bccf-533e7cf482a6"},"vehicle_type_id":"4","last_reported":1753452712,"current_range_meters":4400,"station_id":"","pricing_plan_id":"cebpf4jnsgd1na2vs0mg"},{"bike_id":"e9d3743a-3688-4789-b659-4e98edad8b72","system_id":"levelo_inurba_marseille","lat":43.26054,"lon":5.39412,"is_reserved":false,"is_disabled":false,"rental_uris":{"android":"levelo://app?vid=e9d3743a-3688-4789-b659-4e98edad8b72","ios":"levelo://app?vid=e9d3743a-3688-4789-b659-4e98edad8b72"},"vehicle_type_id":"4","last_reported":1753452712,"current_range_meters":4800,"station_id":"ce4bhh92rcd13ifvqfj0","pricing_plan_id":"cebpf4jnsgd1na2vs0mg"},{"bike_id":"27d78f8e-0f28-4c40-9c30-2b7bad26d0ab","system_id":"levelo_inurba_marseille","lat":43.28266,"lon":5.35075,"is_reserved":false,"is_disabled":false,"rental_uris":{"android":"levelo://app?vid=27d78f8e-0f28-4c40-9c30-2b7bad26d0ab","ios":"levelo://app?vid=27d78f8e-0f28-4c40-9c30-2b7bad26d0ab"},"vehicle_type_id":"4","last_reported":1753452712,"current_range_meters":4800,"station_id":"ce4bhbp2rcd13ifvqerg","pricing_plan_id":"cebpf4jnsgd1na2vs0mg"},{"bike_id":"69ff36e6-2091-4f2a-89b4-7a43209b7a59","system_id":"levelo_inurba_marseille","lat":43.29227,"lon":5.36066,"is_reserved":false,"is_disabled":false,"rental_uris":{"android":"levelo://app?vid=69ff36e6-2091-4f2a-89b4-7a43209b7a59","ios":"levelo://app?vid=69ff36e6-2091-4f2a-89b4-7a43209b7a59"},"vehicle_type_id":"4","last_reported":1753452712,"current_range_meters":5600,"station_id":"ce4bhbh2rcd13ifvqeqg","pricing_plan_id":"cebpf4jnsgd1na2vs0mg"},{"bike_id":"56c28967-4939-40af-a3d7-73943e84e87c","system_id":"levelo_inurba_marseille","lat":43.23182,"lon":5.39992,"is_reserved":false,"is_disabled":false,"rental_uris":{"android":"levelo://app?vid=56c28967-4939-40af-a3d7-73943e84e87c","ios":"levelo://app?vid=56c28967-4939-40af-a3d7-73943e84e87c"},"vehicle_type_id":"4","last_reported":1753452712,"current_range_meters":5600,"station_id":"ce4bhn12rcd13ifvqgqg","pricing_plan_id":"cebpf4jnsgd1na2vs0mg"},{"bike_id":"03e89fcd-0b3a-4331-bfa4-b6d13aacc954","system_id":"levelo_inurba_marseille","lat":43.30145,"lon":5.38769,"is_reserved":false,"is_disabled":false,"rental_uris":{"android":"levelo://app?vid=03e89fcd-0b3a-4331-bfa4-b6d13aacc954","ios":"levelo://app?vid=03e89fcd-0b3a-4331-bfa4-b6d13aacc954"},"vehicle_type_id":"4","last_reported":1753452712,"current_range_meters":4800,"station_id":"ce4bghh2rcd13ifvqb60","pricing_plan_id":"cebpf4jnsgd1na2vs0mg"},{"bike_id":"d31e0896-4f93-49f6-8eda-42db6e73dafa","system_id":"levelo_inurba_marseille","lat":43.29787,"lon":5.39339,"is_reserved":false,"is_disabled":false,"rental_uris":{"android":"levelo://app?vid=d31e0896-4f93-49f6-8eda-42db6e73dafa","ios":"levelo://app?vid=d31e0896-4f93-49f6-8eda-42db6e73dafa"},"vehicle_type_id":"4","last_reported":1753452712,"current_range_meters":5600,"station_id":"chh1huq6cuj3fo74tm60","pricing_plan_id":"cebpf4jnsgd1na2vs0mg"},{"bike_id":"00fdb357-934d-4866-a735-66eb558dbe26","system_id":"levelo_inurba_marseille","lat":43.26792,"lon":5.39419,"is_reserved":false,"is_disabled":false,"rental_uris":{"android":"levelo://app?vid=00fdb357-934d-4866-a735-66eb558dbe26","ios":"levelo://app?vid=00fdb357-934d-4866-a735-66eb558dbe26"},"vehicle_type_id":"4","last_reported":1753452712,"current_range_meters":5600,"station_id":"ce4bhh12rcd13ifvqfg0","pricing_plan_id":"cebpf4jnsgd1na2vs0mg"},{"bike_id":"d62fa972-cf10-438d-898e-a03e121f6ffa","system_id":"levelo_inurba_marseille","lat":43.29189,"lon":5.4082,"is_reserved":false,"is_disabled":false,"rental_uris":{"android":"levelo://app?vid=d62fa972-cf10-438d-898e-a03e121f6ffa","ios":"levelo://app?vid=d62fa972-cf10-438d-898e-a03e121f6ffa"},"vehicle_type_id":"4","last_reported":1753452712,"current_range_meters":6000,"station_id":"","pricing_plan_id":"cebpf4jnsgd1na2vs0mg"},{"bike_id":"6c9af1e9-db18-4e14-af07-523e29b04760","system_id":"levelo_inurba_marseille","lat":43.30336,"lon":5.40424,"is_reserved":false,"is_disabled":false,"rental_uris":{"android":"levelo://app?vid=6c9af1e9-db18-4e14-af07-523e29b04760","ios":"levelo://app?vid=6c9af1e9-db18-4e14-af07-523e29b04760"},"vehicle_type_id":"4","last_reported":1753452712,"current_range_meters":6000,"station_id":"ce4bh012rcd13ifvqd10","pricing_plan_id":"cebpf4jnsgd1na2vs0mg"},{"bike_id":"2937f6cf-27e3-444b-80a2-fa5fde1689d0","system_id":"levelo_inurba_marseille","lat":43.28752,"lon":5.38496,"is_reserved":false,"is_disabled":false,"rental_uris":{"android":"levelo://app?vid=2937f6cf-27e3-444b-80a2-fa5fde1689d0","ios":"levelo://app?vid=2937f6cf-27e3-444b-80a2-fa5fde1689d0"},"vehicle_type_id":"4","last_reported":1753452712,"current_range_meters":6000,"station_id":"","pricing_plan_id":"cebpf4jnsgd1na2vs0mg"},{"bike_id":"33f82924-5acb-458e-bffa-9a270a37ed22","system_id":"levelo_inurba_marseille","lat":43.28163,"lon":5.42631,"is_reserved":false,"is_disabled":false,"rental_uris":{"android":"levelo://app?vid=33f82924-5acb-458e-bffa-9a270a37ed22","ios":"levelo://app?vid=33f82924-5acb-458e-bffa-9a270a37ed22"},"vehicle_type_id":"4","last_reported":1753452712,"current_range_meters":5600,"station_id":"ce4bhnh2rcd13ifvqgug","pricing_plan_id":"cebpf4jnsgd1na2vs0mg"},{"bike_id":"5945d23a-3904-46e3-a204-52f1eb7c7976","system_id":"levelo_inurba_marseille","lat":43.30144,"lon":5.38062,"is_reserved":false,"is_disabled":false,"rental_uris":{"android":"levelo://app?vid=5945d23a-3904-46e3-a204-52f1eb7c7976","ios":"levelo://app?vid=5945d23a-3904-46e3-a204-52f1eb7c7976"},"vehicle_type_id":"4","last_reported":1753452712,"current_range_meters":6400,"station_id":"ce4bgjp2rcd13ifvqbh0","pricing_plan_id":"cebpf4jnsgd1na2vs0mg"},{"bike_id":"3b098f18-a1f4-4594-b70b-33670d0ab3a9","system_id":"levelo_inurba_marseille","lat":43.21214,"lon":5.35071,"is_reserved":false,"is_disabled":false,"rental_uris":{"android":"levelo://app?vid=3b098f18-a1f4-4594-b70b-33670d0ab3a9","ios":"levelo://app?vid=3b098f18-a1f4-4594-b70b-33670d0ab3a9"},"vehicle_type_id":"4","last_reported":1753452712,"current_range_meters":6400,"station_id":"st_cvj6sg6p6f1abm77japg","pricing_plan_id":"cebpf4jnsgd1na2vs0mg"},{"bike_id":"85b1ffd2-5fc3-4703-bf38-c866c7677b84","system_id":"levelo_inurba_marseille","lat":43.27955,"lon":5.39072,"is_reserved":false,"is_disabled":false,"rental_uris":{"android":"levelo://app?vid=85b1ffd2-5fc3-4703-bf38-c866c7677b84","ios":"levelo://app?vid=85b1ffd2-5fc3-4703-bf38-c866c7677b84"},"vehicle_type_id":"4","last_reported":1753452712,"current_range_meters":6400,"station_id":"","pricing_plan_id":"cebpf4jnsgd1na2vs0mg"},{"bike_id":"b8452933-a34b-4ab5-a975-51c01fc90adb","system_id":"levelo_inurba_marseille","lat":43.30877,"lon":5.39634,"is_reserved":false,"is_disabled":false,"rental_uris":{"android":"levelo://app?vid=b8452933-a34b-4ab5-a975-51c01fc90adb","ios":"levelo://app?vid=b8452933-a34b-4ab5-a975-51c01fc90adb"},"vehicle_type_id":"4","last_reported":1753452712,"current_range_meters":6400,"station_id":"ce4bh012rcd13ifvqcv0","pricing_plan_id":"cebpf4jnsgd1na2vs0mg"},{"bike_id":"d87b56f9-aec8-4c18-8340-d7aba9319bde","system_id":"levelo_inurba_marseille","lat":43.275027,"lon":5.396503,"is_reserved":false,"is_disabled":false,"rental_uris":{"android":"levelo://app?vid=d87b56f9-aec8-4c18-8340-d7aba9319bde","ios":"levelo://app?vid=d87b56f9-aec8-4c18-8340-d7aba9319bde"},"vehicle_type_id":"4","last_reported":1753452712,"current_range_meters":6800,"station_id":"","pricing_plan_id":"cebpf4jnsgd1na2vs0mg"},{"bike_id":"70ef48d3-2b93-4a8a-af8b-a7a0859e5eb3","system_id":"levelo_inurba_marseille","lat":43.31119,"lon":5.37764,"is_reserved":false,"is_disabled":false,"rental_uris":{"android":"levelo://app?vid=70ef48d3-2b93-4a8a-af8b-a7a0859e5eb3","ios":"levelo://app?vid=70ef48d3-2b93-4a8a-af8b-a7a0859e5eb3"},"vehicle_type_id":"4","last_reported":1753452712,"current_range_meters":6800,"station_id":"ce4bgt92rcd13ifvqcg0","pricing_plan_id":"cebpf4jnsgd1na2vs0mg"},{"bike_id":"f2946fdf-02c6-4497-9874-d971f016e0c3","system_id":"levelo_inurba_marseille","lat":43.302196,"lon":5.394711,"is_reserved":false,"is_disabled":false,"rental_uris":{"android":"levelo://app?vid=f2946fdf-02c6-4497-9874-d971f016e0c3","ios":"levelo://app?vid=f2946fdf-02c6-4497-9874-d971f016e0c3"},"vehicle_type_id":"4","last_reported":1753452712,"current_range_meters":6800,"station_id":"ce4bh0p2rcd13ifvqd70","pricing_plan_id":"cebpf4jnsgd1na2vs0mg"},{"bike_id":"726f446b-becd-4c80-9db9-eeeff2dde71d","system_id":"levelo_inurba_marseille","lat":43.27217,"lon":5.39173,"is_reserved":false,"is_disabled":false,"rental_uris":{"android":"levelo://app?vid=726f446b-becd-4c80-9db9-eeeff2dde71d","ios":"levelo://app?vid=726f446b-becd-4c80-9db9-eeeff2dde71d"},"vehicle_type_id":"4","last_reported":1753452712,"current_range_meters":6800,"station_id":"ce4bhhp2rcd13ifvqfm0","pricing_plan_id":"cebpf4jnsgd1na2vs0mg"},{"bike_id":"e19cd9bd-8f1f-4909-a624-5af678243303","system_id":"levelo_inurba_marseille","lat":43.29042,"lon":5.39903,"is_reserved":false,"is_disabled":false,"rental_uris":{"android":"levelo://app?vid=e19cd9bd-8f1f-4909-a624-5af678243303","ios":"levelo://app?vid=e19cd9bd-8f1f-4909-a624-5af678243303"},"vehicle_type_id":"4","last_reported":1753452712,"current_range_meters":7200,"station_id":"ce4bh392rcd13ifvqdm0","pricing_plan_id":"cebpf4jnsgd1na2vs0mg"},{"bike_id":"3843a00f-81d8-45fd-a52a-64868b9c8532","system_id":"levelo_inurba_marseille","lat":43.29761,"lon":5.3771,"is_reserved":false,"is_disabled":false,"rental_uris":{"android":"levelo://app?vid=3843a00f-81d8-45fd-a52a-64868b9c8532","ios":"levelo://app?vid=3843a00f-81d8-45fd-a52a-64868b9c8532"},"vehicle_type_id":"4","last_reported":1753452712,"current_range_meters":7200,"station_id":"","pricing_plan_id":"cebpf4jnsgd1na2vs0mg"},{"bike_id":"9ec97f56-8bba-4c51-b162-d230a3e8962a","system_id":"levelo_inurba_marseille","lat":43.30656,"lon":5.40078,"is_reserved":false,"is_disabled":false,"rental_uris":{"android":"levelo://app?vid=9ec97f56-8bba-4c51-b162-d230a3e8962a","ios":"levelo://app?vid=9ec97f56-8bba-4c51-b162-d230a3e8962a"},"vehicle_type_id":"4","last_reported":1753452712,"current_range_meters":7200,"station_id":"ce4bh112rcd13ifvqda0","pricing_plan_id":"cebpf4jnsgd1na2vs0mg"},{"bike_id":"67a93391-d932-4602-bb91-271d6f70164f","system_id":"levelo_inurba_marseille","lat":43.225085,"lon":5.347838,"is_reserved":false,"is_disabled":false,"rental_uris":{"android":"levelo://app?vid=67a93391-d932-4602-bb91-271d6f70164f","ios":"levelo://app?vid=67a93391-d932-4602-bb91-271d6f70164f"},"vehicle_type_id":"4","last_reported":1753452712,"current_range_meters":7200,"station_id":"st_cvj5dfep6f1abm77gieg","pricing_plan_id":"cebpf4jnsgd1na2vs0mg"},{"bike_id":"b8afd004-d215-4e18-b0a4-8f42f46bc079","system_id":"levelo_inurba_marseille","lat":43.27914,"lon":5.39578,"is_reserved":false,"is_disabled":false,"rental_uris":{"android":"levelo://app?vid=b8afd004-d215-4e18-b0a4-8f42f46bc079","ios":"levelo://app?vid=b8afd004-d215-4e18-b0a4-8f42f46bc079"},"vehicle_type_id":"4","last_reported":1753452712,"current_range_meters":8000,"station_id":"ce4bhf92rcd13ifvqf40","pricing_plan_id":"cebpf4jnsgd1na2vs0mg"},{"bike_id":"cc93b045-251f-44fb-b8b2-b0ce0c339f12","system_id":"levelo_inurba_marseille","lat":43.27054,"lon":5.40257,"is_reserved":false,"is_disabled":false,"rental_uris":{"android":"levelo://app?vid=cc93b045-251f-44fb-b8b2-b0ce0c339f12","ios":"levelo://app?vid=cc93b045-251f-44fb-b8b2-b0ce0c339f12"},"vehicle_type_id":"4","last_reported":1753452712,"current_range_meters":8400,"station_id":"ce4bhk92rcd13ifvqgc0","pricing_plan_id":"cebpf4jnsgd1na2vs0mg"},{"bike_id":"37c4ab19-66ed-4ea2-a0c0-13798f3ebc19","system_id":"levelo_inurba_marseille","lat":43.30429,"lon":5.38886,"is_reserved":false,"is_disabled":false,"rental_uris":{"android":"levelo://app?vid=37c4ab19-66ed-4ea2-a0c0-13798f3ebc19","ios":"levelo://app?vid=37c4ab19-66ed-4ea2-a0c0-13798f3ebc19"},"vehicle_type_id":"4","last_reported":1753452712,"current_range_meters":8400,"station_id":"ce4bgk12rcd13ifvqbi0","pricing_plan_id":"cebpf4jnsgd1na2vs0mg"},{"bike_id":"e48b8863-dde7-4b89-bf64-6fd5d8a9d707","system_id":"levelo_inurba_marseille","lat":43.279022,"lon":5.379982,"is_reserved":false,"is_disabled":false,"rental_uris":{"android":"levelo://app?vid=e48b8863-dde7-4b89-bf64-6fd5d8a9d707","ios":"levelo://app?vid=e48b8863-dde7-4b89-bf64-6fd5d8a9d707"},"vehicle_type_id":"4","last_reported":1753452712,"current_range_meters":8400,"station_id":"ce4bhf92rcd13ifvqf50","pricing_plan_id":"cebpf4jnsgd1na2vs0mg"},{"bike_id":"2e8e7fa4-47bc-4567-b903-96abfb4fdf66","system_id":"levelo_inurba_marseille","lat":43.29276,"lon":5.44586,"is_reserved":false,"is_disabled":false,"rental_uris":{"android":"levelo://app?vid=2e8e7fa4-47bc-4567-b903-96abfb4fdf66","ios":"levelo://app?vid=2e8e7fa4-47bc-4567-b903-96abfb4fdf66"},"vehicle_type_id":"4","last_reported":1753452712,"current_range_meters":8400,"station_id":"","pricing_plan_id":"cebpf4jnsgd1na2vs0mg"},{"bike_id":"bcfeb788-eed8-4a22-9566-78b3af0fa09b","system_id":"levelo_inurba_marseille","lat":43.29907,"lon":5.37576,"is_reserved":false,"is_disabled":false,"rental_uris":{"android":"levelo://app?vid=bcfeb788-eed8-4a22-9566-78b3af0fa09b","ios":"levelo://app?vid=bcfeb788-eed8-4a22-9566-78b3af0fa09b"},"vehicle_type_id":"4","last_reported":1753452712,"current_range_meters":8400,"station_id":"","pricing_plan_id":"cebpf4jnsgd1na2vs0mg"},{"bike_id":"b93c0803-f824-4cb7-a4ed-57da1403b68e","system_id":"levelo_inurba_marseille","lat":43.325583,"lon":5.379059,"is_reserved":false,"is_disabled":true,"rental_uris":{"android":"levelo://app?vid=b93c0803-f824-4cb7-a4ed-57da1403b68e","ios":"levelo://app?vid=b93c0803-f824-4cb7-a4ed-57da1403b68e"},"vehicle_type_id":"4","last_reported":1753452712,"current_range_meters":8400,"station_id":"","pricing_plan_id":"cebpf4jnsgd1na2vs0mg"},{"bike_id":"4e976c25-37e5-4b16-aab1-247c496bca54","system_id":"levelo_inurba_marseille","lat":43.28405,"lon":5.34963,"is_reserved":false,"is_disabled":false,"rental_uris":{"android":"levelo://app?vid=4e976c25-37e5-4b16-aab1-247c496bca54","ios":"levelo://app?vid=4e976c25-37e5-4b16-aab1-247c496bca54"},"vehicle_type_id":"4","last_reported":1753452712,"current_range_meters":8400,"station_id":"ce4bhbh2rcd13ifvqepg","pricing_plan_id":"cebpf4jnsgd1na2vs0mg"},{"bike_id":"fd4ba70a-7bfa-434e-8564-04bf25cc9f63","system_id":"levelo_inurba_marseille","lat":43.281,"lon":5.44117,"is_reserved":false,"is_disabled":false,"rental_uris":{"android":"levelo://app?vid=fd4ba70a-7bfa-434e-8564-04bf25cc9f63","ios":"levelo://app?vid=fd4ba70a-7bfa-434e-8564-04bf25cc9f63"},"vehicle_type_id":"4","last_reported":1753452712,"current_range_meters":8400,"station_id":"","pricing_plan_id":"cebpf4jnsgd1na2vs0mg"},{"bike_id":"51979a68-a8cc-400e-b7b9-cd8004031e65","system_id":"levelo_inurba_marseille","lat":43.22502,"lon":5.34789,"is_reserved":false,"is_disabled":false,"rental_uris":{"android":"levelo://app?vid=51979a68-a8cc-400e-b7b9-cd8004031e65","ios":"levelo://app?vid=51979a68-a8cc-400e-b7b9-cd8004031e65"},"vehicle_type_id":"4","last_reported":1753452712,"current_range_meters":8400,"station_id":"st_cvj5dfep6f1abm77gieg","pricing_plan_id":"cebpf4jnsgd1na2vs0mg"},{"bike_id":"26788786-50e4-480b-b8f0-60497e9370d0","system_id":"levelo_inurba_marseille","lat":43.29208,"lon":5.36048,"is_reserved":false,"is_disabled":false,"rental_uris":{"android":"levelo://app?vid=26788786-50e4-480b-b8f0-60497e9370d0","ios":"levelo://app?vid=26788786-50e4-480b-b8f0-60497e9370d0"},"vehicle_type_id":"4","last_reported":1753452712,"current_range_meters":8400,"station_id":"ce4bhbh2rcd13ifvqeqg","pricing_plan_id":"cebpf4jnsgd1na2vs0mg"},{"bike_id":"d98af0f5-6fe0-4160-b0d4-b93a2c2342e6","system_id":"levelo_inurba_marseille","lat":43.267809,"lon":5.394183,"is_reserved":false,"is_disabled":false,"rental_uris":{"android":"levelo://app?vid=d98af0f5-6fe0-4160-b0d4-b93a2c2342e6","ios":"levelo://app?vid=d98af0f5-6fe0-4160-b0d4-b93a2c2342e6"},"vehicle_type_id":"4","last_reported":1753452712,"current_range_meters":8400,"station_id":"ce4bhgp2rcd13ifvqfe0","pricing_plan_id":"cebpf4jnsgd1na2vs0mg"},{"bike_id":"167883a4-2eba-4330-8d32-09d1bbfdf47e","system_id":"levelo_inurba_marseille","lat":43.29635,"lon":5.40592,"is_reserved":false,"is_disabled":false,"rental_uris":{"android":"levelo://app?vid=167883a4-2eba-4330-8d32-09d1bbfdf47e","ios":"levelo://app?vid=167883a4-2eba-4330-8d32-09d1bbfdf47e"},"vehicle_type_id":"4","last_reported":1753452712,"current_range_meters":8800,"station_id":"ce4bh0h2rcd13ifvqd60","pricing_plan_id":"cebpf4jnsgd1na2vs0mg"},{"bike_id":"caaa2ce3-32c8-4819-a98d-8b9b2ed04cae","system_id":"levelo_inurba_marseille","lat":43.27205,"lon":5.39188,"is_reserved":false,"is_disabled":false,"rental_uris":{"android":"levelo://app?vid=caaa2ce3-32c8-4819-a98d-8b9b2ed04cae","ios":"levelo://app?vid=caaa2ce3-32c8-4819-a98d-8b9b2ed04cae"},"vehicle_type_id":"4","last_reported":1753452712,"current_range_meters":8800,"station_id":"ce4bhhp2rcd13ifvqfm0","pricing_plan_id":"cebpf4jnsgd1na2vs0mg"},{"bike_id":"31320540-a396-402e-8748-c2c4ff5bcb96","system_id":"levelo_inurba_marseille","lat":43.30563,"lon":5.36544,"is_reserved":false,"is_disabled":false,"rental_uris":{"android":"levelo://app?vid=31320540-a396-402e-8748-c2c4ff5bcb96","ios":"levelo://app?vid=31320540-a396-402e-8748-c2c4ff5bcb96"},"vehicle_type_id":"4","last_reported":1753452712,"current_range_meters":8800,"station_id":"ce4bgs12rcd13ifvqcag","pricing_plan_id":"cebpf4jnsgd1na2vs0mg"},{"bike_id":"f28d2bb9-4217-4196-a573-ba6f4c172497","system_id":"levelo_inurba_marseille","lat":43.28154,"lon":5.3612,"is_reserved":false,"is_disabled":false,"rental_uris":{"android":"levelo://app?vid=f28d2bb9-4217-4196-a573-ba6f4c172497","ios":"levelo://app?vid=f28d2bb9-4217-4196-a573-ba6f4c172497"},"vehicle_type_id":"4","last_reported":1753452712,"current_range_meters":8800,"station_id":"","pricing_plan_id":"cebpf4jnsgd1na2vs0mg"},{"bike_id":"a765df7d-21fd-4242-af81-0863696d8b12","system_id":"levelo_inurba_marseille","lat":43.31279,"lon":5.40162,"is_reserved":false,"is_disabled":false,"rental_uris":{"android":"levelo://app?vid=a765df7d-21fd-4242-af81-0863696d8b12","ios":"levelo://app?vid=a765df7d-21fd-4242-af81-0863696d8b12"},"vehicle_type_id":"4","last_reported":1753452712,"current_range_meters":8400,"station_id":"ce4bh092rcd13ifvqd30","pricing_plan_id":"cebpf4jnsgd1na2vs0mg"},{"bike_id":"b5c6b866-8959-44e2-bba8-a433017ef9b7","system_id":"levelo_inurba_marseille","lat":43.26486,"lon":5.39559,"is_reserved":false,"is_disabled":false,"rental_uris":{"android":"levelo://app?vid=b5c6b866-8959-44e2-bba8-a433017ef9b7","ios":"levelo://app?vid=b5c6b866-8959-44e2-bba8-a433017ef9b7"},"vehicle_type_id":"4","last_reported":1753452712,"current_range_meters":9200,"station_id":"ce4bhi12rcd13ifvqfq0","pricing_plan_id":"cebpf4jnsgd1na2vs0mg"},{"bike_id":"e15b0891-564e-4241-9810-45981ef521bf","system_id":"levelo_inurba_marseille","lat":43.29796,"lon":5.38085,"is_reserved":false,"is_disabled":false,"rental_uris":{"android":"levelo://app?vid=e15b0891-564e-4241-9810-45981ef521bf","ios":"levelo://app?vid=e15b0891-564e-4241-9810-45981ef521bf"},"vehicle_type_id":"4","last_reported":1753452712,"current_range_meters":9200,"station_id":"ce4bgip2rcd13ifvqbb0","pricing_plan_id":"cebpf4jnsgd1na2vs0mg"},{"bike_id":"d5e32ee9-6bc0-49a0-bb2c-992a7f591049","system_id":"levelo_inurba_marseille","lat":43.29968,"lon":5.38492,"is_reserved":false,"is_disabled":false,"rental_uris":{"android":"levelo://app?vid=d5e32ee9-6bc0-49a0-bb2c-992a7f591049","ios":"levelo://app?vid=d5e32ee9-6bc0-49a0-bb2c-992a7f591049"},"vehicle_type_id":"4","last_reported":1753452712,"current_range_meters":9200,"station_id":"ce4bgj92rcd13ifvqbd0","pricing_plan_id":"cebpf4jnsgd1na2vs0mg"},{"bike_id":"d48c6025-8a46-4f4c-aa9a-16f6d23929d4","system_id":"levelo_inurba_marseille","lat":43.28667,"lon":5.38673,"is_reserved":false,"is_disabled":false,"rental_uris":{"android":"levelo://app?vid=d48c6025-8a46-4f4c-aa9a-16f6d23929d4","ios":"levelo://app?vid=d48c6025-8a46-4f4c-aa9a-16f6d23929d4"},"vehicle_type_id":"4","last_reported":1753452712,"current_range_meters":9200,"station_id":"ce4bh492rcd13ifvqdug","pricing_plan_id":"cebpf4jnsgd1na2vs0mg"},{"bike_id":"a2dd7c59-b362-4e5c-a612-7877189768e2","system_id":"levelo_inurba_marseille","lat":43.282704,"lon":5.350624,"is_reserved":false,"is_disabled":false,"rental_uris":{"android":"levelo://app?vid=a2dd7c59-b362-4e5c-a612-7877189768e2","ios":"levelo://app?vid=a2dd7c59-b362-4e5c-a612-7877189768e2"},"vehicle_type_id":"4","last_reported":1753452712,"current_range_meters":9600,"station_id":"ce4bhbp2rcd13ifvqerg","pricing_plan_id":"cebpf4jnsgd1na2vs0mg"},{"bike_id":"2db9dfcd-571d-42a0-8e13-a3ebb7e941b0","system_id":"levelo_inurba_marseille","lat":43.266817,"lon":5.382672,"is_reserved":false,"is_disabled":false,"rental_uris":{"android":"levelo://app?vid=2db9dfcd-571d-42a0-8e13-a3ebb7e941b0","ios":"levelo://app?vid=2db9dfcd-571d-42a0-8e13-a3ebb7e941b0"},"vehicle_type_id":"4","last_reported":1753452712,"current_range_meters":10000,"station_id":"ce4bhg92rcd13ifvqf90","pricing_plan_id":"cebpf4jnsgd1na2vs0mg"},{"bike_id":"a1676a90-aeae-4e28-8472-3e88e730a66f","system_id":"levelo_inurba_marseille","lat":43.2906,"lon":5.43956,"is_reserved":false,"is_disabled":false,"rental_uris":{"android":"levelo://app?vid=a1676a90-aeae-4e28-8472-3e88e730a66f","ios":"levelo://app?vid=a1676a90-aeae-4e28-8472-3e88e730a66f"},"vehicle_type_id":"4","last_reported":1753452712,"current_range_meters":10800,"station_id":"","pricing_plan_id":"cebpf4jnsgd1na2vs0mg"},{"bike_id":"65ea002c-6826-4825-901e-4354d09442c6","system_id":"levelo_inurba_marseille","lat":43.30797,"lon":5.38163,"is_reserved":false,"is_disabled":false,"rental_uris":{"android":"levelo://app?vid=65ea002c-6826-4825-901e-4354d09442c6","ios":"levelo://app?vid=65ea002c-6826-4825-901e-4354d09442c6"},"vehicle_type_id":"4","last_reported":1753452712,"current_range_meters":10800,"station_id":"ce4bgt12rcd13ifvqce0","pricing_plan_id":"cebpf4jnsgd1na2vs0mg"},{"bike_id":"d68f3124-e473-42d9-93d7-0d6c6613e4e0","system_id":"levelo_inurba_marseille","lat":43.28849,"lon":5.35846,"is_reserved":false,"is_disabled":false,"rental_uris":{"android":"levelo://app?vid=d68f3124-e473-42d9-93d7-0d6c6613e4e0","ios":"levelo://app?vid=d68f3124-e473-42d9-93d7-0d6c6613e4e0"},"vehicle_type_id":"4","last_reported":1753452712,"current_range_meters":10800,"station_id":"ce4bhb12rcd13ifvqem0","pricing_plan_id":"cebpf4jnsgd1na2vs0mg"},{"bike_id":"42e541a3-11e3-4d98-a9ec-6dd63fb4199b","system_id":"levelo_inurba_marseille","lat":43.30378,"lon":5.42479,"is_reserved":false,"is_disabled":false,"rental_uris":{"android":"levelo://app?vid=42e541a3-11e3-4d98-a9ec-6dd63fb4199b","ios":"levelo://app?vid=42e541a3-11e3-4d98-a9ec-6dd63fb4199b"},"vehicle_type_id":"4","last_reported":1753452712,"current_range_meters":10800,"station_id":"ce4bhoh2rcd13ifvqh6g","pricing_plan_id":"cebpf4jnsgd1na2vs0mg"},{"bike_id":"5b94eff9-2e0f-4c0e-b3f6-ab7ca2eca31a","system_id":"levelo_inurba_marseille","lat":43.273731,"lon":5.362457,"is_reserved":false,"is_disabled":true,"rental_uris":{"android":"levelo://app?vid=5b94eff9-2e0f-4c0e-b3f6-ab7ca2eca31a","ios":"levelo://app?vid=5b94eff9-2e0f-4c0e-b3f6-ab7ca2eca31a"},"vehicle_type_id":"4","last_reported":1753452712,"current_range_meters":10800,"station_id":"ce4bhbh2rcd13ifvqeo0","pricing_plan_id":"cebpf4jnsgd1na2vs0mg"},{"bike_id":"ff30a5ee-0e9d-4bfa-a593-c7beaf9df463","system_id":"levelo_inurba_marseille","lat":43.33536,"lon":5.36198,"is_reserved":false,"is_disabled":false,"rental_uris":{"android":"levelo://app?vid=ff30a5ee-0e9d-4bfa-a593-c7beaf9df463","ios":"levelo://app?vid=ff30a5ee-0e9d-4bfa-a593-c7beaf9df463"},"vehicle_type_id":"4","last_reported":1753452712,"current_range_meters":10800,"station_id":"","pricing_plan_id":"cebpf4jnsgd1na2vs0mg"},{"bike_id":"685ffb38-3496-4cdd-8dc1-89c47c028a51","system_id":"levelo_inurba_marseille","lat":43.26576,"lon":5.38991,"is_reserved":false,"is_disabled":false,"rental_uris":{"android":"levelo://app?vid=685ffb38-3496-4cdd-8dc1-89c47c028a51","ios":"levelo://app?vid=685ffb38-3496-4cdd-8dc1-89c47c028a51"},"vehicle_type_id":"4","last_reported":1753452712,"current_range_meters":10800,"station_id":"ce4bhe12rcd13ifvqf30","pricing_plan_id":"cebpf4jnsgd1na2vs0mg"},{"bike_id":"f8675083-8ec4-4d15-b87e-bb22cb12616f","system_id":"levelo_inurba_marseille","lat":43.32107,"lon":5.36766,"is_reserved":false,"is_disabled":false,"rental_uris":{"android":"levelo://app?vid=f8675083-8ec4-4d15-b87e-bb22cb12616f","ios":"levelo://app?vid=f8675083-8ec4-4d15-b87e-bb22cb12616f"},"vehicle_type_id":"4","last_reported":1753452712,"current_range_meters":11200,"station_id":"ce4bhrh2rcd13ifvqhug","pricing_plan_id":"cebpf4jnsgd1na2vs0mg"},{"bike_id":"6f025ee8-3ce4-48ff-afbb-05d349b1be40","system_id":"levelo_inurba_marseille","lat":43.31321,"lon":5.36701,"is_reserved":false,"is_disabled":false,"rental_uris":{"android":"levelo://app?vid=6f025ee8-3ce4-48ff-afbb-05d349b1be40","ios":"levelo://app?vid=6f025ee8-3ce4-48ff-afbb-05d349b1be40"},"vehicle_type_id":"4","last_reported":1753452712,"current_range_meters":11200,"station_id":"ce4bgr92rcd13ifvqc6g","pricing_plan_id":"cebpf4jnsgd1na2vs0mg"},{"bike_id":"eef00562-2b67-4d81-a8f3-7a6d613e6cb8","system_id":"levelo_inurba_marseille","lat":43.28269,"lon":5.35056,"is_reserved":false,"is_disabled":false,"rental_uris":{"android":"levelo://app?vid=eef00562-2b67-4d81-a8f3-7a6d613e6cb8","ios":"levelo://app?vid=eef00562-2b67-4d81-a8f3-7a6d613e6cb8"},"vehicle_type_id":"4","last_reported":1753452712,"current_range_meters":11200,"station_id":"ce4bhbp2rcd13ifvqerg","pricing_plan_id":"cebpf4jnsgd1na2vs0mg"},{"bike_id":"c7c85d55-4608-45bc-afb8-19b0ccb8f1e0","system_id":"levelo_inurba_marseille","lat":43.267845,"lon":5.394222,"is_reserved":false,"is_disabled":false,"rental_uris":{"android":"levelo://app?vid=c7c85d55-4608-45bc-afb8-19b0ccb8f1e0","ios":"levelo://app?vid=c7c85d55-4608-45bc-afb8-19b0ccb8f1e0"},"vehicle_type_id":"4","last_reported":1753452712,"current_range_meters":11200,"station_id":"ce4bhh12rcd13ifvqfg0","pricing_plan_id":"cebpf4jnsgd1na2vs0mg"},{"bike_id":"35deffe5-2a56-4d2d-816c-c35e07a0980c","system_id":"levelo_inurba_marseille","lat":43.30892,"lon":5.39661,"is_reserved":false,"is_disabled":false,"rental_uris":{"android":"levelo://app?vid=35deffe5-2a56-4d2d-816c-c35e07a0980c","ios":"levelo://app?vid=35deffe5-2a56-4d2d-816c-c35e07a0980c"},"vehicle_type_id":"4","last_reported":1753452712,"current_range_meters":11200,"station_id":"ce4bh012rcd13ifvqcv0","pricing_plan_id":"cebpf4jnsgd1na2vs0mg"},{"bike_id":"79079a9a-8322-4f6c-a9e6-9aba90ee17ba","system_id":"levelo_inurba_marseille","lat":43.33812,"lon":5.3742,"is_reserved":false,"is_disabled":false,"rental_uris":{"android":"levelo://app?vid=79079a9a-8322-4f6c-a9e6-9aba90ee17ba","ios":"levelo://app?vid=79079a9a-8322-4f6c-a9e6-9aba90ee17ba"},"vehicle_type_id":"4","last_reported":1753452712,"current_range_meters":11200,"station_id":"","pricing_plan_id":"cebpf4jnsgd1na2vs0mg"},{"bike_id":"35ee41ab-1155-4c5d-a3ff-d1e05b86be8c","system_id":"levelo_inurba_marseille","lat":43.31309,"lon":5.43106,"is_reserved":false,"is_disabled":false,"rental_uris":{"android":"levelo://app?vid=35ee41ab-1155-4c5d-a3ff-d1e05b86be8c","ios":"levelo://app?vid=35ee41ab-1155-4c5d-a3ff-d1e05b86be8c"},"vehicle_type_id":"4","last_reported":1753452712,"current_range_meters":11200,"station_id":"","pricing_plan_id":"cebpf4jnsgd1na2vs0mg"},{"bike_id":"b0642f06-95ff-41f6-9f4a-0722c8309d1c","system_id":"levelo_inurba_marseille","lat":43.26886,"lon":5.36871,"is_reserved":false,"is_disabled":false,"rental_uris":{"android":"levelo://app?vid=b0642f06-95ff-41f6-9f4a-0722c8309d1c","ios":"levelo://app?vid=b0642f06-95ff-41f6-9f4a-0722c8309d1c"},"vehicle_type_id":"4","last_reported":1753452712,"current_range_meters":11600,"station_id":"","pricing_plan_id":"cebpf4jnsgd1na2vs0mg"},{"bike_id":"139fc82e-14c8-4258-94ba-56f752c1f8be","system_id":"levelo_inurba_marseille","lat":43.28105,"lon":5.37838,"is_reserved":false,"is_disabled":false,"rental_uris":{"android":"levelo://app?vid=139fc82e-14c8-4258-94ba-56f752c1f8be","ios":"levelo://app?vid=139fc82e-14c8-4258-94ba-56f752c1f8be"},"vehicle_type_id":"4","last_reported":1753452712,"current_range_meters":11200,"station_id":"ce4bha12rcd13ifvqee0","pricing_plan_id":"cebpf4jnsgd1na2vs0mg"},{"bike_id":"554f3a30-25c7-4007-a3d5-e4f3c49c7beb","system_id":"levelo_inurba_marseille","lat":43.32377,"lon":5.36762,"is_reserved":false,"is_disabled":false,"rental_uris":{"android":"levelo://app?vid=554f3a30-25c7-4007-a3d5-e4f3c49c7beb","ios":"levelo://app?vid=554f3a30-25c7-4007-a3d5-e4f3c49c7beb"},"vehicle_type_id":"4","last_reported":1753452712,"current_range_meters":11600,"station_id":"ce4bhsh2rcd13ifvqi2g","pricing_plan_id":"cebpf4jnsgd1na2vs0mg"},{"bike_id":"f7623b57-5f88-4ef7-8535-1d8b44f90d27","system_id":"levelo_inurba_marseille","lat":43.22522,"lon":5.3477,"is_reserved":false,"is_disabled":false,"rental_uris":{"android":"levelo://app?vid=f7623b57-5f88-4ef7-8535-1d8b44f90d27","ios":"levelo://app?vid=f7623b57-5f88-4ef7-8535-1d8b44f90d27"},"vehicle_type_id":"4","last_reported":1753452712,"current_range_meters":11600,"station_id":"","pricing_plan_id":"cebpf4jnsgd1na2vs0mg"},{"bike_id":"ac7f3c2f-452c-4620-beb4-96f9c8da3434","system_id":"levelo_inurba_marseille","lat":43.30624,"lon":5.38518,"is_reserved":false,"is_disabled":false,"rental_uris":{"android":"levelo://app?vid=ac7f3c2f-452c-4620-beb4-96f9c8da3434","ios":"levelo://app?vid=ac7f3c2f-452c-4620-beb4-96f9c8da3434"},"vehicle_type_id":"4","last_reported":1753452712,"current_range_meters":11600,"station_id":"","pricing_plan_id":"cebpf4jnsgd1na2vs0mg"},{"bike_id":"769f89f4-7123-4247-89bd-d63cb2754e75","system_id":"levelo_inurba_marseille","lat":43.32474,"lon":5.36559,"is_reserved":false,"is_disabled":false,"rental_uris":{"android":"levelo://app?vid=769f89f4-7123-4247-89bd-d63cb2754e75","ios":"levelo://app?vid=769f89f4-7123-4247-89bd-d63cb2754e75"},"vehicle_type_id":"4","last_reported":1753452712,"current_range_meters":11600,"station_id":"ce4bhs12rcd13ifvqhvg","pricing_plan_id":"cebpf4jnsgd1na2vs0mg"},{"bike_id":"1c31f24b-2b9e-48c3-b103-bffd32b92420","system_id":"levelo_inurba_marseille","lat":43.33522,"lon":5.40837,"is_reserved":false,"is_disabled":false,"rental_uris":{"android":"levelo://app?vid=1c31f24b-2b9e-48c3-b103-bffd32b92420","ios":"levelo://app?vid=1c31f24b-2b9e-48c3-b103-bffd32b92420"},"vehicle_type_id":"4","last_reported":1753452712,"current_range_meters":12000,"station_id":"","pricing_plan_id":"cebpf4jnsgd1na2vs0mg"},{"bike_id":"43cf4049-15dd-4e8c-88a8-61cd8dc10bf5","system_id":"levelo_inurba_marseille","lat":43.33196,"lon":5.3983,"is_reserved":false,"is_disabled":false,"rental_uris":{"android":"levelo://app?vid=43cf4049-15dd-4e8c-88a8-61cd8dc10bf5","ios":"levelo://app?vid=43cf4049-15dd-4e8c-88a8-61cd8dc10bf5"},"vehicle_type_id":"4","last_reported":1753452712,"current_range_meters":12000,"station_id":"","pricing_plan_id":"cebpf4jnsgd1na2vs0mg"},{"bike_id":"c44f2e50-2a68-4b48-ad6a-5c0b13edc21c","system_id":"levelo_inurba_marseille","lat":43.29967,"lon":5.41325,"is_reserved":false,"is_disabled":false,"rental_uris":{"android":"levelo://app?vid=c44f2e50-2a68-4b48-ad6a-5c0b13edc21c","ios":"levelo://app?vid=c44f2e50-2a68-4b48-ad6a-5c0b13edc21c"},"vehicle_type_id":"4","last_reported":1753452712,"current_range_meters":12000,"station_id":"ce4bhp12rcd13ifvqh9g","pricing_plan_id":"cebpf4jnsgd1na2vs0mg"},{"bike_id":"a12459fb-772e-4b74-9514-784297907c96","system_id":"levelo_inurba_marseille","lat":43.27077,"lon":5.4226,"is_reserved":false,"is_disabled":false,"rental_uris":{"android":"levelo://app?vid=a12459fb-772e-4b74-9514-784297907c96","ios":"levelo://app?vid=a12459fb-772e-4b74-9514-784297907c96"},"vehicle_type_id":"4","last_reported":1753452712,"current_range_meters":12000,"station_id":"ce4bhk92rcd13ifvqgb0","pricing_plan_id":"cebpf4jnsgd1na2vs0mg"},{"bike_id":"7a9a67f3-53a6-463d-917a-1ed239819759","system_id":"levelo_inurba_marseille","lat":43.279891,"lon":5.416611,"is_reserved":false,"is_disabled":false,"rental_uris":{"android":"levelo://app?vid=7a9a67f3-53a6-463d-917a-1ed239819759","ios":"levelo://app?vid=7a9a67f3-53a6-463d-917a-1ed239819759"},"vehicle_type_id":"4","last_reported":1753452712,"current_range_meters":12000,"station_id":"ce4bho12rcd13ifvqh1g","pricing_plan_id":"cebpf4jnsgd1na2vs0mg"},{"bike_id":"4d63f320-133b-4d6a-a351-94063e36dd6a","system_id":"levelo_inurba_marseille","lat":43.30543,"lon":5.36695,"is_reserved":false,"is_disabled":false,"rental_uris":{"android":"levelo://app?vid=4d63f320-133b-4d6a-a351-94063e36dd6a","ios":"levelo://app?vid=4d63f320-133b-4d6a-a351-94063e36dd6a"},"vehicle_type_id":"4","last_reported":1753452712,"current_range_meters":12000,"station_id":"ce4bgrp2rcd13ifvqc9g","pricing_plan_id":"cebpf4jnsgd1na2vs0mg"},{"bike_id":"a8f8c7b3-2c86-4089-8f4c-4aab74c0e546","system_id":"levelo_inurba_marseille","lat":43.29974,"lon":5.38504,"is_reserved":false,"is_disabled":false,"rental_uris":{"android":"levelo://app?vid=a8f8c7b3-2c86-4089-8f4c-4aab74c0e546","ios":"levelo://app?vid=a8f8c7b3-2c86-4089-8f4c-4aab74c0e546"},"vehicle_type_id":"4","last_reported":1753452712,"current_range_meters":12000,"station_id":"ce4bgj92rcd13ifvqbd0","pricing_plan_id":"cebpf4jnsgd1na2vs0mg"},{"bike_id":"db61f519-0278-4adb-a1b3-0369a3df1f35","system_id":"levelo_inurba_marseille","lat":43.267285,"lon":5.380095,"is_reserved":false,"is_disabled":false,"rental_uris":{"android":"levelo://app?vid=db61f519-0278-4adb-a1b3-0369a3df1f35","ios":"levelo://app?vid=db61f519-0278-4adb-a1b3-0369a3df1f35"},"vehicle_type_id":"4","last_reported":1753452712,"current_range_meters":12000,"station_id":"ce4bhgh2rcd13ifvqfb0","pricing_plan_id":"cebpf4jnsgd1na2vs0mg"},{"bike_id":"9067c7cd-2e8a-4ff2-b9ba-128ce3753ddc","system_id":"levelo_inurba_marseille","lat":43.28418,"lon":5.34991,"is_reserved":false,"is_disabled":false,"rental_uris":{"android":"levelo://app?vid=9067c7cd-2e8a-4ff2-b9ba-128ce3753ddc","ios":"levelo://app?vid=9067c7cd-2e8a-4ff2-b9ba-128ce3753ddc"},"vehicle_type_id":"4","last_reported":1753452712,"current_range_meters":12400,"station_id":"ce4bhbh2rcd13ifvqepg","pricing_plan_id":"cebpf4jnsgd1na2vs0mg"},{"bike_id":"8872b46c-76b1-4305-b62f-2a88635c489b","system_id":"levelo_inurba_marseille","lat":43.2481,"lon":5.37447,"is_reserved":false,"is_disabled":false,"rental_uris":{"android":"levelo://app?vid=8872b46c-76b1-4305-b62f-2a88635c489b","ios":"levelo://app?vid=8872b46c-76b1-4305-b62f-2a88635c489b"},"vehicle_type_id":"4","last_reported":1753452712,"current_range_meters":12400,"station_id":"ce4bhgh2rcd13ifvqfb0","pricing_plan_id":"cebpf4jnsgd1na2vs0mg"},{"bike_id":"9e18122d-2b49-45e7-815f-a3b223f491f7","system_id":"levelo_inurba_marseille","lat":43.28941,"lon":5.36403,"is_reserved":false,"is_disabled":false,"rental_uris":{"android":"levelo://app?vid=9e18122d-2b49-45e7-815f-a3b223f491f7","ios":"levelo://app?vid=9e18122d-2b49-45e7-815f-a3b223f491f7"},"vehicle_type_id":"4","last_reported":1753452712,"current_range_meters":12000,"station_id":"ce4bhc92rcd13ifvqetg","pricing_plan_id":"cebpf4jnsgd1na2vs0mg"},{"bike_id":"34a2e458-d2d9-4dd2-8286-a0218386a409","system_id":"levelo_inurba_marseille","lat":43.27389,"lon":5.36266,"is_reserved":false,"is_disabled":false,"rental_uris":{"android":"levelo://app?vid=34a2e458-d2d9-4dd2-8286-a0218386a409","ios":"levelo://app?vid=34a2e458-d2d9-4dd2-8286-a0218386a409"},"vehicle_type_id":"4","last_reported":1753452712,"current_range_meters":12800,"station_id":"ce4bhbh2rcd13ifvqeo0","pricing_plan_id":"cebpf4jnsgd1na2vs0mg"},{"bike_id":"698839df-d197-4aab-ba14-73303c6b274f","system_id":"levelo_inurba_marseille","lat":43.29008,"lon":5.35611,"is_reserved":false,"is_disabled":false,"rental_uris":{"android":"levelo://app?vid=698839df-d197-4aab-ba14-73303c6b274f","ios":"levelo://app?vid=698839df-d197-4aab-ba14-73303c6b274f"},"vehicle_type_id":"4","last_reported":1753452712,"current_range_meters":12400,"station_id":"ce4bhb92rcd13ifvqen0","pricing_plan_id":"cebpf4jnsgd1na2vs0mg"},{"bike_id":"bfefc726-83af-43c0-b035-ae3ba1d65ffa","system_id":"levelo_inurba_marseille","lat":43.28159,"lon":5.42639,"is_reserved":false,"is_disabled":false,"rental_uris":{"android":"levelo://app?vid=bfefc726-83af-43c0-b035-ae3ba1d65ffa","ios":"levelo://app?vid=bfefc726-83af-43c0-b035-ae3ba1d65ffa"},"vehicle_type_id":"4","last_reported":1753452712,"current_range_meters":12800,"station_id":"ce4bhnh2rcd13ifvqgug","pricing_plan_id":"cebpf4jnsgd1na2vs0mg"},{"bike_id":"08fd9145-524b-48a3-82dd-db42dec4587b","system_id":"levelo_inurba_marseille","lat":43.264752,"lon":5.395639,"is_reserved":false,"is_disabled":false,"rental_uris":{"android":"levelo://app?vid=08fd9145-524b-48a3-82dd-db42dec4587b","ios":"levelo://app?vid=08fd9145-524b-48a3-82dd-db42dec4587b"},"vehicle_type_id":"4","last_reported":1753452712,"current_range_meters":13600,"station_id":"ce4bhi12rcd13ifvqfq0","pricing_plan_id":"cebpf4jnsgd1na2vs0mg"},{"bike_id":"078febbd-6d49-4abf-8b46-d33f87f8da46","system_id":"levelo_inurba_marseille","lat":43.25472,"lon":5.37971,"is_reserved":false,"is_disabled":false,"rental_uris":{"android":"levelo://app?vid=078febbd-6d49-4abf-8b46-d33f87f8da46","ios":"levelo://app?vid=078febbd-6d49-4abf-8b46-d33f87f8da46"},"vehicle_type_id":"4","last_reported":1753452712,"current_range_meters":13600,"station_id":"","pricing_plan_id":"cebpf4jnsgd1na2vs0mg"},{"bike_id":"28e5a7fa-c4d0-4c66-ba05-7df0dae33eff","system_id":"levelo_inurba_marseille","lat":43.32002,"lon":5.38147,"is_reserved":false,"is_disabled":false,"rental_uris":{"android":"levelo://app?vid=28e5a7fa-c4d0-4c66-ba05-7df0dae33eff","ios":"levelo://app?vid=28e5a7fa-c4d0-4c66-ba05-7df0dae33eff"},"vehicle_type_id":"4","last_reported":1753452712,"current_range_meters":12800,"station_id":"ce4bhr12rcd13ifvqhpg","pricing_plan_id":"cebpf4jnsgd1na2vs0mg"},{"bike_id":"71258c65-3dee-4a65-a037-dcda1783505a","system_id":"levelo_inurba_marseille","lat":43.31487,"lon":5.36897,"is_reserved":false,"is_disabled":false,"rental_uris":{"android":"levelo://app?vid=71258c65-3dee-4a65-a037-dcda1783505a","ios":"levelo://app?vid=71258c65-3dee-4a65-a037-dcda1783505a"},"vehicle_type_id":"4","last_reported":1753452712,"current_range_meters":13600,"station_id":"","pricing_plan_id":"cebpf4jnsgd1na2vs0mg"},{"bike_id":"490fd0a3-3ae2-4135-acff-5c94025f5f04","system_id":"levelo_inurba_marseille","lat":43.27916,"lon":5.39566,"is_reserved":false,"is_disabled":true,"rental_uris":{"android":"levelo://app?vid=490fd0a3-3ae2-4135-acff-5c94025f5f04","ios":"levelo://app?vid=490fd0a3-3ae2-4135-acff-5c94025f5f04"},"vehicle_type_id":"4","last_reported":1753452712,"current_range_meters":13600,"station_id":"ce4bhf92rcd13ifvqf40","pricing_plan_id":"cebpf4jnsgd1na2vs0mg"},{"bike_id":"c017b4de-074c-46ed-bc0a-5b7912813135","system_id":"levelo_inurba_marseille","lat":43.26104,"lon":5.37297,"is_reserved":false,"is_disabled":false,"rental_uris":{"android":"levelo://app?vid=c017b4de-074c-46ed-bc0a-5b7912813135","ios":"levelo://app?vid=c017b4de-074c-46ed-bc0a-5b7912813135"},"vehicle_type_id":"4","last_reported":1753452712,"current_range_meters":13600,"station_id":"","pricing_plan_id":"cebpf4jnsgd1na2vs0mg"},{"bike_id":"37533f83-b28a-4700-826d-960e105111a8","system_id":"levelo_inurba_marseille","lat":43.30472,"lon":5.37916,"is_reserved":false,"is_disabled":false,"rental_uris":{"android":"levelo://app?vid=37533f83-b28a-4700-826d-960e105111a8","ios":"levelo://app?vid=37533f83-b28a-4700-826d-960e105111a8"},"vehicle_type_id":"4","last_reported":1753452712,"current_range_meters":12800,"station_id":"ce4bgup2rcd13ifvqcn0","pricing_plan_id":"cebpf4jnsgd1na2vs0mg"},{"bike_id":"3185ef6d-2ce7-45e8-9b8b-b88f53239af4","system_id":"levelo_inurba_marseille","lat":43.30911,"lon":5.36864,"is_reserved":false,"is_disabled":false,"rental_uris":{"android":"levelo://app?vid=3185ef6d-2ce7-45e8-9b8b-b88f53239af4","ios":"levelo://app?vid=3185ef6d-2ce7-45e8-9b8b-b88f53239af4"},"vehicle_type_id":"4","last_reported":1753452712,"current_range_meters":13600,"station_id":"ce4bgn92rcd13ifvqbvg","pricing_plan_id":"cebpf4jnsgd1na2vs0mg"},{"bike_id":"12f1ccbe-caad-447a-81e6-68f78b4f48b3","system_id":"levelo_inurba_marseille","lat":43.28635,"lon":5.35095,"is_reserved":false,"is_disabled":false,"rental_uris":{"android":"levelo://app?vid=12f1ccbe-caad-447a-81e6-68f78b4f48b3","ios":"levelo://app?vid=12f1ccbe-caad-447a-81e6-68f78b4f48b3"},"vehicle_type_id":"4","last_reported":1753452712,"current_range_meters":14000,"station_id":"ce4bhch2rcd13ifvqeug","pricing_plan_id":"cebpf4jnsgd1na2vs0mg"},{"bike_id":"fd60f625-ba27-4332-aea0-690d8dbc1f95","system_id":"levelo_inurba_marseille","lat":43.25491,"lon":5.37648,"is_reserved":false,"is_disabled":false,"rental_uris":{"android":"levelo://app?vid=fd60f625-ba27-4332-aea0-690d8dbc1f95","ios":"levelo://app?vid=fd60f625-ba27-4332-aea0-690d8dbc1f95"},"vehicle_type_id":"4","last_reported":1753452712,"current_range_meters":13600,"station_id":"ce4bhh12rcd13ifvqff0","pricing_plan_id":"cebpf4jnsgd1na2vs0mg"},{"bike_id":"3905a451-3ca5-4c8d-992c-e76d7da42101","system_id":"levelo_inurba_marseille","lat":43.28264,"lon":5.35095,"is_reserved":false,"is_disabled":false,"rental_uris":{"android":"levelo://app?vid=3905a451-3ca5-4c8d-992c-e76d7da42101","ios":"levelo://app?vid=3905a451-3ca5-4c8d-992c-e76d7da42101"},"vehicle_type_id":"4","last_reported":1753452712,"current_range_meters":14000,"station_id":"ce4bhbp2rcd13ifvqerg","pricing_plan_id":"cebpf4jnsgd1na2vs0mg"},{"bike_id":"591fb768-7e78-4b54-88b5-e73a5af76b19","system_id":"levelo_inurba_marseille","lat":43.22942,"lon":5.35378,"is_reserved":false,"is_disabled":false,"rental_uris":{"android":"levelo://app?vid=591fb768-7e78-4b54-88b5-e73a5af76b19","ios":"levelo://app?vid=591fb768-7e78-4b54-88b5-e73a5af76b19"},"vehicle_type_id":"4","last_reported":1753452712,"current_range_meters":14000,"station_id":"cpo3532slgdg3j2ikp40","pricing_plan_id":"cebpf4jnsgd1na2vs0mg"},{"bike_id":"a3fe9995-2e3e-423b-9540-429a92fa997e","system_id":"levelo_inurba_marseille","lat":43.30182,"lon":5.37222,"is_reserved":false,"is_disabled":false,"rental_uris":{"android":"levelo://app?vid=a3fe9995-2e3e-423b-9540-429a92fa997e","ios":"levelo://app?vid=a3fe9995-2e3e-423b-9540-429a92fa997e"},"vehicle_type_id":"4","last_reported":1753452712,"current_range_meters":14000,"station_id":"","pricing_plan_id":"cebpf4jnsgd1na2vs0mg"},{"bike_id":"30877ab0-f801-4495-9f92-895f7b54e0cc","system_id":"levelo_inurba_marseille","lat":43.30543,"lon":5.36527,"is_reserved":false,"is_disabled":false,"rental_uris":{"android":"levelo://app?vid=30877ab0-f801-4495-9f92-895f7b54e0cc","ios":"levelo://app?vid=30877ab0-f801-4495-9f92-895f7b54e0cc"},"vehicle_type_id":"4","last_reported":1753452712,"current_range_meters":14000,"station_id":"ce4bgs12rcd13ifvqcag","pricing_plan_id":"cebpf4jnsgd1na2vs0mg"},{"bike_id":"140113a3-b20a-444c-bc3d-2d7e242ec962","system_id":"levelo_inurba_marseille","lat":43.27956,"lon":5.41045,"is_reserved":false,"is_disabled":false,"rental_uris":{"android":"levelo://app?vid=140113a3-b20a-444c-bc3d-2d7e242ec962","ios":"levelo://app?vid=140113a3-b20a-444c-bc3d-2d7e242ec962"},"vehicle_type_id":"4","last_reported":1753452712,"current_range_meters":14400,"station_id":"ce4bhnp2rcd13ifvqh0g","pricing_plan_id":"cebpf4jnsgd1na2vs0mg"},{"bike_id":"5c9d65b1-c5b6-48e3-b838-bd11e54a9a38","system_id":"levelo_inurba_marseille","lat":43.24811,"lon":5.37459,"is_reserved":false,"is_disabled":false,"rental_uris":{"android":"levelo://app?vid=5c9d65b1-c5b6-48e3-b838-bd11e54a9a38","ios":"levelo://app?vid=5c9d65b1-c5b6-48e3-b838-bd11e54a9a38"},"vehicle_type_id":"4","last_reported":1753452712,"current_range_meters":14400,"station_id":"ce4bhgh2rcd13ifvqfb0","pricing_plan_id":"cebpf4jnsgd1na2vs0mg"},{"bike_id":"ccca3042-9358-40fc-ac03-e327e01c225f","system_id":"levelo_inurba_marseille","lat":43.23317,"lon":5.36111,"is_reserved":false,"is_disabled":false,"rental_uris":{"android":"levelo://app?vid=ccca3042-9358-40fc-ac03-e327e01c225f","ios":"levelo://app?vid=ccca3042-9358-40fc-ac03-e327e01c225f"},"vehicle_type_id":"4","last_reported":1753452712,"current_range_meters":14400,"station_id":"","pricing_plan_id":"cebpf4jnsgd1na2vs0mg"},{"bike_id":"fdf52e4a-0546-49a0-ac34-d25c3a4994ff","system_id":"levelo_inurba_marseille","lat":43.30142,"lon":5.38067,"is_reserved":false,"is_disabled":false,"rental_uris":{"android":"levelo://app?vid=fdf52e4a-0546-49a0-ac34-d25c3a4994ff","ios":"levelo://app?vid=fdf52e4a-0546-49a0-ac34-d25c3a4994ff"},"vehicle_type_id":"4","last_reported":1753452712,"current_range_meters":14000,"station_id":"ce4bgjp2rcd13ifvqbh0","pricing_plan_id":"cebpf4jnsgd1na2vs0mg"},{"bike_id":"14290dc3-0ecb-4c09-bf2e-6db4a8e35188","system_id":"levelo_inurba_marseille","lat":43.24384,"lon":5.3706,"is_reserved":false,"is_disabled":false,"rental_uris":{"android":"levelo://app?vid=14290dc3-0ecb-4c09-bf2e-6db4a8e35188","ios":"levelo://app?vid=14290dc3-0ecb-4c09-bf2e-6db4a8e35188"},"vehicle_type_id":"4","last_reported":1753452712,"current_range_meters":14400,"station_id":"ce4bhhh2rcd13ifvqfk0","pricing_plan_id":"cebpf4jnsgd1na2vs0mg"},{"bike_id":"2a5160ee-808b-4891-9551-0ba84161b0dc","system_id":"levelo_inurba_marseille","lat":43.25496,"lon":5.37647,"is_reserved":false,"is_disabled":false,"rental_uris":{"android":"levelo://app?vid=2a5160ee-808b-4891-9551-0ba84161b0dc","ios":"levelo://app?vid=2a5160ee-808b-4891-9551-0ba84161b0dc"},"vehicle_type_id":"4","last_reported":1753452712,"current_range_meters":14800,"station_id":"ce4bhh12rcd13ifvqff0","pricing_plan_id":"cebpf4jnsgd1na2vs0mg"},{"bike_id":"bd8065ec-8c1e-4fcf-9383-55097ca6a42e","system_id":"levelo_inurba_marseille","lat":43.27072,"lon":5.42279,"is_reserved":false,"is_disabled":false,"rental_uris":{"android":"levelo://app?vid=bd8065ec-8c1e-4fcf-9383-55097ca6a42e","ios":"levelo://app?vid=bd8065ec-8c1e-4fcf-9383-55097ca6a42e"},"vehicle_type_id":"4","last_reported":1753452712,"current_range_meters":14800,"station_id":"ce4bhk92rcd13ifvqgb0","pricing_plan_id":"cebpf4jnsgd1na2vs0mg"},{"bike_id":"a1584ae3-328e-458d-b97e-13dff079f54f","system_id":"levelo_inurba_marseille","lat":43.28699,"lon":5.37408,"is_reserved":false,"is_disabled":false,"rental_uris":{"android":"levelo://app?vid=a1584ae3-328e-458d-b97e-13dff079f54f","ios":"levelo://app?vid=a1584ae3-328e-458d-b97e-13dff079f54f"},"vehicle_type_id":"4","last_reported":1753452712,"current_range_meters":14800,"station_id":"ce4bh3p2rcd13ifvqdq0","pricing_plan_id":"cebpf4jnsgd1na2vs0mg"},{"bike_id":"1855cbe1-5a05-480e-9057-6e9b3976dbbe","system_id":"levelo_inurba_marseille","lat":43.33727,"lon":5.39185,"is_reserved":false,"is_disabled":false,"rental_uris":{"android":"levelo://app?vid=1855cbe1-5a05-480e-9057-6e9b3976dbbe","ios":"levelo://app?vid=1855cbe1-5a05-480e-9057-6e9b3976dbbe"},"vehicle_type_id":"4","last_reported":1753452712,"current_range_meters":14800,"station_id":"ce4bhr92rcd13ifvqhsg","pricing_plan_id":"cebpf4jnsgd1na2vs0mg"},{"bike_id":"cc4f65f2-5416-4002-8604-4d0c43e527bd","system_id":"levelo_inurba_marseille","lat":43.26788,"lon":5.39414,"is_reserved":false,"is_disabled":false,"rental_uris":{"android":"levelo://app?vid=cc4f65f2-5416-4002-8604-4d0c43e527bd","ios":"levelo://app?vid=cc4f65f2-5416-4002-8604-4d0c43e527bd"},"vehicle_type_id":"4","last_reported":1753452712,"current_range_meters":14400,"station_id":"ce4bhh12rcd13ifvqfg0","pricing_plan_id":"cebpf4jnsgd1na2vs0mg"},{"bike_id":"45919cfe-4302-488b-8296-1458eac6db93","system_id":"levelo_inurba_marseille","lat":43.29029,"lon":5.3999,"is_reserved":false,"is_disabled":true,"rental_uris":{"android":"levelo://app?vid=45919cfe-4302-488b-8296-1458eac6db93","ios":"levelo://app?vid=45919cfe-4302-488b-8296-1458eac6db93"},"vehicle_type_id":"4","last_reported":1753452712,"current_range_meters":14800,"station_id":"ce4bh392rcd13ifvqdm0","pricing_plan_id":"cebpf4jnsgd1na2vs0mg"},{"bike_id":"9b063632-82b2-44f6-8982-932e22420e47","system_id":"levelo_inurba_marseille","lat":43.30544,"lon":5.36703,"is_reserved":false,"is_disabled":false,"rental_uris":{"android":"levelo://app?vid=9b063632-82b2-44f6-8982-932e22420e47","ios":"levelo://app?vid=9b063632-82b2-44f6-8982-932e22420e47"},"vehicle_type_id":"4","last_reported":1753452712,"current_range_meters":14400,"station_id":"ce4bgrp2rcd13ifvqc9g","pricing_plan_id":"cebpf4jnsgd1na2vs0mg"},{"bike_id":"733c3e80-324d-4096-91b5-4793f54823f8","system_id":"levelo_inurba_marseille","lat":43.26932,"lon":5.40286,"is_reserved":false,"is_disabled":false,"rental_uris":{"android":"levelo://app?vid=733c3e80-324d-4096-91b5-4793f54823f8","ios":"levelo://app?vid=733c3e80-324d-4096-91b5-4793f54823f8"},"vehicle_type_id":"4","last_reported":1753452712,"current_range_meters":14800,"station_id":"cjm6bp8fraef2m0cb0m0","pricing_plan_id":"cebpf4jnsgd1na2vs0mg"},{"bike_id":"2c8c209a-8a8a-4d5d-9dce-aacf06a80f29","system_id":"levelo_inurba_marseille","lat":43.28151,"lon":5.42647,"is_reserved":false,"is_disabled":false,"rental_uris":{"android":"levelo://app?vid=2c8c209a-8a8a-4d5d-9dce-aacf06a80f29","ios":"levelo://app?vid=2c8c209a-8a8a-4d5d-9dce-aacf06a80f29"},"vehicle_type_id":"4","last_reported":1753452712,"current_range_meters":14800,"station_id":"ce4bhnh2rcd13ifvqgug","pricing_plan_id":"cebpf4jnsgd1na2vs0mg"},{"bike_id":"8859ca61-a99c-48f7-a0d5-6e5fc04bd7df","system_id":"levelo_inurba_marseille","lat":43.28617,"lon":5.35107,"is_reserved":false,"is_disabled":false,"rental_uris":{"android":"levelo://app?vid=8859ca61-a99c-48f7-a0d5-6e5fc04bd7df","ios":"levelo://app?vid=8859ca61-a99c-48f7-a0d5-6e5fc04bd7df"},"vehicle_type_id":"4","last_reported":1753452712,"current_range_meters":15200,"station_id":"ce4bhch2rcd13ifvqeug","pricing_plan_id":"cebpf4jnsgd1na2vs0mg"},{"bike_id":"783e5faf-d4cf-44d9-80e4-7aa1f7854916","system_id":"levelo_inurba_marseille","lat":43.31464,"lon":5.37374,"is_reserved":false,"is_disabled":false,"rental_uris":{"android":"levelo://app?vid=783e5faf-d4cf-44d9-80e4-7aa1f7854916","ios":"levelo://app?vid=783e5faf-d4cf-44d9-80e4-7aa1f7854916"},"vehicle_type_id":"4","last_reported":1753452712,"current_range_meters":15200,"station_id":"","pricing_plan_id":"cebpf4jnsgd1na2vs0mg"},{"bike_id":"22abd279-ac3d-4b7c-8221-b68bbacaab0e","system_id":"levelo_inurba_marseille","lat":43.26209,"lon":5.37446,"is_reserved":false,"is_disabled":false,"rental_uris":{"android":"levelo://app?vid=22abd279-ac3d-4b7c-8221-b68bbacaab0e","ios":"levelo://app?vid=22abd279-ac3d-4b7c-8221-b68bbacaab0e"},"vehicle_type_id":"4","last_reported":1753452712,"current_range_meters":15200,"station_id":"ce4bhgp2rcd13ifvqfc0","pricing_plan_id":"cebpf4jnsgd1na2vs0mg"},{"bike_id":"f6177b34-6f67-445e-ae37-0eaa5b52634b","system_id":"levelo_inurba_marseille","lat":43.229277,"lon":5.35374,"is_reserved":false,"is_disabled":false,"rental_uris":{"android":"levelo://app?vid=f6177b34-6f67-445e-ae37-0eaa5b52634b","ios":"levelo://app?vid=f6177b34-6f67-445e-ae37-0eaa5b52634b"},"vehicle_type_id":"4","last_reported":1753452712,"current_range_meters":15200,"station_id":"cpo3532slgdg3j2ikp40","pricing_plan_id":"cebpf4jnsgd1na2vs0mg"},{"bike_id":"d6b834d9-5f4f-445c-9a8d-5ea38c349287","system_id":"levelo_inurba_marseille","lat":43.21744,"lon":5.34598,"is_reserved":false,"is_disabled":false,"rental_uris":{"android":"levelo://app?vid=d6b834d9-5f4f-445c-9a8d-5ea38c349287","ios":"levelo://app?vid=d6b834d9-5f4f-445c-9a8d-5ea38c349287"},"vehicle_type_id":"4","last_reported":1753452712,"current_range_meters":15200,"station_id":"st_cvj6r9ubvosntc0bgbag","pricing_plan_id":"cebpf4jnsgd1na2vs0mg"},{"bike_id":"2d381d7c-96e6-429c-a922-68c989917c0e","system_id":"levelo_inurba_marseille","lat":43.28441,"lon":5.39203,"is_reserved":false,"is_disabled":false,"rental_uris":{"android":"levelo://app?vid=2d381d7c-96e6-429c-a922-68c989917c0e","ios":"levelo://app?vid=2d381d7c-96e6-429c-a922-68c989917c0e"},"vehicle_type_id":"4","last_reported":1753452712,"current_range_meters":15200,"station_id":"ce4bhoh2rcd13ifvqh5g","pricing_plan_id":"cebpf4jnsgd1na2vs0mg"},{"bike_id":"f3874552-67ae-42b2-8118-9593cfbe8355","system_id":"levelo_inurba_marseille","lat":43.241648,"lon":5.364049,"is_reserved":false,"is_disabled":false,"rental_uris":{"android":"levelo://app?vid=f3874552-67ae-42b2-8118-9593cfbe8355","ios":"levelo://app?vid=f3874552-67ae-42b2-8118-9593cfbe8355"},"vehicle_type_id":"4","last_reported":1753452712,"current_range_meters":16000,"station_id":"cpo36qri1sfpv3e86is0","pricing_plan_id":"cebpf4jnsgd1na2vs0mg"},{"bike_id":"325601ca-b159-4df0-a3af-69e7d5a7d645","system_id":"levelo_inurba_marseille","lat":43.2861,"lon":5.37061,"is_reserved":false,"is_disabled":false,"rental_uris":{"android":"levelo://app?vid=325601ca-b159-4df0-a3af-69e7d5a7d645","ios":"levelo://app?vid=325601ca-b159-4df0-a3af-69e7d5a7d645"},"vehicle_type_id":"4","last_reported":1753452712,"current_range_meters":16000,"station_id":"ce4bht12rcd13ifvqi60","pricing_plan_id":"cebpf4jnsgd1na2vs0mg"},{"bike_id":"998111db-eeca-4c77-9e0c-e081b470aa34","system_id":"levelo_inurba_marseille","lat":43.278015,"lon":5.407262,"is_reserved":false,"is_disabled":false,"rental_uris":{"android":"levelo://app?vid=998111db-eeca-4c77-9e0c-e081b470aa34","ios":"levelo://app?vid=998111db-eeca-4c77-9e0c-e081b470aa34"},"vehicle_type_id":"4","last_reported":1753452712,"current_range_meters":16000,"station_id":"ce4bhnh2rcd13ifvqgtg","pricing_plan_id":"cebpf4jnsgd1na2vs0mg"},{"bike_id":"9575837e-b363-4708-9b96-c153c5fc2eb1","system_id":"levelo_inurba_marseille","lat":43.32356,"lon":5.3674,"is_reserved":false,"is_disabled":false,"rental_uris":{"android":"levelo://app?vid=9575837e-b363-4708-9b96-c153c5fc2eb1","ios":"levelo://app?vid=9575837e-b363-4708-9b96-c153c5fc2eb1"},"vehicle_type_id":"4","last_reported":1753452712,"current_range_meters":16400,"station_id":"ce4bhsh2rcd13ifvqi2g","pricing_plan_id":"cebpf4jnsgd1na2vs0mg"},{"bike_id":"5484d3cd-0ae2-49aa-ab1c-347958bb1b89","system_id":"levelo_inurba_marseille","lat":43.3057,"lon":5.36557,"is_reserved":false,"is_disabled":false,"rental_uris":{"android":"levelo://app?vid=5484d3cd-0ae2-49aa-ab1c-347958bb1b89","ios":"levelo://app?vid=5484d3cd-0ae2-49aa-ab1c-347958bb1b89"},"vehicle_type_id":"4","last_reported":1753452712,"current_range_meters":16000,"station_id":"ce4bgs12rcd13ifvqcag","pricing_plan_id":"cebpf4jnsgd1na2vs0mg"},{"bike_id":"e4a253ac-8c9d-4da1-b5c8-60915a4c7673","system_id":"levelo_inurba_marseille","lat":43.28031,"lon":5.36948,"is_reserved":false,"is_disabled":false,"rental_uris":{"android":"levelo://app?vid=e4a253ac-8c9d-4da1-b5c8-60915a4c7673","ios":"levelo://app?vid=e4a253ac-8c9d-4da1-b5c8-60915a4c7673"},"vehicle_type_id":"4","last_reported":1753452712,"current_range_meters":16000,"station_id":"ce4bha12rcd13ifvqef0","pricing_plan_id":"cebpf4jnsgd1na2vs0mg"},{"bike_id":"c54ff59d-c443-4efe-88ce-ec43b99b22b7","system_id":"levelo_inurba_marseille","lat":43.22926,"lon":5.35383,"is_reserved":false,"is_disabled":false,"rental_uris":{"android":"levelo://app?vid=c54ff59d-c443-4efe-88ce-ec43b99b22b7","ios":"levelo://app?vid=c54ff59d-c443-4efe-88ce-ec43b99b22b7"},"vehicle_type_id":"4","last_reported":1753452712,"current_range_meters":16000,"station_id":"cpo3532slgdg3j2ikp40","pricing_plan_id":"cebpf4jnsgd1na2vs0mg"},{"bike_id":"7e6cbf23-0744-43af-8253-8c672c5274d7","system_id":"levelo_inurba_marseille","lat":43.28608,"lon":5.37061,"is_reserved":false,"is_disabled":false,"rental_uris":{"android":"levelo://app?vid=7e6cbf23-0744-43af-8253-8c672c5274d7","ios":"levelo://app?vid=7e6cbf23-0744-43af-8253-8c672c5274d7"},"vehicle_type_id":"4","last_reported":1753452712,"current_range_meters":16400,"station_id":"ce4bht12rcd13ifvqi60","pricing_plan_id":"cebpf4jnsgd1na2vs0mg"},{"bike_id":"22dca147-1260-44d8-822d-d9d1d50cce31","system_id":"levelo_inurba_marseille","lat":43.27473,"lon":5.396,"is_reserved":false,"is_disabled":false,"rental_uris":{"android":"levelo://app?vid=22dca147-1260-44d8-822d-d9d1d50cce31","ios":"levelo://app?vid=22dca147-1260-44d8-822d-d9d1d50cce31"},"vehicle_type_id":"4","last_reported":1753452712,"current_range_meters":16400,"station_id":"","pricing_plan_id":"cebpf4jnsgd1na2vs0mg"},{"bike_id":"5d429bdc-0fb0-4ee8-99f0-38ff58fa2f23","system_id":"levelo_inurba_marseille","lat":43.24071,"lon":5.37764,"is_reserved":false,"is_disabled":false,"rental_uris":{"android":"levelo://app?vid=5d429bdc-0fb0-4ee8-99f0-38ff58fa2f23","ios":"levelo://app?vid=5d429bdc-0fb0-4ee8-99f0-38ff58fa2f23"},"vehicle_type_id":"4","last_reported":1753452712,"current_range_meters":16400,"station_id":"ce4bhnp2rcd13ifvqgvg","pricing_plan_id":"cebpf4jnsgd1na2vs0mg"},{"bike_id":"44b406b4-2cb6-4c28-bd48-185bd835f4e2","system_id":"levelo_inurba_marseille","lat":43.21765,"lon":5.34605,"is_reserved":false,"is_disabled":false,"rental_uris":{"android":"levelo://app?vid=44b406b4-2cb6-4c28-bd48-185bd835f4e2","ios":"levelo://app?vid=44b406b4-2cb6-4c28-bd48-185bd835f4e2"},"vehicle_type_id":"4","last_reported":1753452712,"current_range_meters":16400,"station_id":"st_cvj6r9ubvosntc0bgbag","pricing_plan_id":"cebpf4jnsgd1na2vs0mg"},{"bike_id":"21a22bc7-65fe-4b97-a005-517b211a0b98","system_id":"levelo_inurba_marseille","lat":43.23047,"lon":5.35495,"is_reserved":false,"is_disabled":false,"rental_uris":{"android":"levelo://app?vid=21a22bc7-65fe-4b97-a005-517b211a0b98","ios":"levelo://app?vid=21a22bc7-65fe-4b97-a005-517b211a0b98"},"vehicle_type_id":"4","last_reported":1753452712,"current_range_meters":16400,"station_id":"cpo3342slgdg3j2ifvpg","pricing_plan_id":"cebpf4jnsgd1na2vs0mg"},{"bike_id":"c26f1b4d-11e7-4aaa-8fd1-0c8a6e22bd7c","system_id":"levelo_inurba_marseille","lat":43.30142,"lon":5.3876,"is_reserved":false,"is_disabled":true,"rental_uris":{"android":"levelo://app?vid=c26f1b4d-11e7-4aaa-8fd1-0c8a6e22bd7c","ios":"levelo://app?vid=c26f1b4d-11e7-4aaa-8fd1-0c8a6e22bd7c"},"vehicle_type_id":"4","last_reported":1753452712,"current_range_meters":16400,"station_id":"ce4bghh2rcd13ifvqb60","pricing_plan_id":"cebpf4jnsgd1na2vs0mg"},{"bike_id":"d3bb5d54-6833-4c8e-ace3-4750d7184099","system_id":"levelo_inurba_marseille","lat":43.26555,"lon":5.37283,"is_reserved":false,"is_disabled":false,"rental_uris":{"android":"levelo://app?vid=d3bb5d54-6833-4c8e-ace3-4750d7184099","ios":"levelo://app?vid=d3bb5d54-6833-4c8e-ace3-4750d7184099"},"vehicle_type_id":"4","last_reported":1753452712,"current_range_meters":16400,"station_id":"ce4bhg12rcd13ifvqf70","pricing_plan_id":"cebpf4jnsgd1na2vs0mg"},{"bike_id":"2f85bf0b-acec-4ac0-ab82-8e2c46c0064d","system_id":"levelo_inurba_marseille","lat":43.24166,"lon":5.36394,"is_reserved":false,"is_disabled":false,"rental_uris":{"android":"levelo://app?vid=2f85bf0b-acec-4ac0-ab82-8e2c46c0064d","ios":"levelo://app?vid=2f85bf0b-acec-4ac0-ab82-8e2c46c0064d"},"vehicle_type_id":"4","last_reported":1753452712,"current_range_meters":16400,"station_id":"cpo36qri1sfpv3e86is0","pricing_plan_id":"cebpf4jnsgd1na2vs0mg"},{"bike_id":"605a26a7-be30-47d9-81e5-e981767b1778","system_id":"levelo_inurba_marseille","lat":43.26943,"lon":5.38657,"is_reserved":false,"is_disabled":false,"rental_uris":{"android":"levelo://app?vid=605a26a7-be30-47d9-81e5-e981767b1778","ios":"levelo://app?vid=605a26a7-be30-47d9-81e5-e981767b1778"},"vehicle_type_id":"4","last_reported":1753452712,"current_range_meters":16400,"station_id":"ce4bhh92rcd13ifvqfh0","pricing_plan_id":"cebpf4jnsgd1na2vs0mg"},{"bike_id":"2db8c08c-b04a-40b4-8ab3-d95066a1d03d","system_id":"levelo_inurba_marseille","lat":43.28001,"lon":5.40016,"is_reserved":false,"is_disabled":false,"rental_uris":{"android":"levelo://app?vid=2db8c08c-b04a-40b4-8ab3-d95066a1d03d","ios":"levelo://app?vid=2db8c08c-b04a-40b4-8ab3-d95066a1d03d"},"vehicle_type_id":"4","last_reported":1753452712,"current_range_meters":16400,"station_id":"ce4bho92rcd13ifvqh4g","pricing_plan_id":"cebpf4jnsgd1na2vs0mg"},{"bike_id":"36f324cb-a9ad-46b7-afb0-26f814934e1f","system_id":"levelo_inurba_marseille","lat":43.26234,"lon":5.37454,"is_reserved":false,"is_disabled":false,"rental_uris":{"android":"levelo://app?vid=36f324cb-a9ad-46b7-afb0-26f814934e1f","ios":"levelo://app?vid=36f324cb-a9ad-46b7-afb0-26f814934e1f"},"vehicle_type_id":"4","last_reported":1753452712,"current_range_meters":16400,"station_id":"ce4bhgp2rcd13ifvqfc0","pricing_plan_id":"cebpf4jnsgd1na2vs0mg"},{"bike_id":"39f8ca8d-e97a-4d7d-865a-22098b57aea6","system_id":"levelo_inurba_marseille","lat":43.26555,"lon":5.37281,"is_reserved":false,"is_disabled":false,"rental_uris":{"android":"levelo://app?vid=39f8ca8d-e97a-4d7d-865a-22098b57aea6","ios":"levelo://app?vid=39f8ca8d-e97a-4d7d-865a-22098b57aea6"},"vehicle_type_id":"4","last_reported":1753452712,"current_range_meters":16400,"station_id":"ce4bhg12rcd13ifvqf70","pricing_plan_id":"cebpf4jnsgd1na2vs0mg"},{"bike_id":"4150f367-c77b-49d6-9460-8034f7438f5c","system_id":"levelo_inurba_marseille","lat":43.262054,"lon":5.374491,"is_reserved":false,"is_disabled":false,"rental_uris":{"android":"levelo://app?vid=4150f367-c77b-49d6-9460-8034f7438f5c","ios":"levelo://app?vid=4150f367-c77b-49d6-9460-8034f7438f5c"},"vehicle_type_id":"4","last_reported":1753452712,"current_range_meters":16400,"station_id":"","pricing_plan_id":"cebpf4jnsgd1na2vs0mg"},{"bike_id":"4d72a855-a15c-4b80-87db-d5d3b8786584","system_id":"levelo_inurba_marseille","lat":43.28639,"lon":5.35101,"is_reserved":false,"is_disabled":false,"rental_uris":{"android":"levelo://app?vid=4d72a855-a15c-4b80-87db-d5d3b8786584","ios":"levelo://app?vid=4d72a855-a15c-4b80-87db-d5d3b8786584"},"vehicle_type_id":"4","last_reported":1753452712,"current_range_meters":16800,"station_id":"ce4bhch2rcd13ifvqeug","pricing_plan_id":"cebpf4jnsgd1na2vs0mg"},{"bike_id":"de99b14c-9afd-4bdd-bc56-50354c110c3d","system_id":"levelo_inurba_marseille","lat":43.25467,"lon":5.37687,"is_reserved":false,"is_disabled":false,"rental_uris":{"android":"levelo://app?vid=de99b14c-9afd-4bdd-bc56-50354c110c3d","ios":"levelo://app?vid=de99b14c-9afd-4bdd-bc56-50354c110c3d"},"vehicle_type_id":"4","last_reported":1753452712,"current_range_meters":16800,"station_id":"","pricing_plan_id":"cebpf4jnsgd1na2vs0mg"},{"bike_id":"41b8e729-1dc8-4c83-9d14-2d9c2212307f","system_id":"levelo_inurba_marseille","lat":43.23193,"lon":5.35554,"is_reserved":false,"is_disabled":false,"rental_uris":{"android":"levelo://app?vid=41b8e729-1dc8-4c83-9d14-2d9c2212307f","ios":"levelo://app?vid=41b8e729-1dc8-4c83-9d14-2d9c2212307f"},"vehicle_type_id":"4","last_reported":1753452712,"current_range_meters":16400,"station_id":"ce4bhu92rcd13ifvqi70","pricing_plan_id":"cebpf4jnsgd1na2vs0mg"},{"bike_id":"2f44e2cf-25dd-4715-9de0-5c3f13a35d34","system_id":"levelo_inurba_marseille","lat":43.315186,"lon":5.380348,"is_reserved":false,"is_disabled":false,"rental_uris":{"android":"levelo://app?vid=2f44e2cf-25dd-4715-9de0-5c3f13a35d34","ios":"levelo://app?vid=2f44e2cf-25dd-4715-9de0-5c3f13a35d34"},"vehicle_type_id":"4","last_reported":1753452712,"current_range_meters":16800,"station_id":"ce4bhsp2rcd13ifvqi50","pricing_plan_id":"cebpf4jnsgd1na2vs0mg"},{"bike_id":"e4758bdf-cf42-4efa-b967-d2d8f06662b0","system_id":"levelo_inurba_marseille","lat":43.29928,"lon":5.37462,"is_reserved":false,"is_disabled":false,"rental_uris":{"android":"levelo://app?vid=e4758bdf-cf42-4efa-b967-d2d8f06662b0","ios":"levelo://app?vid=e4758bdf-cf42-4efa-b967-d2d8f06662b0"},"vehicle_type_id":"4","last_reported":1753452712,"current_range_meters":16800,"station_id":"ce4bgjh2rcd13ifvqbg0","pricing_plan_id":"cebpf4jnsgd1na2vs0mg"},{"bike_id":"830ac2da-3449-4c4f-88c4-7edd782ac2a3","system_id":"levelo_inurba_marseille","lat":43.22934,"lon":5.35385,"is_reserved":false,"is_disabled":false,"rental_uris":{"android":"levelo://app?vid=830ac2da-3449-4c4f-88c4-7edd782ac2a3","ios":"levelo://app?vid=830ac2da-3449-4c4f-88c4-7edd782ac2a3"},"vehicle_type_id":"4","last_reported":1753452712,"current_range_meters":16800,"station_id":"cpo3532slgdg3j2ikp40","pricing_plan_id":"cebpf4jnsgd1na2vs0mg"},{"bike_id":"d42fd1d9-8599-4423-8a25-1889aaf7e28d","system_id":"levelo_inurba_marseille","lat":43.2294,"lon":5.35387,"is_reserved":false,"is_disabled":false,"rental_uris":{"android":"levelo://app?vid=d42fd1d9-8599-4423-8a25-1889aaf7e28d","ios":"levelo://app?vid=d42fd1d9-8599-4423-8a25-1889aaf7e28d"},"vehicle_type_id":"4","last_reported":1753452712,"current_range_meters":16800,"station_id":"cpo3532slgdg3j2ikp40","pricing_plan_id":"cebpf4jnsgd1na2vs0mg"},{"bike_id":"ac2174f4-58ba-4696-a0b2-e398bcf7f428","system_id":"levelo_inurba_marseille","lat":43.273754,"lon":5.362616,"is_reserved":false,"is_disabled":false,"rental_uris":{"android":"levelo://app?vid=ac2174f4-58ba-4696-a0b2-e398bcf7f428","ios":"levelo://app?vid=ac2174f4-58ba-4696-a0b2-e398bcf7f428"},"vehicle_type_id":"4","last_reported":1753452712,"current_range_meters":16400,"station_id":"ce4bhbh2rcd13ifvqeo0","pricing_plan_id":"cebpf4jnsgd1na2vs0mg"},{"bike_id":"dc0d9aab-1707-4952-a31b-208fdb5ca985","system_id":"levelo_inurba_marseille","lat":43.26232,"lon":5.40428,"is_reserved":false,"is_disabled":false,"rental_uris":{"android":"levelo://app?vid=dc0d9aab-1707-4952-a31b-208fdb5ca985","ios":"levelo://app?vid=dc0d9aab-1707-4952-a31b-208fdb5ca985"},"vehicle_type_id":"4","last_reported":1753452712,"current_range_meters":16800,"station_id":"ce4bhmh2rcd13ifvqgmg","pricing_plan_id":"cebpf4jnsgd1na2vs0mg"},{"bike_id":"2f7aa8ee-b17f-447e-ac1c-06bff5e89da8","system_id":"levelo_inurba_marseille","lat":43.29905,"lon":5.43664,"is_reserved":false,"is_disabled":false,"rental_uris":{"android":"levelo://app?vid=2f7aa8ee-b17f-447e-ac1c-06bff5e89da8","ios":"levelo://app?vid=2f7aa8ee-b17f-447e-ac1c-06bff5e89da8"},"vehicle_type_id":"4","last_reported":1753452712,"current_range_meters":16800,"station_id":"ce4bhpp2rcd13ifvqhfg","pricing_plan_id":"cebpf4jnsgd1na2vs0mg"},{"bike_id":"dd4669b8-7a1e-455c-921c-cef6ea4213f0","system_id":"levelo_inurba_marseille","lat":43.29778,"lon":5.37668,"is_reserved":false,"is_disabled":false,"rental_uris":{"android":"levelo://app?vid=dd4669b8-7a1e-455c-921c-cef6ea4213f0","ios":"levelo://app?vid=dd4669b8-7a1e-455c-921c-cef6ea4213f0"},"vehicle_type_id":"4","last_reported":1753452712,"current_range_meters":16800,"station_id":"","pricing_plan_id":"cebpf4jnsgd1na2vs0mg"},{"bike_id":"57755280-973c-4ff3-9c25-8f15e2c5b510","system_id":"levelo_inurba_marseille","lat":43.31872,"lon":5.37373,"is_reserved":false,"is_disabled":false,"rental_uris":{"android":"levelo://app?vid=57755280-973c-4ff3-9c25-8f15e2c5b510","ios":"levelo://app?vid=57755280-973c-4ff3-9c25-8f15e2c5b510"},"vehicle_type_id":"4","last_reported":1753452712,"current_range_meters":16800,"station_id":"","pricing_plan_id":"cebpf4jnsgd1na2vs0mg"},{"bike_id":"364267a5-8884-4ca7-865a-d5861085d247","system_id":"levelo_inurba_marseille","lat":43.31122,"lon":5.37777,"is_reserved":false,"is_disabled":false,"rental_uris":{"android":"levelo://app?vid=364267a5-8884-4ca7-865a-d5861085d247","ios":"levelo://app?vid=364267a5-8884-4ca7-865a-d5861085d247"},"vehicle_type_id":"4","last_reported":1753452712,"current_range_meters":16800,"station_id":"ce4bgt92rcd13ifvqcg0","pricing_plan_id":"cebpf4jnsgd1na2vs0mg"},{"bike_id":"f56ed009-c55a-4186-b57d-5335023afd89","system_id":"levelo_inurba_marseille","lat":43.270362,"lon":5.403157,"is_reserved":false,"is_disabled":false,"rental_uris":{"android":"levelo://app?vid=f56ed009-c55a-4186-b57d-5335023afd89","ios":"levelo://app?vid=f56ed009-c55a-4186-b57d-5335023afd89"},"vehicle_type_id":"4","last_reported":1753452712,"current_range_meters":16800,"station_id":"ce4bhk92rcd13ifvqgc0","pricing_plan_id":"cebpf4jnsgd1na2vs0mg"},{"bike_id":"09b7f600-cb1e-4ea0-adc2-9c3dcb778794","system_id":"levelo_inurba_marseille","lat":43.22495,"lon":5.34802,"is_reserved":false,"is_disabled":false,"rental_uris":{"android":"levelo://app?vid=09b7f600-cb1e-4ea0-adc2-9c3dcb778794","ios":"levelo://app?vid=09b7f600-cb1e-4ea0-adc2-9c3dcb778794"},"vehicle_type_id":"4","last_reported":1753452712,"current_range_meters":17200,"station_id":"st_cvj5dfep6f1abm77gieg","pricing_plan_id":"cebpf4jnsgd1na2vs0mg"},{"bike_id":"7f7a4770-cb44-4cbe-afee-f7531a238fa9","system_id":"levelo_inurba_marseille","lat":43.225059,"lon":5.347842,"is_reserved":false,"is_disabled":false,"rental_uris":{"android":"levelo://app?vid=7f7a4770-cb44-4cbe-afee-f7531a238fa9","ios":"levelo://app?vid=7f7a4770-cb44-4cbe-afee-f7531a238fa9"},"vehicle_type_id":"4","last_reported":1753452712,"current_range_meters":17200,"station_id":"st_cvj5dfep6f1abm77gieg","pricing_plan_id":"cebpf4jnsgd1na2vs0mg"},{"bike_id":"7528e0ee-3254-4380-8007-ffef61e356ca","system_id":"levelo_inurba_marseille","lat":43.265565,"lon":5.372926,"is_reserved":false,"is_disabled":false,"rental_uris":{"android":"levelo://app?vid=7528e0ee-3254-4380-8007-ffef61e356ca","ios":"levelo://app?vid=7528e0ee-3254-4380-8007-ffef61e356ca"},"vehicle_type_id":"4","last_reported":1753452712,"current_range_meters":17200,"station_id":"ce4bhg12rcd13ifvqf70","pricing_plan_id":"cebpf4jnsgd1na2vs0mg"},{"bike_id":"106b550f-d233-4c19-855a-7f4afb57e88b","system_id":"levelo_inurba_marseille","lat":43.29192,"lon":5.35807,"is_reserved":false,"is_disabled":false,"rental_uris":{"android":"levelo://app?vid=106b550f-d233-4c19-855a-7f4afb57e88b","ios":"levelo://app?vid=106b550f-d233-4c19-855a-7f4afb57e88b"},"vehicle_type_id":"4","last_reported":1753452712,"current_range_meters":17200,"station_id":"ce4bhb12rcd13ifvqel0","pricing_plan_id":"cebpf4jnsgd1na2vs0mg"},{"bike_id":"3dd86df4-acbb-4e98-b48a-6edc6cef7dac","system_id":"levelo_inurba_marseille","lat":43.27496,"lon":5.42444,"is_reserved":false,"is_disabled":false,"rental_uris":{"android":"levelo://app?vid=3dd86df4-acbb-4e98-b48a-6edc6cef7dac","ios":"levelo://app?vid=3dd86df4-acbb-4e98-b48a-6edc6cef7dac"},"vehicle_type_id":"4","last_reported":1753452712,"current_range_meters":17200,"station_id":"ce4bhn92rcd13ifvqgrg","pricing_plan_id":"cebpf4jnsgd1na2vs0mg"},{"bike_id":"973dc889-baf1-471b-9e93-f6a4792bc4be","system_id":"levelo_inurba_marseille","lat":43.25501,"lon":5.37648,"is_reserved":false,"is_disabled":false,"rental_uris":{"android":"levelo://app?vid=973dc889-baf1-471b-9e93-f6a4792bc4be","ios":"levelo://app?vid=973dc889-baf1-471b-9e93-f6a4792bc4be"},"vehicle_type_id":"4","last_reported":1753452712,"current_range_meters":17200,"station_id":"ce4bhh12rcd13ifvqff0","pricing_plan_id":"cebpf4jnsgd1na2vs0mg"},{"bike_id":"5ec0c64f-b3b2-4d4f-bba1-8753a83f96a8","system_id":"levelo_inurba_marseille","lat":43.21733,"lon":5.34616,"is_reserved":false,"is_disabled":false,"rental_uris":{"android":"levelo://app?vid=5ec0c64f-b3b2-4d4f-bba1-8753a83f96a8","ios":"levelo://app?vid=5ec0c64f-b3b2-4d4f-bba1-8753a83f96a8"},"vehicle_type_id":"4","last_reported":1753452712,"current_range_meters":17600,"station_id":"st_cvj6r9ubvosntc0bgbag","pricing_plan_id":"cebpf4jnsgd1na2vs0mg"},{"bike_id":"44fdfae6-e9e6-4a50-a3b5-6d85a1277053","system_id":"levelo_inurba_marseille","lat":43.26555,"lon":5.37283,"is_reserved":false,"is_disabled":false,"rental_uris":{"android":"levelo://app?vid=44fdfae6-e9e6-4a50-a3b5-6d85a1277053","ios":"levelo://app?vid=44fdfae6-e9e6-4a50-a3b5-6d85a1277053"},"vehicle_type_id":"4","last_reported":1753452712,"current_range_meters":17600,"station_id":"ce4bhg12rcd13ifvqf70","pricing_plan_id":"cebpf4jnsgd1na2vs0mg"},{"bike_id":"f8a5258a-c32a-4c32-9d50-8d119f529a04","system_id":"levelo_inurba_marseille","lat":43.22931,"lon":5.35372,"is_reserved":false,"is_disabled":false,"rental_uris":{"android":"levelo://app?vid=f8a5258a-c32a-4c32-9d50-8d119f529a04","ios":"levelo://app?vid=f8a5258a-c32a-4c32-9d50-8d119f529a04"},"vehicle_type_id":"4","last_reported":1753452712,"current_range_meters":17600,"station_id":"cpo3532slgdg3j2ikp40","pricing_plan_id":"cebpf4jnsgd1na2vs0mg"},{"bike_id":"801a46e1-b7d5-4e78-8be9-08d0266948fd","system_id":"levelo_inurba_marseille","lat":43.32667,"lon":5.40984,"is_reserved":false,"is_disabled":false,"rental_uris":{"android":"levelo://app?vid=801a46e1-b7d5-4e78-8be9-08d0266948fd","ios":"levelo://app?vid=801a46e1-b7d5-4e78-8be9-08d0266948fd"},"vehicle_type_id":"4","last_reported":1753452712,"current_range_meters":17600,"station_id":"ce4bhpp2rcd13ifvqhgg","pricing_plan_id":"cebpf4jnsgd1na2vs0mg"},{"bike_id":"df614637-5d97-44b5-81ae-f0a78288da00","system_id":"levelo_inurba_marseille","lat":43.26795,"lon":5.39424,"is_reserved":false,"is_disabled":false,"rental_uris":{"android":"levelo://app?vid=df614637-5d97-44b5-81ae-f0a78288da00","ios":"levelo://app?vid=df614637-5d97-44b5-81ae-f0a78288da00"},"vehicle_type_id":"4","last_reported":1753452712,"current_range_meters":17600,"station_id":"ce4bhh12rcd13ifvqfg0","pricing_plan_id":"cebpf4jnsgd1na2vs0mg"},{"bike_id":"58075a71-8a2b-4f59-abd3-9202ce214e8a","system_id":"levelo_inurba_marseille","lat":43.26939,"lon":5.40249,"is_reserved":false,"is_disabled":false,"rental_uris":{"android":"levelo://app?vid=58075a71-8a2b-4f59-abd3-9202ce214e8a","ios":"levelo://app?vid=58075a71-8a2b-4f59-abd3-9202ce214e8a"},"vehicle_type_id":"4","last_reported":1753452712,"current_range_meters":17600,"station_id":"cjm6bp8fraef2m0cb0m0","pricing_plan_id":"cebpf4jnsgd1na2vs0mg"},{"bike_id":"7d1d9b60-3dc8-4c23-95e2-067a5b72f8af","system_id":"levelo_inurba_marseille","lat":43.24799,"lon":5.37446,"is_reserved":false,"is_disabled":false,"rental_uris":{"android":"levelo://app?vid=7d1d9b60-3dc8-4c23-95e2-067a5b72f8af","ios":"levelo://app?vid=7d1d9b60-3dc8-4c23-95e2-067a5b72f8af"},"vehicle_type_id":"4","last_reported":1753452712,"current_range_meters":17600,"station_id":"ce4bhgh2rcd13ifvqfb0","pricing_plan_id":"cebpf4jnsgd1na2vs0mg"},{"bike_id":"173c7979-3321-47ea-8a86-a6cd190511a5","system_id":"levelo_inurba_marseille","lat":43.23964,"lon":5.36622,"is_reserved":false,"is_disabled":false,"rental_uris":{"android":"levelo://app?vid=173c7979-3321-47ea-8a86-a6cd190511a5","ios":"levelo://app?vid=173c7979-3321-47ea-8a86-a6cd190511a5"},"vehicle_type_id":"4","last_reported":1753452712,"current_range_meters":17600,"station_id":"ce4bhi12rcd13ifvqfp0","pricing_plan_id":"cebpf4jnsgd1na2vs0mg"},{"bike_id":"b5faf0f0-8a73-4fc4-b6fc-daffce16b582","system_id":"levelo_inurba_marseille","lat":43.30131,"lon":5.38089,"is_reserved":false,"is_disabled":false,"rental_uris":{"android":"levelo://app?vid=b5faf0f0-8a73-4fc4-b6fc-daffce16b582","ios":"levelo://app?vid=b5faf0f0-8a73-4fc4-b6fc-daffce16b582"},"vehicle_type_id":"4","last_reported":1753452712,"current_range_meters":17600,"station_id":"ce4bgjp2rcd13ifvqbh0","pricing_plan_id":"cebpf4jnsgd1na2vs0mg"},{"bike_id":"329c8f00-9fb0-47d7-84ef-1bc64e291f9c","system_id":"levelo_inurba_marseille","lat":43.292789,"lon":5.36837,"is_reserved":false,"is_disabled":false,"rental_uris":{"android":"levelo://app?vid=329c8f00-9fb0-47d7-84ef-1bc64e291f9c","ios":"levelo://app?vid=329c8f00-9fb0-47d7-84ef-1bc64e291f9c"},"vehicle_type_id":"4","last_reported":1753452712,"current_range_meters":17600,"station_id":"","pricing_plan_id":"cebpf4jnsgd1na2vs0mg"},{"bike_id":"af5d66e4-f0e5-4e79-aea3-313cacc90bb9","system_id":"levelo_inurba_marseille","lat":43.2501,"lon":5.38915,"is_reserved":false,"is_disabled":false,"rental_uris":{"android":"levelo://app?vid=af5d66e4-f0e5-4e79-aea3-313cacc90bb9","ios":"levelo://app?vid=af5d66e4-f0e5-4e79-aea3-313cacc90bb9"},"vehicle_type_id":"4","last_reported":1753452712,"current_range_meters":18000,"station_id":"ce4bhgp2rcd13ifvqfd0","pricing_plan_id":"cebpf4jnsgd1na2vs0mg"},{"bike_id":"16971f4c-ccac-4993-ad28-795396f2377f","system_id":"levelo_inurba_marseille","lat":43.24162,"lon":5.36429,"is_reserved":false,"is_disabled":false,"rental_uris":{"android":"levelo://app?vid=16971f4c-ccac-4993-ad28-795396f2377f","ios":"levelo://app?vid=16971f4c-ccac-4993-ad28-795396f2377f"},"vehicle_type_id":"4","last_reported":1753452712,"current_range_meters":18000,"station_id":"cpo36qri1sfpv3e86is0","pricing_plan_id":"cebpf4jnsgd1na2vs0mg"},{"bike_id":"c54c7470-7323-445b-86e5-5b5ce2f05a24","system_id":"levelo_inurba_marseille","lat":43.21756,"lon":5.345953,"is_reserved":false,"is_disabled":false,"rental_uris":{"android":"levelo://app?vid=c54c7470-7323-445b-86e5-5b5ce2f05a24","ios":"levelo://app?vid=c54c7470-7323-445b-86e5-5b5ce2f05a24"},"vehicle_type_id":"4","last_reported":1753452712,"current_range_meters":18000,"station_id":"st_cvj6r9ubvosntc0bgbag","pricing_plan_id":"cebpf4jnsgd1na2vs0mg"},{"bike_id":"152247a2-6f09-485f-acf9-4f6bd27a046c","system_id":"levelo_inurba_marseille","lat":43.2816,"lon":5.4263,"is_reserved":false,"is_disabled":false,"rental_uris":{"android":"levelo://app?vid=152247a2-6f09-485f-acf9-4f6bd27a046c","ios":"levelo://app?vid=152247a2-6f09-485f-acf9-4f6bd27a046c"},"vehicle_type_id":"4","last_reported":1753452712,"current_range_meters":18000,"station_id":"ce4bhnh2rcd13ifvqgug","pricing_plan_id":"cebpf4jnsgd1na2vs0mg"},{"bike_id":"cac06d43-e574-48c5-a655-7c350a2cbdb6","system_id":"levelo_inurba_marseille","lat":43.2621,"lon":5.37445,"is_reserved":false,"is_disabled":false,"rental_uris":{"android":"levelo://app?vid=cac06d43-e574-48c5-a655-7c350a2cbdb6","ios":"levelo://app?vid=cac06d43-e574-48c5-a655-7c350a2cbdb6"},"vehicle_type_id":"4","last_reported":1753452712,"current_range_meters":18000,"station_id":"ce4bhgp2rcd13ifvqfc0","pricing_plan_id":"cebpf4jnsgd1na2vs0mg"},{"bike_id":"ec74f06a-40dc-4c39-a0cb-57d6f568a4e5","system_id":"levelo_inurba_marseille","lat":43.22947,"lon":5.35388,"is_reserved":false,"is_disabled":false,"rental_uris":{"android":"levelo://app?vid=ec74f06a-40dc-4c39-a0cb-57d6f568a4e5","ios":"levelo://app?vid=ec74f06a-40dc-4c39-a0cb-57d6f568a4e5"},"vehicle_type_id":"4","last_reported":1753452712,"current_range_meters":18000,"station_id":"cpo3532slgdg3j2ikp40","pricing_plan_id":"cebpf4jnsgd1na2vs0mg"},{"bike_id":"2de6df84-4a65-421c-a610-eefd67edb8aa","system_id":"levelo_inurba_marseille","lat":43.32461,"lon":5.36582,"is_reserved":false,"is_disabled":false,"rental_uris":{"android":"levelo://app?vid=2de6df84-4a65-421c-a610-eefd67edb8aa","ios":"levelo://app?vid=2de6df84-4a65-421c-a610-eefd67edb8aa"},"vehicle_type_id":"4","last_reported":1753452712,"current_range_meters":18000,"station_id":"ce4bhs12rcd13ifvqhvg","pricing_plan_id":"cebpf4jnsgd1na2vs0mg"},{"bike_id":"80acebb2-0350-48ac-b0aa-274664838171","system_id":"levelo_inurba_marseille","lat":43.241689,"lon":5.364046,"is_reserved":false,"is_disabled":false,"rental_uris":{"android":"levelo://app?vid=80acebb2-0350-48ac-b0aa-274664838171","ios":"levelo://app?vid=80acebb2-0350-48ac-b0aa-274664838171"},"vehicle_type_id":"4","last_reported":1753452712,"current_range_meters":18000,"station_id":"cpo36qri1sfpv3e86is0","pricing_plan_id":"cebpf4jnsgd1na2vs0mg"},{"bike_id":"ac8ce396-3dab-4f02-af68-0ee9b6d1d3cb","system_id":"levelo_inurba_marseille","lat":43.31319,"lon":5.36845,"is_reserved":false,"is_disabled":false,"rental_uris":{"android":"levelo://app?vid=ac8ce396-3dab-4f02-af68-0ee9b6d1d3cb","ios":"levelo://app?vid=ac8ce396-3dab-4f02-af68-0ee9b6d1d3cb"},"vehicle_type_id":"4","last_reported":1753452712,"current_range_meters":18000,"station_id":"","pricing_plan_id":"cebpf4jnsgd1na2vs0mg"},{"bike_id":"6ab0b13c-2ff1-417a-acfd-489d6800d4c9","system_id":"levelo_inurba_marseille","lat":43.27378,"lon":5.36234,"is_reserved":false,"is_disabled":true,"rental_uris":{"android":"levelo://app?vid=6ab0b13c-2ff1-417a-acfd-489d6800d4c9","ios":"levelo://app?vid=6ab0b13c-2ff1-417a-acfd-489d6800d4c9"},"vehicle_type_id":"4","last_reported":1753452712,"current_range_meters":18000,"station_id":"","pricing_plan_id":"cebpf4jnsgd1na2vs0mg"},{"bike_id":"002d2fd9-acd8-475c-ad36-166d94beeedc","system_id":"levelo_inurba_marseille","lat":43.299652,"lon":5.384843,"is_reserved":false,"is_disabled":false,"rental_uris":{"android":"levelo://app?vid=002d2fd9-acd8-475c-ad36-166d94beeedc","ios":"levelo://app?vid=002d2fd9-acd8-475c-ad36-166d94beeedc"},"vehicle_type_id":"4","last_reported":1753452712,"current_range_meters":18800,"station_id":"ce4bgj92rcd13ifvqbd0","pricing_plan_id":"cebpf4jnsgd1na2vs0mg"},{"bike_id":"8f4ca69e-9621-4ffd-91af-41f939f5f71e","system_id":"levelo_inurba_marseille","lat":43.23962,"lon":5.36651,"is_reserved":false,"is_disabled":false,"rental_uris":{"android":"levelo://app?vid=8f4ca69e-9621-4ffd-91af-41f939f5f71e","ios":"levelo://app?vid=8f4ca69e-9621-4ffd-91af-41f939f5f71e"},"vehicle_type_id":"4","last_reported":1753452712,"current_range_meters":18800,"station_id":"ce4bhi12rcd13ifvqfp0","pricing_plan_id":"cebpf4jnsgd1na2vs0mg"},{"bike_id":"c3c2652b-f2d7-4ed4-89ec-9559feb01451","system_id":"levelo_inurba_marseille","lat":43.292236,"lon":5.360521,"is_reserved":false,"is_disabled":true,"rental_uris":{"android":"levelo://app?vid=c3c2652b-f2d7-4ed4-89ec-9559feb01451","ios":"levelo://app?vid=c3c2652b-f2d7-4ed4-89ec-9559feb01451"},"vehicle_type_id":"4","last_reported":1753452712,"current_range_meters":18800,"station_id":"ce4bhbh2rcd13ifvqeqg","pricing_plan_id":"cebpf4jnsgd1na2vs0mg"},{"bike_id":"37168535-7fe3-49d2-805c-9dae3ec44832","system_id":"levelo_inurba_marseille","lat":43.273724,"lon":5.362611,"is_reserved":false,"is_disabled":false,"rental_uris":{"android":"levelo://app?vid=37168535-7fe3-49d2-805c-9dae3ec44832","ios":"levelo://app?vid=37168535-7fe3-49d2-805c-9dae3ec44832"},"vehicle_type_id":"4","last_reported":1753452712,"current_range_meters":18800,"station_id":"ce4bhbh2rcd13ifvqeo0","pricing_plan_id":"cebpf4jnsgd1na2vs0mg"},{"bike_id":"e50d923d-b934-4ddf-89f8-26a87289f284","system_id":"levelo_inurba_marseille","lat":43.26563,"lon":5.37284,"is_reserved":false,"is_disabled":false,"rental_uris":{"android":"levelo://app?vid=e50d923d-b934-4ddf-89f8-26a87289f284","ios":"levelo://app?vid=e50d923d-b934-4ddf-89f8-26a87289f284"},"vehicle_type_id":"4","last_reported":1753452712,"current_range_meters":18800,"station_id":"ce4bhg12rcd13ifvqf70","pricing_plan_id":"cebpf4jnsgd1na2vs0mg"},{"bike_id":"d1118ba2-7ab0-47ff-a120-ca2f2f1b3dfe","system_id":"levelo_inurba_marseille","lat":43.28654,"lon":5.35077,"is_reserved":false,"is_disabled":false,"rental_uris":{"android":"levelo://app?vid=d1118ba2-7ab0-47ff-a120-ca2f2f1b3dfe","ios":"levelo://app?vid=d1118ba2-7ab0-47ff-a120-ca2f2f1b3dfe"},"vehicle_type_id":"4","last_reported":1753452712,"current_range_meters":18800,"station_id":"ce4bhch2rcd13ifvqeug","pricing_plan_id":"cebpf4jnsgd1na2vs0mg"},{"bike_id":"35a42db7-64ff-4e76-b3ae-5ddaea472b82","system_id":"levelo_inurba_marseille","lat":43.25825,"lon":5.39433,"is_reserved":false,"is_disabled":false,"rental_uris":{"android":"levelo://app?vid=35a42db7-64ff-4e76-b3ae-5ddaea472b82","ios":"levelo://app?vid=35a42db7-64ff-4e76-b3ae-5ddaea472b82"},"vehicle_type_id":"4","last_reported":1753452712,"current_range_meters":18800,"station_id":"ce4bhip2rcd13ifvqft0","pricing_plan_id":"cebpf4jnsgd1na2vs0mg"},{"bike_id":"a1d5115b-997f-44a5-8b4b-21cb29757407","system_id":"levelo_inurba_marseille","lat":43.31263,"lon":5.37248,"is_reserved":false,"is_disabled":false,"rental_uris":{"android":"levelo://app?vid=a1d5115b-997f-44a5-8b4b-21cb29757407","ios":"levelo://app?vid=a1d5115b-997f-44a5-8b4b-21cb29757407"},"vehicle_type_id":"4","last_reported":1753452712,"current_range_meters":18800,"station_id":"","pricing_plan_id":"cebpf4jnsgd1na2vs0mg"},{"bike_id":"802ff1ab-3262-43a6-ae06-271375b6cfd7","system_id":"levelo_inurba_marseille","lat":43.26678,"lon":5.38285,"is_reserved":false,"is_disabled":false,"rental_uris":{"android":"levelo://app?vid=802ff1ab-3262-43a6-ae06-271375b6cfd7","ios":"levelo://app?vid=802ff1ab-3262-43a6-ae06-271375b6cfd7"},"vehicle_type_id":"4","last_reported":1753452712,"current_range_meters":18800,"station_id":"ce4bhg92rcd13ifvqf90","pricing_plan_id":"cebpf4jnsgd1na2vs0mg"},{"bike_id":"34cf4bf0-5637-4cc7-923a-c94e82ab7dca","system_id":"levelo_inurba_marseille","lat":43.262064,"lon":5.374407,"is_reserved":false,"is_disabled":false,"rental_uris":{"android":"levelo://app?vid=34cf4bf0-5637-4cc7-923a-c94e82ab7dca","ios":"levelo://app?vid=34cf4bf0-5637-4cc7-923a-c94e82ab7dca"},"vehicle_type_id":"4","last_reported":1753452712,"current_range_meters":19200,"station_id":"ce4bhgp2rcd13ifvqfc0","pricing_plan_id":"cebpf4jnsgd1na2vs0mg"},{"bike_id":"63168cb7-c552-4fc1-bffe-f76c782a2a59","system_id":"levelo_inurba_marseille","lat":43.28846,"lon":5.39297,"is_reserved":false,"is_disabled":false,"rental_uris":{"android":"levelo://app?vid=63168cb7-c552-4fc1-bffe-f76c782a2a59","ios":"levelo://app?vid=63168cb7-c552-4fc1-bffe-f76c782a2a59"},"vehicle_type_id":"4","last_reported":1753452712,"current_range_meters":19200,"station_id":"ce4bh2p2rcd13ifvqdi0","pricing_plan_id":"cebpf4jnsgd1na2vs0mg"},{"bike_id":"31a32938-b418-45fa-9c30-8136f684dd43","system_id":"levelo_inurba_marseille","lat":43.25501,"lon":5.37624,"is_reserved":false,"is_disabled":false,"rental_uris":{"android":"levelo://app?vid=31a32938-b418-45fa-9c30-8136f684dd43","ios":"levelo://app?vid=31a32938-b418-45fa-9c30-8136f684dd43"},"vehicle_type_id":"4","last_reported":1753452712,"current_range_meters":19200,"station_id":"ce4bhh12rcd13ifvqff0","pricing_plan_id":"cebpf4jnsgd1na2vs0mg"},{"bike_id":"b0ab26ed-6d98-4d8d-9fc2-b57924d0bcb8","system_id":"levelo_inurba_marseille","lat":43.21749,"lon":5.34596,"is_reserved":false,"is_disabled":false,"rental_uris":{"android":"levelo://app?vid=b0ab26ed-6d98-4d8d-9fc2-b57924d0bcb8","ios":"levelo://app?vid=b0ab26ed-6d98-4d8d-9fc2-b57924d0bcb8"},"vehicle_type_id":"4","last_reported":1753452712,"current_range_meters":19200,"station_id":"","pricing_plan_id":"cebpf4jnsgd1na2vs0mg"},{"bike_id":"07889d7f-750d-4c2a-9f82-d7fdd37d056c","system_id":"levelo_inurba_marseille","lat":43.28619,"lon":5.37059,"is_reserved":false,"is_disabled":false,"rental_uris":{"android":"levelo://app?vid=07889d7f-750d-4c2a-9f82-d7fdd37d056c","ios":"levelo://app?vid=07889d7f-750d-4c2a-9f82-d7fdd37d056c"},"vehicle_type_id":"4","last_reported":1753452712,"current_range_meters":19200,"station_id":"ce4bht12rcd13ifvqi60","pricing_plan_id":"cebpf4jnsgd1na2vs0mg"},{"bike_id":"55f97efc-c950-4951-8ddd-2ccde70b140e","system_id":"levelo_inurba_marseille","lat":43.22509,"lon":5.34781,"is_reserved":false,"is_disabled":false,"rental_uris":{"android":"levelo://app?vid=55f97efc-c950-4951-8ddd-2ccde70b140e","ios":"levelo://app?vid=55f97efc-c950-4951-8ddd-2ccde70b140e"},"vehicle_type_id":"4","last_reported":1753452712,"current_range_meters":19200,"station_id":"st_cvj5dfep6f1abm77gieg","pricing_plan_id":"cebpf4jnsgd1na2vs0mg"},{"bike_id":"e7652c6c-2402-49f7-a93f-025650a12a4e","system_id":"levelo_inurba_marseille","lat":43.2861,"lon":5.35106,"is_reserved":false,"is_disabled":false,"rental_uris":{"android":"levelo://app?vid=e7652c6c-2402-49f7-a93f-025650a12a4e","ios":"levelo://app?vid=e7652c6c-2402-49f7-a93f-025650a12a4e"},"vehicle_type_id":"4","last_reported":1753452712,"current_range_meters":19200,"station_id":"ce4bhch2rcd13ifvqeug","pricing_plan_id":"cebpf4jnsgd1na2vs0mg"},{"bike_id":"4301aced-4843-46c7-a687-5376be6def77","system_id":"levelo_inurba_marseille","lat":43.280011,"lon":5.400106,"is_reserved":false,"is_disabled":false,"rental_uris":{"android":"levelo://app?vid=4301aced-4843-46c7-a687-5376be6def77","ios":"levelo://app?vid=4301aced-4843-46c7-a687-5376be6def77"},"vehicle_type_id":"4","last_reported":1753452712,"current_range_meters":19200,"station_id":"ce4bho92rcd13ifvqh4g","pricing_plan_id":"cebpf4jnsgd1na2vs0mg"},{"bike_id":"1e5c96a6-9d0f-4d5f-85ef-5a5f8ac0317a","system_id":"levelo_inurba_marseille","lat":43.33491,"lon":5.39137,"is_reserved":false,"is_disabled":false,"rental_uris":{"android":"levelo://app?vid=1e5c96a6-9d0f-4d5f-85ef-5a5f8ac0317a","ios":"levelo://app?vid=1e5c96a6-9d0f-4d5f-85ef-5a5f8ac0317a"},"vehicle_type_id":"4","last_reported":1753452712,"current_range_meters":19200,"station_id":"","pricing_plan_id":"cebpf4jnsgd1na2vs0mg"},{"bike_id":"7254aad9-4b7a-44b4-89bb-4f6b7cb10520","system_id":"levelo_inurba_marseille","lat":43.260813,"lon":5.393811,"is_reserved":false,"is_disabled":false,"rental_uris":{"android":"levelo://app?vid=7254aad9-4b7a-44b4-89bb-4f6b7cb10520","ios":"levelo://app?vid=7254aad9-4b7a-44b4-89bb-4f6b7cb10520"},"vehicle_type_id":"4","last_reported":1753452712,"current_range_meters":19200,"station_id":"ce4bhh92rcd13ifvqfj0","pricing_plan_id":"cebpf4jnsgd1na2vs0mg"},{"bike_id":"c3b53303-9018-4d5a-91fe-ce0c3b3be56d","system_id":"levelo_inurba_marseille","lat":43.28619,"lon":5.37054,"is_reserved":false,"is_disabled":false,"rental_uris":{"android":"levelo://app?vid=c3b53303-9018-4d5a-91fe-ce0c3b3be56d","ios":"levelo://app?vid=c3b53303-9018-4d5a-91fe-ce0c3b3be56d"},"vehicle_type_id":"4","last_reported":1753452712,"current_range_meters":19200,"station_id":"ce4bht12rcd13ifvqi60","pricing_plan_id":"cebpf4jnsgd1na2vs0mg"},{"bike_id":"f4fd8122-3542-41c9-a204-ae963e556aa2","system_id":"levelo_inurba_marseille","lat":43.23057,"lon":5.35504,"is_reserved":false,"is_disabled":false,"rental_uris":{"android":"levelo://app?vid=f4fd8122-3542-41c9-a204-ae963e556aa2","ios":"levelo://app?vid=f4fd8122-3542-41c9-a204-ae963e556aa2"},"vehicle_type_id":"4","last_reported":1753452712,"current_range_meters":19600,"station_id":"cpo3342slgdg3j2ifvpg","pricing_plan_id":"cebpf4jnsgd1na2vs0mg"},{"bike_id":"3c5c829d-f8d2-4754-8adb-4f267933a19e","system_id":"levelo_inurba_marseille","lat":43.25503,"lon":5.37649,"is_reserved":false,"is_disabled":false,"rental_uris":{"android":"levelo://app?vid=3c5c829d-f8d2-4754-8adb-4f267933a19e","ios":"levelo://app?vid=3c5c829d-f8d2-4754-8adb-4f267933a19e"},"vehicle_type_id":"4","last_reported":1753452712,"current_range_meters":19600,"station_id":"ce4bhh12rcd13ifvqff0","pricing_plan_id":"cebpf4jnsgd1na2vs0mg"},{"bike_id":"85333a3b-9be8-4a22-af2c-50f33eb8750c","system_id":"levelo_inurba_marseille","lat":43.241667,"lon":5.36398,"is_reserved":false,"is_disabled":false,"rental_uris":{"android":"levelo://app?vid=85333a3b-9be8-4a22-af2c-50f33eb8750c","ios":"levelo://app?vid=85333a3b-9be8-4a22-af2c-50f33eb8750c"},"vehicle_type_id":"4","last_reported":1753452712,"current_range_meters":19600,"station_id":"cpo36qri1sfpv3e86is0","pricing_plan_id":"cebpf4jnsgd1na2vs0mg"},{"bike_id":"a3e4f936-e7da-42bf-94b4-ad22bb68b9c3","system_id":"levelo_inurba_marseille","lat":43.21751,"lon":5.34603,"is_reserved":false,"is_disabled":false,"rental_uris":{"android":"levelo://app?vid=a3e4f936-e7da-42bf-94b4-ad22bb68b9c3","ios":"levelo://app?vid=a3e4f936-e7da-42bf-94b4-ad22bb68b9c3"},"vehicle_type_id":"4","last_reported":1753452712,"current_range_meters":19600,"station_id":"","pricing_plan_id":"cebpf4jnsgd1na2vs0mg"},{"bike_id":"fbb2460d-5ad8-4e5e-b87b-d049af083a8c","system_id":"levelo_inurba_marseille","lat":43.28609,"lon":5.37062,"is_reserved":false,"is_disabled":false,"rental_uris":{"android":"levelo://app?vid=fbb2460d-5ad8-4e5e-b87b-d049af083a8c","ios":"levelo://app?vid=fbb2460d-5ad8-4e5e-b87b-d049af083a8c"},"vehicle_type_id":"4","last_reported":1753452712,"current_range_meters":19600,"station_id":"ce4bht12rcd13ifvqi60","pricing_plan_id":"cebpf4jnsgd1na2vs0mg"},{"bike_id":"43dbc09e-d0e4-4ddb-bafe-4f55874d23a9","system_id":"levelo_inurba_marseille","lat":43.30236,"lon":5.38229,"is_reserved":false,"is_disabled":false,"rental_uris":{"android":"levelo://app?vid=43dbc09e-d0e4-4ddb-bafe-4f55874d23a9","ios":"levelo://app?vid=43dbc09e-d0e4-4ddb-bafe-4f55874d23a9"},"vehicle_type_id":"4","last_reported":1753452712,"current_range_meters":19600,"station_id":"","pricing_plan_id":"cebpf4jnsgd1na2vs0mg"},{"bike_id":"ebd6304a-a706-4f12-bd1f-08a88635748f","system_id":"levelo_inurba_marseille","lat":43.31497,"lon":5.37294,"is_reserved":false,"is_disabled":false,"rental_uris":{"android":"levelo://app?vid=ebd6304a-a706-4f12-bd1f-08a88635748f","ios":"levelo://app?vid=ebd6304a-a706-4f12-bd1f-08a88635748f"},"vehicle_type_id":"4","last_reported":1753452712,"current_range_meters":19600,"station_id":"ce4bgt12rcd13ifvqcd0","pricing_plan_id":"cebpf4jnsgd1na2vs0mg"},{"bike_id":"b6cd1d0d-9fa9-43c6-971b-9fe98760946d","system_id":"levelo_inurba_marseille","lat":43.32354,"lon":5.36747,"is_reserved":false,"is_disabled":false,"rental_uris":{"android":"levelo://app?vid=b6cd1d0d-9fa9-43c6-971b-9fe98760946d","ios":"levelo://app?vid=b6cd1d0d-9fa9-43c6-971b-9fe98760946d"},"vehicle_type_id":"4","last_reported":1753452712,"current_range_meters":19600,"station_id":"ce4bhsh2rcd13ifvqi2g","pricing_plan_id":"cebpf4jnsgd1na2vs0mg"},{"bike_id":"725317c6-351b-43e5-b68d-45c3db010ac3","system_id":"levelo_inurba_marseille","lat":43.28153,"lon":5.42636,"is_reserved":false,"is_disabled":false,"rental_uris":{"android":"levelo://app?vid=725317c6-351b-43e5-b68d-45c3db010ac3","ios":"levelo://app?vid=725317c6-351b-43e5-b68d-45c3db010ac3"},"vehicle_type_id":"4","last_reported":1753452712,"current_range_meters":20000,"station_id":"ce4bhnh2rcd13ifvqgug","pricing_plan_id":"cebpf4jnsgd1na2vs0mg"},{"bike_id":"bd03725b-daa2-4c51-a05f-cb2f03c77c16","system_id":"levelo_inurba_marseille","lat":43.29506,"lon":5.37515,"is_reserved":false,"is_disabled":false,"rental_uris":{"android":"levelo://app?vid=bd03725b-daa2-4c51-a05f-cb2f03c77c16","ios":"levelo://app?vid=bd03725b-daa2-4c51-a05f-cb2f03c77c16"},"vehicle_type_id":"4","last_reported":1753452712,"current_range_meters":20000,"station_id":"ce4bgkp2rcd13ifvqbmg","pricing_plan_id":"cebpf4jnsgd1na2vs0mg"},{"bike_id":"2232eca8-8973-4cf8-a6a5-c8aed9010e7f","system_id":"levelo_inurba_marseille","lat":43.26555,"lon":5.37285,"is_reserved":false,"is_disabled":false,"rental_uris":{"android":"levelo://app?vid=2232eca8-8973-4cf8-a6a5-c8aed9010e7f","ios":"levelo://app?vid=2232eca8-8973-4cf8-a6a5-c8aed9010e7f"},"vehicle_type_id":"4","last_reported":1753452712,"current_range_meters":20000,"station_id":"ce4bhg12rcd13ifvqf70","pricing_plan_id":"cebpf4jnsgd1na2vs0mg"},{"bike_id":"2703e0a4-7218-4353-b33c-9609c06a5516","system_id":"levelo_inurba_marseille","lat":43.275,"lon":5.42468,"is_reserved":false,"is_disabled":false,"rental_uris":{"android":"levelo://app?vid=2703e0a4-7218-4353-b33c-9609c06a5516","ios":"levelo://app?vid=2703e0a4-7218-4353-b33c-9609c06a5516"},"vehicle_type_id":"4","last_reported":1753452712,"current_range_meters":20000,"station_id":"ce4bhn92rcd13ifvqgrg","pricing_plan_id":"cebpf4jnsgd1na2vs0mg"},{"bike_id":"a05343f6-5345-451e-92c9-8d14b4ec04eb","system_id":"levelo_inurba_marseille","lat":43.314919,"lon":5.373082,"is_reserved":false,"is_disabled":true,"rental_uris":{"android":"levelo://app?vid=a05343f6-5345-451e-92c9-8d14b4ec04eb","ios":"levelo://app?vid=a05343f6-5345-451e-92c9-8d14b4ec04eb"},"vehicle_type_id":"4","last_reported":1753452712,"current_range_meters":20000,"station_id":"","pricing_plan_id":"cebpf4jnsgd1na2vs0mg"},{"bike_id":"febfb0dd-62aa-4333-8aa6-5a2dfd2c5e17","system_id":"levelo_inurba_marseille","lat":43.33156,"lon":5.35975,"is_reserved":false,"is_disabled":false,"rental_uris":{"android":"levelo://app?vid=febfb0dd-62aa-4333-8aa6-5a2dfd2c5e17","ios":"levelo://app?vid=febfb0dd-62aa-4333-8aa6-5a2dfd2c5e17"},"vehicle_type_id":"4","last_reported":1753452712,"current_range_meters":20000,"station_id":"","pricing_plan_id":"cebpf4jnsgd1na2vs0mg"},{"bike_id":"2e51888f-b65f-4dea-aef3-361588ce5fc0","system_id":"levelo_inurba_marseille","lat":43.26953,"lon":5.38633,"is_reserved":false,"is_disabled":false,"rental_uris":{"android":"levelo://app?vid=2e51888f-b65f-4dea-aef3-361588ce5fc0","ios":"levelo://app?vid=2e51888f-b65f-4dea-aef3-361588ce5fc0"},"vehicle_type_id":"4","last_reported":1753452712,"current_range_meters":20000,"station_id":"ce4bhh92rcd13ifvqfh0","pricing_plan_id":"cebpf4jnsgd1na2vs0mg"},{"bike_id":"e1b2a161-424c-4a77-82c9-4274d41f72cd","system_id":"levelo_inurba_marseille","lat":43.29617,"lon":5.37717,"is_reserved":false,"is_disabled":false,"rental_uris":{"android":"levelo://app?vid=e1b2a161-424c-4a77-82c9-4274d41f72cd","ios":"levelo://app?vid=e1b2a161-424c-4a77-82c9-4274d41f72cd"},"vehicle_type_id":"4","last_reported":1753452712,"current_range_meters":20000,"station_id":"ce4bgi92rcd13ifvqb90","pricing_plan_id":"cebpf4jnsgd1na2vs0mg"},{"bike_id":"61cd7fe3-237f-4708-afc7-dd8a81b4454c","system_id":"levelo_inurba_marseille","lat":43.22956,"lon":5.35445,"is_reserved":false,"is_disabled":false,"rental_uris":{"android":"levelo://app?vid=61cd7fe3-237f-4708-afc7-dd8a81b4454c","ios":"levelo://app?vid=61cd7fe3-237f-4708-afc7-dd8a81b4454c"},"vehicle_type_id":"4","last_reported":1753452712,"current_range_meters":20000,"station_id":"cpo3532slgdg3j2ikp40","pricing_plan_id":"cebpf4jnsgd1na2vs0mg"},{"bike_id":"5350bded-bb5a-4c16-acb6-280b1327877f","system_id":"levelo_inurba_marseille","lat":43.30925,"lon":5.40147,"is_reserved":false,"is_disabled":false,"rental_uris":{"android":"levelo://app?vid=5350bded-bb5a-4c16-acb6-280b1327877f","ios":"levelo://app?vid=5350bded-bb5a-4c16-acb6-280b1327877f"},"vehicle_type_id":"4","last_reported":1753452712,"current_range_meters":19600,"station_id":"ce4bgvp2rcd13ifvqct0","pricing_plan_id":"cebpf4jnsgd1na2vs0mg"},{"bike_id":"88713064-73b6-47c5-8baf-21f8c90f1d38","system_id":"levelo_inurba_marseille","lat":43.30153,"lon":5.38076,"is_reserved":false,"is_disabled":false,"rental_uris":{"android":"levelo://app?vid=88713064-73b6-47c5-8baf-21f8c90f1d38","ios":"levelo://app?vid=88713064-73b6-47c5-8baf-21f8c90f1d38"},"vehicle_type_id":"4","last_reported":1753452712,"current_range_meters":20000,"station_id":"ce4bgjp2rcd13ifvqbh0","pricing_plan_id":"cebpf4jnsgd1na2vs0mg"},{"bike_id":"59a1c4d8-6d5d-4a16-a0ef-906bb376e810","system_id":"levelo_inurba_marseille","lat":43.26565,"lon":5.3901,"is_reserved":false,"is_disabled":false,"rental_uris":{"android":"levelo://app?vid=59a1c4d8-6d5d-4a16-a0ef-906bb376e810","ios":"levelo://app?vid=59a1c4d8-6d5d-4a16-a0ef-906bb376e810"},"vehicle_type_id":"4","last_reported":1753452712,"current_range_meters":20000,"station_id":"ce4bhe12rcd13ifvqf30","pricing_plan_id":"cebpf4jnsgd1na2vs0mg"},{"bike_id":"58a37bd1-d853-49e0-ae02-4a7d81eab76a","system_id":"levelo_inurba_marseille","lat":43.27212,"lon":5.39175,"is_reserved":false,"is_disabled":false,"rental_uris":{"android":"levelo://app?vid=58a37bd1-d853-49e0-ae02-4a7d81eab76a","ios":"levelo://app?vid=58a37bd1-d853-49e0-ae02-4a7d81eab76a"},"vehicle_type_id":"4","last_reported":1753452712,"current_range_meters":19600,"station_id":"ce4bhhp2rcd13ifvqfm0","pricing_plan_id":"cebpf4jnsgd1na2vs0mg"},