{"last_updated":1683471963,"ttl":30,"version":"2.2","data":{"bikes":[{"bike_id":"037688a0-82d3-4ab5-b238-5df9a1a5abc4","system_id":"levelo_inurba_marseille","lat":43.31335,"lon":5.36712,"is_reserved":false,"is_disabled":false,"rental_uris":{"android":"levelo://app?vid=037688a0-82d3-4ab5-b238-5df9a1a5abc4","ios":"levelo://app?vid=037688a0-82d3-4ab5-b238-5df9a1a5abc4"},"vehicle_type_id":"4","last_reported":1683471963,"current_range_meters":2800,"station_id":"ce4bgr92rcd13ifvqc6g","pricing_plan_id":"free"},{"bike_id":"c1dc7104-dc78-4fb6-a701-fddcb86e9549","system_id":"levelo_inurba_marseille","lat":43.314811,"lon":5.373103,"is_reserved":false,"is_disabled":false,"rental_uris":{"android":"levelo://app?vid=c1dc7104-dc78-4fb6-a701-fddcb86e9549","ios":"levelo://app?vid=c1dc7104-dc78-4fb6-a701-fddcb86e9549"},"vehicle_type_id":"4","last_reported":1683471963,"current_range_meters":14400,"station_id":"ce4bgt12rcd13ifvqcd0","pricing_plan_id":"free"},{"bike_id":"b26865df-cfb3-4717-b6d2-34de1182e49d","system_id":"levelo_inurba_marseille","lat":43.31499,"lon":5.37311,"is_reserved":false,"is_disabled":false,"rental_uris":{"android":"levelo://app?vid=b26865df-cfb3-4717-b6d2-34de1182e49d","ios":"levelo://app?vid=b26865df-cfb3-4717-b6d2-34de1182e49d"},"vehicle_type_id":"4","last_reported":1683471963,"current_range_meters":0,"station_id":"ce4bgt12rcd13ifvqcd0","pricing_plan_id":"free"},{"bike_id":"6aa70344-77d6-4f5d-afa4-7ed704a0eff3","system_id":"levelo_inurba_marseille","lat":43.30914,"lon":5.37209,"is_reserved":false,"is_disabled":false,"rental_uris":{"android":"levelo://app?vid=6aa70344-77d6-4f5d-afa4-7ed704a0eff3","ios":"levelo://app?vid=6aa70344-77d6-4f5d-afa4-7ed704a0eff3"},"vehicle_type_id":"4","last_reported":1683471963,"current_range_meters":28400,"station_id":"","pricing_plan_id":"free"},{"bike_id":"913eac0e-2ce9-49b2-bafc-14da335b08ef","system_id":"levelo_inurba_marseille","lat":43.308614,"lon":5.372098,"is_reserved":false,"is_disabled":false,"rental_uris":{"android":"levelo://app?vid=913eac0e-2ce9-49b2-bafc-14da335b08ef","ios":"levelo://app?vid=913eac0e-2ce9-49b2-bafc-14da335b08ef"},"vehicle_type_id":"4","last_reported":1683471963,"current_range_meters":0,"station_id":"ce4bguh2rcd13ifvqckg","pricing_plan_id":"free"},{"bike_id":"caea2489-5a5d-4f00-8e78-8c319f8ed68e","system_id":"levelo_inurba_marseille","lat":43.3057,"lon":5.36553,"is_reserved":false,"is_disabled":false,"rental_uris":{"android":"levelo://app?vid=caea2489-5a5d-4f00-8e78-8c319f8ed68e","ios":"levelo://app?vid=caea2489-5a5d-4f00-8e78-8c319f8ed68e"},"vehicle_type_id":"4","last_reported":1683471963,"current_range_meters":1600,"station_id":"","pricing_plan_id":"free"},{"bike_id":"5db732f4-3f33-42d7-bdfc-c13d71fc5bbe","system_id":"levelo_inurba_marseille","lat":43.30527,"lon":5.36542,"is_reserved":false,"is_disabled":false,"rental_uris":{"android":"levelo://app?vid=5db732f4-3f33-42d7-bdfc-c13d71fc5bbe","ios":"levelo://app?vid=5db732f4-3f33-42d7-bdfc-c13d71fc5bbe"},"vehicle_type_id":"4","last_reported":1683471963,"current_range_meters":11200,"station_id":"","pricing_plan_id":"free"},{"bike_id":"62275834-204e-41f8-b8b5-70cd22839c94","system_id":"levelo_inurba_marseille","lat":43.305989,"lon":5.37225,"is_reserved":false,"is_disabled":false,"rental_uris":{"android":"levelo://app?vid=62275834-204e-41f8-b8b5-70cd22839c94","ios":"levelo://app?vid=62275834-204e-41f8-b8b5-70cd22839c94"},"vehicle_type_id":"4","last_reported":1683471963,"current_range_meters":17200,"station_id":"ce4bgqh2rcd13ifvqc4g","pricing_plan_id":"free"},{"bike_id":"a4df537d-67e4-41ec-8683-d2405956fdfc","system_id":"levelo_inurba_marseille","lat":43.31116,"lon":5.37782,"is_reserved":false,"is_disabled":false,"rental_uris":{"android":"levelo://app?vid=a4df537d-67e4-41ec-8683-d2405956fdfc","ios":"levelo://app?vid=a4df537d-67e4-41ec-8683-d2405956fdfc"},"vehicle_type_id":"4","last_reported":1683471963,"current_range_meters":6800,"station_id":"ce4bgt92rcd13ifvqcg0","pricing_plan_id":"free"},{"bike_id":"b610e678-ff4e-4a12-8069-94345bdb770a","system_id":"levelo_inurba_marseille","lat":43.317075,"lon":5.377367,"is_reserved":false,"is_disabled":false,"rental_uris":{"android":"levelo://app?vid=b610e678-ff4e-4a12-8069-94345bdb770a","ios":"levelo://app?vid=b610e678-ff4e-4a12-8069-94345bdb770a"},"vehicle_type_id":"4","last_reported":1683471963,"current_range_meters":14000,"station_id":"ce4bgth2rcd13ifvqch0","pricing_plan_id":"free"},{"bike_id":"8fe93a71-3044-4672-9c31-ed30f8faffb3","system_id":"levelo_inurba_marseille","lat":43.317075,"lon":5.377367,"is_reserved":false,"is_disabled":false,"rental_uris":{"android":"levelo://app?vid=8fe93a71-3044-4672-9c31-ed30f8faffb3","ios":"levelo://app?vid=8fe93a71-3044-4672-9c31-ed30f8faffb3"},"vehicle_type_id":"4","last_reported":1683471963,"current_range_meters":27600,"station_id":"ce4bgth2rcd13ifvqch0","pricing_plan_id":"free"},{"bike_id":"103b85bf-1b66-45b8-9e40-e6afdd3aede0","system_id":"levelo_inurba_marseille","lat":43.303046,"lon":5.368981,"is_reserved":false,"is_disabled":false,"rental_uris":{"android":"levelo://app?vid=103b85bf-1b66-45b8-9e40-e6afdd3aede0","ios":"levelo://app?vid=103b85bf-1b66-45b8-9e40-e6afdd3aede0"},"vehicle_type_id":"4","last_reported":1683471963,"current_range_meters":0,"station_id":"ce4bgqh2rcd13ifvqc5g","pricing_plan_id":"free"},{"bike_id":"fbf6fdc4-70ad-4de3-bea3-ada1ed62c0e7","system_id":"levelo_inurba_marseille","lat":43.303046,"lon":5.368981,"is_reserved":false,"is_disabled":false,"rental_uris":{"android":"levelo://app?vid=fbf6fdc4-70ad-4de3-bea3-ada1ed62c0e7","ios":"levelo://app?vid=fbf6fdc4-70ad-4de3-bea3-ada1ed62c0e7"},"vehicle_type_id":"4","last_reported":1683471963,"current_range_meters":27200,"station_id":"ce4bgqh2rcd13ifvqc5g","pricing_plan_id":"free"},{"bike_id":"ba2f9b2f-33dc-41bc-abbd-1eeb18f70f6b","system_id":"levelo_inurba_marseille","lat":43.301786,"lon":5.366117,"is_reserved":false,"is_disabled":false,"rental_uris":{"android":"levelo://app?vid=ba2f9b2f-33dc-41bc-abbd-1eeb18f70f6b","ios":"levelo://app?vid=ba2f9b2f-33dc-41bc-abbd-1eeb18f70f6b"},"vehicle_type_id":"4","last_reported":1683471963,"current_range_meters":24400,"station_id":"ce4bgt12rcd13ifvqce0","pricing_plan_id":"free"},{"bike_id":"035a2b0a-a8a2-4479-8d2e-5d9516213b51","system_id":"levelo_inurba_marseille","lat":43.3161,"lon":5.38179,"is_reserved":false,"is_disabled":false,"rental_uris":{"android":"levelo://app?vid=035a2b0a-a8a2-4479-8d2e-5d9516213b51","ios":"levelo://app?vid=035a2b0a-a8a2-4479-8d2e-5d9516213b51"},"vehicle_type_id":"4","last_reported":1683471963,"current_range_meters":9600,"station_id":"","pricing_plan_id":"free"},{"bike_id":"82827905-3a65-4672-83be-7bab7f5bd88b","system_id":"levelo_inurba_marseille","lat":43.30801,"lon":5.38165,"is_reserved":false,"is_disabled":false,"rental_uris":{"android":"levelo://app?vid=82827905-3a65-4672-83be-7bab7f5bd88b","ios":"levelo://app?vid=82827905-3a65-4672-83be-7bab7f5bd88b"},"vehicle_type_id":"4","last_reported":1683471963,"current_range_meters":27600,"station_id":"ce4bgt12rcd13ifvqce0","pricing_plan_id":"free"},{"bike_id":"73fd112c-768c-455e-b5e7-04254da40934","system_id":"levelo_inurba_marseille","lat":43.304606,"lon":5.379026,"is_reserved":false,"is_disabled":false,"rental_uris":{"android":"levelo://app?vid=73fd112c-768c-455e-b5e7-04254da40934","ios":"levelo://app?vid=73fd112c-768c-455e-b5e7-04254da40934"},"vehicle_type_id":"4","last_reported":1683471963,"current_range_meters":21600,"station_id":"ce4bgup2rcd13ifvqcn0","pricing_plan_id":"free"},{"bike_id":"d7bf14f4-dbf3-4c4e-99f9-b62e9ae98b8e","system_id":"levelo_inurba_marseille","lat":43.31346,"lon":5.3852,"is_reserved":false,"is_disabled":false,"rental_uris":{"android":"levelo://app?vid=d7bf14f4-dbf3-4c4e-99f9-b62e9ae98b8e","ios":"levelo://app?vid=d7bf14f4-dbf3-4c4e-99f9-b62e9ae98b8e"},"vehicle_type_id":"4","last_reported":1683471963,"current_range_meters":21200,"station_id":"ce4bgt92rcd13ifvqcf0","pricing_plan_id":"free"},{"bike_id":"f68381d8-6a96-4f27-b8c9-c23791892935","system_id":"levelo_inurba_marseille","lat":43.298433,"lon":5.362774,"is_reserved":false,"is_disabled":false,"rental_uris":{"android":"levelo://app?vid=f68381d8-6a96-4f27-b8c9-c23791892935","ios":"levelo://app?vid=f68381d8-6a96-4f27-b8c9-c23791892935"},"vehicle_type_id":"4","last_reported":1683471963,"current_range_meters":25200,"station_id":"ce4bgpp2rcd13ifvqc3g","pricing_plan_id":"free"},{"bike_id":"f0c8c07f-78ae-4761-9c4b-a2591e294f3d","system_id":"levelo_inurba_marseille","lat":43.305364,"lon":5.384119,"is_reserved":false,"is_disabled":false,"rental_uris":{"android":"levelo://app?vid=f0c8c07f-78ae-4761-9c4b-a2591e294f3d","ios":"levelo://app?vid=f0c8c07f-78ae-4761-9c4b-a2591e294f3d"},"vehicle_type_id":"4","last_reported":1683471963,"current_range_meters":18000,"station_id":"ce4bgg92rcd13ifvqb30","pricing_plan_id":"free"},{"bike_id":"7b3732eb-7d35-4353-9dee-f4654b5f315b","system_id":"levelo_inurba_marseille","lat":43.298433,"lon":5.362774,"is_reserved":false,"is_disabled":false,"rental_uris":{"android":"levelo://app?vid=7b3732eb-7d35-4353-9dee-f4654b5f315b","ios":"levelo://app?vid=7b3732eb-7d35-4353-9dee-f4654b5f315b"},"vehicle_type_id":"4","last_reported":1683471963,"current_range_meters":21200,"station_id":"ce4bgpp2rcd13ifvqc3g","pricing_plan_id":"free"},{"bike_id":"9800dadc-8748-45ca-9b56-fe0719fd2f63","system_id":"levelo_inurba_marseille","lat":43.305364,"lon":5.384119,"is_reserved":false,"is_disabled":false,"rental_uris":{"android":"levelo://app?vid=9800dadc-8748-45ca-9b56-fe0719fd2f63","ios":"levelo://app?vid=9800dadc-8748-45ca-9b56-fe0719fd2f63"},"vehicle_type_id":"4","last_reported":1683471963,"current_range_meters":20800,"station_id":"ce4bgg92rcd13ifvqb30","pricing_plan_id":"free"},{"bike_id":"b202557e-db03-4065-8b37-4b3baea00243","system_id":"levelo_inurba_marseille","lat":43.305364,"lon":5.384119,"is_reserved":false,"is_disabled":false,"rental_uris":{"android":"levelo://app?vid=b202557e-db03-4065-8b37-4b3baea00243","ios":"levelo://app?vid=b202557e-db03-4065-8b37-4b3baea00243"},"vehicle_type_id":"4","last_reported":1683471963,"current_range_meters":9600,"station_id":"ce4bgg92rcd13ifvqb30","pricing_plan_id":"free"},{"bike_id":"a79c43b9-738a-4987-9f7c-a42f092b72d1","system_id":"levelo_inurba_marseille","lat":43.305364,"lon":5.384119,"is_reserved":false,"is_disabled":false,"rental_uris":{"android":"levelo://app?vid=a79c43b9-738a-4987-9f7c-a42f092b72d1","ios":"levelo://app?vid=a79c43b9-738a-4987-9f7c-a42f092b72d1"},"vehicle_type_id":"4","last_reported":1683471963,"current_range_meters":7600,"station_id":"ce4bgg92rcd13ifvqb30","pricing_plan_id":"free"},{"bike_id":"ee23a5e6-55ec-4d77-a76c-70f812e09101","system_id":"levelo_inurba_marseille","lat":43.29998,"lon":5.37732,"is_reserved":false,"is_disabled":false,"rental_uris":{"android":"levelo://app?vid=ee23a5e6-55ec-4d77-a76c-70f812e09101","ios":"levelo://app?vid=ee23a5e6-55ec-4d77-a76c-70f812e09101"},"vehicle_type_id":"4","last_reported":1683471963,"current_range_meters":14800,"station_id":"","pricing_plan_id":"free"},{"bike_id":"4d898d17-847f-4531-a006-19bca8055921","system_id":"levelo_inurba_marseille","lat":43.32357,"lon":5.38203,"is_reserved":false,"is_disabled":false,"rental_uris":{"android":"levelo://app?vid=4d898d17-847f-4531-a006-19bca8055921","ios":"levelo://app?vid=4d898d17-847f-4531-a006-19bca8055921"},"vehicle_type_id":"4","last_reported":1683471963,"current_range_meters":8800,"station_id":"","pricing_plan_id":"free"},{"bike_id":"aafcc005-5e38-4c52-a10d-6d0f89f0012b","system_id":"levelo_inurba_marseille","lat":43.302008,"lon":5.394694,"is_reserved":false,"is_disabled":false,"rental_uris":{"android":"levelo://app?vid=aafcc005-5e38-4c52-a10d-6d0f89f0012b","ios":"levelo://app?vid=aafcc005-5e38-4c52-a10d-6d0f89f0012b"},"vehicle_type_id":"4","last_reported":1683471963,"current_range_meters":0,"station_id":"ce4bh0p2rcd13ifvqd70","pricing_plan_id":"free"},{"bike_id":"f8789919-de94-405c-a423-2f2e84fc4d7d","system_id":"levelo_inurba_marseille","lat":43.296131,"lon":5.370773,"is_reserved":false,"is_disabled":false,"rental_uris":{"android":"levelo://app?vid=f8789919-de94-405c-a423-2f2e84fc4d7d","ios":"levelo://app?vid=f8789919-de94-405c-a423-2f2e84fc4d7d"},"vehicle_type_id":"4","last_reported":1683471963,"current_range_meters":5600,"station_id":"ce4bgnh2rcd13ifvqc0g","pricing_plan_id":"free"},{"bike_id":"5ed46a0f-0cc3-4f57-a196-99eeb8147294","system_id":"levelo_inurba_marseille","lat":43.299028,"lon":5.381509,"is_reserved":false,"is_disabled":false,"rental_uris":{"android":"levelo://app?vid=5ed46a0f-0cc3-4f57-a196-99eeb8147294","ios":"levelo://app?vid=5ed46a0f-0cc3-4f57-a196-99eeb8147294"},"vehicle_type_id":"4","last_reported":1683471963,"current_range_meters":12400,"station_id":"ce4bgj12rcd13ifvqbc0","pricing_plan_id":"free"},{"bike_id":"d3e495e3-ae12-4c3d-bd88-31682144c563","system_id":"levelo_inurba_marseille","lat":43.317557,"lon":5.390173,"is_reserved":false,"is_disabled":false,"rental_uris":{"android":"levelo://app?vid=d3e495e3-ae12-4c3d-bd88-31682144c563","ios":"levelo://app?vid=d3e495e3-ae12-4c3d-bd88-31682144c563"},"vehicle_type_id":"4","last_reported":1683471963,"current_range_meters":30400,"station_id":"ce4bhqp2rcd13ifvqhng","pricing_plan_id":"free"},{"bike_id":"3b9415da-9df0-4703-bf6d-ca4738d6f6aa","system_id":"levelo_inurba_marseille","lat":43.317557,"lon":5.390173,"is_reserved":false,"is_disabled":false,"rental_uris":{"android":"levelo://app?vid=3b9415da-9df0-4703-bf6d-ca4738d6f6aa","ios":"levelo://app?vid=3b9415da-9df0-4703-bf6d-ca4738d6f6aa"},"vehicle_type_id":"4","last_reported":1683471963,"current_range_meters":25200,"station_id":"ce4bhqp2rcd13ifvqhng","pricing_plan_id":"free"},{"bike_id":"165cf4ec-ee3c-4a5c-929b-636fc1f79c2d","system_id":"levelo_inurba_marseille","lat":43.317557,"lon":5.390173,"is_reserved":false,"is_disabled":false,"rental_uris":{"android":"levelo://app?vid=165cf4ec-ee3c-4a5c-929b-636fc1f79c2d","ios":"levelo://app?vid=165cf4ec-ee3c-4a5c-929b-636fc1f79c2d"},"vehicle_type_id":"4","last_reported":1683471963,"current_range_meters":30000,"station_id":"ce4bhqp2rcd13ifvqhng","pricing_plan_id":"free"},{"bike_id":"f08733ad-a319-4372-a7a6-c6249a61033f","system_id":"levelo_inurba_marseille","lat":43.317557,"lon":5.390173,"is_reserved":false,"is_disabled":false,"rental_uris":{"android":"levelo://app?vid=f08733ad-a319-4372-a7a6-c6249a61033f","ios":"levelo://app?vid=f08733ad-a319-4372-a7a6-c6249a61033f"},"vehicle_type_id":"4","last_reported":1683471963,"current_range_meters":29600,"station_id":"ce4bhqp2rcd13ifvqhng","pricing_plan_id":"free"},{"bike_id":"5e26388f-afcc-4ebc-9b1c-d20adac7f39a","system_id":"levelo_inurba_marseille","lat":43.317557,"lon":5.390173,"is_reserved":false,"is_disabled":false,"rental_uris":{"android":"levelo://app?vid=5e26388f-afcc-4ebc-9b1c-d20adac7f39a","ios":"levelo://app?vid=5e26388f-afcc-4ebc-9b1c-d20adac7f39a"},"vehicle_type_id":"4","last_reported":1683471963,"current_range_meters":29600,"station_id":"ce4bhqp2rcd13ifvqhng","pricing_plan_id":"free"},{"bike_id":"4e214fb7-1bab-4b1b-be51-873bcef88570","system_id":"levelo_inurba_marseille","lat":43.29571,"lon":5.37508,"is_reserved":false,"is_disabled":false,"rental_uris":{"android":"levelo://app?vid=4e214fb7-1bab-4b1b-be51-873bcef88570","ios":"levelo://app?vid=4e214fb7-1bab-4b1b-be51-873bcef88570"},"vehicle_type_id":"4","last_reported":1683471963,"current_range_meters":4400,"station_id":"","pricing_plan_id":"free"},{"bike_id":"79a57e64-f00e-41a3-a511-84a93bfc9a81","system_id":"levelo_inurba_marseille","lat":43.304274,"lon":5.388873,"is_reserved":false,"is_disabled":false,"rental_uris":{"android":"levelo://app?vid=79a57e64-f00e-41a3-a511-84a93bfc9a81","ios":"levelo://app?vid=79a57e64-f00e-41a3-a511-84a93bfc9a81"},"vehicle_type_id":"4","last_reported":1683471963,"current_range_meters":17600,"station_id":"ce4bgk12rcd13ifvqbi0","pricing_plan_id":"free"},{"bike_id":"1e1a64cd-3597-4164-858f-3cfa968a1e2f","system_id":"levelo_inurba_marseille","lat":43.304274,"lon":5.388873,"is_reserved":false,"is_disabled":false,"rental_uris":{"android":"levelo://app?vid=1e1a64cd-3597-4164-858f-3cfa968a1e2f","ios":"levelo://app?vid=1e1a64cd-3597-4164-858f-3cfa968a1e2f"},"vehicle_type_id":"4","last_reported":1683471963,"current_range_meters":17200,"station_id":"ce4bgk12rcd13ifvqbi0","pricing_plan_id":"free"},{"bike_id":"720fcbfc-d18f-424c-845a-2683abdfa16b","system_id":"levelo_inurba_marseille","lat":43.299707,"lon":5.384859,"is_reserved":false,"is_disabled":false,"rental_uris":{"android":"levelo://app?vid=720fcbfc-d18f-424c-845a-2683abdfa16b","ios":"levelo://app?vid=720fcbfc-d18f-424c-845a-2683abdfa16b"},"vehicle_type_id":"4","last_reported":1683471963,"current_range_meters":29200,"station_id":"ce4bgj92rcd13ifvqbd0","pricing_plan_id":"free"},{"bike_id":"26b14f5e-e866-46b9-ac18-f77a0134473b","system_id":"levelo_inurba_marseille","lat":43.29972,"lon":5.38495,"is_reserved":false,"is_disabled":false,"rental_uris":{"android":"levelo://app?vid=26b14f5e-e866-46b9-ac18-f77a0134473b","ios":"levelo://app?vid=26b14f5e-e866-46b9-ac18-f77a0134473b"},"vehicle_type_id":"4","last_reported":1683471963,"current_range_meters":18000,"station_id":"ce4bgj92rcd13ifvqbd0","pricing_plan_id":"free"},{"bike_id":"57f4f0f1-4ec0-423d-a889-ffc8d71a7ab8","system_id":"levelo_inurba_marseille","lat":43.29649,"lon":5.3796,"is_reserved":false,"is_disabled":false,"rental_uris":{"android":"levelo://app?vid=57f4f0f1-4ec0-423d-a889-ffc8d71a7ab8","ios":"levelo://app?vid=57f4f0f1-4ec0-423d-a889-ffc8d71a7ab8"},"vehicle_type_id":"4","last_reported":1683471963,"current_range_meters":17200,"station_id":"","pricing_plan_id":"free"},{"bike_id":"f0dcfd84-4222-444a-b26d-9f99a892695b","system_id":"levelo_inurba_marseille","lat":43.31456,"lon":5.39267,"is_reserved":false,"is_disabled":false,"rental_uris":{"android":"levelo://app?vid=f0dcfd84-4222-444a-b26d-9f99a892695b","ios":"levelo://app?vid=f0dcfd84-4222-444a-b26d-9f99a892695b"},"vehicle_type_id":"4","last_reported":1683471963,"current_range_meters":2000,"station_id":"","pricing_plan_id":"free"},{"bike_id":"58d4b850-659d-4b79-bf5a-ca2ebe115497","system_id":"levelo_inurba_marseille","lat":43.293009,"lon":5.374584,"is_reserved":false,"is_disabled":false,"rental_uris":{"android":"levelo://app?vid=58d4b850-659d-4b79-bf5a-ca2ebe115497","ios":"levelo://app?vid=58d4b850-659d-4b79-bf5a-ca2ebe115497"},"vehicle_type_id":"4","last_reported":1683471963,"current_range_meters":4800,"station_id":"ce4bgi12rcd13ifvqb70","pricing_plan_id":"free"},{"bike_id":"c806275e-c826-4855-be8f-a8871c74758a","system_id":"levelo_inurba_marseille","lat":43.293009,"lon":5.374584,"is_reserved":false,"is_disabled":false,"rental_uris":{"android":"levelo://app?vid=c806275e-c826-4855-be8f-a8871c74758a","ios":"levelo://app?vid=c806275e-c826-4855-be8f-a8871c74758a"},"vehicle_type_id":"4","last_reported":1683471963,"current_range_meters":26800,"station_id":"ce4bgi12rcd13ifvqb70","pricing_plan_id":"free"},{"bike_id":"e4bc81a1-b90b-4624-b800-4d969293634d","system_id":"levelo_inurba_marseille","lat":43.293009,"lon":5.374584,"is_reserved":false,"is_disabled":false,"rental_uris":{"android":"levelo://app?vid=e4bc81a1-b90b-4624-b800-4d969293634d","ios":"levelo://app?vid=e4bc81a1-b90b-4624-b800-4d969293634d"},"vehicle_type_id":"4","last_reported":1683471963,"current_range_meters":20000,"station_id":"ce4bgi12rcd13ifvqb70","pricing_plan_id":"free"},{"bike_id":"8129e54a-4125-461d-94a7-ac24218c68c6","system_id":"levelo_inurba_marseille","lat":43.305994,"lon":5.393687,"is_reserved":false,"is_disabled":false,"rental_uris":{"android":"levelo://app?vid=8129e54a-4125-461d-94a7-ac24218c68c6","ios":"levelo://app?vid=8129e54a-4125-461d-94a7-ac24218c68c6"},"vehicle_type_id":"4","last_reported":1683471963,"current_range_meters":7600,"station_id":"ce4bh0p2rcd13ifvqd80","pricing_plan_id":"free"},{"bike_id":"37660ef7-0333-41c3-b160-cfd703ef60c5","system_id":"levelo_inurba_marseille","lat":43.302992,"lon":5.392136,"is_reserved":false,"is_disabled":false,"rental_uris":{"android":"levelo://app?vid=37660ef7-0333-41c3-b160-cfd703ef60c5","ios":"levelo://app?vid=37660ef7-0333-41c3-b160-cfd703ef60c5"},"vehicle_type_id":"4","last_reported":1683471963,"current_range_meters":5200,"station_id":"ce4bgkh2rcd13ifvqbk0","pricing_plan_id":"free"},{"bike_id":"3d51bdf0-36d3-4464-8b84-2569f2f04655","system_id":"levelo_inurba_marseille","lat":43.303002,"lon":5.392142,"is_reserved":false,"is_disabled":false,"rental_uris":{"android":"levelo://app?vid=3d51bdf0-36d3-4464-8b84-2569f2f04655","ios":"levelo://app?vid=3d51bdf0-36d3-4464-8b84-2569f2f04655"},"vehicle_type_id":"4","last_reported":1683471963,"current_range_meters":3200,"station_id":"ce4bgkh2rcd13ifvqbk0","pricing_plan_id":"free"},{"bike_id":"07da25af-0ecc-41af-91c8-47d9ab81be50","system_id":"levelo_inurba_marseille","lat":43.302992,"lon":5.392136,"is_reserved":false,"is_disabled":false,"rental_uris":{"android":"levelo://app?vid=07da25af-0ecc-41af-91c8-47d9ab81be50","ios":"levelo://app?vid=07da25af-0ecc-41af-91c8-47d9ab81be50"},"vehicle_type_id":"4","last_reported":1683471963,"current_range_meters":24400,"station_id":"ce4bgkh2rcd13ifvqbk0","pricing_plan_id":"free"},{"bike_id":"00f1b16a-7055-4962-80f1-4677087f5f93","system_id":"levelo_inurba_marseille","lat":43.2936,"lon":5.37835,"is_reserved":false,"is_disabled":false,"rental_uris":{"android":"levelo://app?vid=00f1b16a-7055-4962-80f1-4677087f5f93","ios":"levelo://app?vid=00f1b16a-7055-4962-80f1-4677087f5f93"},"vehicle_type_id":"4","last_reported":1683471963,"current_range_meters":18000,"station_id":"ce4bgjh2rcd13ifvqbf0","pricing_plan_id":"free"},{"bike_id":"fa26f8d4-e483-4f79-b883-7f3592485b3c","system_id":"levelo_inurba_marseille","lat":43.2936,"lon":5.37835,"is_reserved":false,"is_disabled":false,"rental_uris":{"android":"levelo://app?vid=fa26f8d4-e483-4f79-b883-7f3592485b3c","ios":"levelo://app?vid=fa26f8d4-e483-4f79-b883-7f3592485b3c"},"vehicle_type_id":"4","last_reported":1683471963,"current_range_meters":18000,"station_id":"ce4bgjh2rcd13ifvqbf0","pricing_plan_id":"free"},{"bike_id":"399d1617-19c1-406b-aa09-feaf96ad896f","system_id":"levelo_inurba_marseille","lat":43.29228,"lon":5.36045,"is_reserved":false,"is_disabled":false,"rental_uris":{"android":"levelo://app?vid=399d1617-19c1-406b-aa09-feaf96ad896f","ios":"levelo://app?vid=399d1617-19c1-406b-aa09-feaf96ad896f"},"vehicle_type_id":"4","last_reported":1683471963,"current_range_meters":8800,"station_id":"ce4bhbh2rcd13ifvqeqg","pricing_plan_id":"free"},{"bike_id":"1b61b45c-4bc3-4f33-9cef-8caa48399416","system_id":"levelo_inurba_marseille","lat":43.29216,"lon":5.36046,"is_reserved":false,"is_disabled":false,"rental_uris":{"android":"levelo://app?vid=1b61b45c-4bc3-4f33-9cef-8caa48399416","ios":"levelo://app?vid=1b61b45c-4bc3-4f33-9cef-8caa48399416"},"vehicle_type_id":"4","last_reported":1683471963,"current_range_meters":3600,"station_id":"","pricing_plan_id":"free"},{"bike_id":"3e42e6e6-a978-42cd-9d8b-11cf9e9ca0ad","system_id":"levelo_inurba_marseille","lat":43.29215,"lon":5.36046,"is_reserved":false,"is_disabled":false,"rental_uris":{"android":"levelo://app?vid=3e42e6e6-a978-42cd-9d8b-11cf9e9ca0ad","ios":"levelo://app?vid=3e42e6e6-a978-42cd-9d8b-11cf9e9ca0ad"},"vehicle_type_id":"4","last_reported":1683471963,"current_range_meters":6800,"station_id":"","pricing_plan_id":"free"},{"bike_id":"4e1d0a0c-3a83-4600-8d34-ea4aa2786d73","system_id":"levelo_inurba_marseille","lat":43.313291,"lon":5.396838,"is_reserved":false,"is_disabled":false,"rental_uris":{"android":"levelo://app?vid=4e1d0a0c-3a83-4600-8d34-ea4aa2786d73","ios":"levelo://app?vid=4e1d0a0c-3a83-4600-8d34-ea4aa2786d73"},"vehicle_type_id":"4","last_reported":1683471963,"current_range_meters":9600,"station_id":"ce4bgvp2rcd13ifvqcu0","pricing_plan_id":"free"},{"bike_id":"b15919e0-8761-49aa-a3af-fd68564acb6a","system_id":"levelo_inurba_marseille","lat":43.309038,"lon":5.396546,"is_reserved":false,"is_disabled":false,"rental_uris":{"android":"levelo://app?vid=b15919e0-8761-49aa-a3af-fd68564acb6a","ios":"levelo://app?vid=b15919e0-8761-49aa-a3af-fd68564acb6a"},"vehicle_type_id":"4","last_reported":1683471963,"current_range_meters":29600,"station_id":"ce4bh012rcd13ifvqcv0","pricing_plan_id":"free"},{"bike_id":"90cc782d-be20-41fa-9baa-2dfb851cd186","system_id":"levelo_inurba_marseille","lat":43.309038,"lon":5.396546,"is_reserved":false,"is_disabled":false,"rental_uris":{"android":"levelo://app?vid=90cc782d-be20-41fa-9baa-2dfb851cd186","ios":"levelo://app?vid=90cc782d-be20-41fa-9baa-2dfb851cd186"},"vehicle_type_id":"4","last_reported":1683471963,"current_range_meters":27600,"station_id":"ce4bh012rcd13ifvqcv0","pricing_plan_id":"free"},{"bike_id":"86a86b01-d840-4fde-a144-370c8be20c66","system_id":"levelo_inurba_marseille","lat":43.313291,"lon":5.396838,"is_reserved":false,"is_disabled":false,"rental_uris":{"android":"levelo://app?vid=86a86b01-d840-4fde-a144-370c8be20c66","ios":"levelo://app?vid=86a86b01-d840-4fde-a144-370c8be20c66"},"vehicle_type_id":"4","last_reported":1683471963,"current_range_meters":1200,"station_id":"ce4bgvp2rcd13ifvqcu0","pricing_plan_id":"free"},{"bike_id":"f284105d-7da3-4fd6-93ae-0c6926554032","system_id":"levelo_inurba_marseille","lat":43.30882,"lon":5.39647,"is_reserved":false,"is_disabled":false,"rental_uris":{"android":"levelo://app?vid=f284105d-7da3-4fd6-93ae-0c6926554032","ios":"levelo://app?vid=f284105d-7da3-4fd6-93ae-0c6926554032"},"vehicle_type_id":"4","last_reported":1683471963,"current_range_meters":13600,"station_id":"ce4bh012rcd13ifvqcv0","pricing_plan_id":"free"},{"bike_id":"fdec5ea6-0fe2-4cef-9b7b-4c8363207ffb","system_id":"levelo_inurba_marseille","lat":43.313291,"lon":5.396838,"is_reserved":false,"is_disabled":false,"rental_uris":{"android":"levelo://app?vid=fdec5ea6-0fe2-4cef-9b7b-4c8363207ffb","ios":"levelo://app?vid=fdec5ea6-0fe2-4cef-9b7b-4c8363207ffb"},"vehicle_type_id":"4","last_reported":1683471963,"current_range_meters":7200,"station_id":"ce4bgvp2rcd13ifvqcu0","pricing_plan_id":"free"},{"bike_id":"9de7fb5c-f0b8-44be-b981-69a1254bb922","system_id":"levelo_inurba_marseille","lat":43.309038,"lon":5.396546,"is_reserved":false,"is_disabled":false,"rental_uris":{"android":"levelo://app?vid=9de7fb5c-f0b8-44be-b981-69a1254bb922","ios":"levelo://app?vid=9de7fb5c-f0b8-44be-b981-69a1254bb922"},"vehicle_type_id":"4","last_reported":1683471963,"current_range_meters":6000,"station_id":"ce4bh012rcd13ifvqcv0","pricing_plan_id":"free"},{"bike_id":"21e0811b-8698-42ef-8b66-c96f501f9de1","system_id":"levelo_inurba_marseille","lat":43.309038,"lon":5.396546,"is_reserved":false,"is_disabled":false,"rental_uris":{"android":"levelo://app?vid=21e0811b-8698-42ef-8b66-c96f501f9de1","ios":"levelo://app?vid=21e0811b-8698-42ef-8b66-c96f501f9de1"},"vehicle_type_id":"4","last_reported":1683471963,"current_range_meters":800,"station_id":"ce4bh012rcd13ifvqcv0","pricing_plan_id":"free"},{"bike_id":"c1b0d02f-38bc-4bda-9da4-20181474fea0","system_id":"levelo_inurba_marseille","lat":43.29529,"lon":5.385581,"is_reserved":false,"is_disabled":false,"rental_uris":{"android":"levelo://app?vid=c1b0d02f-38bc-4bda-9da4-20181474fea0","ios":"levelo://app?vid=c1b0d02f-38bc-4bda-9da4-20181474fea0"},"vehicle_type_id":"4","last_reported":1683471963,"current_range_meters":18400,"station_id":"ce4bgih2rcd13ifvqba0","pricing_plan_id":"free"},{"bike_id":"c9ec79dc-c2f8-4d32-a08d-861dab47abcd","system_id":"levelo_inurba_marseille","lat":43.29529,"lon":5.385581,"is_reserved":false,"is_disabled":false,"rental_uris":{"android":"levelo://app?vid=c9ec79dc-c2f8-4d32-a08d-861dab47abcd","ios":"levelo://app?vid=c9ec79dc-c2f8-4d32-a08d-861dab47abcd"},"vehicle_type_id":"4","last_reported":1683471963,"current_range_meters":21600,"station_id":"ce4bgih2rcd13ifvqba0","pricing_plan_id":"free"},{"bike_id":"aa7a283c-84cf-41e5-a083-46cff12c9a56","system_id":"levelo_inurba_marseille","lat":43.290779,"lon":5.371482,"is_reserved":false,"is_disabled":false,"rental_uris":{"android":"levelo://app?vid=aa7a283c-84cf-41e5-a083-46cff12c9a56","ios":"levelo://app?vid=aa7a283c-84cf-41e5-a083-46cff12c9a56"},"vehicle_type_id":"4","last_reported":1683471963,"current_range_meters":17600,"station_id":"ce4bh5p2rcd13ifvqe4g","pricing_plan_id":"free"},{"bike_id":"88b84919-d39b-4091-a258-2a45c0a7e9ea","system_id":"levelo_inurba_marseille","lat":43.290779,"lon":5.371482,"is_reserved":false,"is_disabled":false,"rental_uris":{"android":"levelo://app?vid=88b84919-d39b-4091-a258-2a45c0a7e9ea","ios":"levelo://app?vid=88b84919-d39b-4091-a258-2a45c0a7e9ea"},"vehicle_type_id":"4","last_reported":1683471963,"current_range_meters":19200,"station_id":"ce4bh5p2rcd13ifvqe4g","pricing_plan_id":"free"},{"bike_id":"6a2eb53f-fa64-4216-982f-151b3b00818a","system_id":"levelo_inurba_marseille","lat":43.2905,"lon":5.35918,"is_reserved":false,"is_disabled":false,"rental_uris":{"android":"levelo://app?vid=6a2eb53f-fa64-4216-982f-151b3b00818a","ios":"levelo://app?vid=6a2eb53f-fa64-4216-982f-151b3b00818a"},"vehicle_type_id":"4","last_reported":1683471963,"current_range_meters":3200,"station_id":"","pricing_plan_id":"free"},{"bike_id":"df9521c5-1108-4125-8321-7f882b2a9991","system_id":"levelo_inurba_marseille","lat":43.290624,"lon":5.359245,"is_reserved":false,"is_disabled":false,"rental_uris":{"android":"levelo://app?vid=df9521c5-1108-4125-8321-7f882b2a9991","ios":"levelo://app?vid=df9521c5-1108-4125-8321-7f882b2a9991"},"vehicle_type_id":"4","last_reported":1683471963,"current_range_meters":15600,"station_id":"ce4bha92rcd13ifvqeg0","pricing_plan_id":"free"},{"bike_id":"3068beb8-839a-48a8-929f-8098ed1583a0","system_id":"levelo_inurba_marseille","lat":43.290624,"lon":5.359245,"is_reserved":false,"is_disabled":false,"rental_uris":{"android":"levelo://app?vid=3068beb8-839a-48a8-929f-8098ed1583a0","ios":"levelo://app?vid=3068beb8-839a-48a8-929f-8098ed1583a0"},"vehicle_type_id":"4","last_reported":1683471963,"current_range_meters":8000,"station_id":"ce4bha92rcd13ifvqeg0","pricing_plan_id":"free"},{"bike_id":"011847ff-1e17-4e4e-af3a-3829e9861186","system_id":"levelo_inurba_marseille","lat":43.289184,"lon":5.366408,"is_reserved":false,"is_disabled":false,"rental_uris":{"android":"levelo://app?vid=011847ff-1e17-4e4e-af3a-3829e9861186","ios":"levelo://app?vid=011847ff-1e17-4e4e-af3a-3829e9861186"},"vehicle_type_id":"4","last_reported":1683471963,"current_range_meters":7600,"station_id":"ce4bhap2rcd13ifvqek0","pricing_plan_id":"free"},{"bike_id":"a6b1f7d4-0b36-4b53-bffe-c333a426052c","system_id":"levelo_inurba_marseille","lat":43.28946,"lon":5.36387,"is_reserved":false,"is_disabled":false,"rental_uris":{"android":"levelo://app?vid=a6b1f7d4-0b36-4b53-bffe-c333a426052c","ios":"levelo://app?vid=a6b1f7d4-0b36-4b53-bffe-c333a426052c"},"vehicle_type_id":"4","last_reported":1683471963,"current_range_meters":10400,"station_id":"ce4bhc92rcd13ifvqetg","pricing_plan_id":"free"},{"bike_id":"395f3e54-a82e-4de4-99d5-a53ad0de2fe7","system_id":"levelo_inurba_marseille","lat":43.289468,"lon":5.363719,"is_reserved":false,"is_disabled":false,"rental_uris":{"android":"levelo://app?vid=395f3e54-a82e-4de4-99d5-a53ad0de2fe7","ios":"levelo://app?vid=395f3e54-a82e-4de4-99d5-a53ad0de2fe7"},"vehicle_type_id":"4","last_reported":1683471963,"current_range_meters":19600,"station_id":"ce4bhc92rcd13ifvqetg","pricing_plan_id":"free"},{"bike_id":"1688e340-59c2-4868-8700-6eb05b53591a","system_id":"levelo_inurba_marseille","lat":43.289184,"lon":5.366408,"is_reserved":false,"is_disabled":false,"rental_uris":{"android":"levelo://app?vid=1688e340-59c2-4868-8700-6eb05b53591a","ios":"levelo://app?vid=1688e340-59c2-4868-8700-6eb05b53591a"},"vehicle_type_id":"4","last_reported":1683471963,"current_range_meters":24000,"station_id":"ce4bhap2rcd13ifvqek0","pricing_plan_id":"free"},{"bike_id":"59e05444-2dbc-4172-83b6-0927c061266f","system_id":"levelo_inurba_marseille","lat":43.289468,"lon":5.363719,"is_reserved":false,"is_disabled":false,"rental_uris":{"android":"levelo://app?vid=59e05444-2dbc-4172-83b6-0927c061266f","ios":"levelo://app?vid=59e05444-2dbc-4172-83b6-0927c061266f"},"vehicle_type_id":"4","last_reported":1683471963,"current_range_meters":3200,"station_id":"ce4bhc92rcd13ifvqetg","pricing_plan_id":"free"},{"bike_id":"aa631ded-7fb3-4f76-9cdb-0225dce21604","system_id":"levelo_inurba_marseille","lat":43.289468,"lon":5.363719,"is_reserved":false,"is_disabled":false,"rental_uris":{"android":"levelo://app?vid=aa631ded-7fb3-4f76-9cdb-0225dce21604","ios":"levelo://app?vid=aa631ded-7fb3-4f76-9cdb-0225dce21604"},"vehicle_type_id":"4","last_reported":1683471963,"current_range_meters":2800,"station_id":"ce4bhc92rcd13ifvqetg","pricing_plan_id":"free"},{"bike_id":"c762d5ae-ab80-400c-bcda-eb9fd2d8c77b","system_id":"levelo_inurba_marseille","lat":43.292644,"lon":5.384257,"is_reserved":false,"is_disabled":false,"rental_uris":{"android":"levelo://app?vid=c762d5ae-ab80-400c-bcda-eb9fd2d8c77b","ios":"levelo://app?vid=c762d5ae-ab80-400c-bcda-eb9fd2d8c77b"},"vehicle_type_id":"4","last_reported":1683471963,"current_range_meters":27200,"station_id":"ce4bh692rcd13ifvqea0","pricing_plan_id":"free"},{"bike_id":"619f01c9-8480-4b50-abf9-964e1563c867","system_id":"levelo_inurba_marseille","lat":43.292642,"lon":5.384254,"is_reserved":false,"is_disabled":false,"rental_uris":{"android":"levelo://app?vid=619f01c9-8480-4b50-abf9-964e1563c867","ios":"levelo://app?vid=619f01c9-8480-4b50-abf9-964e1563c867"},"vehicle_type_id":"4","last_reported":1683471963,"current_range_meters":15200,"station_id":"ce4bh692rcd13ifvqea0","pricing_plan_id":"free"},{"bike_id":"e0e04b0b-1f57-4986-ae11-82f4751c5a1f","system_id":"levelo_inurba_marseille","lat":43.304274,"lon":5.397513,"is_reserved":false,"is_disabled":false,"rental_uris":{"android":"levelo://app?vid=e0e04b0b-1f57-4986-ae11-82f4751c5a1f","ios":"levelo://app?vid=e0e04b0b-1f57-4986-ae11-82f4751c5a1f"},"vehicle_type_id":"4","last_reported":1683471963,"current_range_meters":20800,"station_id":"ce4bh092rcd13ifvqd20","pricing_plan_id":"free"},{"bike_id":"5998a2a7-de7b-4beb-b16a-8cb345195f5d","system_id":"levelo_inurba_marseille","lat":43.292644,"lon":5.384257,"is_reserved":false,"is_disabled":false,"rental_uris":{"android":"levelo://app?vid=5998a2a7-de7b-4beb-b16a-8cb345195f5d","ios":"levelo://app?vid=5998a2a7-de7b-4beb-b16a-8cb345195f5d"},"vehicle_type_id":"4","last_reported":1683471963,"current_range_meters":4800,"station_id":"ce4bh692rcd13ifvqea0","pricing_plan_id":"free"},{"bike_id":"d6233f8b-531d-433b-b8e9-589e3920c098","system_id":"levelo_inurba_marseille","lat":43.33042,"lon":5.38913,"is_reserved":false,"is_disabled":false,"rental_uris":{"android":"levelo://app?vid=d6233f8b-531d-433b-b8e9-589e3920c098","ios":"levelo://app?vid=d6233f8b-531d-433b-b8e9-589e3920c098"},"vehicle_type_id":"4","last_reported":1683471963,"current_range_meters":29600,"station_id":"ce4bhr92rcd13ifvqhrg","pricing_plan_id":"free"},{"bike_id":"496fc879-c6a2-4335-9eab-2fdd6a6f8bf1","system_id":"levelo_inurba_marseille","lat":43.33039,"lon":5.38918,"is_reserved":false,"is_disabled":false,"rental_uris":{"android":"levelo://app?vid=496fc879-c6a2-4335-9eab-2fdd6a6f8bf1","ios":"levelo://app?vid=496fc879-c6a2-4335-9eab-2fdd6a6f8bf1"},"vehicle_type_id":"4","last_reported":1683471963,"current_range_meters":26800,"station_id":"ce4bhr92rcd13ifvqhrg","pricing_plan_id":"free"},{"bike_id":"10a8eeb7-4f93-4e8d-81bd-f27d3d4ef515","system_id":"levelo_inurba_marseille","lat":43.33041,"lon":5.3892,"is_reserved":false,"is_disabled":false,"rental_uris":{"android":"levelo://app?vid=10a8eeb7-4f93-4e8d-81bd-f27d3d4ef515","ios":"levelo://app?vid=10a8eeb7-4f93-4e8d-81bd-f27d3d4ef515"},"vehicle_type_id":"4","last_reported":1683471963,"current_range_meters":21200,"station_id":"ce4bhr92rcd13ifvqhrg","pricing_plan_id":"free"},{"bike_id":"32e799cb-ff11-410d-af84-32304268c02c","system_id":"levelo_inurba_marseille","lat":43.33044,"lon":5.38921,"is_reserved":false,"is_disabled":false,"rental_uris":{"android":"levelo://app?vid=32e799cb-ff11-410d-af84-32304268c02c","ios":"levelo://app?vid=32e799cb-ff11-410d-af84-32304268c02c"},"vehicle_type_id":"4","last_reported":1683471963,"current_range_meters":22000,"station_id":"ce4bhr92rcd13ifvqhrg","pricing_plan_id":"free"},{"bike_id":"4e117d9c-8cde-4547-b230-ba4e6496dbca","system_id":"levelo_inurba_marseille","lat":43.290103,"lon":5.356114,"is_reserved":false,"is_disabled":false,"rental_uris":{"android":"levelo://app?vid=4e117d9c-8cde-4547-b230-ba4e6496dbca","ios":"levelo://app?vid=4e117d9c-8cde-4547-b230-ba4e6496dbca"},"vehicle_type_id":"4","last_reported":1683471963,"current_range_meters":0,"station_id":"ce4bhb92rcd13ifvqen0","pricing_plan_id":"free"},{"bike_id":"241884f8-3162-4fc7-9065-55cac334ddfb","system_id":"levelo_inurba_marseille","lat":43.29093,"lon":5.38148,"is_reserved":false,"is_disabled":false,"rental_uris":{"android":"levelo://app?vid=241884f8-3162-4fc7-9065-55cac334ddfb","ios":"levelo://app?vid=241884f8-3162-4fc7-9065-55cac334ddfb"},"vehicle_type_id":"4","last_reported":1683471963,"current_range_meters":17200,"station_id":"","pricing_plan_id":"free"},{"bike_id":"610f4cf2-2ffb-4136-95ed-3579f336a8ea","system_id":"levelo_inurba_marseille","lat":43.3375,"lon":5.3743,"is_reserved":false,"is_disabled":false,"rental_uris":{"android":"levelo://app?vid=610f4cf2-2ffb-4136-95ed-3579f336a8ea","ios":"levelo://app?vid=610f4cf2-2ffb-4136-95ed-3579f336a8ea"},"vehicle_type_id":"4","last_reported":1683471963,"current_range_meters":23200,"station_id":"","pricing_plan_id":"free"},{"bike_id":"20083ae5-f09f-4d10-9758-3cdd331d6a45","system_id":"levelo_inurba_marseille","lat":43.33747,"lon":5.37461,"is_reserved":false,"is_disabled":false,"rental_uris":{"android":"levelo://app?vid=20083ae5-f09f-4d10-9758-3cdd331d6a45","ios":"levelo://app?vid=20083ae5-f09f-4d10-9758-3cdd331d6a45"},"vehicle_type_id":"4","last_reported":1683471963,"current_range_meters":10800,"station_id":"","pricing_plan_id":"free"},{"bike_id":"34320fce-24bb-4291-be42-2c361aed67f0","system_id":"levelo_inurba_marseille","lat":43.33753,"lon":5.37434,"is_reserved":false,"is_disabled":false,"rental_uris":{"android":"levelo://app?vid=34320fce-24bb-4291-be42-2c361aed67f0","ios":"levelo://app?vid=34320fce-24bb-4291-be42-2c361aed67f0"},"vehicle_type_id":"4","last_reported":1683471963,"current_range_meters":19200,"station_id":"ce4rr2p2rcd13i802rgg","pricing_plan_id":"free"},{"bike_id":"9070207c-ce23-4a97-b89f-da673252f922","system_id":"levelo_inurba_marseille","lat":43.33752,"lon":5.37486,"is_reserved":false,"is_disabled":false,"rental_uris":{"android":"levelo://app?vid=9070207c-ce23-4a97-b89f-da673252f922","ios":"levelo://app?vid=9070207c-ce23-4a97-b89f-da673252f922"},"vehicle_type_id":"4","last_reported":1683471963,"current_range_meters":22000,"station_id":"","pricing_plan_id":"free"},{"bike_id":"86b28340-532d-4ab8-ac19-19ffd45b0568","system_id":"levelo_inurba_marseille","lat":43.33756,"lon":5.37485,"is_reserved":false,"is_disabled":false,"rental_uris":{"android":"levelo://app?vid=86b28340-532d-4ab8-ac19-19ffd45b0568","ios":"levelo://app?vid=86b28340-532d-4ab8-ac19-19ffd45b0568"},"vehicle_type_id":"4","last_reported":1683471963,"current_range_meters":30400,"station_id":"","pricing_plan_id":"free"},{"bike_id":"63f07628-7dee-43e1-b7f7-9043fd7cfae9","system_id":"levelo_inurba_marseille","lat":43.30642,"lon":5.401031,"is_reserved":false,"is_disabled":false,"rental_uris":{"android":"levelo://app?vid=63f07628-7dee-43e1-b7f7-9043fd7cfae9","ios":"levelo://app?vid=63f07628-7dee-43e1-b7f7-9043fd7cfae9"},"vehicle_type_id":"4","last_reported":1683471963,"current_range_meters":4000,"station_id":"ce4bh112rcd13ifvqda0","pricing_plan_id":"free"},{"bike_id":"db84b57a-c242-4d31-93f3-e9f12005c4b3","system_id":"levelo_inurba_marseille","lat":43.33762,"lon":5.37494,"is_reserved":false,"is_disabled":false,"rental_uris":{"android":"levelo://app?vid=db84b57a-c242-4d31-93f3-e9f12005c4b3","ios":"levelo://app?vid=db84b57a-c242-4d31-93f3-e9f12005c4b3"},"vehicle_type_id":"4","last_reported":1683471963,"current_range_meters":22800,"station_id":"","pricing_plan_id":"free"},{"bike_id":"c452a78d-8a25-4dac-a034-b406e8dd2a51","system_id":"levelo_inurba_marseille","lat":43.28775,"lon":5.35937,"is_reserved":false,"is_disabled":false,"rental_uris":{"android":"levelo://app?vid=c452a78d-8a25-4dac-a034-b406e8dd2a51","ios":"levelo://app?vid=c452a78d-8a25-4dac-a034-b406e8dd2a51"},"vehicle_type_id":"4","last_reported":1683471963,"current_range_meters":0,"station_id":"","pricing_plan_id":"free"},{"bike_id":"cdc48366-abc0-4354-9ffc-548a674a95d5","system_id":"levelo_inurba_marseille","lat":43.301117,"lon":5.398795,"is_reserved":false,"is_disabled":false,"rental_uris":{"android":"levelo://app?vid=cdc48366-abc0-4354-9ffc-548a674a95d5","ios":"levelo://app?vid=cdc48366-abc0-4354-9ffc-548a674a95d5"},"vehicle_type_id":"4","last_reported":1683471963,"current_range_meters":25200,"station_id":"ce4bh0h2rcd13ifvqd40","pricing_plan_id":"free"},{"bike_id":"0826fa58-2e3a-4c77-bdea-b6e6798814a7","system_id":"levelo_inurba_marseille","lat":43.287184,"lon":5.37937,"is_reserved":false,"is_disabled":false,"rental_uris":{"android":"levelo://app?vid=0826fa58-2e3a-4c77-bdea-b6e6798814a7","ios":"levelo://app?vid=0826fa58-2e3a-4c77-bdea-b6e6798814a7"},"vehicle_type_id":"4","last_reported":1683471963,"current_range_meters":12800,"station_id":"ce4bh9p2rcd13ifvqec0","pricing_plan_id":"free"},{"bike_id":"18898f7a-ba0a-4a75-84b0-0d92856f7e1f","system_id":"levelo_inurba_marseille","lat":43.287185,"lon":5.379373,"is_reserved":false,"is_disabled":false,"rental_uris":{"android":"levelo://app?vid=18898f7a-ba0a-4a75-84b0-0d92856f7e1f","ios":"levelo://app?vid=18898f7a-ba0a-4a75-84b0-0d92856f7e1f"},"vehicle_type_id":"4","last_reported":1683471963,"current_range_meters":0,"station_id":"ce4bh9p2rcd13ifvqec0","pricing_plan_id":"free"},{"bike_id":"3cd4b9f7-9d75-4435-87c9-ef61fa785eec","system_id":"levelo_inurba_marseille","lat":43.316523,"lon":5.404367,"is_reserved":false,"is_disabled":false,"rental_uris":{"android":"levelo://app?vid=3cd4b9f7-9d75-4435-87c9-ef61fa785eec","ios":"levelo://app?vid=3cd4b9f7-9d75-4435-87c9-ef61fa785eec"},"vehicle_type_id":"4","last_reported":1683471963,"current_range_meters":9600,"station_id":"ce4bh012rcd13ifvqd00","pricing_plan_id":"free"},{"bike_id":"cb118e05-fc17-41bd-9234-cb6feb90a49b","system_id":"levelo_inurba_marseille","lat":43.316523,"lon":5.404367,"is_reserved":false,"is_disabled":false,"rental_uris":{"android":"levelo://app?vid=cb118e05-fc17-41bd-9234-cb6feb90a49b","ios":"levelo://app?vid=cb118e05-fc17-41bd-9234-cb6feb90a49b"},"vehicle_type_id":"4","last_reported":1683471963,"current_range_meters":28800,"station_id":"ce4bh012rcd13ifvqd00","pricing_plan_id":"free"},{"bike_id":"2292d11c-a017-45b3-9474-8062e934473d","system_id":"levelo_inurba_marseille","lat":43.316523,"lon":5.404367,"is_reserved":false,"is_disabled":false,"rental_uris":{"android":"levelo://app?vid=2292d11c-a017-45b3-9474-8062e934473d","ios":"levelo://app?vid=2292d11c-a017-45b3-9474-8062e934473d"},"vehicle_type_id":"4","last_reported":1683471963,"current_range_meters":11200,"station_id":"ce4bh012rcd13ifvqd00","pricing_plan_id":"free"},{"bike_id":"b09f4eef-13d5-4cc5-9245-f2d3c13bd45b","system_id":"levelo_inurba_marseille","lat":43.316517,"lon":5.404375,"is_reserved":false,"is_disabled":false,"rental_uris":{"android":"levelo://app?vid=b09f4eef-13d5-4cc5-9245-f2d3c13bd45b","ios":"levelo://app?vid=b09f4eef-13d5-4cc5-9245-f2d3c13bd45b"},"vehicle_type_id":"4","last_reported":1683471963,"current_range_meters":10800,"station_id":"ce4bh012rcd13ifvqd00","pricing_plan_id":"free"},{"bike_id":"9b58c03a-e056-4d5d-9897-00689f1be5e2","system_id":"levelo_inurba_marseille","lat":43.33473,"lon":5.38999,"is_reserved":false,"is_disabled":false,"rental_uris":{"android":"levelo://app?vid=9b58c03a-e056-4d5d-9897-00689f1be5e2","ios":"levelo://app?vid=9b58c03a-e056-4d5d-9897-00689f1be5e2"},"vehicle_type_id":"4","last_reported":1683471963,"current_range_meters":3200,"station_id":"","pricing_plan_id":"free"},{"bike_id":"27865f6e-c046-4416-9233-48156b6bae2c","system_id":"levelo_inurba_marseille","lat":43.33482,"lon":5.38984,"is_reserved":false,"is_disabled":false,"rental_uris":{"android":"levelo://app?vid=27865f6e-c046-4416-9233-48156b6bae2c","ios":"levelo://app?vid=27865f6e-c046-4416-9233-48156b6bae2c"},"vehicle_type_id":"4","last_reported":1683471963,"current_range_meters":25600,"station_id":"","pricing_plan_id":"free"},{"bike_id":"6c75ffc9-cc89-4435-a873-6419cb241d0d","system_id":"levelo_inurba_marseille","lat":43.284534,"lon":5.358662,"is_reserved":false,"is_disabled":false,"rental_uris":{"android":"levelo://app?vid=6c75ffc9-cc89-4435-a873-6419cb241d0d","ios":"levelo://app?vid=6c75ffc9-cc89-4435-a873-6419cb241d0d"},"vehicle_type_id":"4","last_reported":1683471963,"current_range_meters":22800,"station_id":"ce4bhah2rcd13ifvqei0","pricing_plan_id":"free"},{"bike_id":"b9d8eefc-e905-4503-bb43-bbc9c82efc61","system_id":"levelo_inurba_marseille","lat":43.284534,"lon":5.358662,"is_reserved":false,"is_disabled":false,"rental_uris":{"android":"levelo://app?vid=b9d8eefc-e905-4503-bb43-bbc9c82efc61","ios":"levelo://app?vid=b9d8eefc-e905-4503-bb43-bbc9c82efc61"},"vehicle_type_id":"4","last_reported":1683471963,"current_range_meters":19600,"station_id":"ce4bhah2rcd13ifvqei0","pricing_plan_id":"free"},{"bike_id":"213650da-fe63-414d-a41c-0a79a34dc217","system_id":"levelo_inurba_marseille","lat":43.2862,"lon":5.35107,"is_reserved":false,"is_disabled":false,"rental_uris":{"android":"levelo://app?vid=213650da-fe63-414d-a41c-0a79a34dc217","ios":"levelo://app?vid=213650da-fe63-414d-a41c-0a79a34dc217"},"vehicle_type_id":"4","last_reported":1683471963,"current_range_meters":19200,"station_id":"","pricing_plan_id":"free"},{"bike_id":"f13fa1f9-2b3c-409a-8e7b-3db79f1e6582","system_id":"levelo_inurba_marseille","lat":43.28615,"lon":5.35101,"is_reserved":false,"is_disabled":false,"rental_uris":{"android":"levelo://app?vid=f13fa1f9-2b3c-409a-8e7b-3db79f1e6582","ios":"levelo://app?vid=f13fa1f9-2b3c-409a-8e7b-3db79f1e6582"},"vehicle_type_id":"4","last_reported":1683471963,"current_range_meters":16000,"station_id":"","pricing_plan_id":"free"},{"bike_id":"30bcb7ce-68ed-44bc-a0d5-2355bad0bf71","system_id":"levelo_inurba_marseille","lat":43.28612,"lon":5.35102,"is_reserved":false,"is_disabled":false,"rental_uris":{"android":"levelo://app?vid=30bcb7ce-68ed-44bc-a0d5-2355bad0bf71","ios":"levelo://app?vid=30bcb7ce-68ed-44bc-a0d5-2355bad0bf71"},"vehicle_type_id":"4","last_reported":1683471963,"current_range_meters":0,"station_id":"","pricing_plan_id":"free"},{"bike_id":"05e5e504-5fdc-48a5-947b-22d83e720047","system_id":"levelo_inurba_marseille","lat":43.286595,"lon":5.386795,"is_reserved":false,"is_disabled":false,"rental_uris":{"android":"levelo://app?vid=05e5e504-5fdc-48a5-947b-22d83e720047","ios":"levelo://app?vid=05e5e504-5fdc-48a5-947b-22d83e720047"},"vehicle_type_id":"4","last_reported":1683471963,"current_range_meters":0,"station_id":"ce4bh492rcd13ifvqdug","pricing_plan_id":"free"},{"bike_id":"76326fed-f16e-45e0-a487-f969ff684ad9","system_id":"levelo_inurba_marseille","lat":43.286595,"lon":5.386795,"is_reserved":false,"is_disabled":false,"rental_uris":{"android":"levelo://app?vid=76326fed-f16e-45e0-a487-f969ff684ad9","ios":"levelo://app?vid=76326fed-f16e-45e0-a487-f969ff684ad9"},"vehicle_type_id":"4","last_reported":1683471963,"current_range_meters":1200,"station_id":"ce4bh492rcd13ifvqdug","pricing_plan_id":"free"},{"bike_id":"1e8b05a7-42f2-4dbc-b778-2844f62043cc","system_id":"levelo_inurba_marseille","lat":43.337168,"lon":5.391825,"is_reserved":false,"is_disabled":false,"rental_uris":{"android":"levelo://app?vid=1e8b05a7-42f2-4dbc-b778-2844f62043cc","ios":"levelo://app?vid=1e8b05a7-42f2-4dbc-b778-2844f62043cc"},"vehicle_type_id":"4","last_reported":1683471963,"current_range_meters":29600,"station_id":"ce4bhr92rcd13ifvqhsg","pricing_plan_id":"free"},{"bike_id":"90fefa4d-bf6c-4e62-8594-ec1e43ae7025","system_id":"levelo_inurba_marseille","lat":43.337168,"lon":5.391825,"is_reserved":false,"is_disabled":false,"rental_uris":{"android":"levelo://app?vid=90fefa4d-bf6c-4e62-8594-ec1e43ae7025","ios":"levelo://app?vid=90fefa4d-bf6c-4e62-8594-ec1e43ae7025"},"vehicle_type_id":"4","last_reported":1683471963,"current_range_meters":27200,"station_id":"ce4bhr92rcd13ifvqhsg","pricing_plan_id":"free"},{"bike_id":"50dff529-a461-4cdd-81cc-0b7b7916de6e","system_id":"levelo_inurba_marseille","lat":43.337168,"lon":5.391825,"is_reserved":false,"is_disabled":false,"rental_uris":{"android":"levelo://app?vid=50dff529-a461-4cdd-81cc-0b7b7916de6e","ios":"levelo://app?vid=50dff529-a461-4cdd-81cc-0b7b7916de6e"},"vehicle_type_id":"4","last_reported":1683471963,"current_range_meters":30000,"station_id":"ce4bhr92rcd13ifvqhsg","pricing_plan_id":"free"},{"bike_id":"69d83d05-dd7a-4552-9445-80fef6c5a8e5","system_id":"levelo_inurba_marseille","lat":43.337168,"lon":5.391825,"is_reserved":false,"is_disabled":false,"rental_uris":{"android":"levelo://app?vid=69d83d05-dd7a-4552-9445-80fef6c5a8e5","ios":"levelo://app?vid=69d83d05-dd7a-4552-9445-80fef6c5a8e5"},"vehicle_type_id":"4","last_reported":1683471963,"current_range_meters":30800,"station_id":"ce4bhr92rcd13ifvqhsg","pricing_plan_id":"free"},{"bike_id":"f9b2e6fa-1568-4b31-8499-a12aee2ca3c0","system_id":"levelo_inurba_marseille","lat":43.33717,"lon":5.391857,"is_reserved":false,"is_disabled":false,"rental_uris":{"android":"levelo://app?vid=f9b2e6fa-1568-4b31-8499-a12aee2ca3c0","ios":"levelo://app?vid=f9b2e6fa-1568-4b31-8499-a12aee2ca3c0"},"vehicle_type_id":"4","last_reported":1683471963,"current_range_meters":20400,"station_id":"ce4bhr92rcd13ifvqhsg","pricing_plan_id":"free"},{"bike_id":"a6ca2d78-b704-48a1-8efc-c1d2dadf4f6c","system_id":"levelo_inurba_marseille","lat":43.33717,"lon":5.391857,"is_reserved":false,"is_disabled":false,"rental_uris":{"android":"levelo://app?vid=a6ca2d78-b704-48a1-8efc-c1d2dadf4f6c","ios":"levelo://app?vid=a6ca2d78-b704-48a1-8efc-c1d2dadf4f6c"},"vehicle_type_id":"4","last_reported":1683471963,"current_range_meters":31200,"station_id":"ce4bhr92rcd13ifvqhsg","pricing_plan_id":"free"},{"bike_id":"ad3cdfdb-0864-4cce-8a5d-05a05de94244","system_id":"levelo_inurba_marseille","lat":43.30079,"lon":5.4057,"is_reserved":false,"is_disabled":false,"rental_uris":{"android":"levelo://app?vid=ad3cdfdb-0864-4cce-8a5d-05a05de94244","ios":"levelo://app?vid=ad3cdfdb-0864-4cce-8a5d-05a05de94244"},"vehicle_type_id":"4","last_reported":1683471963,"current_range_meters":15200,"station_id":"","pricing_plan_id":"free"},{"bike_id":"559ce7a6-dfc1-43b2-a5fb-666557947b17","system_id":"levelo_inurba_marseille","lat":43.284793,"lon":5.384119,"is_reserved":false,"is_disabled":false,"rental_uris":{"android":"levelo://app?vid=559ce7a6-dfc1-43b2-a5fb-666557947b17","ios":"levelo://app?vid=559ce7a6-dfc1-43b2-a5fb-666557947b17"},"vehicle_type_id":"4","last_reported":1683471963,"current_range_meters":30000,"station_id":"ce4bh512rcd13ifvqe3g","pricing_plan_id":"free"},{"bike_id":"ec125785-6eff-4e73-97da-f03eef7fff4f","system_id":"levelo_inurba_marseille","lat":43.284787,"lon":5.384116,"is_reserved":false,"is_disabled":false,"rental_uris":{"android":"levelo://app?vid=ec125785-6eff-4e73-97da-f03eef7fff4f","ios":"levelo://app?vid=ec125785-6eff-4e73-97da-f03eef7fff4f"},"vehicle_type_id":"4","last_reported":1683471963,"current_range_meters":28400,"station_id":"ce4bh512rcd13ifvqe3g","pricing_plan_id":"free"},{"bike_id":"057dd38c-c314-4f2b-9461-ef85ac43143e","system_id":"levelo_inurba_marseille","lat":43.284793,"lon":5.384119,"is_reserved":false,"is_disabled":false,"rental_uris":{"android":"levelo://app?vid=057dd38c-c314-4f2b-9461-ef85ac43143e","ios":"levelo://app?vid=057dd38c-c314-4f2b-9461-ef85ac43143e"},"vehicle_type_id":"4","last_reported":1683471963,"current_range_meters":22400,"station_id":"ce4bh512rcd13ifvqe3g","pricing_plan_id":"free"},{"bike_id":"c440ae2c-fa56-40db-bf79-b39e3e0fe691","system_id":"levelo_inurba_marseille","lat":43.284793,"lon":5.384119,"is_reserved":false,"is_disabled":false,"rental_uris":{"android":"levelo://app?vid=c440ae2c-fa56-40db-bf79-b39e3e0fe691","ios":"levelo://app?vid=c440ae2c-fa56-40db-bf79-b39e3e0fe691"},"vehicle_type_id":"4","last_reported":1683471963,"current_range_meters":17200,"station_id":"ce4bh512rcd13ifvqe3g","pricing_plan_id":"free"},{"bike_id":"013b6f21-4e28-49d5-a4a8-48d4e047abc8","system_id":"levelo_inurba_marseille","lat":43.284219,"lon":5.3497,"is_reserved":false,"is_disabled":false,"rental_uris":{"android":"levelo://app?vid=013b6f21-4e28-49d5-a4a8-48d4e047abc8","ios":"levelo://app?vid=013b6f21-4e28-49d5-a4a8-48d4e047abc8"},"vehicle_type_id":"4","last_reported":1683471963,"current_range_meters":15600,"station_id":"ce4bhbh2rcd13ifvqepg","pricing_plan_id":"free"},{"bike_id":"831ffae7-514a-43b6-898d-d10833010861","system_id":"levelo_inurba_marseille","lat":43.284219,"lon":5.3497,"is_reserved":false,"is_disabled":false,"rental_uris":{"android":"levelo://app?vid=831ffae7-514a-43b6-898d-d10833010861","ios":"levelo://app?vid=831ffae7-514a-43b6-898d-d10833010861"},"vehicle_type_id":"4","last_reported":1683471963,"current_range_meters":28400,"station_id":"ce4bhbh2rcd13ifvqepg","pricing_plan_id":"free"},{"bike_id":"d6731286-341d-4d52-a979-ba4fb471c519","system_id":"levelo_inurba_marseille","lat":43.28433,"lon":5.34988,"is_reserved":false,"is_disabled":false,"rental_uris":{"android":"levelo://app?vid=d6731286-341d-4d52-a979-ba4fb471c519","ios":"levelo://app?vid=d6731286-341d-4d52-a979-ba4fb471c519"},"vehicle_type_id":"4","last_reported":1683471963,"current_range_meters":18000,"station_id":"ce4bhbh2rcd13ifvqepg","pricing_plan_id":"free"},{"bike_id":"4efcc2cf-135c-4620-8764-e1053fc0b0fb","system_id":"levelo_inurba_marseille","lat":43.28432,"lon":5.3499,"is_reserved":false,"is_disabled":false,"rental_uris":{"android":"levelo://app?vid=4efcc2cf-135c-4620-8764-e1053fc0b0fb","ios":"levelo://app?vid=4efcc2cf-135c-4620-8764-e1053fc0b0fb"},"vehicle_type_id":"4","last_reported":1683471963,"current_range_meters":18800,"station_id":"ce4bhbh2rcd13ifvqepg","pricing_plan_id":"free"},{"bike_id":"b98f518f-ed44-4a09-9c2a-a3ab5ca6ba6e","system_id":"levelo_inurba_marseille","lat":43.28431,"lon":5.34989,"is_reserved":false,"is_disabled":false,"rental_uris":{"android":"levelo://app?vid=b98f518f-ed44-4a09-9c2a-a3ab5ca6ba6e","ios":"levelo://app?vid=b98f518f-ed44-4a09-9c2a-a3ab5ca6ba6e"},"vehicle_type_id":"4","last_reported":1683471963,"current_range_meters":22400,"station_id":"ce4bhbh2rcd13ifvqepg","pricing_plan_id":"free"},{"bike_id":"1e3d621e-76cf-4461-a0b1-60437393e4f0","system_id":"levelo_inurba_marseille","lat":43.2843,"lon":5.3499,"is_reserved":false,"is_disabled":false,"rental_uris":{"android":"levelo://app?vid=1e3d621e-76cf-4461-a0b1-60437393e4f0","ios":"levelo://app?vid=1e3d621e-76cf-4461-a0b1-60437393e4f0"},"vehicle_type_id":"4","last_reported":1683471963,"current_range_meters":26400,"station_id":"ce4bhbh2rcd13ifvqepg","pricing_plan_id":"free"},{"bike_id":"79808b68-c25e-483f-b899-63372b4a1e02","system_id":"levelo_inurba_marseille","lat":43.284219,"lon":5.3497,"is_reserved":false,"is_disabled":false,"rental_uris":{"android":"levelo://app?vid=79808b68-c25e-483f-b899-63372b4a1e02","ios":"levelo://app?vid=79808b68-c25e-483f-b899-63372b4a1e02"},"vehicle_type_id":"4","last_reported":1683471963,"current_range_meters":24400,"station_id":"ce4bhbh2rcd13ifvqepg","pricing_plan_id":"free"},{"bike_id":"63103703-f557-43d5-82be-2b56eef97b98","system_id":"levelo_inurba_marseille","lat":43.28429,"lon":5.34992,"is_reserved":false,"is_disabled":false,"rental_uris":{"android":"levelo://app?vid=63103703-f557-43d5-82be-2b56eef97b98","ios":"levelo://app?vid=63103703-f557-43d5-82be-2b56eef97b98"},"vehicle_type_id":"4","last_reported":1683471963,"current_range_meters":6800,"station_id":"ce4bhbh2rcd13ifvqepg","pricing_plan_id":"free"},{"bike_id":"8250ef9a-0190-49e6-ac9b-97683ed72bb7","system_id":"levelo_inurba_marseille","lat":43.28428,"lon":5.34989,"is_reserved":false,"is_disabled":false,"rental_uris":{"android":"levelo://app?vid=8250ef9a-0190-49e6-ac9b-97683ed72bb7","ios":"levelo://app?vid=8250ef9a-0190-49e6-ac9b-97683ed72bb7"},"vehicle_type_id":"4","last_reported":1683471963,"current_range_meters":11200,"station_id":"ce4bhbh2rcd13ifvqepg","pricing_plan_id":"free"},{"bike_id":"b91e9b7b-dfc3-4a9b-9e44-4fcab0887d9e","system_id":"levelo_inurba_marseille","lat":43.28429,"lon":5.34983,"is_reserved":false,"is_disabled":false,"rental_uris":{"android":"levelo://app?vid=b91e9b7b-dfc3-4a9b-9e44-4fcab0887d9e","ios":"levelo://app?vid=b91e9b7b-dfc3-4a9b-9e44-4fcab0887d9e"},"vehicle_type_id":"4","last_reported":1683471963,"current_range_meters":19600,"station_id":"ce4bhbh2rcd13ifvqepg","pricing_plan_id":"free"},{"bike_id":"5d5bdb2b-f823-4b73-aa0d-c6df8839f7d2","system_id":"levelo_inurba_marseille","lat":43.28428,"lon":5.34984,"is_reserved":false,"is_disabled":false,"rental_uris":{"android":"levelo://app?vid=5d5bdb2b-f823-4b73-aa0d-c6df8839f7d2","ios":"levelo://app?vid=5d5bdb2b-f823-4b73-aa0d-c6df8839f7d2"},"vehicle_type_id":"4","last_reported":1683471963,"current_range_meters":22800,"station_id":"ce4bhbh2rcd13ifvqepg","pricing_plan_id":"free"},{"bike_id":"c58137ff-dcd2-4f38-8ef2-93187d5542e0","system_id":"levelo_inurba_marseille","lat":43.28426,"lon":5.34989,"is_reserved":false,"is_disabled":false,"rental_uris":{"android":"levelo://app?vid=c58137ff-dcd2-4f38-8ef2-93187d5542e0","ios":"levelo://app?vid=c58137ff-dcd2-4f38-8ef2-93187d5542e0"},"vehicle_type_id":"4","last_reported":1683471963,"current_range_meters":13600,"station_id":"ce4bhbh2rcd13ifvqepg","pricing_plan_id":"free"},{"bike_id":"ad8bd725-3cf8-4cc1-9c1f-27acd8e80db9","system_id":"levelo_inurba_marseille","lat":43.284217,"lon":5.349697,"is_reserved":false,"is_disabled":false,"rental_uris":{"android":"levelo://app?vid=ad8bd725-3cf8-4cc1-9c1f-27acd8e80db9","ios":"levelo://app?vid=ad8bd725-3cf8-4cc1-9c1f-27acd8e80db9"},"vehicle_type_id":"4","last_reported":1683471963,"current_range_meters":27600,"station_id":"ce4bhbh2rcd13ifvqepg","pricing_plan_id":"free"},{"bike_id":"49032da2-f9e4-478b-a29d-e06095c583ec","system_id":"levelo_inurba_marseille","lat":43.28425,"lon":5.3499,"is_reserved":false,"is_disabled":false,"rental_uris":{"android":"levelo://app?vid=49032da2-f9e4-478b-a29d-e06095c583ec","ios":"levelo://app?vid=49032da2-f9e4-478b-a29d-e06095c583ec"},"vehicle_type_id":"4","last_reported":1683471963,"current_range_meters":17200,"station_id":"ce4bhbh2rcd13ifvqepg","pricing_plan_id":"free"},{"bike_id":"d1c80154-7ea7-4769-adb2-186de7807026","system_id":"levelo_inurba_marseille","lat":43.28424,"lon":5.34993,"is_reserved":false,"is_disabled":false,"rental_uris":{"android":"levelo://app?vid=d1c80154-7ea7-4769-adb2-186de7807026","ios":"levelo://app?vid=d1c80154-7ea7-4769-adb2-186de7807026"},"vehicle_type_id":"4","last_reported":1683471963,"current_range_meters":26000,"station_id":"ce4bhbh2rcd13ifvqepg","pricing_plan_id":"free"},{"bike_id":"c1d8abba-3463-47eb-af03-5714bacd6f63","system_id":"levelo_inurba_marseille","lat":43.28424,"lon":5.34986,"is_reserved":false,"is_disabled":false,"rental_uris":{"android":"levelo://app?vid=c1d8abba-3463-47eb-af03-5714bacd6f63","ios":"levelo://app?vid=c1d8abba-3463-47eb-af03-5714bacd6f63"},"vehicle_type_id":"4","last_reported":1683471963,"current_range_meters":25200,"station_id":"ce4bhbh2rcd13ifvqepg","pricing_plan_id":"free"},{"bike_id":"ef1ec41b-bbad-498d-8210-b83da1d33e4d","system_id":"levelo_inurba_marseille","lat":43.28425,"lon":5.34976,"is_reserved":false,"is_disabled":false,"rental_uris":{"android":"levelo://app?vid=ef1ec41b-bbad-498d-8210-b83da1d33e4d","ios":"levelo://app?vid=ef1ec41b-bbad-498d-8210-b83da1d33e4d"},"vehicle_type_id":"4","last_reported":1683471963,"current_range_meters":0,"station_id":"ce4bhbh2rcd13ifvqepg","pricing_plan_id":"free"},{"bike_id":"9accbf49-ad06-4fd7-99eb-40b51f1ff32e","system_id":"levelo_inurba_marseille","lat":43.284219,"lon":5.3497,"is_reserved":false,"is_disabled":false,"rental_uris":{"android":"levelo://app?vid=9accbf49-ad06-4fd7-99eb-40b51f1ff32e","ios":"levelo://app?vid=9accbf49-ad06-4fd7-99eb-40b51f1ff32e"},"vehicle_type_id":"4","last_reported":1683471963,"current_range_meters":0,"station_id":"ce4bhbh2rcd13ifvqepg","pricing_plan_id":"free"},{"bike_id":"6c421a07-70ce-4ae3-832b-f36838fe70bb","system_id":"levelo_inurba_marseille","lat":43.28413,"lon":5.34991,"is_reserved":false,"is_disabled":false,"rental_uris":{"android":"levelo://app?vid=6c421a07-70ce-4ae3-832b-f36838fe70bb","ios":"levelo://app?vid=6c421a07-70ce-4ae3-832b-f36838fe70bb"},"vehicle_type_id":"4","last_reported":1683471963,"current_range_meters":4000,"station_id":"ce4bhbh2rcd13ifvqepg","pricing_plan_id":"free"},{"bike_id":"d0aae982-6164-47b9-9736-b690dfdb6353","system_id":"levelo_inurba_marseille","lat":43.28414,"lon":5.34987,"is_reserved":false,"is_disabled":false,"rental_uris":{"android":"levelo://app?vid=d0aae982-6164-47b9-9736-b690dfdb6353","ios":"levelo://app?vid=d0aae982-6164-47b9-9736-b690dfdb6353"},"vehicle_type_id":"4","last_reported":1683471963,"current_range_meters":14800,"station_id":"ce4bhbh2rcd13ifvqepg","pricing_plan_id":"free"},{"bike_id":"4c07bd6e-1230-487b-93b2-6231f687572b","system_id":"levelo_inurba_marseille","lat":43.28416,"lon":5.34978,"is_reserved":false,"is_disabled":false,"rental_uris":{"android":"levelo://app?vid=4c07bd6e-1230-487b-93b2-6231f687572b","ios":"levelo://app?vid=4c07bd6e-1230-487b-93b2-6231f687572b"},"vehicle_type_id":"4","last_reported":1683471963,"current_range_meters":17600,"station_id":"ce4bhbh2rcd13ifvqepg","pricing_plan_id":"free"},{"bike_id":"b5170f80-50c2-4c2c-8cfa-4fbaf76c86a8","system_id":"levelo_inurba_marseille","lat":43.28416,"lon":5.349653,"is_reserved":false,"is_disabled":false,"rental_uris":{"android":"levelo://app?vid=b5170f80-50c2-4c2c-8cfa-4fbaf76c86a8","ios":"levelo://app?vid=b5170f80-50c2-4c2c-8cfa-4fbaf76c86a8"},"vehicle_type_id":"4","last_reported":1683471963,"current_range_meters":3600,"station_id":"","pricing_plan_id":"free"},{"bike_id":"0c5623ad-1caf-4c71-9f53-801e490e8b53","system_id":"levelo_inurba_marseille","lat":43.282754,"lon":5.350519,"is_reserved":false,"is_disabled":false,"rental_uris":{"android":"levelo://app?vid=0c5623ad-1caf-4c71-9f53-801e490e8b53","ios":"levelo://app?vid=0c5623ad-1caf-4c71-9f53-801e490e8b53"},"vehicle_type_id":"4","last_reported":1683471963,"current_range_meters":11200,"station_id":"ce4bhbp2rcd13ifvqerg","pricing_plan_id":"free"},{"bike_id":"55c89222-8251-4c48-a9e5-42cc22773dad","system_id":"levelo_inurba_marseille","lat":43.325233,"lon":5.414318,"is_reserved":false,"is_disabled":false,"rental_uris":{"android":"levelo://app?vid=55c89222-8251-4c48-a9e5-42cc22773dad","ios":"levelo://app?vid=55c89222-8251-4c48-a9e5-42cc22773dad"},"vehicle_type_id":"4","last_reported":1683471963,"current_range_meters":21600,"station_id":"ce4bhq12rcd13ifvqhhg","pricing_plan_id":"free"},{"bike_id":"ff793901-b663-40c7-9dc5-3a281021f69c","system_id":"levelo_inurba_marseille","lat":43.282754,"lon":5.350519,"is_reserved":false,"is_disabled":false,"rental_uris":{"android":"levelo://app?vid=ff793901-b663-40c7-9dc5-3a281021f69c","ios":"levelo://app?vid=ff793901-b663-40c7-9dc5-3a281021f69c"},"vehicle_type_id":"4","last_reported":1683471963,"current_range_meters":11200,"station_id":"ce4bhbp2rcd13ifvqerg","pricing_plan_id":"free"},{"bike_id":"d6781b15-2329-4f3b-b1bf-52f31d4fc07c","system_id":"levelo_inurba_marseille","lat":43.282754,"lon":5.350519,"is_reserved":false,"is_disabled":false,"rental_uris":{"android":"levelo://app?vid=d6781b15-2329-4f3b-b1bf-52f31d4fc07c","ios":"levelo://app?vid=d6781b15-2329-4f3b-b1bf-52f31d4fc07c"},"vehicle_type_id":"4","last_reported":1683471963,"current_range_meters":16000,"station_id":"ce4bhbp2rcd13ifvqerg","pricing_plan_id":"free"},{"bike_id":"fbae1f86-0af2-4467-855c-a8d8e6e16b86","system_id":"levelo_inurba_marseille","lat":43.28273,"lon":5.35073,"is_reserved":false,"is_disabled":false,"rental_uris":{"android":"levelo://app?vid=fbae1f86-0af2-4467-855c-a8d8e6e16b86","ios":"levelo://app?vid=fbae1f86-0af2-4467-855c-a8d8e6e16b86"},"vehicle_type_id":"4","last_reported":1683471963,"current_range_meters":12400,"station_id":"ce4bhbp2rcd13ifvqerg","pricing_plan_id":"free"},{"bike_id":"58a5ad97-6c2a-486b-8432-f27df51fabd0","system_id":"levelo_inurba_marseille","lat":43.28275,"lon":5.35066,"is_reserved":false,"is_disabled":false,"rental_uris":{"android":"levelo://app?vid=58a5ad97-6c2a-486b-8432-f27df51fabd0","ios":"levelo://app?vid=58a5ad97-6c2a-486b-8432-f27df51fabd0"},"vehicle_type_id":"4","last_reported":1683471963,"current_range_meters":20800,"station_id":"ce4bhbp2rcd13ifvqerg","pricing_plan_id":"free"},{"bike_id":"2d4aa5ad-14b4-4c14-b500-9fbd7e7f82c6","system_id":"levelo_inurba_marseille","lat":43.28275,"lon":5.3506,"is_reserved":false,"is_disabled":false,"rental_uris":{"android":"levelo://app?vid=2d4aa5ad-14b4-4c14-b500-9fbd7e7f82c6","ios":"levelo://app?vid=2d4aa5ad-14b4-4c14-b500-9fbd7e7f82c6"},"vehicle_type_id":"4","last_reported":1683471963,"current_range_meters":14000,"station_id":"ce4bhbp2rcd13ifvqerg","pricing_plan_id":"free"},{"bike_id":"a924efe0-0836-4894-a8cc-453fd2edc4c6","system_id":"levelo_inurba_marseille","lat":43.28273,"lon":5.35066,"is_reserved":false,"is_disabled":false,"rental_uris":{"android":"levelo://app?vid=a924efe0-0836-4894-a8cc-453fd2edc4c6","ios":"levelo://app?vid=a924efe0-0836-4894-a8cc-453fd2edc4c6"},"vehicle_type_id":"4","last_reported":1683471963,"current_range_meters":26000,"station_id":"ce4bhbp2rcd13ifvqerg","pricing_plan_id":"free"},{"bike_id":"5b6f791d-176d-4509-add7-25f642e3db04","system_id":"levelo_inurba_marseille","lat":43.28273,"lon":5.35065,"is_reserved":false,"is_disabled":false,"rental_uris":{"android":"levelo://app?vid=5b6f791d-176d-4509-add7-25f642e3db04","ios":"levelo://app?vid=5b6f791d-176d-4509-add7-25f642e3db04"},"vehicle_type_id":"4","last_reported":1683471963,"current_range_meters":18800,"station_id":"ce4bhbp2rcd13ifvqerg","pricing_plan_id":"free"},{"bike_id":"a1677225-2884-453a-85fa-d60fdf8c7c2c","system_id":"levelo_inurba_marseille","lat":43.282744,"lon":5.350533,"is_reserved":false,"is_disabled":false,"rental_uris":{"android":"levelo://app?vid=a1677225-2884-453a-85fa-d60fdf8c7c2c","ios":"levelo://app?vid=a1677225-2884-453a-85fa-d60fdf8c7c2c"},"vehicle_type_id":"4","last_reported":1683471963,"current_range_meters":25600,"station_id":"ce4bhbp2rcd13ifvqerg","pricing_plan_id":"free"},{"bike_id":"4998a52c-452f-4bae-91ee-e444efc6b3a5","system_id":"levelo_inurba_marseille","lat":43.282754,"lon":5.350519,"is_reserved":false,"is_disabled":false,"rental_uris":{"android":"levelo://app?vid=4998a52c-452f-4bae-91ee-e444efc6b3a5","ios":"levelo://app?vid=4998a52c-452f-4bae-91ee-e444efc6b3a5"},"vehicle_type_id":"4","last_reported":1683471963,"current_range_meters":26000,"station_id":"ce4bhbp2rcd13ifvqerg","pricing_plan_id":"free"},{"bike_id":"6b5c8ca6-f8dc-4be0-a1c6-6a2051f9aec2","system_id":"levelo_inurba_marseille","lat":43.282744,"lon":5.350533,"is_reserved":false,"is_disabled":false,"rental_uris":{"android":"levelo://app?vid=6b5c8ca6-f8dc-4be0-a1c6-6a2051f9aec2","ios":"levelo://app?vid=6b5c8ca6-f8dc-4be0-a1c6-6a2051f9aec2"},"vehicle_type_id":"4","last_reported":1683471963,"current_range_meters":20800,"station_id":"ce4bhbp2rcd13ifvqerg","pricing_plan_id":"free"},{"bike_id":"c71af573-a79f-4688-aeaf-719631464d6b","system_id":"levelo_inurba_marseille","lat":43.28271,"lon":5.3506,"is_reserved":false,"is_disabled":false,"rental_uris":{"android":"levelo://app?vid=c71af573-a79f-4688-aeaf-719631464d6b","ios":"levelo://app?vid=c71af573-a79f-4688-aeaf-719631464d6b"},"vehicle_type_id":"4","last_reported":1683471963,"current_range_meters":8400,"station_id":"ce4bhbp2rcd13ifvqerg","pricing_plan_id":"free"},{"bike_id":"76242f32-c407-44d4-84d7-fa1d50b0f9dc","system_id":"levelo_inurba_marseille","lat":43.32444,"lon":5.40831,"is_reserved":false,"is_disabled":false,"rental_uris":{"android":"levelo://app?vid=76242f32-c407-44d4-84d7-fa1d50b0f9dc","ios":"levelo://app?vid=76242f32-c407-44d4-84d7-fa1d50b0f9dc"},"vehicle_type_id":"4","last_reported":1683471963,"current_range_meters":0,"station_id":"","pricing_plan_id":"free"},{"bike_id":"8118d956-dda3-4c02-b95a-3d360d86c3bb","system_id":"levelo_inurba_marseille","lat":43.28269,"lon":5.35062,"is_reserved":false,"is_disabled":false,"rental_uris":{"android":"levelo://app?vid=8118d956-dda3-4c02-b95a-3d360d86c3bb","ios":"levelo://app?vid=8118d956-dda3-4c02-b95a-3d360d86c3bb"},"vehicle_type_id":"4","last_reported":1683471963,"current_range_meters":3600,"station_id":"ce4bhbp2rcd13ifvqerg","pricing_plan_id":"free"},{"bike_id":"d9f1d9d5-95ab-4592-a8ab-85631f7a1fea","system_id":"levelo_inurba_marseille","lat":43.28266,"lon":5.3507,"is_reserved":false,"is_disabled":false,"rental_uris":{"android":"levelo://app?vid=d9f1d9d5-95ab-4592-a8ab-85631f7a1fea","ios":"levelo://app?vid=d9f1d9d5-95ab-4592-a8ab-85631f7a1fea"},"vehicle_type_id":"4","last_reported":1683471963,"current_range_meters":400,"station_id":"ce4bhbp2rcd13ifvqerg","pricing_plan_id":"free"},{"bike_id":"0e3531f4-8458-4dfb-b32a-9723563f25c9","system_id":"levelo_inurba_marseille","lat":43.282754,"lon":5.350519,"is_reserved":false,"is_disabled":false,"rental_uris":{"android":"levelo://app?vid=0e3531f4-8458-4dfb-b32a-9723563f25c9","ios":"levelo://app?vid=0e3531f4-8458-4dfb-b32a-9723563f25c9"},"vehicle_type_id":"4","last_reported":1683471963,"current_range_meters":8000,"station_id":"ce4bhbp2rcd13ifvqerg","pricing_plan_id":"free"},{"bike_id":"b84ef44d-ce8e-4a0c-bc52-4c8afdb1558a","system_id":"levelo_inurba_marseille","lat":43.282754,"lon":5.350519,"is_reserved":false,"is_disabled":false,"rental_uris":{"android":"levelo://app?vid=b84ef44d-ce8e-4a0c-bc52-4c8afdb1558a","ios":"levelo://app?vid=b84ef44d-ce8e-4a0c-bc52-4c8afdb1558a"},"vehicle_type_id":"4","last_reported":1683471963,"current_range_meters":18800,"station_id":"ce4bhbp2rcd13ifvqerg","pricing_plan_id":"free"},{"bike_id":"3a5fc0b7-524c-4336-8749-0e259f979103","system_id":"levelo_inurba_marseille","lat":43.28263,"lon":5.3507,"is_reserved":false,"is_disabled":false,"rental_uris":{"android":"levelo://app?vid=3a5fc0b7-524c-4336-8749-0e259f979103","ios":"levelo://app?vid=3a5fc0b7-524c-4336-8749-0e259f979103"},"vehicle_type_id":"4","last_reported":1683471963,"current_range_meters":25200,"station_id":"ce4bhbp2rcd13ifvqerg","pricing_plan_id":"free"},{"bike_id":"3e1dd1d2-818d-4ddc-8c5b-e5334ca164b1","system_id":"levelo_inurba_marseille","lat":43.282754,"lon":5.350519,"is_reserved":false,"is_disabled":false,"rental_uris":{"android":"levelo://app?vid=3e1dd1d2-818d-4ddc-8c5b-e5334ca164b1","ios":"levelo://app?vid=3e1dd1d2-818d-4ddc-8c5b-e5334ca164b1"},"vehicle_type_id":"4","last_reported":1683471963,"current_range_meters":6000,"station_id":"ce4bhbp2rcd13ifvqerg","pricing_plan_id":"free"},{"bike_id":"43ab658f-6223-4ba0-a080-f769e0e12cbc","system_id":"levelo_inurba_marseille","lat":43.282754,"lon":5.350519,"is_reserved":false,"is_disabled":false,"rental_uris":{"android":"levelo://app?vid=43ab658f-6223-4ba0-a080-f769e0e12cbc","ios":"levelo://app?vid=43ab658f-6223-4ba0-a080-f769e0e12cbc"},"vehicle_type_id":"4","last_reported":1683471963,"current_range_meters":16000,"station_id":"ce4bhbp2rcd13ifvqerg","pricing_plan_id":"free"},{"bike_id":"0037e464-4e91-4d10-b334-684be84ad6ae","system_id":"levelo_inurba_marseille","lat":43.281044,"lon":5.378308,"is_reserved":false,"is_disabled":false,"rental_uris":{"android":"levelo://app?vid=0037e464-4e91-4d10-b334-684be84ad6ae","ios":"levelo://app?vid=0037e464-4e91-4d10-b334-684be84ad6ae"},"vehicle_type_id":"4","last_reported":1683471963,"current_range_meters":14800,"station_id":"ce4bha12rcd13ifvqee0","pricing_plan_id":"free"},{"bike_id":"93efd212-17ff-4aed-af3e-9b39f21bc368","system_id":"levelo_inurba_marseille","lat":43.296263,"lon":5.40601,"is_reserved":false,"is_disabled":false,"rental_uris":{"android":"levelo://app?vid=93efd212-17ff-4aed-af3e-9b39f21bc368","ios":"levelo://app?vid=93efd212-17ff-4aed-af3e-9b39f21bc368"},"vehicle_type_id":"4","last_reported":1683471963,"current_range_meters":0,"station_id":"ce4bh0h2rcd13ifvqd60","pricing_plan_id":"free"},{"bike_id":"a2f18d2a-3d74-4585-babb-19dcd5ed09ae","system_id":"levelo_inurba_marseille","lat":43.284462,"lon":5.392121,"is_reserved":false,"is_disabled":false,"rental_uris":{"android":"levelo://app?vid=a2f18d2a-3d74-4585-babb-19dcd5ed09ae","ios":"levelo://app?vid=a2f18d2a-3d74-4585-babb-19dcd5ed09ae"},"vehicle_type_id":"4","last_reported":1683471963,"current_range_meters":6400,"station_id":"ce4bhoh2rcd13ifvqh5g","pricing_plan_id":"free"},{"bike_id":"a996df8c-216f-4cd0-a8db-8f24a6c63224","system_id":"levelo_inurba_marseille","lat":43.304188,"lon":5.412904,"is_reserved":false,"is_disabled":false,"rental_uris":{"android":"levelo://app?vid=a996df8c-216f-4cd0-a8db-8f24a6c63224","ios":"levelo://app?vid=a996df8c-216f-4cd0-a8db-8f24a6c63224"},"vehicle_type_id":"4","last_reported":1683471963,"current_range_meters":17600,"station_id":"ce4bhop2rcd13ifvqh8g","pricing_plan_id":"free"},{"bike_id":"4209e0ab-b574-4308-9eca-d5703cb6d30f","system_id":"levelo_inurba_marseille","lat":43.287154,"lon":5.399979,"is_reserved":false,"is_disabled":false,"rental_uris":{"android":"levelo://app?vid=4209e0ab-b574-4308-9eca-d5703cb6d30f","ios":"levelo://app?vid=4209e0ab-b574-4308-9eca-d5703cb6d30f"},"vehicle_type_id":"4","last_reported":1683471963,"current_range_meters":21200,"station_id":"ce4bho92rcd13ifvqh3g","pricing_plan_id":"free"},{"bike_id":"78deed7b-35d6-429b-b8bb-8079784ab946","system_id":"levelo_inurba_marseille","lat":43.287154,"lon":5.399979,"is_reserved":false,"is_disabled":false,"rental_uris":{"android":"levelo://app?vid=78deed7b-35d6-429b-b8bb-8079784ab946","ios":"levelo://app?vid=78deed7b-35d6-429b-b8bb-8079784ab946"},"vehicle_type_id":"4","last_reported":1683471963,"current_range_meters":21600,"station_id":"ce4bho92rcd13ifvqh3g","pricing_plan_id":"free"},{"bike_id":"1a2ec8c2-9300-4217-8529-075bf1a8e160","system_id":"levelo_inurba_marseille","lat":43.320045,"lon":5.415048,"is_reserved":false,"is_disabled":false,"rental_uris":{"android":"levelo://app?vid=1a2ec8c2-9300-4217-8529-075bf1a8e160","ios":"levelo://app?vid=1a2ec8c2-9300-4217-8529-075bf1a8e160"},"vehicle_type_id":"4","last_reported":1683471963,"current_range_meters":26800,"station_id":"ce4bhq92rcd13ifvqhkg","pricing_plan_id":"free"},{"bike_id":"b24da798-0b89-41ac-9bca-fce0f1dd01dd","system_id":"levelo_inurba_marseille","lat":43.320045,"lon":5.415048,"is_reserved":false,"is_disabled":false,"rental_uris":{"android":"levelo://app?vid=b24da798-0b89-41ac-9bca-fce0f1dd01dd","ios":"levelo://app?vid=b24da798-0b89-41ac-9bca-fce0f1dd01dd"},"vehicle_type_id":"4","last_reported":1683471963,"current_range_meters":22000,"station_id":"ce4bhq92rcd13ifvqhkg","pricing_plan_id":"free"},{"bike_id":"8915c322-f0f3-4dad-860c-803dd44ee2bd","system_id":"levelo_inurba_marseille","lat":43.320045,"lon":5.415048,"is_reserved":false,"is_disabled":false,"rental_uris":{"android":"levelo://app?vid=8915c322-f0f3-4dad-860c-803dd44ee2bd","ios":"levelo://app?vid=8915c322-f0f3-4dad-860c-803dd44ee2bd"},"vehicle_type_id":"4","last_reported":1683471963,"current_range_meters":20800,"station_id":"ce4bhq92rcd13ifvqhkg","pricing_plan_id":"free"},{"bike_id":"bef1ad7a-1f3f-494c-a38c-91ac7c417b92","system_id":"levelo_inurba_marseille","lat":43.299577,"lon":5.413277,"is_reserved":false,"is_disabled":false,"rental_uris":{"android":"levelo://app?vid=bef1ad7a-1f3f-494c-a38c-91ac7c417b92","ios":"levelo://app?vid=bef1ad7a-1f3f-494c-a38c-91ac7c417b92"},"vehicle_type_id":"4","last_reported":1683471963,"current_range_meters":7600,"station_id":"ce4bhp12rcd13ifvqh9g","pricing_plan_id":"free"},{"bike_id":"02a63ac2-bc1c-4d64-b42f-f2e53f893af4","system_id":"levelo_inurba_marseille","lat":43.320045,"lon":5.415048,"is_reserved":false,"is_disabled":false,"rental_uris":{"android":"levelo://app?vid=02a63ac2-bc1c-4d64-b42f-f2e53f893af4","ios":"levelo://app?vid=02a63ac2-bc1c-4d64-b42f-f2e53f893af4"},"vehicle_type_id":"4","last_reported":1683471963,"current_range_meters":21600,"station_id":"ce4bhq92rcd13ifvqhkg","pricing_plan_id":"free"},{"bike_id":"bc5b6fdc-374a-4cac-9f90-da80ca788f37","system_id":"levelo_inurba_marseille","lat":43.320045,"lon":5.415048,"is_reserved":false,"is_disabled":false,"rental_uris":{"android":"levelo://app?vid=bc5b6fdc-374a-4cac-9f90-da80ca788f37","ios":"levelo://app?vid=bc5b6fdc-374a-4cac-9f90-da80ca788f37"},"vehicle_type_id":"4","last_reported":1683471963,"current_range_meters":24000,"station_id":"ce4bhq92rcd13ifvqhkg","pricing_plan_id":"free"},{"bike_id":"731eb921-690e-4be2-b209-85d6d631488c","system_id":"levelo_inurba_marseille","lat":43.299579,"lon":5.413255,"is_reserved":false,"is_disabled":false,"rental_uris":{"android":"levelo://app?vid=731eb921-690e-4be2-b209-85d6d631488c","ios":"levelo://app?vid=731eb921-690e-4be2-b209-85d6d631488c"},"vehicle_type_id":"4","last_reported":1683471963,"current_range_meters":12000,"station_id":"ce4bhp12rcd13ifvqh9g","pricing_plan_id":"free"},{"bike_id":"b7dcd9ad-8282-48bc-8a7b-ddd675402dff","system_id":"levelo_inurba_marseille","lat":43.320045,"lon":5.415048,"is_reserved":false,"is_disabled":false,"rental_uris":{"android":"levelo://app?vid=b7dcd9ad-8282-48bc-8a7b-ddd675402dff","ios":"levelo://app?vid=b7dcd9ad-8282-48bc-8a7b-ddd675402dff"},"vehicle_type_id":"4","last_reported":1683471963,"current_range_meters":23600,"station_id":"ce4bhq92rcd13ifvqhkg","pricing_plan_id":"free"},{"bike_id":"648e2267-4d0b-4793-8a5e-87777eb72ede","system_id":"levelo_inurba_marseille","lat":43.29257,"lon":5.40906,"is_reserved":false,"is_disabled":false,"rental_uris":{"android":"levelo://app?vid=648e2267-4d0b-4793-8a5e-87777eb72ede","ios":"levelo://app?vid=648e2267-4d0b-4793-8a5e-87777eb72ede"},"vehicle_type_id":"4","last_reported":1683471963,"current_range_meters":10000,"station_id":"ce4bh192rcd13ifvqdc0","pricing_plan_id":"free"},{"bike_id":"eb4f510a-b4f2-4513-9e9f-c4b14f0b0170","system_id":"levelo_inurba_marseille","lat":43.325233,"lon":5.414318,"is_reserved":false,"is_disabled":false,"rental_uris":{"android":"levelo://app?vid=eb4f510a-b4f2-4513-9e9f-c4b14f0b0170","ios":"levelo://app?vid=eb4f510a-b4f2-4513-9e9f-c4b14f0b0170"},"vehicle_type_id":"4","last_reported":1683471963,"current_range_meters":31600,"station_id":"ce4bhq12rcd13ifvqhhg","pricing_plan_id":"free"},{"bike_id":"cce0d8bd-bd53-458d-a637-b7749f2e06db","system_id":"levelo_inurba_marseille","lat":43.276179,"lon":5.361009,"is_reserved":false,"is_disabled":false,"rental_uris":{"android":"levelo://app?vid=cce0d8bd-bd53-458d-a637-b7749f2e06db","ios":"levelo://app?vid=cce0d8bd-bd53-458d-a637-b7749f2e06db"},"vehicle_type_id":"4","last_reported":1683471963,"current_range_meters":8800,"station_id":"ce4bgj92rcd13ifvqbe0","pricing_plan_id":"free"},{"bike_id":"b1ecb257-fbb4-44f0-a870-b3a1dfe1fe09","system_id":"levelo_inurba_marseille","lat":43.325233,"lon":5.414318,"is_reserved":false,"is_disabled":false,"rental_uris":{"android":"levelo://app?vid=b1ecb257-fbb4-44f0-a870-b3a1dfe1fe09","ios":"levelo://app?vid=b1ecb257-fbb4-44f0-a870-b3a1dfe1fe09"},"vehicle_type_id":"4","last_reported":1683471963,"current_range_meters":10400,"station_id":"ce4bhq12rcd13ifvqhhg","pricing_plan_id":"free"},{"bike_id":"86091db7-a6fc-4af8-9c99-24decfc72436","system_id":"levelo_inurba_marseille","lat":43.276179,"lon":5.361009,"is_reserved":false,"is_disabled":false,"rental_uris":{"android":"levelo://app?vid=86091db7-a6fc-4af8-9c99-24decfc72436","ios":"levelo://app?vid=86091db7-a6fc-4af8-9c99-24decfc72436"},"vehicle_type_id":"4","last_reported":1683471963,"current_range_meters":20400,"station_id":"ce4bgj92rcd13ifvqbe0","pricing_plan_id":"free"},{"bike_id":"d527fbd8-fbc7-47be-b441-9c2469662b92","system_id":"levelo_inurba_marseille","lat":43.32547,"lon":5.41436,"is_reserved":false,"is_disabled":false,"rental_uris":{"android":"levelo://app?vid=d527fbd8-fbc7-47be-b441-9c2469662b92","ios":"levelo://app?vid=d527fbd8-fbc7-47be-b441-9c2469662b92"},"vehicle_type_id":"4","last_reported":1683471963,"current_range_meters":31200,"station_id":"ce4bhq12rcd13ifvqhhg","pricing_plan_id":"free"},{"bike_id":"1fc5f253-22cc-41a1-9e01-bb9da78060fb","system_id":"levelo_inurba_marseille","lat":43.276179,"lon":5.361009,"is_reserved":false,"is_disabled":false,"rental_uris":{"android":"levelo://app?vid=1fc5f253-22cc-41a1-9e01-bb9da78060fb","ios":"levelo://app?vid=1fc5f253-22cc-41a1-9e01-bb9da78060fb"},"vehicle_type_id":"4","last_reported":1683471963,"current_range_meters":23600,"station_id":"ce4bgj92rcd13ifvqbe0","pricing_plan_id":"free"},{"bike_id":"4cb91cf5-626f-4ef1-acdc-c269dac2e75b","system_id":"levelo_inurba_marseille","lat":43.276179,"lon":5.361009,"is_reserved":false,"is_disabled":false,"rental_uris":{"android":"levelo://app?vid=4cb91cf5-626f-4ef1-acdc-c269dac2e75b","ios":"levelo://app?vid=4cb91cf5-626f-4ef1-acdc-c269dac2e75b"},"vehicle_type_id":"4","last_reported":1683471963,"current_range_meters":16000,"station_id":"ce4bgj92rcd13ifvqbe0","pricing_plan_id":"free"},{"bike_id":"f927b1c6-fd23-4d5f-825e-643aa71d5d73","system_id":"levelo_inurba_marseille","lat":43.325233,"lon":5.414318,"is_reserved":false,"is_disabled":false,"rental_uris":{"android":"levelo://app?vid=f927b1c6-fd23-4d5f-825e-643aa71d5d73","ios":"levelo://app?vid=f927b1c6-fd23-4d5f-825e-643aa71d5d73"},"vehicle_type_id":"4","last_reported":1683471963,"current_range_meters":30400,"station_id":"ce4bhq12rcd13ifvqhhg","pricing_plan_id":"free"},{"bike_id":"1599458d-c9c2-4520-968b-33460c21cb79","system_id":"levelo_inurba_marseille","lat":43.276179,"lon":5.361009,"is_reserved":false,"is_disabled":false,"rental_uris":{"android":"levelo://app?vid=1599458d-c9c2-4520-968b-33460c21cb79","ios":"levelo://app?vid=1599458d-c9c2-4520-968b-33460c21cb79"},"vehicle_type_id":"4","last_reported":1683471963,"current_range_meters":25600,"station_id":"ce4bgj92rcd13ifvqbe0","pricing_plan_id":"free"},{"bike_id":"ba016776-39b2-4c35-8665-5cfbb2818d40","system_id":"levelo_inurba_marseille","lat":43.32548,"lon":5.41444,"is_reserved":false,"is_disabled":false,"rental_uris":{"android":"levelo://app?vid=ba016776-39b2-4c35-8665-5cfbb2818d40","ios":"levelo://app?vid=ba016776-39b2-4c35-8665-5cfbb2818d40"},"vehicle_type_id":"4","last_reported":1683471963,"current_range_meters":31200,"station_id":"ce4bhq12rcd13ifvqhhg","pricing_plan_id":"free"},{"bike_id":"8c1028ee-b12d-457d-ad3e-8092b3a1c885","system_id":"levelo_inurba_marseille","lat":43.280784,"lon":5.396622,"is_reserved":false,"is_disabled":false,"rental_uris":{"android":"levelo://app?vid=8c1028ee-b12d-457d-ad3e-8092b3a1c885","ios":"levelo://app?vid=8c1028ee-b12d-457d-ad3e-8092b3a1c885"},"vehicle_type_id":"4","last_reported":1683471963,"current_range_meters":14800,"station_id":"ce4bho12rcd13ifvqh2g","pricing_plan_id":"free"},{"bike_id":"9207bc86-696e-4d5b-9119-91ed7f584014","system_id":"levelo_inurba_marseille","lat":43.278401,"lon":5.392152,"is_reserved":false,"is_disabled":false,"rental_uris":{"android":"levelo://app?vid=9207bc86-696e-4d5b-9119-91ed7f584014","ios":"levelo://app?vid=9207bc86-696e-4d5b-9119-91ed7f584014"},"vehicle_type_id":"4","last_reported":1683471963,"current_range_meters":12400,"station_id":"ce4bhjp2rcd13ifvqga0","pricing_plan_id":"free"},{"bike_id":"8085574f-c36a-41df-a161-99c3ff918f42","system_id":"levelo_inurba_marseille","lat":43.27384,"lon":5.36255,"is_reserved":false,"is_disabled":false,"rental_uris":{"android":"levelo://app?vid=8085574f-c36a-41df-a161-99c3ff918f42","ios":"levelo://app?vid=8085574f-c36a-41df-a161-99c3ff918f42"},"vehicle_type_id":"4","last_reported":1683471963,"current_range_meters":0,"station_id":"","pricing_plan_id":"free"},{"bike_id":"63cc3b02-19ed-4c3f-8d40-565f6dc961da","system_id":"levelo_inurba_marseille","lat":43.273613,"lon":5.362705,"is_reserved":false,"is_disabled":false,"rental_uris":{"android":"levelo://app?vid=63cc3b02-19ed-4c3f-8d40-565f6dc961da","ios":"levelo://app?vid=63cc3b02-19ed-4c3f-8d40-565f6dc961da"},"vehicle_type_id":"4","last_reported":1683471963,"current_range_meters":18800,"station_id":"ce4bhbh2rcd13ifvqeo0","pricing_plan_id":"free"},{"bike_id":"c51692cf-f831-41de-b3f3-8598ba608d64","system_id":"levelo_inurba_marseille","lat":43.273613,"lon":5.362705,"is_reserved":false,"is_disabled":false,"rental_uris":{"android":"levelo://app?vid=c51692cf-f831-41de-b3f3-8598ba608d64","ios":"levelo://app?vid=c51692cf-f831-41de-b3f3-8598ba608d64"},"vehicle_type_id":"4","last_reported":1683471963,"current_range_meters":31600,"station_id":"ce4bhbh2rcd13ifvqeo0","pricing_plan_id":"free"},{"bike_id":"429bff7c-9148-4883-878e-0a26a20f3342","system_id":"levelo_inurba_marseille","lat":43.273613,"lon":5.362705,"is_reserved":false,"is_disabled":false,"rental_uris":{"android":"levelo://app?vid=429bff7c-9148-4883-878e-0a26a20f3342","ios":"levelo://app?vid=429bff7c-9148-4883-878e-0a26a20f3342"},"vehicle_type_id":"4","last_reported":1683471963,"current_range_meters":23200,"station_id":"ce4bhbh2rcd13ifvqeo0","pricing_plan_id":"free"},{"bike_id":"a0a57134-e408-4715-85ff-d111e3c49cf9","system_id":"levelo_inurba_marseille","lat":43.273613,"lon":5.362705,"is_reserved":false,"is_disabled":false,"rental_uris":{"android":"levelo://app?vid=a0a57134-e408-4715-85ff-d111e3c49cf9","ios":"levelo://app?vid=a0a57134-e408-4715-85ff-d111e3c49cf9"},"vehicle_type_id":"4","last_reported":1683471963,"current_range_meters":31600,"station_id":"ce4bhbh2rcd13ifvqeo0","pricing_plan_id":"free"},{"bike_id":"0563678e-a599-4e1e-adf0-5e1f07441fa5","system_id":"levelo_inurba_marseille","lat":43.27378,"lon":5.3626,"is_reserved":false,"is_disabled":false,"rental_uris":{"android":"levelo://app?vid=0563678e-a599-4e1e-adf0-5e1f07441fa5","ios":"levelo://app?vid=0563678e-a599-4e1e-adf0-5e1f07441fa5"},"vehicle_type_id":"4","last_reported":1683471963,"current_range_meters":21600,"station_id":"ce4bhbh2rcd13ifvqeo0","pricing_plan_id":"free"},{"bike_id":"02c5b97b-c667-422c-9dc4-694d79915720","system_id":"levelo_inurba_marseille","lat":43.27378,"lon":5.36245,"is_reserved":false,"is_disabled":false,"rental_uris":{"android":"levelo://app?vid=02c5b97b-c667-422c-9dc4-694d79915720","ios":"levelo://app?vid=02c5b97b-c667-422c-9dc4-694d79915720"},"vehicle_type_id":"4","last_reported":1683471963,"current_range_meters":20400,"station_id":"","pricing_plan_id":"free"},{"bike_id":"e417f338-294c-4f4c-aad3-8c34f5d0ed01","system_id":"levelo_inurba_marseille","lat":43.273609,"lon":5.362708,"is_reserved":false,"is_disabled":false,"rental_uris":{"android":"levelo://app?vid=e417f338-294c-4f4c-aad3-8c34f5d0ed01","ios":"levelo://app?vid=e417f338-294c-4f4c-aad3-8c34f5d0ed01"},"vehicle_type_id":"4","last_reported":1683471963,"current_range_meters":31600,"station_id":"ce4bhbh2rcd13ifvqeo0","pricing_plan_id":"free"},{"bike_id":"f4f55363-ad35-445f-8e31-ec3dc4b8b803","system_id":"levelo_inurba_marseille","lat":43.273613,"lon":5.362705,"is_reserved":false,"is_disabled":false,"rental_uris":{"android":"levelo://app?vid=f4f55363-ad35-445f-8e31-ec3dc4b8b803","ios":"levelo://app?vid=f4f55363-ad35-445f-8e31-ec3dc4b8b803"},"vehicle_type_id":"4","last_reported":1683471963,"current_range_meters":7600,"station_id":"ce4bhbh2rcd13ifvqeo0","pricing_plan_id":"free"},{"bike_id":"94acedac-81db-4355-a94f-c8a8f8ebea5d","system_id":"levelo_inurba_marseille","lat":43.27377,"lon":5.36254,"is_reserved":false,"is_disabled":false,"rental_uris":{"android":"levelo://app?vid=94acedac-81db-4355-a94f-c8a8f8ebea5d","ios":"levelo://app?vid=94acedac-81db-4355-a94f-c8a8f8ebea5d"},"vehicle_type_id":"4","last_reported":1683471963,"current_range_meters":18800,"station_id":"ce4bhbh2rcd13ifvqeo0","pricing_plan_id":"free"},{"bike_id":"1b04f8fb-4d0b-452a-8aa8-a231f977040f","system_id":"levelo_inurba_marseille","lat":43.273613,"lon":5.362705,"is_reserved":false,"is_disabled":false,"rental_uris":{"android":"levelo://app?vid=1b04f8fb-4d0b-452a-8aa8-a231f977040f","ios":"levelo://app?vid=1b04f8fb-4d0b-452a-8aa8-a231f977040f"},"vehicle_type_id":"4","last_reported":1683471963,"current_range_meters":2400,"station_id":"ce4bhbh2rcd13ifvqeo0","pricing_plan_id":"free"},{"bike_id":"653856d2-a316-4397-ba3a-3a9a715524df","system_id":"levelo_inurba_marseille","lat":43.273613,"lon":5.362705,"is_reserved":false,"is_disabled":false,"rental_uris":{"android":"levelo://app?vid=653856d2-a316-4397-ba3a-3a9a715524df","ios":"levelo://app?vid=653856d2-a316-4397-ba3a-3a9a715524df"},"vehicle_type_id":"4","last_reported":1683471963,"current_range_meters":32000,"station_id":"ce4bhbh2rcd13ifvqeo0","pricing_plan_id":"free"},{"bike_id":"46f98e82-f19e-4a64-8cf3-ece2de46b88a","system_id":"levelo_inurba_marseille","lat":43.27376,"lon":5.36258,"is_reserved":false,"is_disabled":false,"rental_uris":{"android":"levelo://app?vid=46f98e82-f19e-4a64-8cf3-ece2de46b88a","ios":"levelo://app?vid=46f98e82-f19e-4a64-8cf3-ece2de46b88a"},"vehicle_type_id":"4","last_reported":1683471963,"current_range_meters":7600,"station_id":"ce4bhbh2rcd13ifvqeo0","pricing_plan_id":"free"},{"bike_id":"143e4de0-a4e2-47da-935d-f21486c263d4","system_id":"levelo_inurba_marseille","lat":43.273609,"lon":5.362708,"is_reserved":false,"is_disabled":false,"rental_uris":{"android":"levelo://app?vid=143e4de0-a4e2-47da-935d-f21486c263d4","ios":"levelo://app?vid=143e4de0-a4e2-47da-935d-f21486c263d4"},"vehicle_type_id":"4","last_reported":1683471963,"current_range_meters":24000,"station_id":"ce4bhbh2rcd13ifvqeo0","pricing_plan_id":"free"},{"bike_id":"e8a4b52d-6255-4929-bc74-1bb970698780","system_id":"levelo_inurba_marseille","lat":43.27376,"lon":5.3625,"is_reserved":false,"is_disabled":false,"rental_uris":{"android":"levelo://app?vid=e8a4b52d-6255-4929-bc74-1bb970698780","ios":"levelo://app?vid=e8a4b52d-6255-4929-bc74-1bb970698780"},"vehicle_type_id":"4","last_reported":1683471963,"current_range_meters":23600,"station_id":"ce4bhbh2rcd13ifvqeo0","pricing_plan_id":"free"},{"bike_id":"7fc97212-971e-403b-84b9-802341520ded","system_id":"levelo_inurba_marseille","lat":43.27375,"lon":5.36259,"is_reserved":false,"is_disabled":false,"rental_uris":{"android":"levelo://app?vid=7fc97212-971e-403b-84b9-802341520ded","ios":"levelo://app?vid=7fc97212-971e-403b-84b9-802341520ded"},"vehicle_type_id":"4","last_reported":1683471963,"current_range_meters":11200,"station_id":"ce4bhbh2rcd13ifvqeo0","pricing_plan_id":"free"},{"bike_id":"9c9c2adf-6f52-45c1-af30-c52fff8009ac","system_id":"levelo_inurba_marseille","lat":43.273609,"lon":5.362708,"is_reserved":false,"is_disabled":false,"rental_uris":{"android":"levelo://app?vid=9c9c2adf-6f52-45c1-af30-c52fff8009ac","ios":"levelo://app?vid=9c9c2adf-6f52-45c1-af30-c52fff8009ac"},"vehicle_type_id":"4","last_reported":1683471963,"current_range_meters":17200,"station_id":"ce4bhbh2rcd13ifvqeo0","pricing_plan_id":"free"},{"bike_id":"b7ef0d55-0f12-4f0c-8a41-7eeaebf60e43","system_id":"levelo_inurba_marseille","lat":43.273609,"lon":5.362708,"is_reserved":false,"is_disabled":false,"rental_uris":{"android":"levelo://app?vid=b7ef0d55-0f12-4f0c-8a41-7eeaebf60e43","ios":"levelo://app?vid=b7ef0d55-0f12-4f0c-8a41-7eeaebf60e43"},"vehicle_type_id":"4","last_reported":1683471963,"current_range_meters":32000,"station_id":"ce4bhbh2rcd13ifvqeo0","pricing_plan_id":"free"},{"bike_id":"46ecf642-5bd5-40f9-ab40-762c854e1619","system_id":"levelo_inurba_marseille","lat":43.273609,"lon":5.362708,"is_reserved":false,"is_disabled":false,"rental_uris":{"android":"levelo://app?vid=46ecf642-5bd5-40f9-ab40-762c854e1619","ios":"levelo://app?vid=46ecf642-5bd5-40f9-ab40-762c854e1619"},"vehicle_type_id":"4","last_reported":1683471963,"current_range_meters":18800,"station_id":"ce4bhbh2rcd13ifvqeo0","pricing_plan_id":"free"},{"bike_id":"75397f8e-036f-406b-87aa-ef05631995a0","system_id":"levelo_inurba_marseille","lat":43.273609,"lon":5.362708,"is_reserved":false,"is_disabled":false,"rental_uris":{"android":"levelo://app?vid=75397f8e-036f-406b-87aa-ef05631995a0","ios":"levelo://app?vid=75397f8e-036f-406b-87aa-ef05631995a0"},"vehicle_type_id":"4","last_reported":1683471963,"current_range_meters":20400,"station_id":"ce4bhbh2rcd13ifvqeo0","pricing_plan_id":"free"},{"bike_id":"651d3acb-8c93-4322-bd4d-132698daba0e","system_id":"levelo_inurba_marseille","lat":43.27373,"lon":5.36258,"is_reserved":false,"is_disabled":false,"rental_uris":{"android":"levelo://app?vid=651d3acb-8c93-4322-bd4d-132698daba0e","ios":"levelo://app?vid=651d3acb-8c93-4322-bd4d-132698daba0e"},"vehicle_type_id":"4","last_reported":1683471963,"current_range_meters":24000,"station_id":"ce4bhbh2rcd13ifvqeo0","pricing_plan_id":"free"},{"bike_id":"c0a2e4e6-59d1-47c8-89c1-90dc486da3aa","system_id":"levelo_inurba_marseille","lat":43.273609,"lon":5.362708,"is_reserved":false,"is_disabled":false,"rental_uris":{"android":"levelo://app?vid=c0a2e4e6-59d1-47c8-89c1-90dc486da3aa","ios":"levelo://app?vid=c0a2e4e6-59d1-47c8-89c1-90dc486da3aa"},"vehicle_type_id":"4","last_reported":1683471963,"current_range_meters":24400,"station_id":"ce4bhbh2rcd13ifvqeo0","pricing_plan_id":"free"},{"bike_id":"6352f64b-88dc-4e5b-a321-aed3bff6897b","system_id":"levelo_inurba_marseille","lat":43.273613,"lon":5.362705,"is_reserved":false,"is_disabled":false,"rental_uris":{"android":"levelo://app?vid=6352f64b-88dc-4e5b-a321-aed3bff6897b","ios":"levelo://app?vid=6352f64b-88dc-4e5b-a321-aed3bff6897b"},"vehicle_type_id":"4","last_reported":1683471963,"current_range_meters":27600,"station_id":"ce4bhbh2rcd13ifvqeo0","pricing_plan_id":"free"},{"bike_id":"3ef9f15a-8489-4721-99f3-0909d9421800","system_id":"levelo_inurba_marseille","lat":43.33612,"lon":5.410321,"is_reserved":false,"is_disabled":false,"rental_uris":{"android":"levelo://app?vid=3ef9f15a-8489-4721-99f3-0909d9421800","ios":"levelo://app?vid=3ef9f15a-8489-4721-99f3-0909d9421800"},"vehicle_type_id":"4","last_reported":1683471963,"current_range_meters":31200,"station_id":"ce4bhqh2rcd13ifvqhmg","pricing_plan_id":"free"},{"bike_id":"62ac415a-3421-4914-af26-91643ecc56a6","system_id":"levelo_inurba_marseille","lat":43.273609,"lon":5.362708,"is_reserved":false,"is_disabled":false,"rental_uris":{"android":"levelo://app?vid=62ac415a-3421-4914-af26-91643ecc56a6","ios":"levelo://app?vid=62ac415a-3421-4914-af26-91643ecc56a6"},"vehicle_type_id":"4","last_reported":1683471963,"current_range_meters":14000,"station_id":"ce4bhbh2rcd13ifvqeo0","pricing_plan_id":"free"},{"bike_id":"d6259958-66c1-4aec-afce-c50b36ad7ba2","system_id":"levelo_inurba_marseille","lat":43.273609,"lon":5.362708,"is_reserved":false,"is_disabled":false,"rental_uris":{"android":"levelo://app?vid=d6259958-66c1-4aec-afce-c50b36ad7ba2","ios":"levelo://app?vid=d6259958-66c1-4aec-afce-c50b36ad7ba2"},"vehicle_type_id":"4","last_reported":1683471963,"current_range_meters":10400,"station_id":"ce4bhbh2rcd13ifvqeo0","pricing_plan_id":"free"},{"bike_id":"6ce19521-fda2-4f00-a045-c7b635824c36","system_id":"levelo_inurba_marseille","lat":43.27367,"lon":5.36261,"is_reserved":false,"is_disabled":false,"rental_uris":{"android":"levelo://app?vid=6ce19521-fda2-4f00-a045-c7b635824c36","ios":"levelo://app?vid=6ce19521-fda2-4f00-a045-c7b635824c36"},"vehicle_type_id":"4","last_reported":1683471963,"current_range_meters":19200,"station_id":"ce4bhbh2rcd13ifvqeo0","pricing_plan_id":"free"},{"bike_id":"554d2969-a08e-4a4a-bd10-44d44cccbf0a","system_id":"levelo_inurba_marseille","lat":43.273609,"lon":5.362708,"is_reserved":false,"is_disabled":false,"rental_uris":{"android":"levelo://app?vid=554d2969-a08e-4a4a-bd10-44d44cccbf0a","ios":"levelo://app?vid=554d2969-a08e-4a4a-bd10-44d44cccbf0a"},"vehicle_type_id":"4","last_reported":1683471963,"current_range_meters":31600,"station_id":"ce4bhbh2rcd13ifvqeo0","pricing_plan_id":"free"},{"bike_id":"72f5ab97-7d43-475f-a5fb-757d4ad29eea","system_id":"levelo_inurba_marseille","lat":43.33612,"lon":5.410321,"is_reserved":false,"is_disabled":false,"rental_uris":{"android":"levelo://app?vid=72f5ab97-7d43-475f-a5fb-757d4ad29eea","ios":"levelo://app?vid=72f5ab97-7d43-475f-a5fb-757d4ad29eea"},"vehicle_type_id":"4","last_reported":1683471963,"current_range_meters":30000,"station_id":"ce4bhqh2rcd13ifvqhmg","pricing_plan_id":"free"},{"bike_id":"236e9b27-a1b6-4d9e-8d71-549c2ba15203","system_id":"levelo_inurba_marseille","lat":43.33604,"lon":5.41029,"is_reserved":false,"is_disabled":false,"rental_uris":{"android":"levelo://app?vid=236e9b27-a1b6-4d9e-8d71-549c2ba15203","ios":"levelo://app?vid=236e9b27-a1b6-4d9e-8d71-549c2ba15203"},"vehicle_type_id":"4","last_reported":1683471963,"current_range_meters":31200,"station_id":"ce4bhqh2rcd13ifvqhmg","pricing_plan_id":"free"},{"bike_id":"3cf3668d-051b-4a06-98ee-71e857ac9a3c","system_id":"levelo_inurba_marseille","lat":43.273609,"lon":5.362708,"is_reserved":false,"is_disabled":false,"rental_uris":{"android":"levelo://app?vid=3cf3668d-051b-4a06-98ee-71e857ac9a3c","ios":"levelo://app?vid=3cf3668d-051b-4a06-98ee-71e857ac9a3c"},"vehicle_type_id":"4","last_reported":1683471963,"current_range_meters":21200,"station_id":"ce4bhbh2rcd13ifvqeo0","pricing_plan_id":"free"},{"bike_id":"7ee54627-da39-4919-9a4c-9dcfb98c8742","system_id":"levelo_inurba_marseille","lat":43.273613,"lon":5.362705,"is_reserved":false,"is_disabled":false,"rental_uris":{"android":"levelo://app?vid=7ee54627-da39-4919-9a4c-9dcfb98c8742","ios":"levelo://app?vid=7ee54627-da39-4919-9a4c-9dcfb98c8742"},"vehicle_type_id":"4","last_reported":1683471963,"current_range_meters":32000,"station_id":"ce4bhbh2rcd13ifvqeo0","pricing_plan_id":"free"},{"bike_id":"cf9b8d32-8de3-4fbf-a6a2-7946f713b3fc","system_id":"levelo_inurba_marseille","lat":43.336134,"lon":5.410341,"is_reserved":false,"is_disabled":false,"rental_uris":{"android":"levelo://app?vid=cf9b8d32-8de3-4fbf-a6a2-7946f713b3fc","ios":"levelo://app?vid=cf9b8d32-8de3-4fbf-a6a2-7946f713b3fc"},"vehicle_type_id":"4","last_reported":1683471963,"current_range_meters":30000,"station_id":"ce4bhqh2rcd13ifvqhmg","pricing_plan_id":"free"},{"bike_id":"99989c12-b585-4864-af7d-b939bf15fe02","system_id":"levelo_inurba_marseille","lat":43.3361,"lon":5.41034,"is_reserved":false,"is_disabled":false,"rental_uris":{"android":"levelo://app?vid=99989c12-b585-4864-af7d-b939bf15fe02","ios":"levelo://app?vid=99989c12-b585-4864-af7d-b939bf15fe02"},"vehicle_type_id":"4","last_reported":1683471963,"current_range_meters":9600,"station_id":"ce4bhqh2rcd13ifvqhmg","pricing_plan_id":"free"},{"bike_id":"44b37b4a-46f4-4855-aa5d-43ccc935e374","system_id":"levelo_inurba_marseille","lat":43.33609,"lon":5.41036,"is_reserved":false,"is_disabled":false,"rental_uris":{"android":"levelo://app?vid=44b37b4a-46f4-4855-aa5d-43ccc935e374","ios":"levelo://app?vid=44b37b4a-46f4-4855-aa5d-43ccc935e374"},"vehicle_type_id":"4","last_reported":1683471963,"current_range_meters":30800,"station_id":"ce4bhqh2rcd13ifvqhmg","pricing_plan_id":"free"},{"bike_id":"95ec1807-f55e-42b0-bb21-c01a19862009","system_id":"levelo_inurba_marseille","lat":43.3361,"lon":5.41036,"is_reserved":false,"is_disabled":false,"rental_uris":{"android":"levelo://app?vid=95ec1807-f55e-42b0-bb21-c01a19862009","ios":"levelo://app?vid=95ec1807-f55e-42b0-bb21-c01a19862009"},"vehicle_type_id":"4","last_reported":1683471963,"current_range_meters":4400,"station_id":"ce4bhqh2rcd13ifvqhmg","pricing_plan_id":"free"},{"bike_id":"965dbbad-d3c6-4491-b5e0-6a379e022ccc","system_id":"levelo_inurba_marseille","lat":43.336134,"lon":5.410341,"is_reserved":false,"is_disabled":false,"rental_uris":{"android":"levelo://app?vid=965dbbad-d3c6-4491-b5e0-6a379e022ccc","ios":"levelo://app?vid=965dbbad-d3c6-4491-b5e0-6a379e022ccc"},"vehicle_type_id":"4","last_reported":1683471963,"current_range_meters":31200,"station_id":"ce4bhqh2rcd13ifvqhmg","pricing_plan_id":"free"},{"bike_id":"10568d38-0132-4741-8f4d-87ea571bb7e1","system_id":"levelo_inurba_marseille","lat":43.33607,"lon":5.41041,"is_reserved":false,"is_disabled":false,"rental_uris":{"android":"levelo://app?vid=10568d38-0132-4741-8f4d-87ea571bb7e1","ios":"levelo://app?vid=10568d38-0132-4741-8f4d-87ea571bb7e1"},"vehicle_type_id":"4","last_reported":1683471963,"current_range_meters":26400,"station_id":"ce4bhqh2rcd13ifvqhmg","pricing_plan_id":"free"},