{"last_updated":1686693983,"ttl":30,"version":"2.2","data":{"bikes":[{"bike_id":"a142fcc1-dd44-4e45-a4d3-f750f9811ffe","system_id":"levelo_inurba_marseille","lat":43.3122,"lon":5.36805,"is_reserved":false,"is_disabled":false,"rental_uris":{"android":"levelo://app?vid=a142fcc1-dd44-4e45-a4d3-f750f9811ffe","ios":"levelo://app?vid=a142fcc1-dd44-4e45-a4d3-f750f9811ffe"},"vehicle_type_id":"4","last_reported":1686693984,"current_range_meters":10400,"station_id":"","pricing_plan_id":"free"},{"bike_id":"806920b4-a85a-4cd8-b9df-1f4dfa292859","system_id":"levelo_inurba_marseille","lat":43.312239,"lon":5.368562,"is_reserved":false,"is_disabled":false,"rental_uris":{"android":"levelo://app?vid=806920b4-a85a-4cd8-b9df-1f4dfa292859","ios":"levelo://app?vid=806920b4-a85a-4cd8-b9df-1f4dfa292859"},"vehicle_type_id":"4","last_reported":1686693984,"current_range_meters":26800,"station_id":"ce4bgl92rcd13ifvqbq0","pricing_plan_id":"free"},{"bike_id":"844dccc3-2863-4d5e-863c-2f0b91cc2eb1","system_id":"levelo_inurba_marseille","lat":43.312239,"lon":5.368562,"is_reserved":false,"is_disabled":false,"rental_uris":{"android":"levelo://app?vid=844dccc3-2863-4d5e-863c-2f0b91cc2eb1","ios":"levelo://app?vid=844dccc3-2863-4d5e-863c-2f0b91cc2eb1"},"vehicle_type_id":"4","last_reported":1686693984,"current_range_meters":400,"station_id":"ce4bgl92rcd13ifvqbq0","pricing_plan_id":"free"},{"bike_id":"2236174f-9b48-4e77-bc47-17f9275c2cb6","system_id":"levelo_inurba_marseille","lat":43.309076,"lon":5.368465,"is_reserved":false,"is_disabled":false,"rental_uris":{"android":"levelo://app?vid=2236174f-9b48-4e77-bc47-17f9275c2cb6","ios":"levelo://app?vid=2236174f-9b48-4e77-bc47-17f9275c2cb6"},"vehicle_type_id":"4","last_reported":1686693984,"current_range_meters":400,"station_id":"ce4bgn92rcd13ifvqbvg","pricing_plan_id":"free"},{"bike_id":"5bf8b6b5-e4a6-4e54-9f23-7a2e4632bdfa","system_id":"levelo_inurba_marseille","lat":43.309076,"lon":5.368465,"is_reserved":false,"is_disabled":false,"rental_uris":{"android":"levelo://app?vid=5bf8b6b5-e4a6-4e54-9f23-7a2e4632bdfa","ios":"levelo://app?vid=5bf8b6b5-e4a6-4e54-9f23-7a2e4632bdfa"},"vehicle_type_id":"4","last_reported":1686693984,"current_range_meters":31200,"station_id":"ce4bgn92rcd13ifvqbvg","pricing_plan_id":"free"},{"bike_id":"24463b3a-9d20-461a-9c6e-36c7e856ab18","system_id":"levelo_inurba_marseille","lat":43.314811,"lon":5.373103,"is_reserved":false,"is_disabled":false,"rental_uris":{"android":"levelo://app?vid=24463b3a-9d20-461a-9c6e-36c7e856ab18","ios":"levelo://app?vid=24463b3a-9d20-461a-9c6e-36c7e856ab18"},"vehicle_type_id":"4","last_reported":1686693984,"current_range_meters":10400,"station_id":"ce4bgt12rcd13ifvqcd0","pricing_plan_id":"free"},{"bike_id":"9443bc26-1294-465a-a6ab-fca5793e1925","system_id":"levelo_inurba_marseille","lat":43.314811,"lon":5.373103,"is_reserved":false,"is_disabled":false,"rental_uris":{"android":"levelo://app?vid=9443bc26-1294-465a-a6ab-fca5793e1925","ios":"levelo://app?vid=9443bc26-1294-465a-a6ab-fca5793e1925"},"vehicle_type_id":"4","last_reported":1686693984,"current_range_meters":10400,"station_id":"ce4bgt12rcd13ifvqcd0","pricing_plan_id":"free"},{"bike_id":"e3d127ca-6c22-490f-9299-d94f496c4537","system_id":"levelo_inurba_marseille","lat":43.314811,"lon":5.373104,"is_reserved":false,"is_disabled":false,"rental_uris":{"android":"levelo://app?vid=e3d127ca-6c22-490f-9299-d94f496c4537","ios":"levelo://app?vid=e3d127ca-6c22-490f-9299-d94f496c4537"},"vehicle_type_id":"4","last_reported":1686693984,"current_range_meters":10400,"station_id":"ce4bgt12rcd13ifvqcd0","pricing_plan_id":"free"},{"bike_id":"96a5e2a2-07fd-4123-b83c-0c1ab8451967","system_id":"levelo_inurba_marseille","lat":43.308606,"lon":5.372099,"is_reserved":false,"is_disabled":false,"rental_uris":{"android":"levelo://app?vid=96a5e2a2-07fd-4123-b83c-0c1ab8451967","ios":"levelo://app?vid=96a5e2a2-07fd-4123-b83c-0c1ab8451967"},"vehicle_type_id":"4","last_reported":1686693984,"current_range_meters":20400,"station_id":"ce4bguh2rcd13ifvqckg","pricing_plan_id":"free"},{"bike_id":"62dda901-9f2c-4e6d-a3f0-25b21a66565a","system_id":"levelo_inurba_marseille","lat":43.308614,"lon":5.372098,"is_reserved":false,"is_disabled":false,"rental_uris":{"android":"levelo://app?vid=62dda901-9f2c-4e6d-a3f0-25b21a66565a","ios":"levelo://app?vid=62dda901-9f2c-4e6d-a3f0-25b21a66565a"},"vehicle_type_id":"4","last_reported":1686693984,"current_range_meters":17600,"station_id":"ce4bguh2rcd13ifvqckg","pricing_plan_id":"free"},{"bike_id":"1909005c-dd54-42f6-9507-e15af31b0f6f","system_id":"levelo_inurba_marseille","lat":43.308606,"lon":5.372099,"is_reserved":false,"is_disabled":false,"rental_uris":{"android":"levelo://app?vid=1909005c-dd54-42f6-9507-e15af31b0f6f","ios":"levelo://app?vid=1909005c-dd54-42f6-9507-e15af31b0f6f"},"vehicle_type_id":"4","last_reported":1686693984,"current_range_meters":17600,"station_id":"ce4bguh2rcd13ifvqckg","pricing_plan_id":"free"},{"bike_id":"09505246-1f4e-4b22-ab42-2ae295aaf4a8","system_id":"levelo_inurba_marseille","lat":43.308606,"lon":5.372099,"is_reserved":false,"is_disabled":false,"rental_uris":{"android":"levelo://app?vid=09505246-1f4e-4b22-ab42-2ae295aaf4a8","ios":"levelo://app?vid=09505246-1f4e-4b22-ab42-2ae295aaf4a8"},"vehicle_type_id":"4","last_reported":1686693984,"current_range_meters":0,"station_id":"ce4bguh2rcd13ifvqckg","pricing_plan_id":"free"},{"bike_id":"c8cbc4af-cad6-4c90-a655-3ed5f0b410ea","system_id":"levelo_inurba_marseille","lat":43.308614,"lon":5.372098,"is_reserved":false,"is_disabled":false,"rental_uris":{"android":"levelo://app?vid=c8cbc4af-cad6-4c90-a655-3ed5f0b410ea","ios":"levelo://app?vid=c8cbc4af-cad6-4c90-a655-3ed5f0b410ea"},"vehicle_type_id":"4","last_reported":1686693984,"current_range_meters":29600,"station_id":"ce4bguh2rcd13ifvqckg","pricing_plan_id":"free"},{"bike_id":"f8db707d-e210-4681-9a91-ac647118d893","system_id":"levelo_inurba_marseille","lat":43.308614,"lon":5.372098,"is_reserved":false,"is_disabled":false,"rental_uris":{"android":"levelo://app?vid=f8db707d-e210-4681-9a91-ac647118d893","ios":"levelo://app?vid=f8db707d-e210-4681-9a91-ac647118d893"},"vehicle_type_id":"4","last_reported":1686693984,"current_range_meters":7600,"station_id":"ce4bguh2rcd13ifvqckg","pricing_plan_id":"free"},{"bike_id":"c467708f-edb2-41e1-9886-5f26b940ab77","system_id":"levelo_inurba_marseille","lat":43.31687,"lon":5.37217,"is_reserved":false,"is_disabled":false,"rental_uris":{"android":"levelo://app?vid=c467708f-edb2-41e1-9886-5f26b940ab77","ios":"levelo://app?vid=c467708f-edb2-41e1-9886-5f26b940ab77"},"vehicle_type_id":"4","last_reported":1686693984,"current_range_meters":24800,"station_id":"","pricing_plan_id":"free"},{"bike_id":"fe52c795-9d49-4f4e-841d-8ae321a9df95","system_id":"levelo_inurba_marseille","lat":43.31085,"lon":5.37674,"is_reserved":false,"is_disabled":false,"rental_uris":{"android":"levelo://app?vid=fe52c795-9d49-4f4e-841d-8ae321a9df95","ios":"levelo://app?vid=fe52c795-9d49-4f4e-841d-8ae321a9df95"},"vehicle_type_id":"4","last_reported":1686693984,"current_range_meters":18800,"station_id":"","pricing_plan_id":"free"},{"bike_id":"76f5681c-8d7c-4b1e-812c-d50673a300b9","system_id":"levelo_inurba_marseille","lat":43.305368,"lon":5.367343,"is_reserved":false,"is_disabled":false,"rental_uris":{"android":"levelo://app?vid=76f5681c-8d7c-4b1e-812c-d50673a300b9","ios":"levelo://app?vid=76f5681c-8d7c-4b1e-812c-d50673a300b9"},"vehicle_type_id":"4","last_reported":1686693984,"current_range_meters":25200,"station_id":"ce4bgrp2rcd13ifvqc9g","pricing_plan_id":"free"},{"bike_id":"25f01d42-b32d-4e3e-b724-9b0a55e82783","system_id":"levelo_inurba_marseille","lat":43.305989,"lon":5.37225,"is_reserved":false,"is_disabled":false,"rental_uris":{"android":"levelo://app?vid=25f01d42-b32d-4e3e-b724-9b0a55e82783","ios":"levelo://app?vid=25f01d42-b32d-4e3e-b724-9b0a55e82783"},"vehicle_type_id":"4","last_reported":1686693984,"current_range_meters":31200,"station_id":"ce4bgqh2rcd13ifvqc4g","pricing_plan_id":"free"},{"bike_id":"0a52b34f-59fd-4558-8651-0b37fe8dcb6d","system_id":"levelo_inurba_marseille","lat":43.311125,"lon":5.377624,"is_reserved":false,"is_disabled":false,"rental_uris":{"android":"levelo://app?vid=0a52b34f-59fd-4558-8651-0b37fe8dcb6d","ios":"levelo://app?vid=0a52b34f-59fd-4558-8651-0b37fe8dcb6d"},"vehicle_type_id":"4","last_reported":1686693984,"current_range_meters":10800,"station_id":"ce4bgt92rcd13ifvqcg0","pricing_plan_id":"free"},{"bike_id":"4e5e994b-7014-4338-86df-43e25a53f669","system_id":"levelo_inurba_marseille","lat":43.311125,"lon":5.377624,"is_reserved":false,"is_disabled":false,"rental_uris":{"android":"levelo://app?vid=4e5e994b-7014-4338-86df-43e25a53f669","ios":"levelo://app?vid=4e5e994b-7014-4338-86df-43e25a53f669"},"vehicle_type_id":"4","last_reported":1686693984,"current_range_meters":30000,"station_id":"ce4bgt92rcd13ifvqcg0","pricing_plan_id":"free"},{"bike_id":"4a754460-fadd-46aa-8025-e29151f697b6","system_id":"levelo_inurba_marseille","lat":43.31712,"lon":5.37747,"is_reserved":false,"is_disabled":false,"rental_uris":{"android":"levelo://app?vid=4a754460-fadd-46aa-8025-e29151f697b6","ios":"levelo://app?vid=4a754460-fadd-46aa-8025-e29151f697b6"},"vehicle_type_id":"4","last_reported":1686693984,"current_range_meters":31200,"station_id":"ce4bgth2rcd13ifvqch0","pricing_plan_id":"free"},{"bike_id":"2424216c-0462-4ad0-b127-d0366c91b61c","system_id":"levelo_inurba_marseille","lat":43.3171,"lon":5.37763,"is_reserved":false,"is_disabled":false,"rental_uris":{"android":"levelo://app?vid=2424216c-0462-4ad0-b127-d0366c91b61c","ios":"levelo://app?vid=2424216c-0462-4ad0-b127-d0366c91b61c"},"vehicle_type_id":"4","last_reported":1686693984,"current_range_meters":30400,"station_id":"ce4bgth2rcd13ifvqch0","pricing_plan_id":"free"},{"bike_id":"09e2162d-8797-43ad-977d-8ed6ed96204e","system_id":"levelo_inurba_marseille","lat":43.303046,"lon":5.368981,"is_reserved":false,"is_disabled":false,"rental_uris":{"android":"levelo://app?vid=09e2162d-8797-43ad-977d-8ed6ed96204e","ios":"levelo://app?vid=09e2162d-8797-43ad-977d-8ed6ed96204e"},"vehicle_type_id":"4","last_reported":1686693984,"current_range_meters":16000,"station_id":"ce4bgqh2rcd13ifvqc5g","pricing_plan_id":"free"},{"bike_id":"3bbdee1d-a163-4e48-a405-aa01af573b12","system_id":"levelo_inurba_marseille","lat":43.30304,"lon":5.368987,"is_reserved":false,"is_disabled":false,"rental_uris":{"android":"levelo://app?vid=3bbdee1d-a163-4e48-a405-aa01af573b12","ios":"levelo://app?vid=3bbdee1d-a163-4e48-a405-aa01af573b12"},"vehicle_type_id":"4","last_reported":1686693984,"current_range_meters":27600,"station_id":"ce4bgqh2rcd13ifvqc5g","pricing_plan_id":"free"},{"bike_id":"152e5dea-4861-470e-b1d4-49a5de5c0ff2","system_id":"levelo_inurba_marseille","lat":43.315293,"lon":5.380349,"is_reserved":false,"is_disabled":false,"rental_uris":{"android":"levelo://app?vid=152e5dea-4861-470e-b1d4-49a5de5c0ff2","ios":"levelo://app?vid=152e5dea-4861-470e-b1d4-49a5de5c0ff2"},"vehicle_type_id":"4","last_reported":1686693984,"current_range_meters":7200,"station_id":"ce4bhsp2rcd13ifvqi50","pricing_plan_id":"free"},{"bike_id":"d0caa287-3e21-4548-b965-509c24cb9293","system_id":"levelo_inurba_marseille","lat":43.31527,"lon":5.38028,"is_reserved":false,"is_disabled":false,"rental_uris":{"android":"levelo://app?vid=d0caa287-3e21-4548-b965-509c24cb9293","ios":"levelo://app?vid=d0caa287-3e21-4548-b965-509c24cb9293"},"vehicle_type_id":"4","last_reported":1686693984,"current_range_meters":4000,"station_id":"ce4bhsp2rcd13ifvqi50","pricing_plan_id":"free"},{"bike_id":"0a717cde-1ac9-415c-b563-f704564cdf71","system_id":"levelo_inurba_marseille","lat":43.31537,"lon":5.38026,"is_reserved":false,"is_disabled":false,"rental_uris":{"android":"levelo://app?vid=0a717cde-1ac9-415c-b563-f704564cdf71","ios":"levelo://app?vid=0a717cde-1ac9-415c-b563-f704564cdf71"},"vehicle_type_id":"4","last_reported":1686693984,"current_range_meters":10000,"station_id":"ce4bhsp2rcd13ifvqi50","pricing_plan_id":"free"},{"bike_id":"972b2c5b-48dd-48ee-92dd-a1511407ceb2","system_id":"levelo_inurba_marseille","lat":43.315289,"lon":5.380349,"is_reserved":false,"is_disabled":false,"rental_uris":{"android":"levelo://app?vid=972b2c5b-48dd-48ee-92dd-a1511407ceb2","ios":"levelo://app?vid=972b2c5b-48dd-48ee-92dd-a1511407ceb2"},"vehicle_type_id":"4","last_reported":1686693984,"current_range_meters":20800,"station_id":"ce4bhsp2rcd13ifvqi50","pricing_plan_id":"free"},{"bike_id":"f521cccb-0871-4033-a6dd-e1868aa86a17","system_id":"levelo_inurba_marseille","lat":43.31526,"lon":5.38032,"is_reserved":false,"is_disabled":false,"rental_uris":{"android":"levelo://app?vid=f521cccb-0871-4033-a6dd-e1868aa86a17","ios":"levelo://app?vid=f521cccb-0871-4033-a6dd-e1868aa86a17"},"vehicle_type_id":"4","last_reported":1686693984,"current_range_meters":12400,"station_id":"ce4bhsp2rcd13ifvqi50","pricing_plan_id":"free"},{"bike_id":"e798f380-809e-46f1-b0a7-14d11a9dabf6","system_id":"levelo_inurba_marseille","lat":43.31525,"lon":5.38036,"is_reserved":false,"is_disabled":false,"rental_uris":{"android":"levelo://app?vid=e798f380-809e-46f1-b0a7-14d11a9dabf6","ios":"levelo://app?vid=e798f380-809e-46f1-b0a7-14d11a9dabf6"},"vehicle_type_id":"4","last_reported":1686693984,"current_range_meters":16000,"station_id":"ce4bhsp2rcd13ifvqi50","pricing_plan_id":"free"},{"bike_id":"f6abd20f-e21b-4dbe-a6bc-709e43f579cc","system_id":"levelo_inurba_marseille","lat":43.31593,"lon":5.38041,"is_reserved":false,"is_disabled":false,"rental_uris":{"android":"levelo://app?vid=f6abd20f-e21b-4dbe-a6bc-709e43f579cc","ios":"levelo://app?vid=f6abd20f-e21b-4dbe-a6bc-709e43f579cc"},"vehicle_type_id":"4","last_reported":1686693984,"current_range_meters":28800,"station_id":"","pricing_plan_id":"free"},{"bike_id":"787546df-9d06-4c7b-bbe2-9592d1224cd7","system_id":"levelo_inurba_marseille","lat":43.301939,"lon":5.366286,"is_reserved":false,"is_disabled":false,"rental_uris":{"android":"levelo://app?vid=787546df-9d06-4c7b-bbe2-9592d1224cd7","ios":"levelo://app?vid=787546df-9d06-4c7b-bbe2-9592d1224cd7"},"vehicle_type_id":"4","last_reported":1686693984,"current_range_meters":31200,"station_id":"ce4bgrh2rcd13ifvqc8g","pricing_plan_id":"free"},{"bike_id":"b24750e6-fa13-48bf-b743-e2d9c30dc884","system_id":"levelo_inurba_marseille","lat":43.301939,"lon":5.366286,"is_reserved":false,"is_disabled":false,"rental_uris":{"android":"levelo://app?vid=b24750e6-fa13-48bf-b743-e2d9c30dc884","ios":"levelo://app?vid=b24750e6-fa13-48bf-b743-e2d9c30dc884"},"vehicle_type_id":"4","last_reported":1686693984,"current_range_meters":0,"station_id":"ce4bgrh2rcd13ifvqc8g","pricing_plan_id":"free"},{"bike_id":"d3f4d128-e3e0-42f3-90d4-976936865e13","system_id":"levelo_inurba_marseille","lat":43.31837,"lon":5.37994,"is_reserved":false,"is_disabled":false,"rental_uris":{"android":"levelo://app?vid=d3f4d128-e3e0-42f3-90d4-976936865e13","ios":"levelo://app?vid=d3f4d128-e3e0-42f3-90d4-976936865e13"},"vehicle_type_id":"4","last_reported":1686693984,"current_range_meters":7200,"station_id":"","pricing_plan_id":"free"},{"bike_id":"b3eedcf5-6388-420e-abda-cc864562dea6","system_id":"levelo_inurba_marseille","lat":43.308012,"lon":5.381511,"is_reserved":false,"is_disabled":false,"rental_uris":{"android":"levelo://app?vid=b3eedcf5-6388-420e-abda-cc864562dea6","ios":"levelo://app?vid=b3eedcf5-6388-420e-abda-cc864562dea6"},"vehicle_type_id":"4","last_reported":1686693984,"current_range_meters":2400,"station_id":"ce4bgt12rcd13ifvqce0","pricing_plan_id":"free"},{"bike_id":"b7392909-6bad-439e-ac21-6a4034ad1d3a","system_id":"levelo_inurba_marseille","lat":43.30798,"lon":5.38155,"is_reserved":false,"is_disabled":false,"rental_uris":{"android":"levelo://app?vid=b7392909-6bad-439e-ac21-6a4034ad1d3a","ios":"levelo://app?vid=b7392909-6bad-439e-ac21-6a4034ad1d3a"},"vehicle_type_id":"4","last_reported":1686693984,"current_range_meters":31200,"station_id":"ce4bgt12rcd13ifvqce0","pricing_plan_id":"free"},{"bike_id":"9fee7dab-71fa-4cca-a95d-e2163133ad1c","system_id":"levelo_inurba_marseille","lat":43.304606,"lon":5.379026,"is_reserved":false,"is_disabled":false,"rental_uris":{"android":"levelo://app?vid=9fee7dab-71fa-4cca-a95d-e2163133ad1c","ios":"levelo://app?vid=9fee7dab-71fa-4cca-a95d-e2163133ad1c"},"vehicle_type_id":"4","last_reported":1686693984,"current_range_meters":25600,"station_id":"ce4bgup2rcd13ifvqcn0","pricing_plan_id":"free"},{"bike_id":"ffd76f75-3998-4004-b84a-fa39729a00f1","system_id":"levelo_inurba_marseille","lat":43.30463,"lon":5.37906,"is_reserved":false,"is_disabled":false,"rental_uris":{"android":"levelo://app?vid=ffd76f75-3998-4004-b84a-fa39729a00f1","ios":"levelo://app?vid=ffd76f75-3998-4004-b84a-fa39729a00f1"},"vehicle_type_id":"4","last_reported":1686693984,"current_range_meters":26400,"station_id":"ce4bgup2rcd13ifvqcn0","pricing_plan_id":"free"},{"bike_id":"29de536f-532d-4aa2-8823-8a42c2f07860","system_id":"levelo_inurba_marseille","lat":43.30461,"lon":5.37909,"is_reserved":false,"is_disabled":false,"rental_uris":{"android":"levelo://app?vid=29de536f-532d-4aa2-8823-8a42c2f07860","ios":"levelo://app?vid=29de536f-532d-4aa2-8823-8a42c2f07860"},"vehicle_type_id":"4","last_reported":1686693984,"current_range_meters":800,"station_id":"ce4bgup2rcd13ifvqcn0","pricing_plan_id":"free"},{"bike_id":"32827146-2d6b-4fb1-b00e-6b2f535ca544","system_id":"levelo_inurba_marseille","lat":43.30455,"lon":5.37902,"is_reserved":false,"is_disabled":false,"rental_uris":{"android":"levelo://app?vid=32827146-2d6b-4fb1-b00e-6b2f535ca544","ios":"levelo://app?vid=32827146-2d6b-4fb1-b00e-6b2f535ca544"},"vehicle_type_id":"4","last_reported":1686693984,"current_range_meters":29200,"station_id":"ce4bgup2rcd13ifvqcn0","pricing_plan_id":"free"},{"bike_id":"e5234372-8b0f-44e5-a9bf-00c2c417a54f","system_id":"levelo_inurba_marseille","lat":43.304606,"lon":5.379026,"is_reserved":false,"is_disabled":false,"rental_uris":{"android":"levelo://app?vid=e5234372-8b0f-44e5-a9bf-00c2c417a54f","ios":"levelo://app?vid=e5234372-8b0f-44e5-a9bf-00c2c417a54f"},"vehicle_type_id":"4","last_reported":1686693984,"current_range_meters":25200,"station_id":"ce4bgup2rcd13ifvqcn0","pricing_plan_id":"free"},{"bike_id":"7cf91c58-233d-47e2-884b-deb022f1c384","system_id":"levelo_inurba_marseille","lat":43.304606,"lon":5.379026,"is_reserved":false,"is_disabled":false,"rental_uris":{"android":"levelo://app?vid=7cf91c58-233d-47e2-884b-deb022f1c384","ios":"levelo://app?vid=7cf91c58-233d-47e2-884b-deb022f1c384"},"vehicle_type_id":"4","last_reported":1686693984,"current_range_meters":31200,"station_id":"ce4bgup2rcd13ifvqcn0","pricing_plan_id":"free"},{"bike_id":"7d863965-04bb-41d8-b7fc-5c4136ef118b","system_id":"levelo_inurba_marseille","lat":43.302784,"lon":5.377158,"is_reserved":false,"is_disabled":false,"rental_uris":{"android":"levelo://app?vid=7d863965-04bb-41d8-b7fc-5c4136ef118b","ios":"levelo://app?vid=7d863965-04bb-41d8-b7fc-5c4136ef118b"},"vehicle_type_id":"4","last_reported":1686693984,"current_range_meters":8800,"station_id":"ce4bguh2rcd13ifvqcj0","pricing_plan_id":"free"},{"bike_id":"e6d5f0fb-c8b3-49d7-b92d-2ef531c05609","system_id":"levelo_inurba_marseille","lat":43.30143,"lon":5.37413,"is_reserved":false,"is_disabled":false,"rental_uris":{"android":"levelo://app?vid=e6d5f0fb-c8b3-49d7-b92d-2ef531c05609","ios":"levelo://app?vid=e6d5f0fb-c8b3-49d7-b92d-2ef531c05609"},"vehicle_type_id":"4","last_reported":1686693984,"current_range_meters":29200,"station_id":"ce4bgs92rcd13ifvqcc0","pricing_plan_id":"free"},{"bike_id":"edfc63d6-3c54-4e3f-bfa5-fd9585ee064c","system_id":"levelo_inurba_marseille","lat":43.319935,"lon":5.381699,"is_reserved":false,"is_disabled":false,"rental_uris":{"android":"levelo://app?vid=edfc63d6-3c54-4e3f-bfa5-fd9585ee064c","ios":"levelo://app?vid=edfc63d6-3c54-4e3f-bfa5-fd9585ee064c"},"vehicle_type_id":"4","last_reported":1686693984,"current_range_meters":31200,"station_id":"ce4bhr12rcd13ifvqhpg","pricing_plan_id":"free"},{"bike_id":"7de29bad-bc40-4388-a98e-5a07caa7d030","system_id":"levelo_inurba_marseille","lat":43.319935,"lon":5.381699,"is_reserved":false,"is_disabled":false,"rental_uris":{"android":"levelo://app?vid=7de29bad-bc40-4388-a98e-5a07caa7d030","ios":"levelo://app?vid=7de29bad-bc40-4388-a98e-5a07caa7d030"},"vehicle_type_id":"4","last_reported":1686693984,"current_range_meters":31200,"station_id":"ce4bhr12rcd13ifvqhpg","pricing_plan_id":"free"},{"bike_id":"fa8b8364-3e16-4860-ac15-1c08bfc950e9","system_id":"levelo_inurba_marseille","lat":43.319935,"lon":5.381699,"is_reserved":false,"is_disabled":false,"rental_uris":{"android":"levelo://app?vid=fa8b8364-3e16-4860-ac15-1c08bfc950e9","ios":"levelo://app?vid=fa8b8364-3e16-4860-ac15-1c08bfc950e9"},"vehicle_type_id":"4","last_reported":1686693984,"current_range_meters":17600,"station_id":"ce4bhr12rcd13ifvqhpg","pricing_plan_id":"free"},{"bike_id":"280a1312-0149-4740-ac4d-fcfb556557f0","system_id":"levelo_inurba_marseille","lat":43.319935,"lon":5.381699,"is_reserved":false,"is_disabled":false,"rental_uris":{"android":"levelo://app?vid=280a1312-0149-4740-ac4d-fcfb556557f0","ios":"levelo://app?vid=280a1312-0149-4740-ac4d-fcfb556557f0"},"vehicle_type_id":"4","last_reported":1686693984,"current_range_meters":24400,"station_id":"ce4bhr12rcd13ifvqhpg","pricing_plan_id":"free"},{"bike_id":"692f9216-e4db-44bd-a7bb-707044154d04","system_id":"levelo_inurba_marseille","lat":43.31382,"lon":5.38472,"is_reserved":false,"is_disabled":false,"rental_uris":{"android":"levelo://app?vid=692f9216-e4db-44bd-a7bb-707044154d04","ios":"levelo://app?vid=692f9216-e4db-44bd-a7bb-707044154d04"},"vehicle_type_id":"4","last_reported":1686693984,"current_range_meters":5200,"station_id":"","pricing_plan_id":"free"},{"bike_id":"5dfcd218-f392-4759-bb60-3f3edaf26bca","system_id":"levelo_inurba_marseille","lat":43.313571,"lon":5.384829,"is_reserved":false,"is_disabled":false,"rental_uris":{"android":"levelo://app?vid=5dfcd218-f392-4759-bb60-3f3edaf26bca","ios":"levelo://app?vid=5dfcd218-f392-4759-bb60-3f3edaf26bca"},"vehicle_type_id":"4","last_reported":1686693984,"current_range_meters":7200,"station_id":"ce4bgt92rcd13ifvqcf0","pricing_plan_id":"free"},{"bike_id":"8d9e0348-b62f-46ee-8f06-11bbaac8c950","system_id":"levelo_inurba_marseille","lat":43.305364,"lon":5.384119,"is_reserved":false,"is_disabled":false,"rental_uris":{"android":"levelo://app?vid=8d9e0348-b62f-46ee-8f06-11bbaac8c950","ios":"levelo://app?vid=8d9e0348-b62f-46ee-8f06-11bbaac8c950"},"vehicle_type_id":"4","last_reported":1686693984,"current_range_meters":30800,"station_id":"ce4bgg92rcd13ifvqb30","pricing_plan_id":"free"},{"bike_id":"35112694-4213-4f5c-8670-e4443ebe5a94","system_id":"levelo_inurba_marseille","lat":43.299243,"lon":5.37481,"is_reserved":false,"is_disabled":false,"rental_uris":{"android":"levelo://app?vid=35112694-4213-4f5c-8670-e4443ebe5a94","ios":"levelo://app?vid=35112694-4213-4f5c-8670-e4443ebe5a94"},"vehicle_type_id":"4","last_reported":1686693984,"current_range_meters":0,"station_id":"ce4bgjh2rcd13ifvqbg0","pricing_plan_id":"free"},{"bike_id":"5de06d1f-02b6-46ba-aa0c-b24d26d75db5","system_id":"levelo_inurba_marseille","lat":43.299243,"lon":5.37481,"is_reserved":false,"is_disabled":false,"rental_uris":{"android":"levelo://app?vid=5de06d1f-02b6-46ba-aa0c-b24d26d75db5","ios":"levelo://app?vid=5de06d1f-02b6-46ba-aa0c-b24d26d75db5"},"vehicle_type_id":"4","last_reported":1686693984,"current_range_meters":17600,"station_id":"ce4bgjh2rcd13ifvqbg0","pricing_plan_id":"free"},{"bike_id":"0487d59f-aa5a-4b33-b2c8-a12658edf228","system_id":"levelo_inurba_marseille","lat":43.311722,"lon":5.387247,"is_reserved":false,"is_disabled":false,"rental_uris":{"android":"levelo://app?vid=0487d59f-aa5a-4b33-b2c8-a12658edf228","ios":"levelo://app?vid=0487d59f-aa5a-4b33-b2c8-a12658edf228"},"vehicle_type_id":"4","last_reported":1686693984,"current_range_meters":31200,"station_id":"ce4bgv12rcd13ifvqcp0","pricing_plan_id":"free"},{"bike_id":"1c828126-5699-4e3e-96ac-23296909aff5","system_id":"levelo_inurba_marseille","lat":43.299243,"lon":5.37481,"is_reserved":false,"is_disabled":false,"rental_uris":{"android":"levelo://app?vid=1c828126-5699-4e3e-96ac-23296909aff5","ios":"levelo://app?vid=1c828126-5699-4e3e-96ac-23296909aff5"},"vehicle_type_id":"4","last_reported":1686693984,"current_range_meters":28800,"station_id":"ce4bgjh2rcd13ifvqbg0","pricing_plan_id":"free"},{"bike_id":"1cd84885-cb42-4b4c-8192-18430e202d4c","system_id":"levelo_inurba_marseille","lat":43.311722,"lon":5.387247,"is_reserved":false,"is_disabled":false,"rental_uris":{"android":"levelo://app?vid=1cd84885-cb42-4b4c-8192-18430e202d4c","ios":"levelo://app?vid=1cd84885-cb42-4b4c-8192-18430e202d4c"},"vehicle_type_id":"4","last_reported":1686693984,"current_range_meters":17200,"station_id":"ce4bgv12rcd13ifvqcp0","pricing_plan_id":"free"},{"bike_id":"b5c7b994-5319-4d34-a135-ba431c72f997","system_id":"levelo_inurba_marseille","lat":43.297774,"lon":5.370875,"is_reserved":false,"is_disabled":false,"rental_uris":{"android":"levelo://app?vid=b5c7b994-5319-4d34-a135-ba431c72f997","ios":"levelo://app?vid=b5c7b994-5319-4d34-a135-ba431c72f997"},"vehicle_type_id":"4","last_reported":1686693984,"current_range_meters":11600,"station_id":"ce4bgop2rcd13ifvqc1g","pricing_plan_id":"free"},{"bike_id":"b008a40b-52ae-461d-9bb5-99a7bee05b7b","system_id":"levelo_inurba_marseille","lat":43.29845,"lon":5.37466,"is_reserved":false,"is_disabled":false,"rental_uris":{"android":"levelo://app?vid=b008a40b-52ae-461d-9bb5-99a7bee05b7b","ios":"levelo://app?vid=b008a40b-52ae-461d-9bb5-99a7bee05b7b"},"vehicle_type_id":"4","last_reported":1686693984,"current_range_meters":30000,"station_id":"","pricing_plan_id":"free"},{"bike_id":"276442ee-92d7-42b0-afe9-df01f0310bb8","system_id":"levelo_inurba_marseille","lat":43.328371,"lon":5.366912,"is_reserved":false,"is_disabled":false,"rental_uris":{"android":"levelo://app?vid=276442ee-92d7-42b0-afe9-df01f0310bb8","ios":"levelo://app?vid=276442ee-92d7-42b0-afe9-df01f0310bb8"},"vehicle_type_id":"4","last_reported":1686693984,"current_range_meters":22400,"station_id":"ce4bhs92rcd13ifvqi0g","pricing_plan_id":"free"},{"bike_id":"bbc9bff4-db85-4ebe-bf62-32e0de610917","system_id":"levelo_inurba_marseille","lat":43.328371,"lon":5.366912,"is_reserved":false,"is_disabled":false,"rental_uris":{"android":"levelo://app?vid=bbc9bff4-db85-4ebe-bf62-32e0de610917","ios":"levelo://app?vid=bbc9bff4-db85-4ebe-bf62-32e0de610917"},"vehicle_type_id":"4","last_reported":1686693984,"current_range_meters":29600,"station_id":"ce4bhs92rcd13ifvqi0g","pricing_plan_id":"free"},{"bike_id":"88d0330c-5bb0-4a19-9b65-d4683b42e015","system_id":"levelo_inurba_marseille","lat":43.29683,"lon":5.36046,"is_reserved":false,"is_disabled":false,"rental_uris":{"android":"levelo://app?vid=88d0330c-5bb0-4a19-9b65-d4683b42e015","ios":"levelo://app?vid=88d0330c-5bb0-4a19-9b65-d4683b42e015"},"vehicle_type_id":"4","last_reported":1686693984,"current_range_meters":20400,"station_id":"ce4bgpp2rcd13ifvqc3g","pricing_plan_id":"free"},{"bike_id":"b6175de7-fafc-43e9-b9a5-c23e9ca83710","system_id":"levelo_inurba_marseille","lat":43.2968,"lon":5.37291,"is_reserved":false,"is_disabled":false,"rental_uris":{"android":"levelo://app?vid=b6175de7-fafc-43e9-b9a5-c23e9ca83710","ios":"levelo://app?vid=b6175de7-fafc-43e9-b9a5-c23e9ca83710"},"vehicle_type_id":"4","last_reported":1686693984,"current_range_meters":28400,"station_id":"ce4bgk12rcd13ifvqbj0","pricing_plan_id":"free"},{"bike_id":"5075f3e7-232c-462e-8d99-e4f44d51784f","system_id":"levelo_inurba_marseille","lat":43.29723,"lon":5.37693,"is_reserved":false,"is_disabled":false,"rental_uris":{"android":"levelo://app?vid=5075f3e7-232c-462e-8d99-e4f44d51784f","ios":"levelo://app?vid=5075f3e7-232c-462e-8d99-e4f44d51784f"},"vehicle_type_id":"4","last_reported":1686693984,"current_range_meters":30000,"station_id":"","pricing_plan_id":"free"},{"bike_id":"4e114aab-0bd9-40cd-9043-d7fb2942fc0e","system_id":"levelo_inurba_marseille","lat":43.296921,"lon":5.376579,"is_reserved":false,"is_disabled":false,"rental_uris":{"android":"levelo://app?vid=4e114aab-0bd9-40cd-9043-d7fb2942fc0e","ios":"levelo://app?vid=4e114aab-0bd9-40cd-9043-d7fb2942fc0e"},"vehicle_type_id":"4","last_reported":1686693984,"current_range_meters":17600,"station_id":"ce4bgkh2rcd13ifvqbl0","pricing_plan_id":"free"},{"bike_id":"4128e4f9-e4b9-4956-b441-b39f82dc729d","system_id":"levelo_inurba_marseille","lat":43.317557,"lon":5.390173,"is_reserved":false,"is_disabled":false,"rental_uris":{"android":"levelo://app?vid=4128e4f9-e4b9-4956-b441-b39f82dc729d","ios":"levelo://app?vid=4128e4f9-e4b9-4956-b441-b39f82dc729d"},"vehicle_type_id":"4","last_reported":1686693984,"current_range_meters":23200,"station_id":"ce4bhqp2rcd13ifvqhng","pricing_plan_id":"free"},{"bike_id":"3aeb5edb-6189-47cd-bb49-e2a928ab8142","system_id":"levelo_inurba_marseille","lat":43.317557,"lon":5.390173,"is_reserved":false,"is_disabled":false,"rental_uris":{"android":"levelo://app?vid=3aeb5edb-6189-47cd-bb49-e2a928ab8142","ios":"levelo://app?vid=3aeb5edb-6189-47cd-bb49-e2a928ab8142"},"vehicle_type_id":"4","last_reported":1686693984,"current_range_meters":16400,"station_id":"ce4bhqp2rcd13ifvqhng","pricing_plan_id":"free"},{"bike_id":"8b8d5d4f-355b-4890-a606-e1abd1faad1f","system_id":"levelo_inurba_marseille","lat":43.317557,"lon":5.390173,"is_reserved":false,"is_disabled":false,"rental_uris":{"android":"levelo://app?vid=8b8d5d4f-355b-4890-a606-e1abd1faad1f","ios":"levelo://app?vid=8b8d5d4f-355b-4890-a606-e1abd1faad1f"},"vehicle_type_id":"4","last_reported":1686693984,"current_range_meters":30800,"station_id":"ce4bhqp2rcd13ifvqhng","pricing_plan_id":"free"},{"bike_id":"c4815757-4b82-49b1-a7fa-5c68229f4c6e","system_id":"levelo_inurba_marseille","lat":43.317557,"lon":5.390173,"is_reserved":false,"is_disabled":false,"rental_uris":{"android":"levelo://app?vid=c4815757-4b82-49b1-a7fa-5c68229f4c6e","ios":"levelo://app?vid=c4815757-4b82-49b1-a7fa-5c68229f4c6e"},"vehicle_type_id":"4","last_reported":1686693984,"current_range_meters":31200,"station_id":"ce4bhqp2rcd13ifvqhng","pricing_plan_id":"free"},{"bike_id":"c53dc16d-2429-4c8e-bb40-2e14de4412e5","system_id":"levelo_inurba_marseille","lat":43.298037,"lon":5.381066,"is_reserved":false,"is_disabled":false,"rental_uris":{"android":"levelo://app?vid=c53dc16d-2429-4c8e-bb40-2e14de4412e5","ios":"levelo://app?vid=c53dc16d-2429-4c8e-bb40-2e14de4412e5"},"vehicle_type_id":"4","last_reported":1686693984,"current_range_meters":30400,"station_id":"ce4bgip2rcd13ifvqbb0","pricing_plan_id":"free"},{"bike_id":"0cbfb058-bd23-4cd3-b7b0-be2f1e5bdfce","system_id":"levelo_inurba_marseille","lat":43.29607,"lon":5.37652,"is_reserved":false,"is_disabled":false,"rental_uris":{"android":"levelo://app?vid=0cbfb058-bd23-4cd3-b7b0-be2f1e5bdfce","ios":"levelo://app?vid=0cbfb058-bd23-4cd3-b7b0-be2f1e5bdfce"},"vehicle_type_id":"4","last_reported":1686693984,"current_range_meters":31600,"station_id":"","pricing_plan_id":"free"},{"bike_id":"322ad072-43ce-41ad-8a4f-7c89178e9bdb","system_id":"levelo_inurba_marseille","lat":43.30432,"lon":5.38898,"is_reserved":false,"is_disabled":false,"rental_uris":{"android":"levelo://app?vid=322ad072-43ce-41ad-8a4f-7c89178e9bdb","ios":"levelo://app?vid=322ad072-43ce-41ad-8a4f-7c89178e9bdb"},"vehicle_type_id":"4","last_reported":1686693984,"current_range_meters":13200,"station_id":"ce4bgk12rcd13ifvqbi0","pricing_plan_id":"free"},{"bike_id":"d15626cd-dd7d-4782-9560-3235179475ae","system_id":"levelo_inurba_marseille","lat":43.295279,"lon":5.375048,"is_reserved":false,"is_disabled":false,"rental_uris":{"android":"levelo://app?vid=d15626cd-dd7d-4782-9560-3235179475ae","ios":"levelo://app?vid=d15626cd-dd7d-4782-9560-3235179475ae"},"vehicle_type_id":"4","last_reported":1686693984,"current_range_meters":26400,"station_id":"ce4bgkp2rcd13ifvqbmg","pricing_plan_id":"free"},{"bike_id":"8fa410f5-d2ca-4de1-9500-5cf34483b0c0","system_id":"levelo_inurba_marseille","lat":43.32367,"lon":5.388836,"is_reserved":false,"is_disabled":false,"rental_uris":{"android":"levelo://app?vid=8fa410f5-d2ca-4de1-9500-5cf34483b0c0","ios":"levelo://app?vid=8fa410f5-d2ca-4de1-9500-5cf34483b0c0"},"vehicle_type_id":"4","last_reported":1686693984,"current_range_meters":24400,"station_id":"ce4bhqp2rcd13ifvqhog","pricing_plan_id":"free"},{"bike_id":"2c9ad911-25e0-4222-8751-d809dfadd582","system_id":"levelo_inurba_marseille","lat":43.32367,"lon":5.388836,"is_reserved":false,"is_disabled":false,"rental_uris":{"android":"levelo://app?vid=2c9ad911-25e0-4222-8751-d809dfadd582","ios":"levelo://app?vid=2c9ad911-25e0-4222-8751-d809dfadd582"},"vehicle_type_id":"4","last_reported":1686693984,"current_range_meters":18800,"station_id":"ce4bhqp2rcd13ifvqhog","pricing_plan_id":"free"},{"bike_id":"af5b164a-9a2d-47d1-95a9-20b0c3a09788","system_id":"levelo_inurba_marseille","lat":43.3236,"lon":5.38884,"is_reserved":false,"is_disabled":false,"rental_uris":{"android":"levelo://app?vid=af5b164a-9a2d-47d1-95a9-20b0c3a09788","ios":"levelo://app?vid=af5b164a-9a2d-47d1-95a9-20b0c3a09788"},"vehicle_type_id":"4","last_reported":1686693984,"current_range_meters":31200,"station_id":"ce4bhqp2rcd13ifvqhog","pricing_plan_id":"free"},{"bike_id":"c5cd0f6c-8309-4e42-80e9-0a1a5e67f832","system_id":"levelo_inurba_marseille","lat":43.32366,"lon":5.38879,"is_reserved":false,"is_disabled":false,"rental_uris":{"android":"levelo://app?vid=c5cd0f6c-8309-4e42-80e9-0a1a5e67f832","ios":"levelo://app?vid=c5cd0f6c-8309-4e42-80e9-0a1a5e67f832"},"vehicle_type_id":"4","last_reported":1686693984,"current_range_meters":4400,"station_id":"ce4bhqp2rcd13ifvqhog","pricing_plan_id":"free"},{"bike_id":"d06456ec-a075-49ef-88a6-a611e3db32cf","system_id":"levelo_inurba_marseille","lat":43.32363,"lon":5.38882,"is_reserved":false,"is_disabled":false,"rental_uris":{"android":"levelo://app?vid=d06456ec-a075-49ef-88a6-a611e3db32cf","ios":"levelo://app?vid=d06456ec-a075-49ef-88a6-a611e3db32cf"},"vehicle_type_id":"4","last_reported":1686693984,"current_range_meters":21600,"station_id":"ce4bhqp2rcd13ifvqhog","pricing_plan_id":"free"},{"bike_id":"c249ee5d-650e-45b1-accb-7ac50e94d326","system_id":"levelo_inurba_marseille","lat":43.32367,"lon":5.38881,"is_reserved":false,"is_disabled":false,"rental_uris":{"android":"levelo://app?vid=c249ee5d-650e-45b1-accb-7ac50e94d326","ios":"levelo://app?vid=c249ee5d-650e-45b1-accb-7ac50e94d326"},"vehicle_type_id":"4","last_reported":1686693984,"current_range_meters":23600,"station_id":"ce4bhqp2rcd13ifvqhog","pricing_plan_id":"free"},{"bike_id":"84a08174-fce2-43c3-b175-57cb52176f14","system_id":"levelo_inurba_marseille","lat":43.32367,"lon":5.388836,"is_reserved":false,"is_disabled":false,"rental_uris":{"android":"levelo://app?vid=84a08174-fce2-43c3-b175-57cb52176f14","ios":"levelo://app?vid=84a08174-fce2-43c3-b175-57cb52176f14"},"vehicle_type_id":"4","last_reported":1686693984,"current_range_meters":26000,"station_id":"ce4bhqp2rcd13ifvqhog","pricing_plan_id":"free"},{"bike_id":"43374d09-36db-4572-803d-06dcf60b579e","system_id":"levelo_inurba_marseille","lat":43.32368,"lon":5.38883,"is_reserved":false,"is_disabled":false,"rental_uris":{"android":"levelo://app?vid=43374d09-36db-4572-803d-06dcf60b579e","ios":"levelo://app?vid=43374d09-36db-4572-803d-06dcf60b579e"},"vehicle_type_id":"4","last_reported":1686693984,"current_range_meters":19200,"station_id":"ce4bhqp2rcd13ifvqhog","pricing_plan_id":"free"},{"bike_id":"9e180c5c-91fc-4587-8495-7ba64110359b","system_id":"levelo_inurba_marseille","lat":43.32367,"lon":5.388836,"is_reserved":false,"is_disabled":false,"rental_uris":{"android":"levelo://app?vid=9e180c5c-91fc-4587-8495-7ba64110359b","ios":"levelo://app?vid=9e180c5c-91fc-4587-8495-7ba64110359b"},"vehicle_type_id":"4","last_reported":1686693984,"current_range_meters":12000,"station_id":"ce4bhqp2rcd13ifvqhog","pricing_plan_id":"free"},{"bike_id":"557e6f19-b01f-4da5-9a61-f16ab3863897","system_id":"levelo_inurba_marseille","lat":43.29543,"lon":5.3814,"is_reserved":false,"is_disabled":false,"rental_uris":{"android":"levelo://app?vid=557e6f19-b01f-4da5-9a61-f16ab3863897","ios":"levelo://app?vid=557e6f19-b01f-4da5-9a61-f16ab3863897"},"vehicle_type_id":"4","last_reported":1686693984,"current_range_meters":0,"station_id":"","pricing_plan_id":"free"},{"bike_id":"e3a6d9dc-6efa-48d8-a4de-77488058be60","system_id":"levelo_inurba_marseille","lat":43.305994,"lon":5.393687,"is_reserved":false,"is_disabled":false,"rental_uris":{"android":"levelo://app?vid=e3a6d9dc-6efa-48d8-a4de-77488058be60","ios":"levelo://app?vid=e3a6d9dc-6efa-48d8-a4de-77488058be60"},"vehicle_type_id":"4","last_reported":1686693984,"current_range_meters":9200,"station_id":"ce4bh0p2rcd13ifvqd80","pricing_plan_id":"free"},{"bike_id":"074f0e9f-48af-43e7-962a-a376361dde1e","system_id":"levelo_inurba_marseille","lat":43.305994,"lon":5.393687,"is_reserved":false,"is_disabled":false,"rental_uris":{"android":"levelo://app?vid=074f0e9f-48af-43e7-962a-a376361dde1e","ios":"levelo://app?vid=074f0e9f-48af-43e7-962a-a376361dde1e"},"vehicle_type_id":"4","last_reported":1686693984,"current_range_meters":23200,"station_id":"ce4bh0p2rcd13ifvqd80","pricing_plan_id":"free"},{"bike_id":"d82482ec-792b-419a-b937-e867713f3dba","system_id":"levelo_inurba_marseille","lat":43.293009,"lon":5.374584,"is_reserved":false,"is_disabled":false,"rental_uris":{"android":"levelo://app?vid=d82482ec-792b-419a-b937-e867713f3dba","ios":"levelo://app?vid=d82482ec-792b-419a-b937-e867713f3dba"},"vehicle_type_id":"4","last_reported":1686693984,"current_range_meters":29600,"station_id":"ce4bgi12rcd13ifvqb70","pricing_plan_id":"free"},{"bike_id":"63e971f1-3fdd-401e-88b1-f27c39f77e97","system_id":"levelo_inurba_marseille","lat":43.29563,"lon":5.38296,"is_reserved":false,"is_disabled":false,"rental_uris":{"android":"levelo://app?vid=63e971f1-3fdd-401e-88b1-f27c39f77e97","ios":"levelo://app?vid=63e971f1-3fdd-401e-88b1-f27c39f77e97"},"vehicle_type_id":"4","last_reported":1686693984,"current_range_meters":4400,"station_id":"","pricing_plan_id":"free"},{"bike_id":"3302cc13-4f46-47d0-b5ba-cf7745f96918","system_id":"levelo_inurba_marseille","lat":43.2936,"lon":5.37835,"is_reserved":false,"is_disabled":false,"rental_uris":{"android":"levelo://app?vid=3302cc13-4f46-47d0-b5ba-cf7745f96918","ios":"levelo://app?vid=3302cc13-4f46-47d0-b5ba-cf7745f96918"},"vehicle_type_id":"4","last_reported":1686693984,"current_range_meters":800,"station_id":"ce4bgjh2rcd13ifvqbf0","pricing_plan_id":"free"},{"bike_id":"9509ad3d-cbf9-4665-98ac-4d4ecb6aa669","system_id":"levelo_inurba_marseille","lat":43.31024,"lon":5.39556,"is_reserved":false,"is_disabled":false,"rental_uris":{"android":"levelo://app?vid=9509ad3d-cbf9-4665-98ac-4d4ecb6aa669","ios":"levelo://app?vid=9509ad3d-cbf9-4665-98ac-4d4ecb6aa669"},"vehicle_type_id":"4","last_reported":1686693984,"current_range_meters":2800,"station_id":"","pricing_plan_id":"free"},{"bike_id":"283bc49d-571d-4529-9dee-c7c433f616b1","system_id":"levelo_inurba_marseille","lat":43.292311,"lon":5.360731,"is_reserved":false,"is_disabled":false,"rental_uris":{"android":"levelo://app?vid=283bc49d-571d-4529-9dee-c7c433f616b1","ios":"levelo://app?vid=283bc49d-571d-4529-9dee-c7c433f616b1"},"vehicle_type_id":"4","last_reported":1686693984,"current_range_meters":20400,"station_id":"ce4bhbh2rcd13ifvqeqg","pricing_plan_id":"free"},{"bike_id":"56748aa6-6652-49be-87b6-bf9745ad1c6d","system_id":"levelo_inurba_marseille","lat":43.29217,"lon":5.36052,"is_reserved":false,"is_disabled":false,"rental_uris":{"android":"levelo://app?vid=56748aa6-6652-49be-87b6-bf9745ad1c6d","ios":"levelo://app?vid=56748aa6-6652-49be-87b6-bf9745ad1c6d"},"vehicle_type_id":"4","last_reported":1686693984,"current_range_meters":31200,"station_id":"ce4bhbh2rcd13ifvqeqg","pricing_plan_id":"free"},{"bike_id":"c9ca12a9-20b6-4deb-b996-7eff6c4d6d94","system_id":"levelo_inurba_marseille","lat":43.309038,"lon":5.396546,"is_reserved":false,"is_disabled":false,"rental_uris":{"android":"levelo://app?vid=c9ca12a9-20b6-4deb-b996-7eff6c4d6d94","ios":"levelo://app?vid=c9ca12a9-20b6-4deb-b996-7eff6c4d6d94"},"vehicle_type_id":"4","last_reported":1686693984,"current_range_meters":3600,"station_id":"ce4bh012rcd13ifvqcv0","pricing_plan_id":"free"},{"bike_id":"05d7730b-6eda-40c6-a595-6ed891207c31","system_id":"levelo_inurba_marseille","lat":43.309038,"lon":5.396546,"is_reserved":false,"is_disabled":false,"rental_uris":{"android":"levelo://app?vid=05d7730b-6eda-40c6-a595-6ed891207c31","ios":"levelo://app?vid=05d7730b-6eda-40c6-a595-6ed891207c31"},"vehicle_type_id":"4","last_reported":1686693984,"current_range_meters":10800,"station_id":"ce4bh012rcd13ifvqcv0","pricing_plan_id":"free"},{"bike_id":"684a77bd-6ba4-4abd-8bb7-ab171fd2e497","system_id":"levelo_inurba_marseille","lat":43.309038,"lon":5.396546,"is_reserved":false,"is_disabled":false,"rental_uris":{"android":"levelo://app?vid=684a77bd-6ba4-4abd-8bb7-ab171fd2e497","ios":"levelo://app?vid=684a77bd-6ba4-4abd-8bb7-ab171fd2e497"},"vehicle_type_id":"4","last_reported":1686693984,"current_range_meters":19600,"station_id":"ce4bh012rcd13ifvqcv0","pricing_plan_id":"free"},{"bike_id":"05ed5723-83d0-41ea-be60-46a379fcab4e","system_id":"levelo_inurba_marseille","lat":43.3133,"lon":5.39684,"is_reserved":false,"is_disabled":false,"rental_uris":{"android":"levelo://app?vid=05ed5723-83d0-41ea-be60-46a379fcab4e","ios":"levelo://app?vid=05ed5723-83d0-41ea-be60-46a379fcab4e"},"vehicle_type_id":"4","last_reported":1686693984,"current_range_meters":31200,"station_id":"ce4bgvp2rcd13ifvqcu0","pricing_plan_id":"free"},{"bike_id":"f796e77d-0e52-4364-935f-9ce9f8bd1f02","system_id":"levelo_inurba_marseille","lat":43.29193,"lon":5.35792,"is_reserved":false,"is_disabled":false,"rental_uris":{"android":"levelo://app?vid=f796e77d-0e52-4364-935f-9ce9f8bd1f02","ios":"levelo://app?vid=f796e77d-0e52-4364-935f-9ce9f8bd1f02"},"vehicle_type_id":"4","last_reported":1686693984,"current_range_meters":24800,"station_id":"ce4bhb12rcd13ifvqel0","pricing_plan_id":"free"},{"bike_id":"41a30313-e044-4fd7-abdc-780d9412a075","system_id":"levelo_inurba_marseille","lat":43.313291,"lon":5.396838,"is_reserved":false,"is_disabled":false,"rental_uris":{"android":"levelo://app?vid=41a30313-e044-4fd7-abdc-780d9412a075","ios":"levelo://app?vid=41a30313-e044-4fd7-abdc-780d9412a075"},"vehicle_type_id":"4","last_reported":1686693984,"current_range_meters":9600,"station_id":"ce4bgvp2rcd13ifvqcu0","pricing_plan_id":"free"},{"bike_id":"6308dc0a-a727-4f06-9c4c-6120a815485d","system_id":"levelo_inurba_marseille","lat":43.309038,"lon":5.396546,"is_reserved":false,"is_disabled":false,"rental_uris":{"android":"levelo://app?vid=6308dc0a-a727-4f06-9c4c-6120a815485d","ios":"levelo://app?vid=6308dc0a-a727-4f06-9c4c-6120a815485d"},"vehicle_type_id":"4","last_reported":1686693984,"current_range_meters":3600,"station_id":"ce4bh012rcd13ifvqcv0","pricing_plan_id":"free"},{"bike_id":"08161066-584b-42db-9ab6-07331d7189ec","system_id":"levelo_inurba_marseille","lat":43.31326,"lon":5.39693,"is_reserved":false,"is_disabled":false,"rental_uris":{"android":"levelo://app?vid=08161066-584b-42db-9ab6-07331d7189ec","ios":"levelo://app?vid=08161066-584b-42db-9ab6-07331d7189ec"},"vehicle_type_id":"4","last_reported":1686693984,"current_range_meters":30800,"station_id":"ce4bgvp2rcd13ifvqcu0","pricing_plan_id":"free"},{"bike_id":"d9a85817-4661-4a47-9bd4-6e653164227a","system_id":"levelo_inurba_marseille","lat":43.309038,"lon":5.396546,"is_reserved":false,"is_disabled":false,"rental_uris":{"android":"levelo://app?vid=d9a85817-4661-4a47-9bd4-6e653164227a","ios":"levelo://app?vid=d9a85817-4661-4a47-9bd4-6e653164227a"},"vehicle_type_id":"4","last_reported":1686693984,"current_range_meters":20000,"station_id":"ce4bh012rcd13ifvqcv0","pricing_plan_id":"free"},{"bike_id":"2b3756f0-4810-4703-9bed-c86270cfaac9","system_id":"levelo_inurba_marseille","lat":43.309038,"lon":5.396546,"is_reserved":false,"is_disabled":false,"rental_uris":{"android":"levelo://app?vid=2b3756f0-4810-4703-9bed-c86270cfaac9","ios":"levelo://app?vid=2b3756f0-4810-4703-9bed-c86270cfaac9"},"vehicle_type_id":"4","last_reported":1686693984,"current_range_meters":18000,"station_id":"ce4bh012rcd13ifvqcv0","pricing_plan_id":"free"},{"bike_id":"958e9a77-a698-4163-a914-1576f56d52de","system_id":"levelo_inurba_marseille","lat":43.309038,"lon":5.396546,"is_reserved":false,"is_disabled":false,"rental_uris":{"android":"levelo://app?vid=958e9a77-a698-4163-a914-1576f56d52de","ios":"levelo://app?vid=958e9a77-a698-4163-a914-1576f56d52de"},"vehicle_type_id":"4","last_reported":1686693984,"current_range_meters":4000,"station_id":"ce4bh012rcd13ifvqcv0","pricing_plan_id":"free"},{"bike_id":"f0bf0cc4-916b-493b-9952-0a6e0028d0b0","system_id":"levelo_inurba_marseille","lat":43.290779,"lon":5.371482,"is_reserved":false,"is_disabled":false,"rental_uris":{"android":"levelo://app?vid=f0bf0cc4-916b-493b-9952-0a6e0028d0b0","ios":"levelo://app?vid=f0bf0cc4-916b-493b-9952-0a6e0028d0b0"},"vehicle_type_id":"4","last_reported":1686693984,"current_range_meters":16400,"station_id":"ce4bh5p2rcd13ifvqe4g","pricing_plan_id":"free"},{"bike_id":"9cfa26fd-e87a-4ad2-a907-bd3939e85a6e","system_id":"levelo_inurba_marseille","lat":43.290779,"lon":5.371482,"is_reserved":false,"is_disabled":false,"rental_uris":{"android":"levelo://app?vid=9cfa26fd-e87a-4ad2-a907-bd3939e85a6e","ios":"levelo://app?vid=9cfa26fd-e87a-4ad2-a907-bd3939e85a6e"},"vehicle_type_id":"4","last_reported":1686693984,"current_range_meters":7200,"station_id":"ce4bh5p2rcd13ifvqe4g","pricing_plan_id":"free"},{"bike_id":"da6dea1b-2068-4363-a9bd-feab2205206d","system_id":"levelo_inurba_marseille","lat":43.290779,"lon":5.371482,"is_reserved":false,"is_disabled":false,"rental_uris":{"android":"levelo://app?vid=da6dea1b-2068-4363-a9bd-feab2205206d","ios":"levelo://app?vid=da6dea1b-2068-4363-a9bd-feab2205206d"},"vehicle_type_id":"4","last_reported":1686693984,"current_range_meters":21600,"station_id":"ce4bh5p2rcd13ifvqe4g","pricing_plan_id":"free"},{"bike_id":"9800ff29-d53d-446f-8449-1764bc42acdd","system_id":"levelo_inurba_marseille","lat":43.302008,"lon":5.394694,"is_reserved":false,"is_disabled":false,"rental_uris":{"android":"levelo://app?vid=9800ff29-d53d-446f-8449-1764bc42acdd","ios":"levelo://app?vid=9800ff29-d53d-446f-8449-1764bc42acdd"},"vehicle_type_id":"4","last_reported":1686693984,"current_range_meters":18400,"station_id":"ce4bh0p2rcd13ifvqd70","pricing_plan_id":"free"},{"bike_id":"d1feed0e-38ea-482f-9389-2fc5d3dec766","system_id":"levelo_inurba_marseille","lat":43.290631,"lon":5.359244,"is_reserved":false,"is_disabled":false,"rental_uris":{"android":"levelo://app?vid=d1feed0e-38ea-482f-9389-2fc5d3dec766","ios":"levelo://app?vid=d1feed0e-38ea-482f-9389-2fc5d3dec766"},"vehicle_type_id":"4","last_reported":1686693984,"current_range_meters":30800,"station_id":"ce4bha92rcd13ifvqeg0","pricing_plan_id":"free"},{"bike_id":"dbffd2e2-2567-4643-9b83-1350431f1d1f","system_id":"levelo_inurba_marseille","lat":43.290631,"lon":5.359244,"is_reserved":false,"is_disabled":false,"rental_uris":{"android":"levelo://app?vid=dbffd2e2-2567-4643-9b83-1350431f1d1f","ios":"levelo://app?vid=dbffd2e2-2567-4643-9b83-1350431f1d1f"},"vehicle_type_id":"4","last_reported":1686693984,"current_range_meters":6400,"station_id":"ce4bha92rcd13ifvqeg0","pricing_plan_id":"free"},{"bike_id":"f1c9134f-679f-4c58-ac36-90c2e6422a46","system_id":"levelo_inurba_marseille","lat":43.290631,"lon":5.359244,"is_reserved":false,"is_disabled":false,"rental_uris":{"android":"levelo://app?vid=f1c9134f-679f-4c58-ac36-90c2e6422a46","ios":"levelo://app?vid=f1c9134f-679f-4c58-ac36-90c2e6422a46"},"vehicle_type_id":"4","last_reported":1686693984,"current_range_meters":31200,"station_id":"ce4bha92rcd13ifvqeg0","pricing_plan_id":"free"},{"bike_id":"81308eaa-2f27-4b7c-a557-e72d16b2441e","system_id":"levelo_inurba_marseille","lat":43.290631,"lon":5.359244,"is_reserved":false,"is_disabled":false,"rental_uris":{"android":"levelo://app?vid=81308eaa-2f27-4b7c-a557-e72d16b2441e","ios":"levelo://app?vid=81308eaa-2f27-4b7c-a557-e72d16b2441e"},"vehicle_type_id":"4","last_reported":1686693984,"current_range_meters":31200,"station_id":"ce4bha92rcd13ifvqeg0","pricing_plan_id":"free"},{"bike_id":"d843a63b-3642-4c45-a30b-2d92f3f6f169","system_id":"levelo_inurba_marseille","lat":43.294153,"lon":5.386305,"is_reserved":false,"is_disabled":false,"rental_uris":{"android":"levelo://app?vid=d843a63b-3642-4c45-a30b-2d92f3f6f169","ios":"levelo://app?vid=d843a63b-3642-4c45-a30b-2d92f3f6f169"},"vehicle_type_id":"4","last_reported":1686693984,"current_range_meters":20400,"station_id":"ce4bh2h2rcd13ifvqdh0","pricing_plan_id":"free"},{"bike_id":"e2eedda6-689c-4830-8638-e4a3b5934f87","system_id":"levelo_inurba_marseille","lat":43.29025,"lon":5.37551,"is_reserved":false,"is_disabled":false,"rental_uris":{"android":"levelo://app?vid=e2eedda6-689c-4830-8638-e4a3b5934f87","ios":"levelo://app?vid=e2eedda6-689c-4830-8638-e4a3b5934f87"},"vehicle_type_id":"4","last_reported":1686693984,"current_range_meters":27200,"station_id":"ce4bh692rcd13ifvqe90","pricing_plan_id":"free"},{"bike_id":"ec49189f-0ac1-402b-a90d-933df7d7238d","system_id":"levelo_inurba_marseille","lat":43.29024,"lon":5.3755,"is_reserved":false,"is_disabled":false,"rental_uris":{"android":"levelo://app?vid=ec49189f-0ac1-402b-a90d-933df7d7238d","ios":"levelo://app?vid=ec49189f-0ac1-402b-a90d-933df7d7238d"},"vehicle_type_id":"4","last_reported":1686693984,"current_range_meters":31200,"station_id":"ce4bh692rcd13ifvqe90","pricing_plan_id":"free"},{"bike_id":"0a4beee8-1d0b-40b6-a628-dd56857f4693","system_id":"levelo_inurba_marseille","lat":43.294032,"lon":5.386342,"is_reserved":false,"is_disabled":false,"rental_uris":{"android":"levelo://app?vid=0a4beee8-1d0b-40b6-a628-dd56857f4693","ios":"levelo://app?vid=0a4beee8-1d0b-40b6-a628-dd56857f4693"},"vehicle_type_id":"4","last_reported":1686693984,"current_range_meters":10800,"station_id":"","pricing_plan_id":"free"},{"bike_id":"174d29b5-2826-47ab-b29f-753a1368e69f","system_id":"levelo_inurba_marseille","lat":43.289468,"lon":5.363719,"is_reserved":false,"is_disabled":false,"rental_uris":{"android":"levelo://app?vid=174d29b5-2826-47ab-b29f-753a1368e69f","ios":"levelo://app?vid=174d29b5-2826-47ab-b29f-753a1368e69f"},"vehicle_type_id":"4","last_reported":1686693984,"current_range_meters":13200,"station_id":"ce4bhc92rcd13ifvqetg","pricing_plan_id":"free"},{"bike_id":"307aab8d-36e9-467b-b861-31745051d9ad","system_id":"levelo_inurba_marseille","lat":43.304274,"lon":5.397513,"is_reserved":false,"is_disabled":false,"rental_uris":{"android":"levelo://app?vid=307aab8d-36e9-467b-b861-31745051d9ad","ios":"levelo://app?vid=307aab8d-36e9-467b-b861-31745051d9ad"},"vehicle_type_id":"4","last_reported":1686693984,"current_range_meters":11600,"station_id":"ce4bh092rcd13ifvqd20","pricing_plan_id":"free"},{"bike_id":"ab274843-a5d4-4621-974a-449eb67c8d09","system_id":"levelo_inurba_marseille","lat":43.289468,"lon":5.363719,"is_reserved":false,"is_disabled":false,"rental_uris":{"android":"levelo://app?vid=ab274843-a5d4-4621-974a-449eb67c8d09","ios":"levelo://app?vid=ab274843-a5d4-4621-974a-449eb67c8d09"},"vehicle_type_id":"4","last_reported":1686693984,"current_range_meters":22400,"station_id":"ce4bhc92rcd13ifvqetg","pricing_plan_id":"free"},{"bike_id":"dd8c3534-3045-4745-b902-cd3019aeb47d","system_id":"levelo_inurba_marseille","lat":43.304296,"lon":5.397513,"is_reserved":false,"is_disabled":false,"rental_uris":{"android":"levelo://app?vid=dd8c3534-3045-4745-b902-cd3019aeb47d","ios":"levelo://app?vid=dd8c3534-3045-4745-b902-cd3019aeb47d"},"vehicle_type_id":"4","last_reported":1686693984,"current_range_meters":27200,"station_id":"ce4bh092rcd13ifvqd20","pricing_plan_id":"free"},{"bike_id":"70da9056-7929-4fc0-9171-6481b903aa48","system_id":"levelo_inurba_marseille","lat":43.304296,"lon":5.397513,"is_reserved":false,"is_disabled":false,"rental_uris":{"android":"levelo://app?vid=70da9056-7929-4fc0-9171-6481b903aa48","ios":"levelo://app?vid=70da9056-7929-4fc0-9171-6481b903aa48"},"vehicle_type_id":"4","last_reported":1686693984,"current_range_meters":24800,"station_id":"ce4bh092rcd13ifvqd20","pricing_plan_id":"free"},{"bike_id":"1db28555-9494-45eb-827a-33923a1754c9","system_id":"levelo_inurba_marseille","lat":43.304296,"lon":5.397513,"is_reserved":false,"is_disabled":false,"rental_uris":{"android":"levelo://app?vid=1db28555-9494-45eb-827a-33923a1754c9","ios":"levelo://app?vid=1db28555-9494-45eb-827a-33923a1754c9"},"vehicle_type_id":"4","last_reported":1686693984,"current_range_meters":0,"station_id":"ce4bh092rcd13ifvqd20","pricing_plan_id":"free"},{"bike_id":"4eeb2b9c-2157-4a54-b0d9-b5925a776444","system_id":"levelo_inurba_marseille","lat":43.33043,"lon":5.38921,"is_reserved":false,"is_disabled":false,"rental_uris":{"android":"levelo://app?vid=4eeb2b9c-2157-4a54-b0d9-b5925a776444","ios":"levelo://app?vid=4eeb2b9c-2157-4a54-b0d9-b5925a776444"},"vehicle_type_id":"4","last_reported":1686693984,"current_range_meters":7600,"station_id":"ce4bhr92rcd13ifvqhrg","pricing_plan_id":"free"},{"bike_id":"5a7ba833-8fae-4414-b58f-dabd0cd9afa6","system_id":"levelo_inurba_marseille","lat":43.33043,"lon":5.38922,"is_reserved":false,"is_disabled":false,"rental_uris":{"android":"levelo://app?vid=5a7ba833-8fae-4414-b58f-dabd0cd9afa6","ios":"levelo://app?vid=5a7ba833-8fae-4414-b58f-dabd0cd9afa6"},"vehicle_type_id":"4","last_reported":1686693984,"current_range_meters":12400,"station_id":"ce4bhr92rcd13ifvqhrg","pricing_plan_id":"free"},{"bike_id":"484131ff-4e8c-4419-8b19-4edb863810c6","system_id":"levelo_inurba_marseille","lat":43.290995,"lon":5.381361,"is_reserved":false,"is_disabled":false,"rental_uris":{"android":"levelo://app?vid=484131ff-4e8c-4419-8b19-4edb863810c6","ios":"levelo://app?vid=484131ff-4e8c-4419-8b19-4edb863810c6"},"vehicle_type_id":"4","last_reported":1686693984,"current_range_meters":7200,"station_id":"ce4bh512rcd13ifvqe2g","pricing_plan_id":"free"},{"bike_id":"dd071e87-cd74-4352-9b1a-fa97c60a7f85","system_id":"levelo_inurba_marseille","lat":43.290995,"lon":5.381361,"is_reserved":false,"is_disabled":false,"rental_uris":{"android":"levelo://app?vid=dd071e87-cd74-4352-9b1a-fa97c60a7f85","ios":"levelo://app?vid=dd071e87-cd74-4352-9b1a-fa97c60a7f85"},"vehicle_type_id":"4","last_reported":1686693984,"current_range_meters":31200,"station_id":"ce4bh512rcd13ifvqe2g","pricing_plan_id":"free"},{"bike_id":"9992b870-74a1-499e-a2c9-95ef13e8c76c","system_id":"levelo_inurba_marseille","lat":43.290995,"lon":5.381361,"is_reserved":false,"is_disabled":false,"rental_uris":{"android":"levelo://app?vid=9992b870-74a1-499e-a2c9-95ef13e8c76c","ios":"levelo://app?vid=9992b870-74a1-499e-a2c9-95ef13e8c76c"},"vehicle_type_id":"4","last_reported":1686693984,"current_range_meters":31200,"station_id":"ce4bh512rcd13ifvqe2g","pricing_plan_id":"free"},{"bike_id":"91b37924-f066-400e-8633-fdec175c205a","system_id":"levelo_inurba_marseille","lat":43.297814,"lon":5.393513,"is_reserved":false,"is_disabled":false,"rental_uris":{"android":"levelo://app?vid=91b37924-f066-400e-8633-fdec175c205a","ios":"levelo://app?vid=91b37924-f066-400e-8633-fdec175c205a"},"vehicle_type_id":"4","last_reported":1686693984,"current_range_meters":9200,"station_id":"chh1huq6cuj3fo74tm60","pricing_plan_id":"free"},{"bike_id":"7a8ee1d0-0cf9-4ced-aea6-17bc4447d478","system_id":"levelo_inurba_marseille","lat":43.29525,"lon":5.39029,"is_reserved":false,"is_disabled":false,"rental_uris":{"android":"levelo://app?vid=7a8ee1d0-0cf9-4ced-aea6-17bc4447d478","ios":"levelo://app?vid=7a8ee1d0-0cf9-4ced-aea6-17bc4447d478"},"vehicle_type_id":"4","last_reported":1686693984,"current_range_meters":28000,"station_id":"ce4bh3p2rcd13ifvqdp0","pricing_plan_id":"free"},{"bike_id":"6df556cd-fd1f-4922-9879-f0aa7fd331b1","system_id":"levelo_inurba_marseille","lat":43.295169,"lon":5.390426,"is_reserved":false,"is_disabled":false,"rental_uris":{"android":"levelo://app?vid=6df556cd-fd1f-4922-9879-f0aa7fd331b1","ios":"levelo://app?vid=6df556cd-fd1f-4922-9879-f0aa7fd331b1"},"vehicle_type_id":"4","last_reported":1686693984,"current_range_meters":9600,"station_id":"ce4bh3p2rcd13ifvqdp0","pricing_plan_id":"free"},{"bike_id":"72c50093-54fe-4e41-95f6-201eec65f8e9","system_id":"levelo_inurba_marseille","lat":43.289741,"lon":5.378306,"is_reserved":false,"is_disabled":false,"rental_uris":{"android":"levelo://app?vid=72c50093-54fe-4e41-95f6-201eec65f8e9","ios":"levelo://app?vid=72c50093-54fe-4e41-95f6-201eec65f8e9"},"vehicle_type_id":"4","last_reported":1686693984,"current_range_meters":4000,"station_id":"ce4bh9p2rcd13ifvqed0","pricing_plan_id":"free"},{"bike_id":"26a6a618-7a1a-41e9-a80c-7c388284f19c","system_id":"levelo_inurba_marseille","lat":43.289741,"lon":5.378306,"is_reserved":false,"is_disabled":false,"rental_uris":{"android":"levelo://app?vid=26a6a618-7a1a-41e9-a80c-7c388284f19c","ios":"levelo://app?vid=26a6a618-7a1a-41e9-a80c-7c388284f19c"},"vehicle_type_id":"4","last_reported":1686693984,"current_range_meters":30800,"station_id":"ce4bh9p2rcd13ifvqed0","pricing_plan_id":"free"},{"bike_id":"d8cac411-fd58-46dd-8500-8dd16dd0473b","system_id":"levelo_inurba_marseille","lat":43.297814,"lon":5.393513,"is_reserved":false,"is_disabled":false,"rental_uris":{"android":"levelo://app?vid=d8cac411-fd58-46dd-8500-8dd16dd0473b","ios":"levelo://app?vid=d8cac411-fd58-46dd-8500-8dd16dd0473b"},"vehicle_type_id":"4","last_reported":1686693984,"current_range_meters":0,"station_id":"chh1huq6cuj3fo74tm60","pricing_plan_id":"free"},{"bike_id":"8d00fd40-ee50-4fdf-a7cc-c5c22e44958c","system_id":"levelo_inurba_marseille","lat":43.295169,"lon":5.390426,"is_reserved":false,"is_disabled":false,"rental_uris":{"android":"levelo://app?vid=8d00fd40-ee50-4fdf-a7cc-c5c22e44958c","ios":"levelo://app?vid=8d00fd40-ee50-4fdf-a7cc-c5c22e44958c"},"vehicle_type_id":"4","last_reported":1686693984,"current_range_meters":26800,"station_id":"ce4bh3p2rcd13ifvqdp0","pricing_plan_id":"free"},{"bike_id":"1d2572a2-8bde-4785-92ed-a9f747e72557","system_id":"levelo_inurba_marseille","lat":43.29025,"lon":5.38131,"is_reserved":false,"is_disabled":false,"rental_uris":{"android":"levelo://app?vid=1d2572a2-8bde-4785-92ed-a9f747e72557","ios":"levelo://app?vid=1d2572a2-8bde-4785-92ed-a9f747e72557"},"vehicle_type_id":"4","last_reported":1686693984,"current_range_meters":30800,"station_id":"ce4bh4p2rcd13ifvqe1g","pricing_plan_id":"free"},{"bike_id":"e5fc1550-e0af-4fe0-a79a-67ada5f5e336","system_id":"levelo_inurba_marseille","lat":43.2901,"lon":5.381269,"is_reserved":false,"is_disabled":false,"rental_uris":{"android":"levelo://app?vid=e5fc1550-e0af-4fe0-a79a-67ada5f5e336","ios":"levelo://app?vid=e5fc1550-e0af-4fe0-a79a-67ada5f5e336"},"vehicle_type_id":"4","last_reported":1686693984,"current_range_meters":24400,"station_id":"ce4bh4p2rcd13ifvqe1g","pricing_plan_id":"free"},{"bike_id":"6f69a972-37d9-4cfe-af0e-a08c2cf48616","system_id":"levelo_inurba_marseille","lat":43.2901,"lon":5.381269,"is_reserved":false,"is_disabled":false,"rental_uris":{"android":"levelo://app?vid=6f69a972-37d9-4cfe-af0e-a08c2cf48616","ios":"levelo://app?vid=6f69a972-37d9-4cfe-af0e-a08c2cf48616"},"vehicle_type_id":"4","last_reported":1686693984,"current_range_meters":30000,"station_id":"ce4bh4p2rcd13ifvqe1g","pricing_plan_id":"free"},{"bike_id":"4695f899-d742-476a-8ef2-fa76ceae833b","system_id":"levelo_inurba_marseille","lat":43.290094,"lon":5.381264,"is_reserved":false,"is_disabled":false,"rental_uris":{"android":"levelo://app?vid=4695f899-d742-476a-8ef2-fa76ceae833b","ios":"levelo://app?vid=4695f899-d742-476a-8ef2-fa76ceae833b"},"vehicle_type_id":"4","last_reported":1686693984,"current_range_meters":13200,"station_id":"ce4bh4p2rcd13ifvqe1g","pricing_plan_id":"free"},{"bike_id":"3420799a-7848-4aa5-a14d-7f2e9dc469d5","system_id":"levelo_inurba_marseille","lat":43.28856,"lon":5.358371,"is_reserved":false,"is_disabled":false,"rental_uris":{"android":"levelo://app?vid=3420799a-7848-4aa5-a14d-7f2e9dc469d5","ios":"levelo://app?vid=3420799a-7848-4aa5-a14d-7f2e9dc469d5"},"vehicle_type_id":"4","last_reported":1686693984,"current_range_meters":28800,"station_id":"ce4bhb12rcd13ifvqem0","pricing_plan_id":"free"},{"bike_id":"fc652af6-9432-4eb9-9623-50b5f12ef732","system_id":"levelo_inurba_marseille","lat":43.28856,"lon":5.358371,"is_reserved":false,"is_disabled":false,"rental_uris":{"android":"levelo://app?vid=fc652af6-9432-4eb9-9623-50b5f12ef732","ios":"levelo://app?vid=fc652af6-9432-4eb9-9623-50b5f12ef732"},"vehicle_type_id":"4","last_reported":1686693984,"current_range_meters":7600,"station_id":"ce4bhb12rcd13ifvqem0","pricing_plan_id":"free"},{"bike_id":"ae4ff1a3-f98d-436a-9c38-d66a1cbe7da1","system_id":"levelo_inurba_marseille","lat":43.28856,"lon":5.358371,"is_reserved":false,"is_disabled":false,"rental_uris":{"android":"levelo://app?vid=ae4ff1a3-f98d-436a-9c38-d66a1cbe7da1","ios":"levelo://app?vid=ae4ff1a3-f98d-436a-9c38-d66a1cbe7da1"},"vehicle_type_id":"4","last_reported":1686693984,"current_range_meters":800,"station_id":"ce4bhb12rcd13ifvqem0","pricing_plan_id":"free"},{"bike_id":"d6b64b61-efe7-4cb7-9e35-c1d2ba69c6c0","system_id":"levelo_inurba_marseille","lat":43.2885,"lon":5.35837,"is_reserved":false,"is_disabled":false,"rental_uris":{"android":"levelo://app?vid=d6b64b61-efe7-4cb7-9e35-c1d2ba69c6c0","ios":"levelo://app?vid=d6b64b61-efe7-4cb7-9e35-c1d2ba69c6c0"},"vehicle_type_id":"4","last_reported":1686693984,"current_range_meters":24400,"station_id":"ce4bhb12rcd13ifvqem0","pricing_plan_id":"free"},{"bike_id":"6485b115-9dfe-4b29-b1e3-d3afd704a8be","system_id":"levelo_inurba_marseille","lat":43.337317,"lon":5.374437,"is_reserved":false,"is_disabled":false,"rental_uris":{"android":"levelo://app?vid=6485b115-9dfe-4b29-b1e3-d3afd704a8be","ios":"levelo://app?vid=6485b115-9dfe-4b29-b1e3-d3afd704a8be"},"vehicle_type_id":"4","last_reported":1686693984,"current_range_meters":28400,"station_id":"","pricing_plan_id":"free"},{"bike_id":"9041827f-5ddc-4d02-88a2-c6763cc179fa","system_id":"levelo_inurba_marseille","lat":43.30622,"lon":5.40043,"is_reserved":false,"is_disabled":false,"rental_uris":{"android":"levelo://app?vid=9041827f-5ddc-4d02-88a2-c6763cc179fa","ios":"levelo://app?vid=9041827f-5ddc-4d02-88a2-c6763cc179fa"},"vehicle_type_id":"4","last_reported":1686693984,"current_range_meters":13200,"station_id":"","pricing_plan_id":"free"},{"bike_id":"c0fb8083-e02d-4dec-b1b9-fa095e6c5b75","system_id":"levelo_inurba_marseille","lat":43.337396,"lon":5.374526,"is_reserved":false,"is_disabled":false,"rental_uris":{"android":"levelo://app?vid=c0fb8083-e02d-4dec-b1b9-fa095e6c5b75","ios":"levelo://app?vid=c0fb8083-e02d-4dec-b1b9-fa095e6c5b75"},"vehicle_type_id":"4","last_reported":1686693984,"current_range_meters":11200,"station_id":"ce4bhp92rcd13ifvqhag","pricing_plan_id":"free"},{"bike_id":"ea03c79d-f315-40db-8e1e-c8c7f4d4a21b","system_id":"levelo_inurba_marseille","lat":43.33745,"lon":5.37441,"is_reserved":false,"is_disabled":false,"rental_uris":{"android":"levelo://app?vid=ea03c79d-f315-40db-8e1e-c8c7f4d4a21b","ios":"levelo://app?vid=ea03c79d-f315-40db-8e1e-c8c7f4d4a21b"},"vehicle_type_id":"4","last_reported":1686693984,"current_range_meters":28800,"station_id":"","pricing_plan_id":"free"},{"bike_id":"8f440815-a07e-4aa0-bf70-c2ee19475f95","system_id":"levelo_inurba_marseille","lat":43.281044,"lon":5.378308,"is_reserved":false,"is_disabled":false,"rental_uris":{"android":"levelo://app?vid=8f440815-a07e-4aa0-bf70-c2ee19475f95","ios":"levelo://app?vid=8f440815-a07e-4aa0-bf70-c2ee19475f95"},"vehicle_type_id":"4","last_reported":1686693984,"current_range_meters":1600,"station_id":"ce4bha12rcd13ifvqee0","pricing_plan_id":"free"},{"bike_id":"e7d05964-6d0f-43d9-b86a-e39d44d0ed67","system_id":"levelo_inurba_marseille","lat":43.309371,"lon":5.401449,"is_reserved":false,"is_disabled":false,"rental_uris":{"android":"levelo://app?vid=e7d05964-6d0f-43d9-b86a-e39d44d0ed67","ios":"levelo://app?vid=e7d05964-6d0f-43d9-b86a-e39d44d0ed67"},"vehicle_type_id":"4","last_reported":1686693984,"current_range_meters":31200,"station_id":"ce4bgvp2rcd13ifvqct0","pricing_plan_id":"free"},{"bike_id":"a731bbdd-f59f-4647-9d97-b39963d2ac1b","system_id":"levelo_inurba_marseille","lat":43.33749,"lon":5.37446,"is_reserved":false,"is_disabled":false,"rental_uris":{"android":"levelo://app?vid=a731bbdd-f59f-4647-9d97-b39963d2ac1b","ios":"levelo://app?vid=a731bbdd-f59f-4647-9d97-b39963d2ac1b"},"vehicle_type_id":"4","last_reported":1686693984,"current_range_meters":29600,"station_id":"","pricing_plan_id":"free"},{"bike_id":"bc2160ce-d82f-4091-92b8-753a5390acfa","system_id":"levelo_inurba_marseille","lat":43.30642,"lon":5.401031,"is_reserved":false,"is_disabled":false,"rental_uris":{"android":"levelo://app?vid=bc2160ce-d82f-4091-92b8-753a5390acfa","ios":"levelo://app?vid=bc2160ce-d82f-4091-92b8-753a5390acfa"},"vehicle_type_id":"4","last_reported":1686693984,"current_range_meters":30000,"station_id":"ce4bh112rcd13ifvqda0","pricing_plan_id":"free"},{"bike_id":"acce9be2-e8fd-4174-b0df-43811d7cabb6","system_id":"levelo_inurba_marseille","lat":43.30642,"lon":5.401031,"is_reserved":false,"is_disabled":false,"rental_uris":{"android":"levelo://app?vid=acce9be2-e8fd-4174-b0df-43811d7cabb6","ios":"levelo://app?vid=acce9be2-e8fd-4174-b0df-43811d7cabb6"},"vehicle_type_id":"4","last_reported":1686693984,"current_range_meters":23600,"station_id":"ce4bh112rcd13ifvqda0","pricing_plan_id":"free"},{"bike_id":"b54d7825-53c3-4d57-b48f-bc67877c2517","system_id":"levelo_inurba_marseille","lat":43.337628,"lon":5.374598,"is_reserved":false,"is_disabled":false,"rental_uris":{"android":"levelo://app?vid=b54d7825-53c3-4d57-b48f-bc67877c2517","ios":"levelo://app?vid=b54d7825-53c3-4d57-b48f-bc67877c2517"},"vehicle_type_id":"4","last_reported":1686693984,"current_range_meters":30400,"station_id":"","pricing_plan_id":"free"},{"bike_id":"255efd53-4ffa-4680-820c-f7fce34a603a","system_id":"levelo_inurba_marseille","lat":43.30642,"lon":5.401031,"is_reserved":false,"is_disabled":false,"rental_uris":{"android":"levelo://app?vid=255efd53-4ffa-4680-820c-f7fce34a603a","ios":"levelo://app?vid=255efd53-4ffa-4680-820c-f7fce34a603a"},"vehicle_type_id":"4","last_reported":1686693984,"current_range_meters":18000,"station_id":"ce4bh112rcd13ifvqda0","pricing_plan_id":"free"},{"bike_id":"bd3f63b1-f571-4147-a7e4-3cbc2c2c0312","system_id":"levelo_inurba_marseille","lat":43.30642,"lon":5.401031,"is_reserved":false,"is_disabled":false,"rental_uris":{"android":"levelo://app?vid=bd3f63b1-f571-4147-a7e4-3cbc2c2c0312","ios":"levelo://app?vid=bd3f63b1-f571-4147-a7e4-3cbc2c2c0312"},"vehicle_type_id":"4","last_reported":1686693984,"current_range_meters":30400,"station_id":"ce4bh112rcd13ifvqda0","pricing_plan_id":"free"},{"bike_id":"588e34a7-ba7a-48c7-91de-0e47ded90344","system_id":"levelo_inurba_marseille","lat":43.33763,"lon":5.37469,"is_reserved":false,"is_disabled":false,"rental_uris":{"android":"levelo://app?vid=588e34a7-ba7a-48c7-91de-0e47ded90344","ios":"levelo://app?vid=588e34a7-ba7a-48c7-91de-0e47ded90344"},"vehicle_type_id":"4","last_reported":1686693984,"current_range_meters":30000,"station_id":"","pricing_plan_id":"free"},{"bike_id":"681b5e5f-2eb5-4535-a08d-f4d14eb2a74e","system_id":"levelo_inurba_marseille","lat":43.309371,"lon":5.401449,"is_reserved":false,"is_disabled":false,"rental_uris":{"android":"levelo://app?vid=681b5e5f-2eb5-4535-a08d-f4d14eb2a74e","ios":"levelo://app?vid=681b5e5f-2eb5-4535-a08d-f4d14eb2a74e"},"vehicle_type_id":"4","last_reported":1686693984,"current_range_meters":31200,"station_id":"ce4bgvp2rcd13ifvqct0","pricing_plan_id":"free"},{"bike_id":"efe75e5d-5e85-403f-abe4-7c7d26b29f0a","system_id":"levelo_inurba_marseille","lat":43.30642,"lon":5.401031,"is_reserved":false,"is_disabled":false,"rental_uris":{"android":"levelo://app?vid=efe75e5d-5e85-403f-abe4-7c7d26b29f0a","ios":"levelo://app?vid=efe75e5d-5e85-403f-abe4-7c7d26b29f0a"},"vehicle_type_id":"4","last_reported":1686693984,"current_range_meters":23200,"station_id":"ce4bh112rcd13ifvqda0","pricing_plan_id":"free"},{"bike_id":"b6d595eb-b61d-4fb5-a56f-11d4040c6d80","system_id":"levelo_inurba_marseille","lat":43.30642,"lon":5.401031,"is_reserved":false,"is_disabled":false,"rental_uris":{"android":"levelo://app?vid=b6d595eb-b61d-4fb5-a56f-11d4040c6d80","ios":"levelo://app?vid=b6d595eb-b61d-4fb5-a56f-11d4040c6d80"},"vehicle_type_id":"4","last_reported":1686693984,"current_range_meters":6800,"station_id":"ce4bh112rcd13ifvqda0","pricing_plan_id":"free"},{"bike_id":"a819448b-d733-448d-96d0-47299d34086d","system_id":"levelo_inurba_marseille","lat":43.301117,"lon":5.398795,"is_reserved":false,"is_disabled":false,"rental_uris":{"android":"levelo://app?vid=a819448b-d733-448d-96d0-47299d34086d","ios":"levelo://app?vid=a819448b-d733-448d-96d0-47299d34086d"},"vehicle_type_id":"4","last_reported":1686693984,"current_range_meters":25600,"station_id":"ce4bh0h2rcd13ifvqd40","pricing_plan_id":"free"},{"bike_id":"db77e620-88de-49e0-9448-66d6345f3eef","system_id":"levelo_inurba_marseille","lat":43.286591,"lon":5.363346,"is_reserved":false,"is_disabled":false,"rental_uris":{"android":"levelo://app?vid=db77e620-88de-49e0-9448-66d6345f3eef","ios":"levelo://app?vid=db77e620-88de-49e0-9448-66d6345f3eef"},"vehicle_type_id":"4","last_reported":1686693984,"current_range_meters":22400,"station_id":"ce4bhah2rcd13ifvqej0","pricing_plan_id":"free"},{"bike_id":"6a82b819-12b2-4a05-9144-0fbf1cfd3484","system_id":"levelo_inurba_marseille","lat":43.286591,"lon":5.363346,"is_reserved":false,"is_disabled":false,"rental_uris":{"android":"levelo://app?vid=6a82b819-12b2-4a05-9144-0fbf1cfd3484","ios":"levelo://app?vid=6a82b819-12b2-4a05-9144-0fbf1cfd3484"},"vehicle_type_id":"4","last_reported":1686693984,"current_range_meters":18400,"station_id":"ce4bhah2rcd13ifvqej0","pricing_plan_id":"free"},{"bike_id":"2e91ec29-5c5e-454a-9a07-dbf6081de96a","system_id":"levelo_inurba_marseille","lat":43.298681,"lon":5.397225,"is_reserved":false,"is_disabled":false,"rental_uris":{"android":"levelo://app?vid=2e91ec29-5c5e-454a-9a07-dbf6081de96a","ios":"levelo://app?vid=2e91ec29-5c5e-454a-9a07-dbf6081de96a"},"vehicle_type_id":"4","last_reported":1686693984,"current_range_meters":24400,"station_id":"ce4bh0h2rcd13ifvqd50","pricing_plan_id":"free"},{"bike_id":"5d3de7d3-b04f-487c-a7ae-45bb6dd1817f","system_id":"levelo_inurba_marseille","lat":43.286591,"lon":5.363346,"is_reserved":false,"is_disabled":false,"rental_uris":{"android":"levelo://app?vid=5d3de7d3-b04f-487c-a7ae-45bb6dd1817f","ios":"levelo://app?vid=5d3de7d3-b04f-487c-a7ae-45bb6dd1817f"},"vehicle_type_id":"4","last_reported":1686693984,"current_range_meters":21600,"station_id":"ce4bhah2rcd13ifvqej0","pricing_plan_id":"free"},{"bike_id":"3bf49429-9727-4c24-af9c-062e9e9b1546","system_id":"levelo_inurba_marseille","lat":43.298681,"lon":5.397225,"is_reserved":false,"is_disabled":false,"rental_uris":{"android":"levelo://app?vid=3bf49429-9727-4c24-af9c-062e9e9b1546","ios":"levelo://app?vid=3bf49429-9727-4c24-af9c-062e9e9b1546"},"vehicle_type_id":"4","last_reported":1686693984,"current_range_meters":18400,"station_id":"ce4bh0h2rcd13ifvqd50","pricing_plan_id":"free"},{"bike_id":"103287c6-4d51-4b4e-931d-42be4bac375c","system_id":"levelo_inurba_marseille","lat":43.28703,"lon":5.37395,"is_reserved":false,"is_disabled":false,"rental_uris":{"android":"levelo://app?vid=103287c6-4d51-4b4e-931d-42be4bac375c","ios":"levelo://app?vid=103287c6-4d51-4b4e-931d-42be4bac375c"},"vehicle_type_id":"4","last_reported":1686693984,"current_range_meters":18800,"station_id":"","pricing_plan_id":"free"},{"bike_id":"4be5dcf8-abb9-4ab4-b59f-540cd5199675","system_id":"levelo_inurba_marseille","lat":43.286591,"lon":5.363346,"is_reserved":false,"is_disabled":false,"rental_uris":{"android":"levelo://app?vid=4be5dcf8-abb9-4ab4-b59f-540cd5199675","ios":"levelo://app?vid=4be5dcf8-abb9-4ab4-b59f-540cd5199675"},"vehicle_type_id":"4","last_reported":1686693984,"current_range_meters":28000,"station_id":"ce4bhah2rcd13ifvqej0","pricing_plan_id":"free"},{"bike_id":"a7105e77-4086-40ea-addd-a715a28be212","system_id":"levelo_inurba_marseille","lat":43.286591,"lon":5.363346,"is_reserved":false,"is_disabled":false,"rental_uris":{"android":"levelo://app?vid=a7105e77-4086-40ea-addd-a715a28be212","ios":"levelo://app?vid=a7105e77-4086-40ea-addd-a715a28be212"},"vehicle_type_id":"4","last_reported":1686693984,"current_range_meters":26000,"station_id":"ce4bhah2rcd13ifvqej0","pricing_plan_id":"free"},{"bike_id":"5142db6e-6700-468e-8974-ee164a9db9f0","system_id":"levelo_inurba_marseille","lat":43.286591,"lon":5.363346,"is_reserved":false,"is_disabled":false,"rental_uris":{"android":"levelo://app?vid=5142db6e-6700-468e-8974-ee164a9db9f0","ios":"levelo://app?vid=5142db6e-6700-468e-8974-ee164a9db9f0"},"vehicle_type_id":"4","last_reported":1686693984,"current_range_meters":25200,"station_id":"ce4bhah2rcd13ifvqej0","pricing_plan_id":"free"},{"bike_id":"0166d14d-130f-4e84-a441-a16724dc32fc","system_id":"levelo_inurba_marseille","lat":43.298681,"lon":5.397225,"is_reserved":false,"is_disabled":false,"rental_uris":{"android":"levelo://app?vid=0166d14d-130f-4e84-a441-a16724dc32fc","ios":"levelo://app?vid=0166d14d-130f-4e84-a441-a16724dc32fc"},"vehicle_type_id":"4","last_reported":1686693984,"current_range_meters":26400,"station_id":"ce4bh0h2rcd13ifvqd50","pricing_plan_id":"free"},{"bike_id":"4fae6ba7-4f07-42b6-af8f-934e9e93529c","system_id":"levelo_inurba_marseille","lat":43.29859,"lon":5.39741,"is_reserved":false,"is_disabled":false,"rental_uris":{"android":"levelo://app?vid=4fae6ba7-4f07-42b6-af8f-934e9e93529c","ios":"levelo://app?vid=4fae6ba7-4f07-42b6-af8f-934e9e93529c"},"vehicle_type_id":"4","last_reported":1686693984,"current_range_meters":0,"station_id":"ce4bh0h2rcd13ifvqd50","pricing_plan_id":"free"},{"bike_id":"65ed1c70-36f8-4e4e-b56a-3ea05c3f81c5","system_id":"levelo_inurba_marseille","lat":43.298681,"lon":5.397225,"is_reserved":false,"is_disabled":false,"rental_uris":{"android":"levelo://app?vid=65ed1c70-36f8-4e4e-b56a-3ea05c3f81c5","ios":"levelo://app?vid=65ed1c70-36f8-4e4e-b56a-3ea05c3f81c5"},"vehicle_type_id":"4","last_reported":1686693984,"current_range_meters":31200,"station_id":"ce4bh0h2rcd13ifvqd50","pricing_plan_id":"free"},{"bike_id":"d91eb5bd-4a55-4db5-857c-7e83a021332a","system_id":"levelo_inurba_marseille","lat":43.295194,"lon":5.39397,"is_reserved":false,"is_disabled":false,"rental_uris":{"android":"levelo://app?vid=d91eb5bd-4a55-4db5-857c-7e83a021332a","ios":"levelo://app?vid=d91eb5bd-4a55-4db5-857c-7e83a021332a"},"vehicle_type_id":"4","last_reported":1686693984,"current_range_meters":1600,"station_id":"ce4bh292rcd13ifvqdf0","pricing_plan_id":"free"},{"bike_id":"cd70af16-dfb0-45b6-b662-b63b7483edcc","system_id":"levelo_inurba_marseille","lat":43.295196,"lon":5.39397,"is_reserved":false,"is_disabled":false,"rental_uris":{"android":"levelo://app?vid=cd70af16-dfb0-45b6-b662-b63b7483edcc","ios":"levelo://app?vid=cd70af16-dfb0-45b6-b662-b63b7483edcc"},"vehicle_type_id":"4","last_reported":1686693984,"current_range_meters":26400,"station_id":"ce4bh292rcd13ifvqdf0","pricing_plan_id":"free"},{"bike_id":"fd71e435-62cf-47c7-9cf3-355d4d1afdff","system_id":"levelo_inurba_marseille","lat":43.302759,"lon":5.400793,"is_reserved":false,"is_disabled":false,"rental_uris":{"android":"levelo://app?vid=fd71e435-62cf-47c7-9cf3-355d4d1afdff","ios":"levelo://app?vid=fd71e435-62cf-47c7-9cf3-355d4d1afdff"},"vehicle_type_id":"4","last_reported":1686693984,"current_range_meters":20800,"station_id":"ce4bgvh2rcd13ifvqcs0","pricing_plan_id":"free"},{"bike_id":"8c48f0d5-076d-4441-9af6-ce520a035d67","system_id":"levelo_inurba_marseille","lat":43.290336,"lon":5.386425,"is_reserved":false,"is_disabled":false,"rental_uris":{"android":"levelo://app?vid=8c48f0d5-076d-4441-9af6-ce520a035d67","ios":"levelo://app?vid=8c48f0d5-076d-4441-9af6-ce520a035d67"},"vehicle_type_id":"4","last_reported":1686693984,"current_range_meters":26400,"station_id":"ce4bh4p2rcd13ifvqe0g","pricing_plan_id":"free"},{"bike_id":"98e2dd51-8551-4726-9ea2-5fa4d18ceb59","system_id":"levelo_inurba_marseille","lat":43.290336,"lon":5.386425,"is_reserved":false,"is_disabled":false,"rental_uris":{"android":"levelo://app?vid=98e2dd51-8551-4726-9ea2-5fa4d18ceb59","ios":"levelo://app?vid=98e2dd51-8551-4726-9ea2-5fa4d18ceb59"},"vehicle_type_id":"4","last_reported":1686693984,"current_range_meters":29200,"station_id":"ce4bh4p2rcd13ifvqe0g","pricing_plan_id":"free"},{"bike_id":"a6f04e58-93e3-40f8-9bcc-0ece4a643e42","system_id":"levelo_inurba_marseille","lat":43.302759,"lon":5.400793,"is_reserved":false,"is_disabled":false,"rental_uris":{"android":"levelo://app?vid=a6f04e58-93e3-40f8-9bcc-0ece4a643e42","ios":"levelo://app?vid=a6f04e58-93e3-40f8-9bcc-0ece4a643e42"},"vehicle_type_id":"4","last_reported":1686693984,"current_range_meters":1200,"station_id":"ce4bgvh2rcd13ifvqcs0","pricing_plan_id":"free"},{"bike_id":"83a011fd-86ce-419f-8da2-8df9d78c3989","system_id":"levelo_inurba_marseille","lat":43.286039,"lon":5.370681,"is_reserved":false,"is_disabled":false,"rental_uris":{"android":"levelo://app?vid=83a011fd-86ce-419f-8da2-8df9d78c3989","ios":"levelo://app?vid=83a011fd-86ce-419f-8da2-8df9d78c3989"},"vehicle_type_id":"4","last_reported":1686693984,"current_range_meters":12000,"station_id":"ce4bht12rcd13ifvqi60","pricing_plan_id":"free"},{"bike_id":"a7f81aec-7604-4b22-b094-1e8e6c69274b","system_id":"levelo_inurba_marseille","lat":43.286039,"lon":5.370681,"is_reserved":false,"is_disabled":false,"rental_uris":{"android":"levelo://app?vid=a7f81aec-7604-4b22-b094-1e8e6c69274b","ios":"levelo://app?vid=a7f81aec-7604-4b22-b094-1e8e6c69274b"},"vehicle_type_id":"4","last_reported":1686693984,"current_range_meters":30800,"station_id":"ce4bht12rcd13ifvqi60","pricing_plan_id":"free"},{"bike_id":"7842330c-4553-4cad-a200-676e4858220f","system_id":"levelo_inurba_marseille","lat":43.287184,"lon":5.37937,"is_reserved":false,"is_disabled":false,"rental_uris":{"android":"levelo://app?vid=7842330c-4553-4cad-a200-676e4858220f","ios":"levelo://app?vid=7842330c-4553-4cad-a200-676e4858220f"},"vehicle_type_id":"4","last_reported":1686693984,"current_range_meters":11600,"station_id":"ce4bh9p2rcd13ifvqec0","pricing_plan_id":"free"},{"bike_id":"4118a5d1-8d26-469c-83ee-edc0614b5f32","system_id":"levelo_inurba_marseille","lat":43.287184,"lon":5.37937,"is_reserved":false,"is_disabled":false,"rental_uris":{"android":"levelo://app?vid=4118a5d1-8d26-469c-83ee-edc0614b5f32","ios":"levelo://app?vid=4118a5d1-8d26-469c-83ee-edc0614b5f32"},"vehicle_type_id":"4","last_reported":1686693984,"current_range_meters":12400,"station_id":"ce4bh9p2rcd13ifvqec0","pricing_plan_id":"free"},{"bike_id":"7a243aef-7b52-434a-a484-401bcbf161af","system_id":"levelo_inurba_marseille","lat":43.316517,"lon":5.404375,"is_reserved":false,"is_disabled":false,"rental_uris":{"android":"levelo://app?vid=7a243aef-7b52-434a-a484-401bcbf161af","ios":"levelo://app?vid=7a243aef-7b52-434a-a484-401bcbf161af"},"vehicle_type_id":"4","last_reported":1686693984,"current_range_meters":1200,"station_id":"ce4bh012rcd13ifvqd00","pricing_plan_id":"free"},{"bike_id":"7e74506f-8fd8-4957-8d6e-5372dc24778e","system_id":"levelo_inurba_marseille","lat":43.31647,"lon":5.40437,"is_reserved":false,"is_disabled":false,"rental_uris":{"android":"levelo://app?vid=7e74506f-8fd8-4957-8d6e-5372dc24778e","ios":"levelo://app?vid=7e74506f-8fd8-4957-8d6e-5372dc24778e"},"vehicle_type_id":"4","last_reported":1686693984,"current_range_meters":1600,"station_id":"ce4bh012rcd13ifvqd00","pricing_plan_id":"free"},{"bike_id":"58ad9de2-0832-42c7-bd15-2e8d56dda42f","system_id":"levelo_inurba_marseille","lat":43.316517,"lon":5.404375,"is_reserved":false,"is_disabled":false,"rental_uris":{"android":"levelo://app?vid=58ad9de2-0832-42c7-bd15-2e8d56dda42f","ios":"levelo://app?vid=58ad9de2-0832-42c7-bd15-2e8d56dda42f"},"vehicle_type_id":"4","last_reported":1686693984,"current_range_meters":4000,"station_id":"ce4bh012rcd13ifvqd00","pricing_plan_id":"free"},{"bike_id":"bfc668f3-a1e7-4f8c-a1f5-19c517a4de6d","system_id":"levelo_inurba_marseille","lat":43.291994,"lon":5.392907,"is_reserved":false,"is_disabled":false,"rental_uris":{"android":"levelo://app?vid=bfc668f3-a1e7-4f8c-a1f5-19c517a4de6d","ios":"levelo://app?vid=bfc668f3-a1e7-4f8c-a1f5-19c517a4de6d"},"vehicle_type_id":"4","last_reported":1686693984,"current_range_meters":8000,"station_id":"ce4bh192rcd13ifvqdd0","pricing_plan_id":"free"},{"bike_id":"535eef59-a9ac-47a6-a450-830ee5e94fa1","system_id":"levelo_inurba_marseille","lat":43.28462,"lon":5.35887,"is_reserved":false,"is_disabled":false,"rental_uris":{"android":"levelo://app?vid=535eef59-a9ac-47a6-a450-830ee5e94fa1","ios":"levelo://app?vid=535eef59-a9ac-47a6-a450-830ee5e94fa1"},"vehicle_type_id":"4","last_reported":1686693984,"current_range_meters":0,"station_id":"ce4bhah2rcd13ifvqei0","pricing_plan_id":"free"},{"bike_id":"7055644a-746e-4f00-8125-3a6a21e843b2","system_id":"levelo_inurba_marseille","lat":43.284534,"lon":5.358662,"is_reserved":false,"is_disabled":false,"rental_uris":{"android":"levelo://app?vid=7055644a-746e-4f00-8125-3a6a21e843b2","ios":"levelo://app?vid=7055644a-746e-4f00-8125-3a6a21e843b2"},"vehicle_type_id":"4","last_reported":1686693984,"current_range_meters":2400,"station_id":"ce4bhah2rcd13ifvqei0","pricing_plan_id":"free"},{"bike_id":"de848890-7ecb-4390-abd7-572f956dc10c","system_id":"levelo_inurba_marseille","lat":43.2846,"lon":5.3589,"is_reserved":false,"is_disabled":false,"rental_uris":{"android":"levelo://app?vid=de848890-7ecb-4390-abd7-572f956dc10c","ios":"levelo://app?vid=de848890-7ecb-4390-abd7-572f956dc10c"},"vehicle_type_id":"4","last_reported":1686693984,"current_range_meters":30800,"station_id":"ce4bhah2rcd13ifvqei0","pricing_plan_id":"free"},{"bike_id":"26c535a8-9c26-465a-bbfc-520a319856b3","system_id":"levelo_inurba_marseille","lat":43.284534,"lon":5.358662,"is_reserved":false,"is_disabled":false,"rental_uris":{"android":"levelo://app?vid=26c535a8-9c26-465a-bbfc-520a319856b3","ios":"levelo://app?vid=26c535a8-9c26-465a-bbfc-520a319856b3"},"vehicle_type_id":"4","last_reported":1686693984,"current_range_meters":10800,"station_id":"ce4bhah2rcd13ifvqei0","pricing_plan_id":"free"},{"bike_id":"55cc9f1f-8cfd-4fc8-ae6b-6909a8089b19","system_id":"levelo_inurba_marseille","lat":43.284534,"lon":5.358662,"is_reserved":false,"is_disabled":false,"rental_uris":{"android":"levelo://app?vid=55cc9f1f-8cfd-4fc8-ae6b-6909a8089b19","ios":"levelo://app?vid=55cc9f1f-8cfd-4fc8-ae6b-6909a8089b19"},"vehicle_type_id":"4","last_reported":1686693984,"current_range_meters":31200,"station_id":"ce4bhah2rcd13ifvqei0","pricing_plan_id":"free"},{"bike_id":"690f04f6-4f3a-447f-9494-d460b3e46778","system_id":"levelo_inurba_marseille","lat":43.28457,"lon":5.35885,"is_reserved":false,"is_disabled":false,"rental_uris":{"android":"levelo://app?vid=690f04f6-4f3a-447f-9494-d460b3e46778","ios":"levelo://app?vid=690f04f6-4f3a-447f-9494-d460b3e46778"},"vehicle_type_id":"4","last_reported":1686693984,"current_range_meters":31200,"station_id":"ce4bhah2rcd13ifvqei0","pricing_plan_id":"free"},{"bike_id":"04dbc022-bbd5-41c2-a288-2508b4255f2f","system_id":"levelo_inurba_marseille","lat":43.284534,"lon":5.358662,"is_reserved":false,"is_disabled":false,"rental_uris":{"android":"levelo://app?vid=04dbc022-bbd5-41c2-a288-2508b4255f2f","ios":"levelo://app?vid=04dbc022-bbd5-41c2-a288-2508b4255f2f"},"vehicle_type_id":"4","last_reported":1686693984,"current_range_meters":31600,"station_id":"ce4bhah2rcd13ifvqei0","pricing_plan_id":"free"},{"bike_id":"7e18a9d1-d0af-48c1-82c5-423e7bd8f5ef","system_id":"levelo_inurba_marseille","lat":43.28454,"lon":5.35896,"is_reserved":false,"is_disabled":false,"rental_uris":{"android":"levelo://app?vid=7e18a9d1-d0af-48c1-82c5-423e7bd8f5ef","ios":"levelo://app?vid=7e18a9d1-d0af-48c1-82c5-423e7bd8f5ef"},"vehicle_type_id":"4","last_reported":1686693984,"current_range_meters":31200,"station_id":"ce4bhah2rcd13ifvqei0","pricing_plan_id":"free"},{"bike_id":"7759e3c8-6667-4a6f-8548-81fb845146bd","system_id":"levelo_inurba_marseille","lat":43.28454,"lon":5.35888,"is_reserved":false,"is_disabled":false,"rental_uris":{"android":"levelo://app?vid=7759e3c8-6667-4a6f-8548-81fb845146bd","ios":"levelo://app?vid=7759e3c8-6667-4a6f-8548-81fb845146bd"},"vehicle_type_id":"4","last_reported":1686693984,"current_range_meters":10400,"station_id":"ce4bhah2rcd13ifvqei0","pricing_plan_id":"free"},{"bike_id":"750604c3-4c39-4652-95c0-f85c6c81de7a","system_id":"levelo_inurba_marseille","lat":43.28451,"lon":5.35892,"is_reserved":false,"is_disabled":false,"rental_uris":{"android":"levelo://app?vid=750604c3-4c39-4652-95c0-f85c6c81de7a","ios":"levelo://app?vid=750604c3-4c39-4652-95c0-f85c6c81de7a"},"vehicle_type_id":"4","last_reported":1686693984,"current_range_meters":27200,"station_id":"ce4bhah2rcd13ifvqei0","pricing_plan_id":"free"},{"bike_id":"96c6d250-0fcf-4329-957e-fddcb3159f66","system_id":"levelo_inurba_marseille","lat":43.28449,"lon":5.35885,"is_reserved":false,"is_disabled":false,"rental_uris":{"android":"levelo://app?vid=96c6d250-0fcf-4329-957e-fddcb3159f66","ios":"levelo://app?vid=96c6d250-0fcf-4329-957e-fddcb3159f66"},"vehicle_type_id":"4","last_reported":1686693984,"current_range_meters":31200,"station_id":"ce4bhah2rcd13ifvqei0","pricing_plan_id":"free"},{"bike_id":"8298090c-2150-43e6-8a87-ee6cbc450c91","system_id":"levelo_inurba_marseille","lat":43.284534,"lon":5.358662,"is_reserved":false,"is_disabled":false,"rental_uris":{"android":"levelo://app?vid=8298090c-2150-43e6-8a87-ee6cbc450c91","ios":"levelo://app?vid=8298090c-2150-43e6-8a87-ee6cbc450c91"},"vehicle_type_id":"4","last_reported":1686693984,"current_range_meters":0,"station_id":"ce4bhah2rcd13ifvqei0","pricing_plan_id":"free"},{"bike_id":"232f0fc0-bf72-402f-a705-e64304c97f16","system_id":"levelo_inurba_marseille","lat":43.284534,"lon":5.358662,"is_reserved":false,"is_disabled":false,"rental_uris":{"android":"levelo://app?vid=232f0fc0-bf72-402f-a705-e64304c97f16","ios":"levelo://app?vid=232f0fc0-bf72-402f-a705-e64304c97f16"},"vehicle_type_id":"4","last_reported":1686693984,"current_range_meters":22000,"station_id":"ce4bhah2rcd13ifvqei0","pricing_plan_id":"free"},{"bike_id":"7f4a6dcd-783e-4036-bc36-4336bcf30344","system_id":"levelo_inurba_marseille","lat":43.29572,"lon":5.39956,"is_reserved":false,"is_disabled":false,"rental_uris":{"android":"levelo://app?vid=7f4a6dcd-783e-4036-bc36-4336bcf30344","ios":"levelo://app?vid=7f4a6dcd-783e-4036-bc36-4336bcf30344"},"vehicle_type_id":"4","last_reported":1686693984,"current_range_meters":31200,"station_id":"ce4bh312rcd13ifvqdj0","pricing_plan_id":"free"},{"bike_id":"9b6bcc82-171f-4fe6-8f56-d5101e37b75a","system_id":"levelo_inurba_marseille","lat":43.28406,"lon":5.37515,"is_reserved":false,"is_disabled":false,"rental_uris":{"android":"levelo://app?vid=9b6bcc82-171f-4fe6-8f56-d5101e37b75a","ios":"levelo://app?vid=9b6bcc82-171f-4fe6-8f56-d5101e37b75a"},"vehicle_type_id":"4","last_reported":1686693984,"current_range_meters":1600,"station_id":"","pricing_plan_id":"free"},{"bike_id":"305cb0bd-767d-472d-a19f-26b1663d89e3","system_id":"levelo_inurba_marseille","lat":43.295713,"lon":5.399639,"is_reserved":false,"is_disabled":false,"rental_uris":{"android":"levelo://app?vid=305cb0bd-767d-472d-a19f-26b1663d89e3","ios":"levelo://app?vid=305cb0bd-767d-472d-a19f-26b1663d89e3"},"vehicle_type_id":"4","last_reported":1686693984,"current_range_meters":31200,"station_id":"ce4bh312rcd13ifvqdj0","pricing_plan_id":"free"},{"bike_id":"5edff5b9-a1ba-40bf-b372-7e34a865256f","system_id":"levelo_inurba_marseille","lat":43.296263,"lon":5.40601,"is_reserved":false,"is_disabled":false,"rental_uris":{"android":"levelo://app?vid=5edff5b9-a1ba-40bf-b372-7e34a865256f","ios":"levelo://app?vid=5edff5b9-a1ba-40bf-b372-7e34a865256f"},"vehicle_type_id":"4","last_reported":1686693984,"current_range_meters":12000,"station_id":"ce4bh0h2rcd13ifvqd60","pricing_plan_id":"free"},{"bike_id":"e76d5ba7-faec-46f0-994b-b6bfc27d988d","system_id":"levelo_inurba_marseille","lat":43.286595,"lon":5.386795,"is_reserved":false,"is_disabled":false,"rental_uris":{"android":"levelo://app?vid=e76d5ba7-faec-46f0-994b-b6bfc27d988d","ios":"levelo://app?vid=e76d5ba7-faec-46f0-994b-b6bfc27d988d"},"vehicle_type_id":"4","last_reported":1686693984,"current_range_meters":29600,"station_id":"ce4bh492rcd13ifvqdug","pricing_plan_id":"free"},{"bike_id":"fa61ccf1-70aa-4473-a5b6-f0c7274047b7","system_id":"levelo_inurba_marseille","lat":43.286595,"lon":5.386795,"is_reserved":false,"is_disabled":false,"rental_uris":{"android":"levelo://app?vid=fa61ccf1-70aa-4473-a5b6-f0c7274047b7","ios":"levelo://app?vid=fa61ccf1-70aa-4473-a5b6-f0c7274047b7"},"vehicle_type_id":"4","last_reported":1686693984,"current_range_meters":26000,"station_id":"ce4bh492rcd13ifvqdug","pricing_plan_id":"free"},{"bike_id":"12a44735-e7af-4d18-bc68-b23a60af8bf1","system_id":"levelo_inurba_marseille","lat":43.286595,"lon":5.386795,"is_reserved":false,"is_disabled":false,"rental_uris":{"android":"levelo://app?vid=12a44735-e7af-4d18-bc68-b23a60af8bf1","ios":"levelo://app?vid=12a44735-e7af-4d18-bc68-b23a60af8bf1"},"vehicle_type_id":"4","last_reported":1686693984,"current_range_meters":0,"station_id":"ce4bh492rcd13ifvqdug","pricing_plan_id":"free"},{"bike_id":"d8f626cc-92e2-4506-963f-06196affc295","system_id":"levelo_inurba_marseille","lat":43.286595,"lon":5.386795,"is_reserved":false,"is_disabled":false,"rental_uris":{"android":"levelo://app?vid=d8f626cc-92e2-4506-963f-06196affc295","ios":"levelo://app?vid=d8f626cc-92e2-4506-963f-06196affc295"},"vehicle_type_id":"4","last_reported":1686693984,"current_range_meters":19200,"station_id":"ce4bh492rcd13ifvqdug","pricing_plan_id":"free"},{"bike_id":"e3dc4a33-bb2b-454a-acdf-c6ded36335f1","system_id":"levelo_inurba_marseille","lat":43.286595,"lon":5.386795,"is_reserved":false,"is_disabled":false,"rental_uris":{"android":"levelo://app?vid=e3dc4a33-bb2b-454a-acdf-c6ded36335f1","ios":"levelo://app?vid=e3dc4a33-bb2b-454a-acdf-c6ded36335f1"},"vehicle_type_id":"4","last_reported":1686693984,"current_range_meters":7200,"station_id":"ce4bh492rcd13ifvqdug","pricing_plan_id":"free"},{"bike_id":"a2ea40ff-86aa-4cbd-b580-9d13747c5796","system_id":"levelo_inurba_marseille","lat":43.286595,"lon":5.386795,"is_reserved":false,"is_disabled":false,"rental_uris":{"android":"levelo://app?vid=a2ea40ff-86aa-4cbd-b580-9d13747c5796","ios":"levelo://app?vid=a2ea40ff-86aa-4cbd-b580-9d13747c5796"},"vehicle_type_id":"4","last_reported":1686693984,"current_range_meters":10000,"station_id":"ce4bh492rcd13ifvqdug","pricing_plan_id":"free"},{"bike_id":"69893d0b-4d6d-4389-895f-725dbda4595f","system_id":"levelo_inurba_marseille","lat":43.286595,"lon":5.386795,"is_reserved":false,"is_disabled":false,"rental_uris":{"android":"levelo://app?vid=69893d0b-4d6d-4389-895f-725dbda4595f","ios":"levelo://app?vid=69893d0b-4d6d-4389-895f-725dbda4595f"},"vehicle_type_id":"4","last_reported":1686693984,"current_range_meters":18800,"station_id":"ce4bh492rcd13ifvqdug","pricing_plan_id":"free"},{"bike_id":"484885b6-3140-4a4f-8522-b35d52385562","system_id":"levelo_inurba_marseille","lat":43.32332,"lon":5.40615,"is_reserved":false,"is_disabled":false,"rental_uris":{"android":"levelo://app?vid=484885b6-3140-4a4f-8522-b35d52385562","ios":"levelo://app?vid=484885b6-3140-4a4f-8522-b35d52385562"},"vehicle_type_id":"4","last_reported":1686693984,"current_range_meters":30000,"station_id":"ce4bhq92rcd13ifvqhjg","pricing_plan_id":"free"},{"bike_id":"e2fc70b8-7548-494f-8e43-0c065153422e","system_id":"levelo_inurba_marseille","lat":43.323464,"lon":5.406297,"is_reserved":false,"is_disabled":false,"rental_uris":{"android":"levelo://app?vid=e2fc70b8-7548-494f-8e43-0c065153422e","ios":"levelo://app?vid=e2fc70b8-7548-494f-8e43-0c065153422e"},"vehicle_type_id":"4","last_reported":1686693984,"current_range_meters":31200,"station_id":"ce4bhq92rcd13ifvqhjg","pricing_plan_id":"free"},{"bike_id":"3809e364-cfe3-479b-9723-8a57900a25ad","system_id":"levelo_inurba_marseille","lat":43.323464,"lon":5.406297,"is_reserved":false,"is_disabled":false,"rental_uris":{"android":"levelo://app?vid=3809e364-cfe3-479b-9723-8a57900a25ad","ios":"levelo://app?vid=3809e364-cfe3-479b-9723-8a57900a25ad"},"vehicle_type_id":"4","last_reported":1686693984,"current_range_meters":28400,"station_id":"ce4bhq92rcd13ifvqhjg","pricing_plan_id":"free"},{"bike_id":"16e5fedd-6e86-436a-a0a2-72c7cd60a6ea","system_id":"levelo_inurba_marseille","lat":43.32339,"lon":5.40621,"is_reserved":false,"is_disabled":false,"rental_uris":{"android":"levelo://app?vid=16e5fedd-6e86-436a-a0a2-72c7cd60a6ea","ios":"levelo://app?vid=16e5fedd-6e86-436a-a0a2-72c7cd60a6ea"},"vehicle_type_id":"4","last_reported":1686693984,"current_range_meters":31600,"station_id":"ce4bhq92rcd13ifvqhjg","pricing_plan_id":"free"},{"bike_id":"f62ba153-082f-40a0-996c-72d65e874915","system_id":"levelo_inurba_marseille","lat":43.323464,"lon":5.406297,"is_reserved":false,"is_disabled":false,"rental_uris":{"android":"levelo://app?vid=f62ba153-082f-40a0-996c-72d65e874915","ios":"levelo://app?vid=f62ba153-082f-40a0-996c-72d65e874915"},"vehicle_type_id":"4","last_reported":1686693984,"current_range_meters":31200,"station_id":"ce4bhq92rcd13ifvqhjg","pricing_plan_id":"free"},{"bike_id":"351d3368-ff4e-40ff-ade5-9239ba6bc400","system_id":"levelo_inurba_marseille","lat":43.284793,"lon":5.384113,"is_reserved":false,"is_disabled":false,"rental_uris":{"android":"levelo://app?vid=351d3368-ff4e-40ff-ade5-9239ba6bc400","ios":"levelo://app?vid=351d3368-ff4e-40ff-ade5-9239ba6bc400"},"vehicle_type_id":"4","last_reported":1686693984,"current_range_meters":23200,"station_id":"ce4bh512rcd13ifvqe3g","pricing_plan_id":"free"},{"bike_id":"ac2f3442-e279-4e4d-b356-19b575ca43e5","system_id":"levelo_inurba_marseille","lat":43.288501,"lon":5.393087,"is_reserved":false,"is_disabled":false,"rental_uris":{"android":"levelo://app?vid=ac2f3442-e279-4e4d-b356-19b575ca43e5","ios":"levelo://app?vid=ac2f3442-e279-4e4d-b356-19b575ca43e5"},"vehicle_type_id":"4","last_reported":1686693984,"current_range_meters":30800,"station_id":"ce4bh2p2rcd13ifvqdi0","pricing_plan_id":"free"},{"bike_id":"f3df298b-30ba-4f80-bd5d-4ff159622dad","system_id":"levelo_inurba_marseille","lat":43.283494,"lon":5.380945,"is_reserved":false,"is_disabled":false,"rental_uris":{"android":"levelo://app?vid=f3df298b-30ba-4f80-bd5d-4ff159622dad","ios":"levelo://app?vid=f3df298b-30ba-4f80-bd5d-4ff159622dad"},"vehicle_type_id":"4","last_reported":1686693984,"current_range_meters":5200,"station_id":"ce4bh412rcd13ifvqdr0","pricing_plan_id":"free"},{"bike_id":"32c0a79b-71f8-470b-946a-2751fe3f0994","system_id":"levelo_inurba_marseille","lat":43.283498,"lon":5.380948,"is_reserved":false,"is_disabled":false,"rental_uris":{"android":"levelo://app?vid=32c0a79b-71f8-470b-946a-2751fe3f0994","ios":"levelo://app?vid=32c0a79b-71f8-470b-946a-2751fe3f0994"},"vehicle_type_id":"4","last_reported":1686693984,"current_range_meters":26400,"station_id":"ce4bh412rcd13ifvqdr0","pricing_plan_id":"free"},{"bike_id":"9074261e-d861-4f7d-b572-805f5bb91966","system_id":"levelo_inurba_marseille","lat":43.29427,"lon":5.40249,"is_reserved":false,"is_disabled":false,"rental_uris":{"android":"levelo://app?vid=9074261e-d861-4f7d-b572-805f5bb91966","ios":"levelo://app?vid=9074261e-d861-4f7d-b572-805f5bb91966"},"vehicle_type_id":"4","last_reported":1686693984,"current_range_meters":1200,"station_id":"","pricing_plan_id":"free"},{"bike_id":"79dc48d6-3d61-41e3-9339-02444b537892","system_id":"levelo_inurba_marseille","lat":43.292724,"lon":5.401131,"is_reserved":false,"is_disabled":false,"rental_uris":{"android":"levelo://app?vid=79dc48d6-3d61-41e3-9339-02444b537892","ios":"levelo://app?vid=79dc48d6-3d61-41e3-9339-02444b537892"},"vehicle_type_id":"4","last_reported":1686693984,"current_range_meters":26400,"station_id":"ce4bh312rcd13ifvqdk0","pricing_plan_id":"free"},{"bike_id":"92a7326c-617b-4d6b-84f1-e16e85bcd646","system_id":"levelo_inurba_marseille","lat":43.292724,"lon":5.401131,"is_reserved":false,"is_disabled":false,"rental_uris":{"android":"levelo://app?vid=92a7326c-617b-4d6b-84f1-e16e85bcd646","ios":"levelo://app?vid=92a7326c-617b-4d6b-84f1-e16e85bcd646"},"vehicle_type_id":"4","last_reported":1686693984,"current_range_meters":31200,"station_id":"ce4bh312rcd13ifvqdk0","pricing_plan_id":"free"},{"bike_id":"fde4a7db-2680-47dd-a1e4-c183190339ad","system_id":"levelo_inurba_marseille","lat":43.28254,"lon":5.35058,"is_reserved":false,"is_disabled":false,"rental_uris":{"android":"levelo://app?vid=fde4a7db-2680-47dd-a1e4-c183190339ad","ios":"levelo://app?vid=fde4a7db-2680-47dd-a1e4-c183190339ad"},"vehicle_type_id":"4","last_reported":1686693984,"current_range_meters":29600,"station_id":"ce4bhbp2rcd13ifvqerg","pricing_plan_id":"free"},{"bike_id":"570de051-0ae2-43ea-9301-9c5f85654b26","system_id":"levelo_inurba_marseille","lat":43.28039,"lon":5.369297,"is_reserved":false,"is_disabled":false,"rental_uris":{"android":"levelo://app?vid=570de051-0ae2-43ea-9301-9c5f85654b26","ios":"levelo://app?vid=570de051-0ae2-43ea-9301-9c5f85654b26"},"vehicle_type_id":"4","last_reported":1686693984,"current_range_meters":25200,"station_id":"ce4bha12rcd13ifvqef0","pricing_plan_id":"free"},{"bike_id":"b6487d06-337d-496c-8541-d1da39ecc233","system_id":"levelo_inurba_marseille","lat":43.29041,"lon":5.399634,"is_reserved":false,"is_disabled":false,"rental_uris":{"android":"levelo://app?vid=b6487d06-337d-496c-8541-d1da39ecc233","ios":"levelo://app?vid=b6487d06-337d-496c-8541-d1da39ecc233"},"vehicle_type_id":"4","last_reported":1686693984,"current_range_meters":8800,"station_id":"ce4bh392rcd13ifvqdm0","pricing_plan_id":"free"},{"bike_id":"773d31c4-b9b3-4365-93e2-5888b7bc1f93","system_id":"levelo_inurba_marseille","lat":43.281044,"lon":5.378308,"is_reserved":false,"is_disabled":false,"rental_uris":{"android":"levelo://app?vid=773d31c4-b9b3-4365-93e2-5888b7bc1f93","ios":"levelo://app?vid=773d31c4-b9b3-4365-93e2-5888b7bc1f93"},"vehicle_type_id":"4","last_reported":1686693984,"current_range_meters":22000,"station_id":"ce4bha12rcd13ifvqee0","pricing_plan_id":"free"},{"bike_id":"a6d8e60a-ceba-4bc0-b550-b19ec9b9d126","system_id":"levelo_inurba_marseille","lat":43.29633,"lon":5.40594,"is_reserved":false,"is_disabled":false,"rental_uris":{"android":"levelo://app?vid=a6d8e60a-ceba-4bc0-b550-b19ec9b9d126","ios":"levelo://app?vid=a6d8e60a-ceba-4bc0-b550-b19ec9b9d126"},"vehicle_type_id":"4","last_reported":1686693984,"current_range_meters":20800,"station_id":"ce4bh0h2rcd13ifvqd60","pricing_plan_id":"free"},{"bike_id":"03b71865-978c-4d72-9c17-305b4a2605e5","system_id":"levelo_inurba_marseille","lat":43.281044,"lon":5.378308,"is_reserved":false,"is_disabled":false,"rental_uris":{"android":"levelo://app?vid=03b71865-978c-4d72-9c17-305b4a2605e5","ios":"levelo://app?vid=03b71865-978c-4d72-9c17-305b4a2605e5"},"vehicle_type_id":"4","last_reported":1686693984,"current_range_meters":0,"station_id":"ce4bha12rcd13ifvqee0","pricing_plan_id":"free"},{"bike_id":"4b196977-d649-4851-862e-2406a0c884b1","system_id":"levelo_inurba_marseille","lat":43.296263,"lon":5.40601,"is_reserved":false,"is_disabled":false,"rental_uris":{"android":"levelo://app?vid=4b196977-d649-4851-862e-2406a0c884b1","ios":"levelo://app?vid=4b196977-d649-4851-862e-2406a0c884b1"},"vehicle_type_id":"4","last_reported":1686693984,"current_range_meters":1200,"station_id":"ce4bh0h2rcd13ifvqd60","pricing_plan_id":"free"},{"bike_id":"ee2ab122-ef2f-4b39-93d9-579b597bd18f","system_id":"levelo_inurba_marseille","lat":43.296263,"lon":5.40601,"is_reserved":false,"is_disabled":false,"rental_uris":{"android":"levelo://app?vid=ee2ab122-ef2f-4b39-93d9-579b597bd18f","ios":"levelo://app?vid=ee2ab122-ef2f-4b39-93d9-579b597bd18f"},"vehicle_type_id":"4","last_reported":1686693984,"current_range_meters":27600,"station_id":"ce4bh0h2rcd13ifvqd60","pricing_plan_id":"free"},{"bike_id":"55082d5b-cf6c-4210-918f-836bde09c79b","system_id":"levelo_inurba_marseille","lat":43.296263,"lon":5.40601,"is_reserved":false,"is_disabled":false,"rental_uris":{"android":"levelo://app?vid=55082d5b-cf6c-4210-918f-836bde09c79b","ios":"levelo://app?vid=55082d5b-cf6c-4210-918f-836bde09c79b"},"vehicle_type_id":"4","last_reported":1686693984,"current_range_meters":4800,"station_id":"ce4bh0h2rcd13ifvqd60","pricing_plan_id":"free"},