{"last_updated":1733504934,"ttl":60,"version":"2.2","data":{"bikes":[{"bike_id":"c8756871-db35-4a3b-b691-d98d2619e332","system_id":"levelo_inurba_marseille","lat":43.23155,"lon":5.43721,"is_reserved":false,"is_disabled":true,"rental_uris":{"android":"levelo://app?vid=c8756871-db35-4a3b-b691-d98d2619e332","ios":"levelo://app?vid=c8756871-db35-4a3b-b691-d98d2619e332"},"vehicle_type_id":"4","last_reported":1733504935,"current_range_meters":0,"station_id":"ce4bhmp2rcd13ifvqgog","pricing_plan_id":"cebpf4jnsgd1na2vs0mg"},{"bike_id":"393b5735-9ccd-461e-ae28-4f7b375a9213","system_id":"levelo_inurba_marseille","lat":43.28704,"lon":5.37376,"is_reserved":false,"is_disabled":false,"rental_uris":{"android":"levelo://app?vid=393b5735-9ccd-461e-ae28-4f7b375a9213","ios":"levelo://app?vid=393b5735-9ccd-461e-ae28-4f7b375a9213"},"vehicle_type_id":"4","last_reported":1733504935,"current_range_meters":20000,"station_id":"ce4bh3p2rcd13ifvqdq0","pricing_plan_id":"cebpf4jnsgd1na2vs0mg"},{"bike_id":"df479c2c-35ac-44ad-b9d6-81c89ed769ce","system_id":"levelo_inurba_marseille","lat":43.29699,"lon":5.37054,"is_reserved":false,"is_disabled":true,"rental_uris":{"android":"levelo://app?vid=df479c2c-35ac-44ad-b9d6-81c89ed769ce","ios":"levelo://app?vid=df479c2c-35ac-44ad-b9d6-81c89ed769ce"},"vehicle_type_id":"4","last_reported":1733504935,"current_range_meters":0,"station_id":"","pricing_plan_id":"cebpf4jnsgd1na2vs0mg"},{"bike_id":"8e029eaf-e104-4c5d-858d-6cd39de73d09","system_id":"levelo_inurba_marseille","lat":43.24164,"lon":5.36433,"is_reserved":false,"is_disabled":false,"rental_uris":{"android":"levelo://app?vid=8e029eaf-e104-4c5d-858d-6cd39de73d09","ios":"levelo://app?vid=8e029eaf-e104-4c5d-858d-6cd39de73d09"},"vehicle_type_id":"4","last_reported":1733504935,"current_range_meters":35600,"station_id":"cpo36qri1sfpv3e86is0","pricing_plan_id":"cebpf4jnsgd1na2vs0mg"},{"bike_id":"ec6f5889-22cf-443b-b3cc-a0a128e36bfa","system_id":"levelo_inurba_marseille","lat":43.30923,"lon":5.37166,"is_reserved":false,"is_disabled":false,"rental_uris":{"android":"levelo://app?vid=ec6f5889-22cf-443b-b3cc-a0a128e36bfa","ios":"levelo://app?vid=ec6f5889-22cf-443b-b3cc-a0a128e36bfa"},"vehicle_type_id":"4","last_reported":1733504935,"current_range_meters":14400,"station_id":"ce4bguh2rcd13ifvqckg","pricing_plan_id":"cebpf4jnsgd1na2vs0mg"},{"bike_id":"1f5f0b7f-1e9d-437d-bae5-009859cc6ccf","system_id":"levelo_inurba_marseille","lat":43.28404,"lon":5.37521,"is_reserved":false,"is_disabled":false,"rental_uris":{"android":"levelo://app?vid=1f5f0b7f-1e9d-437d-bae5-009859cc6ccf","ios":"levelo://app?vid=1f5f0b7f-1e9d-437d-bae5-009859cc6ccf"},"vehicle_type_id":"4","last_reported":1733504935,"current_range_meters":4000,"station_id":"ce4bh412rcd13ifvqds0","pricing_plan_id":"cebpf4jnsgd1na2vs0mg"},{"bike_id":"be407bbe-d1ce-48de-8db2-09114af9efd7","system_id":"levelo_inurba_marseille","lat":43.32371,"lon":5.36761,"is_reserved":false,"is_disabled":false,"rental_uris":{"android":"levelo://app?vid=be407bbe-d1ce-48de-8db2-09114af9efd7","ios":"levelo://app?vid=be407bbe-d1ce-48de-8db2-09114af9efd7"},"vehicle_type_id":"4","last_reported":1733504935,"current_range_meters":24000,"station_id":"ce4bhsh2rcd13ifvqi2g","pricing_plan_id":"cebpf4jnsgd1na2vs0mg"},{"bike_id":"39d2b412-9064-4bb3-a495-25830a5150c8","system_id":"levelo_inurba_marseille","lat":43.29883,"lon":5.38908,"is_reserved":false,"is_disabled":false,"rental_uris":{"android":"levelo://app?vid=39d2b412-9064-4bb3-a495-25830a5150c8","ios":"levelo://app?vid=39d2b412-9064-4bb3-a495-25830a5150c8"},"vehicle_type_id":"4","last_reported":1733504935,"current_range_meters":11600,"station_id":"ce4bh392rcd13ifvqdl0","pricing_plan_id":"cebpf4jnsgd1na2vs0mg"},{"bike_id":"5fd8fda4-5ceb-4e39-b9f4-ea27acda2ce7","system_id":"levelo_inurba_marseille","lat":43.27179,"lon":5.41004,"is_reserved":false,"is_disabled":true,"rental_uris":{"android":"levelo://app?vid=5fd8fda4-5ceb-4e39-b9f4-ea27acda2ce7","ios":"levelo://app?vid=5fd8fda4-5ceb-4e39-b9f4-ea27acda2ce7"},"vehicle_type_id":"4","last_reported":1733504935,"current_range_meters":26000,"station_id":"ce4bhl12rcd13ifvqgf0","pricing_plan_id":"cebpf4jnsgd1na2vs0mg"},{"bike_id":"a3b0c05a-9b64-4c2e-a389-ba917f678c9b","system_id":"levelo_inurba_marseille","lat":43.29027,"lon":5.38639,"is_reserved":false,"is_disabled":false,"rental_uris":{"android":"levelo://app?vid=a3b0c05a-9b64-4c2e-a389-ba917f678c9b","ios":"levelo://app?vid=a3b0c05a-9b64-4c2e-a389-ba917f678c9b"},"vehicle_type_id":"4","last_reported":1733504935,"current_range_meters":28400,"station_id":"ce4bh4p2rcd13ifvqe0g","pricing_plan_id":"cebpf4jnsgd1na2vs0mg"},{"bike_id":"53b2021f-2d76-4c3d-be13-d01d30021086","system_id":"levelo_inurba_marseille","lat":43.33717,"lon":5.39184,"is_reserved":false,"is_disabled":false,"rental_uris":{"android":"levelo://app?vid=53b2021f-2d76-4c3d-be13-d01d30021086","ios":"levelo://app?vid=53b2021f-2d76-4c3d-be13-d01d30021086"},"vehicle_type_id":"4","last_reported":1733504935,"current_range_meters":37600,"station_id":"ce4bhr92rcd13ifvqhsg","pricing_plan_id":"cebpf4jnsgd1na2vs0mg"},{"bike_id":"8bd642b2-0279-44c7-9ee2-fc3b57332c83","system_id":"levelo_inurba_marseille","lat":43.27455,"lon":5.40073,"is_reserved":false,"is_disabled":true,"rental_uris":{"android":"levelo://app?vid=8bd642b2-0279-44c7-9ee2-fc3b57332c83","ios":"levelo://app?vid=8bd642b2-0279-44c7-9ee2-fc3b57332c83"},"vehicle_type_id":"4","last_reported":1733504935,"current_range_meters":0,"station_id":"","pricing_plan_id":"cebpf4jnsgd1na2vs0mg"},{"bike_id":"06b0db46-e569-43e6-8296-5dbf27333789","system_id":"levelo_inurba_marseille","lat":43.28612,"lon":5.35109,"is_reserved":false,"is_disabled":true,"rental_uris":{"android":"levelo://app?vid=06b0db46-e569-43e6-8296-5dbf27333789","ios":"levelo://app?vid=06b0db46-e569-43e6-8296-5dbf27333789"},"vehicle_type_id":"4","last_reported":1733504935,"current_range_meters":800,"station_id":"ce4bhch2rcd13ifvqeug","pricing_plan_id":"cebpf4jnsgd1na2vs0mg"},{"bike_id":"37e5f5a9-8818-4327-8e4d-b48182104f17","system_id":"levelo_inurba_marseille","lat":43.25578,"lon":5.38233,"is_reserved":false,"is_disabled":false,"rental_uris":{"android":"levelo://app?vid=37e5f5a9-8818-4327-8e4d-b48182104f17","ios":"levelo://app?vid=37e5f5a9-8818-4327-8e4d-b48182104f17"},"vehicle_type_id":"4","last_reported":1733504935,"current_range_meters":33200,"station_id":"ce4bhih2rcd13ifvqfs0","pricing_plan_id":"cebpf4jnsgd1na2vs0mg"},{"bike_id":"f7232b66-97fd-434a-8dd5-30f30619f3ca","system_id":"levelo_inurba_marseille","lat":43.29522,"lon":5.37504,"is_reserved":false,"is_disabled":false,"rental_uris":{"android":"levelo://app?vid=f7232b66-97fd-434a-8dd5-30f30619f3ca","ios":"levelo://app?vid=f7232b66-97fd-434a-8dd5-30f30619f3ca"},"vehicle_type_id":"4","last_reported":1733504935,"current_range_meters":20000,"station_id":"ce4bgkp2rcd13ifvqbmg","pricing_plan_id":"cebpf4jnsgd1na2vs0mg"},{"bike_id":"997ca4c6-4b37-45b7-b4c8-d3246d03ecc3","system_id":"levelo_inurba_marseille","lat":43.23542,"lon":5.37972,"is_reserved":false,"is_disabled":true,"rental_uris":{"android":"levelo://app?vid=997ca4c6-4b37-45b7-b4c8-d3246d03ecc3","ios":"levelo://app?vid=997ca4c6-4b37-45b7-b4c8-d3246d03ecc3"},"vehicle_type_id":"4","last_reported":1733504935,"current_range_meters":0,"station_id":"","pricing_plan_id":"cebpf4jnsgd1na2vs0mg"},{"bike_id":"2d0d58fa-f7ae-4b13-8fef-b03f23c47e0a","system_id":"levelo_inurba_marseille","lat":43.31204,"lon":5.37591,"is_reserved":false,"is_disabled":false,"rental_uris":{"android":"levelo://app?vid=2d0d58fa-f7ae-4b13-8fef-b03f23c47e0a","ios":"levelo://app?vid=2d0d58fa-f7ae-4b13-8fef-b03f23c47e0a"},"vehicle_type_id":"4","last_reported":1733504935,"current_range_meters":20400,"station_id":"","pricing_plan_id":"cebpf4jnsgd1na2vs0mg"},{"bike_id":"a316c27e-5a2e-49da-bc4f-97ed9eda93d3","system_id":"levelo_inurba_marseille","lat":43.29098,"lon":5.3815,"is_reserved":false,"is_disabled":false,"rental_uris":{"android":"levelo://app?vid=a316c27e-5a2e-49da-bc4f-97ed9eda93d3","ios":"levelo://app?vid=a316c27e-5a2e-49da-bc4f-97ed9eda93d3"},"vehicle_type_id":"4","last_reported":1733504935,"current_range_meters":18800,"station_id":"ce4bh512rcd13ifvqe2g","pricing_plan_id":"cebpf4jnsgd1na2vs0mg"},{"bike_id":"28b52837-d828-49e4-b4be-cfbac010c328","system_id":"levelo_inurba_marseille","lat":43.33731,"lon":5.3918,"is_reserved":false,"is_disabled":false,"rental_uris":{"android":"levelo://app?vid=28b52837-d828-49e4-b4be-cfbac010c328","ios":"levelo://app?vid=28b52837-d828-49e4-b4be-cfbac010c328"},"vehicle_type_id":"4","last_reported":1733504935,"current_range_meters":24000,"station_id":"ce4bhr92rcd13ifvqhsg","pricing_plan_id":"cebpf4jnsgd1na2vs0mg"},{"bike_id":"b3f478ac-3b05-4edf-bdbf-76399090f8e9","system_id":"levelo_inurba_marseille","lat":43.29994,"lon":5.37639,"is_reserved":false,"is_disabled":true,"rental_uris":{"android":"levelo://app?vid=b3f478ac-3b05-4edf-bdbf-76399090f8e9","ios":"levelo://app?vid=b3f478ac-3b05-4edf-bdbf-76399090f8e9"},"vehicle_type_id":"4","last_reported":1733504935,"current_range_meters":0,"station_id":"","pricing_plan_id":"cebpf4jnsgd1na2vs0mg"},{"bike_id":"fdc62a63-5355-4bd1-a06c-e6106eb23903","system_id":"levelo_inurba_marseille","lat":43.23964,"lon":5.36627,"is_reserved":false,"is_disabled":false,"rental_uris":{"android":"levelo://app?vid=fdc62a63-5355-4bd1-a06c-e6106eb23903","ios":"levelo://app?vid=fdc62a63-5355-4bd1-a06c-e6106eb23903"},"vehicle_type_id":"4","last_reported":1733504935,"current_range_meters":2800,"station_id":"ce4bhi12rcd13ifvqfp0","pricing_plan_id":"cebpf4jnsgd1na2vs0mg"},{"bike_id":"7607738d-dd20-4a55-98d2-aff56a8f6573","system_id":"levelo_inurba_marseille","lat":43.28699,"lon":5.37382,"is_reserved":false,"is_disabled":false,"rental_uris":{"android":"levelo://app?vid=7607738d-dd20-4a55-98d2-aff56a8f6573","ios":"levelo://app?vid=7607738d-dd20-4a55-98d2-aff56a8f6573"},"vehicle_type_id":"4","last_reported":1733504935,"current_range_meters":14800,"station_id":"ce4bh3p2rcd13ifvqdq0","pricing_plan_id":"cebpf4jnsgd1na2vs0mg"},{"bike_id":"89ceac00-2c22-4cb1-b85d-583fccdb788b","system_id":"levelo_inurba_marseille","lat":43.32109,"lon":5.36785,"is_reserved":false,"is_disabled":false,"rental_uris":{"android":"levelo://app?vid=89ceac00-2c22-4cb1-b85d-583fccdb788b","ios":"levelo://app?vid=89ceac00-2c22-4cb1-b85d-583fccdb788b"},"vehicle_type_id":"4","last_reported":1733504935,"current_range_meters":22000,"station_id":"ce4bhrh2rcd13ifvqhug","pricing_plan_id":"cebpf4jnsgd1na2vs0mg"},{"bike_id":"5dc240e9-4f6a-4ec2-bd9c-5b9600d4312a","system_id":"levelo_inurba_marseille","lat":43.29026,"lon":5.38135,"is_reserved":false,"is_disabled":false,"rental_uris":{"android":"levelo://app?vid=5dc240e9-4f6a-4ec2-bd9c-5b9600d4312a","ios":"levelo://app?vid=5dc240e9-4f6a-4ec2-bd9c-5b9600d4312a"},"vehicle_type_id":"4","last_reported":1733504935,"current_range_meters":25200,"station_id":"ce4bh4p2rcd13ifvqe1g","pricing_plan_id":"cebpf4jnsgd1na2vs0mg"},{"bike_id":"786b3983-4353-4c6b-b2a2-4c074e4b7adb","system_id":"levelo_inurba_marseille","lat":43.31708,"lon":5.43708,"is_reserved":false,"is_disabled":true,"rental_uris":{"android":"levelo://app?vid=786b3983-4353-4c6b-b2a2-4c074e4b7adb","ios":"levelo://app?vid=786b3983-4353-4c6b-b2a2-4c074e4b7adb"},"vehicle_type_id":"4","last_reported":1733504935,"current_range_meters":0,"station_id":"ce4bhp92rcd13ifvqhcg","pricing_plan_id":"cebpf4jnsgd1na2vs0mg"},{"bike_id":"6324fa88-e06c-4d04-bbbb-f384a3712cfc","system_id":"levelo_inurba_marseille","lat":43.28149,"lon":5.42661,"is_reserved":false,"is_disabled":false,"rental_uris":{"android":"levelo://app?vid=6324fa88-e06c-4d04-bbbb-f384a3712cfc","ios":"levelo://app?vid=6324fa88-e06c-4d04-bbbb-f384a3712cfc"},"vehicle_type_id":"4","last_reported":1733504935,"current_range_meters":17600,"station_id":"ce4bhnh2rcd13ifvqgug","pricing_plan_id":"cebpf4jnsgd1na2vs0mg"},{"bike_id":"938640b4-f78c-4def-9b16-e6205edb88bc","system_id":"levelo_inurba_marseille","lat":43.28151,"lon":5.42642,"is_reserved":false,"is_disabled":true,"rental_uris":{"android":"levelo://app?vid=938640b4-f78c-4def-9b16-e6205edb88bc","ios":"levelo://app?vid=938640b4-f78c-4def-9b16-e6205edb88bc"},"vehicle_type_id":"4","last_reported":1733504935,"current_range_meters":20400,"station_id":"ce4bhnh2rcd13ifvqgug","pricing_plan_id":"cebpf4jnsgd1na2vs0mg"},{"bike_id":"65ea8a13-f7a8-486f-90be-0a6dbaf33713","system_id":"levelo_inurba_marseille","lat":43.31468,"lon":5.37592,"is_reserved":false,"is_disabled":false,"rental_uris":{"android":"levelo://app?vid=65ea8a13-f7a8-486f-90be-0a6dbaf33713","ios":"levelo://app?vid=65ea8a13-f7a8-486f-90be-0a6dbaf33713"},"vehicle_type_id":"4","last_reported":1733504935,"current_range_meters":3600,"station_id":"","pricing_plan_id":"cebpf4jnsgd1na2vs0mg"},{"bike_id":"2b4477ad-bf22-4a05-9744-e06ce9f2bd4f","system_id":"levelo_inurba_marseille","lat":43.30635,"lon":5.3659,"is_reserved":false,"is_disabled":false,"rental_uris":{"android":"levelo://app?vid=2b4477ad-bf22-4a05-9744-e06ce9f2bd4f","ios":"levelo://app?vid=2b4477ad-bf22-4a05-9744-e06ce9f2bd4f"},"vehicle_type_id":"4","last_reported":1733504935,"current_range_meters":17600,"station_id":"","pricing_plan_id":"cebpf4jnsgd1na2vs0mg"},{"bike_id":"0d76dbf6-5e40-455b-a0e6-70fb0b70c5f9","system_id":"levelo_inurba_marseille","lat":43.32365,"lon":5.38882,"is_reserved":false,"is_disabled":false,"rental_uris":{"android":"levelo://app?vid=0d76dbf6-5e40-455b-a0e6-70fb0b70c5f9","ios":"levelo://app?vid=0d76dbf6-5e40-455b-a0e6-70fb0b70c5f9"},"vehicle_type_id":"4","last_reported":1733504935,"current_range_meters":36400,"station_id":"ce4bhqp2rcd13ifvqhog","pricing_plan_id":"cebpf4jnsgd1na2vs0mg"},{"bike_id":"2474f3d1-c3f7-4ed6-a330-97da9a2e9340","system_id":"levelo_inurba_marseille","lat":43.29709,"lon":5.36602,"is_reserved":false,"is_disabled":false,"rental_uris":{"android":"levelo://app?vid=2474f3d1-c3f7-4ed6-a330-97da9a2e9340","ios":"levelo://app?vid=2474f3d1-c3f7-4ed6-a330-97da9a2e9340"},"vehicle_type_id":"4","last_reported":1733504935,"current_range_meters":23200,"station_id":"ce4bgn12rcd13ifvqbt0","pricing_plan_id":"cebpf4jnsgd1na2vs0mg"},{"bike_id":"2f3968e7-9336-4ee4-ba78-8e92c0a818cc","system_id":"levelo_inurba_marseille","lat":43.31322,"lon":5.36647,"is_reserved":false,"is_disabled":true,"rental_uris":{"android":"levelo://app?vid=2f3968e7-9336-4ee4-ba78-8e92c0a818cc","ios":"levelo://app?vid=2f3968e7-9336-4ee4-ba78-8e92c0a818cc"},"vehicle_type_id":"4","last_reported":1733504935,"current_range_meters":0,"station_id":"","pricing_plan_id":"cebpf4jnsgd1na2vs0mg"},{"bike_id":"cfab075c-1034-4f5d-b88d-906c3690e7da","system_id":"levelo_inurba_marseille","lat":43.25107,"lon":5.40321,"is_reserved":false,"is_disabled":false,"rental_uris":{"android":"levelo://app?vid=cfab075c-1034-4f5d-b88d-906c3690e7da","ios":"levelo://app?vid=cfab075c-1034-4f5d-b88d-906c3690e7da"},"vehicle_type_id":"4","last_reported":1733504935,"current_range_meters":9600,"station_id":"ce4bhlh2rcd13ifvqgig","pricing_plan_id":"cebpf4jnsgd1na2vs0mg"},{"bike_id":"ee8e3cd6-7154-49f2-9ac9-3947d95fa87d","system_id":"levelo_inurba_marseille","lat":43.30242,"lon":5.40037,"is_reserved":false,"is_disabled":false,"rental_uris":{"android":"levelo://app?vid=ee8e3cd6-7154-49f2-9ac9-3947d95fa87d","ios":"levelo://app?vid=ee8e3cd6-7154-49f2-9ac9-3947d95fa87d"},"vehicle_type_id":"4","last_reported":1733504935,"current_range_meters":38800,"station_id":"ce4bgvh2rcd13ifvqcs0","pricing_plan_id":"cebpf4jnsgd1na2vs0mg"},{"bike_id":"e2f7b510-3607-4fd2-b4e0-80c430795542","system_id":"levelo_inurba_marseille","lat":43.30929,"lon":5.40144,"is_reserved":false,"is_disabled":false,"rental_uris":{"android":"levelo://app?vid=e2f7b510-3607-4fd2-b4e0-80c430795542","ios":"levelo://app?vid=e2f7b510-3607-4fd2-b4e0-80c430795542"},"vehicle_type_id":"4","last_reported":1733504935,"current_range_meters":9200,"station_id":"ce4bgvp2rcd13ifvqct0","pricing_plan_id":"cebpf4jnsgd1na2vs0mg"},{"bike_id":"a4195ee0-472a-4f03-b955-5b202da4d03a","system_id":"levelo_inurba_marseille","lat":43.23185,"lon":5.39979,"is_reserved":false,"is_disabled":false,"rental_uris":{"android":"levelo://app?vid=a4195ee0-472a-4f03-b955-5b202da4d03a","ios":"levelo://app?vid=a4195ee0-472a-4f03-b955-5b202da4d03a"},"vehicle_type_id":"4","last_reported":1733504935,"current_range_meters":37600,"station_id":"ce4bhn12rcd13ifvqgqg","pricing_plan_id":"cebpf4jnsgd1na2vs0mg"},{"bike_id":"2a288e99-a71c-4eb1-995c-b6d6708435e1","system_id":"levelo_inurba_marseille","lat":43.26787,"lon":5.39417,"is_reserved":false,"is_disabled":false,"rental_uris":{"android":"levelo://app?vid=2a288e99-a71c-4eb1-995c-b6d6708435e1","ios":"levelo://app?vid=2a288e99-a71c-4eb1-995c-b6d6708435e1"},"vehicle_type_id":"4","last_reported":1733504935,"current_range_meters":20400,"station_id":"ce4bhh12rcd13ifvqfg0","pricing_plan_id":"cebpf4jnsgd1na2vs0mg"},{"bike_id":"25749630-6f10-4d62-9dd1-039840330529","system_id":"levelo_inurba_marseille","lat":43.29531,"lon":5.3855,"is_reserved":false,"is_disabled":false,"rental_uris":{"android":"levelo://app?vid=25749630-6f10-4d62-9dd1-039840330529","ios":"levelo://app?vid=25749630-6f10-4d62-9dd1-039840330529"},"vehicle_type_id":"4","last_reported":1733504935,"current_range_meters":16400,"station_id":"ce4bgih2rcd13ifvqba0","pricing_plan_id":"cebpf4jnsgd1na2vs0mg"},{"bike_id":"a278f1d4-8bf6-4e1f-9d4f-e6a3f3e33b5c","system_id":"levelo_inurba_marseille","lat":43.28106,"lon":5.37843,"is_reserved":false,"is_disabled":false,"rental_uris":{"android":"levelo://app?vid=a278f1d4-8bf6-4e1f-9d4f-e6a3f3e33b5c","ios":"levelo://app?vid=a278f1d4-8bf6-4e1f-9d4f-e6a3f3e33b5c"},"vehicle_type_id":"4","last_reported":1733504935,"current_range_meters":8400,"station_id":"ce4bha12rcd13ifvqee0","pricing_plan_id":"cebpf4jnsgd1na2vs0mg"},{"bike_id":"2755f0d3-b2d2-427a-b3ab-02c290fc2be7","system_id":"levelo_inurba_marseille","lat":43.2799,"lon":5.41664,"is_reserved":false,"is_disabled":false,"rental_uris":{"android":"levelo://app?vid=2755f0d3-b2d2-427a-b3ab-02c290fc2be7","ios":"levelo://app?vid=2755f0d3-b2d2-427a-b3ab-02c290fc2be7"},"vehicle_type_id":"4","last_reported":1733504935,"current_range_meters":8400,"station_id":"ce4bho12rcd13ifvqh1g","pricing_plan_id":"cebpf4jnsgd1na2vs0mg"},{"bike_id":"18c465ad-16a0-4d72-a337-11a15929aab8","system_id":"levelo_inurba_marseille","lat":43.239606,"lon":5.366203,"is_reserved":false,"is_disabled":false,"rental_uris":{"android":"levelo://app?vid=18c465ad-16a0-4d72-a337-11a15929aab8","ios":"levelo://app?vid=18c465ad-16a0-4d72-a337-11a15929aab8"},"vehicle_type_id":"4","last_reported":1733504935,"current_range_meters":9600,"station_id":"ce4bhi12rcd13ifvqfp0","pricing_plan_id":"cebpf4jnsgd1na2vs0mg"},{"bike_id":"5a0cdea3-5966-4e16-bb77-238709a72c6b","system_id":"levelo_inurba_marseille","lat":43.3107,"lon":5.38353,"is_reserved":false,"is_disabled":true,"rental_uris":{"android":"levelo://app?vid=5a0cdea3-5966-4e16-bb77-238709a72c6b","ios":"levelo://app?vid=5a0cdea3-5966-4e16-bb77-238709a72c6b"},"vehicle_type_id":"4","last_reported":1733504935,"current_range_meters":1200,"station_id":"ce4bgv92rcd13ifvqcr0","pricing_plan_id":"cebpf4jnsgd1na2vs0mg"},{"bike_id":"f825a6e3-d202-4ddc-917b-5da49c4114c4","system_id":"levelo_inurba_marseille","lat":43.23192,"lon":5.35547,"is_reserved":false,"is_disabled":false,"rental_uris":{"android":"levelo://app?vid=f825a6e3-d202-4ddc-917b-5da49c4114c4","ios":"levelo://app?vid=f825a6e3-d202-4ddc-917b-5da49c4114c4"},"vehicle_type_id":"4","last_reported":1733504935,"current_range_meters":14000,"station_id":"ce4bhu92rcd13ifvqi70","pricing_plan_id":"cebpf4jnsgd1na2vs0mg"},{"bike_id":"35523c8f-a061-4423-b066-8ea93430ffad","system_id":"levelo_inurba_marseille","lat":43.28408,"lon":5.34974,"is_reserved":false,"is_disabled":false,"rental_uris":{"android":"levelo://app?vid=35523c8f-a061-4423-b066-8ea93430ffad","ios":"levelo://app?vid=35523c8f-a061-4423-b066-8ea93430ffad"},"vehicle_type_id":"4","last_reported":1733504935,"current_range_meters":7200,"station_id":"ce4bhbh2rcd13ifvqepg","pricing_plan_id":"cebpf4jnsgd1na2vs0mg"},{"bike_id":"1425627e-6340-4d9a-b112-c701c5f71ea7","system_id":"levelo_inurba_marseille","lat":43.311897,"lon":5.377337,"is_reserved":false,"is_disabled":false,"rental_uris":{"android":"levelo://app?vid=1425627e-6340-4d9a-b112-c701c5f71ea7","ios":"levelo://app?vid=1425627e-6340-4d9a-b112-c701c5f71ea7"},"vehicle_type_id":"4","last_reported":1733504935,"current_range_meters":27600,"station_id":"","pricing_plan_id":"cebpf4jnsgd1na2vs0mg"},{"bike_id":"870c21c1-f877-4a99-ac68-6d06c04ce38b","system_id":"levelo_inurba_marseille","lat":43.29559,"lon":5.4227,"is_reserved":false,"is_disabled":false,"rental_uris":{"android":"levelo://app?vid=870c21c1-f877-4a99-ac68-6d06c04ce38b","ios":"levelo://app?vid=870c21c1-f877-4a99-ac68-6d06c04ce38b"},"vehicle_type_id":"4","last_reported":1733504935,"current_range_meters":33600,"station_id":"ce4bhph2rcd13ifvqhdg","pricing_plan_id":"cebpf4jnsgd1na2vs0mg"},{"bike_id":"0a64a1fd-9846-4d36-9a8f-03a53ffe2d88","system_id":"levelo_inurba_marseille","lat":43.30129,"lon":5.39877,"is_reserved":false,"is_disabled":false,"rental_uris":{"android":"levelo://app?vid=0a64a1fd-9846-4d36-9a8f-03a53ffe2d88","ios":"levelo://app?vid=0a64a1fd-9846-4d36-9a8f-03a53ffe2d88"},"vehicle_type_id":"4","last_reported":1733504935,"current_range_meters":38800,"station_id":"ce4bh0h2rcd13ifvqd40","pricing_plan_id":"cebpf4jnsgd1na2vs0mg"},{"bike_id":"aae62a04-0b53-4bf4-ae08-601ae7b2439b","system_id":"levelo_inurba_marseille","lat":43.29301,"lon":5.37156,"is_reserved":false,"is_disabled":false,"rental_uris":{"android":"levelo://app?vid=aae62a04-0b53-4bf4-ae08-601ae7b2439b","ios":"levelo://app?vid=aae62a04-0b53-4bf4-ae08-601ae7b2439b"},"vehicle_type_id":"4","last_reported":1733504935,"current_range_meters":19600,"station_id":"ce4bgh92rcd13ifvqb40","pricing_plan_id":"cebpf4jnsgd1na2vs0mg"},{"bike_id":"149fc913-3c2d-4da9-9abf-dacf28383eeb","system_id":"levelo_inurba_marseille","lat":43.25716,"lon":5.41087,"is_reserved":false,"is_disabled":false,"rental_uris":{"android":"levelo://app?vid=149fc913-3c2d-4da9-9abf-dacf28383eeb","ios":"levelo://app?vid=149fc913-3c2d-4da9-9abf-dacf28383eeb"},"vehicle_type_id":"4","last_reported":1733504935,"current_range_meters":2000,"station_id":"ce4bhkp2rcd13ifvqgd0","pricing_plan_id":"cebpf4jnsgd1na2vs0mg"},{"bike_id":"f10c5e90-601b-4bd4-87e7-4cbb6a13a4fb","system_id":"levelo_inurba_marseille","lat":43.26124,"lon":5.39269,"is_reserved":false,"is_disabled":true,"rental_uris":{"android":"levelo://app?vid=f10c5e90-601b-4bd4-87e7-4cbb6a13a4fb","ios":"levelo://app?vid=f10c5e90-601b-4bd4-87e7-4cbb6a13a4fb"},"vehicle_type_id":"4","last_reported":1733504935,"current_range_meters":0,"station_id":"","pricing_plan_id":"cebpf4jnsgd1na2vs0mg"},{"bike_id":"8c4d45d2-9267-457d-b89f-898dc7d872b2","system_id":"levelo_inurba_marseille","lat":43.32143,"lon":5.38453,"is_reserved":false,"is_disabled":false,"rental_uris":{"android":"levelo://app?vid=8c4d45d2-9267-457d-b89f-898dc7d872b2","ios":"levelo://app?vid=8c4d45d2-9267-457d-b89f-898dc7d872b2"},"vehicle_type_id":"4","last_reported":1733504935,"current_range_meters":25600,"station_id":"","pricing_plan_id":"cebpf4jnsgd1na2vs0mg"},{"bike_id":"19fbc9d9-91cd-409d-b843-18c815400994","system_id":"levelo_inurba_marseille","lat":43.29632,"lon":5.40591,"is_reserved":false,"is_disabled":false,"rental_uris":{"android":"levelo://app?vid=19fbc9d9-91cd-409d-b843-18c815400994","ios":"levelo://app?vid=19fbc9d9-91cd-409d-b843-18c815400994"},"vehicle_type_id":"4","last_reported":1733504935,"current_range_meters":39200,"station_id":"ce4bh0h2rcd13ifvqd60","pricing_plan_id":"cebpf4jnsgd1na2vs0mg"},{"bike_id":"60fda8ce-b743-4733-939e-ac5385043b54","system_id":"levelo_inurba_marseille","lat":43.28937,"lon":5.36633,"is_reserved":false,"is_disabled":false,"rental_uris":{"android":"levelo://app?vid=60fda8ce-b743-4733-939e-ac5385043b54","ios":"levelo://app?vid=60fda8ce-b743-4733-939e-ac5385043b54"},"vehicle_type_id":"4","last_reported":1733504935,"current_range_meters":11600,"station_id":"ce4bhap2rcd13ifvqek0","pricing_plan_id":"cebpf4jnsgd1na2vs0mg"},{"bike_id":"8701139b-c9ad-44e4-ab13-5cc49a843881","system_id":"levelo_inurba_marseille","lat":43.27996,"lon":5.4001,"is_reserved":false,"is_disabled":false,"rental_uris":{"android":"levelo://app?vid=8701139b-c9ad-44e4-ab13-5cc49a843881","ios":"levelo://app?vid=8701139b-c9ad-44e4-ab13-5cc49a843881"},"vehicle_type_id":"4","last_reported":1733504935,"current_range_meters":39200,"station_id":"ce4bho92rcd13ifvqh4g","pricing_plan_id":"cebpf4jnsgd1na2vs0mg"},{"bike_id":"91325407-a7ea-4bdc-af4b-c08f575cedb2","system_id":"levelo_inurba_marseille","lat":43.27209,"lon":5.39179,"is_reserved":false,"is_disabled":true,"rental_uris":{"android":"levelo://app?vid=91325407-a7ea-4bdc-af4b-c08f575cedb2","ios":"levelo://app?vid=91325407-a7ea-4bdc-af4b-c08f575cedb2"},"vehicle_type_id":"4","last_reported":1733504935,"current_range_meters":0,"station_id":"ce4bhhp2rcd13ifvqfm0","pricing_plan_id":"cebpf4jnsgd1na2vs0mg"},{"bike_id":"ae6cd3a6-16d4-47be-bec4-40ac17829962","system_id":"levelo_inurba_marseille","lat":43.31709,"lon":5.43708,"is_reserved":false,"is_disabled":false,"rental_uris":{"android":"levelo://app?vid=ae6cd3a6-16d4-47be-bec4-40ac17829962","ios":"levelo://app?vid=ae6cd3a6-16d4-47be-bec4-40ac17829962"},"vehicle_type_id":"4","last_reported":1733504935,"current_range_meters":34800,"station_id":"ce4bhp92rcd13ifvqhcg","pricing_plan_id":"cebpf4jnsgd1na2vs0mg"},{"bike_id":"43009573-d417-476d-98d2-778bb9dd9c19","system_id":"levelo_inurba_marseille","lat":43.29527,"lon":5.39049,"is_reserved":false,"is_disabled":false,"rental_uris":{"android":"levelo://app?vid=43009573-d417-476d-98d2-778bb9dd9c19","ios":"levelo://app?vid=43009573-d417-476d-98d2-778bb9dd9c19"},"vehicle_type_id":"4","last_reported":1733504935,"current_range_meters":24800,"station_id":"ce4bh3p2rcd13ifvqdp0","pricing_plan_id":"cebpf4jnsgd1na2vs0mg"},{"bike_id":"cdfe6590-4984-4014-86c8-6dd70747c27a","system_id":"levelo_inurba_marseille","lat":43.29737,"lon":5.37434,"is_reserved":false,"is_disabled":true,"rental_uris":{"android":"levelo://app?vid=cdfe6590-4984-4014-86c8-6dd70747c27a","ios":"levelo://app?vid=cdfe6590-4984-4014-86c8-6dd70747c27a"},"vehicle_type_id":"4","last_reported":1733504935,"current_range_meters":0,"station_id":"","pricing_plan_id":"cebpf4jnsgd1na2vs0mg"},{"bike_id":"2a022814-f741-4adf-a235-83d4941bf5e2","system_id":"levelo_inurba_marseille","lat":43.28426,"lon":5.34984,"is_reserved":false,"is_disabled":false,"rental_uris":{"android":"levelo://app?vid=2a022814-f741-4adf-a235-83d4941bf5e2","ios":"levelo://app?vid=2a022814-f741-4adf-a235-83d4941bf5e2"},"vehicle_type_id":"4","last_reported":1733504935,"current_range_meters":24000,"station_id":"ce4bhbh2rcd13ifvqepg","pricing_plan_id":"cebpf4jnsgd1na2vs0mg"},{"bike_id":"384efc0b-9f58-43ef-a659-4581dd1f3800","system_id":"levelo_inurba_marseille","lat":43.25089,"lon":5.39522,"is_reserved":false,"is_disabled":false,"rental_uris":{"android":"levelo://app?vid=384efc0b-9f58-43ef-a659-4581dd1f3800","ios":"levelo://app?vid=384efc0b-9f58-43ef-a659-4581dd1f3800"},"vehicle_type_id":"4","last_reported":1733504935,"current_range_meters":38800,"station_id":"ce4bhm12rcd13ifvqgkg","pricing_plan_id":"cebpf4jnsgd1na2vs0mg"},{"bike_id":"f09be957-2921-42ad-9c19-c7e44d572bfe","system_id":"levelo_inurba_marseille","lat":43.28732,"lon":5.37945,"is_reserved":false,"is_disabled":true,"rental_uris":{"android":"levelo://app?vid=f09be957-2921-42ad-9c19-c7e44d572bfe","ios":"levelo://app?vid=f09be957-2921-42ad-9c19-c7e44d572bfe"},"vehicle_type_id":"4","last_reported":1733504935,"current_range_meters":2000,"station_id":"ce4bh9p2rcd13ifvqec0","pricing_plan_id":"cebpf4jnsgd1na2vs0mg"},{"bike_id":"6b5dce9b-dc0c-49f1-be80-197b24b45f44","system_id":"levelo_inurba_marseille","lat":43.30936,"lon":5.40147,"is_reserved":false,"is_disabled":false,"rental_uris":{"android":"levelo://app?vid=6b5dce9b-dc0c-49f1-be80-197b24b45f44","ios":"levelo://app?vid=6b5dce9b-dc0c-49f1-be80-197b24b45f44"},"vehicle_type_id":"4","last_reported":1733504935,"current_range_meters":10800,"station_id":"ce4bgvp2rcd13ifvqct0","pricing_plan_id":"cebpf4jnsgd1na2vs0mg"},{"bike_id":"e8736526-236c-4961-a970-dd7125004418","system_id":"levelo_inurba_marseille","lat":43.32368,"lon":5.38882,"is_reserved":false,"is_disabled":false,"rental_uris":{"android":"levelo://app?vid=e8736526-236c-4961-a970-dd7125004418","ios":"levelo://app?vid=e8736526-236c-4961-a970-dd7125004418"},"vehicle_type_id":"4","last_reported":1733504935,"current_range_meters":19200,"station_id":"ce4bhqp2rcd13ifvqhog","pricing_plan_id":"cebpf4jnsgd1na2vs0mg"},{"bike_id":"987a5ab4-d60c-480c-94b6-7cab38975402","system_id":"levelo_inurba_marseille","lat":43.29748,"lon":5.37971,"is_reserved":false,"is_disabled":true,"rental_uris":{"android":"levelo://app?vid=987a5ab4-d60c-480c-94b6-7cab38975402","ios":"levelo://app?vid=987a5ab4-d60c-480c-94b6-7cab38975402"},"vehicle_type_id":"4","last_reported":1733504935,"current_range_meters":0,"station_id":"","pricing_plan_id":"cebpf4jnsgd1na2vs0mg"},{"bike_id":"2c4596ad-0ad9-4016-b92b-0093349de2b4","system_id":"levelo_inurba_marseille","lat":43.30755,"lon":5.38187,"is_reserved":false,"is_disabled":true,"rental_uris":{"android":"levelo://app?vid=2c4596ad-0ad9-4016-b92b-0093349de2b4","ios":"levelo://app?vid=2c4596ad-0ad9-4016-b92b-0093349de2b4"},"vehicle_type_id":"4","last_reported":1733504935,"current_range_meters":0,"station_id":"","pricing_plan_id":"cebpf4jnsgd1na2vs0mg"},{"bike_id":"25a33d2c-2601-4adf-8b03-9c7b44512e72","system_id":"levelo_inurba_marseille","lat":43.29569,"lon":5.37497,"is_reserved":false,"is_disabled":true,"rental_uris":{"android":"levelo://app?vid=25a33d2c-2601-4adf-8b03-9c7b44512e72","ios":"levelo://app?vid=25a33d2c-2601-4adf-8b03-9c7b44512e72"},"vehicle_type_id":"4","last_reported":1733504935,"current_range_meters":800,"station_id":"ce4bgh92rcd13ifvqb50","pricing_plan_id":"cebpf4jnsgd1na2vs0mg"},{"bike_id":"8a696230-0cd8-4e37-adec-e0ada77baafb","system_id":"levelo_inurba_marseille","lat":43.29532,"lon":5.38547,"is_reserved":false,"is_disabled":true,"rental_uris":{"android":"levelo://app?vid=8a696230-0cd8-4e37-adec-e0ada77baafb","ios":"levelo://app?vid=8a696230-0cd8-4e37-adec-e0ada77baafb"},"vehicle_type_id":"4","last_reported":1733504935,"current_range_meters":0,"station_id":"ce4bgih2rcd13ifvqba0","pricing_plan_id":"cebpf4jnsgd1na2vs0mg"},{"bike_id":"b7ab8c01-033f-4395-8276-23c850ad3d02","system_id":"levelo_inurba_marseille","lat":43.30348,"lon":5.36626,"is_reserved":false,"is_disabled":true,"rental_uris":{"android":"levelo://app?vid=b7ab8c01-033f-4395-8276-23c850ad3d02","ios":"levelo://app?vid=b7ab8c01-033f-4395-8276-23c850ad3d02"},"vehicle_type_id":"4","last_reported":1733504935,"current_range_meters":0,"station_id":"","pricing_plan_id":"cebpf4jnsgd1na2vs0mg"},{"bike_id":"b52ab50a-7aa8-484c-81c7-fead67df921c","system_id":"levelo_inurba_marseille","lat":43.31049,"lon":5.37676,"is_reserved":false,"is_disabled":true,"rental_uris":{"android":"levelo://app?vid=b52ab50a-7aa8-484c-81c7-fead67df921c","ios":"levelo://app?vid=b52ab50a-7aa8-484c-81c7-fead67df921c"},"vehicle_type_id":"4","last_reported":1733504935,"current_range_meters":4400,"station_id":"","pricing_plan_id":"cebpf4jnsgd1na2vs0mg"},{"bike_id":"9f07c1da-dbd5-413e-8b63-8ad2bd336ffe","system_id":"levelo_inurba_marseille","lat":43.30787,"lon":5.3816,"is_reserved":false,"is_disabled":false,"rental_uris":{"android":"levelo://app?vid=9f07c1da-dbd5-413e-8b63-8ad2bd336ffe","ios":"levelo://app?vid=9f07c1da-dbd5-413e-8b63-8ad2bd336ffe"},"vehicle_type_id":"4","last_reported":1733504935,"current_range_meters":4800,"station_id":"ce4bgt12rcd13ifvqce0","pricing_plan_id":"cebpf4jnsgd1na2vs0mg"},{"bike_id":"aabdb257-8888-4229-a0a4-2fbdece78663","system_id":"levelo_inurba_marseille","lat":43.3248,"lon":5.36571,"is_reserved":false,"is_disabled":false,"rental_uris":{"android":"levelo://app?vid=aabdb257-8888-4229-a0a4-2fbdece78663","ios":"levelo://app?vid=aabdb257-8888-4229-a0a4-2fbdece78663"},"vehicle_type_id":"4","last_reported":1733504935,"current_range_meters":24800,"station_id":"ce4bhs12rcd13ifvqhvg","pricing_plan_id":"cebpf4jnsgd1na2vs0mg"},{"bike_id":"c22fd0f0-3aad-4340-b5e6-1d23d75906bb","system_id":"levelo_inurba_marseille","lat":43.29575,"lon":5.37513,"is_reserved":false,"is_disabled":false,"rental_uris":{"android":"levelo://app?vid=c22fd0f0-3aad-4340-b5e6-1d23d75906bb","ios":"levelo://app?vid=c22fd0f0-3aad-4340-b5e6-1d23d75906bb"},"vehicle_type_id":"4","last_reported":1733504935,"current_range_meters":33200,"station_id":"ce4bgh92rcd13ifvqb50","pricing_plan_id":"cebpf4jnsgd1na2vs0mg"},{"bike_id":"2e5d6bd2-ecb3-47ee-a29a-69076bed61ea","system_id":"levelo_inurba_marseille","lat":43.26487,"lon":5.39552,"is_reserved":false,"is_disabled":false,"rental_uris":{"android":"levelo://app?vid=2e5d6bd2-ecb3-47ee-a29a-69076bed61ea","ios":"levelo://app?vid=2e5d6bd2-ecb3-47ee-a29a-69076bed61ea"},"vehicle_type_id":"4","last_reported":1733504935,"current_range_meters":26800,"station_id":"ce4bhi12rcd13ifvqfq0","pricing_plan_id":"cebpf4jnsgd1na2vs0mg"},{"bike_id":"11e86528-eb6b-4391-86a5-9b1822d069a4","system_id":"levelo_inurba_marseille","lat":43.278805,"lon":5.388003,"is_reserved":false,"is_disabled":true,"rental_uris":{"android":"levelo://app?vid=11e86528-eb6b-4391-86a5-9b1822d069a4","ios":"levelo://app?vid=11e86528-eb6b-4391-86a5-9b1822d069a4"},"vehicle_type_id":"4","last_reported":1733504935,"current_range_meters":4400,"station_id":"","pricing_plan_id":"cebpf4jnsgd1na2vs0mg"},{"bike_id":"6cc6805f-c0ca-4585-bdf1-b5a0339762b0","system_id":"levelo_inurba_marseille","lat":43.29027,"lon":5.42744,"is_reserved":false,"is_disabled":true,"rental_uris":{"android":"levelo://app?vid=6cc6805f-c0ca-4585-bdf1-b5a0339762b0","ios":"levelo://app?vid=6cc6805f-c0ca-4585-bdf1-b5a0339762b0"},"vehicle_type_id":"4","last_reported":1733504935,"current_range_meters":0,"station_id":"","pricing_plan_id":"cebpf4jnsgd1na2vs0mg"},{"bike_id":"4e6fc26f-c1d5-4d84-ac5b-7d384b8c30d5","system_id":"levelo_inurba_marseille","lat":43.32381,"lon":5.36771,"is_reserved":false,"is_disabled":false,"rental_uris":{"android":"levelo://app?vid=4e6fc26f-c1d5-4d84-ac5b-7d384b8c30d5","ios":"levelo://app?vid=4e6fc26f-c1d5-4d84-ac5b-7d384b8c30d5"},"vehicle_type_id":"4","last_reported":1733504935,"current_range_meters":38000,"station_id":"ce4bhsh2rcd13ifvqi2g","pricing_plan_id":"cebpf4jnsgd1na2vs0mg"},{"bike_id":"8d1c8b92-79bb-4181-b0d2-5e94db1a14d0","system_id":"levelo_inurba_marseille","lat":43.29972,"lon":5.3826,"is_reserved":false,"is_disabled":true,"rental_uris":{"android":"levelo://app?vid=8d1c8b92-79bb-4181-b0d2-5e94db1a14d0","ios":"levelo://app?vid=8d1c8b92-79bb-4181-b0d2-5e94db1a14d0"},"vehicle_type_id":"4","last_reported":1733504935,"current_range_meters":0,"station_id":"","pricing_plan_id":"cebpf4jnsgd1na2vs0mg"},{"bike_id":"19c52ba0-f3b7-40c3-93e3-d36d65a05977","system_id":"levelo_inurba_marseille","lat":43.29976,"lon":5.3718,"is_reserved":false,"is_disabled":false,"rental_uris":{"android":"levelo://app?vid=19c52ba0-f3b7-40c3-93e3-d36d65a05977","ios":"levelo://app?vid=19c52ba0-f3b7-40c3-93e3-d36d65a05977"},"vehicle_type_id":"4","last_reported":1733504935,"current_range_meters":24000,"station_id":"ce4bgr92rcd13ifvqc7g","pricing_plan_id":"cebpf4jnsgd1na2vs0mg"},{"bike_id":"7b786ccb-6c0e-430c-b646-81a7f5dc7d8c","system_id":"levelo_inurba_marseille","lat":43.287,"lon":5.37373,"is_reserved":false,"is_disabled":false,"rental_uris":{"android":"levelo://app?vid=7b786ccb-6c0e-430c-b646-81a7f5dc7d8c","ios":"levelo://app?vid=7b786ccb-6c0e-430c-b646-81a7f5dc7d8c"},"vehicle_type_id":"4","last_reported":1733504935,"current_range_meters":6800,"station_id":"ce4bh3p2rcd13ifvqdq0","pricing_plan_id":"cebpf4jnsgd1na2vs0mg"},{"bike_id":"62090ecc-e1d0-4308-a9e8-6b36ef7c946b","system_id":"levelo_inurba_marseille","lat":43.31329,"lon":5.39692,"is_reserved":false,"is_disabled":false,"rental_uris":{"android":"levelo://app?vid=62090ecc-e1d0-4308-a9e8-6b36ef7c946b","ios":"levelo://app?vid=62090ecc-e1d0-4308-a9e8-6b36ef7c946b"},"vehicle_type_id":"4","last_reported":1733504935,"current_range_meters":7200,"station_id":"ce4bgvp2rcd13ifvqcu0","pricing_plan_id":"cebpf4jnsgd1na2vs0mg"},{"bike_id":"03b8788b-2078-4636-a2a4-15b09d7272cd","system_id":"levelo_inurba_marseille","lat":43.27992,"lon":5.40014,"is_reserved":false,"is_disabled":false,"rental_uris":{"android":"levelo://app?vid=03b8788b-2078-4636-a2a4-15b09d7272cd","ios":"levelo://app?vid=03b8788b-2078-4636-a2a4-15b09d7272cd"},"vehicle_type_id":"4","last_reported":1733504935,"current_range_meters":37600,"station_id":"ce4bho92rcd13ifvqh4g","pricing_plan_id":"cebpf4jnsgd1na2vs0mg"},{"bike_id":"4b06a1a0-729a-4acf-a20d-72486e0ecbe6","system_id":"levelo_inurba_marseille","lat":43.2987,"lon":5.39738,"is_reserved":false,"is_disabled":true,"rental_uris":{"android":"levelo://app?vid=4b06a1a0-729a-4acf-a20d-72486e0ecbe6","ios":"levelo://app?vid=4b06a1a0-729a-4acf-a20d-72486e0ecbe6"},"vehicle_type_id":"4","last_reported":1733504935,"current_range_meters":0,"station_id":"ce4bh0h2rcd13ifvqd50","pricing_plan_id":"cebpf4jnsgd1na2vs0mg"},{"bike_id":"0b4a63d2-578b-41d8-9f6a-90b7f42bb8e8","system_id":"levelo_inurba_marseille","lat":43.29287,"lon":5.37452,"is_reserved":false,"is_disabled":true,"rental_uris":{"android":"levelo://app?vid=0b4a63d2-578b-41d8-9f6a-90b7f42bb8e8","ios":"levelo://app?vid=0b4a63d2-578b-41d8-9f6a-90b7f42bb8e8"},"vehicle_type_id":"4","last_reported":1733504935,"current_range_meters":36800,"station_id":"ce4bgi12rcd13ifvqb70","pricing_plan_id":"cebpf4jnsgd1na2vs0mg"},{"bike_id":"3a1cabfd-7ea0-40e5-ba2a-bc16f7acb1fa","system_id":"levelo_inurba_marseille","lat":43.34328,"lon":5.35815,"is_reserved":false,"is_disabled":true,"rental_uris":{"android":"levelo://app?vid=3a1cabfd-7ea0-40e5-ba2a-bc16f7acb1fa","ios":"levelo://app?vid=3a1cabfd-7ea0-40e5-ba2a-bc16f7acb1fa"},"vehicle_type_id":"4","last_reported":1733504935,"current_range_meters":19200,"station_id":"","pricing_plan_id":"cebpf4jnsgd1na2vs0mg"},{"bike_id":"484c4da0-df29-4728-ba65-e2ac5a072c13","system_id":"levelo_inurba_marseille","lat":43.31307,"lon":5.36932,"is_reserved":false,"is_disabled":true,"rental_uris":{"android":"levelo://app?vid=484c4da0-df29-4728-ba65-e2ac5a072c13","ios":"levelo://app?vid=484c4da0-df29-4728-ba65-e2ac5a072c13"},"vehicle_type_id":"4","last_reported":1733504935,"current_range_meters":2000,"station_id":"","pricing_plan_id":"cebpf4jnsgd1na2vs0mg"},{"bike_id":"d1664eee-63a1-464b-a844-7dfb42454c93","system_id":"levelo_inurba_marseille","lat":43.28274,"lon":5.3507,"is_reserved":false,"is_disabled":false,"rental_uris":{"android":"levelo://app?vid=d1664eee-63a1-464b-a844-7dfb42454c93","ios":"levelo://app?vid=d1664eee-63a1-464b-a844-7dfb42454c93"},"vehicle_type_id":"4","last_reported":1733504935,"current_range_meters":38800,"station_id":"ce4bhbp2rcd13ifvqerg","pricing_plan_id":"cebpf4jnsgd1na2vs0mg"},{"bike_id":"877d89fc-6b68-46ae-9945-3b8cc8b7d301","system_id":"levelo_inurba_marseille","lat":43.29719,"lon":5.36594,"is_reserved":false,"is_disabled":false,"rental_uris":{"android":"levelo://app?vid=877d89fc-6b68-46ae-9945-3b8cc8b7d301","ios":"levelo://app?vid=877d89fc-6b68-46ae-9945-3b8cc8b7d301"},"vehicle_type_id":"4","last_reported":1733504935,"current_range_meters":38800,"station_id":"ce4bgn12rcd13ifvqbt0","pricing_plan_id":"cebpf4jnsgd1na2vs0mg"},{"bike_id":"2a6318c5-6e3c-4b3c-883e-b2dd5a7d2484","system_id":"levelo_inurba_marseille","lat":43.28429,"lon":5.39211,"is_reserved":false,"is_disabled":false,"rental_uris":{"android":"levelo://app?vid=2a6318c5-6e3c-4b3c-883e-b2dd5a7d2484","ios":"levelo://app?vid=2a6318c5-6e3c-4b3c-883e-b2dd5a7d2484"},"vehicle_type_id":"4","last_reported":1733504935,"current_range_meters":12000,"station_id":"ce4bhoh2rcd13ifvqh5g","pricing_plan_id":"cebpf4jnsgd1na2vs0mg"},{"bike_id":"cf315912-6fc6-4c2f-9885-dbef65eb8065","system_id":"levelo_inurba_marseille","lat":43.28818,"lon":5.38845,"is_reserved":false,"is_disabled":false,"rental_uris":{"android":"levelo://app?vid=cf315912-6fc6-4c2f-9885-dbef65eb8065","ios":"levelo://app?vid=cf315912-6fc6-4c2f-9885-dbef65eb8065"},"vehicle_type_id":"4","last_reported":1733504935,"current_range_meters":10000,"station_id":"","pricing_plan_id":"cebpf4jnsgd1na2vs0mg"},{"bike_id":"68df752a-1c7b-4cfa-8fc6-8bc372eae8e7","system_id":"levelo_inurba_marseille","lat":43.29973,"lon":5.38482,"is_reserved":false,"is_disabled":false,"rental_uris":{"android":"levelo://app?vid=68df752a-1c7b-4cfa-8fc6-8bc372eae8e7","ios":"levelo://app?vid=68df752a-1c7b-4cfa-8fc6-8bc372eae8e7"},"vehicle_type_id":"4","last_reported":1733504935,"current_range_meters":34800,"station_id":"ce4bgj92rcd13ifvqbd0","pricing_plan_id":"cebpf4jnsgd1na2vs0mg"},{"bike_id":"d93fc7f5-c1a3-4917-9204-c5fd8f3d63c3","system_id":"levelo_inurba_marseille","lat":43.31698,"lon":5.40473,"is_reserved":false,"is_disabled":false,"rental_uris":{"android":"levelo://app?vid=d93fc7f5-c1a3-4917-9204-c5fd8f3d63c3","ios":"levelo://app?vid=d93fc7f5-c1a3-4917-9204-c5fd8f3d63c3"},"vehicle_type_id":"4","last_reported":1733504935,"current_range_meters":2000,"station_id":"ce4bh012rcd13ifvqd00","pricing_plan_id":"cebpf4jnsgd1na2vs0mg"},{"bike_id":"b42d912b-1944-4cc5-a4bf-92545c2f7d24","system_id":"levelo_inurba_marseille","lat":43.28619,"lon":5.35105,"is_reserved":false,"is_disabled":false,"rental_uris":{"android":"levelo://app?vid=b42d912b-1944-4cc5-a4bf-92545c2f7d24","ios":"levelo://app?vid=b42d912b-1944-4cc5-a4bf-92545c2f7d24"},"vehicle_type_id":"4","last_reported":1733504935,"current_range_meters":38000,"station_id":"ce4bhch2rcd13ifvqeug","pricing_plan_id":"cebpf4jnsgd1na2vs0mg"},{"bike_id":"9c77a68d-2e99-44e9-b903-950fb6644d35","system_id":"levelo_inurba_marseille","lat":43.25265,"lon":5.39465,"is_reserved":false,"is_disabled":true,"rental_uris":{"android":"levelo://app?vid=9c77a68d-2e99-44e9-b903-950fb6644d35","ios":"levelo://app?vid=9c77a68d-2e99-44e9-b903-950fb6644d35"},"vehicle_type_id":"4","last_reported":1733504935,"current_range_meters":0,"station_id":"","pricing_plan_id":"cebpf4jnsgd1na2vs0mg"},{"bike_id":"1e9ff9ba-fad2-4f18-8dc0-9161912b5255","system_id":"levelo_inurba_marseille","lat":43.29003,"lon":5.35611,"is_reserved":false,"is_disabled":false,"rental_uris":{"android":"levelo://app?vid=1e9ff9ba-fad2-4f18-8dc0-9161912b5255","ios":"levelo://app?vid=1e9ff9ba-fad2-4f18-8dc0-9161912b5255"},"vehicle_type_id":"4","last_reported":1733504935,"current_range_meters":34000,"station_id":"ce4bhb92rcd13ifvqen0","pricing_plan_id":"cebpf4jnsgd1na2vs0mg"},{"bike_id":"2b7fadde-ccc6-4f7a-9fc1-2875b0a98bbf","system_id":"levelo_inurba_marseille","lat":43.30646,"lon":5.40097,"is_reserved":false,"is_disabled":false,"rental_uris":{"android":"levelo://app?vid=2b7fadde-ccc6-4f7a-9fc1-2875b0a98bbf","ios":"levelo://app?vid=2b7fadde-ccc6-4f7a-9fc1-2875b0a98bbf"},"vehicle_type_id":"4","last_reported":1733504935,"current_range_meters":38800,"station_id":"ce4bh112rcd13ifvqda0","pricing_plan_id":"cebpf4jnsgd1na2vs0mg"},{"bike_id":"45a99d3d-18c7-4943-8d60-ad1491c0fa82","system_id":"levelo_inurba_marseille","lat":43.27568,"lon":5.38427,"is_reserved":false,"is_disabled":true,"rental_uris":{"android":"levelo://app?vid=45a99d3d-18c7-4943-8d60-ad1491c0fa82","ios":"levelo://app?vid=45a99d3d-18c7-4943-8d60-ad1491c0fa82"},"vehicle_type_id":"4","last_reported":1733504935,"current_range_meters":38000,"station_id":"ce4bhh92rcd13ifvqfi0","pricing_plan_id":"cebpf4jnsgd1na2vs0mg"},{"bike_id":"2a76e2c4-f345-433e-ba85-e0577d027046","system_id":"levelo_inurba_marseille","lat":43.26552,"lon":5.37287,"is_reserved":false,"is_disabled":false,"rental_uris":{"android":"levelo://app?vid=2a76e2c4-f345-433e-ba85-e0577d027046","ios":"levelo://app?vid=2a76e2c4-f345-433e-ba85-e0577d027046"},"vehicle_type_id":"4","last_reported":1733504935,"current_range_meters":36800,"station_id":"ce4bhg12rcd13ifvqf70","pricing_plan_id":"cebpf4jnsgd1na2vs0mg"},{"bike_id":"83985555-c848-4b28-808f-8a7e7cf8519e","system_id":"levelo_inurba_marseille","lat":43.28115,"lon":5.43955,"is_reserved":false,"is_disabled":true,"rental_uris":{"android":"levelo://app?vid=83985555-c848-4b28-808f-8a7e7cf8519e","ios":"levelo://app?vid=83985555-c848-4b28-808f-8a7e7cf8519e"},"vehicle_type_id":"4","last_reported":1733504935,"current_range_meters":0,"station_id":"","pricing_plan_id":"cebpf4jnsgd1na2vs0mg"},{"bike_id":"85f8da72-3fae-4873-a2d5-5377f73a2e75","system_id":"levelo_inurba_marseille","lat":43.29699,"lon":5.36604,"is_reserved":false,"is_disabled":false,"rental_uris":{"android":"levelo://app?vid=85f8da72-3fae-4873-a2d5-5377f73a2e75","ios":"levelo://app?vid=85f8da72-3fae-4873-a2d5-5377f73a2e75"},"vehicle_type_id":"4","last_reported":1733504935,"current_range_meters":8800,"station_id":"ce4bgn12rcd13ifvqbt0","pricing_plan_id":"cebpf4jnsgd1na2vs0mg"},{"bike_id":"84eddd35-4076-462c-b0e4-9c17c748aeff","system_id":"levelo_inurba_marseille","lat":43.33771,"lon":5.37491,"is_reserved":false,"is_disabled":false,"rental_uris":{"android":"levelo://app?vid=84eddd35-4076-462c-b0e4-9c17c748aeff","ios":"levelo://app?vid=84eddd35-4076-462c-b0e4-9c17c748aeff"},"vehicle_type_id":"4","last_reported":1733504935,"current_range_meters":22400,"station_id":"","pricing_plan_id":"cebpf4jnsgd1na2vs0mg"},{"bike_id":"f0d3a8b0-7f91-4a10-9d7c-db78ae274294","system_id":"levelo_inurba_marseille","lat":43.32055,"lon":5.37107,"is_reserved":false,"is_disabled":false,"rental_uris":{"android":"levelo://app?vid=f0d3a8b0-7f91-4a10-9d7c-db78ae274294","ios":"levelo://app?vid=f0d3a8b0-7f91-4a10-9d7c-db78ae274294"},"vehicle_type_id":"4","last_reported":1733504935,"current_range_meters":27200,"station_id":"","pricing_plan_id":"cebpf4jnsgd1na2vs0mg"},{"bike_id":"d4f01f1b-a673-4b12-9d3c-8bd61f84ec6f","system_id":"levelo_inurba_marseille","lat":43.31196,"lon":5.36743,"is_reserved":false,"is_disabled":false,"rental_uris":{"android":"levelo://app?vid=d4f01f1b-a673-4b12-9d3c-8bd61f84ec6f","ios":"levelo://app?vid=d4f01f1b-a673-4b12-9d3c-8bd61f84ec6f"},"vehicle_type_id":"4","last_reported":1733504935,"current_range_meters":8000,"station_id":"","pricing_plan_id":"cebpf4jnsgd1na2vs0mg"},{"bike_id":"bf0f36bf-905b-4dd9-b305-d5eb15beb9b1","system_id":"levelo_inurba_marseille","lat":43.2835,"lon":5.38095,"is_reserved":false,"is_disabled":false,"rental_uris":{"android":"levelo://app?vid=bf0f36bf-905b-4dd9-b305-d5eb15beb9b1","ios":"levelo://app?vid=bf0f36bf-905b-4dd9-b305-d5eb15beb9b1"},"vehicle_type_id":"4","last_reported":1733504935,"current_range_meters":27600,"station_id":"ce4bh412rcd13ifvqdr0","pricing_plan_id":"cebpf4jnsgd1na2vs0mg"},{"bike_id":"6c2c8cab-1e52-4ed1-b318-ed95609de34b","system_id":"levelo_inurba_marseille","lat":43.30143,"lon":5.37416,"is_reserved":false,"is_disabled":false,"rental_uris":{"android":"levelo://app?vid=6c2c8cab-1e52-4ed1-b318-ed95609de34b","ios":"levelo://app?vid=6c2c8cab-1e52-4ed1-b318-ed95609de34b"},"vehicle_type_id":"4","last_reported":1733504935,"current_range_meters":6400,"station_id":"ce4bgs92rcd13ifvqcc0","pricing_plan_id":"cebpf4jnsgd1na2vs0mg"},{"bike_id":"a8264fb2-dad4-4c52-9230-cf80b47302d6","system_id":"levelo_inurba_marseille","lat":43.31994,"lon":5.38154,"is_reserved":false,"is_disabled":false,"rental_uris":{"android":"levelo://app?vid=a8264fb2-dad4-4c52-9230-cf80b47302d6","ios":"levelo://app?vid=a8264fb2-dad4-4c52-9230-cf80b47302d6"},"vehicle_type_id":"4","last_reported":1733504935,"current_range_meters":11600,"station_id":"ce4bhr12rcd13ifvqhpg","pricing_plan_id":"cebpf4jnsgd1na2vs0mg"},{"bike_id":"5edf82fa-e9d0-4d1f-98f1-37c98092771a","system_id":"levelo_inurba_marseille","lat":43.23191,"lon":5.35539,"is_reserved":false,"is_disabled":false,"rental_uris":{"android":"levelo://app?vid=5edf82fa-e9d0-4d1f-98f1-37c98092771a","ios":"levelo://app?vid=5edf82fa-e9d0-4d1f-98f1-37c98092771a"},"vehicle_type_id":"4","last_reported":1733504935,"current_range_meters":39200,"station_id":"ce4bhu92rcd13ifvqi70","pricing_plan_id":"cebpf4jnsgd1na2vs0mg"},{"bike_id":"870f1a45-5cd2-4b5d-a5c5-1df7eb02cf49","system_id":"levelo_inurba_marseille","lat":43.29931,"lon":5.36539,"is_reserved":false,"is_disabled":true,"rental_uris":{"android":"levelo://app?vid=870f1a45-5cd2-4b5d-a5c5-1df7eb02cf49","ios":"levelo://app?vid=870f1a45-5cd2-4b5d-a5c5-1df7eb02cf49"},"vehicle_type_id":"4","last_reported":1733504935,"current_range_meters":0,"station_id":"ce4bgm92rcd13ifvqbr0","pricing_plan_id":"cebpf4jnsgd1na2vs0mg"},{"bike_id":"cb4a9db6-7563-4a33-a955-6eb0af1f7b34","system_id":"levelo_inurba_marseille","lat":43.28153,"lon":5.42639,"is_reserved":false,"is_disabled":false,"rental_uris":{"android":"levelo://app?vid=cb4a9db6-7563-4a33-a955-6eb0af1f7b34","ios":"levelo://app?vid=cb4a9db6-7563-4a33-a955-6eb0af1f7b34"},"vehicle_type_id":"4","last_reported":1733504935,"current_range_meters":0,"station_id":"ce4bhnh2rcd13ifvqgug","pricing_plan_id":"cebpf4jnsgd1na2vs0mg"},{"bike_id":"1b726f39-062b-4383-b8a9-38410a00550e","system_id":"levelo_inurba_marseille","lat":43.29171,"lon":5.37136,"is_reserved":false,"is_disabled":false,"rental_uris":{"android":"levelo://app?vid=1b726f39-062b-4383-b8a9-38410a00550e","ios":"levelo://app?vid=1b726f39-062b-4383-b8a9-38410a00550e"},"vehicle_type_id":"4","last_reported":1733504935,"current_range_meters":9200,"station_id":"ce4bha92rcd13ifvqeh0","pricing_plan_id":"cebpf4jnsgd1na2vs0mg"},{"bike_id":"75683291-5595-4d31-95ca-dee84c3a390c","system_id":"levelo_inurba_marseille","lat":43.25828,"lon":5.39429,"is_reserved":false,"is_disabled":false,"rental_uris":{"android":"levelo://app?vid=75683291-5595-4d31-95ca-dee84c3a390c","ios":"levelo://app?vid=75683291-5595-4d31-95ca-dee84c3a390c"},"vehicle_type_id":"4","last_reported":1733504935,"current_range_meters":38800,"station_id":"ce4bhip2rcd13ifvqft0","pricing_plan_id":"cebpf4jnsgd1na2vs0mg"},{"bike_id":"c1211323-6306-4551-84c1-86f86ca4506c","system_id":"levelo_inurba_marseille","lat":43.30925,"lon":5.40157,"is_reserved":false,"is_disabled":false,"rental_uris":{"android":"levelo://app?vid=c1211323-6306-4551-84c1-86f86ca4506c","ios":"levelo://app?vid=c1211323-6306-4551-84c1-86f86ca4506c"},"vehicle_type_id":"4","last_reported":1733504935,"current_range_meters":22400,"station_id":"ce4bgvp2rcd13ifvqct0","pricing_plan_id":"cebpf4jnsgd1na2vs0mg"},{"bike_id":"2e73801d-3395-46c2-91c4-86882530a7f3","system_id":"levelo_inurba_marseille","lat":43.31246,"lon":5.38142,"is_reserved":false,"is_disabled":false,"rental_uris":{"android":"levelo://app?vid=2e73801d-3395-46c2-91c4-86882530a7f3","ios":"levelo://app?vid=2e73801d-3395-46c2-91c4-86882530a7f3"},"vehicle_type_id":"4","last_reported":1733504935,"current_range_meters":25200,"station_id":"","pricing_plan_id":"cebpf4jnsgd1na2vs0mg"},{"bike_id":"3ac118e6-721e-40e5-aa6f-e0ea2c89658e","system_id":"levelo_inurba_marseille","lat":43.29928,"lon":5.36542,"is_reserved":false,"is_disabled":false,"rental_uris":{"android":"levelo://app?vid=3ac118e6-721e-40e5-aa6f-e0ea2c89658e","ios":"levelo://app?vid=3ac118e6-721e-40e5-aa6f-e0ea2c89658e"},"vehicle_type_id":"4","last_reported":1733504935,"current_range_meters":31200,"station_id":"ce4bgm92rcd13ifvqbr0","pricing_plan_id":"cebpf4jnsgd1na2vs0mg"},{"bike_id":"9202c63e-372c-4469-a5c1-8e35757d1940","system_id":"levelo_inurba_marseille","lat":43.30053,"lon":5.38832,"is_reserved":false,"is_disabled":true,"rental_uris":{"android":"levelo://app?vid=9202c63e-372c-4469-a5c1-8e35757d1940","ios":"levelo://app?vid=9202c63e-372c-4469-a5c1-8e35757d1940"},"vehicle_type_id":"4","last_reported":1733504935,"current_range_meters":0,"station_id":"","pricing_plan_id":"cebpf4jnsgd1na2vs0mg"},{"bike_id":"eb896402-09db-467f-811b-5ef4e27cce2e","system_id":"levelo_inurba_marseille","lat":43.30679,"lon":5.3731,"is_reserved":false,"is_disabled":false,"rental_uris":{"android":"levelo://app?vid=eb896402-09db-467f-811b-5ef4e27cce2e","ios":"levelo://app?vid=eb896402-09db-467f-811b-5ef4e27cce2e"},"vehicle_type_id":"4","last_reported":1733504935,"current_range_meters":9600,"station_id":"","pricing_plan_id":"cebpf4jnsgd1na2vs0mg"},{"bike_id":"46acab1c-b930-43bf-8bcc-35f631109a13","system_id":"levelo_inurba_marseille","lat":43.26732,"lon":5.39446,"is_reserved":false,"is_disabled":true,"rental_uris":{"android":"levelo://app?vid=46acab1c-b930-43bf-8bcc-35f631109a13","ios":"levelo://app?vid=46acab1c-b930-43bf-8bcc-35f631109a13"},"vehicle_type_id":"4","last_reported":1733504935,"current_range_meters":800,"station_id":"","pricing_plan_id":"cebpf4jnsgd1na2vs0mg"},{"bike_id":"bc03bdb8-5385-48d4-b1a9-a64798c1d4cf","system_id":"levelo_inurba_marseille","lat":43.31321,"lon":5.39697,"is_reserved":false,"is_disabled":false,"rental_uris":{"android":"levelo://app?vid=bc03bdb8-5385-48d4-b1a9-a64798c1d4cf","ios":"levelo://app?vid=bc03bdb8-5385-48d4-b1a9-a64798c1d4cf"},"vehicle_type_id":"4","last_reported":1733504935,"current_range_meters":8000,"station_id":"ce4bgvp2rcd13ifvqcu0","pricing_plan_id":"cebpf4jnsgd1na2vs0mg"},{"bike_id":"efe0f243-7bd0-4bb8-a184-e83fed15bc4a","system_id":"levelo_inurba_marseille","lat":43.26059,"lon":5.394,"is_reserved":false,"is_disabled":true,"rental_uris":{"android":"levelo://app?vid=efe0f243-7bd0-4bb8-a184-e83fed15bc4a","ios":"levelo://app?vid=efe0f243-7bd0-4bb8-a184-e83fed15bc4a"},"vehicle_type_id":"4","last_reported":1733504935,"current_range_meters":1200,"station_id":"ce4bhh92rcd13ifvqfj0","pricing_plan_id":"cebpf4jnsgd1na2vs0mg"},{"bike_id":"0deb7b46-3bee-4382-87b1-3984fb62457f","system_id":"levelo_inurba_marseille","lat":43.28751,"lon":5.38914,"is_reserved":false,"is_disabled":true,"rental_uris":{"android":"levelo://app?vid=0deb7b46-3bee-4382-87b1-3984fb62457f","ios":"levelo://app?vid=0deb7b46-3bee-4382-87b1-3984fb62457f"},"vehicle_type_id":"4","last_reported":1733504935,"current_range_meters":30000,"station_id":"","pricing_plan_id":"cebpf4jnsgd1na2vs0mg"},{"bike_id":"cf3e6ea0-09ff-406c-b357-28a6a6117f94","system_id":"levelo_inurba_marseille","lat":43.22932,"lon":5.35378,"is_reserved":false,"is_disabled":false,"rental_uris":{"android":"levelo://app?vid=cf3e6ea0-09ff-406c-b357-28a6a6117f94","ios":"levelo://app?vid=cf3e6ea0-09ff-406c-b357-28a6a6117f94"},"vehicle_type_id":"4","last_reported":1733504935,"current_range_meters":38800,"station_id":"cpo3532slgdg3j2ikp40","pricing_plan_id":"cebpf4jnsgd1na2vs0mg"},{"bike_id":"5617d212-1afa-48ed-822d-14b207793a35","system_id":"levelo_inurba_marseille","lat":43.30313,"lon":5.369,"is_reserved":false,"is_disabled":false,"rental_uris":{"android":"levelo://app?vid=5617d212-1afa-48ed-822d-14b207793a35","ios":"levelo://app?vid=5617d212-1afa-48ed-822d-14b207793a35"},"vehicle_type_id":"4","last_reported":1733504935,"current_range_meters":17200,"station_id":"ce4bgqh2rcd13ifvqc5g","pricing_plan_id":"cebpf4jnsgd1na2vs0mg"},{"bike_id":"07b8c281-3be1-46fd-bf35-bd455797c16c","system_id":"levelo_inurba_marseille","lat":43.23195,"lon":5.35554,"is_reserved":false,"is_disabled":false,"rental_uris":{"android":"levelo://app?vid=07b8c281-3be1-46fd-bf35-bd455797c16c","ios":"levelo://app?vid=07b8c281-3be1-46fd-bf35-bd455797c16c"},"vehicle_type_id":"4","last_reported":1733504935,"current_range_meters":38000,"station_id":"ce4bhu92rcd13ifvqi70","pricing_plan_id":"cebpf4jnsgd1na2vs0mg"},{"bike_id":"719e509a-25e4-4b1b-9830-f708d85d7593","system_id":"levelo_inurba_marseille","lat":43.29404,"lon":5.37451,"is_reserved":false,"is_disabled":true,"rental_uris":{"android":"levelo://app?vid=719e509a-25e4-4b1b-9830-f708d85d7593","ios":"levelo://app?vid=719e509a-25e4-4b1b-9830-f708d85d7593"},"vehicle_type_id":"4","last_reported":1733504935,"current_range_meters":0,"station_id":"","pricing_plan_id":"cebpf4jnsgd1na2vs0mg"},{"bike_id":"e2a8195d-02ad-4d54-836e-27c50400952f","system_id":"levelo_inurba_marseille","lat":43.30798,"lon":5.43531,"is_reserved":false,"is_disabled":false,"rental_uris":{"android":"levelo://app?vid=e2a8195d-02ad-4d54-836e-27c50400952f","ios":"levelo://app?vid=e2a8195d-02ad-4d54-836e-27c50400952f"},"vehicle_type_id":"4","last_reported":1733504935,"current_range_meters":23200,"station_id":"ce4bhph2rcd13ifvqheg","pricing_plan_id":"cebpf4jnsgd1na2vs0mg"},{"bike_id":"8dd225eb-8e03-43ac-9f23-a76371cb09b7","system_id":"levelo_inurba_marseille","lat":43.279358,"lon":5.382583,"is_reserved":false,"is_disabled":false,"rental_uris":{"android":"levelo://app?vid=8dd225eb-8e03-43ac-9f23-a76371cb09b7","ios":"levelo://app?vid=8dd225eb-8e03-43ac-9f23-a76371cb09b7"},"vehicle_type_id":"4","last_reported":1733504935,"current_range_meters":10800,"station_id":"ce4bhgp2rcd13ifvqfe0","pricing_plan_id":"cebpf4jnsgd1na2vs0mg"},{"bike_id":"bbe34995-412f-4533-93f8-6e10fad5fbe8","system_id":"levelo_inurba_marseille","lat":43.26788,"lon":5.39413,"is_reserved":false,"is_disabled":false,"rental_uris":{"android":"levelo://app?vid=bbe34995-412f-4533-93f8-6e10fad5fbe8","ios":"levelo://app?vid=bbe34995-412f-4533-93f8-6e10fad5fbe8"},"vehicle_type_id":"4","last_reported":1733504935,"current_range_meters":8800,"station_id":"ce4bhh12rcd13ifvqfg0","pricing_plan_id":"cebpf4jnsgd1na2vs0mg"},{"bike_id":"7a0a2714-105e-4622-8b3e-a7dd62dc6941","system_id":"levelo_inurba_marseille","lat":43.29266,"lon":5.384189,"is_reserved":false,"is_disabled":true,"rental_uris":{"android":"levelo://app?vid=7a0a2714-105e-4622-8b3e-a7dd62dc6941","ios":"levelo://app?vid=7a0a2714-105e-4622-8b3e-a7dd62dc6941"},"vehicle_type_id":"4","last_reported":1733504935,"current_range_meters":0,"station_id":"","pricing_plan_id":"cebpf4jnsgd1na2vs0mg"},{"bike_id":"cb957508-49b1-49b8-b78d-4cc317e7c95d","system_id":"levelo_inurba_marseille","lat":43.26805,"lon":5.40267,"is_reserved":false,"is_disabled":false,"rental_uris":{"android":"levelo://app?vid=cb957508-49b1-49b8-b78d-4cc317e7c95d","ios":"levelo://app?vid=cb957508-49b1-49b8-b78d-4cc317e7c95d"},"vehicle_type_id":"4","last_reported":1733504935,"current_range_meters":25600,"station_id":"ce501612rcd8frsf0b60","pricing_plan_id":"cebpf4jnsgd1na2vs0mg"},{"bike_id":"e9263909-bf94-44ea-a0f7-1ab6e38aafeb","system_id":"levelo_inurba_marseille","lat":43.29609,"lon":5.3774,"is_reserved":false,"is_disabled":false,"rental_uris":{"android":"levelo://app?vid=e9263909-bf94-44ea-a0f7-1ab6e38aafeb","ios":"levelo://app?vid=e9263909-bf94-44ea-a0f7-1ab6e38aafeb"},"vehicle_type_id":"4","last_reported":1733504935,"current_range_meters":8400,"station_id":"ce4bgi92rcd13ifvqb90","pricing_plan_id":"cebpf4jnsgd1na2vs0mg"},{"bike_id":"2e741ac3-b20a-4ff6-bfaa-89f37b5897c9","system_id":"levelo_inurba_marseille","lat":43.29591,"lon":5.38099,"is_reserved":false,"is_disabled":false,"rental_uris":{"android":"levelo://app?vid=2e741ac3-b20a-4ff6-bfaa-89f37b5897c9","ios":"levelo://app?vid=2e741ac3-b20a-4ff6-bfaa-89f37b5897c9"},"vehicle_type_id":"4","last_reported":1733504935,"current_range_meters":35200,"station_id":"ce4bgl12rcd13ifvqbo0","pricing_plan_id":"cebpf4jnsgd1na2vs0mg"},{"bike_id":"6305c89b-37f3-4446-a24e-f92eafb70722","system_id":"levelo_inurba_marseille","lat":43.29228,"lon":5.36074,"is_reserved":false,"is_disabled":false,"rental_uris":{"android":"levelo://app?vid=6305c89b-37f3-4446-a24e-f92eafb70722","ios":"levelo://app?vid=6305c89b-37f3-4446-a24e-f92eafb70722"},"vehicle_type_id":"4","last_reported":1733504935,"current_range_meters":33600,"station_id":"ce4bhbh2rcd13ifvqeqg","pricing_plan_id":"cebpf4jnsgd1na2vs0mg"},{"bike_id":"33f1a526-a5a3-4261-b1e0-d90c46ff918d","system_id":"levelo_inurba_marseille","lat":43.28157,"lon":5.42643,"is_reserved":false,"is_disabled":true,"rental_uris":{"android":"levelo://app?vid=33f1a526-a5a3-4261-b1e0-d90c46ff918d","ios":"levelo://app?vid=33f1a526-a5a3-4261-b1e0-d90c46ff918d"},"vehicle_type_id":"4","last_reported":1733504935,"current_range_meters":36400,"station_id":"ce4bhnh2rcd13ifvqgug","pricing_plan_id":"cebpf4jnsgd1na2vs0mg"},{"bike_id":"4df258f5-53bc-4836-b04d-62f6101c9015","system_id":"levelo_inurba_marseille","lat":43.28406,"lon":5.37524,"is_reserved":false,"is_disabled":true,"rental_uris":{"android":"levelo://app?vid=4df258f5-53bc-4836-b04d-62f6101c9015","ios":"levelo://app?vid=4df258f5-53bc-4836-b04d-62f6101c9015"},"vehicle_type_id":"4","last_reported":1733504935,"current_range_meters":0,"station_id":"ce4bh412rcd13ifvqds0","pricing_plan_id":"cebpf4jnsgd1na2vs0mg"},{"bike_id":"aa9b407c-027c-4331-a646-f75c35b94d82","system_id":"levelo_inurba_marseille","lat":43.30299,"lon":5.36893,"is_reserved":false,"is_disabled":false,"rental_uris":{"android":"levelo://app?vid=aa9b407c-027c-4331-a646-f75c35b94d82","ios":"levelo://app?vid=aa9b407c-027c-4331-a646-f75c35b94d82"},"vehicle_type_id":"4","last_reported":1733504935,"current_range_meters":37600,"station_id":"ce4bgqh2rcd13ifvqc5g","pricing_plan_id":"cebpf4jnsgd1na2vs0mg"},{"bike_id":"fcb62435-bf2a-4b29-aa1d-0883c27a83a9","system_id":"levelo_inurba_marseille","lat":43.28418,"lon":5.34997,"is_reserved":false,"is_disabled":false,"rental_uris":{"android":"levelo://app?vid=fcb62435-bf2a-4b29-aa1d-0883c27a83a9","ios":"levelo://app?vid=fcb62435-bf2a-4b29-aa1d-0883c27a83a9"},"vehicle_type_id":"4","last_reported":1733504935,"current_range_meters":38800,"station_id":"ce4bhbh2rcd13ifvqepg","pricing_plan_id":"cebpf4jnsgd1na2vs0mg"},{"bike_id":"b01ba929-1580-401b-973d-e4a15d746d4a","system_id":"levelo_inurba_marseille","lat":43.22928,"lon":5.35377,"is_reserved":false,"is_disabled":false,"rental_uris":{"android":"levelo://app?vid=b01ba929-1580-401b-973d-e4a15d746d4a","ios":"levelo://app?vid=b01ba929-1580-401b-973d-e4a15d746d4a"},"vehicle_type_id":"4","last_reported":1733504935,"current_range_meters":8400,"station_id":"cpo3532slgdg3j2ikp40","pricing_plan_id":"cebpf4jnsgd1na2vs0mg"},{"bike_id":"8c1e28b4-904f-48d7-ba6d-d3b5b5d05922","system_id":"levelo_inurba_marseille","lat":43.29389,"lon":5.40108,"is_reserved":false,"is_disabled":true,"rental_uris":{"android":"levelo://app?vid=8c1e28b4-904f-48d7-ba6d-d3b5b5d05922","ios":"levelo://app?vid=8c1e28b4-904f-48d7-ba6d-d3b5b5d05922"},"vehicle_type_id":"4","last_reported":1733504935,"current_range_meters":0,"station_id":"","pricing_plan_id":"cebpf4jnsgd1na2vs0mg"},{"bike_id":"0a43f817-3d21-4907-aab1-172705ef3170","system_id":"levelo_inurba_marseille","lat":43.27824,"lon":5.40714,"is_reserved":false,"is_disabled":false,"rental_uris":{"android":"levelo://app?vid=0a43f817-3d21-4907-aab1-172705ef3170","ios":"levelo://app?vid=0a43f817-3d21-4907-aab1-172705ef3170"},"vehicle_type_id":"4","last_reported":1733504935,"current_range_meters":28400,"station_id":"ce4bhnh2rcd13ifvqgtg","pricing_plan_id":"cebpf4jnsgd1na2vs0mg"},{"bike_id":"7b9b3679-8df0-485d-a17a-ac62ea96167a","system_id":"levelo_inurba_marseille","lat":43.27955,"lon":5.38727,"is_reserved":false,"is_disabled":true,"rental_uris":{"android":"levelo://app?vid=7b9b3679-8df0-485d-a17a-ac62ea96167a","ios":"levelo://app?vid=7b9b3679-8df0-485d-a17a-ac62ea96167a"},"vehicle_type_id":"4","last_reported":1733504935,"current_range_meters":12800,"station_id":"ce4bhg12rcd13ifvqf80","pricing_plan_id":"cebpf4jnsgd1na2vs0mg"},{"bike_id":"cef65f47-9707-4b7e-9ba6-9e71782a230c","system_id":"levelo_inurba_marseille","lat":43.29522,"lon":5.39049,"is_reserved":false,"is_disabled":false,"rental_uris":{"android":"levelo://app?vid=cef65f47-9707-4b7e-9ba6-9e71782a230c","ios":"levelo://app?vid=cef65f47-9707-4b7e-9ba6-9e71782a230c"},"vehicle_type_id":"4","last_reported":1733504935,"current_range_meters":32000,"station_id":"ce4bh3p2rcd13ifvqdp0","pricing_plan_id":"cebpf4jnsgd1na2vs0mg"},{"bike_id":"0739cb89-586c-4275-beff-81c62ae67a52","system_id":"levelo_inurba_marseille","lat":43.27812,"lon":5.40714,"is_reserved":false,"is_disabled":false,"rental_uris":{"android":"levelo://app?vid=0739cb89-586c-4275-beff-81c62ae67a52","ios":"levelo://app?vid=0739cb89-586c-4275-beff-81c62ae67a52"},"vehicle_type_id":"4","last_reported":1733504935,"current_range_meters":38800,"station_id":"ce4bhnh2rcd13ifvqgtg","pricing_plan_id":"cebpf4jnsgd1na2vs0mg"},{"bike_id":"82cd755e-b735-4db4-98de-867dfb265ddd","system_id":"levelo_inurba_marseille","lat":43.32362,"lon":5.38878,"is_reserved":false,"is_disabled":false,"rental_uris":{"android":"levelo://app?vid=82cd755e-b735-4db4-98de-867dfb265ddd","ios":"levelo://app?vid=82cd755e-b735-4db4-98de-867dfb265ddd"},"vehicle_type_id":"4","last_reported":1733504935,"current_range_meters":9200,"station_id":"ce4bhqp2rcd13ifvqhog","pricing_plan_id":"cebpf4jnsgd1na2vs0mg"},{"bike_id":"c7219a6e-1485-4c00-833f-83088a4b0941","system_id":"levelo_inurba_marseille","lat":43.2804,"lon":5.36943,"is_reserved":false,"is_disabled":false,"rental_uris":{"android":"levelo://app?vid=c7219a6e-1485-4c00-833f-83088a4b0941","ios":"levelo://app?vid=c7219a6e-1485-4c00-833f-83088a4b0941"},"vehicle_type_id":"4","last_reported":1733504935,"current_range_meters":36400,"station_id":"ce4bha12rcd13ifvqef0","pricing_plan_id":"cebpf4jnsgd1na2vs0mg"},{"bike_id":"6ad8fff5-6505-40fc-8922-2acdd3c82e7b","system_id":"levelo_inurba_marseille","lat":43.29785,"lon":5.38111,"is_reserved":false,"is_disabled":true,"rental_uris":{"android":"levelo://app?vid=6ad8fff5-6505-40fc-8922-2acdd3c82e7b","ios":"levelo://app?vid=6ad8fff5-6505-40fc-8922-2acdd3c82e7b"},"vehicle_type_id":"4","last_reported":1733504935,"current_range_meters":23200,"station_id":"ce4bgip2rcd13ifvqbb0","pricing_plan_id":"cebpf4jnsgd1na2vs0mg"},{"bike_id":"7f3e5379-4164-4786-9154-aacb13f149a3","system_id":"levelo_inurba_marseille","lat":43.28605,"lon":5.35099,"is_reserved":false,"is_disabled":false,"rental_uris":{"android":"levelo://app?vid=7f3e5379-4164-4786-9154-aacb13f149a3","ios":"levelo://app?vid=7f3e5379-4164-4786-9154-aacb13f149a3"},"vehicle_type_id":"4","last_reported":1733504935,"current_range_meters":38800,"station_id":"ce4bhch2rcd13ifvqeug","pricing_plan_id":"cebpf4jnsgd1na2vs0mg"},{"bike_id":"8eb0d0c6-cfaf-4968-8ce1-d4622a486dbb","system_id":"levelo_inurba_marseille","lat":43.3373,"lon":5.39187,"is_reserved":false,"is_disabled":false,"rental_uris":{"android":"levelo://app?vid=8eb0d0c6-cfaf-4968-8ce1-d4622a486dbb","ios":"levelo://app?vid=8eb0d0c6-cfaf-4968-8ce1-d4622a486dbb"},"vehicle_type_id":"4","last_reported":1733504935,"current_range_meters":38800,"station_id":"ce4bhr92rcd13ifvqhsg","pricing_plan_id":"cebpf4jnsgd1na2vs0mg"},{"bike_id":"d0a759de-52a3-4eb8-8fd7-476da4358f27","system_id":"levelo_inurba_marseille","lat":43.27069,"lon":5.42281,"is_reserved":false,"is_disabled":true,"rental_uris":{"android":"levelo://app?vid=d0a759de-52a3-4eb8-8fd7-476da4358f27","ios":"levelo://app?vid=d0a759de-52a3-4eb8-8fd7-476da4358f27"},"vehicle_type_id":"4","last_reported":1733504935,"current_range_meters":0,"station_id":"ce4bhk92rcd13ifvqgb0","pricing_plan_id":"cebpf4jnsgd1na2vs0mg"},{"bike_id":"54352a47-ccf3-48ad-ac4b-1e9f323ca670","system_id":"levelo_inurba_marseille","lat":43.29455,"lon":5.39755,"is_reserved":false,"is_disabled":false,"rental_uris":{"android":"levelo://app?vid=54352a47-ccf3-48ad-ac4b-1e9f323ca670","ios":"levelo://app?vid=54352a47-ccf3-48ad-ac4b-1e9f323ca670"},"vehicle_type_id":"4","last_reported":1733504935,"current_range_meters":8000,"station_id":"ce4bh3h2rcd13ifvqdo0","pricing_plan_id":"cebpf4jnsgd1na2vs0mg"},{"bike_id":"e2d9deb8-7293-4835-b8a3-99e611a7c6be","system_id":"levelo_inurba_marseille","lat":43.32332,"lon":5.40631,"is_reserved":false,"is_disabled":false,"rental_uris":{"android":"levelo://app?vid=e2d9deb8-7293-4835-b8a3-99e611a7c6be","ios":"levelo://app?vid=e2d9deb8-7293-4835-b8a3-99e611a7c6be"},"vehicle_type_id":"4","last_reported":1733504935,"current_range_meters":24800,"station_id":"ce4bhq92rcd13ifvqhjg","pricing_plan_id":"cebpf4jnsgd1na2vs0mg"},{"bike_id":"a4b9e425-64b8-4ce2-a5ab-5fcc5d1230a4","system_id":"levelo_inurba_marseille","lat":43.32103,"lon":5.36775,"is_reserved":false,"is_disabled":false,"rental_uris":{"android":"levelo://app?vid=a4b9e425-64b8-4ce2-a5ab-5fcc5d1230a4","ios":"levelo://app?vid=a4b9e425-64b8-4ce2-a5ab-5fcc5d1230a4"},"vehicle_type_id":"4","last_reported":1733504935,"current_range_meters":28800,"station_id":"ce4bhrh2rcd13ifvqhug","pricing_plan_id":"cebpf4jnsgd1na2vs0mg"},{"bike_id":"81b50d7b-6097-4808-9c6a-48e4159a2c7a","system_id":"levelo_inurba_marseille","lat":43.28418,"lon":5.375016,"is_reserved":false,"is_disabled":false,"rental_uris":{"android":"levelo://app?vid=81b50d7b-6097-4808-9c6a-48e4159a2c7a","ios":"levelo://app?vid=81b50d7b-6097-4808-9c6a-48e4159a2c7a"},"vehicle_type_id":"4","last_reported":1733504935,"current_range_meters":20800,"station_id":"ce4bh412rcd13ifvqds0","pricing_plan_id":"cebpf4jnsgd1na2vs0mg"},{"bike_id":"fd98eaa9-4d55-4e7b-aa90-0d14707466d9","system_id":"levelo_inurba_marseille","lat":43.337444,"lon":5.374475,"is_reserved":false,"is_disabled":true,"rental_uris":{"android":"levelo://app?vid=fd98eaa9-4d55-4e7b-aa90-0d14707466d9","ios":"levelo://app?vid=fd98eaa9-4d55-4e7b-aa90-0d14707466d9"},"vehicle_type_id":"4","last_reported":1733504935,"current_range_meters":0,"station_id":"","pricing_plan_id":"cebpf4jnsgd1na2vs0mg"},{"bike_id":"a3ca7b4b-4baa-4f03-8781-fbbc2c433fc8","system_id":"levelo_inurba_marseille","lat":43.30645,"lon":5.40092,"is_reserved":false,"is_disabled":false,"rental_uris":{"android":"levelo://app?vid=a3ca7b4b-4baa-4f03-8781-fbbc2c433fc8","ios":"levelo://app?vid=a3ca7b4b-4baa-4f03-8781-fbbc2c433fc8"},"vehicle_type_id":"4","last_reported":1733504935,"current_range_meters":38000,"station_id":"ce4bh112rcd13ifvqda0","pricing_plan_id":"cebpf4jnsgd1na2vs0mg"},{"bike_id":"4eadddec-a0b0-43af-9b79-b424c8553d54","system_id":"levelo_inurba_marseille","lat":43.29579,"lon":5.39967,"is_reserved":false,"is_disabled":false,"rental_uris":{"android":"levelo://app?vid=4eadddec-a0b0-43af-9b79-b424c8553d54","ios":"levelo://app?vid=4eadddec-a0b0-43af-9b79-b424c8553d54"},"vehicle_type_id":"4","last_reported":1733504935,"current_range_meters":28000,"station_id":"ce4bh312rcd13ifvqdj0","pricing_plan_id":"cebpf4jnsgd1na2vs0mg"},{"bike_id":"b1c4eb48-3657-4b66-b5ed-53507d84fe46","system_id":"levelo_inurba_marseille","lat":43.29794,"lon":5.39351,"is_reserved":false,"is_disabled":true,"rental_uris":{"android":"levelo://app?vid=b1c4eb48-3657-4b66-b5ed-53507d84fe46","ios":"levelo://app?vid=b1c4eb48-3657-4b66-b5ed-53507d84fe46"},"vehicle_type_id":"4","last_reported":1733504935,"current_range_meters":0,"station_id":"chh1huq6cuj3fo74tm60","pricing_plan_id":"cebpf4jnsgd1na2vs0mg"},{"bike_id":"71e5c14d-a4fd-4806-a621-f5308b655c11","system_id":"levelo_inurba_marseille","lat":43.32662,"lon":5.40991,"is_reserved":false,"is_disabled":false,"rental_uris":{"android":"levelo://app?vid=71e5c14d-a4fd-4806-a621-f5308b655c11","ios":"levelo://app?vid=71e5c14d-a4fd-4806-a621-f5308b655c11"},"vehicle_type_id":"4","last_reported":1733504935,"current_range_meters":38800,"station_id":"ce4bhpp2rcd13ifvqhgg","pricing_plan_id":"cebpf4jnsgd1na2vs0mg"},{"bike_id":"1d744535-7905-4ff0-83e4-18d886f61c33","system_id":"levelo_inurba_marseille","lat":43.25868,"lon":5.399,"is_reserved":false,"is_disabled":false,"rental_uris":{"android":"levelo://app?vid=1d744535-7905-4ff0-83e4-18d886f61c33","ios":"levelo://app?vid=1d744535-7905-4ff0-83e4-18d886f61c33"},"vehicle_type_id":"4","last_reported":1733504935,"current_range_meters":24800,"station_id":"ce4bhl92rcd13ifvqghg","pricing_plan_id":"cebpf4jnsgd1na2vs0mg"},{"bike_id":"c2d8a1c2-d166-4a36-b32f-beec95c93bd5","system_id":"levelo_inurba_marseille","lat":43.33756,"lon":5.37459,"is_reserved":false,"is_disabled":false,"rental_uris":{"android":"levelo://app?vid=c2d8a1c2-d166-4a36-b32f-beec95c93bd5","ios":"levelo://app?vid=c2d8a1c2-d166-4a36-b32f-beec95c93bd5"},"vehicle_type_id":"4","last_reported":1733504935,"current_range_meters":4000,"station_id":"","pricing_plan_id":"cebpf4jnsgd1na2vs0mg"},{"bike_id":"7a7888d2-4b0b-4186-8376-568c3b2ce15a","system_id":"levelo_inurba_marseille","lat":43.29447,"lon":5.38598,"is_reserved":false,"is_disabled":true,"rental_uris":{"android":"levelo://app?vid=7a7888d2-4b0b-4186-8376-568c3b2ce15a","ios":"levelo://app?vid=7a7888d2-4b0b-4186-8376-568c3b2ce15a"},"vehicle_type_id":"4","last_reported":1733504935,"current_range_meters":0,"station_id":"ce4bh2h2rcd13ifvqdh0","pricing_plan_id":"cebpf4jnsgd1na2vs0mg"},{"bike_id":"5976e944-e79a-451d-8f85-b143b67e5e11","system_id":"levelo_inurba_marseille","lat":43.25494,"lon":5.3765,"is_reserved":false,"is_disabled":true,"rental_uris":{"android":"levelo://app?vid=5976e944-e79a-451d-8f85-b143b67e5e11","ios":"levelo://app?vid=5976e944-e79a-451d-8f85-b143b67e5e11"},"vehicle_type_id":"4","last_reported":1733504935,"current_range_meters":0,"station_id":"ce4bhh12rcd13ifvqff0","pricing_plan_id":"cebpf4jnsgd1na2vs0mg"},{"bike_id":"45cf9e3a-d0ff-4ae8-9a3f-6375ad9c4874","system_id":"levelo_inurba_marseille","lat":43.27174,"lon":5.40996,"is_reserved":false,"is_disabled":true,"rental_uris":{"android":"levelo://app?vid=45cf9e3a-d0ff-4ae8-9a3f-6375ad9c4874","ios":"levelo://app?vid=45cf9e3a-d0ff-4ae8-9a3f-6375ad9c4874"},"vehicle_type_id":"4","last_reported":1733504935,"current_range_meters":1200,"station_id":"ce4bhl12rcd13ifvqgf0","pricing_plan_id":"cebpf4jnsgd1na2vs0mg"},{"bike_id":"b673e781-3acf-4c62-b820-919d9bb57707","system_id":"levelo_inurba_marseille","lat":43.31727,"lon":5.42401,"is_reserved":false,"is_disabled":false,"rental_uris":{"android":"levelo://app?vid=b673e781-3acf-4c62-b820-919d9bb57707","ios":"levelo://app?vid=b673e781-3acf-4c62-b820-919d9bb57707"},"vehicle_type_id":"4","last_reported":1733504935,"current_range_meters":38000,"station_id":"ce4bhp92rcd13ifvqhbg","pricing_plan_id":"cebpf4jnsgd1na2vs0mg"},{"bike_id":"86334759-79fb-4318-bcda-4037f73d313a","system_id":"levelo_inurba_marseille","lat":43.281576,"lon":5.426403,"is_reserved":false,"is_disabled":false,"rental_uris":{"android":"levelo://app?vid=86334759-79fb-4318-bcda-4037f73d313a","ios":"levelo://app?vid=86334759-79fb-4318-bcda-4037f73d313a"},"vehicle_type_id":"4","last_reported":1733504935,"current_range_meters":38800,"station_id":"ce4bhnh2rcd13ifvqgug","pricing_plan_id":"cebpf4jnsgd1na2vs0mg"},{"bike_id":"0ec49aa9-2a5d-4775-ae08-9403b3341074","system_id":"levelo_inurba_marseille","lat":43.27838,"lon":5.38767,"is_reserved":false,"is_disabled":false,"rental_uris":{"android":"levelo://app?vid=0ec49aa9-2a5d-4775-ae08-9403b3341074","ios":"levelo://app?vid=0ec49aa9-2a5d-4775-ae08-9403b3341074"},"vehicle_type_id":"4","last_reported":1733504935,"current_range_meters":34000,"station_id":"","pricing_plan_id":"cebpf4jnsgd1na2vs0mg"},{"bike_id":"37727576-2d28-4525-b065-40affdaee0f8","system_id":"levelo_inurba_marseille","lat":43.32363,"lon":5.38872,"is_reserved":false,"is_disabled":false,"rental_uris":{"android":"levelo://app?vid=37727576-2d28-4525-b065-40affdaee0f8","ios":"levelo://app?vid=37727576-2d28-4525-b065-40affdaee0f8"},"vehicle_type_id":"4","last_reported":1733504935,"current_range_meters":35600,"station_id":"ce4bhqp2rcd13ifvqhog","pricing_plan_id":"cebpf4jnsgd1na2vs0mg"},{"bike_id":"3a352b39-ea88-4938-aca7-0d30863305b9","system_id":"levelo_inurba_marseille","lat":43.30606,"lon":5.37212,"is_reserved":false,"is_disabled":false,"rental_uris":{"android":"levelo://app?vid=3a352b39-ea88-4938-aca7-0d30863305b9","ios":"levelo://app?vid=3a352b39-ea88-4938-aca7-0d30863305b9"},"vehicle_type_id":"4","last_reported":1733504935,"current_range_meters":22800,"station_id":"ce4bgqh2rcd13ifvqc4g","pricing_plan_id":"cebpf4jnsgd1na2vs0mg"},{"bike_id":"f5561434-0740-4a3c-abc2-013f37687b8d","system_id":"levelo_inurba_marseille","lat":43.24827,"lon":5.37455,"is_reserved":false,"is_disabled":true,"rental_uris":{"android":"levelo://app?vid=f5561434-0740-4a3c-abc2-013f37687b8d","ios":"levelo://app?vid=f5561434-0740-4a3c-abc2-013f37687b8d"},"vehicle_type_id":"4","last_reported":1733504935,"current_range_meters":38800,"station_id":"ce4bhgh2rcd13ifvqfb0","pricing_plan_id":"cebpf4jnsgd1na2vs0mg"},{"bike_id":"2fe3bdc9-02b2-44f2-9a63-3ed667f3d8e3","system_id":"levelo_inurba_marseille","lat":43.2846,"lon":5.35887,"is_reserved":false,"is_disabled":false,"rental_uris":{"android":"levelo://app?vid=2fe3bdc9-02b2-44f2-9a63-3ed667f3d8e3","ios":"levelo://app?vid=2fe3bdc9-02b2-44f2-9a63-3ed667f3d8e3"},"vehicle_type_id":"4","last_reported":1733504935,"current_range_meters":28000,"station_id":"ce4bhah2rcd13ifvqei0","pricing_plan_id":"cebpf4jnsgd1na2vs0mg"},{"bike_id":"1e09ac52-cd97-4e92-8932-848c48bacf96","system_id":"levelo_inurba_marseille","lat":43.3129,"lon":5.38139,"is_reserved":false,"is_disabled":false,"rental_uris":{"android":"levelo://app?vid=1e09ac52-cd97-4e92-8932-848c48bacf96","ios":"levelo://app?vid=1e09ac52-cd97-4e92-8932-848c48bacf96"},"vehicle_type_id":"4","last_reported":1733504935,"current_range_meters":8800,"station_id":"","pricing_plan_id":"cebpf4jnsgd1na2vs0mg"},{"bike_id":"bc759f2e-64b0-486f-aefa-02322dc6d21b","system_id":"levelo_inurba_marseille","lat":43.25116,"lon":5.4032,"is_reserved":false,"is_disabled":false,"rental_uris":{"android":"levelo://app?vid=bc759f2e-64b0-486f-aefa-02322dc6d21b","ios":"levelo://app?vid=bc759f2e-64b0-486f-aefa-02322dc6d21b"},"vehicle_type_id":"4","last_reported":1733504935,"current_range_meters":36000,"station_id":"ce4bhlh2rcd13ifvqgig","pricing_plan_id":"cebpf4jnsgd1na2vs0mg"},{"bike_id":"287c941f-020d-498f-be41-0a21f5d548d9","system_id":"levelo_inurba_marseille","lat":43.28004,"lon":5.40012,"is_reserved":false,"is_disabled":false,"rental_uris":{"android":"levelo://app?vid=287c941f-020d-498f-be41-0a21f5d548d9","ios":"levelo://app?vid=287c941f-020d-498f-be41-0a21f5d548d9"},"vehicle_type_id":"4","last_reported":1733504935,"current_range_meters":18800,"station_id":"ce4bho92rcd13ifvqh4g","pricing_plan_id":"cebpf4jnsgd1na2vs0mg"},{"bike_id":"06fa5d7c-3b9b-4c5d-a878-9f9d07eac2da","system_id":"levelo_inurba_marseille","lat":43.27949,"lon":5.41047,"is_reserved":false,"is_disabled":false,"rental_uris":{"android":"levelo://app?vid=06fa5d7c-3b9b-4c5d-a878-9f9d07eac2da","ios":"levelo://app?vid=06fa5d7c-3b9b-4c5d-a878-9f9d07eac2da"},"vehicle_type_id":"4","last_reported":1733504935,"current_range_meters":31200,"station_id":"ce4bhnp2rcd13ifvqh0g","pricing_plan_id":"cebpf4jnsgd1na2vs0mg"},{"bike_id":"28121aa3-7c19-4b1b-a44a-d17aed6b8d94","system_id":"levelo_inurba_marseille","lat":43.337444,"lon":5.374475,"is_reserved":false,"is_disabled":false,"rental_uris":{"android":"levelo://app?vid=28121aa3-7c19-4b1b-a44a-d17aed6b8d94","ios":"levelo://app?vid=28121aa3-7c19-4b1b-a44a-d17aed6b8d94"},"vehicle_type_id":"4","last_reported":1733504935,"current_range_meters":32800,"station_id":"","pricing_plan_id":"cebpf4jnsgd1na2vs0mg"},{"bike_id":"62dddee1-1100-4d8c-839c-64951e09afde","system_id":"levelo_inurba_marseille","lat":43.25256,"lon":5.40525,"is_reserved":false,"is_disabled":true,"rental_uris":{"android":"levelo://app?vid=62dddee1-1100-4d8c-839c-64951e09afde","ios":"levelo://app?vid=62dddee1-1100-4d8c-839c-64951e09afde"},"vehicle_type_id":"4","last_reported":1733504935,"current_range_meters":21600,"station_id":"","pricing_plan_id":"cebpf4jnsgd1na2vs0mg"},{"bike_id":"b57ac3ac-1cb9-4a0e-9880-d76a5f5fa301","system_id":"levelo_inurba_marseille","lat":43.26209,"lon":5.37926,"is_reserved":false,"is_disabled":true,"rental_uris":{"android":"levelo://app?vid=b57ac3ac-1cb9-4a0e-9880-d76a5f5fa301","ios":"levelo://app?vid=b57ac3ac-1cb9-4a0e-9880-d76a5f5fa301"},"vehicle_type_id":"4","last_reported":1733504935,"current_range_meters":0,"station_id":"ce4bhjp2rcd13ifvqg90","pricing_plan_id":"cebpf4jnsgd1na2vs0mg"},{"bike_id":"f3f8a736-97f0-478a-bf1d-83917568f7df","system_id":"levelo_inurba_marseille","lat":43.30552,"lon":5.3652,"is_reserved":false,"is_disabled":true,"rental_uris":{"android":"levelo://app?vid=f3f8a736-97f0-478a-bf1d-83917568f7df","ios":"levelo://app?vid=f3f8a736-97f0-478a-bf1d-83917568f7df"},"vehicle_type_id":"4","last_reported":1733504935,"current_range_meters":38800,"station_id":"ce4bgs12rcd13ifvqcag","pricing_plan_id":"cebpf4jnsgd1na2vs0mg"},{"bike_id":"b5d4186f-955d-4d53-92dd-c1d25a1046bb","system_id":"levelo_inurba_marseille","lat":43.31997,"lon":5.38153,"is_reserved":false,"is_disabled":false,"rental_uris":{"android":"levelo://app?vid=b5d4186f-955d-4d53-92dd-c1d25a1046bb","ios":"levelo://app?vid=b5d4186f-955d-4d53-92dd-c1d25a1046bb"},"vehicle_type_id":"4","last_reported":1733504935,"current_range_meters":8000,"station_id":"ce4bhr12rcd13ifvqhpg","pricing_plan_id":"cebpf4jnsgd1na2vs0mg"},{"bike_id":"080fcb1c-52b8-42d7-b477-4dbab7fa601d","system_id":"levelo_inurba_marseille","lat":43.33021,"lon":5.39041,"is_reserved":false,"is_disabled":false,"rental_uris":{"android":"levelo://app?vid=080fcb1c-52b8-42d7-b477-4dbab7fa601d","ios":"levelo://app?vid=080fcb1c-52b8-42d7-b477-4dbab7fa601d"},"vehicle_type_id":"4","last_reported":1733504935,"current_range_meters":33600,"station_id":"ce4bhr92rcd13ifvqhrg","pricing_plan_id":"cebpf4jnsgd1na2vs0mg"},{"bike_id":"21c61b3f-2ae1-41ed-96e8-21fc1b01a387","system_id":"levelo_inurba_marseille","lat":43.30155,"lon":5.37207,"is_reserved":false,"is_disabled":false,"rental_uris":{"android":"levelo://app?vid=21c61b3f-2ae1-41ed-96e8-21fc1b01a387","ios":"levelo://app?vid=21c61b3f-2ae1-41ed-96e8-21fc1b01a387"},"vehicle_type_id":"4","last_reported":1733504935,"current_range_meters":9600,"station_id":"","pricing_plan_id":"cebpf4jnsgd1na2vs0mg"},{"bike_id":"9d601b44-18de-420f-afc6-2cb5de397159","system_id":"levelo_inurba_marseille","lat":43.30624,"lon":5.37217,"is_reserved":false,"is_disabled":false,"rental_uris":{"android":"levelo://app?vid=9d601b44-18de-420f-afc6-2cb5de397159","ios":"levelo://app?vid=9d601b44-18de-420f-afc6-2cb5de397159"},"vehicle_type_id":"4","last_reported":1733504935,"current_range_meters":14800,"station_id":"ce4bgqh2rcd13ifvqc4g","pricing_plan_id":"cebpf4jnsgd1na2vs0mg"},{"bike_id":"3a9149f3-357c-4d0a-859b-18382ef024a5","system_id":"levelo_inurba_marseille","lat":43.32114,"lon":5.36764,"is_reserved":false,"is_disabled":false,"rental_uris":{"android":"levelo://app?vid=3a9149f3-357c-4d0a-859b-18382ef024a5","ios":"levelo://app?vid=3a9149f3-357c-4d0a-859b-18382ef024a5"},"vehicle_type_id":"4","last_reported":1733504935,"current_range_meters":17600,"station_id":"ce4bhrh2rcd13ifvqhug","pricing_plan_id":"cebpf4jnsgd1na2vs0mg"},{"bike_id":"b201af47-41c4-422e-b97c-b04b8971c166","system_id":"levelo_inurba_marseille","lat":43.31241,"lon":5.38172,"is_reserved":false,"is_disabled":true,"rental_uris":{"android":"levelo://app?vid=b201af47-41c4-422e-b97c-b04b8971c166","ios":"levelo://app?vid=b201af47-41c4-422e-b97c-b04b8971c166"},"vehicle_type_id":"4","last_reported":1733504935,"current_range_meters":0,"station_id":"","pricing_plan_id":"cebpf4jnsgd1na2vs0mg"},{"bike_id":"868a434e-7c11-4b20-84c6-7ecdbf24c83b","system_id":"levelo_inurba_marseille","lat":43.33022,"lon":5.39037,"is_reserved":false,"is_disabled":false,"rental_uris":{"android":"levelo://app?vid=868a434e-7c11-4b20-84c6-7ecdbf24c83b","ios":"levelo://app?vid=868a434e-7c11-4b20-84c6-7ecdbf24c83b"},"vehicle_type_id":"4","last_reported":1733504935,"current_range_meters":27200,"station_id":"ce4bhr92rcd13ifvqhrg","pricing_plan_id":"cebpf4jnsgd1na2vs0mg"},{"bike_id":"d55158ac-fc50-487c-bf30-21d259798780","system_id":"levelo_inurba_marseille","lat":43.25723,"lon":5.4111,"is_reserved":false,"is_disabled":false,"rental_uris":{"android":"levelo://app?vid=d55158ac-fc50-487c-bf30-21d259798780","ios":"levelo://app?vid=d55158ac-fc50-487c-bf30-21d259798780"},"vehicle_type_id":"4","last_reported":1733504935,"current_range_meters":22800,"station_id":"ce4bhkp2rcd13ifvqgd0","pricing_plan_id":"cebpf4jnsgd1na2vs0mg"},{"bike_id":"a90edf1f-a50f-4556-8541-4eafae33c950","system_id":"levelo_inurba_marseille","lat":43.30296,"lon":5.36861,"is_reserved":false,"is_disabled":false,"rental_uris":{"android":"levelo://app?vid=a90edf1f-a50f-4556-8541-4eafae33c950","ios":"levelo://app?vid=a90edf1f-a50f-4556-8541-4eafae33c950"},"vehicle_type_id":"4","last_reported":1733504935,"current_range_meters":32400,"station_id":"ce4bgqh2rcd13ifvqc5g","pricing_plan_id":"cebpf4jnsgd1na2vs0mg"},{"bike_id":"98df377c-5b46-4a4e-a80e-95ded7d1b7b9","system_id":"levelo_inurba_marseille","lat":43.2904,"lon":5.3864,"is_reserved":false,"is_disabled":true,"rental_uris":{"android":"levelo://app?vid=98df377c-5b46-4a4e-a80e-95ded7d1b7b9","ios":"levelo://app?vid=98df377c-5b46-4a4e-a80e-95ded7d1b7b9"},"vehicle_type_id":"4","last_reported":1733504935,"current_range_meters":23200,"station_id":"ce4bh4p2rcd13ifvqe0g","pricing_plan_id":"cebpf4jnsgd1na2vs0mg"},{"bike_id":"6c0188ce-85bf-4949-8478-25f429529633","system_id":"levelo_inurba_marseille","lat":43.27374,"lon":5.36253,"is_reserved":false,"is_disabled":false,"rental_uris":{"android":"levelo://app?vid=6c0188ce-85bf-4949-8478-25f429529633","ios":"levelo://app?vid=6c0188ce-85bf-4949-8478-25f429529633"},"vehicle_type_id":"4","last_reported":1733504935,"current_range_meters":36800,"station_id":"ce4bhbh2rcd13ifvqeo0","pricing_plan_id":"cebpf4jnsgd1na2vs0mg"},{"bike_id":"da6a7a1d-e653-4950-af8c-8137b06f7d40","system_id":"levelo_inurba_marseille","lat":43.3004,"lon":5.37551,"is_reserved":false,"is_disabled":true,"rental_uris":{"android":"levelo://app?vid=da6a7a1d-e653-4950-af8c-8137b06f7d40","ios":"levelo://app?vid=da6a7a1d-e653-4950-af8c-8137b06f7d40"},"vehicle_type_id":"4","last_reported":1733504935,"current_range_meters":0,"station_id":"","pricing_plan_id":"cebpf4jnsgd1na2vs0mg"},{"bike_id":"82f7a1b4-3f20-4260-8fd7-0be10b1f03a2","system_id":"levelo_inurba_marseille","lat":43.27986,"lon":5.41081,"is_reserved":false,"is_disabled":false,"rental_uris":{"android":"levelo://app?vid=82f7a1b4-3f20-4260-8fd7-0be10b1f03a2","ios":"levelo://app?vid=82f7a1b4-3f20-4260-8fd7-0be10b1f03a2"},"vehicle_type_id":"4","last_reported":1733504935,"current_range_meters":12400,"station_id":"ce4bhnp2rcd13ifvqh0g","pricing_plan_id":"cebpf4jnsgd1na2vs0mg"},{"bike_id":"e018d949-55e0-4a7d-af28-f6cff3172e4d","system_id":"levelo_inurba_marseille","lat":43.29886,"lon":5.38909,"is_reserved":false,"is_disabled":false,"rental_uris":{"android":"levelo://app?vid=e018d949-55e0-4a7d-af28-f6cff3172e4d","ios":"levelo://app?vid=e018d949-55e0-4a7d-af28-f6cff3172e4d"},"vehicle_type_id":"4","last_reported":1733504935,"current_range_meters":31200,"station_id":"ce4bh392rcd13ifvqdl0","pricing_plan_id":"cebpf4jnsgd1na2vs0mg"},{"bike_id":"0bb6d886-21c9-465c-9366-a6e259c82b63","system_id":"levelo_inurba_marseille","lat":43.31356,"lon":5.38491,"is_reserved":false,"is_disabled":false,"rental_uris":{"android":"levelo://app?vid=0bb6d886-21c9-465c-9366-a6e259c82b63","ios":"levelo://app?vid=0bb6d886-21c9-465c-9366-a6e259c82b63"},"vehicle_type_id":"4","last_reported":1733504935,"current_range_meters":30800,"station_id":"ce4bgt92rcd13ifvqcf0","pricing_plan_id":"cebpf4jnsgd1na2vs0mg"},{"bike_id":"3d0ac773-4a09-47c7-8b4f-cdd68fc5ce86","system_id":"levelo_inurba_marseille","lat":43.323642,"lon":5.388855,"is_reserved":false,"is_disabled":false,"rental_uris":{"android":"levelo://app?vid=3d0ac773-4a09-47c7-8b4f-cdd68fc5ce86","ios":"levelo://app?vid=3d0ac773-4a09-47c7-8b4f-cdd68fc5ce86"},"vehicle_type_id":"4","last_reported":1733504935,"current_range_meters":38800,"station_id":"ce4bhqp2rcd13ifvqhog","pricing_plan_id":"cebpf4jnsgd1na2vs0mg"},{"bike_id":"deeebda4-d45e-493c-9340-28cf46dc180c","system_id":"levelo_inurba_marseille","lat":43.2694,"lon":5.40256,"is_reserved":false,"is_disabled":false,"rental_uris":{"android":"levelo://app?vid=deeebda4-d45e-493c-9340-28cf46dc180c","ios":"levelo://app?vid=deeebda4-d45e-493c-9340-28cf46dc180c"},"vehicle_type_id":"4","last_reported":1733504935,"current_range_meters":19600,"station_id":"cjm6bp8fraef2m0cb0m0","pricing_plan_id":"cebpf4jnsgd1na2vs0mg"},{"bike_id":"d409d846-374b-4e70-b177-db10a8f6776a","system_id":"levelo_inurba_marseille","lat":43.29708,"lon":5.36588,"is_reserved":false,"is_disabled":true,"rental_uris":{"android":"levelo://app?vid=d409d846-374b-4e70-b177-db10a8f6776a","ios":"levelo://app?vid=d409d846-374b-4e70-b177-db10a8f6776a"},"vehicle_type_id":"4","last_reported":1733504935,"current_range_meters":0,"station_id":"ce4bgn12rcd13ifvqbt0","pricing_plan_id":"cebpf4jnsgd1na2vs0mg"},{"bike_id":"b983f700-39e1-418f-84a3-1c3c95a84b96","system_id":"levelo_inurba_marseille","lat":43.337752,"lon":5.375048,"is_reserved":false,"is_disabled":false,"rental_uris":{"android":"levelo://app?vid=b983f700-39e1-418f-84a3-1c3c95a84b96","ios":"levelo://app?vid=b983f700-39e1-418f-84a3-1c3c95a84b96"},"vehicle_type_id":"4","last_reported":1733504935,"current_range_meters":36000,"station_id":"","pricing_plan_id":"cebpf4jnsgd1na2vs0mg"},{"bike_id":"30de221a-4ae9-44c8-af60-f5843b67f535","system_id":"levelo_inurba_marseille","lat":43.337444,"lon":5.374475,"is_reserved":false,"is_disabled":false,"rental_uris":{"android":"levelo://app?vid=30de221a-4ae9-44c8-af60-f5843b67f535","ios":"levelo://app?vid=30de221a-4ae9-44c8-af60-f5843b67f535"},"vehicle_type_id":"4","last_reported":1733504935,"current_range_meters":32800,"station_id":"","pricing_plan_id":"cebpf4jnsgd1na2vs0mg"},{"bike_id":"3c56406b-aa08-4bad-ab37-033c60b0e6a1","system_id":"levelo_inurba_marseille","lat":43.29031,"lon":5.38623,"is_reserved":false,"is_disabled":false,"rental_uris":{"android":"levelo://app?vid=3c56406b-aa08-4bad-ab37-033c60b0e6a1","ios":"levelo://app?vid=3c56406b-aa08-4bad-ab37-033c60b0e6a1"},"vehicle_type_id":"4","last_reported":1733504935,"current_range_meters":24000,"station_id":"ce4bh4p2rcd13ifvqe0g","pricing_plan_id":"cebpf4jnsgd1na2vs0mg"},{"bike_id":"0926a58f-f7f1-456e-826c-66fceeca260f","system_id":"levelo_inurba_marseille","lat":43.29909,"lon":5.43657,"is_reserved":false,"is_disabled":false,"rental_uris":{"android":"levelo://app?vid=0926a58f-f7f1-456e-826c-66fceeca260f","ios":"levelo://app?vid=0926a58f-f7f1-456e-826c-66fceeca260f"},"vehicle_type_id":"4","last_reported":1733504935,"current_range_meters":14800,"station_id":"ce4bhpp2rcd13ifvqhfg","pricing_plan_id":"cebpf4jnsgd1na2vs0mg"},{"bike_id":"559f133d-45ca-460f-a988-890a6ce7180c","system_id":"levelo_inurba_marseille","lat":43.29517,"lon":5.39403,"is_reserved":false,"is_disabled":false,"rental_uris":{"android":"levelo://app?vid=559f133d-45ca-460f-a988-890a6ce7180c","ios":"levelo://app?vid=559f133d-45ca-460f-a988-890a6ce7180c"},"vehicle_type_id":"4","last_reported":1733504935,"current_range_meters":3600,"station_id":"ce4bh292rcd13ifvqdf0","pricing_plan_id":"cebpf4jnsgd1na2vs0mg"},{"bike_id":"42e055b5-aa04-4235-ac39-12c5fd24e0ef","system_id":"levelo_inurba_marseille","lat":43.299794,"lon":5.371832,"is_reserved":false,"is_disabled":false,"rental_uris":{"android":"levelo://app?vid=42e055b5-aa04-4235-ac39-12c5fd24e0ef","ios":"levelo://app?vid=42e055b5-aa04-4235-ac39-12c5fd24e0ef"},"vehicle_type_id":"4","last_reported":1733504935,"current_range_meters":10800,"station_id":"ce4bgr92rcd13ifvqc7g","pricing_plan_id":"cebpf4jnsgd1na2vs0mg"},{"bike_id":"7a688541-8817-41cb-bdc9-326a83531004","system_id":"levelo_inurba_marseille","lat":43.28724,"lon":5.39993,"is_reserved":false,"is_disabled":true,"rental_uris":{"android":"levelo://app?vid=7a688541-8817-41cb-bdc9-326a83531004","ios":"levelo://app?vid=7a688541-8817-41cb-bdc9-326a83531004"},"vehicle_type_id":"4","last_reported":1733504935,"current_range_meters":1200,"station_id":"ce4bho92rcd13ifvqh3g","pricing_plan_id":"cebpf4jnsgd1na2vs0mg"},{"bike_id":"bfbac29d-b25e-4d3d-b8f3-e04f7d3b0521","system_id":"levelo_inurba_marseille","lat":43.28154,"lon":5.42648,"is_reserved":false,"is_disabled":false,"rental_uris":{"android":"levelo://app?vid=bfbac29d-b25e-4d3d-b8f3-e04f7d3b0521","ios":"levelo://app?vid=bfbac29d-b25e-4d3d-b8f3-e04f7d3b0521"},"vehicle_type_id":"4","last_reported":1733504935,"current_range_meters":39200,"station_id":"ce4bhnh2rcd13ifvqgug","pricing_plan_id":"cebpf4jnsgd1na2vs0mg"},{"bike_id":"341abc5d-07da-43ed-b34f-f3f982d4d2c5","system_id":"levelo_inurba_marseille","lat":43.25582,"lon":5.3823,"is_reserved":false,"is_disabled":false,"rental_uris":{"android":"levelo://app?vid=341abc5d-07da-43ed-b34f-f3f982d4d2c5","ios":"levelo://app?vid=341abc5d-07da-43ed-b34f-f3f982d4d2c5"},"vehicle_type_id":"4","last_reported":1733504935,"current_range_meters":12800,"station_id":"ce4bhih2rcd13ifvqfs0","pricing_plan_id":"cebpf4jnsgd1na2vs0mg"},{"bike_id":"2e38f9e4-f6de-4fae-9004-b11bb52a4773","system_id":"levelo_inurba_marseille","lat":43.27058,"lon":5.40263,"is_reserved":false,"is_disabled":true,"rental_uris":{"android":"levelo://app?vid=2e38f9e4-f6de-4fae-9004-b11bb52a4773","ios":"levelo://app?vid=2e38f9e4-f6de-4fae-9004-b11bb52a4773"},"vehicle_type_id":"4","last_reported":1733504935,"current_range_meters":0,"station_id":"ce4bhk92rcd13ifvqgc0","pricing_plan_id":"cebpf4jnsgd1na2vs0mg"},{"bike_id":"55708d44-3f0b-49db-b92a-aa39fe6e84ea","system_id":"levelo_inurba_marseille","lat":43.27692,"lon":5.41849,"is_reserved":false,"is_disabled":true,"rental_uris":{"android":"levelo://app?vid=55708d44-3f0b-49db-b92a-aa39fe6e84ea","ios":"levelo://app?vid=55708d44-3f0b-49db-b92a-aa39fe6e84ea"},"vehicle_type_id":"4","last_reported":1733504935,"current_range_meters":38800,"station_id":"","pricing_plan_id":"cebpf4jnsgd1na2vs0mg"},{"bike_id":"7f8b4c9a-50a0-49f5-9f95-7fde66ad649a","system_id":"levelo_inurba_marseille","lat":43.29781,"lon":5.39355,"is_reserved":false,"is_disabled":true,"rental_uris":{"android":"levelo://app?vid=7f8b4c9a-50a0-49f5-9f95-7fde66ad649a","ios":"levelo://app?vid=7f8b4c9a-50a0-49f5-9f95-7fde66ad649a"},"vehicle_type_id":"4","last_reported":1733504935,"current_range_meters":1600,"station_id":"chh1huq6cuj3fo74tm60","pricing_plan_id":"cebpf4jnsgd1na2vs0mg"},{"bike_id":"5efa639b-8eb4-47aa-b99d-5928fe3809eb","system_id":"levelo_inurba_marseille","lat":43.24554,"lon":5.39525,"is_reserved":false,"is_disabled":false,"rental_uris":{"android":"levelo://app?vid=5efa639b-8eb4-47aa-b99d-5928fe3809eb","ios":"levelo://app?vid=5efa639b-8eb4-47aa-b99d-5928fe3809eb"},"vehicle_type_id":"4","last_reported":1733504935,"current_range_meters":38800,"station_id":"ce4bhlp2rcd13ifvqgjg","pricing_plan_id":"cebpf4jnsgd1na2vs0mg"},{"bike_id":"a109625e-31d0-4e5b-a556-b20a711db647","system_id":"levelo_inurba_marseille","lat":43.26066,"lon":5.39399,"is_reserved":false,"is_disabled":false,"rental_uris":{"android":"levelo://app?vid=a109625e-31d0-4e5b-a556-b20a711db647","ios":"levelo://app?vid=a109625e-31d0-4e5b-a556-b20a711db647"},"vehicle_type_id":"4","last_reported":1733504935,"current_range_meters":36800,"station_id":"ce4bhh92rcd13ifvqfj0","pricing_plan_id":"cebpf4jnsgd1na2vs0mg"},{"bike_id":"a5008d37-dc0f-4b32-a4b3-408b87575e66","system_id":"levelo_inurba_marseille","lat":43.24995,"lon":5.38933,"is_reserved":false,"is_disabled":true,"rental_uris":{"android":"levelo://app?vid=a5008d37-dc0f-4b32-a4b3-408b87575e66","ios":"levelo://app?vid=a5008d37-dc0f-4b32-a4b3-408b87575e66"},"vehicle_type_id":"4","last_reported":1733504935,"current_range_meters":800,"station_id":"ce4bhgp2rcd13ifvqfd0","pricing_plan_id":"cebpf4jnsgd1na2vs0mg"},{"bike_id":"070a4ab6-b3cb-485e-9b9b-988e874fbc1a","system_id":"levelo_inurba_marseille","lat":43.32487,"lon":5.36577,"is_reserved":false,"is_disabled":false,"rental_uris":{"android":"levelo://app?vid=070a4ab6-b3cb-485e-9b9b-988e874fbc1a","ios":"levelo://app?vid=070a4ab6-b3cb-485e-9b9b-988e874fbc1a"},"vehicle_type_id":"4","last_reported":1733504935,"current_range_meters":36400,"station_id":"ce4bhs12rcd13ifvqhvg","pricing_plan_id":"cebpf4jnsgd1na2vs0mg"},{"bike_id":"d7fd8304-9263-4705-84e6-8552e65103a2","system_id":"levelo_inurba_marseille","lat":43.23964,"lon":5.36631,"is_reserved":false,"is_disabled":false,"rental_uris":{"android":"levelo://app?vid=d7fd8304-9263-4705-84e6-8552e65103a2","ios":"levelo://app?vid=d7fd8304-9263-4705-84e6-8552e65103a2"},"vehicle_type_id":"4","last_reported":1733504935,"current_range_meters":27200,"station_id":"ce4bhi12rcd13ifvqfp0","pricing_plan_id":"cebpf4jnsgd1na2vs0mg"},{"bike_id":"7cefc4a2-f9e9-4f38-8349-c06fec1dcd83","system_id":"levelo_inurba_marseille","lat":43.31325,"lon":5.39699,"is_reserved":false,"is_disabled":false,"rental_uris":{"android":"levelo://app?vid=7cefc4a2-f9e9-4f38-8349-c06fec1dcd83","ios":"levelo://app?vid=7cefc4a2-f9e9-4f38-8349-c06fec1dcd83"},"vehicle_type_id":"4","last_reported":1733504935,"current_range_meters":6400,"station_id":"ce4bgvp2rcd13ifvqcu0","pricing_plan_id":"cebpf4jnsgd1na2vs0mg"},{"bike_id":"cd384d2f-f473-47bd-ae4a-9b7324d12b10","system_id":"levelo_inurba_marseille","lat":43.31068,"lon":5.40095,"is_reserved":false,"is_disabled":false,"rental_uris":{"android":"levelo://app?vid=cd384d2f-f473-47bd-ae4a-9b7324d12b10","ios":"levelo://app?vid=cd384d2f-f473-47bd-ae4a-9b7324d12b10"},"vehicle_type_id":"4","last_reported":1733504935,"current_range_meters":35600,"station_id":"","pricing_plan_id":"cebpf4jnsgd1na2vs0mg"},{"bike_id":"87cf7087-74f4-483c-8d63-532fd27113d0","system_id":"levelo_inurba_marseille","lat":43.30155,"lon":5.38089,"is_reserved":false,"is_disabled":false,"rental_uris":{"android":"levelo://app?vid=87cf7087-74f4-483c-8d63-532fd27113d0","ios":"levelo://app?vid=87cf7087-74f4-483c-8d63-532fd27113d0"},"vehicle_type_id":"4","last_reported":1733504935,"current_range_meters":25600,"station_id":"ce4bgjp2rcd13ifvqbh0","pricing_plan_id":"cebpf4jnsgd1na2vs0mg"},{"bike_id":"bc37f05e-17d0-40dd-8f8b-9bb1925fa237","system_id":"levelo_inurba_marseille","lat":43.28711,"lon":5.37927,"is_reserved":false,"is_disabled":false,"rental_uris":{"android":"levelo://app?vid=bc37f05e-17d0-40dd-8f8b-9bb1925fa237","ios":"levelo://app?vid=bc37f05e-17d0-40dd-8f8b-9bb1925fa237"},"vehicle_type_id":"4","last_reported":1733504935,"current_range_meters":25200,"station_id":"ce4bh9p2rcd13ifvqec0","pricing_plan_id":"cebpf4jnsgd1na2vs0mg"},{"bike_id":"be8cd377-bf58-414c-876c-45495911bc5b","system_id":"levelo_inurba_marseille","lat":43.28685,"lon":5.41087,"is_reserved":false,"is_disabled":true,"rental_uris":{"android":"levelo://app?vid=be8cd377-bf58-414c-876c-45495911bc5b","ios":"levelo://app?vid=be8cd377-bf58-414c-876c-45495911bc5b"},"vehicle_type_id":"4","last_reported":1733504935,"current_range_meters":0,"station_id":"","pricing_plan_id":"cebpf4jnsgd1na2vs0mg"},{"bike_id":"dfb0d26f-ef73-40e7-8b7a-c4a90e84a393","system_id":"levelo_inurba_marseille","lat":43.29613,"lon":5.37725,"is_reserved":false,"is_disabled":false,"rental_uris":{"android":"levelo://app?vid=dfb0d26f-ef73-40e7-8b7a-c4a90e84a393","ios":"levelo://app?vid=dfb0d26f-ef73-40e7-8b7a-c4a90e84a393"},"vehicle_type_id":"4","last_reported":1733504935,"current_range_meters":33600,"station_id":"ce4bgi92rcd13ifvqb90","pricing_plan_id":"cebpf4jnsgd1na2vs0mg"},{"bike_id":"ef84995a-6121-469e-b324-59b291c4734c","system_id":"levelo_inurba_marseille","lat":43.28461,"lon":5.35887,"is_reserved":false,"is_disabled":false,"rental_uris":{"android":"levelo://app?vid=ef84995a-6121-469e-b324-59b291c4734c","ios":"levelo://app?vid=ef84995a-6121-469e-b324-59b291c4734c"},"vehicle_type_id":"4","last_reported":1733504935,"current_range_meters":35600,"station_id":"ce4bhah2rcd13ifvqei0","pricing_plan_id":"cebpf4jnsgd1na2vs0mg"},{"bike_id":"65bdb63e-9b21-4023-a1b3-2036e8130a91","system_id":"levelo_inurba_marseille","lat":43.24391,"lon":5.37066,"is_reserved":false,"is_disabled":true,"rental_uris":{"android":"levelo://app?vid=65bdb63e-9b21-4023-a1b3-2036e8130a91","ios":"levelo://app?vid=65bdb63e-9b21-4023-a1b3-2036e8130a91"},"vehicle_type_id":"4","last_reported":1733504935,"current_range_meters":0,"station_id":"ce4bhhh2rcd13ifvqfk0","pricing_plan_id":"cebpf4jnsgd1na2vs0mg"},{"bike_id":"0770995c-964d-42cb-80de-55f4fd5ee79a","system_id":"levelo_inurba_marseille","lat":43.337444,"lon":5.374475,"is_reserved":false,"is_disabled":false,"rental_uris":{"android":"levelo://app?vid=0770995c-964d-42cb-80de-55f4fd5ee79a","ios":"levelo://app?vid=0770995c-964d-42cb-80de-55f4fd5ee79a"},"vehicle_type_id":"4","last_reported":1733504935,"current_range_meters":17600,"station_id":"","pricing_plan_id":"cebpf4jnsgd1na2vs0mg"},{"bike_id":"20e9db8d-d68b-4418-94af-d9d63f8c2b96","system_id":"levelo_inurba_marseille","lat":43.337444,"lon":5.374475,"is_reserved":false,"is_disabled":true,"rental_uris":{"android":"levelo://app?vid=20e9db8d-d68b-4418-94af-d9d63f8c2b96","ios":"levelo://app?vid=20e9db8d-d68b-4418-94af-d9d63f8c2b96"},"vehicle_type_id":"4","last_reported":1733504935,"current_range_meters":0,"station_id":"","pricing_plan_id":"cebpf4jnsgd1na2vs0mg"},