{"last_updated":1771955388,"ttl":60,"version":"2.2","data":{"bikes":[{"bike_id":"d7cbde73-bc6f-4c73-8c61-501e9b507de0","system_id":"levelo_inurba_marseille","lat":43.33747,"lon":5.37463,"is_reserved":false,"is_disabled":true,"rental_uris":{"android":"levelo://app?vid=d7cbde73-bc6f-4c73-8c61-501e9b507de0","ios":"levelo://app?vid=d7cbde73-bc6f-4c73-8c61-501e9b507de0"},"vehicle_type_id":"1","last_reported":1771955389,"current_range_meters":0,"station_id":"","pricing_plan_id":"cebpf4jnsgd1na2vs0mg"},{"bike_id":"69d3c0f3-ca47-4f11-a8d8-012af327ae6f","system_id":"levelo_inurba_marseille","lat":43.329377,"lon":5.365576,"is_reserved":false,"is_disabled":true,"rental_uris":{"android":"levelo://app?vid=69d3c0f3-ca47-4f11-a8d8-012af327ae6f","ios":"levelo://app?vid=69d3c0f3-ca47-4f11-a8d8-012af327ae6f"},"vehicle_type_id":"4","last_reported":1771955389,"current_range_meters":0,"station_id":"","pricing_plan_id":"cebpf4jnsgd1na2vs0mg"},{"bike_id":"6af8255e-f0e2-4556-bba7-45f699257156","system_id":"levelo_inurba_marseille","lat":43.301444,"lon":5.37046,"is_reserved":false,"is_disabled":true,"rental_uris":{"android":"levelo://app?vid=6af8255e-f0e2-4556-bba7-45f699257156","ios":"levelo://app?vid=6af8255e-f0e2-4556-bba7-45f699257156"},"vehicle_type_id":"4","last_reported":1771955389,"current_range_meters":0,"station_id":"","pricing_plan_id":"cebpf4jnsgd1na2vs0mg"},{"bike_id":"e3aa4af8-c44e-43a1-8c47-4ac48ebddec5","system_id":"levelo_inurba_marseille","lat":43.33769,"lon":5.374814,"is_reserved":false,"is_disabled":true,"rental_uris":{"android":"levelo://app?vid=e3aa4af8-c44e-43a1-8c47-4ac48ebddec5","ios":"levelo://app?vid=e3aa4af8-c44e-43a1-8c47-4ac48ebddec5"},"vehicle_type_id":"4","last_reported":1771955389,"current_range_meters":0,"station_id":"","pricing_plan_id":"cebpf4jnsgd1na2vs0mg"},{"bike_id":"ba01ed34-2ee7-493c-983b-dc272bcc768b","system_id":"levelo_inurba_marseille","lat":43.337444,"lon":5.374475,"is_reserved":false,"is_disabled":true,"rental_uris":{"android":"levelo://app?vid=ba01ed34-2ee7-493c-983b-dc272bcc768b","ios":"levelo://app?vid=ba01ed34-2ee7-493c-983b-dc272bcc768b"},"vehicle_type_id":"4","last_reported":1771955389,"current_range_meters":0,"station_id":"","pricing_plan_id":"cebpf4jnsgd1na2vs0mg"},{"bike_id":"1a770320-7507-4810-879e-b2f00d69b646","system_id":"levelo_inurba_marseille","lat":43.24873,"lon":5.43966,"is_reserved":false,"is_disabled":true,"rental_uris":{"android":"levelo://app?vid=1a770320-7507-4810-879e-b2f00d69b646","ios":"levelo://app?vid=1a770320-7507-4810-879e-b2f00d69b646"},"vehicle_type_id":"4","last_reported":1771955389,"current_range_meters":0,"station_id":"","pricing_plan_id":"cebpf4jnsgd1na2vs0mg"},{"bike_id":"f4fd1c47-9504-4c8a-9024-d39303f43fda","system_id":"levelo_inurba_marseille","lat":43.25893,"lon":5.388525,"is_reserved":false,"is_disabled":true,"rental_uris":{"android":"levelo://app?vid=f4fd1c47-9504-4c8a-9024-d39303f43fda","ios":"levelo://app?vid=f4fd1c47-9504-4c8a-9024-d39303f43fda"},"vehicle_type_id":"4","last_reported":1771955389,"current_range_meters":0,"station_id":"","pricing_plan_id":"cebpf4jnsgd1na2vs0mg"},{"bike_id":"cba86148-b8be-48ab-9465-b74ad7fe4729","system_id":"levelo_inurba_marseille","lat":43.297501,"lon":5.36203,"is_reserved":false,"is_disabled":true,"rental_uris":{"android":"levelo://app?vid=cba86148-b8be-48ab-9465-b74ad7fe4729","ios":"levelo://app?vid=cba86148-b8be-48ab-9465-b74ad7fe4729"},"vehicle_type_id":"4","last_reported":1771955389,"current_range_meters":0,"station_id":"","pricing_plan_id":"cebpf4jnsgd1na2vs0mg"},{"bike_id":"9cbffe01-b876-4479-bd74-a9022251da76","system_id":"levelo_inurba_marseille","lat":43.27936,"lon":5.38676,"is_reserved":false,"is_disabled":true,"rental_uris":{"android":"levelo://app?vid=9cbffe01-b876-4479-bd74-a9022251da76","ios":"levelo://app?vid=9cbffe01-b876-4479-bd74-a9022251da76"},"vehicle_type_id":"4","last_reported":1771955389,"current_range_meters":0,"station_id":"","pricing_plan_id":"cebpf4jnsgd1na2vs0mg"},{"bike_id":"da386611-c5ab-43fb-86d0-1d3ec1a2d817","system_id":"levelo_inurba_marseille","lat":43.31199,"lon":5.3774,"is_reserved":false,"is_disabled":true,"rental_uris":{"android":"levelo://app?vid=da386611-c5ab-43fb-86d0-1d3ec1a2d817","ios":"levelo://app?vid=da386611-c5ab-43fb-86d0-1d3ec1a2d817"},"vehicle_type_id":"4","last_reported":1771955389,"current_range_meters":0,"station_id":"","pricing_plan_id":"cebpf4jnsgd1na2vs0mg"},{"bike_id":"74e12750-9be2-46e5-8bf8-60ebece0728f","system_id":"levelo_inurba_marseille","lat":43.30953,"lon":5.40375,"is_reserved":false,"is_disabled":true,"rental_uris":{"android":"levelo://app?vid=74e12750-9be2-46e5-8bf8-60ebece0728f","ios":"levelo://app?vid=74e12750-9be2-46e5-8bf8-60ebece0728f"},"vehicle_type_id":"4","last_reported":1771955389,"current_range_meters":0,"station_id":"","pricing_plan_id":"cebpf4jnsgd1na2vs0mg"},{"bike_id":"4ecefc43-758d-4c61-abeb-34c03bec25e6","system_id":"levelo_inurba_marseille","lat":43.31048,"lon":5.39349,"is_reserved":false,"is_disabled":true,"rental_uris":{"android":"levelo://app?vid=4ecefc43-758d-4c61-abeb-34c03bec25e6","ios":"levelo://app?vid=4ecefc43-758d-4c61-abeb-34c03bec25e6"},"vehicle_type_id":"4","last_reported":1771955389,"current_range_meters":0,"station_id":"","pricing_plan_id":"cebpf4jnsgd1na2vs0mg"},{"bike_id":"490be224-a51e-457f-8f1f-cd34897ab334","system_id":"levelo_inurba_marseille","lat":43.277827,"lon":5.355347,"is_reserved":false,"is_disabled":true,"rental_uris":{"android":"levelo://app?vid=490be224-a51e-457f-8f1f-cd34897ab334","ios":"levelo://app?vid=490be224-a51e-457f-8f1f-cd34897ab334"},"vehicle_type_id":"4","last_reported":1771955389,"current_range_meters":0,"station_id":"","pricing_plan_id":"cebpf4jnsgd1na2vs0mg"},{"bike_id":"8d9babad-c60e-43f8-ab22-5afadfde3f6c","system_id":"levelo_inurba_marseille","lat":43.337444,"lon":5.374475,"is_reserved":false,"is_disabled":true,"rental_uris":{"android":"levelo://app?vid=8d9babad-c60e-43f8-ab22-5afadfde3f6c","ios":"levelo://app?vid=8d9babad-c60e-43f8-ab22-5afadfde3f6c"},"vehicle_type_id":"4","last_reported":1771955389,"current_range_meters":0,"station_id":"","pricing_plan_id":"cebpf4jnsgd1na2vs0mg"},{"bike_id":"2d258b9f-d18b-4dee-842d-2e8025c0749b","system_id":"levelo_inurba_marseille","lat":43.29485,"lon":5.3738,"is_reserved":false,"is_disabled":true,"rental_uris":{"android":"levelo://app?vid=2d258b9f-d18b-4dee-842d-2e8025c0749b","ios":"levelo://app?vid=2d258b9f-d18b-4dee-842d-2e8025c0749b"},"vehicle_type_id":"4","last_reported":1771955389,"current_range_meters":0,"station_id":"","pricing_plan_id":"cebpf4jnsgd1na2vs0mg"},{"bike_id":"52a1cce3-dd4c-4ff1-bd24-a5eb0d02e882","system_id":"levelo_inurba_marseille","lat":43.33759,"lon":5.37472,"is_reserved":false,"is_disabled":true,"rental_uris":{"android":"levelo://app?vid=52a1cce3-dd4c-4ff1-bd24-a5eb0d02e882","ios":"levelo://app?vid=52a1cce3-dd4c-4ff1-bd24-a5eb0d02e882"},"vehicle_type_id":"4","last_reported":1771955389,"current_range_meters":0,"station_id":"","pricing_plan_id":"cebpf4jnsgd1na2vs0mg"},{"bike_id":"d5839b7f-fd77-439b-8c74-094b78b3f4c7","system_id":"levelo_inurba_marseille","lat":43.47654,"lon":5.48969,"is_reserved":false,"is_disabled":true,"rental_uris":{"android":"levelo://app?vid=d5839b7f-fd77-439b-8c74-094b78b3f4c7","ios":"levelo://app?vid=d5839b7f-fd77-439b-8c74-094b78b3f4c7"},"vehicle_type_id":"4","last_reported":1771955389,"current_range_meters":0,"station_id":"","pricing_plan_id":"cebpf4jnsgd1na2vs0mg"},{"bike_id":"1bb49b75-5fff-45d2-8145-9ed1d684060b","system_id":"levelo_inurba_marseille","lat":43.289668,"lon":5.432155,"is_reserved":false,"is_disabled":true,"rental_uris":{"android":"levelo://app?vid=1bb49b75-5fff-45d2-8145-9ed1d684060b","ios":"levelo://app?vid=1bb49b75-5fff-45d2-8145-9ed1d684060b"},"vehicle_type_id":"4","last_reported":1771955389,"current_range_meters":0,"station_id":"","pricing_plan_id":"cebpf4jnsgd1na2vs0mg"},{"bike_id":"7b6d8d09-b070-4cf1-93b5-2b0637591791","system_id":"levelo_inurba_marseille","lat":43.25135,"lon":5.40368,"is_reserved":false,"is_disabled":true,"rental_uris":{"android":"levelo://app?vid=7b6d8d09-b070-4cf1-93b5-2b0637591791","ios":"levelo://app?vid=7b6d8d09-b070-4cf1-93b5-2b0637591791"},"vehicle_type_id":"4","last_reported":1771955389,"current_range_meters":0,"station_id":"","pricing_plan_id":"cebpf4jnsgd1na2vs0mg"},{"bike_id":"b69644ec-db1b-48a3-999e-6f46d1e17937","system_id":"levelo_inurba_marseille","lat":43.29392,"lon":5.43473,"is_reserved":false,"is_disabled":true,"rental_uris":{"android":"levelo://app?vid=b69644ec-db1b-48a3-999e-6f46d1e17937","ios":"levelo://app?vid=b69644ec-db1b-48a3-999e-6f46d1e17937"},"vehicle_type_id":"4","last_reported":1771955389,"current_range_meters":0,"station_id":"","pricing_plan_id":"cebpf4jnsgd1na2vs0mg"},{"bike_id":"64f77839-d050-49e5-9316-cd9227116c68","system_id":"levelo_inurba_marseille","lat":43.29307,"lon":5.37176,"is_reserved":false,"is_disabled":true,"rental_uris":{"android":"levelo://app?vid=64f77839-d050-49e5-9316-cd9227116c68","ios":"levelo://app?vid=64f77839-d050-49e5-9316-cd9227116c68"},"vehicle_type_id":"4","last_reported":1771955389,"current_range_meters":0,"station_id":"ce4bgh92rcd13ifvqb40","pricing_plan_id":"cebpf4jnsgd1na2vs0mg"},{"bike_id":"a18f70f7-521f-412c-97e1-ae51cd90f932","system_id":"levelo_inurba_marseille","lat":43.29628,"lon":5.37712,"is_reserved":false,"is_disabled":true,"rental_uris":{"android":"levelo://app?vid=a18f70f7-521f-412c-97e1-ae51cd90f932","ios":"levelo://app?vid=a18f70f7-521f-412c-97e1-ae51cd90f932"},"vehicle_type_id":"4","last_reported":1771955389,"current_range_meters":0,"station_id":"ce4bgi92rcd13ifvqb90","pricing_plan_id":"cebpf4jnsgd1na2vs0mg"},{"bike_id":"d811115a-d630-4a90-8924-a059d31ae205","system_id":"levelo_inurba_marseille","lat":43.29968,"lon":5.38502,"is_reserved":false,"is_disabled":true,"rental_uris":{"android":"levelo://app?vid=d811115a-d630-4a90-8924-a059d31ae205","ios":"levelo://app?vid=d811115a-d630-4a90-8924-a059d31ae205"},"vehicle_type_id":"4","last_reported":1771955389,"current_range_meters":0,"station_id":"ce4bgj92rcd13ifvqbd0","pricing_plan_id":"cebpf4jnsgd1na2vs0mg"},{"bike_id":"31ca2b18-7ec3-4857-a4ae-2f70eedc4d5c","system_id":"levelo_inurba_marseille","lat":43.29609,"lon":5.38101,"is_reserved":false,"is_disabled":true,"rental_uris":{"android":"levelo://app?vid=31ca2b18-7ec3-4857-a4ae-2f70eedc4d5c","ios":"levelo://app?vid=31ca2b18-7ec3-4857-a4ae-2f70eedc4d5c"},"vehicle_type_id":"4","last_reported":1771955389,"current_range_meters":0,"station_id":"ce4bgl12rcd13ifvqbo0","pricing_plan_id":"cebpf4jnsgd1na2vs0mg"},{"bike_id":"a4a4c524-51cc-4a0f-a4b2-fb91f33934eb","system_id":"levelo_inurba_marseille","lat":43.312345,"lon":5.368391,"is_reserved":false,"is_disabled":true,"rental_uris":{"android":"levelo://app?vid=a4a4c524-51cc-4a0f-a4b2-fb91f33934eb","ios":"levelo://app?vid=a4a4c524-51cc-4a0f-a4b2-fb91f33934eb"},"vehicle_type_id":"4","last_reported":1771955389,"current_range_meters":0,"station_id":"ce4bgl92rcd13ifvqbq0","pricing_plan_id":"cebpf4jnsgd1na2vs0mg"},{"bike_id":"c0b8695e-614e-4e70-b2cf-f966a888d95c","system_id":"levelo_inurba_marseille","lat":43.29786,"lon":5.37121,"is_reserved":false,"is_disabled":true,"rental_uris":{"android":"levelo://app?vid=c0b8695e-614e-4e70-b2cf-f966a888d95c","ios":"levelo://app?vid=c0b8695e-614e-4e70-b2cf-f966a888d95c"},"vehicle_type_id":"4","last_reported":1771955389,"current_range_meters":0,"station_id":"ce4bgop2rcd13ifvqc1g","pricing_plan_id":"cebpf4jnsgd1na2vs0mg"},{"bike_id":"7b0083bb-a467-4d8d-a0f5-de045ffd9c6c","system_id":"levelo_inurba_marseille","lat":43.31361,"lon":5.38502,"is_reserved":false,"is_disabled":true,"rental_uris":{"android":"levelo://app?vid=7b0083bb-a467-4d8d-a0f5-de045ffd9c6c","ios":"levelo://app?vid=7b0083bb-a467-4d8d-a0f5-de045ffd9c6c"},"vehicle_type_id":"4","last_reported":1771955389,"current_range_meters":0,"station_id":"ce4bgt92rcd13ifvqcf0","pricing_plan_id":"cebpf4jnsgd1na2vs0mg"},{"bike_id":"e3224364-1c06-4aa6-b4b3-5e7227894639","system_id":"levelo_inurba_marseille","lat":43.31358,"lon":5.3846,"is_reserved":false,"is_disabled":true,"rental_uris":{"android":"levelo://app?vid=e3224364-1c06-4aa6-b4b3-5e7227894639","ios":"levelo://app?vid=e3224364-1c06-4aa6-b4b3-5e7227894639"},"vehicle_type_id":"4","last_reported":1771955389,"current_range_meters":0,"station_id":"ce4bgt92rcd13ifvqcf0","pricing_plan_id":"cebpf4jnsgd1na2vs0mg"},{"bike_id":"8bc262c9-b3eb-4110-bdff-f3217a6a5dff","system_id":"levelo_inurba_marseille","lat":43.309565,"lon":5.390325,"is_reserved":false,"is_disabled":true,"rental_uris":{"android":"levelo://app?vid=8bc262c9-b3eb-4110-bdff-f3217a6a5dff","ios":"levelo://app?vid=8bc262c9-b3eb-4110-bdff-f3217a6a5dff"},"vehicle_type_id":"4","last_reported":1771955389,"current_range_meters":0,"station_id":"ce4bgup2rcd13ifvqco0","pricing_plan_id":"cebpf4jnsgd1na2vs0mg"},{"bike_id":"0de5e573-6e4e-4a47-80d7-59ff990dc5e8","system_id":"levelo_inurba_marseille","lat":43.31177,"lon":5.38724,"is_reserved":false,"is_disabled":true,"rental_uris":{"android":"levelo://app?vid=0de5e573-6e4e-4a47-80d7-59ff990dc5e8","ios":"levelo://app?vid=0de5e573-6e4e-4a47-80d7-59ff990dc5e8"},"vehicle_type_id":"4","last_reported":1771955389,"current_range_meters":0,"station_id":"ce4bgv12rcd13ifvqcp0","pricing_plan_id":"cebpf4jnsgd1na2vs0mg"},{"bike_id":"a6ffad7c-26a1-4f90-94c6-f4c606f241f1","system_id":"levelo_inurba_marseille","lat":43.31329,"lon":5.39694,"is_reserved":false,"is_disabled":true,"rental_uris":{"android":"levelo://app?vid=a6ffad7c-26a1-4f90-94c6-f4c606f241f1","ios":"levelo://app?vid=a6ffad7c-26a1-4f90-94c6-f4c606f241f1"},"vehicle_type_id":"4","last_reported":1771955389,"current_range_meters":0,"station_id":"ce4bgvp2rcd13ifvqcu0","pricing_plan_id":"cebpf4jnsgd1na2vs0mg"},{"bike_id":"af54e3c6-5742-4085-948d-8db2b65c0752","system_id":"levelo_inurba_marseille","lat":43.308864,"lon":5.39667,"is_reserved":false,"is_disabled":true,"rental_uris":{"android":"levelo://app?vid=af54e3c6-5742-4085-948d-8db2b65c0752","ios":"levelo://app?vid=af54e3c6-5742-4085-948d-8db2b65c0752"},"vehicle_type_id":"4","last_reported":1771955389,"current_range_meters":0,"station_id":"ce4bh012rcd13ifvqcv0","pricing_plan_id":"cebpf4jnsgd1na2vs0mg"},{"bike_id":"6ebfb80b-b49f-4562-8736-7ab371ab1122","system_id":"levelo_inurba_marseille","lat":43.31279,"lon":5.40168,"is_reserved":false,"is_disabled":true,"rental_uris":{"android":"levelo://app?vid=6ebfb80b-b49f-4562-8736-7ab371ab1122","ios":"levelo://app?vid=6ebfb80b-b49f-4562-8736-7ab371ab1122"},"vehicle_type_id":"4","last_reported":1771955389,"current_range_meters":0,"station_id":"ce4bh092rcd13ifvqd30","pricing_plan_id":"cebpf4jnsgd1na2vs0mg"},{"bike_id":"8df776ed-4e3b-4719-8712-6fbb8f3282f9","system_id":"levelo_inurba_marseille","lat":43.312705,"lon":5.401475,"is_reserved":false,"is_disabled":true,"rental_uris":{"android":"levelo://app?vid=8df776ed-4e3b-4719-8712-6fbb8f3282f9","ios":"levelo://app?vid=8df776ed-4e3b-4719-8712-6fbb8f3282f9"},"vehicle_type_id":"4","last_reported":1771955389,"current_range_meters":0,"station_id":"ce4bh092rcd13ifvqd30","pricing_plan_id":"cebpf4jnsgd1na2vs0mg"},{"bike_id":"d914d1ea-1137-467f-ae94-7f03110a0f59","system_id":"levelo_inurba_marseille","lat":43.31281,"lon":5.40174,"is_reserved":false,"is_disabled":true,"rental_uris":{"android":"levelo://app?vid=d914d1ea-1137-467f-ae94-7f03110a0f59","ios":"levelo://app?vid=d914d1ea-1137-467f-ae94-7f03110a0f59"},"vehicle_type_id":"4","last_reported":1771955389,"current_range_meters":0,"station_id":"ce4bh092rcd13ifvqd30","pricing_plan_id":"cebpf4jnsgd1na2vs0mg"},{"bike_id":"7918b74e-dcda-419d-83b5-ddf9d13199cc","system_id":"levelo_inurba_marseille","lat":43.31266,"lon":5.40161,"is_reserved":false,"is_disabled":true,"rental_uris":{"android":"levelo://app?vid=7918b74e-dcda-419d-83b5-ddf9d13199cc","ios":"levelo://app?vid=7918b74e-dcda-419d-83b5-ddf9d13199cc"},"vehicle_type_id":"4","last_reported":1771955389,"current_range_meters":0,"station_id":"ce4bh092rcd13ifvqd30","pricing_plan_id":"cebpf4jnsgd1na2vs0mg"},{"bike_id":"4b0c93e7-8c44-410f-bf03-ec9ee3ba2c2b","system_id":"levelo_inurba_marseille","lat":43.28476,"lon":5.38401,"is_reserved":false,"is_disabled":true,"rental_uris":{"android":"levelo://app?vid=4b0c93e7-8c44-410f-bf03-ec9ee3ba2c2b","ios":"levelo://app?vid=4b0c93e7-8c44-410f-bf03-ec9ee3ba2c2b"},"vehicle_type_id":"4","last_reported":1771955389,"current_range_meters":0,"station_id":"ce4bh512rcd13ifvqe3g","pricing_plan_id":"cebpf4jnsgd1na2vs0mg"},{"bike_id":"6bbcfa3f-f89f-49be-80f0-1e9837e85953","system_id":"levelo_inurba_marseille","lat":43.28469,"lon":5.38551,"is_reserved":false,"is_disabled":true,"rental_uris":{"android":"levelo://app?vid=6bbcfa3f-f89f-49be-80f0-1e9837e85953","ios":"levelo://app?vid=6bbcfa3f-f89f-49be-80f0-1e9837e85953"},"vehicle_type_id":"4","last_reported":1771955389,"current_range_meters":0,"station_id":"ce4bh8p2rcd13ifvqeb0","pricing_plan_id":"cebpf4jnsgd1na2vs0mg"},{"bike_id":"d49fcda7-dd4c-4c0d-bb27-b36078203f6e","system_id":"levelo_inurba_marseille","lat":43.27374,"lon":5.36263,"is_reserved":false,"is_disabled":true,"rental_uris":{"android":"levelo://app?vid=d49fcda7-dd4c-4c0d-bb27-b36078203f6e","ios":"levelo://app?vid=d49fcda7-dd4c-4c0d-bb27-b36078203f6e"},"vehicle_type_id":"4","last_reported":1771955389,"current_range_meters":0,"station_id":"ce4bhbh2rcd13ifvqeo0","pricing_plan_id":"cebpf4jnsgd1na2vs0mg"},{"bike_id":"976a7e23-9a28-4949-ab2d-f3aa01dc813e","system_id":"levelo_inurba_marseille","lat":43.28621,"lon":5.35099,"is_reserved":false,"is_disabled":true,"rental_uris":{"android":"levelo://app?vid=976a7e23-9a28-4949-ab2d-f3aa01dc813e","ios":"levelo://app?vid=976a7e23-9a28-4949-ab2d-f3aa01dc813e"},"vehicle_type_id":"4","last_reported":1771955389,"current_range_meters":0,"station_id":"ce4bhch2rcd13ifvqeug","pricing_plan_id":"cebpf4jnsgd1na2vs0mg"},{"bike_id":"87e41c70-7467-4101-9e50-c4c0fdc83b62","system_id":"levelo_inurba_marseille","lat":43.26567,"lon":5.38976,"is_reserved":false,"is_disabled":true,"rental_uris":{"android":"levelo://app?vid=87e41c70-7467-4101-9e50-c4c0fdc83b62","ios":"levelo://app?vid=87e41c70-7467-4101-9e50-c4c0fdc83b62"},"vehicle_type_id":"4","last_reported":1771955389,"current_range_meters":0,"station_id":"ce4bhe12rcd13ifvqf30","pricing_plan_id":"cebpf4jnsgd1na2vs0mg"},{"bike_id":"7ded8a1b-92fa-434d-a05d-ed3d79885999","system_id":"levelo_inurba_marseille","lat":43.27924,"lon":5.39577,"is_reserved":false,"is_disabled":true,"rental_uris":{"android":"levelo://app?vid=7ded8a1b-92fa-434d-a05d-ed3d79885999","ios":"levelo://app?vid=7ded8a1b-92fa-434d-a05d-ed3d79885999"},"vehicle_type_id":"4","last_reported":1771955389,"current_range_meters":0,"station_id":"ce4bhf92rcd13ifvqf40","pricing_plan_id":"cebpf4jnsgd1na2vs0mg"},{"bike_id":"8904e931-f699-4377-b7bd-6bedda703762","system_id":"levelo_inurba_marseille","lat":43.26541,"lon":5.37287,"is_reserved":false,"is_disabled":true,"rental_uris":{"android":"levelo://app?vid=8904e931-f699-4377-b7bd-6bedda703762","ios":"levelo://app?vid=8904e931-f699-4377-b7bd-6bedda703762"},"vehicle_type_id":"4","last_reported":1771955389,"current_range_meters":0,"station_id":"ce4bhg12rcd13ifvqf70","pricing_plan_id":"cebpf4jnsgd1na2vs0mg"},{"bike_id":"463542da-c07b-4ccf-8845-8937195cafb3","system_id":"levelo_inurba_marseille","lat":43.26556,"lon":5.37291,"is_reserved":false,"is_disabled":true,"rental_uris":{"android":"levelo://app?vid=463542da-c07b-4ccf-8845-8937195cafb3","ios":"levelo://app?vid=463542da-c07b-4ccf-8845-8937195cafb3"},"vehicle_type_id":"4","last_reported":1771955389,"current_range_meters":0,"station_id":"ce4bhg12rcd13ifvqf70","pricing_plan_id":"cebpf4jnsgd1na2vs0mg"},{"bike_id":"45ad88a4-b4c4-4934-805c-75d8c48177a9","system_id":"levelo_inurba_marseille","lat":43.279803,"lon":5.38724,"is_reserved":false,"is_disabled":true,"rental_uris":{"android":"levelo://app?vid=45ad88a4-b4c4-4934-805c-75d8c48177a9","ios":"levelo://app?vid=45ad88a4-b4c4-4934-805c-75d8c48177a9"},"vehicle_type_id":"4","last_reported":1771955389,"current_range_meters":0,"station_id":"ce4bhg12rcd13ifvqf80","pricing_plan_id":"cebpf4jnsgd1na2vs0mg"},{"bike_id":"1577e805-db3a-43de-979d-97cebdb4697a","system_id":"levelo_inurba_marseille","lat":43.279462,"lon":5.387427,"is_reserved":false,"is_disabled":true,"rental_uris":{"android":"levelo://app?vid=1577e805-db3a-43de-979d-97cebdb4697a","ios":"levelo://app?vid=1577e805-db3a-43de-979d-97cebdb4697a"},"vehicle_type_id":"4","last_reported":1771955389,"current_range_meters":0,"station_id":"ce4bhg12rcd13ifvqf80","pricing_plan_id":"cebpf4jnsgd1na2vs0mg"},{"bike_id":"906de3a7-16f8-4e89-9ad7-521e443796fe","system_id":"levelo_inurba_marseille","lat":43.26203,"lon":5.37442,"is_reserved":false,"is_disabled":true,"rental_uris":{"android":"levelo://app?vid=906de3a7-16f8-4e89-9ad7-521e443796fe","ios":"levelo://app?vid=906de3a7-16f8-4e89-9ad7-521e443796fe"},"vehicle_type_id":"4","last_reported":1771955389,"current_range_meters":0,"station_id":"ce4bhgp2rcd13ifvqfc0","pricing_plan_id":"cebpf4jnsgd1na2vs0mg"},{"bike_id":"c68ac0f8-665b-4a76-a147-9c7b1e36c34c","system_id":"levelo_inurba_marseille","lat":43.25032,"lon":5.38915,"is_reserved":false,"is_disabled":true,"rental_uris":{"android":"levelo://app?vid=c68ac0f8-665b-4a76-a147-9c7b1e36c34c","ios":"levelo://app?vid=c68ac0f8-665b-4a76-a147-9c7b1e36c34c"},"vehicle_type_id":"4","last_reported":1771955389,"current_range_meters":0,"station_id":"ce4bhgp2rcd13ifvqfd0","pricing_plan_id":"cebpf4jnsgd1na2vs0mg"},{"bike_id":"085b2872-c31a-49e2-86bf-e177f4680e2f","system_id":"levelo_inurba_marseille","lat":43.27221,"lon":5.3923,"is_reserved":false,"is_disabled":true,"rental_uris":{"android":"levelo://app?vid=085b2872-c31a-49e2-86bf-e177f4680e2f","ios":"levelo://app?vid=085b2872-c31a-49e2-86bf-e177f4680e2f"},"vehicle_type_id":"4","last_reported":1771955389,"current_range_meters":0,"station_id":"ce4bhhp2rcd13ifvqfm0","pricing_plan_id":"cebpf4jnsgd1na2vs0mg"},{"bike_id":"aa258181-7888-45e3-a32d-94ea2d790b6e","system_id":"levelo_inurba_marseille","lat":43.278463,"lon":5.392026,"is_reserved":false,"is_disabled":true,"rental_uris":{"android":"levelo://app?vid=aa258181-7888-45e3-a32d-94ea2d790b6e","ios":"levelo://app?vid=aa258181-7888-45e3-a32d-94ea2d790b6e"},"vehicle_type_id":"4","last_reported":1771955389,"current_range_meters":0,"station_id":"ce4bhjp2rcd13ifvqga0","pricing_plan_id":"cebpf4jnsgd1na2vs0mg"},{"bike_id":"9a01d7a2-6cdd-474e-b2d1-2f8e36128e57","system_id":"levelo_inurba_marseille","lat":43.27071,"lon":5.4229,"is_reserved":false,"is_disabled":true,"rental_uris":{"android":"levelo://app?vid=9a01d7a2-6cdd-474e-b2d1-2f8e36128e57","ios":"levelo://app?vid=9a01d7a2-6cdd-474e-b2d1-2f8e36128e57"},"vehicle_type_id":"4","last_reported":1771955389,"current_range_meters":0,"station_id":"ce4bhk92rcd13ifvqgb0","pricing_plan_id":"cebpf4jnsgd1na2vs0mg"},{"bike_id":"0a57208a-4551-46c7-91c5-4878865cb85d","system_id":"levelo_inurba_marseille","lat":43.25866,"lon":5.39897,"is_reserved":false,"is_disabled":true,"rental_uris":{"android":"levelo://app?vid=0a57208a-4551-46c7-91c5-4878865cb85d","ios":"levelo://app?vid=0a57208a-4551-46c7-91c5-4878865cb85d"},"vehicle_type_id":"4","last_reported":1771955389,"current_range_meters":0,"station_id":"ce4bhl92rcd13ifvqghg","pricing_plan_id":"cebpf4jnsgd1na2vs0mg"},{"bike_id":"50dcc28f-c497-47d3-9d28-7bb9da24d3f3","system_id":"levelo_inurba_marseille","lat":43.23154,"lon":5.43716,"is_reserved":false,"is_disabled":true,"rental_uris":{"android":"levelo://app?vid=50dcc28f-c497-47d3-9d28-7bb9da24d3f3","ios":"levelo://app?vid=50dcc28f-c497-47d3-9d28-7bb9da24d3f3"},"vehicle_type_id":"4","last_reported":1771955389,"current_range_meters":0,"station_id":"ce4bhmp2rcd13ifvqgog","pricing_plan_id":"cebpf4jnsgd1na2vs0mg"},{"bike_id":"002bb237-6762-4ea1-9b16-61a5fc706cd9","system_id":"levelo_inurba_marseille","lat":43.27488,"lon":5.42455,"is_reserved":false,"is_disabled":true,"rental_uris":{"android":"levelo://app?vid=002bb237-6762-4ea1-9b16-61a5fc706cd9","ios":"levelo://app?vid=002bb237-6762-4ea1-9b16-61a5fc706cd9"},"vehicle_type_id":"4","last_reported":1771955389,"current_range_meters":0,"station_id":"ce4bhn92rcd13ifvqgrg","pricing_plan_id":"cebpf4jnsgd1na2vs0mg"},{"bike_id":"8dd8c166-1881-4ce8-aae9-2a44fa025996","system_id":"levelo_inurba_marseille","lat":43.27481,"lon":5.42456,"is_reserved":false,"is_disabled":true,"rental_uris":{"android":"levelo://app?vid=8dd8c166-1881-4ce8-aae9-2a44fa025996","ios":"levelo://app?vid=8dd8c166-1881-4ce8-aae9-2a44fa025996"},"vehicle_type_id":"4","last_reported":1771955389,"current_range_meters":0,"station_id":"ce4bhn92rcd13ifvqgrg","pricing_plan_id":"cebpf4jnsgd1na2vs0mg"},{"bike_id":"448db629-5717-4077-830d-f2cc0fa0cdc3","system_id":"levelo_inurba_marseille","lat":43.28205,"lon":5.39055,"is_reserved":false,"is_disabled":true,"rental_uris":{"android":"levelo://app?vid=448db629-5717-4077-830d-f2cc0fa0cdc3","ios":"levelo://app?vid=448db629-5717-4077-830d-f2cc0fa0cdc3"},"vehicle_type_id":"4","last_reported":1771955389,"current_range_meters":0,"station_id":"ce4bhn92rcd13ifvqgsg","pricing_plan_id":"cebpf4jnsgd1na2vs0mg"},{"bike_id":"54e4c3ff-a204-4046-915c-9e7fb9042150","system_id":"levelo_inurba_marseille","lat":43.28699,"lon":5.39976,"is_reserved":false,"is_disabled":true,"rental_uris":{"android":"levelo://app?vid=54e4c3ff-a204-4046-915c-9e7fb9042150","ios":"levelo://app?vid=54e4c3ff-a204-4046-915c-9e7fb9042150"},"vehicle_type_id":"4","last_reported":1771955389,"current_range_meters":0,"station_id":"ce4bho92rcd13ifvqh3g","pricing_plan_id":"cebpf4jnsgd1na2vs0mg"},{"bike_id":"78a10e41-d80e-4399-ac0d-701b7cab42b7","system_id":"levelo_inurba_marseille","lat":43.30422,"lon":5.41289,"is_reserved":false,"is_disabled":true,"rental_uris":{"android":"levelo://app?vid=78a10e41-d80e-4399-ac0d-701b7cab42b7","ios":"levelo://app?vid=78a10e41-d80e-4399-ac0d-701b7cab42b7"},"vehicle_type_id":"4","last_reported":1771955389,"current_range_meters":0,"station_id":"ce4bhop2rcd13ifvqh8g","pricing_plan_id":"cebpf4jnsgd1na2vs0mg"},{"bike_id":"78469ab5-eb43-4373-89b8-a063eb6de604","system_id":"levelo_inurba_marseille","lat":43.299603,"lon":5.413159,"is_reserved":false,"is_disabled":true,"rental_uris":{"android":"levelo://app?vid=78469ab5-eb43-4373-89b8-a063eb6de604","ios":"levelo://app?vid=78469ab5-eb43-4373-89b8-a063eb6de604"},"vehicle_type_id":"4","last_reported":1771955389,"current_range_meters":0,"station_id":"ce4bhp12rcd13ifvqh9g","pricing_plan_id":"cebpf4jnsgd1na2vs0mg"},{"bike_id":"9762a9bd-6cc8-40f6-bf4e-22029e14246f","system_id":"levelo_inurba_marseille","lat":43.32131,"lon":5.36745,"is_reserved":false,"is_disabled":true,"rental_uris":{"android":"levelo://app?vid=9762a9bd-6cc8-40f6-bf4e-22029e14246f","ios":"levelo://app?vid=9762a9bd-6cc8-40f6-bf4e-22029e14246f"},"vehicle_type_id":"4","last_reported":1771955389,"current_range_meters":0,"station_id":"ce4bhrh2rcd13ifvqhug","pricing_plan_id":"cebpf4jnsgd1na2vs0mg"},{"bike_id":"d8886b86-9dc0-4675-a2fd-6f3d17d281b5","system_id":"levelo_inurba_marseille","lat":43.229491,"lon":5.353539,"is_reserved":false,"is_disabled":true,"rental_uris":{"android":"levelo://app?vid=d8886b86-9dc0-4675-a2fd-6f3d17d281b5","ios":"levelo://app?vid=d8886b86-9dc0-4675-a2fd-6f3d17d281b5"},"vehicle_type_id":"4","last_reported":1771955389,"current_range_meters":0,"station_id":"cpo3532slgdg3j2ikp40","pricing_plan_id":"cebpf4jnsgd1na2vs0mg"},{"bike_id":"30301e4d-ab2b-4c5b-b999-ffda91131983","system_id":"levelo_inurba_marseille","lat":43.22928,"lon":5.353769,"is_reserved":false,"is_disabled":true,"rental_uris":{"android":"levelo://app?vid=30301e4d-ab2b-4c5b-b999-ffda91131983","ios":"levelo://app?vid=30301e4d-ab2b-4c5b-b999-ffda91131983"},"vehicle_type_id":"4","last_reported":1771955389,"current_range_meters":0,"station_id":"cpo3532slgdg3j2ikp40","pricing_plan_id":"cebpf4jnsgd1na2vs0mg"},{"bike_id":"35376312-7c78-4887-aebd-c9bacb76ddeb","system_id":"levelo_inurba_marseille","lat":43.2118,"lon":5.35059,"is_reserved":false,"is_disabled":true,"rental_uris":{"android":"levelo://app?vid=35376312-7c78-4887-aebd-c9bacb76ddeb","ios":"levelo://app?vid=35376312-7c78-4887-aebd-c9bacb76ddeb"},"vehicle_type_id":"4","last_reported":1771955389,"current_range_meters":0,"station_id":"st_cvj6sg6p6f1abm77japg","pricing_plan_id":"cebpf4jnsgd1na2vs0mg"},{"bike_id":"462138bf-589a-45ab-918e-0e45c230257b","system_id":"levelo_inurba_marseille","lat":43.331616,"lon":5.376924,"is_reserved":false,"is_disabled":true,"rental_uris":{"android":"levelo://app?vid=462138bf-589a-45ab-918e-0e45c230257b","ios":"levelo://app?vid=462138bf-589a-45ab-918e-0e45c230257b"},"vehicle_type_id":"4","last_reported":1771955389,"current_range_meters":0,"station_id":"st_d46cu089ee8s73dldbu0","pricing_plan_id":"cebpf4jnsgd1na2vs0mg"},{"bike_id":"930635a2-c989-4efa-8c44-d929b8a85eed","system_id":"levelo_inurba_marseille","lat":43.335455,"lon":5.374658,"is_reserved":false,"is_disabled":true,"rental_uris":{"android":"levelo://app?vid=930635a2-c989-4efa-8c44-d929b8a85eed","ios":"levelo://app?vid=930635a2-c989-4efa-8c44-d929b8a85eed"},"vehicle_type_id":"4","last_reported":1771955389,"current_range_meters":0,"station_id":"st_d46tts09ee8s73dlu43g","pricing_plan_id":"cebpf4jnsgd1na2vs0mg"},{"bike_id":"051208ab-d2cb-4f4a-b871-cc9af68b95d4","system_id":"levelo_inurba_marseille","lat":43.24506,"lon":5.42573,"is_reserved":false,"is_disabled":true,"rental_uris":{"android":"levelo://app?vid=051208ab-d2cb-4f4a-b871-cc9af68b95d4","ios":"levelo://app?vid=051208ab-d2cb-4f4a-b871-cc9af68b95d4"},"vehicle_type_id":"4","last_reported":1771955389,"current_range_meters":0,"station_id":"st_d4a3vfp97mjs738cd8kg","pricing_plan_id":"cebpf4jnsgd1na2vs0mg"},{"bike_id":"ea2b4149-0ec7-42d1-b960-020acad2a8fb","system_id":"levelo_inurba_marseille","lat":43.21207,"lon":5.35177,"is_reserved":false,"is_disabled":true,"rental_uris":{"android":"levelo://app?vid=ea2b4149-0ec7-42d1-b960-020acad2a8fb","ios":"levelo://app?vid=ea2b4149-0ec7-42d1-b960-020acad2a8fb"},"vehicle_type_id":"4","last_reported":1771955389,"current_range_meters":400,"station_id":"","pricing_plan_id":"cebpf4jnsgd1na2vs0mg"},{"bike_id":"5db6570a-fe35-4a99-a3c7-020863e6ae9e","system_id":"levelo_inurba_marseille","lat":43.25911,"lon":5.385412,"is_reserved":false,"is_disabled":true,"rental_uris":{"android":"levelo://app?vid=5db6570a-fe35-4a99-a3c7-020863e6ae9e","ios":"levelo://app?vid=5db6570a-fe35-4a99-a3c7-020863e6ae9e"},"vehicle_type_id":"4","last_reported":1771955389,"current_range_meters":400,"station_id":"","pricing_plan_id":"cebpf4jnsgd1na2vs0mg"},{"bike_id":"92a6f859-8931-4c42-8cea-9bbd3c4b24d1","system_id":"levelo_inurba_marseille","lat":43.29604,"lon":5.38115,"is_reserved":false,"is_disabled":true,"rental_uris":{"android":"levelo://app?vid=92a6f859-8931-4c42-8cea-9bbd3c4b24d1","ios":"levelo://app?vid=92a6f859-8931-4c42-8cea-9bbd3c4b24d1"},"vehicle_type_id":"4","last_reported":1771955389,"current_range_meters":400,"station_id":"ce4bgl12rcd13ifvqbo0","pricing_plan_id":"cebpf4jnsgd1na2vs0mg"},{"bike_id":"2c07fe1b-0e70-44bf-92fd-ecc355d7d172","system_id":"levelo_inurba_marseille","lat":43.312215,"lon":5.368455,"is_reserved":false,"is_disabled":true,"rental_uris":{"android":"levelo://app?vid=2c07fe1b-0e70-44bf-92fd-ecc355d7d172","ios":"levelo://app?vid=2c07fe1b-0e70-44bf-92fd-ecc355d7d172"},"vehicle_type_id":"4","last_reported":1771955389,"current_range_meters":400,"station_id":"ce4bgl92rcd13ifvqbq0","pricing_plan_id":"cebpf4jnsgd1na2vs0mg"},{"bike_id":"7e27a4fd-da86-4b60-976d-430c84147071","system_id":"levelo_inurba_marseille","lat":43.273805,"lon":5.362563,"is_reserved":false,"is_disabled":true,"rental_uris":{"android":"levelo://app?vid=7e27a4fd-da86-4b60-976d-430c84147071","ios":"levelo://app?vid=7e27a4fd-da86-4b60-976d-430c84147071"},"vehicle_type_id":"4","last_reported":1771955389,"current_range_meters":400,"station_id":"ce4bhbh2rcd13ifvqeo0","pricing_plan_id":"cebpf4jnsgd1na2vs0mg"},{"bike_id":"db5ce090-a494-4b65-b21f-f45f80d19c35","system_id":"levelo_inurba_marseille","lat":43.27367,"lon":5.36236,"is_reserved":false,"is_disabled":true,"rental_uris":{"android":"levelo://app?vid=db5ce090-a494-4b65-b21f-f45f80d19c35","ios":"levelo://app?vid=db5ce090-a494-4b65-b21f-f45f80d19c35"},"vehicle_type_id":"4","last_reported":1771955389,"current_range_meters":400,"station_id":"ce4bhbh2rcd13ifvqeo0","pricing_plan_id":"cebpf4jnsgd1na2vs0mg"},{"bike_id":"78d46ace-a23b-4fb8-a0c2-1d5f32b1e302","system_id":"levelo_inurba_marseille","lat":43.292723,"lon":5.368447,"is_reserved":false,"is_disabled":true,"rental_uris":{"android":"levelo://app?vid=78d46ace-a23b-4fb8-a0c2-1d5f32b1e302","ios":"levelo://app?vid=78d46ace-a23b-4fb8-a0c2-1d5f32b1e302"},"vehicle_type_id":"4","last_reported":1771955389,"current_range_meters":400,"station_id":"ce4bhbp2rcd13ifvqesg","pricing_plan_id":"cebpf4jnsgd1na2vs0mg"},{"bike_id":"9c2ce6e0-b710-47c3-8464-f68dd78edbd1","system_id":"levelo_inurba_marseille","lat":43.24654,"lon":5.38897,"is_reserved":false,"is_disabled":true,"rental_uris":{"android":"levelo://app?vid=9c2ce6e0-b710-47c3-8464-f68dd78edbd1","ios":"levelo://app?vid=9c2ce6e0-b710-47c3-8464-f68dd78edbd1"},"vehicle_type_id":"4","last_reported":1771955389,"current_range_meters":400,"station_id":"ce4bhg12rcd13ifvqf60","pricing_plan_id":"cebpf4jnsgd1na2vs0mg"},{"bike_id":"4dad7e01-298f-4317-9f53-f009c902abda","system_id":"levelo_inurba_marseille","lat":43.26549,"lon":5.37289,"is_reserved":false,"is_disabled":true,"rental_uris":{"android":"levelo://app?vid=4dad7e01-298f-4317-9f53-f009c902abda","ios":"levelo://app?vid=4dad7e01-298f-4317-9f53-f009c902abda"},"vehicle_type_id":"4","last_reported":1771955389,"current_range_meters":400,"station_id":"ce4bhg12rcd13ifvqf70","pricing_plan_id":"cebpf4jnsgd1na2vs0mg"},{"bike_id":"6fb738f8-1620-41b3-a3fb-94d1ac724727","system_id":"levelo_inurba_marseille","lat":43.27207,"lon":5.39171,"is_reserved":false,"is_disabled":true,"rental_uris":{"android":"levelo://app?vid=6fb738f8-1620-41b3-a3fb-94d1ac724727","ios":"levelo://app?vid=6fb738f8-1620-41b3-a3fb-94d1ac724727"},"vehicle_type_id":"4","last_reported":1771955389,"current_range_meters":400,"station_id":"ce4bhhp2rcd13ifvqfm0","pricing_plan_id":"cebpf4jnsgd1na2vs0mg"},{"bike_id":"57446fcf-6829-41fe-9041-73758a7e9c3c","system_id":"levelo_inurba_marseille","lat":43.2466,"lon":5.38156,"is_reserved":false,"is_disabled":true,"rental_uris":{"android":"levelo://app?vid=57446fcf-6829-41fe-9041-73758a7e9c3c","ios":"levelo://app?vid=57446fcf-6829-41fe-9041-73758a7e9c3c"},"vehicle_type_id":"4","last_reported":1771955389,"current_range_meters":400,"station_id":"ce4bhih2rcd13ifvqfr0","pricing_plan_id":"cebpf4jnsgd1na2vs0mg"},{"bike_id":"c055c1c2-6b53-48e5-aaac-ecb357c591a9","system_id":"levelo_inurba_marseille","lat":43.26202,"lon":5.37936,"is_reserved":false,"is_disabled":true,"rental_uris":{"android":"levelo://app?vid=c055c1c2-6b53-48e5-aaac-ecb357c591a9","ios":"levelo://app?vid=c055c1c2-6b53-48e5-aaac-ecb357c591a9"},"vehicle_type_id":"4","last_reported":1771955389,"current_range_meters":400,"station_id":"ce4bhjp2rcd13ifvqg90","pricing_plan_id":"cebpf4jnsgd1na2vs0mg"},{"bike_id":"64bd45ca-d016-49ae-9682-bfa2d4589bec","system_id":"levelo_inurba_marseille","lat":43.23153,"lon":5.43728,"is_reserved":false,"is_disabled":true,"rental_uris":{"android":"levelo://app?vid=64bd45ca-d016-49ae-9682-bfa2d4589bec","ios":"levelo://app?vid=64bd45ca-d016-49ae-9682-bfa2d4589bec"},"vehicle_type_id":"4","last_reported":1771955389,"current_range_meters":400,"station_id":"ce4bhmp2rcd13ifvqgog","pricing_plan_id":"cebpf4jnsgd1na2vs0mg"},{"bike_id":"3c7ff53d-8f60-499c-91ab-df8844e51d65","system_id":"levelo_inurba_marseille","lat":43.240672,"lon":5.377496,"is_reserved":false,"is_disabled":true,"rental_uris":{"android":"levelo://app?vid=3c7ff53d-8f60-499c-91ab-df8844e51d65","ios":"levelo://app?vid=3c7ff53d-8f60-499c-91ab-df8844e51d65"},"vehicle_type_id":"4","last_reported":1771955389,"current_range_meters":400,"station_id":"ce4bhnp2rcd13ifvqgvg","pricing_plan_id":"cebpf4jnsgd1na2vs0mg"},{"bike_id":"104fd9b4-c275-4322-b33d-b0f3e9d52c27","system_id":"levelo_inurba_marseille","lat":43.28883,"lon":5.42523,"is_reserved":false,"is_disabled":true,"rental_uris":{"android":"levelo://app?vid=104fd9b4-c275-4322-b33d-b0f3e9d52c27","ios":"levelo://app?vid=104fd9b4-c275-4322-b33d-b0f3e9d52c27"},"vehicle_type_id":"4","last_reported":1771955389,"current_range_meters":400,"station_id":"st_d3b462108ojc7389ooeg","pricing_plan_id":"cebpf4jnsgd1na2vs0mg"},{"bike_id":"45b5afb8-73f3-40c1-b16d-a20f0cdabba4","system_id":"levelo_inurba_marseille","lat":43.2859,"lon":5.44115,"is_reserved":false,"is_disabled":true,"rental_uris":{"android":"levelo://app?vid=45b5afb8-73f3-40c1-b16d-a20f0cdabba4","ios":"levelo://app?vid=45b5afb8-73f3-40c1-b16d-a20f0cdabba4"},"vehicle_type_id":"4","last_reported":1771955389,"current_range_meters":800,"station_id":"","pricing_plan_id":"cebpf4jnsgd1na2vs0mg"},{"bike_id":"948cc398-6ac1-4b67-8c82-67cd0c070cf6","system_id":"levelo_inurba_marseille","lat":43.30979,"lon":5.38345,"is_reserved":false,"is_disabled":true,"rental_uris":{"android":"levelo://app?vid=948cc398-6ac1-4b67-8c82-67cd0c070cf6","ios":"levelo://app?vid=948cc398-6ac1-4b67-8c82-67cd0c070cf6"},"vehicle_type_id":"4","last_reported":1771955389,"current_range_meters":800,"station_id":"","pricing_plan_id":"cebpf4jnsgd1na2vs0mg"},{"bike_id":"7e80efc2-5ad9-4f6e-8abb-654996e1ceab","system_id":"levelo_inurba_marseille","lat":43.2979,"lon":5.38099,"is_reserved":false,"is_disabled":true,"rental_uris":{"android":"levelo://app?vid=7e80efc2-5ad9-4f6e-8abb-654996e1ceab","ios":"levelo://app?vid=7e80efc2-5ad9-4f6e-8abb-654996e1ceab"},"vehicle_type_id":"4","last_reported":1771955389,"current_range_meters":800,"station_id":"ce4bgip2rcd13ifvqbb0","pricing_plan_id":"cebpf4jnsgd1na2vs0mg"},{"bike_id":"e9d3192e-ca07-48a1-ac98-6370af798d40","system_id":"levelo_inurba_marseille","lat":43.299653,"lon":5.384973,"is_reserved":false,"is_disabled":true,"rental_uris":{"android":"levelo://app?vid=e9d3192e-ca07-48a1-ac98-6370af798d40","ios":"levelo://app?vid=e9d3192e-ca07-48a1-ac98-6370af798d40"},"vehicle_type_id":"4","last_reported":1771955389,"current_range_meters":800,"station_id":"ce4bgj92rcd13ifvqbd0","pricing_plan_id":"cebpf4jnsgd1na2vs0mg"},{"bike_id":"b19e6fea-62cf-4e28-b1e2-2cb46bcf7821","system_id":"levelo_inurba_marseille","lat":43.30567,"lon":5.37214,"is_reserved":false,"is_disabled":true,"rental_uris":{"android":"levelo://app?vid=b19e6fea-62cf-4e28-b1e2-2cb46bcf7821","ios":"levelo://app?vid=b19e6fea-62cf-4e28-b1e2-2cb46bcf7821"},"vehicle_type_id":"4","last_reported":1771955389,"current_range_meters":800,"station_id":"ce4bgqh2rcd13ifvqc4g","pricing_plan_id":"cebpf4jnsgd1na2vs0mg"},{"bike_id":"6d4ad814-20e5-4a32-b257-84c0e504ef82","system_id":"levelo_inurba_marseille","lat":43.30928,"lon":5.40141,"is_reserved":false,"is_disabled":true,"rental_uris":{"android":"levelo://app?vid=6d4ad814-20e5-4a32-b257-84c0e504ef82","ios":"levelo://app?vid=6d4ad814-20e5-4a32-b257-84c0e504ef82"},"vehicle_type_id":"4","last_reported":1771955389,"current_range_meters":800,"station_id":"ce4bgvp2rcd13ifvqct0","pricing_plan_id":"cebpf4jnsgd1na2vs0mg"},{"bike_id":"31553618-fff7-4d4a-bc3e-d6d3b3bc639d","system_id":"levelo_inurba_marseille","lat":43.30933,"lon":5.40141,"is_reserved":false,"is_disabled":true,"rental_uris":{"android":"levelo://app?vid=31553618-fff7-4d4a-bc3e-d6d3b3bc639d","ios":"levelo://app?vid=31553618-fff7-4d4a-bc3e-d6d3b3bc639d"},"vehicle_type_id":"4","last_reported":1771955389,"current_range_meters":800,"station_id":"ce4bgvp2rcd13ifvqct0","pricing_plan_id":"cebpf4jnsgd1na2vs0mg"},{"bike_id":"a6a60c24-7178-48cc-9bb4-4c1d49fc7f0c","system_id":"levelo_inurba_marseille","lat":43.31274,"lon":5.40181,"is_reserved":false,"is_disabled":true,"rental_uris":{"android":"levelo://app?vid=a6a60c24-7178-48cc-9bb4-4c1d49fc7f0c","ios":"levelo://app?vid=a6a60c24-7178-48cc-9bb4-4c1d49fc7f0c"},"vehicle_type_id":"4","last_reported":1771955389,"current_range_meters":800,"station_id":"ce4bh092rcd13ifvqd30","pricing_plan_id":"cebpf4jnsgd1na2vs0mg"},{"bike_id":"f6cd67c0-8ab9-455d-b05a-fd4013d478c5","system_id":"levelo_inurba_marseille","lat":43.2953,"lon":5.39055,"is_reserved":false,"is_disabled":true,"rental_uris":{"android":"levelo://app?vid=f6cd67c0-8ab9-455d-b05a-fd4013d478c5","ios":"levelo://app?vid=f6cd67c0-8ab9-455d-b05a-fd4013d478c5"},"vehicle_type_id":"4","last_reported":1771955389,"current_range_meters":800,"station_id":"ce4bh3p2rcd13ifvqdp0","pricing_plan_id":"cebpf4jnsgd1na2vs0mg"},{"bike_id":"b1de3f7d-15ad-48af-b1c5-bd5c401ac8ed","system_id":"levelo_inurba_marseille","lat":43.29258,"lon":5.3844,"is_reserved":false,"is_disabled":true,"rental_uris":{"android":"levelo://app?vid=b1de3f7d-15ad-48af-b1c5-bd5c401ac8ed","ios":"levelo://app?vid=b1de3f7d-15ad-48af-b1c5-bd5c401ac8ed"},"vehicle_type_id":"4","last_reported":1771955389,"current_range_meters":800,"station_id":"ce4bh692rcd13ifvqea0","pricing_plan_id":"cebpf4jnsgd1na2vs0mg"},{"bike_id":"f783a8a1-f819-417c-b53c-ac354c3fd28e","system_id":"levelo_inurba_marseille","lat":43.26545,"lon":5.37283,"is_reserved":false,"is_disabled":true,"rental_uris":{"android":"levelo://app?vid=f783a8a1-f819-417c-b53c-ac354c3fd28e","ios":"levelo://app?vid=f783a8a1-f819-417c-b53c-ac354c3fd28e"},"vehicle_type_id":"4","last_reported":1771955389,"current_range_meters":800,"station_id":"ce4bhg12rcd13ifvqf70","pricing_plan_id":"cebpf4jnsgd1na2vs0mg"},{"bike_id":"f87218d6-0c09-491a-841e-9d5cf717f8e8","system_id":"levelo_inurba_marseille","lat":43.26688,"lon":5.38262,"is_reserved":false,"is_disabled":true,"rental_uris":{"android":"levelo://app?vid=f87218d6-0c09-491a-841e-9d5cf717f8e8","ios":"levelo://app?vid=f87218d6-0c09-491a-841e-9d5cf717f8e8"},"vehicle_type_id":"4","last_reported":1771955389,"current_range_meters":800,"station_id":"ce4bhg92rcd13ifvqf90","pricing_plan_id":"cebpf4jnsgd1na2vs0mg"},{"bike_id":"491855c9-7c26-44ea-9525-95ef0e6640c3","system_id":"levelo_inurba_marseille","lat":43.260322,"lon":5.375508,"is_reserved":false,"is_disabled":true,"rental_uris":{"android":"levelo://app?vid=491855c9-7c26-44ea-9525-95ef0e6640c3","ios":"levelo://app?vid=491855c9-7c26-44ea-9525-95ef0e6640c3"},"vehicle_type_id":"4","last_reported":1771955389,"current_range_meters":800,"station_id":"ce4bhgh2rcd13ifvqfa0","pricing_plan_id":"cebpf4jnsgd1na2vs0mg"},{"bike_id":"72f1fea8-3143-4dde-aa39-ad2a2548a008","system_id":"levelo_inurba_marseille","lat":43.26947,"lon":5.38657,"is_reserved":false,"is_disabled":true,"rental_uris":{"android":"levelo://app?vid=72f1fea8-3143-4dde-aa39-ad2a2548a008","ios":"levelo://app?vid=72f1fea8-3143-4dde-aa39-ad2a2548a008"},"vehicle_type_id":"4","last_reported":1771955389,"current_range_meters":800,"station_id":"ce4bhh92rcd13ifvqfh0","pricing_plan_id":"cebpf4jnsgd1na2vs0mg"},{"bike_id":"92a5c796-051b-4c96-a776-df9b86e38949","system_id":"levelo_inurba_marseille","lat":43.258236,"lon":5.394396,"is_reserved":false,"is_disabled":true,"rental_uris":{"android":"levelo://app?vid=92a5c796-051b-4c96-a776-df9b86e38949","ios":"levelo://app?vid=92a5c796-051b-4c96-a776-df9b86e38949"},"vehicle_type_id":"4","last_reported":1771955389,"current_range_meters":800,"station_id":"ce4bhip2rcd13ifvqft0","pricing_plan_id":"cebpf4jnsgd1na2vs0mg"},{"bike_id":"6cf10237-33c4-46ef-930c-1f97088c263b","system_id":"levelo_inurba_marseille","lat":43.2594,"lon":5.40917,"is_reserved":false,"is_disabled":true,"rental_uris":{"android":"levelo://app?vid=6cf10237-33c4-46ef-930c-1f97088c263b","ios":"levelo://app?vid=6cf10237-33c4-46ef-930c-1f97088c263b"},"vehicle_type_id":"4","last_reported":1771955389,"current_range_meters":800,"station_id":"ce4bhm92rcd13ifvqglg","pricing_plan_id":"cebpf4jnsgd1na2vs0mg"},{"bike_id":"22416226-1229-4b18-85ca-3b80901e131d","system_id":"levelo_inurba_marseille","lat":43.231496,"lon":5.437126,"is_reserved":false,"is_disabled":true,"rental_uris":{"android":"levelo://app?vid=22416226-1229-4b18-85ca-3b80901e131d","ios":"levelo://app?vid=22416226-1229-4b18-85ca-3b80901e131d"},"vehicle_type_id":"4","last_reported":1771955389,"current_range_meters":800,"station_id":"ce4bhmp2rcd13ifvqgog","pricing_plan_id":"cebpf4jnsgd1na2vs0mg"},{"bike_id":"1f372325-c030-436e-8570-afdbe6e799d8","system_id":"levelo_inurba_marseille","lat":43.317567,"lon":5.39025,"is_reserved":false,"is_disabled":true,"rental_uris":{"android":"levelo://app?vid=1f372325-c030-436e-8570-afdbe6e799d8","ios":"levelo://app?vid=1f372325-c030-436e-8570-afdbe6e799d8"},"vehicle_type_id":"4","last_reported":1771955389,"current_range_meters":800,"station_id":"ce4bhqp2rcd13ifvqhng","pricing_plan_id":"cebpf4jnsgd1na2vs0mg"},{"bike_id":"0ee6a9fd-96ae-411e-9b0a-3d04c4a3e7ab","system_id":"levelo_inurba_marseille","lat":43.32063,"lon":5.36788,"is_reserved":false,"is_disabled":true,"rental_uris":{"android":"levelo://app?vid=0ee6a9fd-96ae-411e-9b0a-3d04c4a3e7ab","ios":"levelo://app?vid=0ee6a9fd-96ae-411e-9b0a-3d04c4a3e7ab"},"vehicle_type_id":"4","last_reported":1771955389,"current_range_meters":800,"station_id":"ce4bhrh2rcd13ifvqhug","pricing_plan_id":"cebpf4jnsgd1na2vs0mg"},{"bike_id":"abe3ca1e-49bc-4358-b177-2c01b9dc979c","system_id":"levelo_inurba_marseille","lat":43.23199,"lon":5.355393,"is_reserved":false,"is_disabled":true,"rental_uris":{"android":"levelo://app?vid=abe3ca1e-49bc-4358-b177-2c01b9dc979c","ios":"levelo://app?vid=abe3ca1e-49bc-4358-b177-2c01b9dc979c"},"vehicle_type_id":"4","last_reported":1771955389,"current_range_meters":800,"station_id":"ce4bhu92rcd13ifvqi70","pricing_plan_id":"cebpf4jnsgd1na2vs0mg"},{"bike_id":"37eddf04-5c0b-4edd-afe1-6daa2d2ad174","system_id":"levelo_inurba_marseille","lat":43.24168,"lon":5.36393,"is_reserved":false,"is_disabled":true,"rental_uris":{"android":"levelo://app?vid=37eddf04-5c0b-4edd-afe1-6daa2d2ad174","ios":"levelo://app?vid=37eddf04-5c0b-4edd-afe1-6daa2d2ad174"},"vehicle_type_id":"4","last_reported":1771955389,"current_range_meters":800,"station_id":"cpo36qri1sfpv3e86is0","pricing_plan_id":"cebpf4jnsgd1na2vs0mg"},{"bike_id":"437587fe-96f8-49d3-b285-b798ff85ab68","system_id":"levelo_inurba_marseille","lat":43.22555,"lon":5.41638,"is_reserved":false,"is_disabled":true,"rental_uris":{"android":"levelo://app?vid=437587fe-96f8-49d3-b285-b798ff85ab68","ios":"levelo://app?vid=437587fe-96f8-49d3-b285-b798ff85ab68"},"vehicle_type_id":"4","last_reported":1771955389,"current_range_meters":800,"station_id":"st_d2o4gvlbi1j2169b742g","pricing_plan_id":"cebpf4jnsgd1na2vs0mg"},{"bike_id":"2f8f8c19-8aae-4d65-b426-62d8e4c8fb37","system_id":"levelo_inurba_marseille","lat":43.290981,"lon":5.389126,"is_reserved":false,"is_disabled":true,"rental_uris":{"android":"levelo://app?vid=2f8f8c19-8aae-4d65-b426-62d8e4c8fb37","ios":"levelo://app?vid=2f8f8c19-8aae-4d65-b426-62d8e4c8fb37"},"vehicle_type_id":"4","last_reported":1771955389,"current_range_meters":1200,"station_id":"","pricing_plan_id":"cebpf4jnsgd1na2vs0mg"},{"bike_id":"d80a883a-187f-4d92-a9bd-d16344c6d29d","system_id":"levelo_inurba_marseille","lat":43.29598,"lon":5.3772,"is_reserved":false,"is_disabled":true,"rental_uris":{"android":"levelo://app?vid=d80a883a-187f-4d92-a9bd-d16344c6d29d","ios":"levelo://app?vid=d80a883a-187f-4d92-a9bd-d16344c6d29d"},"vehicle_type_id":"4","last_reported":1771955389,"current_range_meters":1200,"station_id":"ce4bgi92rcd13ifvqb90","pricing_plan_id":"cebpf4jnsgd1na2vs0mg"},{"bike_id":"5d80a555-82a7-4cfd-8029-c0cfa04b7a26","system_id":"levelo_inurba_marseille","lat":43.30885,"lon":5.37194,"is_reserved":false,"is_disabled":true,"rental_uris":{"android":"levelo://app?vid=5d80a555-82a7-4cfd-8029-c0cfa04b7a26","ios":"levelo://app?vid=5d80a555-82a7-4cfd-8029-c0cfa04b7a26"},"vehicle_type_id":"4","last_reported":1771955389,"current_range_meters":1200,"station_id":"ce4bguh2rcd13ifvqckg","pricing_plan_id":"cebpf4jnsgd1na2vs0mg"},{"bike_id":"38938bc1-1c19-4f7e-acb8-9e529819d401","system_id":"levelo_inurba_marseille","lat":43.30926,"lon":5.40131,"is_reserved":false,"is_disabled":true,"rental_uris":{"android":"levelo://app?vid=38938bc1-1c19-4f7e-acb8-9e529819d401","ios":"levelo://app?vid=38938bc1-1c19-4f7e-acb8-9e529819d401"},"vehicle_type_id":"4","last_reported":1771955389,"current_range_meters":1200,"station_id":"ce4bgvp2rcd13ifvqct0","pricing_plan_id":"cebpf4jnsgd1na2vs0mg"},{"bike_id":"aba841b9-1a1a-405d-b5e8-497497934b3d","system_id":"levelo_inurba_marseille","lat":43.28485,"lon":5.38441,"is_reserved":false,"is_disabled":true,"rental_uris":{"android":"levelo://app?vid=aba841b9-1a1a-405d-b5e8-497497934b3d","ios":"levelo://app?vid=aba841b9-1a1a-405d-b5e8-497497934b3d"},"vehicle_type_id":"4","last_reported":1771955389,"current_range_meters":1200,"station_id":"ce4bh512rcd13ifvqe3g","pricing_plan_id":"cebpf4jnsgd1na2vs0mg"},{"bike_id":"f851d208-7c04-4ea9-85c9-08efc9a78eca","system_id":"levelo_inurba_marseille","lat":43.2904,"lon":5.35914,"is_reserved":false,"is_disabled":true,"rental_uris":{"android":"levelo://app?vid=f851d208-7c04-4ea9-85c9-08efc9a78eca","ios":"levelo://app?vid=f851d208-7c04-4ea9-85c9-08efc9a78eca"},"vehicle_type_id":"4","last_reported":1771955389,"current_range_meters":1200,"station_id":"ce4bha92rcd13ifvqeg0","pricing_plan_id":"cebpf4jnsgd1na2vs0mg"},{"bike_id":"393b7476-1f1f-46f1-a271-cf8e00cdac21","system_id":"levelo_inurba_marseille","lat":43.26785,"lon":5.39408,"is_reserved":false,"is_disabled":true,"rental_uris":{"android":"levelo://app?vid=393b7476-1f1f-46f1-a271-cf8e00cdac21","ios":"levelo://app?vid=393b7476-1f1f-46f1-a271-cf8e00cdac21"},"vehicle_type_id":"4","last_reported":1771955389,"current_range_meters":1200,"station_id":"ce4bhh12rcd13ifvqfg0","pricing_plan_id":"cebpf4jnsgd1na2vs0mg"},{"bike_id":"1ab7d162-309c-40c2-bf58-2e9c2faa2a12","system_id":"levelo_inurba_marseille","lat":43.26952,"lon":5.38629,"is_reserved":false,"is_disabled":true,"rental_uris":{"android":"levelo://app?vid=1ab7d162-309c-40c2-bf58-2e9c2faa2a12","ios":"levelo://app?vid=1ab7d162-309c-40c2-bf58-2e9c2faa2a12"},"vehicle_type_id":"4","last_reported":1771955389,"current_range_meters":1200,"station_id":"ce4bhh92rcd13ifvqfh0","pricing_plan_id":"cebpf4jnsgd1na2vs0mg"},{"bike_id":"29960b32-3c4f-4799-b6c8-fc177cbf4767","system_id":"levelo_inurba_marseille","lat":43.31081,"lon":5.42419,"is_reserved":false,"is_disabled":true,"rental_uris":{"android":"levelo://app?vid=29960b32-3c4f-4799-b6c8-fc177cbf4767","ios":"levelo://app?vid=29960b32-3c4f-4799-b6c8-fc177cbf4767"},"vehicle_type_id":"4","last_reported":1771955389,"current_range_meters":1200,"station_id":"ce4bhp92rcd13ifvqhag","pricing_plan_id":"cebpf4jnsgd1na2vs0mg"},{"bike_id":"fbb9a57f-3180-4bb4-96bb-0eed68d535e6","system_id":"levelo_inurba_marseille","lat":43.24466,"lon":5.42539,"is_reserved":false,"is_disabled":true,"rental_uris":{"android":"levelo://app?vid=fbb9a57f-3180-4bb4-96bb-0eed68d535e6","ios":"levelo://app?vid=fbb9a57f-3180-4bb4-96bb-0eed68d535e6"},"vehicle_type_id":"4","last_reported":1771955389,"current_range_meters":1200,"station_id":"st_d4a3vfp97mjs738cd8kg","pricing_plan_id":"cebpf4jnsgd1na2vs0mg"},{"bike_id":"b740e8b9-2602-4247-a945-96dd11f59a62","system_id":"levelo_inurba_marseille","lat":43.29832,"lon":5.44072,"is_reserved":false,"is_disabled":true,"rental_uris":{"android":"levelo://app?vid=b740e8b9-2602-4247-a945-96dd11f59a62","ios":"levelo://app?vid=b740e8b9-2602-4247-a945-96dd11f59a62"},"vehicle_type_id":"4","last_reported":1771955389,"current_range_meters":1600,"station_id":"","pricing_plan_id":"cebpf4jnsgd1na2vs0mg"},{"bike_id":"b62ebb08-a860-4715-98a4-6119faddcc77","system_id":"levelo_inurba_marseille","lat":43.30951,"lon":5.39024,"is_reserved":false,"is_disabled":true,"rental_uris":{"android":"levelo://app?vid=b62ebb08-a860-4715-98a4-6119faddcc77","ios":"levelo://app?vid=b62ebb08-a860-4715-98a4-6119faddcc77"},"vehicle_type_id":"4","last_reported":1771955389,"current_range_meters":1600,"station_id":"ce4bgup2rcd13ifvqco0","pricing_plan_id":"cebpf4jnsgd1na2vs0mg"},{"bike_id":"9e2f1f27-2a9b-424c-bc9a-c37d31b27e2f","system_id":"levelo_inurba_marseille","lat":43.3118,"lon":5.38716,"is_reserved":false,"is_disabled":true,"rental_uris":{"android":"levelo://app?vid=9e2f1f27-2a9b-424c-bc9a-c37d31b27e2f","ios":"levelo://app?vid=9e2f1f27-2a9b-424c-bc9a-c37d31b27e2f"},"vehicle_type_id":"4","last_reported":1771955389,"current_range_meters":1600,"station_id":"ce4bgv12rcd13ifvqcp0","pricing_plan_id":"cebpf4jnsgd1na2vs0mg"},{"bike_id":"9adf25a7-a7a9-4613-8797-d64833603329","system_id":"levelo_inurba_marseille","lat":43.29275,"lon":5.40113,"is_reserved":false,"is_disabled":true,"rental_uris":{"android":"levelo://app?vid=9adf25a7-a7a9-4613-8797-d64833603329","ios":"levelo://app?vid=9adf25a7-a7a9-4613-8797-d64833603329"},"vehicle_type_id":"4","last_reported":1771955389,"current_range_meters":1600,"station_id":"ce4bh312rcd13ifvqdk0","pricing_plan_id":"cebpf4jnsgd1na2vs0mg"},{"bike_id":"799c879d-22d6-4dc4-b384-893b45faaa3f","system_id":"levelo_inurba_marseille","lat":43.28839,"lon":5.35894,"is_reserved":false,"is_disabled":true,"rental_uris":{"android":"levelo://app?vid=799c879d-22d6-4dc4-b384-893b45faaa3f","ios":"levelo://app?vid=799c879d-22d6-4dc4-b384-893b45faaa3f"},"vehicle_type_id":"4","last_reported":1771955389,"current_range_meters":1600,"station_id":"ce4bhb12rcd13ifvqem0","pricing_plan_id":"cebpf4jnsgd1na2vs0mg"},{"bike_id":"ffd97589-0567-4f93-a1df-14fe2d08a3e6","system_id":"levelo_inurba_marseille","lat":43.27228,"lon":5.39224,"is_reserved":false,"is_disabled":true,"rental_uris":{"android":"levelo://app?vid=ffd97589-0567-4f93-a1df-14fe2d08a3e6","ios":"levelo://app?vid=ffd97589-0567-4f93-a1df-14fe2d08a3e6"},"vehicle_type_id":"4","last_reported":1771955389,"current_range_meters":1600,"station_id":"ce4bhhp2rcd13ifvqfm0","pricing_plan_id":"cebpf4jnsgd1na2vs0mg"},{"bike_id":"0ac94820-995b-41c0-905b-f381929c0ec4","system_id":"levelo_inurba_marseille","lat":43.24693,"lon":5.38132,"is_reserved":false,"is_disabled":true,"rental_uris":{"android":"levelo://app?vid=0ac94820-995b-41c0-905b-f381929c0ec4","ios":"levelo://app?vid=0ac94820-995b-41c0-905b-f381929c0ec4"},"vehicle_type_id":"4","last_reported":1771955389,"current_range_meters":1600,"station_id":"ce4bhih2rcd13ifvqfr0","pricing_plan_id":"cebpf4jnsgd1na2vs0mg"},{"bike_id":"91f7ba12-370c-4185-9643-b3d9efb17ca9","system_id":"levelo_inurba_marseille","lat":43.25134,"lon":5.40343,"is_reserved":false,"is_disabled":true,"rental_uris":{"android":"levelo://app?vid=91f7ba12-370c-4185-9643-b3d9efb17ca9","ios":"levelo://app?vid=91f7ba12-370c-4185-9643-b3d9efb17ca9"},"vehicle_type_id":"4","last_reported":1771955389,"current_range_meters":1600,"station_id":"ce4bhlh2rcd13ifvqgig","pricing_plan_id":"cebpf4jnsgd1na2vs0mg"},{"bike_id":"1f5c5225-6411-4003-90b1-f65e439d3711","system_id":"levelo_inurba_marseille","lat":43.23159,"lon":5.43708,"is_reserved":false,"is_disabled":true,"rental_uris":{"android":"levelo://app?vid=1f5c5225-6411-4003-90b1-f65e439d3711","ios":"levelo://app?vid=1f5c5225-6411-4003-90b1-f65e439d3711"},"vehicle_type_id":"4","last_reported":1771955389,"current_range_meters":1600,"station_id":"ce4bhmp2rcd13ifvqgog","pricing_plan_id":"cebpf4jnsgd1na2vs0mg"},{"bike_id":"5ea36cc2-252a-40ee-a7be-4b0296ba4120","system_id":"levelo_inurba_marseille","lat":43.24162,"lon":5.36401,"is_reserved":false,"is_disabled":true,"rental_uris":{"android":"levelo://app?vid=5ea36cc2-252a-40ee-a7be-4b0296ba4120","ios":"levelo://app?vid=5ea36cc2-252a-40ee-a7be-4b0296ba4120"},"vehicle_type_id":"4","last_reported":1771955389,"current_range_meters":1600,"station_id":"cpo36qri1sfpv3e86is0","pricing_plan_id":"cebpf4jnsgd1na2vs0mg"},{"bike_id":"33987735-85d4-431d-9838-9d97f6e665c0","system_id":"levelo_inurba_marseille","lat":43.335443,"lon":5.374627,"is_reserved":false,"is_disabled":true,"rental_uris":{"android":"levelo://app?vid=33987735-85d4-431d-9838-9d97f6e665c0","ios":"levelo://app?vid=33987735-85d4-431d-9838-9d97f6e665c0"},"vehicle_type_id":"4","last_reported":1771955389,"current_range_meters":1600,"station_id":"st_d46tts09ee8s73dlu43g","pricing_plan_id":"cebpf4jnsgd1na2vs0mg"},{"bike_id":"52361e3c-be18-45b1-8cbf-136769dff0d1","system_id":"levelo_inurba_marseille","lat":43.29598,"lon":5.38552,"is_reserved":false,"is_disabled":true,"rental_uris":{"android":"levelo://app?vid=52361e3c-be18-45b1-8cbf-136769dff0d1","ios":"levelo://app?vid=52361e3c-be18-45b1-8cbf-136769dff0d1"},"vehicle_type_id":"4","last_reported":1771955389,"current_range_meters":2000,"station_id":"","pricing_plan_id":"cebpf4jnsgd1na2vs0mg"},{"bike_id":"938bce24-c2c9-473d-bf6c-7731bb2ac774","system_id":"levelo_inurba_marseille","lat":43.28702,"lon":5.38651,"is_reserved":false,"is_disabled":true,"rental_uris":{"android":"levelo://app?vid=938bce24-c2c9-473d-bf6c-7731bb2ac774","ios":"levelo://app?vid=938bce24-c2c9-473d-bf6c-7731bb2ac774"},"vehicle_type_id":"4","last_reported":1771955389,"current_range_meters":2000,"station_id":"","pricing_plan_id":"cebpf4jnsgd1na2vs0mg"},{"bike_id":"666141ff-26cc-4b08-b439-1115806280a5","system_id":"levelo_inurba_marseille","lat":43.31175,"lon":5.38719,"is_reserved":false,"is_disabled":true,"rental_uris":{"android":"levelo://app?vid=666141ff-26cc-4b08-b439-1115806280a5","ios":"levelo://app?vid=666141ff-26cc-4b08-b439-1115806280a5"},"vehicle_type_id":"4","last_reported":1771955389,"current_range_meters":2000,"station_id":"ce4bgv12rcd13ifvqcp0","pricing_plan_id":"cebpf4jnsgd1na2vs0mg"},{"bike_id":"8791cecd-0ce4-4e77-a02b-529b1b9d82fd","system_id":"levelo_inurba_marseille","lat":43.30128,"lon":5.39863,"is_reserved":false,"is_disabled":true,"rental_uris":{"android":"levelo://app?vid=8791cecd-0ce4-4e77-a02b-529b1b9d82fd","ios":"levelo://app?vid=8791cecd-0ce4-4e77-a02b-529b1b9d82fd"},"vehicle_type_id":"4","last_reported":1771955389,"current_range_meters":2000,"station_id":"ce4bh0h2rcd13ifvqd40","pricing_plan_id":"cebpf4jnsgd1na2vs0mg"},{"bike_id":"40236f46-d499-4cab-ac11-2dfc9e66581e","system_id":"levelo_inurba_marseille","lat":43.29516,"lon":5.3905,"is_reserved":false,"is_disabled":true,"rental_uris":{"android":"levelo://app?vid=40236f46-d499-4cab-ac11-2dfc9e66581e","ios":"levelo://app?vid=40236f46-d499-4cab-ac11-2dfc9e66581e"},"vehicle_type_id":"4","last_reported":1771955389,"current_range_meters":2000,"station_id":"ce4bh3p2rcd13ifvqdp0","pricing_plan_id":"cebpf4jnsgd1na2vs0mg"},{"bike_id":"addcde24-9bd5-455d-b387-ac1f94aeb231","system_id":"levelo_inurba_marseille","lat":43.28419,"lon":5.37522,"is_reserved":false,"is_disabled":true,"rental_uris":{"android":"levelo://app?vid=addcde24-9bd5-455d-b387-ac1f94aeb231","ios":"levelo://app?vid=addcde24-9bd5-455d-b387-ac1f94aeb231"},"vehicle_type_id":"4","last_reported":1771955389,"current_range_meters":2000,"station_id":"ce4bh412rcd13ifvqds0","pricing_plan_id":"cebpf4jnsgd1na2vs0mg"},{"bike_id":"b1b5e218-b3ec-4131-8620-2c3907cbd33b","system_id":"levelo_inurba_marseille","lat":43.28976,"lon":5.37815,"is_reserved":false,"is_disabled":true,"rental_uris":{"android":"levelo://app?vid=b1b5e218-b3ec-4131-8620-2c3907cbd33b","ios":"levelo://app?vid=b1b5e218-b3ec-4131-8620-2c3907cbd33b"},"vehicle_type_id":"4","last_reported":1771955389,"current_range_meters":2000,"station_id":"ce4bh9p2rcd13ifvqed0","pricing_plan_id":"cebpf4jnsgd1na2vs0mg"},{"bike_id":"cf88fe93-b35d-4987-9b51-44a1dfa45801","system_id":"levelo_inurba_marseille","lat":43.28934,"lon":5.36638,"is_reserved":false,"is_disabled":true,"rental_uris":{"android":"levelo://app?vid=cf88fe93-b35d-4987-9b51-44a1dfa45801","ios":"levelo://app?vid=cf88fe93-b35d-4987-9b51-44a1dfa45801"},"vehicle_type_id":"4","last_reported":1771955389,"current_range_meters":2000,"station_id":"ce4bhap2rcd13ifvqek0","pricing_plan_id":"cebpf4jnsgd1na2vs0mg"},{"bike_id":"d9573552-52ec-41ed-994c-db1c6c2680c8","system_id":"levelo_inurba_marseille","lat":43.27379,"lon":5.36255,"is_reserved":false,"is_disabled":true,"rental_uris":{"android":"levelo://app?vid=d9573552-52ec-41ed-994c-db1c6c2680c8","ios":"levelo://app?vid=d9573552-52ec-41ed-994c-db1c6c2680c8"},"vehicle_type_id":"4","last_reported":1771955389,"current_range_meters":2000,"station_id":"ce4bhbh2rcd13ifvqeo0","pricing_plan_id":"cebpf4jnsgd1na2vs0mg"},{"bike_id":"fb0ca3fb-4ae8-4828-9440-c62cff6cca04","system_id":"levelo_inurba_marseille","lat":43.231505,"lon":5.437195,"is_reserved":false,"is_disabled":true,"rental_uris":{"android":"levelo://app?vid=fb0ca3fb-4ae8-4828-9440-c62cff6cca04","ios":"levelo://app?vid=fb0ca3fb-4ae8-4828-9440-c62cff6cca04"},"vehicle_type_id":"4","last_reported":1771955389,"current_range_meters":2000,"station_id":"ce4bhmp2rcd13ifvqgog","pricing_plan_id":"cebpf4jnsgd1na2vs0mg"},{"bike_id":"689ef3c4-1109-490e-ab7d-228a356e7484","system_id":"levelo_inurba_marseille","lat":43.31535,"lon":5.38037,"is_reserved":false,"is_disabled":true,"rental_uris":{"android":"levelo://app?vid=689ef3c4-1109-490e-ab7d-228a356e7484","ios":"levelo://app?vid=689ef3c4-1109-490e-ab7d-228a356e7484"},"vehicle_type_id":"4","last_reported":1771955389,"current_range_meters":2000,"station_id":"ce4bhsp2rcd13ifvqi50","pricing_plan_id":"cebpf4jnsgd1na2vs0mg"},{"bike_id":"60fa4eb8-5143-4002-8c3e-0a18feb3507b","system_id":"levelo_inurba_marseille","lat":43.29977,"lon":5.38491,"is_reserved":false,"is_disabled":false,"rental_uris":{"android":"levelo://app?vid=60fa4eb8-5143-4002-8c3e-0a18feb3507b","ios":"levelo://app?vid=60fa4eb8-5143-4002-8c3e-0a18feb3507b"},"vehicle_type_id":"4","last_reported":1771955389,"current_range_meters":2800,"station_id":"ce4bgj92rcd13ifvqbd0","pricing_plan_id":"cebpf4jnsgd1na2vs0mg"},{"bike_id":"5be605e8-4531-4731-bd3d-9c58a9f49988","system_id":"levelo_inurba_marseille","lat":43.30477,"lon":5.3787,"is_reserved":false,"is_disabled":false,"rental_uris":{"android":"levelo://app?vid=5be605e8-4531-4731-bd3d-9c58a9f49988","ios":"levelo://app?vid=5be605e8-4531-4731-bd3d-9c58a9f49988"},"vehicle_type_id":"4","last_reported":1771955389,"current_range_meters":2800,"station_id":"ce4bgup2rcd13ifvqcn0","pricing_plan_id":"cebpf4jnsgd1na2vs0mg"},{"bike_id":"07b19a31-0c8d-42a6-9568-aed052fbdb3d","system_id":"levelo_inurba_marseille","lat":43.28491,"lon":5.38471,"is_reserved":false,"is_disabled":false,"rental_uris":{"android":"levelo://app?vid=07b19a31-0c8d-42a6-9568-aed052fbdb3d","ios":"levelo://app?vid=07b19a31-0c8d-42a6-9568-aed052fbdb3d"},"vehicle_type_id":"4","last_reported":1771955389,"current_range_meters":2800,"station_id":"ce4bh512rcd13ifvqe3g","pricing_plan_id":"cebpf4jnsgd1na2vs0mg"},{"bike_id":"cfee112b-1074-42f9-ac49-44077996ff1a","system_id":"levelo_inurba_marseille","lat":43.28468,"lon":5.3589,"is_reserved":false,"is_disabled":false,"rental_uris":{"android":"levelo://app?vid=cfee112b-1074-42f9-ac49-44077996ff1a","ios":"levelo://app?vid=cfee112b-1074-42f9-ac49-44077996ff1a"},"vehicle_type_id":"4","last_reported":1771955389,"current_range_meters":2800,"station_id":"ce4bhah2rcd13ifvqei0","pricing_plan_id":"cebpf4jnsgd1na2vs0mg"},{"bike_id":"e54419d7-661d-4efc-bb03-6509699b5ae9","system_id":"levelo_inurba_marseille","lat":43.28681,"lon":5.36344,"is_reserved":false,"is_disabled":false,"rental_uris":{"android":"levelo://app?vid=e54419d7-661d-4efc-bb03-6509699b5ae9","ios":"levelo://app?vid=e54419d7-661d-4efc-bb03-6509699b5ae9"},"vehicle_type_id":"4","last_reported":1771955389,"current_range_meters":2800,"station_id":"ce4bhah2rcd13ifvqej0","pricing_plan_id":"cebpf4jnsgd1na2vs0mg"},{"bike_id":"fab719e2-e21c-40f4-872b-d9657ddabc1a","system_id":"levelo_inurba_marseille","lat":43.27373,"lon":5.36237,"is_reserved":false,"is_disabled":false,"rental_uris":{"android":"levelo://app?vid=fab719e2-e21c-40f4-872b-d9657ddabc1a","ios":"levelo://app?vid=fab719e2-e21c-40f4-872b-d9657ddabc1a"},"vehicle_type_id":"4","last_reported":1771955389,"current_range_meters":2800,"station_id":"ce4bhbh2rcd13ifvqeo0","pricing_plan_id":"cebpf4jnsgd1na2vs0mg"},{"bike_id":"9f219955-23f6-427a-81e0-8c357d56b26a","system_id":"levelo_inurba_marseille","lat":43.2586,"lon":5.39911,"is_reserved":false,"is_disabled":false,"rental_uris":{"android":"levelo://app?vid=9f219955-23f6-427a-81e0-8c357d56b26a","ios":"levelo://app?vid=9f219955-23f6-427a-81e0-8c357d56b26a"},"vehicle_type_id":"4","last_reported":1771955389,"current_range_meters":2800,"station_id":"ce4bhl92rcd13ifvqghg","pricing_plan_id":"cebpf4jnsgd1na2vs0mg"},{"bike_id":"1c1eecf7-4396-4d88-bf76-06efda2e6911","system_id":"levelo_inurba_marseille","lat":43.29496,"lon":5.43299,"is_reserved":false,"is_disabled":false,"rental_uris":{"android":"levelo://app?vid=1c1eecf7-4396-4d88-bf76-06efda2e6911","ios":"levelo://app?vid=1c1eecf7-4396-4d88-bf76-06efda2e6911"},"vehicle_type_id":"4","last_reported":1771955389,"current_range_meters":2800,"station_id":"st_d3j5ugp08ojc73fj9d10","pricing_plan_id":"cebpf4jnsgd1na2vs0mg"},{"bike_id":"c405bdfb-f703-4861-bfe6-fcf0d6edb8a7","system_id":"levelo_inurba_marseille","lat":43.297562,"lon":5.42782,"is_reserved":false,"is_disabled":false,"rental_uris":{"android":"levelo://app?vid=c405bdfb-f703-4861-bfe6-fcf0d6edb8a7","ios":"levelo://app?vid=c405bdfb-f703-4861-bfe6-fcf0d6edb8a7"},"vehicle_type_id":"4","last_reported":1771955389,"current_range_meters":2800,"station_id":"st_d3md5207bmas73dh9klg","pricing_plan_id":"cebpf4jnsgd1na2vs0mg"},{"bike_id":"8b1f5b2b-2b21-4827-867f-4dfe82bf1af9","system_id":"levelo_inurba_marseille","lat":43.295325,"lon":5.38546,"is_reserved":false,"is_disabled":false,"rental_uris":{"android":"levelo://app?vid=8b1f5b2b-2b21-4827-867f-4dfe82bf1af9","ios":"levelo://app?vid=8b1f5b2b-2b21-4827-867f-4dfe82bf1af9"},"vehicle_type_id":"4","last_reported":1771955389,"current_range_meters":3200,"station_id":"ce4bgih2rcd13ifvqba0","pricing_plan_id":"cebpf4jnsgd1na2vs0mg"},{"bike_id":"1614a783-67f6-4138-8481-a561b4cf8f1b","system_id":"levelo_inurba_marseille","lat":43.29918,"lon":5.37471,"is_reserved":false,"is_disabled":false,"rental_uris":{"android":"levelo://app?vid=1614a783-67f6-4138-8481-a561b4cf8f1b","ios":"levelo://app?vid=1614a783-67f6-4138-8481-a561b4cf8f1b"},"vehicle_type_id":"4","last_reported":1771955389,"current_range_meters":3200,"station_id":"ce4bgjh2rcd13ifvqbg0","pricing_plan_id":"cebpf4jnsgd1na2vs0mg"},{"bike_id":"117c6e52-ca23-40c0-8917-28e2bac0b6c1","system_id":"levelo_inurba_marseille","lat":43.28355,"lon":5.38105,"is_reserved":false,"is_disabled":false,"rental_uris":{"android":"levelo://app?vid=117c6e52-ca23-40c0-8917-28e2bac0b6c1","ios":"levelo://app?vid=117c6e52-ca23-40c0-8917-28e2bac0b6c1"},"vehicle_type_id":"4","last_reported":1771955389,"current_range_meters":3200,"station_id":"ce4bh412rcd13ifvqdr0","pricing_plan_id":"cebpf4jnsgd1na2vs0mg"},{"bike_id":"2b8d0637-c7c8-4541-bb9c-3a80094ae5db","system_id":"levelo_inurba_marseille","lat":43.28491,"lon":5.38437,"is_reserved":false,"is_disabled":false,"rental_uris":{"android":"levelo://app?vid=2b8d0637-c7c8-4541-bb9c-3a80094ae5db","ios":"levelo://app?vid=2b8d0637-c7c8-4541-bb9c-3a80094ae5db"},"vehicle_type_id":"4","last_reported":1771955389,"current_range_meters":3200,"station_id":"ce4bh512rcd13ifvqe3g","pricing_plan_id":"cebpf4jnsgd1na2vs0mg"},{"bike_id":"bc26b7f0-7e2a-4630-af11-2df082f79541","system_id":"levelo_inurba_marseille","lat":43.26766,"lon":5.39432,"is_reserved":false,"is_disabled":false,"rental_uris":{"android":"levelo://app?vid=bc26b7f0-7e2a-4630-af11-2df082f79541","ios":"levelo://app?vid=bc26b7f0-7e2a-4630-af11-2df082f79541"},"vehicle_type_id":"4","last_reported":1771955389,"current_range_meters":3200,"station_id":"ce4bhh12rcd13ifvqfg0","pricing_plan_id":"cebpf4jnsgd1na2vs0mg"},{"bike_id":"df067530-ab73-4fb6-a286-f90a900e7f8d","system_id":"levelo_inurba_marseille","lat":43.26577,"lon":5.40346,"is_reserved":false,"is_disabled":false,"rental_uris":{"android":"levelo://app?vid=df067530-ab73-4fb6-a286-f90a900e7f8d","ios":"levelo://app?vid=df067530-ab73-4fb6-a286-f90a900e7f8d"},"vehicle_type_id":"4","last_reported":1771955389,"current_range_meters":3200,"station_id":"ce4bhmp2rcd13ifvqgng","pricing_plan_id":"cebpf4jnsgd1na2vs0mg"},{"bike_id":"77cda76a-11a2-4fdd-be86-cc54b05e31f3","system_id":"levelo_inurba_marseille","lat":43.2418,"lon":5.39734,"is_reserved":false,"is_disabled":false,"rental_uris":{"android":"levelo://app?vid=77cda76a-11a2-4fdd-be86-cc54b05e31f3","ios":"levelo://app?vid=77cda76a-11a2-4fdd-be86-cc54b05e31f3"},"vehicle_type_id":"4","last_reported":1771955389,"current_range_meters":3200,"station_id":"ce4bhn12rcd13ifvqgpg","pricing_plan_id":"cebpf4jnsgd1na2vs0mg"},{"bike_id":"ff1bb6b5-a9c1-478b-89aa-7c4af25c8fa6","system_id":"levelo_inurba_marseille","lat":43.231988,"lon":5.355428,"is_reserved":false,"is_disabled":false,"rental_uris":{"android":"levelo://app?vid=ff1bb6b5-a9c1-478b-89aa-7c4af25c8fa6","ios":"levelo://app?vid=ff1bb6b5-a9c1-478b-89aa-7c4af25c8fa6"},"vehicle_type_id":"4","last_reported":1771955389,"current_range_meters":3200,"station_id":"ce4bhu92rcd13ifvqi70","pricing_plan_id":"cebpf4jnsgd1na2vs0mg"},{"bike_id":"651c57bb-f8b2-4344-b00c-3b194ab1f86a","system_id":"levelo_inurba_marseille","lat":43.22928,"lon":5.35373,"is_reserved":false,"is_disabled":false,"rental_uris":{"android":"levelo://app?vid=651c57bb-f8b2-4344-b00c-3b194ab1f86a","ios":"levelo://app?vid=651c57bb-f8b2-4344-b00c-3b194ab1f86a"},"vehicle_type_id":"4","last_reported":1771955389,"current_range_meters":3200,"station_id":"cpo3532slgdg3j2ikp40","pricing_plan_id":"cebpf4jnsgd1na2vs0mg"},{"bike_id":"c0548073-e393-4e8c-b793-21ee084d79f4","system_id":"levelo_inurba_marseille","lat":43.24953,"lon":5.40495,"is_reserved":false,"is_disabled":false,"rental_uris":{"android":"levelo://app?vid=c0548073-e393-4e8c-b793-21ee084d79f4","ios":"levelo://app?vid=c0548073-e393-4e8c-b793-21ee084d79f4"},"vehicle_type_id":"4","last_reported":1771955389,"current_range_meters":3200,"station_id":"st_d2ngiaodas8pm72gd1h0","pricing_plan_id":"cebpf4jnsgd1na2vs0mg"},{"bike_id":"4847170d-5eec-499a-8cea-850c1ab4634a","system_id":"levelo_inurba_marseille","lat":43.297558,"lon":5.427776,"is_reserved":false,"is_disabled":false,"rental_uris":{"android":"levelo://app?vid=4847170d-5eec-499a-8cea-850c1ab4634a","ios":"levelo://app?vid=4847170d-5eec-499a-8cea-850c1ab4634a"},"vehicle_type_id":"4","last_reported":1771955389,"current_range_meters":3200,"station_id":"st_d3md5207bmas73dh9klg","pricing_plan_id":"cebpf4jnsgd1na2vs0mg"},{"bike_id":"ba66f05c-fa71-4794-ba7d-1935a3746e57","system_id":"levelo_inurba_marseille","lat":43.297613,"lon":5.427689,"is_reserved":false,"is_disabled":false,"rental_uris":{"android":"levelo://app?vid=ba66f05c-fa71-4794-ba7d-1935a3746e57","ios":"levelo://app?vid=ba66f05c-fa71-4794-ba7d-1935a3746e57"},"vehicle_type_id":"4","last_reported":1771955389,"current_range_meters":3200,"station_id":"st_d3md5207bmas73dh9klg","pricing_plan_id":"cebpf4jnsgd1na2vs0mg"},{"bike_id":"74e5de89-7513-490f-8e7b-971866e4c710","system_id":"levelo_inurba_marseille","lat":43.337403,"lon":5.363043,"is_reserved":false,"is_disabled":false,"rental_uris":{"android":"levelo://app?vid=74e5de89-7513-490f-8e7b-971866e4c710","ios":"levelo://app?vid=74e5de89-7513-490f-8e7b-971866e4c710"},"vehicle_type_id":"4","last_reported":1771955389,"current_range_meters":3600,"station_id":"","pricing_plan_id":"cebpf4jnsgd1na2vs0mg"},{"bike_id":"eda3d52e-473f-4bde-b359-4a0399a89e44","system_id":"levelo_inurba_marseille","lat":43.30796,"lon":5.39219,"is_reserved":false,"is_disabled":false,"rental_uris":{"android":"levelo://app?vid=eda3d52e-473f-4bde-b359-4a0399a89e44","ios":"levelo://app?vid=eda3d52e-473f-4bde-b359-4a0399a89e44"},"vehicle_type_id":"4","last_reported":1771955389,"current_range_meters":3600,"station_id":"","pricing_plan_id":"cebpf4jnsgd1na2vs0mg"},{"bike_id":"8e2b34e4-82b6-4d7b-8967-29ffce5f9cc2","system_id":"levelo_inurba_marseille","lat":43.29934,"lon":5.38395,"is_reserved":false,"is_disabled":false,"rental_uris":{"android":"levelo://app?vid=8e2b34e4-82b6-4d7b-8967-29ffce5f9cc2","ios":"levelo://app?vid=8e2b34e4-82b6-4d7b-8967-29ffce5f9cc2"},"vehicle_type_id":"4","last_reported":1771955389,"current_range_meters":3600,"station_id":"","pricing_plan_id":"cebpf4jnsgd1na2vs0mg"},{"bike_id":"bb646d09-d0f2-4688-9f57-73636248a15e","system_id":"levelo_inurba_marseille","lat":43.29972,"lon":5.38493,"is_reserved":false,"is_disabled":false,"rental_uris":{"android":"levelo://app?vid=bb646d09-d0f2-4688-9f57-73636248a15e","ios":"levelo://app?vid=bb646d09-d0f2-4688-9f57-73636248a15e"},"vehicle_type_id":"4","last_reported":1771955389,"current_range_meters":3600,"station_id":"ce4bgj92rcd13ifvqbd0","pricing_plan_id":"cebpf4jnsgd1na2vs0mg"},{"bike_id":"d187e6a1-1bae-4bbc-9740-6426735940b5","system_id":"levelo_inurba_marseille","lat":43.29577,"lon":5.36732,"is_reserved":false,"is_disabled":false,"rental_uris":{"android":"levelo://app?vid=d187e6a1-1bae-4bbc-9740-6426735940b5","ios":"levelo://app?vid=d187e6a1-1bae-4bbc-9740-6426735940b5"},"vehicle_type_id":"4","last_reported":1771955389,"current_range_meters":3600,"station_id":"ce4bgph2rcd13ifvqc2g","pricing_plan_id":"cebpf4jnsgd1na2vs0mg"},{"bike_id":"25664185-3560-4767-ae8a-8e16d98e8d1d","system_id":"levelo_inurba_marseille","lat":43.31363,"lon":5.385,"is_reserved":false,"is_disabled":false,"rental_uris":{"android":"levelo://app?vid=25664185-3560-4767-ae8a-8e16d98e8d1d","ios":"levelo://app?vid=25664185-3560-4767-ae8a-8e16d98e8d1d"},"vehicle_type_id":"4","last_reported":1771955389,"current_range_meters":3600,"station_id":"ce4bgt92rcd13ifvqcf0","pricing_plan_id":"cebpf4jnsgd1na2vs0mg"},{"bike_id":"136150b6-2f7c-4aed-bdfd-ad66832f06b7","system_id":"levelo_inurba_marseille","lat":43.29277,"lon":5.40117,"is_reserved":false,"is_disabled":false,"rental_uris":{"android":"levelo://app?vid=136150b6-2f7c-4aed-bdfd-ad66832f06b7","ios":"levelo://app?vid=136150b6-2f7c-4aed-bdfd-ad66832f06b7"},"vehicle_type_id":"4","last_reported":1771955389,"current_range_meters":3600,"station_id":"ce4bh312rcd13ifvqdk0","pricing_plan_id":"cebpf4jnsgd1na2vs0mg"},{"bike_id":"de888210-b08b-473d-b50c-b93111c38793","system_id":"levelo_inurba_marseille","lat":43.28933,"lon":5.3664,"is_reserved":false,"is_disabled":false,"rental_uris":{"android":"levelo://app?vid=de888210-b08b-473d-b50c-b93111c38793","ios":"levelo://app?vid=de888210-b08b-473d-b50c-b93111c38793"},"vehicle_type_id":"4","last_reported":1771955389,"current_range_meters":3600,"station_id":"ce4bhap2rcd13ifvqek0","pricing_plan_id":"cebpf4jnsgd1na2vs0mg"},{"bike_id":"ac142b62-3a3a-482a-bbde-dd512046b531","system_id":"levelo_inurba_marseille","lat":43.286147,"lon":5.350987,"is_reserved":false,"is_disabled":false,"rental_uris":{"android":"levelo://app?vid=ac142b62-3a3a-482a-bbde-dd512046b531","ios":"levelo://app?vid=ac142b62-3a3a-482a-bbde-dd512046b531"},"vehicle_type_id":"4","last_reported":1771955389,"current_range_meters":3600,"station_id":"ce4bhch2rcd13ifvqeug","pricing_plan_id":"cebpf4jnsgd1na2vs0mg"},{"bike_id":"21907d98-59ff-4045-9582-1ff8c87cf682","system_id":"levelo_inurba_marseille","lat":43.25489,"lon":5.37647,"is_reserved":false,"is_disabled":false,"rental_uris":{"android":"levelo://app?vid=21907d98-59ff-4045-9582-1ff8c87cf682","ios":"levelo://app?vid=21907d98-59ff-4045-9582-1ff8c87cf682"},"vehicle_type_id":"4","last_reported":1771955389,"current_range_meters":3600,"station_id":"ce4bhh12rcd13ifvqff0","pricing_plan_id":"cebpf4jnsgd1na2vs0mg"},{"bike_id":"c27101f6-193f-4ef9-a49e-fab3f306d36f","system_id":"levelo_inurba_marseille","lat":43.27569,"lon":5.38427,"is_reserved":false,"is_disabled":false,"rental_uris":{"android":"levelo://app?vid=c27101f6-193f-4ef9-a49e-fab3f306d36f","ios":"levelo://app?vid=c27101f6-193f-4ef9-a49e-fab3f306d36f"},"vehicle_type_id":"4","last_reported":1771955389,"current_range_meters":3600,"station_id":"ce4bhh92rcd13ifvqfi0","pricing_plan_id":"cebpf4jnsgd1na2vs0mg"},{"bike_id":"83b46dc1-26c5-49e6-9731-278e9a9d3af8","system_id":"levelo_inurba_marseille","lat":43.25595,"lon":5.38279,"is_reserved":false,"is_disabled":false,"rental_uris":{"android":"levelo://app?vid=83b46dc1-26c5-49e6-9731-278e9a9d3af8","ios":"levelo://app?vid=83b46dc1-26c5-49e6-9731-278e9a9d3af8"},"vehicle_type_id":"4","last_reported":1771955389,"current_range_meters":3600,"station_id":"ce4bhih2rcd13ifvqfs0","pricing_plan_id":"cebpf4jnsgd1na2vs0mg"},{"bike_id":"3f9f9d6a-8029-4d80-9085-154dbe09dd96","system_id":"levelo_inurba_marseille","lat":43.29959,"lon":5.41317,"is_reserved":false,"is_disabled":false,"rental_uris":{"android":"levelo://app?vid=3f9f9d6a-8029-4d80-9085-154dbe09dd96","ios":"levelo://app?vid=3f9f9d6a-8029-4d80-9085-154dbe09dd96"},"vehicle_type_id":"4","last_reported":1771955389,"current_range_meters":3600,"station_id":"ce4bhp12rcd13ifvqh9g","pricing_plan_id":"cebpf4jnsgd1na2vs0mg"},{"bike_id":"6ce85b4e-26b0-453d-a06e-d1d858fe0525","system_id":"levelo_inurba_marseille","lat":43.31707,"lon":5.43705,"is_reserved":false,"is_disabled":false,"rental_uris":{"android":"levelo://app?vid=6ce85b4e-26b0-453d-a06e-d1d858fe0525","ios":"levelo://app?vid=6ce85b4e-26b0-453d-a06e-d1d858fe0525"},"vehicle_type_id":"4","last_reported":1771955389,"current_range_meters":3600,"station_id":"ce4bhp92rcd13ifvqhcg","pricing_plan_id":"cebpf4jnsgd1na2vs0mg"},{"bike_id":"e1087d60-8c3a-48bf-80d9-bfbabdd043d1","system_id":"levelo_inurba_marseille","lat":43.3014,"lon":5.38066,"is_reserved":false,"is_disabled":false,"rental_uris":{"android":"levelo://app?vid=e1087d60-8c3a-48bf-80d9-bfbabdd043d1","ios":"levelo://app?vid=e1087d60-8c3a-48bf-80d9-bfbabdd043d1"},"vehicle_type_id":"4","last_reported":1771955389,"current_range_meters":4000,"station_id":"ce4bgjp2rcd13ifvqbh0","pricing_plan_id":"cebpf4jnsgd1na2vs0mg"},{"bike_id":"e440f4c6-c068-4b10-bae6-96ee66aee486","system_id":"levelo_inurba_marseille","lat":43.2959,"lon":5.3811,"is_reserved":false,"is_disabled":false,"rental_uris":{"android":"levelo://app?vid=e440f4c6-c068-4b10-bae6-96ee66aee486","ios":"levelo://app?vid=e440f4c6-c068-4b10-bae6-96ee66aee486"},"vehicle_type_id":"4","last_reported":1771955389,"current_range_meters":4000,"station_id":"ce4bgl12rcd13ifvqbo0","pricing_plan_id":"cebpf4jnsgd1na2vs0mg"},{"bike_id":"92b975e7-2a70-4fd9-99e9-ab5584e60bde","system_id":"levelo_inurba_marseille","lat":43.30131,"lon":5.39869,"is_reserved":false,"is_disabled":false,"rental_uris":{"android":"levelo://app?vid=92b975e7-2a70-4fd9-99e9-ab5584e60bde","ios":"levelo://app?vid=92b975e7-2a70-4fd9-99e9-ab5584e60bde"},"vehicle_type_id":"4","last_reported":1771955389,"current_range_meters":4000,"station_id":"ce4bh0h2rcd13ifvqd40","pricing_plan_id":"cebpf4jnsgd1na2vs0mg"},{"bike_id":"8b92c5b7-e174-4785-9519-24f201613853","system_id":"levelo_inurba_marseille","lat":43.2847,"lon":5.38416,"is_reserved":false,"is_disabled":false,"rental_uris":{"android":"levelo://app?vid=8b92c5b7-e174-4785-9519-24f201613853","ios":"levelo://app?vid=8b92c5b7-e174-4785-9519-24f201613853"},"vehicle_type_id":"4","last_reported":1771955389,"current_range_meters":4000,"station_id":"ce4bh512rcd13ifvqe3g","pricing_plan_id":"cebpf4jnsgd1na2vs0mg"},{"bike_id":"da5cd209-fcdc-41c9-aac2-63da89c286fe","system_id":"levelo_inurba_marseille","lat":43.28931,"lon":5.36622,"is_reserved":false,"is_disabled":false,"rental_uris":{"android":"levelo://app?vid=da5cd209-fcdc-41c9-aac2-63da89c286fe","ios":"levelo://app?vid=da5cd209-fcdc-41c9-aac2-63da89c286fe"},"vehicle_type_id":"4","last_reported":1771955389,"current_range_meters":4000,"station_id":"ce4bhap2rcd13ifvqek0","pricing_plan_id":"cebpf4jnsgd1na2vs0mg"},{"bike_id":"c3301c20-f46c-46c3-932b-4b3971715209","system_id":"levelo_inurba_marseille","lat":43.24809,"lon":5.37457,"is_reserved":false,"is_disabled":false,"rental_uris":{"android":"levelo://app?vid=c3301c20-f46c-46c3-932b-4b3971715209","ios":"levelo://app?vid=c3301c20-f46c-46c3-932b-4b3971715209"},"vehicle_type_id":"4","last_reported":1771955389,"current_range_meters":4000,"station_id":"ce4bhgh2rcd13ifvqfb0","pricing_plan_id":"cebpf4jnsgd1na2vs0mg"},{"bike_id":"79499e5e-8262-47a1-ae92-00a4a54e185d","system_id":"levelo_inurba_marseille","lat":43.33594,"lon":5.40989,"is_reserved":false,"is_disabled":false,"rental_uris":{"android":"levelo://app?vid=79499e5e-8262-47a1-ae92-00a4a54e185d","ios":"levelo://app?vid=79499e5e-8262-47a1-ae92-00a4a54e185d"},"vehicle_type_id":"4","last_reported":1771955389,"current_range_meters":4000,"station_id":"ce4bhqh2rcd13ifvqhmg","pricing_plan_id":"cebpf4jnsgd1na2vs0mg"},{"bike_id":"ae931140-872f-4c5d-ae44-74f43de02b4d","system_id":"levelo_inurba_marseille","lat":43.270574,"lon":5.382964,"is_reserved":false,"is_disabled":false,"rental_uris":{"android":"levelo://app?vid=ae931140-872f-4c5d-ae44-74f43de02b4d","ios":"levelo://app?vid=ae931140-872f-4c5d-ae44-74f43de02b4d"},"vehicle_type_id":"4","last_reported":1771955389,"current_range_meters":4000,"station_id":"st_d3n2fo6cfp8s73cte1j0","pricing_plan_id":"cebpf4jnsgd1na2vs0mg"},{"bike_id":"133f1eeb-591b-44ed-8b29-f5afeb069de8","system_id":"levelo_inurba_marseille","lat":43.312724,"lon":5.377415,"is_reserved":false,"is_disabled":false,"rental_uris":{"android":"levelo://app?vid=133f1eeb-591b-44ed-8b29-f5afeb069de8","ios":"levelo://app?vid=133f1eeb-591b-44ed-8b29-f5afeb069de8"},"vehicle_type_id":"4","last_reported":1771955389,"current_range_meters":4400,"station_id":"","pricing_plan_id":"cebpf4jnsgd1na2vs0mg"},{"bike_id":"732f4d47-989f-4774-9834-7ce2e18a773b","system_id":"levelo_inurba_marseille","lat":43.30008,"lon":5.37186,"is_reserved":false,"is_disabled":false,"rental_uris":{"android":"levelo://app?vid=732f4d47-989f-4774-9834-7ce2e18a773b","ios":"levelo://app?vid=732f4d47-989f-4774-9834-7ce2e18a773b"},"vehicle_type_id":"4","last_reported":1771955389,"current_range_meters":4400,"station_id":"","pricing_plan_id":"cebpf4jnsgd1na2vs0mg"},{"bike_id":"d1a03eb1-9bf2-4841-8678-dba584e7d2e7","system_id":"levelo_inurba_marseille","lat":43.30447,"lon":5.38889,"is_reserved":false,"is_disabled":false,"rental_uris":{"android":"levelo://app?vid=d1a03eb1-9bf2-4841-8678-dba584e7d2e7","ios":"levelo://app?vid=d1a03eb1-9bf2-4841-8678-dba584e7d2e7"},"vehicle_type_id":"4","last_reported":1771955389,"current_range_meters":4400,"station_id":"ce4bgk12rcd13ifvqbi0","pricing_plan_id":"cebpf4jnsgd1na2vs0mg"},{"bike_id":"4049ffe1-389f-4fca-9e0e-40f43ca9e97e","system_id":"levelo_inurba_marseille","lat":43.28473,"lon":5.38439,"is_reserved":false,"is_disabled":false,"rental_uris":{"android":"levelo://app?vid=4049ffe1-389f-4fca-9e0e-40f43ca9e97e","ios":"levelo://app?vid=4049ffe1-389f-4fca-9e0e-40f43ca9e97e"},"vehicle_type_id":"4","last_reported":1771955389,"current_range_meters":4400,"station_id":"ce4bh512rcd13ifvqe3g","pricing_plan_id":"cebpf4jnsgd1na2vs0mg"},{"bike_id":"8dce71b7-b028-46d3-a457-daa511aa2ea9","system_id":"levelo_inurba_marseille","lat":43.27372,"lon":5.36262,"is_reserved":false,"is_disabled":false,"rental_uris":{"android":"levelo://app?vid=8dce71b7-b028-46d3-a457-daa511aa2ea9","ios":"levelo://app?vid=8dce71b7-b028-46d3-a457-daa511aa2ea9"},"vehicle_type_id":"4","last_reported":1771955389,"current_range_meters":4400,"station_id":"ce4bhbh2rcd13ifvqeo0","pricing_plan_id":"cebpf4jnsgd1na2vs0mg"},{"bike_id":"60d4271a-d75c-4781-8c0d-5fa0bb4a88ea","system_id":"levelo_inurba_marseille","lat":43.26023,"lon":5.37549,"is_reserved":false,"is_disabled":false,"rental_uris":{"android":"levelo://app?vid=60d4271a-d75c-4781-8c0d-5fa0bb4a88ea","ios":"levelo://app?vid=60d4271a-d75c-4781-8c0d-5fa0bb4a88ea"},"vehicle_type_id":"4","last_reported":1771955389,"current_range_meters":4400,"station_id":"ce4bhgh2rcd13ifvqfa0","pricing_plan_id":"cebpf4jnsgd1na2vs0mg"},{"bike_id":"ee705e47-aef9-4514-b011-86611a790459","system_id":"levelo_inurba_marseille","lat":43.26195,"lon":5.37446,"is_reserved":false,"is_disabled":false,"rental_uris":{"android":"levelo://app?vid=ee705e47-aef9-4514-b011-86611a790459","ios":"levelo://app?vid=ee705e47-aef9-4514-b011-86611a790459"},"vehicle_type_id":"4","last_reported":1771955389,"current_range_meters":4400,"station_id":"ce4bhgp2rcd13ifvqfc0","pricing_plan_id":"cebpf4jnsgd1na2vs0mg"},{"bike_id":"fda9cc1e-ab45-4ed1-8dc5-6dcd1536f47d","system_id":"levelo_inurba_marseille","lat":43.27071,"lon":5.42286,"is_reserved":false,"is_disabled":false,"rental_uris":{"android":"levelo://app?vid=fda9cc1e-ab45-4ed1-8dc5-6dcd1536f47d","ios":"levelo://app?vid=fda9cc1e-ab45-4ed1-8dc5-6dcd1536f47d"},"vehicle_type_id":"4","last_reported":1771955389,"current_range_meters":4400,"station_id":"ce4bhk92rcd13ifvqgb0","pricing_plan_id":"cebpf4jnsgd1na2vs0mg"},{"bike_id":"be232138-0a68-4213-a474-579a05e44a11","system_id":"levelo_inurba_marseille","lat":43.25085,"lon":5.3952,"is_reserved":false,"is_disabled":false,"rental_uris":{"android":"levelo://app?vid=be232138-0a68-4213-a474-579a05e44a11","ios":"levelo://app?vid=be232138-0a68-4213-a474-579a05e44a11"},"vehicle_type_id":"4","last_reported":1771955389,"current_range_meters":4400,"station_id":"ce4bhm12rcd13ifvqgkg","pricing_plan_id":"cebpf4jnsgd1na2vs0mg"},{"bike_id":"bcbf0384-28ee-41dd-98d6-17fb3c2a5959","system_id":"levelo_inurba_marseille","lat":43.30972,"lon":5.37909,"is_reserved":false,"is_disabled":false,"rental_uris":{"android":"levelo://app?vid=bcbf0384-28ee-41dd-98d6-17fb3c2a5959","ios":"levelo://app?vid=bcbf0384-28ee-41dd-98d6-17fb3c2a5959"},"vehicle_type_id":"4","last_reported":1771955389,"current_range_meters":4800,"station_id":"","pricing_plan_id":"cebpf4jnsgd1na2vs0mg"},{"bike_id":"f520298c-518f-4f87-a5ef-9d8188fa1a0e","system_id":"levelo_inurba_marseille","lat":43.29888,"lon":5.38887,"is_reserved":false,"is_disabled":false,"rental_uris":{"android":"levelo://app?vid=f520298c-518f-4f87-a5ef-9d8188fa1a0e","ios":"levelo://app?vid=f520298c-518f-4f87-a5ef-9d8188fa1a0e"},"vehicle_type_id":"4","last_reported":1771955389,"current_range_meters":4800,"station_id":"ce4bh392rcd13ifvqdl0","pricing_plan_id":"cebpf4jnsgd1na2vs0mg"},{"bike_id":"53aeae59-09ed-4149-9de6-f4a8c5f0ffb9","system_id":"levelo_inurba_marseille","lat":43.28688,"lon":5.37383,"is_reserved":false,"is_disabled":false,"rental_uris":{"android":"levelo://app?vid=53aeae59-09ed-4149-9de6-f4a8c5f0ffb9","ios":"levelo://app?vid=53aeae59-09ed-4149-9de6-f4a8c5f0ffb9"},"vehicle_type_id":"4","last_reported":1771955389,"current_range_meters":4800,"station_id":"ce4bh3p2rcd13ifvqdq0","pricing_plan_id":"cebpf4jnsgd1na2vs0mg"},{"bike_id":"c639c555-e88b-4282-bd39-b6f9202ea744","system_id":"levelo_inurba_marseille","lat":43.28472,"lon":5.3841,"is_reserved":false,"is_disabled":false,"rental_uris":{"android":"levelo://app?vid=c639c555-e88b-4282-bd39-b6f9202ea744","ios":"levelo://app?vid=c639c555-e88b-4282-bd39-b6f9202ea744"},"vehicle_type_id":"4","last_reported":1771955389,"current_range_meters":4800,"station_id":"ce4bh512rcd13ifvqe3g","pricing_plan_id":"cebpf4jnsgd1na2vs0mg"},{"bike_id":"41dc780e-831a-4107-bbf2-fda137d24519","system_id":"levelo_inurba_marseille","lat":43.28949,"lon":5.36634,"is_reserved":false,"is_disabled":false,"rental_uris":{"android":"levelo://app?vid=41dc780e-831a-4107-bbf2-fda137d24519","ios":"levelo://app?vid=41dc780e-831a-4107-bbf2-fda137d24519"},"vehicle_type_id":"4","last_reported":1771955389,"current_range_meters":4800,"station_id":"ce4bhap2rcd13ifvqek0","pricing_plan_id":"cebpf4jnsgd1na2vs0mg"},{"bike_id":"57d4d754-ee0f-4e6e-92cb-956ba2d097f0","system_id":"levelo_inurba_marseille","lat":43.240778,"lon":5.377499,"is_reserved":false,"is_disabled":false,"rental_uris":{"android":"levelo://app?vid=57d4d754-ee0f-4e6e-92cb-956ba2d097f0","ios":"levelo://app?vid=57d4d754-ee0f-4e6e-92cb-956ba2d097f0"},"vehicle_type_id":"4","last_reported":1771955389,"current_range_meters":4800,"station_id":"ce4bhnp2rcd13ifvqgvg","pricing_plan_id":"cebpf4jnsgd1na2vs0mg"},{"bike_id":"a732c3ad-9fc9-4c5a-9bd2-cb2f8141b317","system_id":"levelo_inurba_marseille","lat":43.2407,"lon":5.377627,"is_reserved":false,"is_disabled":false,"rental_uris":{"android":"levelo://app?vid=a732c3ad-9fc9-4c5a-9bd2-cb2f8141b317","ios":"levelo://app?vid=a732c3ad-9fc9-4c5a-9bd2-cb2f8141b317"},"vehicle_type_id":"4","last_reported":1771955389,"current_range_meters":4800,"station_id":"ce4bhnp2rcd13ifvqgvg","pricing_plan_id":"cebpf4jnsgd1na2vs0mg"},{"bike_id":"5421a654-7208-4bb2-b638-9bdd12263374","system_id":"levelo_inurba_marseille","lat":43.2379,"lon":5.36629,"is_reserved":false,"is_disabled":false,"rental_uris":{"android":"levelo://app?vid=5421a654-7208-4bb2-b638-9bdd12263374","ios":"levelo://app?vid=5421a654-7208-4bb2-b638-9bdd12263374"},"vehicle_type_id":"4","last_reported":1771955389,"current_range_meters":5600,"station_id":"","pricing_plan_id":"cebpf4jnsgd1na2vs0mg"},{"bike_id":"f5fb5608-8e01-4898-ab51-1336fe62e91a","system_id":"levelo_inurba_marseille","lat":43.29635,"lon":5.40592,"is_reserved":false,"is_disabled":false,"rental_uris":{"android":"levelo://app?vid=f5fb5608-8e01-4898-ab51-1336fe62e91a","ios":"levelo://app?vid=f5fb5608-8e01-4898-ab51-1336fe62e91a"},"vehicle_type_id":"4","last_reported":1771955389,"current_range_meters":5600,"station_id":"ce4bh0h2rcd13ifvqd60","pricing_plan_id":"cebpf4jnsgd1na2vs0mg"},{"bike_id":"f1c41be6-0f1d-4d27-a880-60f98c1ea1b1","system_id":"levelo_inurba_marseille","lat":43.29528,"lon":5.39034,"is_reserved":false,"is_disabled":false,"rental_uris":{"android":"levelo://app?vid=f1c41be6-0f1d-4d27-a880-60f98c1ea1b1","ios":"levelo://app?vid=f1c41be6-0f1d-4d27-a880-60f98c1ea1b1"},"vehicle_type_id":"4","last_reported":1771955389,"current_range_meters":5600,"station_id":"ce4bh3p2rcd13ifvqdp0","pricing_plan_id":"cebpf4jnsgd1na2vs0mg"},{"bike_id":"66670a2a-7632-4e3d-9b04-d624f795e909","system_id":"levelo_inurba_marseille","lat":43.24816,"lon":5.37451,"is_reserved":false,"is_disabled":false,"rental_uris":{"android":"levelo://app?vid=66670a2a-7632-4e3d-9b04-d624f795e909","ios":"levelo://app?vid=66670a2a-7632-4e3d-9b04-d624f795e909"},"vehicle_type_id":"4","last_reported":1771955389,"current_range_meters":5600,"station_id":"ce4bhgh2rcd13ifvqfb0","pricing_plan_id":"cebpf4jnsgd1na2vs0mg"},{"bike_id":"b07985c6-cd12-4527-b5df-cfcc4a9c7014","system_id":"levelo_inurba_marseille","lat":43.265646,"lon":5.403259,"is_reserved":false,"is_disabled":false,"rental_uris":{"android":"levelo://app?vid=b07985c6-cd12-4527-b5df-cfcc4a9c7014","ios":"levelo://app?vid=b07985c6-cd12-4527-b5df-cfcc4a9c7014"},"vehicle_type_id":"4","last_reported":1771955389,"current_range_meters":5600,"station_id":"ce4bhmp2rcd13ifvqgng","pricing_plan_id":"cebpf4jnsgd1na2vs0mg"},{"bike_id":"fe5bcc98-078b-427e-88b3-b3084916937b","system_id":"levelo_inurba_marseille","lat":43.32037,"lon":5.41546,"is_reserved":false,"is_disabled":false,"rental_uris":{"android":"levelo://app?vid=fe5bcc98-078b-427e-88b3-b3084916937b","ios":"levelo://app?vid=fe5bcc98-078b-427e-88b3-b3084916937b"},"vehicle_type_id":"4","last_reported":1771955389,"current_range_meters":5600,"station_id":"ce4bhq92rcd13ifvqhkg","pricing_plan_id":"cebpf4jnsgd1na2vs0mg"},{"bike_id":"eaf4d3a9-8f4c-416b-8ba2-64d3b996fbe7","system_id":"levelo_inurba_marseille","lat":43.22927,"lon":5.35403,"is_reserved":false,"is_disabled":false,"rental_uris":{"android":"levelo://app?vid=eaf4d3a9-8f4c-416b-8ba2-64d3b996fbe7","ios":"levelo://app?vid=eaf4d3a9-8f4c-416b-8ba2-64d3b996fbe7"},"vehicle_type_id":"4","last_reported":1771955389,"current_range_meters":5600,"station_id":"cpo3532slgdg3j2ikp40","pricing_plan_id":"cebpf4jnsgd1na2vs0mg"},{"bike_id":"cb231f4d-3207-49de-9c8e-46644c9a2b98","system_id":"levelo_inurba_marseille","lat":43.237867,"lon":5.430511,"is_reserved":false,"is_disabled":false,"rental_uris":{"android":"levelo://app?vid=cb231f4d-3207-49de-9c8e-46644c9a2b98","ios":"levelo://app?vid=cb231f4d-3207-49de-9c8e-46644c9a2b98"},"vehicle_type_id":"4","last_reported":1771955389,"current_range_meters":6000,"station_id":"","pricing_plan_id":"cebpf4jnsgd1na2vs0mg"},{"bike_id":"0dd3da07-f532-48b6-83e5-9d523181b9a4","system_id":"levelo_inurba_marseille","lat":43.28283,"lon":5.34914,"is_reserved":false,"is_disabled":false,"rental_uris":{"android":"levelo://app?vid=0dd3da07-f532-48b6-83e5-9d523181b9a4","ios":"levelo://app?vid=0dd3da07-f532-48b6-83e5-9d523181b9a4"},"vehicle_type_id":"4","last_reported":1771955389,"current_range_meters":6000,"station_id":"","pricing_plan_id":"cebpf4jnsgd1na2vs0mg"},{"bike_id":"4c28d97b-605b-43f1-8af1-8617b981e8a9","system_id":"levelo_inurba_marseille","lat":43.2954,"lon":5.38552,"is_reserved":false,"is_disabled":false,"rental_uris":{"android":"levelo://app?vid=4c28d97b-605b-43f1-8af1-8617b981e8a9","ios":"levelo://app?vid=4c28d97b-605b-43f1-8af1-8617b981e8a9"},"vehicle_type_id":"4","last_reported":1771955389,"current_range_meters":6000,"station_id":"ce4bgih2rcd13ifvqba0","pricing_plan_id":"cebpf4jnsgd1na2vs0mg"},{"bike_id":"1e184407-c7c7-4360-9f70-9b2d770c3e03","system_id":"levelo_inurba_marseille","lat":43.30326,"lon":5.40433,"is_reserved":false,"is_disabled":false,"rental_uris":{"android":"levelo://app?vid=1e184407-c7c7-4360-9f70-9b2d770c3e03","ios":"levelo://app?vid=1e184407-c7c7-4360-9f70-9b2d770c3e03"},"vehicle_type_id":"4","last_reported":1771955389,"current_range_meters":6000,"station_id":"ce4bh012rcd13ifvqd10","pricing_plan_id":"cebpf4jnsgd1na2vs0mg"},{"bike_id":"aa626a41-c926-438b-8197-a603847d5b3a","system_id":"levelo_inurba_marseille","lat":43.28854,"lon":5.39306,"is_reserved":false,"is_disabled":false,"rental_uris":{"android":"levelo://app?vid=aa626a41-c926-438b-8197-a603847d5b3a","ios":"levelo://app?vid=aa626a41-c926-438b-8197-a603847d5b3a"},"vehicle_type_id":"4","last_reported":1771955389,"current_range_meters":6000,"station_id":"ce4bh2p2rcd13ifvqdi0","pricing_plan_id":"cebpf4jnsgd1na2vs0mg"},{"bike_id":"664ca1ad-f1e3-4bdd-bebd-8a35fe694a90","system_id":"levelo_inurba_marseille","lat":43.2893,"lon":5.36647,"is_reserved":false,"is_disabled":false,"rental_uris":{"android":"levelo://app?vid=664ca1ad-f1e3-4bdd-bebd-8a35fe694a90","ios":"levelo://app?vid=664ca1ad-f1e3-4bdd-bebd-8a35fe694a90"},"vehicle_type_id":"4","last_reported":1771955389,"current_range_meters":6000,"station_id":"ce4bhap2rcd13ifvqek0","pricing_plan_id":"cebpf4jnsgd1na2vs0mg"},{"bike_id":"101871b6-ee11-45ee-8e26-eac17d9952ba","system_id":"levelo_inurba_marseille","lat":43.26029,"lon":5.37549,"is_reserved":false,"is_disabled":false,"rental_uris":{"android":"levelo://app?vid=101871b6-ee11-45ee-8e26-eac17d9952ba","ios":"levelo://app?vid=101871b6-ee11-45ee-8e26-eac17d9952ba"},"vehicle_type_id":"4","last_reported":1771955389,"current_range_meters":6000,"station_id":"ce4bhgh2rcd13ifvqfa0","pricing_plan_id":"cebpf4jnsgd1na2vs0mg"},{"bike_id":"5061837d-20b5-49ee-b2cf-1fb97a3a4b03","system_id":"levelo_inurba_marseille","lat":43.24807,"lon":5.37451,"is_reserved":false,"is_disabled":false,"rental_uris":{"android":"levelo://app?vid=5061837d-20b5-49ee-b2cf-1fb97a3a4b03","ios":"levelo://app?vid=5061837d-20b5-49ee-b2cf-1fb97a3a4b03"},"vehicle_type_id":"4","last_reported":1771955389,"current_range_meters":6000,"station_id":"ce4bhgh2rcd13ifvqfb0","pricing_plan_id":"cebpf4jnsgd1na2vs0mg"},{"bike_id":"25f987d3-7382-42cc-a523-767ef6fcebfb","system_id":"levelo_inurba_marseille","lat":43.249926,"lon":5.38922,"is_reserved":false,"is_disabled":false,"rental_uris":{"android":"levelo://app?vid=25f987d3-7382-42cc-a523-767ef6fcebfb","ios":"levelo://app?vid=25f987d3-7382-42cc-a523-767ef6fcebfb"},"vehicle_type_id":"4","last_reported":1771955389,"current_range_meters":6000,"station_id":"ce4bhgp2rcd13ifvqfd0","pricing_plan_id":"cebpf4jnsgd1na2vs0mg"},{"bike_id":"bdabc3c8-91a6-456e-bffd-34ce651cdb91","system_id":"levelo_inurba_marseille","lat":43.31538,"lon":5.38014,"is_reserved":false,"is_disabled":false,"rental_uris":{"android":"levelo://app?vid=bdabc3c8-91a6-456e-bffd-34ce651cdb91","ios":"levelo://app?vid=bdabc3c8-91a6-456e-bffd-34ce651cdb91"},"vehicle_type_id":"4","last_reported":1771955389,"current_range_meters":6000,"station_id":"ce4bhsp2rcd13ifvqi50","pricing_plan_id":"cebpf4jnsgd1na2vs0mg"},{"bike_id":"b556c038-b8c8-4e6e-bc25-d0881b907e8b","system_id":"levelo_inurba_marseille","lat":43.231952,"lon":5.355446,"is_reserved":false,"is_disabled":false,"rental_uris":{"android":"levelo://app?vid=b556c038-b8c8-4e6e-bc25-d0881b907e8b","ios":"levelo://app?vid=b556c038-b8c8-4e6e-bc25-d0881b907e8b"},"vehicle_type_id":"4","last_reported":1771955389,"current_range_meters":6000,"station_id":"ce4bhu92rcd13ifvqi70","pricing_plan_id":"cebpf4jnsgd1na2vs0mg"},{"bike_id":"71bb3654-0c79-4ec3-880c-78540cdd937a","system_id":"levelo_inurba_marseille","lat":43.288606,"lon":5.425161,"is_reserved":false,"is_disabled":false,"rental_uris":{"android":"levelo://app?vid=71bb3654-0c79-4ec3-880c-78540cdd937a","ios":"levelo://app?vid=71bb3654-0c79-4ec3-880c-78540cdd937a"},"vehicle_type_id":"4","last_reported":1771955389,"current_range_meters":6000,"station_id":"st_d3b462108ojc7389ooeg","pricing_plan_id":"cebpf4jnsgd1na2vs0mg"},{"bike_id":"37face6a-d13a-477c-9493-68fdb28c8d5a","system_id":"levelo_inurba_marseille","lat":43.24325,"lon":5.38388,"is_reserved":false,"is_disabled":false,"rental_uris":{"android":"levelo://app?vid=37face6a-d13a-477c-9493-68fdb28c8d5a","ios":"levelo://app?vid=37face6a-d13a-477c-9493-68fdb28c8d5a"},"vehicle_type_id":"4","last_reported":1771955389,"current_range_meters":6400,"station_id":"","pricing_plan_id":"cebpf4jnsgd1na2vs0mg"},{"bike_id":"031d7f4f-15fe-4665-9964-f6571f0cd2b7","system_id":"levelo_inurba_marseille","lat":43.306378,"lon":5.367659,"is_reserved":false,"is_disabled":false,"rental_uris":{"android":"levelo://app?vid=031d7f4f-15fe-4665-9964-f6571f0cd2b7","ios":"levelo://app?vid=031d7f4f-15fe-4665-9964-f6571f0cd2b7"},"vehicle_type_id":"4","last_reported":1771955389,"current_range_meters":6400,"station_id":"","pricing_plan_id":"cebpf4jnsgd1na2vs0mg"},{"bike_id":"fecb9607-db74-4286-9c1d-4107ff4c9564","system_id":"levelo_inurba_marseille","lat":43.29309,"lon":5.37176,"is_reserved":false,"is_disabled":false,"rental_uris":{"android":"levelo://app?vid=fecb9607-db74-4286-9c1d-4107ff4c9564","ios":"levelo://app?vid=fecb9607-db74-4286-9c1d-4107ff4c9564"},"vehicle_type_id":"4","last_reported":1771955389,"current_range_meters":6400,"station_id":"ce4bgh92rcd13ifvqb40","pricing_plan_id":"cebpf4jnsgd1na2vs0mg"},{"bike_id":"acfa77bf-73ce-469d-93e7-e14a713f8938","system_id":"levelo_inurba_marseille","lat":43.29968,"lon":5.38499,"is_reserved":false,"is_disabled":false,"rental_uris":{"android":"levelo://app?vid=acfa77bf-73ce-469d-93e7-e14a713f8938","ios":"levelo://app?vid=acfa77bf-73ce-469d-93e7-e14a713f8938"},"vehicle_type_id":"4","last_reported":1771955389,"current_range_meters":6400,"station_id":"ce4bgj92rcd13ifvqbd0","pricing_plan_id":"cebpf4jnsgd1na2vs0mg"},{"bike_id":"59e7fba4-7e48-4926-b9bc-4c0e478c5f8c","system_id":"levelo_inurba_marseille","lat":43.29845,"lon":5.36272,"is_reserved":false,"is_disabled":false,"rental_uris":{"android":"levelo://app?vid=59e7fba4-7e48-4926-b9bc-4c0e478c5f8c","ios":"levelo://app?vid=59e7fba4-7e48-4926-b9bc-4c0e478c5f8c"},"vehicle_type_id":"4","last_reported":1771955389,"current_range_meters":6400,"station_id":"ce4bgpp2rcd13ifvqc3g","pricing_plan_id":"cebpf4jnsgd1na2vs0mg"},{"bike_id":"7ff83c03-e260-48f3-98df-c43dfb8aba4d","system_id":"levelo_inurba_marseille","lat":43.29798,"lon":5.40416,"is_reserved":false,"is_disabled":false,"rental_uris":{"android":"levelo://app?vid=7ff83c03-e260-48f3-98df-c43dfb8aba4d","ios":"levelo://app?vid=7ff83c03-e260-48f3-98df-c43dfb8aba4d"},"vehicle_type_id":"4","last_reported":1771955389,"current_range_meters":6400,"station_id":"ce4bh112rcd13ifvqd90","pricing_plan_id":"cebpf4jnsgd1na2vs0mg"},{"bike_id":"820d459b-3620-4bfd-867d-162f38e41eff","system_id":"levelo_inurba_marseille","lat":43.30096,"lon":5.3907,"is_reserved":false,"is_disabled":false,"rental_uris":{"android":"levelo://app?vid=820d459b-3620-4bfd-867d-162f38e41eff","ios":"levelo://app?vid=820d459b-3620-4bfd-867d-162f38e41eff"},"vehicle_type_id":"4","last_reported":1771955389,"current_range_meters":6400,"station_id":"ce4bh192rcd13ifvqdb0","pricing_plan_id":"cebpf4jnsgd1na2vs0mg"},{"bike_id":"d570c877-849d-45ed-9277-65b1d9eb668b","system_id":"levelo_inurba_marseille","lat":43.29182,"lon":5.39311,"is_reserved":false,"is_disabled":false,"rental_uris":{"android":"levelo://app?vid=d570c877-849d-45ed-9277-65b1d9eb668b","ios":"levelo://app?vid=d570c877-849d-45ed-9277-65b1d9eb668b"},"vehicle_type_id":"4","last_reported":1771955389,"current_range_meters":6400,"station_id":"ce4bh192rcd13ifvqdd0","pricing_plan_id":"cebpf4jnsgd1na2vs0mg"},