{"last_updated":1741025581,"ttl":60,"version":"2.2","data":{"bikes":[{"bike_id":"40488542-128f-4375-9cc9-dd3376e8b628","system_id":"levelo_inurba_marseille","lat":43.28895,"lon":5.38334,"is_reserved":false,"is_disabled":false,"rental_uris":{"android":"levelo://app?vid=40488542-128f-4375-9cc9-dd3376e8b628","ios":"levelo://app?vid=40488542-128f-4375-9cc9-dd3376e8b628"},"vehicle_type_id":"4","last_reported":1741025582,"current_range_meters":2800,"station_id":"","pricing_plan_id":"cebpf4jnsgd1na2vs0mg"},{"bike_id":"c98ace63-f039-49c0-9cf5-ae6e73f28f6e","system_id":"levelo_inurba_marseille","lat":43.28171,"lon":5.42666,"is_reserved":false,"is_disabled":true,"rental_uris":{"android":"levelo://app?vid=c98ace63-f039-49c0-9cf5-ae6e73f28f6e","ios":"levelo://app?vid=c98ace63-f039-49c0-9cf5-ae6e73f28f6e"},"vehicle_type_id":"4","last_reported":1741025582,"current_range_meters":2800,"station_id":"ce4bhnh2rcd13ifvqgug","pricing_plan_id":"cebpf4jnsgd1na2vs0mg"},{"bike_id":"2378b1e6-2747-4314-b796-7dfd5c53c7ec","system_id":"levelo_inurba_marseille","lat":43.29192,"lon":5.35807,"is_reserved":false,"is_disabled":false,"rental_uris":{"android":"levelo://app?vid=2378b1e6-2747-4314-b796-7dfd5c53c7ec","ios":"levelo://app?vid=2378b1e6-2747-4314-b796-7dfd5c53c7ec"},"vehicle_type_id":"4","last_reported":1741025582,"current_range_meters":2800,"station_id":"ce4bhb12rcd13ifvqel0","pricing_plan_id":"cebpf4jnsgd1na2vs0mg"},{"bike_id":"b73a6a6c-2ccd-44a4-8309-0915095570f3","system_id":"levelo_inurba_marseille","lat":43.28677,"lon":5.3635,"is_reserved":false,"is_disabled":false,"rental_uris":{"android":"levelo://app?vid=b73a6a6c-2ccd-44a4-8309-0915095570f3","ios":"levelo://app?vid=b73a6a6c-2ccd-44a4-8309-0915095570f3"},"vehicle_type_id":"4","last_reported":1741025582,"current_range_meters":2800,"station_id":"ce4bhah2rcd13ifvqej0","pricing_plan_id":"cebpf4jnsgd1na2vs0mg"},{"bike_id":"bb38b6a4-43d4-4a10-9f25-ad397ff21ed5","system_id":"levelo_inurba_marseille","lat":43.30489,"lon":5.37895,"is_reserved":false,"is_disabled":false,"rental_uris":{"android":"levelo://app?vid=bb38b6a4-43d4-4a10-9f25-ad397ff21ed5","ios":"levelo://app?vid=bb38b6a4-43d4-4a10-9f25-ad397ff21ed5"},"vehicle_type_id":"4","last_reported":1741025582,"current_range_meters":2800,"station_id":"ce4bgup2rcd13ifvqcn0","pricing_plan_id":"cebpf4jnsgd1na2vs0mg"},{"bike_id":"539ceb76-2fd4-4bed-9cf3-1f96a5d44da5","system_id":"levelo_inurba_marseille","lat":43.29437,"lon":5.39748,"is_reserved":false,"is_disabled":false,"rental_uris":{"android":"levelo://app?vid=539ceb76-2fd4-4bed-9cf3-1f96a5d44da5","ios":"levelo://app?vid=539ceb76-2fd4-4bed-9cf3-1f96a5d44da5"},"vehicle_type_id":"4","last_reported":1741025582,"current_range_meters":2800,"station_id":"ce4bh3h2rcd13ifvqdo0","pricing_plan_id":"cebpf4jnsgd1na2vs0mg"},{"bike_id":"2d25bec7-9051-4875-aca7-629ec07997e3","system_id":"levelo_inurba_marseille","lat":43.3047,"lon":5.38898,"is_reserved":false,"is_disabled":false,"rental_uris":{"android":"levelo://app?vid=2d25bec7-9051-4875-aca7-629ec07997e3","ios":"levelo://app?vid=2d25bec7-9051-4875-aca7-629ec07997e3"},"vehicle_type_id":"4","last_reported":1741025582,"current_range_meters":2800,"station_id":"ce4bgk12rcd13ifvqbi0","pricing_plan_id":"cebpf4jnsgd1na2vs0mg"},{"bike_id":"c1b6f2c1-8221-4d4d-82ed-d95af2f86fd6","system_id":"levelo_inurba_marseille","lat":43.300598,"lon":5.383926,"is_reserved":false,"is_disabled":false,"rental_uris":{"android":"levelo://app?vid=c1b6f2c1-8221-4d4d-82ed-d95af2f86fd6","ios":"levelo://app?vid=c1b6f2c1-8221-4d4d-82ed-d95af2f86fd6"},"vehicle_type_id":"4","last_reported":1741025582,"current_range_meters":3200,"station_id":"ce4bgj92rcd13ifvqbd0","pricing_plan_id":"cebpf4jnsgd1na2vs0mg"},{"bike_id":"fb928c3c-26fb-43f9-b8d2-3ef22d6b82da","system_id":"levelo_inurba_marseille","lat":43.29847,"lon":5.36276,"is_reserved":false,"is_disabled":false,"rental_uris":{"android":"levelo://app?vid=fb928c3c-26fb-43f9-b8d2-3ef22d6b82da","ios":"levelo://app?vid=fb928c3c-26fb-43f9-b8d2-3ef22d6b82da"},"vehicle_type_id":"4","last_reported":1741025582,"current_range_meters":3200,"station_id":"ce4bgpp2rcd13ifvqc3g","pricing_plan_id":"cebpf4jnsgd1na2vs0mg"},{"bike_id":"6fa4f5f3-2751-4e05-a050-46f9a3b10258","system_id":"levelo_inurba_marseille","lat":43.29571,"lon":5.39973,"is_reserved":false,"is_disabled":false,"rental_uris":{"android":"levelo://app?vid=6fa4f5f3-2751-4e05-a050-46f9a3b10258","ios":"levelo://app?vid=6fa4f5f3-2751-4e05-a050-46f9a3b10258"},"vehicle_type_id":"4","last_reported":1741025582,"current_range_meters":3200,"station_id":"ce4bh312rcd13ifvqdj0","pricing_plan_id":"cebpf4jnsgd1na2vs0mg"},{"bike_id":"c3a6e918-8c89-4e9e-bdf4-6ccfbab224f2","system_id":"levelo_inurba_marseille","lat":43.28172,"lon":5.42648,"is_reserved":false,"is_disabled":false,"rental_uris":{"android":"levelo://app?vid=c3a6e918-8c89-4e9e-bdf4-6ccfbab224f2","ios":"levelo://app?vid=c3a6e918-8c89-4e9e-bdf4-6ccfbab224f2"},"vehicle_type_id":"4","last_reported":1741025582,"current_range_meters":2800,"station_id":"ce4bhnh2rcd13ifvqgug","pricing_plan_id":"cebpf4jnsgd1na2vs0mg"},{"bike_id":"145a3442-e178-4717-9a6b-6f04fcb59537","system_id":"levelo_inurba_marseille","lat":43.29269,"lon":5.38432,"is_reserved":false,"is_disabled":false,"rental_uris":{"android":"levelo://app?vid=145a3442-e178-4717-9a6b-6f04fcb59537","ios":"levelo://app?vid=145a3442-e178-4717-9a6b-6f04fcb59537"},"vehicle_type_id":"4","last_reported":1741025582,"current_range_meters":3200,"station_id":"ce4bh692rcd13ifvqea0","pricing_plan_id":"cebpf4jnsgd1na2vs0mg"},{"bike_id":"70332926-8f31-48d1-9d08-c42cb44f272d","system_id":"levelo_inurba_marseille","lat":43.29977,"lon":5.38495,"is_reserved":false,"is_disabled":false,"rental_uris":{"android":"levelo://app?vid=70332926-8f31-48d1-9d08-c42cb44f272d","ios":"levelo://app?vid=70332926-8f31-48d1-9d08-c42cb44f272d"},"vehicle_type_id":"4","last_reported":1741025582,"current_range_meters":2800,"station_id":"ce4bgj92rcd13ifvqbd0","pricing_plan_id":"cebpf4jnsgd1na2vs0mg"},{"bike_id":"2eb95607-52d4-4464-9c39-a1f8b09705b4","system_id":"levelo_inurba_marseille","lat":43.28691,"lon":5.37399,"is_reserved":false,"is_disabled":false,"rental_uris":{"android":"levelo://app?vid=2eb95607-52d4-4464-9c39-a1f8b09705b4","ios":"levelo://app?vid=2eb95607-52d4-4464-9c39-a1f8b09705b4"},"vehicle_type_id":"4","last_reported":1741025582,"current_range_meters":3200,"station_id":"ce4bh3p2rcd13ifvqdq0","pricing_plan_id":"cebpf4jnsgd1na2vs0mg"},{"bike_id":"c9b2d5de-5f30-450a-8dfe-5316042203f3","system_id":"levelo_inurba_marseille","lat":43.28313,"lon":5.37474,"is_reserved":false,"is_disabled":false,"rental_uris":{"android":"levelo://app?vid=c9b2d5de-5f30-450a-8dfe-5316042203f3","ios":"levelo://app?vid=c9b2d5de-5f30-450a-8dfe-5316042203f3"},"vehicle_type_id":"4","last_reported":1741025582,"current_range_meters":3200,"station_id":"","pricing_plan_id":"cebpf4jnsgd1na2vs0mg"},{"bike_id":"55cf1b71-6c01-4cb6-9d4b-ed7c6369c4a4","system_id":"levelo_inurba_marseille","lat":43.2867,"lon":5.38659,"is_reserved":false,"is_disabled":false,"rental_uris":{"android":"levelo://app?vid=55cf1b71-6c01-4cb6-9d4b-ed7c6369c4a4","ios":"levelo://app?vid=55cf1b71-6c01-4cb6-9d4b-ed7c6369c4a4"},"vehicle_type_id":"4","last_reported":1741025582,"current_range_meters":2800,"station_id":"ce4bh492rcd13ifvqdug","pricing_plan_id":"cebpf4jnsgd1na2vs0mg"},{"bike_id":"fa268db3-b870-4e53-9e38-67b1c6f59211","system_id":"levelo_inurba_marseille","lat":43.30163,"lon":5.38078,"is_reserved":false,"is_disabled":false,"rental_uris":{"android":"levelo://app?vid=fa268db3-b870-4e53-9e38-67b1c6f59211","ios":"levelo://app?vid=fa268db3-b870-4e53-9e38-67b1c6f59211"},"vehicle_type_id":"4","last_reported":1741025582,"current_range_meters":3200,"station_id":"ce4bgjp2rcd13ifvqbh0","pricing_plan_id":"cebpf4jnsgd1na2vs0mg"},{"bike_id":"95ced762-bd69-4703-81de-63936c76395a","system_id":"levelo_inurba_marseille","lat":43.2419,"lon":5.366089,"is_reserved":false,"is_disabled":false,"rental_uris":{"android":"levelo://app?vid=95ced762-bd69-4703-81de-63936c76395a","ios":"levelo://app?vid=95ced762-bd69-4703-81de-63936c76395a"},"vehicle_type_id":"4","last_reported":1741025582,"current_range_meters":2800,"station_id":"ce4bh2p2rcd13ifvqdi0","pricing_plan_id":"cebpf4jnsgd1na2vs0mg"},{"bike_id":"bf657b85-20ed-4d0c-9364-8460149a335f","system_id":"levelo_inurba_marseille","lat":43.3029,"lon":5.36909,"is_reserved":false,"is_disabled":false,"rental_uris":{"android":"levelo://app?vid=bf657b85-20ed-4d0c-9364-8460149a335f","ios":"levelo://app?vid=bf657b85-20ed-4d0c-9364-8460149a335f"},"vehicle_type_id":"4","last_reported":1741025582,"current_range_meters":3200,"station_id":"ce4bgqh2rcd13ifvqc5g","pricing_plan_id":"cebpf4jnsgd1na2vs0mg"},{"bike_id":"0ba852ff-6840-4984-b3f6-a60e37f743e2","system_id":"levelo_inurba_marseille","lat":43.29842,"lon":5.3627,"is_reserved":false,"is_disabled":false,"rental_uris":{"android":"levelo://app?vid=0ba852ff-6840-4984-b3f6-a60e37f743e2","ios":"levelo://app?vid=0ba852ff-6840-4984-b3f6-a60e37f743e2"},"vehicle_type_id":"4","last_reported":1741025582,"current_range_meters":3600,"station_id":"ce4bgpp2rcd13ifvqc3g","pricing_plan_id":"cebpf4jnsgd1na2vs0mg"},{"bike_id":"b9538f47-bb68-48e4-ac91-f0d4ccaec3e8","system_id":"levelo_inurba_marseille","lat":43.28936,"lon":5.38382,"is_reserved":false,"is_disabled":false,"rental_uris":{"android":"levelo://app?vid=b9538f47-bb68-48e4-ac91-f0d4ccaec3e8","ios":"levelo://app?vid=b9538f47-bb68-48e4-ac91-f0d4ccaec3e8"},"vehicle_type_id":"4","last_reported":1741025582,"current_range_meters":3600,"station_id":"ce4bh612rcd13ifvqe6g","pricing_plan_id":"cebpf4jnsgd1na2vs0mg"},{"bike_id":"c2d062cf-f5c4-4855-b9b3-a972ad941f5f","system_id":"levelo_inurba_marseille","lat":43.29846,"lon":5.3628,"is_reserved":false,"is_disabled":false,"rental_uris":{"android":"levelo://app?vid=c2d062cf-f5c4-4855-b9b3-a972ad941f5f","ios":"levelo://app?vid=c2d062cf-f5c4-4855-b9b3-a972ad941f5f"},"vehicle_type_id":"4","last_reported":1741025582,"current_range_meters":3600,"station_id":"ce4bgpp2rcd13ifvqc3g","pricing_plan_id":"cebpf4jnsgd1na2vs0mg"},{"bike_id":"920f81c8-8452-40bb-ba2f-0d440549d77d","system_id":"levelo_inurba_marseille","lat":43.29424,"lon":5.38622,"is_reserved":false,"is_disabled":false,"rental_uris":{"android":"levelo://app?vid=920f81c8-8452-40bb-ba2f-0d440549d77d","ios":"levelo://app?vid=920f81c8-8452-40bb-ba2f-0d440549d77d"},"vehicle_type_id":"4","last_reported":1741025582,"current_range_meters":3600,"station_id":"ce4bh2h2rcd13ifvqdh0","pricing_plan_id":"cebpf4jnsgd1na2vs0mg"},{"bike_id":"285fcbe9-02c4-48b1-acbe-4d2f1bfb4a7a","system_id":"levelo_inurba_marseille","lat":43.26566,"lon":5.39016,"is_reserved":false,"is_disabled":false,"rental_uris":{"android":"levelo://app?vid=285fcbe9-02c4-48b1-acbe-4d2f1bfb4a7a","ios":"levelo://app?vid=285fcbe9-02c4-48b1-acbe-4d2f1bfb4a7a"},"vehicle_type_id":"4","last_reported":1741025582,"current_range_meters":3600,"station_id":"ce4bhe12rcd13ifvqf30","pricing_plan_id":"cebpf4jnsgd1na2vs0mg"},{"bike_id":"d5679b5c-7b0d-40ef-9c1f-a6198b6b14c4","system_id":"levelo_inurba_marseille","lat":43.30195,"lon":5.3663,"is_reserved":false,"is_disabled":false,"rental_uris":{"android":"levelo://app?vid=d5679b5c-7b0d-40ef-9c1f-a6198b6b14c4","ios":"levelo://app?vid=d5679b5c-7b0d-40ef-9c1f-a6198b6b14c4"},"vehicle_type_id":"4","last_reported":1741025582,"current_range_meters":4000,"station_id":"ce4bgrh2rcd13ifvqc8g","pricing_plan_id":"cebpf4jnsgd1na2vs0mg"},{"bike_id":"f20b7f36-1f14-4219-9b25-df62fcdfab02","system_id":"levelo_inurba_marseille","lat":43.29291,"lon":5.40242,"is_reserved":false,"is_disabled":false,"rental_uris":{"android":"levelo://app?vid=f20b7f36-1f14-4219-9b25-df62fcdfab02","ios":"levelo://app?vid=f20b7f36-1f14-4219-9b25-df62fcdfab02"},"vehicle_type_id":"4","last_reported":1741025582,"current_range_meters":4000,"station_id":"ce4bh312rcd13ifvqdk0","pricing_plan_id":"cebpf4jnsgd1na2vs0mg"},{"bike_id":"8ff96925-5441-4aa0-babd-c14783d9b5b9","system_id":"levelo_inurba_marseille","lat":43.28132,"lon":5.44575,"is_reserved":false,"is_disabled":false,"rental_uris":{"android":"levelo://app?vid=8ff96925-5441-4aa0-babd-c14783d9b5b9","ios":"levelo://app?vid=8ff96925-5441-4aa0-babd-c14783d9b5b9"},"vehicle_type_id":"4","last_reported":1741025582,"current_range_meters":4400,"station_id":"","pricing_plan_id":"cebpf4jnsgd1na2vs0mg"},{"bike_id":"1cb9cb6c-c5d2-4e01-80f1-dca100101b75","system_id":"levelo_inurba_marseille","lat":43.30255,"lon":5.40132,"is_reserved":false,"is_disabled":true,"rental_uris":{"android":"levelo://app?vid=1cb9cb6c-c5d2-4e01-80f1-dca100101b75","ios":"levelo://app?vid=1cb9cb6c-c5d2-4e01-80f1-dca100101b75"},"vehicle_type_id":"4","last_reported":1741025582,"current_range_meters":4400,"station_id":"ce4bgvh2rcd13ifvqcs0","pricing_plan_id":"cebpf4jnsgd1na2vs0mg"},{"bike_id":"b5798094-9258-49c2-9284-0df223f6d7bc","system_id":"levelo_inurba_marseille","lat":43.30668,"lon":5.4008,"is_reserved":false,"is_disabled":false,"rental_uris":{"android":"levelo://app?vid=b5798094-9258-49c2-9284-0df223f6d7bc","ios":"levelo://app?vid=b5798094-9258-49c2-9284-0df223f6d7bc"},"vehicle_type_id":"4","last_reported":1741025582,"current_range_meters":4400,"station_id":"ce4bh112rcd13ifvqda0","pricing_plan_id":"cebpf4jnsgd1na2vs0mg"},{"bike_id":"8b6a553d-ce9a-4194-949d-114dd9397624","system_id":"levelo_inurba_marseille","lat":43.27693,"lon":5.38876,"is_reserved":false,"is_disabled":false,"rental_uris":{"android":"levelo://app?vid=8b6a553d-ce9a-4194-949d-114dd9397624","ios":"levelo://app?vid=8b6a553d-ce9a-4194-949d-114dd9397624"},"vehicle_type_id":"4","last_reported":1741025582,"current_range_meters":4400,"station_id":"ce4bhi12rcd13ifvqfo0","pricing_plan_id":"cebpf4jnsgd1na2vs0mg"},{"bike_id":"88fd57bd-fe8c-4dc6-ac3e-a6246a6cc6f2","system_id":"levelo_inurba_marseille","lat":43.29715,"lon":5.37698,"is_reserved":false,"is_disabled":false,"rental_uris":{"android":"levelo://app?vid=88fd57bd-fe8c-4dc6-ac3e-a6246a6cc6f2","ios":"levelo://app?vid=88fd57bd-fe8c-4dc6-ac3e-a6246a6cc6f2"},"vehicle_type_id":"4","last_reported":1741025582,"current_range_meters":4400,"station_id":"ce4bgkh2rcd13ifvqbl0","pricing_plan_id":"cebpf4jnsgd1na2vs0mg"},{"bike_id":"7294fa1b-6789-4d34-92da-72d6801cf1aa","system_id":"levelo_inurba_marseille","lat":43.32736,"lon":5.36275,"is_reserved":false,"is_disabled":false,"rental_uris":{"android":"levelo://app?vid=7294fa1b-6789-4d34-92da-72d6801cf1aa","ios":"levelo://app?vid=7294fa1b-6789-4d34-92da-72d6801cf1aa"},"vehicle_type_id":"4","last_reported":1741025582,"current_range_meters":4400,"station_id":"","pricing_plan_id":"cebpf4jnsgd1na2vs0mg"},{"bike_id":"6a9dc3f9-ab58-40b1-b07d-bf2d8eb823c9","system_id":"levelo_inurba_marseille","lat":43.29601,"lon":5.39997,"is_reserved":false,"is_disabled":false,"rental_uris":{"android":"levelo://app?vid=6a9dc3f9-ab58-40b1-b07d-bf2d8eb823c9","ios":"levelo://app?vid=6a9dc3f9-ab58-40b1-b07d-bf2d8eb823c9"},"vehicle_type_id":"4","last_reported":1741025582,"current_range_meters":4400,"station_id":"ce4bh312rcd13ifvqdj0","pricing_plan_id":"cebpf4jnsgd1na2vs0mg"},{"bike_id":"d55b8e86-bf9c-4638-aac5-3ab3de9d094b","system_id":"levelo_inurba_marseille","lat":43.2985,"lon":5.36271,"is_reserved":false,"is_disabled":false,"rental_uris":{"android":"levelo://app?vid=d55b8e86-bf9c-4638-aac5-3ab3de9d094b","ios":"levelo://app?vid=d55b8e86-bf9c-4638-aac5-3ab3de9d094b"},"vehicle_type_id":"4","last_reported":1741025582,"current_range_meters":4800,"station_id":"ce4bgpp2rcd13ifvqc3g","pricing_plan_id":"cebpf4jnsgd1na2vs0mg"},{"bike_id":"fbb434ec-fb3e-4b4d-be26-675e17ec36af","system_id":"levelo_inurba_marseille","lat":43.23153,"lon":5.43709,"is_reserved":false,"is_disabled":true,"rental_uris":{"android":"levelo://app?vid=fbb434ec-fb3e-4b4d-be26-675e17ec36af","ios":"levelo://app?vid=fbb434ec-fb3e-4b4d-be26-675e17ec36af"},"vehicle_type_id":"4","last_reported":1741025582,"current_range_meters":4800,"station_id":"ce4bhmp2rcd13ifvqgog","pricing_plan_id":"cebpf4jnsgd1na2vs0mg"},{"bike_id":"653759b4-e960-429b-96f0-2f8ae3aa5797","system_id":"levelo_inurba_marseille","lat":43.28088,"lon":5.37807,"is_reserved":false,"is_disabled":false,"rental_uris":{"android":"levelo://app?vid=653759b4-e960-429b-96f0-2f8ae3aa5797","ios":"levelo://app?vid=653759b4-e960-429b-96f0-2f8ae3aa5797"},"vehicle_type_id":"4","last_reported":1741025582,"current_range_meters":4800,"station_id":"ce4bha12rcd13ifvqee0","pricing_plan_id":"cebpf4jnsgd1na2vs0mg"},{"bike_id":"f246b1fe-9298-459d-9e15-30970b8e2321","system_id":"levelo_inurba_marseille","lat":43.266712,"lon":5.395036,"is_reserved":false,"is_disabled":false,"rental_uris":{"android":"levelo://app?vid=f246b1fe-9298-459d-9e15-30970b8e2321","ios":"levelo://app?vid=f246b1fe-9298-459d-9e15-30970b8e2321"},"vehicle_type_id":"4","last_reported":1741025582,"current_range_meters":4800,"station_id":"ce501612rcd8frsf0b60","pricing_plan_id":"cebpf4jnsgd1na2vs0mg"},{"bike_id":"217d65b3-7ceb-462d-9843-88d2f01a5050","system_id":"levelo_inurba_marseille","lat":43.32903,"lon":5.38067,"is_reserved":false,"is_disabled":false,"rental_uris":{"android":"levelo://app?vid=217d65b3-7ceb-462d-9843-88d2f01a5050","ios":"levelo://app?vid=217d65b3-7ceb-462d-9843-88d2f01a5050"},"vehicle_type_id":"4","last_reported":1741025582,"current_range_meters":5600,"station_id":"","pricing_plan_id":"cebpf4jnsgd1na2vs0mg"},{"bike_id":"b3cffb3d-8fdd-489f-a46e-e1071f8a759f","system_id":"levelo_inurba_marseille","lat":43.27175,"lon":5.40986,"is_reserved":false,"is_disabled":false,"rental_uris":{"android":"levelo://app?vid=b3cffb3d-8fdd-489f-a46e-e1071f8a759f","ios":"levelo://app?vid=b3cffb3d-8fdd-489f-a46e-e1071f8a759f"},"vehicle_type_id":"4","last_reported":1741025582,"current_range_meters":5600,"station_id":"ce4bhl12rcd13ifvqgf0","pricing_plan_id":"cebpf4jnsgd1na2vs0mg"},{"bike_id":"e7bf9aa4-ebab-4733-bd2d-62b9efb9b294","system_id":"levelo_inurba_marseille","lat":43.27495,"lon":5.42462,"is_reserved":false,"is_disabled":true,"rental_uris":{"android":"levelo://app?vid=e7bf9aa4-ebab-4733-bd2d-62b9efb9b294","ios":"levelo://app?vid=e7bf9aa4-ebab-4733-bd2d-62b9efb9b294"},"vehicle_type_id":"4","last_reported":1741025582,"current_range_meters":5600,"station_id":"ce4bhn92rcd13ifvqgrg","pricing_plan_id":"cebpf4jnsgd1na2vs0mg"},{"bike_id":"0113e5b0-c071-4eda-835f-6cd5a79032bf","system_id":"levelo_inurba_marseille","lat":43.29969,"lon":5.38491,"is_reserved":false,"is_disabled":false,"rental_uris":{"android":"levelo://app?vid=0113e5b0-c071-4eda-835f-6cd5a79032bf","ios":"levelo://app?vid=0113e5b0-c071-4eda-835f-6cd5a79032bf"},"vehicle_type_id":"4","last_reported":1741025582,"current_range_meters":5600,"station_id":"ce4bgj92rcd13ifvqbd0","pricing_plan_id":"cebpf4jnsgd1na2vs0mg"},{"bike_id":"6e6ec606-94bf-470b-9582-9490ba640d79","system_id":"levelo_inurba_marseille","lat":43.30422,"lon":5.38878,"is_reserved":false,"is_disabled":false,"rental_uris":{"android":"levelo://app?vid=6e6ec606-94bf-470b-9582-9490ba640d79","ios":"levelo://app?vid=6e6ec606-94bf-470b-9582-9490ba640d79"},"vehicle_type_id":"4","last_reported":1741025582,"current_range_meters":6000,"station_id":"ce4bgk12rcd13ifvqbi0","pricing_plan_id":"cebpf4jnsgd1na2vs0mg"},{"bike_id":"e0fc8d54-7aea-4d6e-8fa8-926448c099ad","system_id":"levelo_inurba_marseille","lat":43.26055,"lon":5.39393,"is_reserved":false,"is_disabled":false,"rental_uris":{"android":"levelo://app?vid=e0fc8d54-7aea-4d6e-8fa8-926448c099ad","ios":"levelo://app?vid=e0fc8d54-7aea-4d6e-8fa8-926448c099ad"},"vehicle_type_id":"4","last_reported":1741025582,"current_range_meters":6000,"station_id":"ce4bhh92rcd13ifvqfj0","pricing_plan_id":"cebpf4jnsgd1na2vs0mg"},{"bike_id":"7460671f-e15a-4a44-9f56-f5ee04c0fabf","system_id":"levelo_inurba_marseille","lat":43.28858,"lon":5.35868,"is_reserved":false,"is_disabled":false,"rental_uris":{"android":"levelo://app?vid=7460671f-e15a-4a44-9f56-f5ee04c0fabf","ios":"levelo://app?vid=7460671f-e15a-4a44-9f56-f5ee04c0fabf"},"vehicle_type_id":"4","last_reported":1741025582,"current_range_meters":6000,"station_id":"ce4bhb12rcd13ifvqem0","pricing_plan_id":"cebpf4jnsgd1na2vs0mg"},{"bike_id":"e355fddf-c114-45a4-b7a3-1e02fde20fd3","system_id":"levelo_inurba_marseille","lat":43.25111,"lon":5.40324,"is_reserved":false,"is_disabled":false,"rental_uris":{"android":"levelo://app?vid=e355fddf-c114-45a4-b7a3-1e02fde20fd3","ios":"levelo://app?vid=e355fddf-c114-45a4-b7a3-1e02fde20fd3"},"vehicle_type_id":"4","last_reported":1741025582,"current_range_meters":6000,"station_id":"ce4bhlh2rcd13ifvqgig","pricing_plan_id":"cebpf4jnsgd1na2vs0mg"},{"bike_id":"8b458597-9639-492e-aa6b-d0a23ffeb280","system_id":"levelo_inurba_marseille","lat":43.25582,"lon":5.38252,"is_reserved":false,"is_disabled":false,"rental_uris":{"android":"levelo://app?vid=8b458597-9639-492e-aa6b-d0a23ffeb280","ios":"levelo://app?vid=8b458597-9639-492e-aa6b-d0a23ffeb280"},"vehicle_type_id":"4","last_reported":1741025582,"current_range_meters":6000,"station_id":"ce4bhih2rcd13ifvqfs0","pricing_plan_id":"cebpf4jnsgd1na2vs0mg"},{"bike_id":"db917d75-2e56-416a-a174-c009ce6c14ea","system_id":"levelo_inurba_marseille","lat":43.28925,"lon":5.36397,"is_reserved":false,"is_disabled":false,"rental_uris":{"android":"levelo://app?vid=db917d75-2e56-416a-a174-c009ce6c14ea","ios":"levelo://app?vid=db917d75-2e56-416a-a174-c009ce6c14ea"},"vehicle_type_id":"4","last_reported":1741025582,"current_range_meters":6000,"station_id":"ce4bhc92rcd13ifvqetg","pricing_plan_id":"cebpf4jnsgd1na2vs0mg"},{"bike_id":"d1b58ed4-6b48-4cc8-b7d4-dd2dba45cc30","system_id":"levelo_inurba_marseille","lat":43.28723,"lon":5.36072,"is_reserved":false,"is_disabled":false,"rental_uris":{"android":"levelo://app?vid=d1b58ed4-6b48-4cc8-b7d4-dd2dba45cc30","ios":"levelo://app?vid=d1b58ed4-6b48-4cc8-b7d4-dd2dba45cc30"},"vehicle_type_id":"4","last_reported":1741025582,"current_range_meters":6000,"station_id":"cki0cbj6b192h4jlfktg","pricing_plan_id":"cebpf4jnsgd1na2vs0mg"},{"bike_id":"22fae547-e446-46ff-a02d-c56f6b239dd6","system_id":"levelo_inurba_marseille","lat":43.31325,"lon":5.39694,"is_reserved":false,"is_disabled":false,"rental_uris":{"android":"levelo://app?vid=22fae547-e446-46ff-a02d-c56f6b239dd6","ios":"levelo://app?vid=22fae547-e446-46ff-a02d-c56f6b239dd6"},"vehicle_type_id":"4","last_reported":1741025582,"current_range_meters":6000,"station_id":"ce4bgvp2rcd13ifvqcu0","pricing_plan_id":"cebpf4jnsgd1na2vs0mg"},{"bike_id":"bf216286-fc10-4d65-8516-fc2a1a05bbbd","system_id":"levelo_inurba_marseille","lat":43.27165,"lon":5.40984,"is_reserved":false,"is_disabled":false,"rental_uris":{"android":"levelo://app?vid=bf216286-fc10-4d65-8516-fc2a1a05bbbd","ios":"levelo://app?vid=bf216286-fc10-4d65-8516-fc2a1a05bbbd"},"vehicle_type_id":"4","last_reported":1741025582,"current_range_meters":6400,"station_id":"ce4bhl12rcd13ifvqgf0","pricing_plan_id":"cebpf4jnsgd1na2vs0mg"},{"bike_id":"8f8dd40b-f180-4b82-8442-d6f609ffd81e","system_id":"levelo_inurba_marseille","lat":43.29434,"lon":5.39744,"is_reserved":false,"is_disabled":false,"rental_uris":{"android":"levelo://app?vid=8f8dd40b-f180-4b82-8442-d6f609ffd81e","ios":"levelo://app?vid=8f8dd40b-f180-4b82-8442-d6f609ffd81e"},"vehicle_type_id":"4","last_reported":1741025582,"current_range_meters":6400,"station_id":"ce4bh3h2rcd13ifvqdo0","pricing_plan_id":"cebpf4jnsgd1na2vs0mg"},{"bike_id":"83e96fc2-577d-4bdd-a82a-f6df6246bb8f","system_id":"levelo_inurba_marseille","lat":43.29278,"lon":5.36849,"is_reserved":false,"is_disabled":false,"rental_uris":{"android":"levelo://app?vid=83e96fc2-577d-4bdd-a82a-f6df6246bb8f","ios":"levelo://app?vid=83e96fc2-577d-4bdd-a82a-f6df6246bb8f"},"vehicle_type_id":"4","last_reported":1741025582,"current_range_meters":6400,"station_id":"ce4bhbp2rcd13ifvqesg","pricing_plan_id":"cebpf4jnsgd1na2vs0mg"},{"bike_id":"8672da92-70c3-4f38-995a-67415c731b34","system_id":"levelo_inurba_marseille","lat":43.28839,"lon":5.39317,"is_reserved":false,"is_disabled":false,"rental_uris":{"android":"levelo://app?vid=8672da92-70c3-4f38-995a-67415c731b34","ios":"levelo://app?vid=8672da92-70c3-4f38-995a-67415c731b34"},"vehicle_type_id":"4","last_reported":1741025582,"current_range_meters":6400,"station_id":"ce4bh2p2rcd13ifvqdi0","pricing_plan_id":"cebpf4jnsgd1na2vs0mg"},{"bike_id":"42f0f7f6-b75e-4adf-a826-79abd9d163e3","system_id":"levelo_inurba_marseille","lat":43.29536,"lon":5.3854,"is_reserved":false,"is_disabled":false,"rental_uris":{"android":"levelo://app?vid=42f0f7f6-b75e-4adf-a826-79abd9d163e3","ios":"levelo://app?vid=42f0f7f6-b75e-4adf-a826-79abd9d163e3"},"vehicle_type_id":"4","last_reported":1741025582,"current_range_meters":6000,"station_id":"ce4bgih2rcd13ifvqba0","pricing_plan_id":"cebpf4jnsgd1na2vs0mg"},{"bike_id":"252b2bfa-4455-4741-9631-e65d3f23ad24","system_id":"levelo_inurba_marseille","lat":43.29188,"lon":5.35799,"is_reserved":false,"is_disabled":false,"rental_uris":{"android":"levelo://app?vid=252b2bfa-4455-4741-9631-e65d3f23ad24","ios":"levelo://app?vid=252b2bfa-4455-4741-9631-e65d3f23ad24"},"vehicle_type_id":"4","last_reported":1741025582,"current_range_meters":6400,"station_id":"ce4bhb12rcd13ifvqel0","pricing_plan_id":"cebpf4jnsgd1na2vs0mg"},{"bike_id":"ed66d6d0-2199-4330-a81f-5b8beacb5347","system_id":"levelo_inurba_marseille","lat":43.28426,"lon":5.37523,"is_reserved":false,"is_disabled":false,"rental_uris":{"android":"levelo://app?vid=ed66d6d0-2199-4330-a81f-5b8beacb5347","ios":"levelo://app?vid=ed66d6d0-2199-4330-a81f-5b8beacb5347"},"vehicle_type_id":"4","last_reported":1741025582,"current_range_meters":6400,"station_id":"ce4bh412rcd13ifvqds0","pricing_plan_id":"cebpf4jnsgd1na2vs0mg"},{"bike_id":"d1b38336-63c7-4d2d-a2d6-75d4567269de","system_id":"levelo_inurba_marseille","lat":43.30727,"lon":5.40045,"is_reserved":false,"is_disabled":false,"rental_uris":{"android":"levelo://app?vid=d1b38336-63c7-4d2d-a2d6-75d4567269de","ios":"levelo://app?vid=d1b38336-63c7-4d2d-a2d6-75d4567269de"},"vehicle_type_id":"4","last_reported":1741025582,"current_range_meters":6400,"station_id":"ce4bgvp2rcd13ifvqct0","pricing_plan_id":"cebpf4jnsgd1na2vs0mg"},{"bike_id":"40323d2b-7fa4-44fa-8afd-3105efa74518","system_id":"levelo_inurba_marseille","lat":43.24157,"lon":5.3975,"is_reserved":false,"is_disabled":false,"rental_uris":{"android":"levelo://app?vid=40323d2b-7fa4-44fa-8afd-3105efa74518","ios":"levelo://app?vid=40323d2b-7fa4-44fa-8afd-3105efa74518"},"vehicle_type_id":"4","last_reported":1741025582,"current_range_meters":6800,"station_id":"ce4bhn12rcd13ifvqgpg","pricing_plan_id":"cebpf4jnsgd1na2vs0mg"},{"bike_id":"dd58c828-81ee-47ec-a123-229f5c3d1d28","system_id":"levelo_inurba_marseille","lat":43.27823,"lon":5.40713,"is_reserved":false,"is_disabled":false,"rental_uris":{"android":"levelo://app?vid=dd58c828-81ee-47ec-a123-229f5c3d1d28","ios":"levelo://app?vid=dd58c828-81ee-47ec-a123-229f5c3d1d28"},"vehicle_type_id":"4","last_reported":1741025582,"current_range_meters":6800,"station_id":"ce4bhnh2rcd13ifvqgtg","pricing_plan_id":"cebpf4jnsgd1na2vs0mg"},{"bike_id":"e570d6c1-cc4e-42a8-a853-3a66a5e91138","system_id":"levelo_inurba_marseille","lat":43.23062,"lon":5.3549,"is_reserved":false,"is_disabled":false,"rental_uris":{"android":"levelo://app?vid=e570d6c1-cc4e-42a8-a853-3a66a5e91138","ios":"levelo://app?vid=e570d6c1-cc4e-42a8-a853-3a66a5e91138"},"vehicle_type_id":"4","last_reported":1741025582,"current_range_meters":6800,"station_id":"cpo3342slgdg3j2ifvpg","pricing_plan_id":"cebpf4jnsgd1na2vs0mg"},{"bike_id":"0da19de4-8b44-4869-a665-2f30fac4e862","system_id":"levelo_inurba_marseille","lat":43.27915,"lon":5.39602,"is_reserved":false,"is_disabled":false,"rental_uris":{"android":"levelo://app?vid=0da19de4-8b44-4869-a665-2f30fac4e862","ios":"levelo://app?vid=0da19de4-8b44-4869-a665-2f30fac4e862"},"vehicle_type_id":"4","last_reported":1741025582,"current_range_meters":6800,"station_id":"ce4bhf92rcd13ifvqf40","pricing_plan_id":"cebpf4jnsgd1na2vs0mg"},{"bike_id":"1f40556b-f6d2-483c-bc28-9e41ebbedc0d","system_id":"levelo_inurba_marseille","lat":43.30349,"lon":5.4189,"is_reserved":false,"is_disabled":false,"rental_uris":{"android":"levelo://app?vid=1f40556b-f6d2-483c-bc28-9e41ebbedc0d","ios":"levelo://app?vid=1f40556b-f6d2-483c-bc28-9e41ebbedc0d"},"vehicle_type_id":"4","last_reported":1741025582,"current_range_meters":6800,"station_id":"ce4bhop2rcd13ifvqh7g","pricing_plan_id":"cebpf4jnsgd1na2vs0mg"},{"bike_id":"28a4acd0-dd27-455e-b138-02b8712c27cb","system_id":"levelo_inurba_marseille","lat":43.308,"lon":5.38144,"is_reserved":false,"is_disabled":false,"rental_uris":{"android":"levelo://app?vid=28a4acd0-dd27-455e-b138-02b8712c27cb","ios":"levelo://app?vid=28a4acd0-dd27-455e-b138-02b8712c27cb"},"vehicle_type_id":"4","last_reported":1741025582,"current_range_meters":2000,"station_id":"ce4bgt12rcd13ifvqce0","pricing_plan_id":"cebpf4jnsgd1na2vs0mg"},{"bike_id":"9f66a5e2-41d9-460b-9a43-2bbba38b9148","system_id":"levelo_inurba_marseille","lat":43.29848,"lon":5.36282,"is_reserved":false,"is_disabled":false,"rental_uris":{"android":"levelo://app?vid=9f66a5e2-41d9-460b-9a43-2bbba38b9148","ios":"levelo://app?vid=9f66a5e2-41d9-460b-9a43-2bbba38b9148"},"vehicle_type_id":"4","last_reported":1741025582,"current_range_meters":6800,"station_id":"ce4bgpp2rcd13ifvqc3g","pricing_plan_id":"cebpf4jnsgd1na2vs0mg"},{"bike_id":"e9152aba-470f-4633-ab57-9b14c579b87a","system_id":"levelo_inurba_marseille","lat":43.29844,"lon":5.36272,"is_reserved":false,"is_disabled":false,"rental_uris":{"android":"levelo://app?vid=e9152aba-470f-4633-ab57-9b14c579b87a","ios":"levelo://app?vid=e9152aba-470f-4633-ab57-9b14c579b87a"},"vehicle_type_id":"4","last_reported":1741025582,"current_range_meters":6800,"station_id":"ce4bgpp2rcd13ifvqc3g","pricing_plan_id":"cebpf4jnsgd1na2vs0mg"},{"bike_id":"1621e0c3-0194-4d15-8a8b-87beecb39238","system_id":"levelo_inurba_marseille","lat":43.31994,"lon":5.38156,"is_reserved":false,"is_disabled":true,"rental_uris":{"android":"levelo://app?vid=1621e0c3-0194-4d15-8a8b-87beecb39238","ios":"levelo://app?vid=1621e0c3-0194-4d15-8a8b-87beecb39238"},"vehicle_type_id":"4","last_reported":1741025582,"current_range_meters":7200,"station_id":"ce4bhr12rcd13ifvqhpg","pricing_plan_id":"cebpf4jnsgd1na2vs0mg"},{"bike_id":"fbf28f9b-a67c-4172-8539-73534f87395b","system_id":"levelo_inurba_marseille","lat":43.27616,"lon":5.36117,"is_reserved":false,"is_disabled":false,"rental_uris":{"android":"levelo://app?vid=fbf28f9b-a67c-4172-8539-73534f87395b","ios":"levelo://app?vid=fbf28f9b-a67c-4172-8539-73534f87395b"},"vehicle_type_id":"4","last_reported":1741025582,"current_range_meters":8000,"station_id":"ce4bgj92rcd13ifvqbe0","pricing_plan_id":"cebpf4jnsgd1na2vs0mg"},{"bike_id":"a1e7e777-09c6-469c-a373-c31474ce4e9c","system_id":"levelo_inurba_marseille","lat":43.28671,"lon":5.36362,"is_reserved":false,"is_disabled":false,"rental_uris":{"android":"levelo://app?vid=a1e7e777-09c6-469c-a373-c31474ce4e9c","ios":"levelo://app?vid=a1e7e777-09c6-469c-a373-c31474ce4e9c"},"vehicle_type_id":"4","last_reported":1741025582,"current_range_meters":7200,"station_id":"ce4bhah2rcd13ifvqej0","pricing_plan_id":"cebpf4jnsgd1na2vs0mg"},{"bike_id":"f1c8f5e3-cdda-43f4-a454-326ddfcc2175","system_id":"levelo_inurba_marseille","lat":43.29129,"lon":5.38625,"is_reserved":false,"is_disabled":true,"rental_uris":{"android":"levelo://app?vid=f1c8f5e3-cdda-43f4-a454-326ddfcc2175","ios":"levelo://app?vid=f1c8f5e3-cdda-43f4-a454-326ddfcc2175"},"vehicle_type_id":"4","last_reported":1741025582,"current_range_meters":7200,"station_id":"","pricing_plan_id":"cebpf4jnsgd1na2vs0mg"},{"bike_id":"2daa11be-071f-479c-9bd0-92101cc53d8c","system_id":"levelo_inurba_marseille","lat":43.28071,"lon":5.39639,"is_reserved":false,"is_disabled":false,"rental_uris":{"android":"levelo://app?vid=2daa11be-071f-479c-9bd0-92101cc53d8c","ios":"levelo://app?vid=2daa11be-071f-479c-9bd0-92101cc53d8c"},"vehicle_type_id":"4","last_reported":1741025582,"current_range_meters":7200,"station_id":"ce4bho12rcd13ifvqh2g","pricing_plan_id":"cebpf4jnsgd1na2vs0mg"},{"bike_id":"5cd0c11b-f9d6-428f-9f34-0abc9c264bfe","system_id":"levelo_inurba_marseille","lat":43.27978,"lon":5.4167,"is_reserved":false,"is_disabled":false,"rental_uris":{"android":"levelo://app?vid=5cd0c11b-f9d6-428f-9f34-0abc9c264bfe","ios":"levelo://app?vid=5cd0c11b-f9d6-428f-9f34-0abc9c264bfe"},"vehicle_type_id":"4","last_reported":1741025582,"current_range_meters":7200,"station_id":"ce4bho12rcd13ifvqh1g","pricing_plan_id":"cebpf4jnsgd1na2vs0mg"},{"bike_id":"6882fdeb-c50f-4170-a23d-e93b62843123","system_id":"levelo_inurba_marseille","lat":43.31374,"lon":5.38498,"is_reserved":false,"is_disabled":false,"rental_uris":{"android":"levelo://app?vid=6882fdeb-c50f-4170-a23d-e93b62843123","ios":"levelo://app?vid=6882fdeb-c50f-4170-a23d-e93b62843123"},"vehicle_type_id":"4","last_reported":1741025582,"current_range_meters":7200,"station_id":"ce4bgt92rcd13ifvqcf0","pricing_plan_id":"cebpf4jnsgd1na2vs0mg"},{"bike_id":"232499b3-0afe-409e-b179-d21bfa5b759f","system_id":"levelo_inurba_marseille","lat":43.27175,"lon":5.40989,"is_reserved":false,"is_disabled":false,"rental_uris":{"android":"levelo://app?vid=232499b3-0afe-409e-b179-d21bfa5b759f","ios":"levelo://app?vid=232499b3-0afe-409e-b179-d21bfa5b759f"},"vehicle_type_id":"4","last_reported":1741025582,"current_range_meters":7200,"station_id":"ce4bhl12rcd13ifvqgf0","pricing_plan_id":"cebpf4jnsgd1na2vs0mg"},{"bike_id":"e5c7b951-96f3-4712-ae68-3c48a4a0dc49","system_id":"levelo_inurba_marseille","lat":43.29412,"lon":5.38643,"is_reserved":false,"is_disabled":false,"rental_uris":{"android":"levelo://app?vid=e5c7b951-96f3-4712-ae68-3c48a4a0dc49","ios":"levelo://app?vid=e5c7b951-96f3-4712-ae68-3c48a4a0dc49"},"vehicle_type_id":"4","last_reported":1741025582,"current_range_meters":7200,"station_id":"ce4bh2h2rcd13ifvqdh0","pricing_plan_id":"cebpf4jnsgd1na2vs0mg"},{"bike_id":"aa546ddd-ae8d-4e0f-9536-5b70745585d3","system_id":"levelo_inurba_marseille","lat":43.25019,"lon":5.38907,"is_reserved":false,"is_disabled":false,"rental_uris":{"android":"levelo://app?vid=aa546ddd-ae8d-4e0f-9536-5b70745585d3","ios":"levelo://app?vid=aa546ddd-ae8d-4e0f-9536-5b70745585d3"},"vehicle_type_id":"4","last_reported":1741025582,"current_range_meters":7200,"station_id":"ce4bhgp2rcd13ifvqfd0","pricing_plan_id":"cebpf4jnsgd1na2vs0mg"},{"bike_id":"9db49163-1bcf-4cb4-975b-b1e9ddf4e6d9","system_id":"levelo_inurba_marseille","lat":43.27178,"lon":5.4099,"is_reserved":false,"is_disabled":false,"rental_uris":{"android":"levelo://app?vid=9db49163-1bcf-4cb4-975b-b1e9ddf4e6d9","ios":"levelo://app?vid=9db49163-1bcf-4cb4-975b-b1e9ddf4e6d9"},"vehicle_type_id":"4","last_reported":1741025582,"current_range_meters":7200,"station_id":"ce4bhl12rcd13ifvqgf0","pricing_plan_id":"cebpf4jnsgd1na2vs0mg"},{"bike_id":"706e7193-670f-47a7-9e21-8bda838d6fed","system_id":"levelo_inurba_marseille","lat":43.29193,"lon":5.358,"is_reserved":false,"is_disabled":false,"rental_uris":{"android":"levelo://app?vid=706e7193-670f-47a7-9e21-8bda838d6fed","ios":"levelo://app?vid=706e7193-670f-47a7-9e21-8bda838d6fed"},"vehicle_type_id":"4","last_reported":1741025582,"current_range_meters":8000,"station_id":"ce4bhb12rcd13ifvqel0","pricing_plan_id":"cebpf4jnsgd1na2vs0mg"},{"bike_id":"e1993c30-bf76-4bdd-b6e8-6751d5d1e137","system_id":"levelo_inurba_marseille","lat":43.28577,"lon":5.39481,"is_reserved":false,"is_disabled":false,"rental_uris":{"android":"levelo://app?vid=e1993c30-bf76-4bdd-b6e8-6751d5d1e137","ios":"levelo://app?vid=e1993c30-bf76-4bdd-b6e8-6751d5d1e137"},"vehicle_type_id":"4","last_reported":1741025582,"current_range_meters":7200,"station_id":"ce4bh292rcd13ifvqdg0","pricing_plan_id":"cebpf4jnsgd1na2vs0mg"},{"bike_id":"8b588a1b-e6bc-475f-8819-8f86ccee7320","system_id":"levelo_inurba_marseille","lat":43.29574,"lon":5.37512,"is_reserved":false,"is_disabled":false,"rental_uris":{"android":"levelo://app?vid=8b588a1b-e6bc-475f-8819-8f86ccee7320","ios":"levelo://app?vid=8b588a1b-e6bc-475f-8819-8f86ccee7320"},"vehicle_type_id":"4","last_reported":1741025582,"current_range_meters":8000,"station_id":"ce4bgh92rcd13ifvqb50","pricing_plan_id":"cebpf4jnsgd1na2vs0mg"},{"bike_id":"a811e3d7-1dee-4873-b03b-9fdf1f228188","system_id":"levelo_inurba_marseille","lat":43.32286,"lon":5.38277,"is_reserved":false,"is_disabled":false,"rental_uris":{"android":"levelo://app?vid=a811e3d7-1dee-4873-b03b-9fdf1f228188","ios":"levelo://app?vid=a811e3d7-1dee-4873-b03b-9fdf1f228188"},"vehicle_type_id":"4","last_reported":1741025582,"current_range_meters":8000,"station_id":"ce4bhr12rcd13ifvqhqg","pricing_plan_id":"cebpf4jnsgd1na2vs0mg"},{"bike_id":"6229b5e8-8d17-4294-a915-b97f6de0103d","system_id":"levelo_inurba_marseille","lat":43.25581,"lon":5.38233,"is_reserved":false,"is_disabled":false,"rental_uris":{"android":"levelo://app?vid=6229b5e8-8d17-4294-a915-b97f6de0103d","ios":"levelo://app?vid=6229b5e8-8d17-4294-a915-b97f6de0103d"},"vehicle_type_id":"4","last_reported":1741025582,"current_range_meters":8000,"station_id":"ce4bhih2rcd13ifvqfs0","pricing_plan_id":"cebpf4jnsgd1na2vs0mg"},{"bike_id":"2d4e1c3e-7392-4616-b3cf-646345a17bd5","system_id":"levelo_inurba_marseille","lat":43.29564,"lon":5.42311,"is_reserved":false,"is_disabled":true,"rental_uris":{"android":"levelo://app?vid=2d4e1c3e-7392-4616-b3cf-646345a17bd5","ios":"levelo://app?vid=2d4e1c3e-7392-4616-b3cf-646345a17bd5"},"vehicle_type_id":"4","last_reported":1741025582,"current_range_meters":8000,"station_id":"ce4bhph2rcd13ifvqhdg","pricing_plan_id":"cebpf4jnsgd1na2vs0mg"},{"bike_id":"73681137-6538-4684-87ec-aa9b29720d1e","system_id":"levelo_inurba_marseille","lat":43.23193,"lon":5.35552,"is_reserved":false,"is_disabled":false,"rental_uris":{"android":"levelo://app?vid=73681137-6538-4684-87ec-aa9b29720d1e","ios":"levelo://app?vid=73681137-6538-4684-87ec-aa9b29720d1e"},"vehicle_type_id":"4","last_reported":1741025582,"current_range_meters":8000,"station_id":"ce4bhu92rcd13ifvqi70","pricing_plan_id":"cebpf4jnsgd1na2vs0mg"},{"bike_id":"93c78c45-afab-486c-8bef-c2b3d219a8cf","system_id":"levelo_inurba_marseille","lat":43.27057,"lon":5.42279,"is_reserved":false,"is_disabled":false,"rental_uris":{"android":"levelo://app?vid=93c78c45-afab-486c-8bef-c2b3d219a8cf","ios":"levelo://app?vid=93c78c45-afab-486c-8bef-c2b3d219a8cf"},"vehicle_type_id":"4","last_reported":1741025582,"current_range_meters":8000,"station_id":"ce4bhk92rcd13ifvqgb0","pricing_plan_id":"cebpf4jnsgd1na2vs0mg"},{"bike_id":"c7272122-9a1e-467d-83b5-c72298005b8c","system_id":"levelo_inurba_marseille","lat":43.24671,"lon":5.3891,"is_reserved":false,"is_disabled":false,"rental_uris":{"android":"levelo://app?vid=c7272122-9a1e-467d-83b5-c72298005b8c","ios":"levelo://app?vid=c7272122-9a1e-467d-83b5-c72298005b8c"},"vehicle_type_id":"4","last_reported":1741025582,"current_range_meters":8000,"station_id":"ce4bhg12rcd13ifvqf60","pricing_plan_id":"cebpf4jnsgd1na2vs0mg"},{"bike_id":"7beb47f0-bca2-4cd8-9f55-3506347c0160","system_id":"levelo_inurba_marseille","lat":43.28414,"lon":5.37513,"is_reserved":false,"is_disabled":false,"rental_uris":{"android":"levelo://app?vid=7beb47f0-bca2-4cd8-9f55-3506347c0160","ios":"levelo://app?vid=7beb47f0-bca2-4cd8-9f55-3506347c0160"},"vehicle_type_id":"4","last_reported":1741025582,"current_range_meters":8000,"station_id":"ce4bh412rcd13ifvqds0","pricing_plan_id":"cebpf4jnsgd1na2vs0mg"},{"bike_id":"0a42b506-aec3-4369-808c-c91f0f7eb197","system_id":"levelo_inurba_marseille","lat":43.2558,"lon":5.38238,"is_reserved":false,"is_disabled":false,"rental_uris":{"android":"levelo://app?vid=0a42b506-aec3-4369-808c-c91f0f7eb197","ios":"levelo://app?vid=0a42b506-aec3-4369-808c-c91f0f7eb197"},"vehicle_type_id":"4","last_reported":1741025582,"current_range_meters":8000,"station_id":"ce4bhih2rcd13ifvqfs0","pricing_plan_id":"cebpf4jnsgd1na2vs0mg"},{"bike_id":"c8070ed8-318d-4c33-b298-5eae217b6ae4","system_id":"levelo_inurba_marseille","lat":43.30206,"lon":5.36634,"is_reserved":false,"is_disabled":false,"rental_uris":{"android":"levelo://app?vid=c8070ed8-318d-4c33-b298-5eae217b6ae4","ios":"levelo://app?vid=c8070ed8-318d-4c33-b298-5eae217b6ae4"},"vehicle_type_id":"4","last_reported":1741025582,"current_range_meters":8000,"station_id":"ce4bgrh2rcd13ifvqc8g","pricing_plan_id":"cebpf4jnsgd1na2vs0mg"},{"bike_id":"0ba22404-67c9-4eb7-9136-36c97968d0b2","system_id":"levelo_inurba_marseille","lat":43.28571,"lon":5.3949,"is_reserved":false,"is_disabled":false,"rental_uris":{"android":"levelo://app?vid=0ba22404-67c9-4eb7-9136-36c97968d0b2","ios":"levelo://app?vid=0ba22404-67c9-4eb7-9136-36c97968d0b2"},"vehicle_type_id":"4","last_reported":1741025582,"current_range_meters":8000,"station_id":"ce4bh292rcd13ifvqdg0","pricing_plan_id":"cebpf4jnsgd1na2vs0mg"},{"bike_id":"e77f09dd-d237-439c-be51-7b824e23b900","system_id":"levelo_inurba_marseille","lat":43.28568,"lon":5.39491,"is_reserved":false,"is_disabled":false,"rental_uris":{"android":"levelo://app?vid=e77f09dd-d237-439c-be51-7b824e23b900","ios":"levelo://app?vid=e77f09dd-d237-439c-be51-7b824e23b900"},"vehicle_type_id":"4","last_reported":1741025582,"current_range_meters":8400,"station_id":"ce4bh292rcd13ifvqdg0","pricing_plan_id":"cebpf4jnsgd1na2vs0mg"},{"bike_id":"4b575ab2-a31e-4081-8bb3-8826d6991932","system_id":"levelo_inurba_marseille","lat":43.292176,"lon":5.360336,"is_reserved":false,"is_disabled":false,"rental_uris":{"android":"levelo://app?vid=4b575ab2-a31e-4081-8bb3-8826d6991932","ios":"levelo://app?vid=4b575ab2-a31e-4081-8bb3-8826d6991932"},"vehicle_type_id":"4","last_reported":1741025582,"current_range_meters":8400,"station_id":"ce4bgi92rcd13ifvqb90","pricing_plan_id":"cebpf4jnsgd1na2vs0mg"},{"bike_id":"2c5733e9-6ebf-4b64-b21c-e11779b202c9","system_id":"levelo_inurba_marseille","lat":43.27968,"lon":5.38752,"is_reserved":false,"is_disabled":false,"rental_uris":{"android":"levelo://app?vid=2c5733e9-6ebf-4b64-b21c-e11779b202c9","ios":"levelo://app?vid=2c5733e9-6ebf-4b64-b21c-e11779b202c9"},"vehicle_type_id":"4","last_reported":1741025582,"current_range_meters":8400,"station_id":"ce4bhg12rcd13ifvqf80","pricing_plan_id":"cebpf4jnsgd1na2vs0mg"},{"bike_id":"1d34f648-5239-430b-90b9-0227061e3556","system_id":"levelo_inurba_marseille","lat":43.28622,"lon":5.37055,"is_reserved":false,"is_disabled":false,"rental_uris":{"android":"levelo://app?vid=1d34f648-5239-430b-90b9-0227061e3556","ios":"levelo://app?vid=1d34f648-5239-430b-90b9-0227061e3556"},"vehicle_type_id":"4","last_reported":1741025582,"current_range_meters":8400,"station_id":"ce4bht12rcd13ifvqi60","pricing_plan_id":"cebpf4jnsgd1na2vs0mg"},{"bike_id":"b179f933-dd3b-4fed-a422-1f4d3282af1a","system_id":"levelo_inurba_marseille","lat":43.28574,"lon":5.39488,"is_reserved":false,"is_disabled":false,"rental_uris":{"android":"levelo://app?vid=b179f933-dd3b-4fed-a422-1f4d3282af1a","ios":"levelo://app?vid=b179f933-dd3b-4fed-a422-1f4d3282af1a"},"vehicle_type_id":"4","last_reported":1741025582,"current_range_meters":8400,"station_id":"ce4bh292rcd13ifvqdg0","pricing_plan_id":"cebpf4jnsgd1na2vs0mg"},{"bike_id":"1808ccc6-d295-4f5e-beb6-1400f13c98a2","system_id":"levelo_inurba_marseille","lat":43.28154,"lon":5.42644,"is_reserved":false,"is_disabled":false,"rental_uris":{"android":"levelo://app?vid=1808ccc6-d295-4f5e-beb6-1400f13c98a2","ios":"levelo://app?vid=1808ccc6-d295-4f5e-beb6-1400f13c98a2"},"vehicle_type_id":"4","last_reported":1741025582,"current_range_meters":8400,"station_id":"ce4bhnh2rcd13ifvqgug","pricing_plan_id":"cebpf4jnsgd1na2vs0mg"},{"bike_id":"2ab11bbe-a968-4ea2-8a15-b47f3045ae38","system_id":"levelo_inurba_marseille","lat":43.23191,"lon":5.39982,"is_reserved":false,"is_disabled":false,"rental_uris":{"android":"levelo://app?vid=2ab11bbe-a968-4ea2-8a15-b47f3045ae38","ios":"levelo://app?vid=2ab11bbe-a968-4ea2-8a15-b47f3045ae38"},"vehicle_type_id":"4","last_reported":1741025582,"current_range_meters":8400,"station_id":"ce4bhn12rcd13ifvqgqg","pricing_plan_id":"cebpf4jnsgd1na2vs0mg"},{"bike_id":"c42528a1-04e5-41cc-b83d-89f1b31ea23a","system_id":"levelo_inurba_marseille","lat":43.29847,"lon":5.36278,"is_reserved":false,"is_disabled":false,"rental_uris":{"android":"levelo://app?vid=c42528a1-04e5-41cc-b83d-89f1b31ea23a","ios":"levelo://app?vid=c42528a1-04e5-41cc-b83d-89f1b31ea23a"},"vehicle_type_id":"4","last_reported":1741025582,"current_range_meters":8400,"station_id":"ce4bgpp2rcd13ifvqc3g","pricing_plan_id":"cebpf4jnsgd1na2vs0mg"},{"bike_id":"cc33fbb4-9af6-4003-b965-a7312e3c1cb7","system_id":"levelo_inurba_marseille","lat":43.29732,"lon":5.37892,"is_reserved":false,"is_disabled":false,"rental_uris":{"android":"levelo://app?vid=cc33fbb4-9af6-4003-b965-a7312e3c1cb7","ios":"levelo://app?vid=cc33fbb4-9af6-4003-b965-a7312e3c1cb7"},"vehicle_type_id":"4","last_reported":1741025582,"current_range_meters":8400,"station_id":"","pricing_plan_id":"cebpf4jnsgd1na2vs0mg"},{"bike_id":"63d5966d-c5d3-4903-a125-c5cb202a1d2a","system_id":"levelo_inurba_marseille","lat":43.28157,"lon":5.42649,"is_reserved":false,"is_disabled":false,"rental_uris":{"android":"levelo://app?vid=63d5966d-c5d3-4903-a125-c5cb202a1d2a","ios":"levelo://app?vid=63d5966d-c5d3-4903-a125-c5cb202a1d2a"},"vehicle_type_id":"4","last_reported":1741025582,"current_range_meters":8400,"station_id":"ce4bhnh2rcd13ifvqgug","pricing_plan_id":"cebpf4jnsgd1na2vs0mg"},{"bike_id":"49b98a4e-1ea4-4cd8-9288-0564488de080","system_id":"levelo_inurba_marseille","lat":43.30318,"lon":5.40432,"is_reserved":false,"is_disabled":false,"rental_uris":{"android":"levelo://app?vid=49b98a4e-1ea4-4cd8-9288-0564488de080","ios":"levelo://app?vid=49b98a4e-1ea4-4cd8-9288-0564488de080"},"vehicle_type_id":"4","last_reported":1741025582,"current_range_meters":8400,"station_id":"ce4bh012rcd13ifvqd10","pricing_plan_id":"cebpf4jnsgd1na2vs0mg"},{"bike_id":"21cc7709-8ff0-44df-9e35-bc733d4d952f","system_id":"levelo_inurba_marseille","lat":43.26794,"lon":5.39408,"is_reserved":false,"is_disabled":false,"rental_uris":{"android":"levelo://app?vid=21cc7709-8ff0-44df-9e35-bc733d4d952f","ios":"levelo://app?vid=21cc7709-8ff0-44df-9e35-bc733d4d952f"},"vehicle_type_id":"4","last_reported":1741025582,"current_range_meters":8400,"station_id":"ce4bhh12rcd13ifvqfg0","pricing_plan_id":"cebpf4jnsgd1na2vs0mg"},{"bike_id":"53532bc8-627e-45c4-b35a-6fafd885cec5","system_id":"levelo_inurba_marseille","lat":43.32121,"lon":5.36782,"is_reserved":false,"is_disabled":false,"rental_uris":{"android":"levelo://app?vid=53532bc8-627e-45c4-b35a-6fafd885cec5","ios":"levelo://app?vid=53532bc8-627e-45c4-b35a-6fafd885cec5"},"vehicle_type_id":"4","last_reported":1741025582,"current_range_meters":8400,"station_id":"ce4bhrh2rcd13ifvqhug","pricing_plan_id":"cebpf4jnsgd1na2vs0mg"},{"bike_id":"e5cc295a-bb37-400d-b07c-79830e0f9d2e","system_id":"levelo_inurba_marseille","lat":43.27821,"lon":5.40707,"is_reserved":false,"is_disabled":false,"rental_uris":{"android":"levelo://app?vid=e5cc295a-bb37-400d-b07c-79830e0f9d2e","ios":"levelo://app?vid=e5cc295a-bb37-400d-b07c-79830e0f9d2e"},"vehicle_type_id":"4","last_reported":1741025582,"current_range_meters":8400,"station_id":"ce4bhnh2rcd13ifvqgtg","pricing_plan_id":"cebpf4jnsgd1na2vs0mg"},{"bike_id":"5da70b26-5045-4fcf-85cf-7f68a925e135","system_id":"levelo_inurba_marseille","lat":43.27991,"lon":5.41663,"is_reserved":false,"is_disabled":false,"rental_uris":{"android":"levelo://app?vid=5da70b26-5045-4fcf-85cf-7f68a925e135","ios":"levelo://app?vid=5da70b26-5045-4fcf-85cf-7f68a925e135"},"vehicle_type_id":"4","last_reported":1741025582,"current_range_meters":8400,"station_id":"ce4bho12rcd13ifvqh1g","pricing_plan_id":"cebpf4jnsgd1na2vs0mg"},{"bike_id":"cdb7b82b-8591-427b-abcc-5cab10bc4c90","system_id":"levelo_inurba_marseille","lat":43.29848,"lon":5.36274,"is_reserved":false,"is_disabled":false,"rental_uris":{"android":"levelo://app?vid=cdb7b82b-8591-427b-abcc-5cab10bc4c90","ios":"levelo://app?vid=cdb7b82b-8591-427b-abcc-5cab10bc4c90"},"vehicle_type_id":"4","last_reported":1741025582,"current_range_meters":8400,"station_id":"ce4bgpp2rcd13ifvqc3g","pricing_plan_id":"cebpf4jnsgd1na2vs0mg"},{"bike_id":"f381c9bd-14fa-41ab-b589-3ecebd6dfe48","system_id":"levelo_inurba_marseille","lat":43.32366,"lon":5.36758,"is_reserved":false,"is_disabled":false,"rental_uris":{"android":"levelo://app?vid=f381c9bd-14fa-41ab-b589-3ecebd6dfe48","ios":"levelo://app?vid=f381c9bd-14fa-41ab-b589-3ecebd6dfe48"},"vehicle_type_id":"4","last_reported":1741025582,"current_range_meters":8400,"station_id":"ce4bhsh2rcd13ifvqi2g","pricing_plan_id":"cebpf4jnsgd1na2vs0mg"},{"bike_id":"21695fff-f155-4839-904c-88b17112f7ea","system_id":"levelo_inurba_marseille","lat":43.28403,"lon":5.37516,"is_reserved":false,"is_disabled":false,"rental_uris":{"android":"levelo://app?vid=21695fff-f155-4839-904c-88b17112f7ea","ios":"levelo://app?vid=21695fff-f155-4839-904c-88b17112f7ea"},"vehicle_type_id":"4","last_reported":1741025582,"current_range_meters":8400,"station_id":"ce4bh412rcd13ifvqds0","pricing_plan_id":"cebpf4jnsgd1na2vs0mg"},{"bike_id":"237ebcae-4772-497f-ba77-5d5de2444161","system_id":"levelo_inurba_marseille","lat":43.29712,"lon":5.37699,"is_reserved":false,"is_disabled":false,"rental_uris":{"android":"levelo://app?vid=237ebcae-4772-497f-ba77-5d5de2444161","ios":"levelo://app?vid=237ebcae-4772-497f-ba77-5d5de2444161"},"vehicle_type_id":"4","last_reported":1741025582,"current_range_meters":8800,"station_id":"ce4bgkh2rcd13ifvqbl0","pricing_plan_id":"cebpf4jnsgd1na2vs0mg"},{"bike_id":"27d79748-37ff-44a9-9b3c-91da3ce4c1f0","system_id":"levelo_inurba_marseille","lat":43.28928,"lon":5.36395,"is_reserved":false,"is_disabled":false,"rental_uris":{"android":"levelo://app?vid=27d79748-37ff-44a9-9b3c-91da3ce4c1f0","ios":"levelo://app?vid=27d79748-37ff-44a9-9b3c-91da3ce4c1f0"},"vehicle_type_id":"4","last_reported":1741025582,"current_range_meters":7200,"station_id":"ce4bhc92rcd13ifvqetg","pricing_plan_id":"cebpf4jnsgd1na2vs0mg"},{"bike_id":"c04c4ea4-532c-414b-9d66-15d88c0c5022","system_id":"levelo_inurba_marseille","lat":43.31328,"lon":5.39693,"is_reserved":false,"is_disabled":false,"rental_uris":{"android":"levelo://app?vid=c04c4ea4-532c-414b-9d66-15d88c0c5022","ios":"levelo://app?vid=c04c4ea4-532c-414b-9d66-15d88c0c5022"},"vehicle_type_id":"4","last_reported":1741025582,"current_range_meters":8800,"station_id":"ce4bgvp2rcd13ifvqcu0","pricing_plan_id":"cebpf4jnsgd1na2vs0mg"},{"bike_id":"5b863c47-62e9-40b1-aea1-6e784dcce31d","system_id":"levelo_inurba_marseille","lat":43.29888,"lon":5.36301,"is_reserved":false,"is_disabled":false,"rental_uris":{"android":"levelo://app?vid=5b863c47-62e9-40b1-aea1-6e784dcce31d","ios":"levelo://app?vid=5b863c47-62e9-40b1-aea1-6e784dcce31d"},"vehicle_type_id":"4","last_reported":1741025582,"current_range_meters":8400,"station_id":"","pricing_plan_id":"cebpf4jnsgd1na2vs0mg"},{"bike_id":"d7ce44cc-3af2-4647-93ca-8a6f7b44c256","system_id":"levelo_inurba_marseille","lat":43.3279,"lon":5.3915,"is_reserved":false,"is_disabled":false,"rental_uris":{"android":"levelo://app?vid=d7ce44cc-3af2-4647-93ca-8a6f7b44c256","ios":"levelo://app?vid=d7ce44cc-3af2-4647-93ca-8a6f7b44c256"},"vehicle_type_id":"4","last_reported":1741025582,"current_range_meters":8800,"station_id":"","pricing_plan_id":"cebpf4jnsgd1na2vs0mg"},{"bike_id":"4abe806a-87a2-4c2c-be72-683cd5c447ef","system_id":"levelo_inurba_marseille","lat":43.29531,"lon":5.38543,"is_reserved":false,"is_disabled":false,"rental_uris":{"android":"levelo://app?vid=4abe806a-87a2-4c2c-be72-683cd5c447ef","ios":"levelo://app?vid=4abe806a-87a2-4c2c-be72-683cd5c447ef"},"vehicle_type_id":"4","last_reported":1741025582,"current_range_meters":8800,"station_id":"ce4bgih2rcd13ifvqba0","pricing_plan_id":"cebpf4jnsgd1na2vs0mg"},{"bike_id":"326adf4d-7bfc-4fa1-9ba9-213b4d4c47fa","system_id":"levelo_inurba_marseille","lat":43.27897,"lon":5.38,"is_reserved":false,"is_disabled":false,"rental_uris":{"android":"levelo://app?vid=326adf4d-7bfc-4fa1-9ba9-213b4d4c47fa","ios":"levelo://app?vid=326adf4d-7bfc-4fa1-9ba9-213b4d4c47fa"},"vehicle_type_id":"4","last_reported":1741025582,"current_range_meters":9200,"station_id":"ce4bhf92rcd13ifvqf50","pricing_plan_id":"cebpf4jnsgd1na2vs0mg"},{"bike_id":"08272454-3723-4d05-8bf6-1eaae2029b64","system_id":"levelo_inurba_marseille","lat":43.27825,"lon":5.40708,"is_reserved":false,"is_disabled":false,"rental_uris":{"android":"levelo://app?vid=08272454-3723-4d05-8bf6-1eaae2029b64","ios":"levelo://app?vid=08272454-3723-4d05-8bf6-1eaae2029b64"},"vehicle_type_id":"4","last_reported":1741025582,"current_range_meters":9200,"station_id":"ce4bhnh2rcd13ifvqgtg","pricing_plan_id":"cebpf4jnsgd1na2vs0mg"},{"bike_id":"fa97178a-c212-4138-aba1-4b5afb87e532","system_id":"levelo_inurba_marseille","lat":43.24171,"lon":5.36428,"is_reserved":false,"is_disabled":false,"rental_uris":{"android":"levelo://app?vid=fa97178a-c212-4138-aba1-4b5afb87e532","ios":"levelo://app?vid=fa97178a-c212-4138-aba1-4b5afb87e532"},"vehicle_type_id":"4","last_reported":1741025582,"current_range_meters":9200,"station_id":"cpo36qri1sfpv3e86is0","pricing_plan_id":"cebpf4jnsgd1na2vs0mg"},{"bike_id":"d0e107ba-f41b-4faf-94d8-0b22c9b79135","system_id":"levelo_inurba_marseille","lat":43.29853,"lon":5.36289,"is_reserved":false,"is_disabled":false,"rental_uris":{"android":"levelo://app?vid=d0e107ba-f41b-4faf-94d8-0b22c9b79135","ios":"levelo://app?vid=d0e107ba-f41b-4faf-94d8-0b22c9b79135"},"vehicle_type_id":"4","last_reported":1741025582,"current_range_meters":9600,"station_id":"ce4bgpp2rcd13ifvqc3g","pricing_plan_id":"cebpf4jnsgd1na2vs0mg"},{"bike_id":"fb4e5389-f097-4d99-a943-568a1475e331","system_id":"levelo_inurba_marseille","lat":43.23068,"lon":5.35496,"is_reserved":false,"is_disabled":false,"rental_uris":{"android":"levelo://app?vid=fb4e5389-f097-4d99-a943-568a1475e331","ios":"levelo://app?vid=fb4e5389-f097-4d99-a943-568a1475e331"},"vehicle_type_id":"4","last_reported":1741025582,"current_range_meters":9200,"station_id":"cpo3342slgdg3j2ifvpg","pricing_plan_id":"cebpf4jnsgd1na2vs0mg"},{"bike_id":"b21e25bd-5fe3-4b4c-9515-724946c2cde8","system_id":"levelo_inurba_marseille","lat":43.28454,"lon":5.35888,"is_reserved":false,"is_disabled":false,"rental_uris":{"android":"levelo://app?vid=b21e25bd-5fe3-4b4c-9515-724946c2cde8","ios":"levelo://app?vid=b21e25bd-5fe3-4b4c-9515-724946c2cde8"},"vehicle_type_id":"4","last_reported":1741025582,"current_range_meters":9200,"station_id":"ce4bhah2rcd13ifvqei0","pricing_plan_id":"cebpf4jnsgd1na2vs0mg"},{"bike_id":"ab90568d-3957-4c40-bbce-77cf8f7d5250","system_id":"levelo_inurba_marseille","lat":43.29845,"lon":5.36262,"is_reserved":false,"is_disabled":false,"rental_uris":{"android":"levelo://app?vid=ab90568d-3957-4c40-bbce-77cf8f7d5250","ios":"levelo://app?vid=ab90568d-3957-4c40-bbce-77cf8f7d5250"},"vehicle_type_id":"4","last_reported":1741025582,"current_range_meters":9200,"station_id":"ce4bgpp2rcd13ifvqc3g","pricing_plan_id":"cebpf4jnsgd1na2vs0mg"},{"bike_id":"0c943d4e-54e6-4eb2-ba36-1216e5ea5e52","system_id":"levelo_inurba_marseille","lat":43.29173,"lon":5.37159,"is_reserved":false,"is_disabled":false,"rental_uris":{"android":"levelo://app?vid=0c943d4e-54e6-4eb2-ba36-1216e5ea5e52","ios":"levelo://app?vid=0c943d4e-54e6-4eb2-ba36-1216e5ea5e52"},"vehicle_type_id":"4","last_reported":1741025582,"current_range_meters":9200,"station_id":"ce4bha92rcd13ifvqeh0","pricing_plan_id":"cebpf4jnsgd1na2vs0mg"},{"bike_id":"6d4c1863-5b62-4c5a-885f-92e7721e779d","system_id":"levelo_inurba_marseille","lat":43.28454,"lon":5.35892,"is_reserved":false,"is_disabled":false,"rental_uris":{"android":"levelo://app?vid=6d4c1863-5b62-4c5a-885f-92e7721e779d","ios":"levelo://app?vid=6d4c1863-5b62-4c5a-885f-92e7721e779d"},"vehicle_type_id":"4","last_reported":1741025582,"current_range_meters":9200,"station_id":"ce4bhah2rcd13ifvqei0","pricing_plan_id":"cebpf4jnsgd1na2vs0mg"},{"bike_id":"b39b1018-4e48-4939-acdb-f4fc8f78493b","system_id":"levelo_inurba_marseille","lat":43.29711,"lon":5.36612,"is_reserved":false,"is_disabled":false,"rental_uris":{"android":"levelo://app?vid=b39b1018-4e48-4939-acdb-f4fc8f78493b","ios":"levelo://app?vid=b39b1018-4e48-4939-acdb-f4fc8f78493b"},"vehicle_type_id":"4","last_reported":1741025582,"current_range_meters":9200,"station_id":"ce4bgn12rcd13ifvqbt0","pricing_plan_id":"cebpf4jnsgd1na2vs0mg"},{"bike_id":"8fd7d9f7-e8bc-417d-8642-b3fc5e66e788","system_id":"levelo_inurba_marseille","lat":43.29863,"lon":5.39742,"is_reserved":false,"is_disabled":false,"rental_uris":{"android":"levelo://app?vid=8fd7d9f7-e8bc-417d-8642-b3fc5e66e788","ios":"levelo://app?vid=8fd7d9f7-e8bc-417d-8642-b3fc5e66e788"},"vehicle_type_id":"4","last_reported":1741025582,"current_range_meters":9200,"station_id":"ce4bh0h2rcd13ifvqd50","pricing_plan_id":"cebpf4jnsgd1na2vs0mg"},{"bike_id":"f30da5ef-75e6-4588-b6ea-a3a272cd4258","system_id":"levelo_inurba_marseille","lat":43.31729,"lon":5.40448,"is_reserved":false,"is_disabled":false,"rental_uris":{"android":"levelo://app?vid=f30da5ef-75e6-4588-b6ea-a3a272cd4258","ios":"levelo://app?vid=f30da5ef-75e6-4588-b6ea-a3a272cd4258"},"vehicle_type_id":"4","last_reported":1741025582,"current_range_meters":9200,"station_id":"ce4bh012rcd13ifvqd00","pricing_plan_id":"cebpf4jnsgd1na2vs0mg"},{"bike_id":"474b314c-3a52-4e17-bbda-10f41385b1a6","system_id":"levelo_inurba_marseille","lat":43.30598,"lon":5.3723,"is_reserved":false,"is_disabled":false,"rental_uris":{"android":"levelo://app?vid=474b314c-3a52-4e17-bbda-10f41385b1a6","ios":"levelo://app?vid=474b314c-3a52-4e17-bbda-10f41385b1a6"},"vehicle_type_id":"4","last_reported":1741025582,"current_range_meters":9200,"station_id":"ce4bgqh2rcd13ifvqc4g","pricing_plan_id":"cebpf4jnsgd1na2vs0mg"},{"bike_id":"a613146e-205c-4ac2-9bb8-137d6e383c53","system_id":"levelo_inurba_marseille","lat":43.31364,"lon":5.38491,"is_reserved":false,"is_disabled":false,"rental_uris":{"android":"levelo://app?vid=a613146e-205c-4ac2-9bb8-137d6e383c53","ios":"levelo://app?vid=a613146e-205c-4ac2-9bb8-137d6e383c53"},"vehicle_type_id":"4","last_reported":1741025582,"current_range_meters":9200,"station_id":"ce4bgt92rcd13ifvqcf0","pricing_plan_id":"cebpf4jnsgd1na2vs0mg"},{"bike_id":"33291494-a652-4004-b9dc-29f835ee44f6","system_id":"levelo_inurba_marseille","lat":43.31325,"lon":5.39691,"is_reserved":false,"is_disabled":false,"rental_uris":{"android":"levelo://app?vid=33291494-a652-4004-b9dc-29f835ee44f6","ios":"levelo://app?vid=33291494-a652-4004-b9dc-29f835ee44f6"},"vehicle_type_id":"4","last_reported":1741025582,"current_range_meters":9200,"station_id":"ce4bgvp2rcd13ifvqcu0","pricing_plan_id":"cebpf4jnsgd1na2vs0mg"},{"bike_id":"e41e0bb8-6c1c-4ce2-b18d-069e130ca183","system_id":"levelo_inurba_marseille","lat":43.23062,"lon":5.35495,"is_reserved":false,"is_disabled":false,"rental_uris":{"android":"levelo://app?vid=e41e0bb8-6c1c-4ce2-b18d-069e130ca183","ios":"levelo://app?vid=e41e0bb8-6c1c-4ce2-b18d-069e130ca183"},"vehicle_type_id":"4","last_reported":1741025582,"current_range_meters":9200,"station_id":"cpo3342slgdg3j2ifvpg","pricing_plan_id":"cebpf4jnsgd1na2vs0mg"},{"bike_id":"287c2a25-1fed-4a46-8308-749b1041b4c2","system_id":"levelo_inurba_marseille","lat":43.30633,"lon":5.40087,"is_reserved":false,"is_disabled":false,"rental_uris":{"android":"levelo://app?vid=287c2a25-1fed-4a46-8308-749b1041b4c2","ios":"levelo://app?vid=287c2a25-1fed-4a46-8308-749b1041b4c2"},"vehicle_type_id":"4","last_reported":1741025582,"current_range_meters":9200,"station_id":"ce4bh112rcd13ifvqda0","pricing_plan_id":"cebpf4jnsgd1na2vs0mg"},{"bike_id":"0755ca8d-d678-412a-9680-fc81c3a7963d","system_id":"levelo_inurba_marseille","lat":43.31119,"lon":5.37768,"is_reserved":false,"is_disabled":false,"rental_uris":{"android":"levelo://app?vid=0755ca8d-d678-412a-9680-fc81c3a7963d","ios":"levelo://app?vid=0755ca8d-d678-412a-9680-fc81c3a7963d"},"vehicle_type_id":"4","last_reported":1741025582,"current_range_meters":9600,"station_id":"ce4bgt92rcd13ifvqcg0","pricing_plan_id":"cebpf4jnsgd1na2vs0mg"},{"bike_id":"2f0b80d9-59f7-4334-be85-b33604a2c47a","system_id":"levelo_inurba_marseille","lat":43.24165,"lon":5.36401,"is_reserved":false,"is_disabled":false,"rental_uris":{"android":"levelo://app?vid=2f0b80d9-59f7-4334-be85-b33604a2c47a","ios":"levelo://app?vid=2f0b80d9-59f7-4334-be85-b33604a2c47a"},"vehicle_type_id":"4","last_reported":1741025582,"current_range_meters":9600,"station_id":"cpo36qri1sfpv3e86is0","pricing_plan_id":"cebpf4jnsgd1na2vs0mg"},{"bike_id":"37d9e898-844e-45de-b77f-9a11fad75122","system_id":"levelo_inurba_marseille","lat":43.31324,"lon":5.39703,"is_reserved":false,"is_disabled":false,"rental_uris":{"android":"levelo://app?vid=37d9e898-844e-45de-b77f-9a11fad75122","ios":"levelo://app?vid=37d9e898-844e-45de-b77f-9a11fad75122"},"vehicle_type_id":"4","last_reported":1741025582,"current_range_meters":9600,"station_id":"ce4bgvp2rcd13ifvqcu0","pricing_plan_id":"cebpf4jnsgd1na2vs0mg"},{"bike_id":"ce8ef3d2-07e3-4512-8813-bcde53a01429","system_id":"levelo_inurba_marseille","lat":43.24166,"lon":5.36401,"is_reserved":false,"is_disabled":false,"rental_uris":{"android":"levelo://app?vid=ce8ef3d2-07e3-4512-8813-bcde53a01429","ios":"levelo://app?vid=ce8ef3d2-07e3-4512-8813-bcde53a01429"},"vehicle_type_id":"4","last_reported":1741025582,"current_range_meters":9600,"station_id":"cpo36qri1sfpv3e86is0","pricing_plan_id":"cebpf4jnsgd1na2vs0mg"},{"bike_id":"8853f3b9-20a3-4480-9c1d-81721e27d9f9","system_id":"levelo_inurba_marseille","lat":43.26055,"lon":5.39392,"is_reserved":false,"is_disabled":false,"rental_uris":{"android":"levelo://app?vid=8853f3b9-20a3-4480-9c1d-81721e27d9f9","ios":"levelo://app?vid=8853f3b9-20a3-4480-9c1d-81721e27d9f9"},"vehicle_type_id":"4","last_reported":1741025582,"current_range_meters":9600,"station_id":"ce4bhh92rcd13ifvqfj0","pricing_plan_id":"cebpf4jnsgd1na2vs0mg"},{"bike_id":"a11758d5-07f0-4cb4-9cdf-b92aa9ee9012","system_id":"levelo_inurba_marseille","lat":43.3112,"lon":5.37774,"is_reserved":false,"is_disabled":false,"rental_uris":{"android":"levelo://app?vid=a11758d5-07f0-4cb4-9cdf-b92aa9ee9012","ios":"levelo://app?vid=a11758d5-07f0-4cb4-9cdf-b92aa9ee9012"},"vehicle_type_id":"4","last_reported":1741025582,"current_range_meters":9600,"station_id":"ce4bgt92rcd13ifvqcg0","pricing_plan_id":"cebpf4jnsgd1na2vs0mg"},{"bike_id":"be31ef24-0361-4749-8728-d17a39a445a5","system_id":"levelo_inurba_marseille","lat":43.290039,"lon":5.356169,"is_reserved":false,"is_disabled":false,"rental_uris":{"android":"levelo://app?vid=be31ef24-0361-4749-8728-d17a39a445a5","ios":"levelo://app?vid=be31ef24-0361-4749-8728-d17a39a445a5"},"vehicle_type_id":"4","last_reported":1741025582,"current_range_meters":9200,"station_id":"ce4bha92rcd13ifvqeh0","pricing_plan_id":"cebpf4jnsgd1na2vs0mg"},{"bike_id":"9d899a44-ef7b-4dfb-83a5-bc04d8272ac1","system_id":"levelo_inurba_marseille","lat":43.28153,"lon":5.42628,"is_reserved":false,"is_disabled":false,"rental_uris":{"android":"levelo://app?vid=9d899a44-ef7b-4dfb-83a5-bc04d8272ac1","ios":"levelo://app?vid=9d899a44-ef7b-4dfb-83a5-bc04d8272ac1"},"vehicle_type_id":"4","last_reported":1741025582,"current_range_meters":9600,"station_id":"ce4bhnh2rcd13ifvqgug","pricing_plan_id":"cebpf4jnsgd1na2vs0mg"},{"bike_id":"69c64ec9-e24d-4807-ad49-cbbbaf87179a","system_id":"levelo_inurba_marseille","lat":43.269425,"lon":5.40255,"is_reserved":false,"is_disabled":false,"rental_uris":{"android":"levelo://app?vid=69c64ec9-e24d-4807-ad49-cbbbaf87179a","ios":"levelo://app?vid=69c64ec9-e24d-4807-ad49-cbbbaf87179a"},"vehicle_type_id":"4","last_reported":1741025582,"current_range_meters":9600,"station_id":"cjm6bp8fraef2m0cb0m0","pricing_plan_id":"cebpf4jnsgd1na2vs0mg"},{"bike_id":"8ade5181-cd88-4ece-8534-46a6372826ef","system_id":"levelo_inurba_marseille","lat":43.27698,"lon":5.41542,"is_reserved":false,"is_disabled":false,"rental_uris":{"android":"levelo://app?vid=8ade5181-cd88-4ece-8534-46a6372826ef","ios":"levelo://app?vid=8ade5181-cd88-4ece-8534-46a6372826ef"},"vehicle_type_id":"4","last_reported":1741025582,"current_range_meters":9600,"station_id":"","pricing_plan_id":"cebpf4jnsgd1na2vs0mg"},{"bike_id":"e6d9f684-9eb1-4df9-a51b-f285cd96d65d","system_id":"levelo_inurba_marseille","lat":43.2501,"lon":5.38923,"is_reserved":false,"is_disabled":false,"rental_uris":{"android":"levelo://app?vid=e6d9f684-9eb1-4df9-a51b-f285cd96d65d","ios":"levelo://app?vid=e6d9f684-9eb1-4df9-a51b-f285cd96d65d"},"vehicle_type_id":"4","last_reported":1741025582,"current_range_meters":9200,"station_id":"ce4bhgp2rcd13ifvqfd0","pricing_plan_id":"cebpf4jnsgd1na2vs0mg"},{"bike_id":"906dac32-f189-4c4f-a62b-4c12c0b5c90b","system_id":"levelo_inurba_marseille","lat":43.29702,"lon":5.36605,"is_reserved":false,"is_disabled":false,"rental_uris":{"android":"levelo://app?vid=906dac32-f189-4c4f-a62b-4c12c0b5c90b","ios":"levelo://app?vid=906dac32-f189-4c4f-a62b-4c12c0b5c90b"},"vehicle_type_id":"4","last_reported":1741025582,"current_range_meters":9200,"station_id":"ce4bgn12rcd13ifvqbt0","pricing_plan_id":"cebpf4jnsgd1na2vs0mg"},{"bike_id":"b3e66660-ec1c-42ea-8782-8b8d085180e6","system_id":"levelo_inurba_marseille","lat":43.29337,"lon":5.40183,"is_reserved":false,"is_disabled":false,"rental_uris":{"android":"levelo://app?vid=b3e66660-ec1c-42ea-8782-8b8d085180e6","ios":"levelo://app?vid=b3e66660-ec1c-42ea-8782-8b8d085180e6"},"vehicle_type_id":"4","last_reported":1741025582,"current_range_meters":9600,"station_id":"","pricing_plan_id":"cebpf4jnsgd1na2vs0mg"},{"bike_id":"52ed2960-3236-4214-863f-931916dddea0","system_id":"levelo_inurba_marseille","lat":43.29847,"lon":5.36279,"is_reserved":false,"is_disabled":false,"rental_uris":{"android":"levelo://app?vid=52ed2960-3236-4214-863f-931916dddea0","ios":"levelo://app?vid=52ed2960-3236-4214-863f-931916dddea0"},"vehicle_type_id":"4","last_reported":1741025582,"current_range_meters":9600,"station_id":"ce4bgpp2rcd13ifvqc3g","pricing_plan_id":"cebpf4jnsgd1na2vs0mg"},{"bike_id":"eb8f5899-f8f3-4a4f-b677-a03a59c20acf","system_id":"levelo_inurba_marseille","lat":43.28265,"lon":5.35072,"is_reserved":false,"is_disabled":false,"rental_uris":{"android":"levelo://app?vid=eb8f5899-f8f3-4a4f-b677-a03a59c20acf","ios":"levelo://app?vid=eb8f5899-f8f3-4a4f-b677-a03a59c20acf"},"vehicle_type_id":"4","last_reported":1741025582,"current_range_meters":9600,"station_id":"ce4bhbp2rcd13ifvqerg","pricing_plan_id":"cebpf4jnsgd1na2vs0mg"},{"bike_id":"e5af46d8-756e-4b29-887f-202b12c3baa0","system_id":"levelo_inurba_marseille","lat":43.30399,"lon":5.41267,"is_reserved":false,"is_disabled":false,"rental_uris":{"android":"levelo://app?vid=e5af46d8-756e-4b29-887f-202b12c3baa0","ios":"levelo://app?vid=e5af46d8-756e-4b29-887f-202b12c3baa0"},"vehicle_type_id":"4","last_reported":1741025582,"current_range_meters":9600,"station_id":"ce4bhop2rcd13ifvqh8g","pricing_plan_id":"cebpf4jnsgd1na2vs0mg"},{"bike_id":"e7d02aea-a5f1-47d2-9f85-fe1a246d83da","system_id":"levelo_inurba_marseille","lat":43.323683,"lon":5.38881,"is_reserved":false,"is_disabled":false,"rental_uris":{"android":"levelo://app?vid=e7d02aea-a5f1-47d2-9f85-fe1a246d83da","ios":"levelo://app?vid=e7d02aea-a5f1-47d2-9f85-fe1a246d83da"},"vehicle_type_id":"4","last_reported":1741025582,"current_range_meters":9600,"station_id":"ce4bhqp2rcd13ifvqhog","pricing_plan_id":"cebpf4jnsgd1na2vs0mg"},{"bike_id":"5f6058f8-17d6-41f9-bf21-73aab62a2071","system_id":"levelo_inurba_marseille","lat":43.25838,"lon":5.39433,"is_reserved":false,"is_disabled":false,"rental_uris":{"android":"levelo://app?vid=5f6058f8-17d6-41f9-bf21-73aab62a2071","ios":"levelo://app?vid=5f6058f8-17d6-41f9-bf21-73aab62a2071"},"vehicle_type_id":"4","last_reported":1741025582,"current_range_meters":10000,"station_id":"ce4bhip2rcd13ifvqft0","pricing_plan_id":"cebpf4jnsgd1na2vs0mg"},{"bike_id":"c8c30254-af6a-4a88-b0b6-9a3a52022bea","system_id":"levelo_inurba_marseille","lat":43.32452,"lon":5.42686,"is_reserved":false,"is_disabled":false,"rental_uris":{"android":"levelo://app?vid=c8c30254-af6a-4a88-b0b6-9a3a52022bea","ios":"levelo://app?vid=c8c30254-af6a-4a88-b0b6-9a3a52022bea"},"vehicle_type_id":"4","last_reported":1741025582,"current_range_meters":10000,"station_id":"","pricing_plan_id":"cebpf4jnsgd1na2vs0mg"},{"bike_id":"5b69c928-069c-4522-8a93-8676e4f351de","system_id":"levelo_inurba_marseille","lat":43.2845,"lon":5.35888,"is_reserved":false,"is_disabled":false,"rental_uris":{"android":"levelo://app?vid=5b69c928-069c-4522-8a93-8676e4f351de","ios":"levelo://app?vid=5b69c928-069c-4522-8a93-8676e4f351de"},"vehicle_type_id":"4","last_reported":1741025582,"current_range_meters":10000,"station_id":"ce4bhah2rcd13ifvqei0","pricing_plan_id":"cebpf4jnsgd1na2vs0mg"},{"bike_id":"18a7242b-225b-49ea-8234-70f41c530e96","system_id":"levelo_inurba_marseille","lat":43.316732,"lon":5.40639,"is_reserved":false,"is_disabled":false,"rental_uris":{"android":"levelo://app?vid=18a7242b-225b-49ea-8234-70f41c530e96","ios":"levelo://app?vid=18a7242b-225b-49ea-8234-70f41c530e96"},"vehicle_type_id":"4","last_reported":1741025582,"current_range_meters":10000,"station_id":"ce4bh012rcd13ifvqd00","pricing_plan_id":"cebpf4jnsgd1na2vs0mg"},{"bike_id":"a5020805-be88-495d-afa8-0bcb28acc7e4","system_id":"levelo_inurba_marseille","lat":43.28464,"lon":5.35886,"is_reserved":false,"is_disabled":false,"rental_uris":{"android":"levelo://app?vid=a5020805-be88-495d-afa8-0bcb28acc7e4","ios":"levelo://app?vid=a5020805-be88-495d-afa8-0bcb28acc7e4"},"vehicle_type_id":"4","last_reported":1741025582,"current_range_meters":10000,"station_id":"ce4bhah2rcd13ifvqei0","pricing_plan_id":"cebpf4jnsgd1na2vs0mg"},{"bike_id":"8a926c1c-bce9-43a8-b444-8cbd0ddeca91","system_id":"levelo_inurba_marseille","lat":43.337444,"lon":5.374475,"is_reserved":false,"is_disabled":true,"rental_uris":{"android":"levelo://app?vid=8a926c1c-bce9-43a8-b444-8cbd0ddeca91","ios":"levelo://app?vid=8a926c1c-bce9-43a8-b444-8cbd0ddeca91"},"vehicle_type_id":"4","last_reported":1741025582,"current_range_meters":10000,"station_id":"","pricing_plan_id":"cebpf4jnsgd1na2vs0mg"},{"bike_id":"38c28c87-2db6-43ea-a2db-429724f2ded0","system_id":"levelo_inurba_marseille","lat":43.2932,"lon":5.41149,"is_reserved":false,"is_disabled":false,"rental_uris":{"android":"levelo://app?vid=38c28c87-2db6-43ea-a2db-429724f2ded0","ios":"levelo://app?vid=38c28c87-2db6-43ea-a2db-429724f2ded0"},"vehicle_type_id":"4","last_reported":1741025582,"current_range_meters":10000,"station_id":"","pricing_plan_id":"cebpf4jnsgd1na2vs0mg"},{"bike_id":"ea31f633-5a4c-441c-a4b2-1fa1bb2b942d","system_id":"levelo_inurba_marseille","lat":43.26226,"lon":5.40453,"is_reserved":false,"is_disabled":false,"rental_uris":{"android":"levelo://app?vid=ea31f633-5a4c-441c-a4b2-1fa1bb2b942d","ios":"levelo://app?vid=ea31f633-5a4c-441c-a4b2-1fa1bb2b942d"},"vehicle_type_id":"4","last_reported":1741025582,"current_range_meters":10000,"station_id":"ce4bhmh2rcd13ifvqgmg","pricing_plan_id":"cebpf4jnsgd1na2vs0mg"},{"bike_id":"ec74e8fa-7d1b-4c01-aa5f-1dbe1e343246","system_id":"levelo_inurba_marseille","lat":43.27914,"lon":5.38014,"is_reserved":false,"is_disabled":false,"rental_uris":{"android":"levelo://app?vid=ec74e8fa-7d1b-4c01-aa5f-1dbe1e343246","ios":"levelo://app?vid=ec74e8fa-7d1b-4c01-aa5f-1dbe1e343246"},"vehicle_type_id":"4","last_reported":1741025582,"current_range_meters":10000,"station_id":"ce4bhf92rcd13ifvqf50","pricing_plan_id":"cebpf4jnsgd1na2vs0mg"},{"bike_id":"d6dcf2df-22f4-4acc-bb5a-fc34fb6762ee","system_id":"levelo_inurba_marseille","lat":43.24822,"lon":5.37362,"is_reserved":false,"is_disabled":false,"rental_uris":{"android":"levelo://app?vid=d6dcf2df-22f4-4acc-bb5a-fc34fb6762ee","ios":"levelo://app?vid=d6dcf2df-22f4-4acc-bb5a-fc34fb6762ee"},"vehicle_type_id":"4","last_reported":1741025582,"current_range_meters":10000,"station_id":"","pricing_plan_id":"cebpf4jnsgd1na2vs0mg"},{"bike_id":"8db2b8e3-db8c-46d1-8782-db1b004c8ba7","system_id":"levelo_inurba_marseille","lat":43.2926,"lon":5.40907,"is_reserved":false,"is_disabled":false,"rental_uris":{"android":"levelo://app?vid=8db2b8e3-db8c-46d1-8782-db1b004c8ba7","ios":"levelo://app?vid=8db2b8e3-db8c-46d1-8782-db1b004c8ba7"},"vehicle_type_id":"4","last_reported":1741025582,"current_range_meters":10000,"station_id":"ce4bh192rcd13ifvqdc0","pricing_plan_id":"cebpf4jnsgd1na2vs0mg"},{"bike_id":"e050ad58-e075-41aa-8e17-492ee41865be","system_id":"levelo_inurba_marseille","lat":43.26062,"lon":5.39398,"is_reserved":false,"is_disabled":false,"rental_uris":{"android":"levelo://app?vid=e050ad58-e075-41aa-8e17-492ee41865be","ios":"levelo://app?vid=e050ad58-e075-41aa-8e17-492ee41865be"},"vehicle_type_id":"4","last_reported":1741025582,"current_range_meters":10000,"station_id":"ce4bhh92rcd13ifvqfj0","pricing_plan_id":"cebpf4jnsgd1na2vs0mg"},{"bike_id":"795b5029-686c-4648-a2ae-f255de8e2a97","system_id":"levelo_inurba_marseille","lat":43.28715,"lon":5.40006,"is_reserved":false,"is_disabled":false,"rental_uris":{"android":"levelo://app?vid=795b5029-686c-4648-a2ae-f255de8e2a97","ios":"levelo://app?vid=795b5029-686c-4648-a2ae-f255de8e2a97"},"vehicle_type_id":"4","last_reported":1741025582,"current_range_meters":10800,"station_id":"ce4bho92rcd13ifvqh3g","pricing_plan_id":"cebpf4jnsgd1na2vs0mg"},{"bike_id":"853e9f93-6f18-4242-b269-d87025e7bb93","system_id":"levelo_inurba_marseille","lat":43.30712,"lon":5.37082,"is_reserved":false,"is_disabled":false,"rental_uris":{"android":"levelo://app?vid=853e9f93-6f18-4242-b269-d87025e7bb93","ios":"levelo://app?vid=853e9f93-6f18-4242-b269-d87025e7bb93"},"vehicle_type_id":"4","last_reported":1741025582,"current_range_meters":10800,"station_id":"","pricing_plan_id":"cebpf4jnsgd1na2vs0mg"},{"bike_id":"49772e11-e9a6-4b66-91ef-b5a71df20676","system_id":"levelo_inurba_marseille","lat":43.26941,"lon":5.40247,"is_reserved":false,"is_disabled":false,"rental_uris":{"android":"levelo://app?vid=49772e11-e9a6-4b66-91ef-b5a71df20676","ios":"levelo://app?vid=49772e11-e9a6-4b66-91ef-b5a71df20676"},"vehicle_type_id":"4","last_reported":1741025582,"current_range_meters":10800,"station_id":"cjm6bp8fraef2m0cb0m0","pricing_plan_id":"cebpf4jnsgd1na2vs0mg"},{"bike_id":"0b5ab9ed-5549-4439-8ff6-c1eccd69c256","system_id":"levelo_inurba_marseille","lat":43.28939,"lon":5.36402,"is_reserved":false,"is_disabled":false,"rental_uris":{"android":"levelo://app?vid=0b5ab9ed-5549-4439-8ff6-c1eccd69c256","ios":"levelo://app?vid=0b5ab9ed-5549-4439-8ff6-c1eccd69c256"},"vehicle_type_id":"4","last_reported":1741025582,"current_range_meters":10800,"station_id":"ce4bhc92rcd13ifvqetg","pricing_plan_id":"cebpf4jnsgd1na2vs0mg"},{"bike_id":"71cd5d9d-c4a9-4d7f-b25c-bd7ceef0b27e","system_id":"levelo_inurba_marseille","lat":43.31288,"lon":5.37752,"is_reserved":false,"is_disabled":false,"rental_uris":{"android":"levelo://app?vid=71cd5d9d-c4a9-4d7f-b25c-bd7ceef0b27e","ios":"levelo://app?vid=71cd5d9d-c4a9-4d7f-b25c-bd7ceef0b27e"},"vehicle_type_id":"4","last_reported":1741025582,"current_range_meters":10800,"station_id":"","pricing_plan_id":"cebpf4jnsgd1na2vs0mg"},{"bike_id":"74fb79f1-a582-4c73-9e69-06d92c848802","system_id":"levelo_inurba_marseille","lat":43.291645,"lon":5.37156,"is_reserved":false,"is_disabled":false,"rental_uris":{"android":"levelo://app?vid=74fb79f1-a582-4c73-9e69-06d92c848802","ios":"levelo://app?vid=74fb79f1-a582-4c73-9e69-06d92c848802"},"vehicle_type_id":"4","last_reported":1741025582,"current_range_meters":10800,"station_id":"cki0cbj6b192h4jlfktg","pricing_plan_id":"cebpf4jnsgd1na2vs0mg"},{"bike_id":"caedf473-9313-4874-87c8-230b4a1efdb8","system_id":"levelo_inurba_marseille","lat":43.32491,"lon":5.36556,"is_reserved":false,"is_disabled":false,"rental_uris":{"android":"levelo://app?vid=caedf473-9313-4874-87c8-230b4a1efdb8","ios":"levelo://app?vid=caedf473-9313-4874-87c8-230b4a1efdb8"},"vehicle_type_id":"4","last_reported":1741025582,"current_range_meters":10800,"station_id":"ce4bhs12rcd13ifvqhvg","pricing_plan_id":"cebpf4jnsgd1na2vs0mg"},{"bike_id":"06bb9264-3731-4f41-be82-2bc70e270533","system_id":"levelo_inurba_marseille","lat":43.27329,"lon":5.39087,"is_reserved":false,"is_disabled":false,"rental_uris":{"android":"levelo://app?vid=06bb9264-3731-4f41-be82-2bc70e270533","ios":"levelo://app?vid=06bb9264-3731-4f41-be82-2bc70e270533"},"vehicle_type_id":"4","last_reported":1741025582,"current_range_meters":11600,"station_id":"ce4bhgp2rcd13ifvqfe0","pricing_plan_id":"cebpf4jnsgd1na2vs0mg"},{"bike_id":"c2baa684-f56a-40df-b38b-80b2f7b6b9d1","system_id":"levelo_inurba_marseille","lat":43.292999,"lon":5.371812,"is_reserved":false,"is_disabled":false,"rental_uris":{"android":"levelo://app?vid=c2baa684-f56a-40df-b38b-80b2f7b6b9d1","ios":"levelo://app?vid=c2baa684-f56a-40df-b38b-80b2f7b6b9d1"},"vehicle_type_id":"4","last_reported":1741025582,"current_range_meters":10800,"station_id":"ce4bgh92rcd13ifvqb40","pricing_plan_id":"cebpf4jnsgd1na2vs0mg"},{"bike_id":"84d59691-2fe2-40f5-99af-d69b01f1f4e5","system_id":"levelo_inurba_marseille","lat":43.29197,"lon":5.39326,"is_reserved":false,"is_disabled":false,"rental_uris":{"android":"levelo://app?vid=84d59691-2fe2-40f5-99af-d69b01f1f4e5","ios":"levelo://app?vid=84d59691-2fe2-40f5-99af-d69b01f1f4e5"},"vehicle_type_id":"4","last_reported":1741025582,"current_range_meters":10800,"station_id":"ce4bh192rcd13ifvqdd0","pricing_plan_id":"cebpf4jnsgd1na2vs0mg"},{"bike_id":"ee26afb6-ba4c-4dc4-8464-b764cc25857b","system_id":"levelo_inurba_marseille","lat":43.27978,"lon":5.4104,"is_reserved":false,"is_disabled":false,"rental_uris":{"android":"levelo://app?vid=ee26afb6-ba4c-4dc4-8464-b764cc25857b","ios":"levelo://app?vid=ee26afb6-ba4c-4dc4-8464-b764cc25857b"},"vehicle_type_id":"4","last_reported":1741025582,"current_range_meters":10800,"station_id":"ce4bhnp2rcd13ifvqh0g","pricing_plan_id":"cebpf4jnsgd1na2vs0mg"},{"bike_id":"20f28f92-adf9-48e3-a33b-83ded65127c5","system_id":"levelo_inurba_marseille","lat":43.23063,"lon":5.35495,"is_reserved":false,"is_disabled":false,"rental_uris":{"android":"levelo://app?vid=20f28f92-adf9-48e3-a33b-83ded65127c5","ios":"levelo://app?vid=20f28f92-adf9-48e3-a33b-83ded65127c5"},"vehicle_type_id":"4","last_reported":1741025582,"current_range_meters":10800,"station_id":"cpo3342slgdg3j2ifvpg","pricing_plan_id":"cebpf4jnsgd1na2vs0mg"},{"bike_id":"1901130a-ffd5-42a0-b994-e2aa42548e35","system_id":"levelo_inurba_marseille","lat":43.26118,"lon":5.41487,"is_reserved":false,"is_disabled":false,"rental_uris":{"android":"levelo://app?vid=1901130a-ffd5-42a0-b994-e2aa42548e35","ios":"levelo://app?vid=1901130a-ffd5-42a0-b994-e2aa42548e35"},"vehicle_type_id":"4","last_reported":1741025582,"current_range_meters":11200,"station_id":"","pricing_plan_id":"cebpf4jnsgd1na2vs0mg"},{"bike_id":"442e17cf-9700-477c-a555-09fc8cf0081c","system_id":"levelo_inurba_marseille","lat":43.28452,"lon":5.35878,"is_reserved":false,"is_disabled":false,"rental_uris":{"android":"levelo://app?vid=442e17cf-9700-477c-a555-09fc8cf0081c","ios":"levelo://app?vid=442e17cf-9700-477c-a555-09fc8cf0081c"},"vehicle_type_id":"4","last_reported":1741025582,"current_range_meters":11200,"station_id":"ce4bhah2rcd13ifvqei0","pricing_plan_id":"cebpf4jnsgd1na2vs0mg"},{"bike_id":"99194721-dc3f-49a0-8f56-6bfa8d26454c","system_id":"levelo_inurba_marseille","lat":43.26779,"lon":5.39416,"is_reserved":false,"is_disabled":false,"rental_uris":{"android":"levelo://app?vid=99194721-dc3f-49a0-8f56-6bfa8d26454c","ios":"levelo://app?vid=99194721-dc3f-49a0-8f56-6bfa8d26454c"},"vehicle_type_id":"4","last_reported":1741025582,"current_range_meters":10000,"station_id":"ce4bhh12rcd13ifvqfg0","pricing_plan_id":"cebpf4jnsgd1na2vs0mg"},{"bike_id":"41ed89d3-77cd-4311-8513-748a0ca63c4f","system_id":"levelo_inurba_marseille","lat":43.21211,"lon":5.35279,"is_reserved":false,"is_disabled":false,"rental_uris":{"android":"levelo://app?vid=41ed89d3-77cd-4311-8513-748a0ca63c4f","ios":"levelo://app?vid=41ed89d3-77cd-4311-8513-748a0ca63c4f"},"vehicle_type_id":"4","last_reported":1741025582,"current_range_meters":11200,"station_id":"","pricing_plan_id":"cebpf4jnsgd1na2vs0mg"},{"bike_id":"c614c0ec-871b-4974-b4af-3ba6753ce54f","system_id":"levelo_inurba_marseille","lat":43.29259,"lon":5.409,"is_reserved":false,"is_disabled":false,"rental_uris":{"android":"levelo://app?vid=c614c0ec-871b-4974-b4af-3ba6753ce54f","ios":"levelo://app?vid=c614c0ec-871b-4974-b4af-3ba6753ce54f"},"vehicle_type_id":"4","last_reported":1741025582,"current_range_meters":11200,"station_id":"ce4bh192rcd13ifvqdc0","pricing_plan_id":"cebpf4jnsgd1na2vs0mg"},{"bike_id":"6af2ec8f-8b10-4d65-9fa6-4b9ac5ca92f3","system_id":"levelo_inurba_marseille","lat":43.3064,"lon":5.37253,"is_reserved":false,"is_disabled":false,"rental_uris":{"android":"levelo://app?vid=6af2ec8f-8b10-4d65-9fa6-4b9ac5ca92f3","ios":"levelo://app?vid=6af2ec8f-8b10-4d65-9fa6-4b9ac5ca92f3"},"vehicle_type_id":"4","last_reported":1741025582,"current_range_meters":11200,"station_id":"ce4bgqh2rcd13ifvqc4g","pricing_plan_id":"cebpf4jnsgd1na2vs0mg"},{"bike_id":"64953142-7637-42b4-b0d1-c449e63f1db7","system_id":"levelo_inurba_marseille","lat":43.29645,"lon":5.36042,"is_reserved":false,"is_disabled":false,"rental_uris":{"android":"levelo://app?vid=64953142-7637-42b4-b0d1-c449e63f1db7","ios":"levelo://app?vid=64953142-7637-42b4-b0d1-c449e63f1db7"},"vehicle_type_id":"4","last_reported":1741025582,"current_range_meters":11200,"station_id":"","pricing_plan_id":"cebpf4jnsgd1na2vs0mg"},{"bike_id":"e6a8cd8f-877d-401b-9e92-90d2e78b3fa8","system_id":"levelo_inurba_marseille","lat":43.30933,"lon":5.40148,"is_reserved":false,"is_disabled":false,"rental_uris":{"android":"levelo://app?vid=e6a8cd8f-877d-401b-9e92-90d2e78b3fa8","ios":"levelo://app?vid=e6a8cd8f-877d-401b-9e92-90d2e78b3fa8"},"vehicle_type_id":"4","last_reported":1741025582,"current_range_meters":11600,"station_id":"ce4bgvp2rcd13ifvqct0","pricing_plan_id":"cebpf4jnsgd1na2vs0mg"},{"bike_id":"f71f9016-cd7a-4d2f-a244-6b67297b159e","system_id":"levelo_inurba_marseille","lat":43.279104,"lon":5.416699,"is_reserved":false,"is_disabled":false,"rental_uris":{"android":"levelo://app?vid=f71f9016-cd7a-4d2f-a244-6b67297b159e","ios":"levelo://app?vid=f71f9016-cd7a-4d2f-a244-6b67297b159e"},"vehicle_type_id":"4","last_reported":1741025582,"current_range_meters":11600,"station_id":"","pricing_plan_id":"cebpf4jnsgd1na2vs0mg"},{"bike_id":"7c309f39-c40e-43c0-ba34-e6d9dc8bea4d","system_id":"levelo_inurba_marseille","lat":43.23968,"lon":5.36619,"is_reserved":false,"is_disabled":false,"rental_uris":{"android":"levelo://app?vid=7c309f39-c40e-43c0-ba34-e6d9dc8bea4d","ios":"levelo://app?vid=7c309f39-c40e-43c0-ba34-e6d9dc8bea4d"},"vehicle_type_id":"4","last_reported":1741025582,"current_range_meters":11600,"station_id":"ce4bhi12rcd13ifvqfp0","pricing_plan_id":"cebpf4jnsgd1na2vs0mg"},{"bike_id":"e1c5c3ae-30f2-4184-b3fe-bd2e90a5a45d","system_id":"levelo_inurba_marseille","lat":43.28701,"lon":5.39988,"is_reserved":false,"is_disabled":false,"rental_uris":{"android":"levelo://app?vid=e1c5c3ae-30f2-4184-b3fe-bd2e90a5a45d","ios":"levelo://app?vid=e1c5c3ae-30f2-4184-b3fe-bd2e90a5a45d"},"vehicle_type_id":"4","last_reported":1741025582,"current_range_meters":11600,"station_id":"ce4bho92rcd13ifvqh3g","pricing_plan_id":"cebpf4jnsgd1na2vs0mg"},{"bike_id":"afb7560e-1a01-4436-a426-88ed1fc86a2d","system_id":"levelo_inurba_marseille","lat":43.29789,"lon":5.39351,"is_reserved":false,"is_disabled":false,"rental_uris":{"android":"levelo://app?vid=afb7560e-1a01-4436-a426-88ed1fc86a2d","ios":"levelo://app?vid=afb7560e-1a01-4436-a426-88ed1fc86a2d"},"vehicle_type_id":"4","last_reported":1741025582,"current_range_meters":11600,"station_id":"chh1huq6cuj3fo74tm60","pricing_plan_id":"cebpf4jnsgd1na2vs0mg"},{"bike_id":"d409a01d-dad8-4a48-8752-b00f049fa24d","system_id":"levelo_inurba_marseille","lat":43.29527,"lon":5.39057,"is_reserved":false,"is_disabled":false,"rental_uris":{"android":"levelo://app?vid=d409a01d-dad8-4a48-8752-b00f049fa24d","ios":"levelo://app?vid=d409a01d-dad8-4a48-8752-b00f049fa24d"},"vehicle_type_id":"4","last_reported":1741025582,"current_range_meters":11600,"station_id":"ce4bh3p2rcd13ifvqdp0","pricing_plan_id":"cebpf4jnsgd1na2vs0mg"},{"bike_id":"cfff197d-74ac-4300-81c7-c4b6d9f1ad1a","system_id":"levelo_inurba_marseille","lat":43.258202,"lon":5.394248,"is_reserved":false,"is_disabled":false,"rental_uris":{"android":"levelo://app?vid=cfff197d-74ac-4300-81c7-c4b6d9f1ad1a","ios":"levelo://app?vid=cfff197d-74ac-4300-81c7-c4b6d9f1ad1a"},"vehicle_type_id":"4","last_reported":1741025582,"current_range_meters":11600,"station_id":"ce4bhip2rcd13ifvqft0","pricing_plan_id":"cebpf4jnsgd1na2vs0mg"},{"bike_id":"9a386038-9cc6-4b52-b406-e6a33e3dcf23","system_id":"levelo_inurba_marseille","lat":43.28475,"lon":5.35888,"is_reserved":false,"is_disabled":false,"rental_uris":{"android":"levelo://app?vid=9a386038-9cc6-4b52-b406-e6a33e3dcf23","ios":"levelo://app?vid=9a386038-9cc6-4b52-b406-e6a33e3dcf23"},"vehicle_type_id":"4","last_reported":1741025582,"current_range_meters":11600,"station_id":"ce4bhah2rcd13ifvqei0","pricing_plan_id":"cebpf4jnsgd1na2vs0mg"},{"bike_id":"362b2e41-0f7d-42ca-85b4-447baad17196","system_id":"levelo_inurba_marseille","lat":43.27197,"lon":5.41892,"is_reserved":false,"is_disabled":false,"rental_uris":{"android":"levelo://app?vid=362b2e41-0f7d-42ca-85b4-447baad17196","ios":"levelo://app?vid=362b2e41-0f7d-42ca-85b4-447baad17196"},"vehicle_type_id":"4","last_reported":1741025582,"current_range_meters":11600,"station_id":"","pricing_plan_id":"cebpf4jnsgd1na2vs0mg"},{"bike_id":"1b242bb8-a170-4f78-8fc0-651b0e6bee68","system_id":"levelo_inurba_marseille","lat":43.29305,"lon":5.37465,"is_reserved":false,"is_disabled":false,"rental_uris":{"android":"levelo://app?vid=1b242bb8-a170-4f78-8fc0-651b0e6bee68","ios":"levelo://app?vid=1b242bb8-a170-4f78-8fc0-651b0e6bee68"},"vehicle_type_id":"4","last_reported":1741025582,"current_range_meters":12000,"station_id":"ce4bgi12rcd13ifvqb70","pricing_plan_id":"cebpf4jnsgd1na2vs0mg"},{"bike_id":"d4f7eb3e-4926-4802-b174-0a57d780789a","system_id":"levelo_inurba_marseille","lat":43.27843,"lon":5.39215,"is_reserved":false,"is_disabled":false,"rental_uris":{"android":"levelo://app?vid=d4f7eb3e-4926-4802-b174-0a57d780789a","ios":"levelo://app?vid=d4f7eb3e-4926-4802-b174-0a57d780789a"},"vehicle_type_id":"4","last_reported":1741025582,"current_range_meters":12000,"station_id":"ce4bhjp2rcd13ifvqga0","pricing_plan_id":"cebpf4jnsgd1na2vs0mg"},{"bike_id":"4b8bcc6a-b1ee-4044-9ae8-7c00efea0717","system_id":"levelo_inurba_marseille","lat":43.28406,"lon":5.37508,"is_reserved":false,"is_disabled":false,"rental_uris":{"android":"levelo://app?vid=4b8bcc6a-b1ee-4044-9ae8-7c00efea0717","ios":"levelo://app?vid=4b8bcc6a-b1ee-4044-9ae8-7c00efea0717"},"vehicle_type_id":"4","last_reported":1741025582,"current_range_meters":12000,"station_id":"ce4bh412rcd13ifvqds0","pricing_plan_id":"cebpf4jnsgd1na2vs0mg"},{"bike_id":"bba5c829-32fe-4a1d-9461-a852d59caa6b","system_id":"levelo_inurba_marseille","lat":43.28846,"lon":5.39315,"is_reserved":false,"is_disabled":true,"rental_uris":{"android":"levelo://app?vid=bba5c829-32fe-4a1d-9461-a852d59caa6b","ios":"levelo://app?vid=bba5c829-32fe-4a1d-9461-a852d59caa6b"},"vehicle_type_id":"4","last_reported":1741025582,"current_range_meters":12000,"station_id":"ce4bh2p2rcd13ifvqdi0","pricing_plan_id":"cebpf4jnsgd1na2vs0mg"},{"bike_id":"ad59b830-78f7-4086-940e-9b2c1f343553","system_id":"levelo_inurba_marseille","lat":43.28,"lon":5.40015,"is_reserved":false,"is_disabled":false,"rental_uris":{"android":"levelo://app?vid=ad59b830-78f7-4086-940e-9b2c1f343553","ios":"levelo://app?vid=ad59b830-78f7-4086-940e-9b2c1f343553"},"vehicle_type_id":"4","last_reported":1741025582,"current_range_meters":12000,"station_id":"ce4bho92rcd13ifvqh4g","pricing_plan_id":"cebpf4jnsgd1na2vs0mg"},{"bike_id":"edc6e08b-54eb-442c-98f2-e378bc56925c","system_id":"levelo_inurba_marseille","lat":43.29264,"lon":5.38443,"is_reserved":false,"is_disabled":false,"rental_uris":{"android":"levelo://app?vid=edc6e08b-54eb-442c-98f2-e378bc56925c","ios":"levelo://app?vid=edc6e08b-54eb-442c-98f2-e378bc56925c"},"vehicle_type_id":"4","last_reported":1741025582,"current_range_meters":12000,"station_id":"ce4bh692rcd13ifvqea0","pricing_plan_id":"cebpf4jnsgd1na2vs0mg"},{"bike_id":"0b818497-4d97-451b-b637-cef3d02b5c9d","system_id":"levelo_inurba_marseille","lat":43.31726,"lon":5.43753,"is_reserved":false,"is_disabled":true,"rental_uris":{"android":"levelo://app?vid=0b818497-4d97-451b-b637-cef3d02b5c9d","ios":"levelo://app?vid=0b818497-4d97-451b-b637-cef3d02b5c9d"},"vehicle_type_id":"4","last_reported":1741025582,"current_range_meters":12400,"station_id":"ce4bhp92rcd13ifvqhcg","pricing_plan_id":"cebpf4jnsgd1na2vs0mg"},{"bike_id":"1e13aa38-b4c6-4bf5-aa8d-bc8ccd6223a2","system_id":"levelo_inurba_marseille","lat":43.28611,"lon":5.37063,"is_reserved":false,"is_disabled":false,"rental_uris":{"android":"levelo://app?vid=1e13aa38-b4c6-4bf5-aa8d-bc8ccd6223a2","ios":"levelo://app?vid=1e13aa38-b4c6-4bf5-aa8d-bc8ccd6223a2"},"vehicle_type_id":"4","last_reported":1741025582,"current_range_meters":11200,"station_id":"ce4bht12rcd13ifvqi60","pricing_plan_id":"cebpf4jnsgd1na2vs0mg"},{"bike_id":"e2f099d1-f34b-4777-a6fc-99802dbaad81","system_id":"levelo_inurba_marseille","lat":43.29431,"lon":5.39758,"is_reserved":false,"is_disabled":false,"rental_uris":{"android":"levelo://app?vid=e2f099d1-f34b-4777-a6fc-99802dbaad81","ios":"levelo://app?vid=e2f099d1-f34b-4777-a6fc-99802dbaad81"},"vehicle_type_id":"4","last_reported":1741025582,"current_range_meters":12400,"station_id":"ce4bh3h2rcd13ifvqdo0","pricing_plan_id":"cebpf4jnsgd1na2vs0mg"},{"bike_id":"102de46f-1f3d-42c6-b125-cb45380886c0","system_id":"levelo_inurba_marseille","lat":43.2847,"lon":5.35895,"is_reserved":false,"is_disabled":false,"rental_uris":{"android":"levelo://app?vid=102de46f-1f3d-42c6-b125-cb45380886c0","ios":"levelo://app?vid=102de46f-1f3d-42c6-b125-cb45380886c0"},"vehicle_type_id":"4","last_reported":1741025582,"current_range_meters":12400,"station_id":"ce4bhah2rcd13ifvqei0","pricing_plan_id":"cebpf4jnsgd1na2vs0mg"},{"bike_id":"57b67249-d2f2-4c2e-8490-51f6739546de","system_id":"levelo_inurba_marseille","lat":43.27995,"lon":5.40028,"is_reserved":false,"is_disabled":false,"rental_uris":{"android":"levelo://app?vid=57b67249-d2f2-4c2e-8490-51f6739546de","ios":"levelo://app?vid=57b67249-d2f2-4c2e-8490-51f6739546de"},"vehicle_type_id":"4","last_reported":1741025582,"current_range_meters":12400,"station_id":"ce4bho92rcd13ifvqh4g","pricing_plan_id":"cebpf4jnsgd1na2vs0mg"},{"bike_id":"666bd9c6-e863-415d-8e8d-91ff4aa10ceb","system_id":"levelo_inurba_marseille","lat":43.31684,"lon":5.40471,"is_reserved":false,"is_disabled":false,"rental_uris":{"android":"levelo://app?vid=666bd9c6-e863-415d-8e8d-91ff4aa10ceb","ios":"levelo://app?vid=666bd9c6-e863-415d-8e8d-91ff4aa10ceb"},"vehicle_type_id":"4","last_reported":1741025582,"current_range_meters":12800,"station_id":"ce4bh012rcd13ifvqd00","pricing_plan_id":"cebpf4jnsgd1na2vs0mg"},{"bike_id":"7b8ec8e2-e04c-4e87-b37a-dce8a69309bd","system_id":"levelo_inurba_marseille","lat":43.306229,"lon":5.401149,"is_reserved":false,"is_disabled":false,"rental_uris":{"android":"levelo://app?vid=7b8ec8e2-e04c-4e87-b37a-dce8a69309bd","ios":"levelo://app?vid=7b8ec8e2-e04c-4e87-b37a-dce8a69309bd"},"vehicle_type_id":"4","last_reported":1741025582,"current_range_meters":12800,"station_id":"ce4bh112rcd13ifvqda0","pricing_plan_id":"cebpf4jnsgd1na2vs0mg"},{"bike_id":"eae84028-3e52-4c03-8ee8-1c0d8f7087c7","system_id":"levelo_inurba_marseille","lat":43.28615,"lon":5.351,"is_reserved":false,"is_disabled":false,"rental_uris":{"android":"levelo://app?vid=eae84028-3e52-4c03-8ee8-1c0d8f7087c7","ios":"levelo://app?vid=eae84028-3e52-4c03-8ee8-1c0d8f7087c7"},"vehicle_type_id":"4","last_reported":1741025582,"current_range_meters":12800,"station_id":"ce4bhch2rcd13ifvqeug","pricing_plan_id":"cebpf4jnsgd1na2vs0mg"},{"bike_id":"89f02bdb-f27f-4275-bf5d-37eb584878bc","system_id":"levelo_inurba_marseille","lat":43.28083,"lon":5.39658,"is_reserved":false,"is_disabled":false,"rental_uris":{"android":"levelo://app?vid=89f02bdb-f27f-4275-bf5d-37eb584878bc","ios":"levelo://app?vid=89f02bdb-f27f-4275-bf5d-37eb584878bc"},"vehicle_type_id":"4","last_reported":1741025582,"current_range_meters":12800,"station_id":"ce4bho12rcd13ifvqh2g","pricing_plan_id":"cebpf4jnsgd1na2vs0mg"},{"bike_id":"bce611a7-5044-470a-9dc2-ccdbc1151c5c","system_id":"levelo_inurba_marseille","lat":43.32483,"lon":5.36562,"is_reserved":false,"is_disabled":false,"rental_uris":{"android":"levelo://app?vid=bce611a7-5044-470a-9dc2-ccdbc1151c5c","ios":"levelo://app?vid=bce611a7-5044-470a-9dc2-ccdbc1151c5c"},"vehicle_type_id":"4","last_reported":1741025582,"current_range_meters":12800,"station_id":"ce4bhs12rcd13ifvqhvg","pricing_plan_id":"cebpf4jnsgd1na2vs0mg"},{"bike_id":"e61fc92c-066a-469c-967f-4f066588d4e6","system_id":"levelo_inurba_marseille","lat":43.23195,"lon":5.3556,"is_reserved":false,"is_disabled":false,"rental_uris":{"android":"levelo://app?vid=e61fc92c-066a-469c-967f-4f066588d4e6","ios":"levelo://app?vid=e61fc92c-066a-469c-967f-4f066588d4e6"},"vehicle_type_id":"4","last_reported":1741025582,"current_range_meters":12800,"station_id":"ce4bhu92rcd13ifvqi70","pricing_plan_id":"cebpf4jnsgd1na2vs0mg"},{"bike_id":"f89c0517-1961-4d8f-87e7-b54c95f424eb","system_id":"levelo_inurba_marseille","lat":43.29418,"lon":5.38621,"is_reserved":false,"is_disabled":false,"rental_uris":{"android":"levelo://app?vid=f89c0517-1961-4d8f-87e7-b54c95f424eb","ios":"levelo://app?vid=f89c0517-1961-4d8f-87e7-b54c95f424eb"},"vehicle_type_id":"4","last_reported":1741025582,"current_range_meters":12800,"station_id":"ce4bh2h2rcd13ifvqdh0","pricing_plan_id":"cebpf4jnsgd1na2vs0mg"},{"bike_id":"2fe8f916-4590-4cd4-978d-98051b849535","system_id":"levelo_inurba_marseille","lat":43.279988,"lon":5.416632,"is_reserved":false,"is_disabled":false,"rental_uris":{"android":"levelo://app?vid=2fe8f916-4590-4cd4-978d-98051b849535","ios":"levelo://app?vid=2fe8f916-4590-4cd4-978d-98051b849535"},"vehicle_type_id":"4","last_reported":1741025582,"current_range_meters":13600,"station_id":"ce4bho12rcd13ifvqh1g","pricing_plan_id":"cebpf4jnsgd1na2vs0mg"},{"bike_id":"9de42f25-f760-4086-9a08-2934eee1b520","system_id":"levelo_inurba_marseille","lat":43.21234,"lon":5.35297,"is_reserved":false,"is_disabled":false,"rental_uris":{"android":"levelo://app?vid=9de42f25-f760-4086-9a08-2934eee1b520","ios":"levelo://app?vid=9de42f25-f760-4086-9a08-2934eee1b520"},"vehicle_type_id":"4","last_reported":1741025582,"current_range_meters":13600,"station_id":"","pricing_plan_id":"cebpf4jnsgd1na2vs0mg"},{"bike_id":"e368cf81-266f-4992-ae89-dd8dc32ae41a","system_id":"levelo_inurba_marseille","lat":43.30424,"lon":5.38878,"is_reserved":false,"is_disabled":false,"rental_uris":{"android":"levelo://app?vid=e368cf81-266f-4992-ae89-dd8dc32ae41a","ios":"levelo://app?vid=e368cf81-266f-4992-ae89-dd8dc32ae41a"},"vehicle_type_id":"4","last_reported":1741025582,"current_range_meters":13600,"station_id":"ce4bgk12rcd13ifvqbi0","pricing_plan_id":"cebpf4jnsgd1na2vs0mg"},{"bike_id":"5a0940b8-993c-4591-829a-5337243962e2","system_id":"levelo_inurba_marseille","lat":43.31999,"lon":5.38157,"is_reserved":false,"is_disabled":false,"rental_uris":{"android":"levelo://app?vid=5a0940b8-993c-4591-829a-5337243962e2","ios":"levelo://app?vid=5a0940b8-993c-4591-829a-5337243962e2"},"vehicle_type_id":"4","last_reported":1741025582,"current_range_meters":12800,"station_id":"ce4bhr12rcd13ifvqhpg","pricing_plan_id":"cebpf4jnsgd1na2vs0mg"},{"bike_id":"fc538172-abdb-42d0-9e73-20cebfb49ebf","system_id":"levelo_inurba_marseille","lat":43.28414,"lon":5.37522,"is_reserved":false,"is_disabled":false,"rental_uris":{"android":"levelo://app?vid=fc538172-abdb-42d0-9e73-20cebfb49ebf","ios":"levelo://app?vid=fc538172-abdb-42d0-9e73-20cebfb49ebf"},"vehicle_type_id":"4","last_reported":1741025582,"current_range_meters":13600,"station_id":"ce4bh412rcd13ifvqds0","pricing_plan_id":"cebpf4jnsgd1na2vs0mg"},{"bike_id":"cb813df4-3836-4634-974a-d02d99a32d8a","system_id":"levelo_inurba_marseille","lat":43.32705,"lon":5.39232,"is_reserved":false,"is_disabled":false,"rental_uris":{"android":"levelo://app?vid=cb813df4-3836-4634-974a-d02d99a32d8a","ios":"levelo://app?vid=cb813df4-3836-4634-974a-d02d99a32d8a"},"vehicle_type_id":"4","last_reported":1741025582,"current_range_meters":14000,"station_id":"","pricing_plan_id":"cebpf4jnsgd1na2vs0mg"},{"bike_id":"e4e91370-e554-4387-b1fb-5ffddc6d4231","system_id":"levelo_inurba_marseille","lat":43.25828,"lon":5.39419,"is_reserved":false,"is_disabled":false,"rental_uris":{"android":"levelo://app?vid=e4e91370-e554-4387-b1fb-5ffddc6d4231","ios":"levelo://app?vid=e4e91370-e554-4387-b1fb-5ffddc6d4231"},"vehicle_type_id":"4","last_reported":1741025582,"current_range_meters":14000,"station_id":"ce4bhip2rcd13ifvqft0","pricing_plan_id":"cebpf4jnsgd1na2vs0mg"},{"bike_id":"87ac4026-2a56-45d3-80ed-16fc4a024b85","system_id":"levelo_inurba_marseille","lat":43.28723,"lon":5.36111,"is_reserved":false,"is_disabled":false,"rental_uris":{"android":"levelo://app?vid=87ac4026-2a56-45d3-80ed-16fc4a024b85","ios":"levelo://app?vid=87ac4026-2a56-45d3-80ed-16fc4a024b85"},"vehicle_type_id":"4","last_reported":1741025582,"current_range_meters":14000,"station_id":"cki0cbj6b192h4jlfktg","pricing_plan_id":"cebpf4jnsgd1na2vs0mg"},{"bike_id":"c4eb6189-be8d-4876-9403-4e0545aa7374","system_id":"levelo_inurba_marseille","lat":43.2755,"lon":5.38435,"is_reserved":false,"is_disabled":false,"rental_uris":{"android":"levelo://app?vid=c4eb6189-be8d-4876-9403-4e0545aa7374","ios":"levelo://app?vid=c4eb6189-be8d-4876-9403-4e0545aa7374"},"vehicle_type_id":"4","last_reported":1741025582,"current_range_meters":13600,"station_id":"ce4bhh92rcd13ifvqfi0","pricing_plan_id":"cebpf4jnsgd1na2vs0mg"},{"bike_id":"e7ec1ac1-2323-47bd-a2b5-7cd3afb282cf","system_id":"levelo_inurba_marseille","lat":43.26553,"lon":5.37286,"is_reserved":false,"is_disabled":false,"rental_uris":{"android":"levelo://app?vid=e7ec1ac1-2323-47bd-a2b5-7cd3afb282cf","ios":"levelo://app?vid=e7ec1ac1-2323-47bd-a2b5-7cd3afb282cf"},"vehicle_type_id":"4","last_reported":1741025582,"current_range_meters":14000,"station_id":"ce4bhg12rcd13ifvqf70","pricing_plan_id":"cebpf4jnsgd1na2vs0mg"},{"bike_id":"c56bf9e2-9e34-44c5-8480-17e43ca1d8eb","system_id":"levelo_inurba_marseille","lat":43.29338,"lon":5.40154,"is_reserved":false,"is_disabled":false,"rental_uris":{"android":"levelo://app?vid=c56bf9e2-9e34-44c5-8480-17e43ca1d8eb","ios":"levelo://app?vid=c56bf9e2-9e34-44c5-8480-17e43ca1d8eb"},"vehicle_type_id":"4","last_reported":1741025582,"current_range_meters":14000,"station_id":"ce4bh312rcd13ifvqdk0","pricing_plan_id":"cebpf4jnsgd1na2vs0mg"},{"bike_id":"d2563ee4-7726-40cf-bd3b-8088ebc65521","system_id":"levelo_inurba_marseille","lat":43.29619,"lon":5.37726,"is_reserved":false,"is_disabled":false,"rental_uris":{"android":"levelo://app?vid=d2563ee4-7726-40cf-bd3b-8088ebc65521","ios":"levelo://app?vid=d2563ee4-7726-40cf-bd3b-8088ebc65521"},"vehicle_type_id":"4","last_reported":1741025582,"current_range_meters":14000,"station_id":"ce4bgi92rcd13ifvqb90","pricing_plan_id":"cebpf4jnsgd1na2vs0mg"},{"bike_id":"9bc66b3c-ddb8-4df7-8a00-d5dbcd361067","system_id":"levelo_inurba_marseille","lat":43.29535,"lon":5.38543,"is_reserved":false,"is_disabled":false,"rental_uris":{"android":"levelo://app?vid=9bc66b3c-ddb8-4df7-8a00-d5dbcd361067","ios":"levelo://app?vid=9bc66b3c-ddb8-4df7-8a00-d5dbcd361067"},"vehicle_type_id":"4","last_reported":1741025582,"current_range_meters":14000,"station_id":"ce4bgih2rcd13ifvqba0","pricing_plan_id":"cebpf4jnsgd1na2vs0mg"},{"bike_id":"cb014a6b-6553-43cb-90ee-c6d22cf5883f","system_id":"levelo_inurba_marseille","lat":43.26066,"lon":5.3942,"is_reserved":false,"is_disabled":false,"rental_uris":{"android":"levelo://app?vid=cb014a6b-6553-43cb-90ee-c6d22cf5883f","ios":"levelo://app?vid=cb014a6b-6553-43cb-90ee-c6d22cf5883f"},"vehicle_type_id":"4","last_reported":1741025582,"current_range_meters":14000,"station_id":"ce4bhh92rcd13ifvqfj0","pricing_plan_id":"cebpf4jnsgd1na2vs0mg"},{"bike_id":"b523bca4-ea0d-4809-a358-c93a4d1ad523","system_id":"levelo_inurba_marseille","lat":43.31365,"lon":5.38496,"is_reserved":false,"is_disabled":false,"rental_uris":{"android":"levelo://app?vid=b523bca4-ea0d-4809-a358-c93a4d1ad523","ios":"levelo://app?vid=b523bca4-ea0d-4809-a358-c93a4d1ad523"},"vehicle_type_id":"4","last_reported":1741025582,"current_range_meters":14400,"station_id":"ce4bgt92rcd13ifvqcf0","pricing_plan_id":"cebpf4jnsgd1na2vs0mg"},