{"last_updated":1685722074,"ttl":30,"version":"2.2","data":{"bikes":[{"bike_id":"33f125fe-884d-4dc7-bba8-71ea85c64eb6","system_id":"levelo_inurba_marseille","lat":43.31349,"lon":5.36724,"is_reserved":false,"is_disabled":false,"rental_uris":{"android":"levelo://app?vid=33f125fe-884d-4dc7-bba8-71ea85c64eb6","ios":"levelo://app?vid=33f125fe-884d-4dc7-bba8-71ea85c64eb6"},"vehicle_type_id":"4","last_reported":1685722074,"current_range_meters":6800,"station_id":"ce4bgr92rcd13ifvqc6g","pricing_plan_id":"free"},{"bike_id":"b910e1ee-b4af-4436-8377-b796fda79609","system_id":"levelo_inurba_marseille","lat":43.31164,"lon":5.3674,"is_reserved":false,"is_disabled":false,"rental_uris":{"android":"levelo://app?vid=b910e1ee-b4af-4436-8377-b796fda79609","ios":"levelo://app?vid=b910e1ee-b4af-4436-8377-b796fda79609"},"vehicle_type_id":"4","last_reported":1685722074,"current_range_meters":26800,"station_id":"","pricing_plan_id":"free"},{"bike_id":"4d43e892-ec90-4fce-8475-f727fed3851f","system_id":"levelo_inurba_marseille","lat":43.31725,"lon":5.37085,"is_reserved":false,"is_disabled":false,"rental_uris":{"android":"levelo://app?vid=4d43e892-ec90-4fce-8475-f727fed3851f","ios":"levelo://app?vid=4d43e892-ec90-4fce-8475-f727fed3851f"},"vehicle_type_id":"4","last_reported":1685722074,"current_range_meters":9200,"station_id":"","pricing_plan_id":"free"},{"bike_id":"d87fd039-1f0e-4af4-b922-566e1a0ee0de","system_id":"levelo_inurba_marseille","lat":43.31362,"lon":5.37593,"is_reserved":false,"is_disabled":false,"rental_uris":{"android":"levelo://app?vid=d87fd039-1f0e-4af4-b922-566e1a0ee0de","ios":"levelo://app?vid=d87fd039-1f0e-4af4-b922-566e1a0ee0de"},"vehicle_type_id":"4","last_reported":1685722074,"current_range_meters":0,"station_id":"","pricing_plan_id":"free"},{"bike_id":"890e93ac-4bac-484a-baff-b468d73fa7c8","system_id":"levelo_inurba_marseille","lat":43.31347,"lon":5.37687,"is_reserved":false,"is_disabled":false,"rental_uris":{"android":"levelo://app?vid=890e93ac-4bac-484a-baff-b468d73fa7c8","ios":"levelo://app?vid=890e93ac-4bac-484a-baff-b468d73fa7c8"},"vehicle_type_id":"4","last_reported":1685722074,"current_range_meters":13200,"station_id":"","pricing_plan_id":"free"},{"bike_id":"d9d022b0-a208-4d21-ba43-4c10231621c5","system_id":"levelo_inurba_marseille","lat":43.30551,"lon":5.36538,"is_reserved":false,"is_disabled":false,"rental_uris":{"android":"levelo://app?vid=d9d022b0-a208-4d21-ba43-4c10231621c5","ios":"levelo://app?vid=d9d022b0-a208-4d21-ba43-4c10231621c5"},"vehicle_type_id":"4","last_reported":1685722074,"current_range_meters":15600,"station_id":"","pricing_plan_id":"free"},{"bike_id":"5bab76c9-7b02-47b4-9a3a-2de05cffc8a0","system_id":"levelo_inurba_marseille","lat":43.3055,"lon":5.36537,"is_reserved":false,"is_disabled":false,"rental_uris":{"android":"levelo://app?vid=5bab76c9-7b02-47b4-9a3a-2de05cffc8a0","ios":"levelo://app?vid=5bab76c9-7b02-47b4-9a3a-2de05cffc8a0"},"vehicle_type_id":"4","last_reported":1685722074,"current_range_meters":10400,"station_id":"","pricing_plan_id":"free"},{"bike_id":"d38227e1-0bf7-42e0-bdc7-edc41d243e2b","system_id":"levelo_inurba_marseille","lat":43.30546,"lon":5.36536,"is_reserved":false,"is_disabled":false,"rental_uris":{"android":"levelo://app?vid=d38227e1-0bf7-42e0-bdc7-edc41d243e2b","ios":"levelo://app?vid=d38227e1-0bf7-42e0-bdc7-edc41d243e2b"},"vehicle_type_id":"4","last_reported":1685722074,"current_range_meters":21200,"station_id":"","pricing_plan_id":"free"},{"bike_id":"b20126bd-589c-44e2-95c4-0e09dea4a1eb","system_id":"levelo_inurba_marseille","lat":43.305714,"lon":5.365633,"is_reserved":false,"is_disabled":false,"rental_uris":{"android":"levelo://app?vid=b20126bd-589c-44e2-95c4-0e09dea4a1eb","ios":"levelo://app?vid=b20126bd-589c-44e2-95c4-0e09dea4a1eb"},"vehicle_type_id":"4","last_reported":1685722074,"current_range_meters":0,"station_id":"ce4bgs12rcd13ifvqcag","pricing_plan_id":"free"},{"bike_id":"c6092157-7124-483d-937e-2bacd18d0f45","system_id":"levelo_inurba_marseille","lat":43.30513,"lon":5.36831,"is_reserved":false,"is_disabled":false,"rental_uris":{"android":"levelo://app?vid=c6092157-7124-483d-937e-2bacd18d0f45","ios":"levelo://app?vid=c6092157-7124-483d-937e-2bacd18d0f45"},"vehicle_type_id":"4","last_reported":1685722074,"current_range_meters":0,"station_id":"","pricing_plan_id":"free"},{"bike_id":"af938f46-c4f9-4843-80e2-5981b0e01eba","system_id":"levelo_inurba_marseille","lat":43.305989,"lon":5.37225,"is_reserved":false,"is_disabled":false,"rental_uris":{"android":"levelo://app?vid=af938f46-c4f9-4843-80e2-5981b0e01eba","ios":"levelo://app?vid=af938f46-c4f9-4843-80e2-5981b0e01eba"},"vehicle_type_id":"4","last_reported":1685722074,"current_range_meters":17200,"station_id":"ce4bgqh2rcd13ifvqc4g","pricing_plan_id":"free"},{"bike_id":"b7a661af-6f83-494c-882e-45fa4473be0e","system_id":"levelo_inurba_marseille","lat":43.311125,"lon":5.377624,"is_reserved":false,"is_disabled":false,"rental_uris":{"android":"levelo://app?vid=b7a661af-6f83-494c-882e-45fa4473be0e","ios":"levelo://app?vid=b7a661af-6f83-494c-882e-45fa4473be0e"},"vehicle_type_id":"4","last_reported":1685722074,"current_range_meters":29200,"station_id":"ce4bgt92rcd13ifvqcg0","pricing_plan_id":"free"},{"bike_id":"a9dbc659-3657-4479-9b0c-b5615adc7722","system_id":"levelo_inurba_marseille","lat":43.317075,"lon":5.377367,"is_reserved":false,"is_disabled":false,"rental_uris":{"android":"levelo://app?vid=a9dbc659-3657-4479-9b0c-b5615adc7722","ios":"levelo://app?vid=a9dbc659-3657-4479-9b0c-b5615adc7722"},"vehicle_type_id":"4","last_reported":1685722074,"current_range_meters":12000,"station_id":"ce4bgth2rcd13ifvqch0","pricing_plan_id":"free"},{"bike_id":"096001e1-2615-40b9-b6ef-117d86bdf774","system_id":"levelo_inurba_marseille","lat":43.303046,"lon":5.368981,"is_reserved":false,"is_disabled":false,"rental_uris":{"android":"levelo://app?vid=096001e1-2615-40b9-b6ef-117d86bdf774","ios":"levelo://app?vid=096001e1-2615-40b9-b6ef-117d86bdf774"},"vehicle_type_id":"4","last_reported":1685722074,"current_range_meters":0,"station_id":"ce4bgqh2rcd13ifvqc5g","pricing_plan_id":"free"},{"bike_id":"64668d62-2c56-40da-9e4a-cb84a2c2ea4d","system_id":"levelo_inurba_marseille","lat":43.31002,"lon":5.38021,"is_reserved":false,"is_disabled":false,"rental_uris":{"android":"levelo://app?vid=64668d62-2c56-40da-9e4a-cb84a2c2ea4d","ios":"levelo://app?vid=64668d62-2c56-40da-9e4a-cb84a2c2ea4d"},"vehicle_type_id":"4","last_reported":1685722074,"current_range_meters":400,"station_id":"","pricing_plan_id":"free"},{"bike_id":"c875a493-7c56-4e33-97bc-a2838d69ff33","system_id":"levelo_inurba_marseille","lat":43.3019,"lon":5.36628,"is_reserved":false,"is_disabled":false,"rental_uris":{"android":"levelo://app?vid=c875a493-7c56-4e33-97bc-a2838d69ff33","ios":"levelo://app?vid=c875a493-7c56-4e33-97bc-a2838d69ff33"},"vehicle_type_id":"4","last_reported":1685722074,"current_range_meters":26400,"station_id":"ce4bgrh2rcd13ifvqc8g","pricing_plan_id":"free"},{"bike_id":"c2067a7f-d62f-45c0-9d0d-298110b12b3e","system_id":"levelo_inurba_marseille","lat":43.30799,"lon":5.38156,"is_reserved":false,"is_disabled":false,"rental_uris":{"android":"levelo://app?vid=c2067a7f-d62f-45c0-9d0d-298110b12b3e","ios":"levelo://app?vid=c2067a7f-d62f-45c0-9d0d-298110b12b3e"},"vehicle_type_id":"4","last_reported":1685722074,"current_range_meters":7200,"station_id":"ce4bgt12rcd13ifvqce0","pricing_plan_id":"free"},{"bike_id":"9ff5401b-030c-4e24-bd14-a490e9d89754","system_id":"levelo_inurba_marseille","lat":43.304606,"lon":5.379026,"is_reserved":false,"is_disabled":false,"rental_uris":{"android":"levelo://app?vid=9ff5401b-030c-4e24-bd14-a490e9d89754","ios":"levelo://app?vid=9ff5401b-030c-4e24-bd14-a490e9d89754"},"vehicle_type_id":"4","last_reported":1685722074,"current_range_meters":400,"station_id":"ce4bgup2rcd13ifvqcn0","pricing_plan_id":"free"},{"bike_id":"bae469a6-5e35-4173-b28b-e07ce11dce43","system_id":"levelo_inurba_marseille","lat":43.32493,"lon":5.36794,"is_reserved":false,"is_disabled":false,"rental_uris":{"android":"levelo://app?vid=bae469a6-5e35-4173-b28b-e07ce11dce43","ios":"levelo://app?vid=bae469a6-5e35-4173-b28b-e07ce11dce43"},"vehicle_type_id":"4","last_reported":1685722074,"current_range_meters":21600,"station_id":"","pricing_plan_id":"free"},{"bike_id":"b6af2cee-22c0-4696-a3cc-c5ab5878f58f","system_id":"levelo_inurba_marseille","lat":43.319935,"lon":5.381699,"is_reserved":false,"is_disabled":false,"rental_uris":{"android":"levelo://app?vid=b6af2cee-22c0-4696-a3cc-c5ab5878f58f","ios":"levelo://app?vid=b6af2cee-22c0-4696-a3cc-c5ab5878f58f"},"vehicle_type_id":"4","last_reported":1685722074,"current_range_meters":31200,"station_id":"ce4bhr12rcd13ifvqhpg","pricing_plan_id":"free"},{"bike_id":"8c3cbb59-cd72-4768-8a58-eb62ab11aad1","system_id":"levelo_inurba_marseille","lat":43.319935,"lon":5.381699,"is_reserved":false,"is_disabled":false,"rental_uris":{"android":"levelo://app?vid=8c3cbb59-cd72-4768-8a58-eb62ab11aad1","ios":"levelo://app?vid=8c3cbb59-cd72-4768-8a58-eb62ab11aad1"},"vehicle_type_id":"4","last_reported":1685722074,"current_range_meters":31200,"station_id":"ce4bhr12rcd13ifvqhpg","pricing_plan_id":"free"},{"bike_id":"8bcdc6c7-57bb-4137-93dd-8766ce32698b","system_id":"levelo_inurba_marseille","lat":43.319935,"lon":5.381699,"is_reserved":false,"is_disabled":false,"rental_uris":{"android":"levelo://app?vid=8bcdc6c7-57bb-4137-93dd-8766ce32698b","ios":"levelo://app?vid=8bcdc6c7-57bb-4137-93dd-8766ce32698b"},"vehicle_type_id":"4","last_reported":1685722074,"current_range_meters":31200,"station_id":"ce4bhr12rcd13ifvqhpg","pricing_plan_id":"free"},{"bike_id":"e11a6411-dea2-4f6a-91aa-85f8f57f5044","system_id":"levelo_inurba_marseille","lat":43.319935,"lon":5.381699,"is_reserved":false,"is_disabled":false,"rental_uris":{"android":"levelo://app?vid=e11a6411-dea2-4f6a-91aa-85f8f57f5044","ios":"levelo://app?vid=e11a6411-dea2-4f6a-91aa-85f8f57f5044"},"vehicle_type_id":"4","last_reported":1685722074,"current_range_meters":31200,"station_id":"ce4bhr12rcd13ifvqhpg","pricing_plan_id":"free"},{"bike_id":"ad129339-b339-4ccc-9ee0-2774c8b55114","system_id":"levelo_inurba_marseille","lat":43.319935,"lon":5.381699,"is_reserved":false,"is_disabled":false,"rental_uris":{"android":"levelo://app?vid=ad129339-b339-4ccc-9ee0-2774c8b55114","ios":"levelo://app?vid=ad129339-b339-4ccc-9ee0-2774c8b55114"},"vehicle_type_id":"4","last_reported":1685722074,"current_range_meters":28000,"station_id":"ce4bhr12rcd13ifvqhpg","pricing_plan_id":"free"},{"bike_id":"567dabef-5d42-4643-8287-fb63ebc0075b","system_id":"levelo_inurba_marseille","lat":43.313571,"lon":5.384829,"is_reserved":false,"is_disabled":false,"rental_uris":{"android":"levelo://app?vid=567dabef-5d42-4643-8287-fb63ebc0075b","ios":"levelo://app?vid=567dabef-5d42-4643-8287-fb63ebc0075b"},"vehicle_type_id":"4","last_reported":1685722074,"current_range_meters":22400,"station_id":"ce4bgt92rcd13ifvqcf0","pricing_plan_id":"free"},{"bike_id":"e5d0d6e3-ed63-4166-b2d5-ca9e443eadbe","system_id":"levelo_inurba_marseille","lat":43.30056,"lon":5.37727,"is_reserved":false,"is_disabled":false,"rental_uris":{"android":"levelo://app?vid=e5d0d6e3-ed63-4166-b2d5-ca9e443eadbe","ios":"levelo://app?vid=e5d0d6e3-ed63-4166-b2d5-ca9e443eadbe"},"vehicle_type_id":"4","last_reported":1685722074,"current_range_meters":12000,"station_id":"","pricing_plan_id":"free"},{"bike_id":"62547dab-7428-4400-a883-6353905ac82c","system_id":"levelo_inurba_marseille","lat":43.29913,"lon":5.37486,"is_reserved":false,"is_disabled":false,"rental_uris":{"android":"levelo://app?vid=62547dab-7428-4400-a883-6353905ac82c","ios":"levelo://app?vid=62547dab-7428-4400-a883-6353905ac82c"},"vehicle_type_id":"4","last_reported":1685722074,"current_range_meters":27600,"station_id":"ce4bgjh2rcd13ifvqbg0","pricing_plan_id":"free"},{"bike_id":"7652560c-7deb-42f7-934b-ad6212fb0a0d","system_id":"levelo_inurba_marseille","lat":43.328371,"lon":5.366909,"is_reserved":false,"is_disabled":false,"rental_uris":{"android":"levelo://app?vid=7652560c-7deb-42f7-934b-ad6212fb0a0d","ios":"levelo://app?vid=7652560c-7deb-42f7-934b-ad6212fb0a0d"},"vehicle_type_id":"4","last_reported":1685722074,"current_range_meters":19600,"station_id":"ce4bhs92rcd13ifvqi0g","pricing_plan_id":"free"},{"bike_id":"dfa7381d-47e4-4066-90db-1c374c424854","system_id":"levelo_inurba_marseille","lat":43.29715,"lon":5.36611,"is_reserved":false,"is_disabled":false,"rental_uris":{"android":"levelo://app?vid=dfa7381d-47e4-4066-90db-1c374c424854","ios":"levelo://app?vid=dfa7381d-47e4-4066-90db-1c374c424854"},"vehicle_type_id":"4","last_reported":1685722074,"current_range_meters":27600,"station_id":"","pricing_plan_id":"free"},{"bike_id":"7b49d927-3dbb-459b-baca-3948922c4ba6","system_id":"levelo_inurba_marseille","lat":43.292749,"lon":5.368398,"is_reserved":false,"is_disabled":false,"rental_uris":{"android":"levelo://app?vid=7b49d927-3dbb-459b-baca-3948922c4ba6","ios":"levelo://app?vid=7b49d927-3dbb-459b-baca-3948922c4ba6"},"vehicle_type_id":"4","last_reported":1685722074,"current_range_meters":31200,"station_id":"ce4bhbp2rcd13ifvqesg","pricing_plan_id":"free"},{"bike_id":"c7be5fa1-7469-4de6-a47b-3d4bffcebdd4","system_id":"levelo_inurba_marseille","lat":43.2962,"lon":5.37287,"is_reserved":false,"is_disabled":false,"rental_uris":{"android":"levelo://app?vid=c7be5fa1-7469-4de6-a47b-3d4bffcebdd4","ios":"levelo://app?vid=c7be5fa1-7469-4de6-a47b-3d4bffcebdd4"},"vehicle_type_id":"4","last_reported":1685722074,"current_range_meters":13600,"station_id":"","pricing_plan_id":"free"},{"bike_id":"11bb5bbc-864c-47e1-9f03-c9c194bd04b3","system_id":"levelo_inurba_marseille","lat":43.31765,"lon":5.38991,"is_reserved":false,"is_disabled":false,"rental_uris":{"android":"levelo://app?vid=11bb5bbc-864c-47e1-9f03-c9c194bd04b3","ios":"levelo://app?vid=11bb5bbc-864c-47e1-9f03-c9c194bd04b3"},"vehicle_type_id":"4","last_reported":1685722074,"current_range_meters":25200,"station_id":"ce4bhqp2rcd13ifvqhng","pricing_plan_id":"free"},{"bike_id":"5cc775c5-04d9-4043-90a0-c4c939d93319","system_id":"levelo_inurba_marseille","lat":43.29531,"lon":5.37458,"is_reserved":false,"is_disabled":false,"rental_uris":{"android":"levelo://app?vid=5cc775c5-04d9-4043-90a0-c4c939d93319","ios":"levelo://app?vid=5cc775c5-04d9-4043-90a0-c4c939d93319"},"vehicle_type_id":"4","last_reported":1685722074,"current_range_meters":1600,"station_id":"","pricing_plan_id":"free"},{"bike_id":"9cda48ce-c5d7-4d43-a7f0-864c6116d483","system_id":"levelo_inurba_marseille","lat":43.295279,"lon":5.375048,"is_reserved":false,"is_disabled":false,"rental_uris":{"android":"levelo://app?vid=9cda48ce-c5d7-4d43-a7f0-864c6116d483","ios":"levelo://app?vid=9cda48ce-c5d7-4d43-a7f0-864c6116d483"},"vehicle_type_id":"4","last_reported":1685722074,"current_range_meters":9200,"station_id":"ce4bgkp2rcd13ifvqbmg","pricing_plan_id":"free"},{"bike_id":"fd66beaf-163c-4663-9268-a67c07aea502","system_id":"levelo_inurba_marseille","lat":43.299717,"lon":5.384845,"is_reserved":false,"is_disabled":false,"rental_uris":{"android":"levelo://app?vid=fd66beaf-163c-4663-9268-a67c07aea502","ios":"levelo://app?vid=fd66beaf-163c-4663-9268-a67c07aea502"},"vehicle_type_id":"4","last_reported":1685722074,"current_range_meters":0,"station_id":"ce4bgj92rcd13ifvqbd0","pricing_plan_id":"free"},{"bike_id":"adac9cd2-b96e-4393-aee2-7553b2f05155","system_id":"levelo_inurba_marseille","lat":43.32365,"lon":5.38858,"is_reserved":false,"is_disabled":false,"rental_uris":{"android":"levelo://app?vid=adac9cd2-b96e-4393-aee2-7553b2f05155","ios":"levelo://app?vid=adac9cd2-b96e-4393-aee2-7553b2f05155"},"vehicle_type_id":"4","last_reported":1685722074,"current_range_meters":6000,"station_id":"ce4bhqp2rcd13ifvqhog","pricing_plan_id":"free"},{"bike_id":"23e1fbb1-4cb3-49f1-a301-8c619b3b8e3a","system_id":"levelo_inurba_marseille","lat":43.32367,"lon":5.38877,"is_reserved":false,"is_disabled":false,"rental_uris":{"android":"levelo://app?vid=23e1fbb1-4cb3-49f1-a301-8c619b3b8e3a","ios":"levelo://app?vid=23e1fbb1-4cb3-49f1-a301-8c619b3b8e3a"},"vehicle_type_id":"4","last_reported":1685722074,"current_range_meters":17600,"station_id":"ce4bhqp2rcd13ifvqhog","pricing_plan_id":"free"},{"bike_id":"462471c3-548f-4f80-b71b-2804c10c35fd","system_id":"levelo_inurba_marseille","lat":43.32368,"lon":5.38887,"is_reserved":false,"is_disabled":false,"rental_uris":{"android":"levelo://app?vid=462471c3-548f-4f80-b71b-2804c10c35fd","ios":"levelo://app?vid=462471c3-548f-4f80-b71b-2804c10c35fd"},"vehicle_type_id":"4","last_reported":1685722074,"current_range_meters":19200,"station_id":"ce4bhqp2rcd13ifvqhog","pricing_plan_id":"free"},{"bike_id":"955f847f-6581-4dd7-92ae-8ed97fbe95f2","system_id":"levelo_inurba_marseille","lat":43.29307,"lon":5.37187,"is_reserved":false,"is_disabled":false,"rental_uris":{"android":"levelo://app?vid=955f847f-6581-4dd7-92ae-8ed97fbe95f2","ios":"levelo://app?vid=955f847f-6581-4dd7-92ae-8ed97fbe95f2"},"vehicle_type_id":"4","last_reported":1685722074,"current_range_meters":31200,"station_id":"","pricing_plan_id":"free"},{"bike_id":"12c1e4a7-3130-4222-af3e-ec276fc2abc3","system_id":"levelo_inurba_marseille","lat":43.29306,"lon":5.37184,"is_reserved":false,"is_disabled":false,"rental_uris":{"android":"levelo://app?vid=12c1e4a7-3130-4222-af3e-ec276fc2abc3","ios":"levelo://app?vid=12c1e4a7-3130-4222-af3e-ec276fc2abc3"},"vehicle_type_id":"4","last_reported":1685722074,"current_range_meters":31200,"station_id":"","pricing_plan_id":"free"},{"bike_id":"24fcc360-42be-4875-8989-b434f2e1d5d1","system_id":"levelo_inurba_marseille","lat":43.292749,"lon":5.368398,"is_reserved":false,"is_disabled":false,"rental_uris":{"android":"levelo://app?vid=24fcc360-42be-4875-8989-b434f2e1d5d1","ios":"levelo://app?vid=24fcc360-42be-4875-8989-b434f2e1d5d1"},"vehicle_type_id":"4","last_reported":1685722074,"current_range_meters":1200,"station_id":"ce4bhbp2rcd13ifvqesg","pricing_plan_id":"free"},{"bike_id":"a8e75a11-8e90-47e5-aec8-3e0882c57a3a","system_id":"levelo_inurba_marseille","lat":43.30597,"lon":5.39364,"is_reserved":false,"is_disabled":false,"rental_uris":{"android":"levelo://app?vid=a8e75a11-8e90-47e5-aec8-3e0882c57a3a","ios":"levelo://app?vid=a8e75a11-8e90-47e5-aec8-3e0882c57a3a"},"vehicle_type_id":"4","last_reported":1685722074,"current_range_meters":23200,"station_id":"","pricing_plan_id":"free"},{"bike_id":"91ddcb00-0448-4b2e-9b34-22db90a208f0","system_id":"levelo_inurba_marseille","lat":43.2936,"lon":5.37835,"is_reserved":false,"is_disabled":false,"rental_uris":{"android":"levelo://app?vid=91ddcb00-0448-4b2e-9b34-22db90a208f0","ios":"levelo://app?vid=91ddcb00-0448-4b2e-9b34-22db90a208f0"},"vehicle_type_id":"4","last_reported":1685722074,"current_range_meters":0,"station_id":"ce4bgjh2rcd13ifvqbf0","pricing_plan_id":"free"},{"bike_id":"1ebae66d-ff8b-4bd8-a7b7-c7087641dd13","system_id":"levelo_inurba_marseille","lat":43.292311,"lon":5.360731,"is_reserved":false,"is_disabled":false,"rental_uris":{"android":"levelo://app?vid=1ebae66d-ff8b-4bd8-a7b7-c7087641dd13","ios":"levelo://app?vid=1ebae66d-ff8b-4bd8-a7b7-c7087641dd13"},"vehicle_type_id":"4","last_reported":1685722074,"current_range_meters":3200,"station_id":"ce4bhbh2rcd13ifvqeqg","pricing_plan_id":"free"},{"bike_id":"fe0aad0e-c7fc-44e2-ab6f-ab46e858387e","system_id":"levelo_inurba_marseille","lat":43.292311,"lon":5.360731,"is_reserved":false,"is_disabled":false,"rental_uris":{"android":"levelo://app?vid=fe0aad0e-c7fc-44e2-ab6f-ab46e858387e","ios":"levelo://app?vid=fe0aad0e-c7fc-44e2-ab6f-ab46e858387e"},"vehicle_type_id":"4","last_reported":1685722074,"current_range_meters":18400,"station_id":"ce4bhbh2rcd13ifvqeqg","pricing_plan_id":"free"},{"bike_id":"430d08de-8972-4de8-a79c-36d8867d3a56","system_id":"levelo_inurba_marseille","lat":43.29218,"lon":5.36085,"is_reserved":false,"is_disabled":false,"rental_uris":{"android":"levelo://app?vid=430d08de-8972-4de8-a79c-36d8867d3a56","ios":"levelo://app?vid=430d08de-8972-4de8-a79c-36d8867d3a56"},"vehicle_type_id":"4","last_reported":1685722074,"current_range_meters":0,"station_id":"ce4bhb12rcd13ifvqel0","pricing_plan_id":"free"},{"bike_id":"e5e7746a-a367-4365-861e-a1a99f713730","system_id":"levelo_inurba_marseille","lat":43.29152,"lon":5.36705,"is_reserved":false,"is_disabled":false,"rental_uris":{"android":"levelo://app?vid=e5e7746a-a367-4365-861e-a1a99f713730","ios":"levelo://app?vid=e5e7746a-a367-4365-861e-a1a99f713730"},"vehicle_type_id":"4","last_reported":1685722074,"current_range_meters":0,"station_id":"","pricing_plan_id":"free"},{"bike_id":"8340ed3d-ad33-49d0-8d61-93eb2bb90111","system_id":"levelo_inurba_marseille","lat":43.298764,"lon":5.388973,"is_reserved":false,"is_disabled":false,"rental_uris":{"android":"levelo://app?vid=8340ed3d-ad33-49d0-8d61-93eb2bb90111","ios":"levelo://app?vid=8340ed3d-ad33-49d0-8d61-93eb2bb90111"},"vehicle_type_id":"4","last_reported":1685722074,"current_range_meters":800,"station_id":"ce4bh392rcd13ifvqdl0","pricing_plan_id":"free"},{"bike_id":"5a660338-3281-43aa-affc-986af7b1f5e7","system_id":"levelo_inurba_marseille","lat":43.31915,"lon":5.39544,"is_reserved":false,"is_disabled":false,"rental_uris":{"android":"levelo://app?vid=5a660338-3281-43aa-affc-986af7b1f5e7","ios":"levelo://app?vid=5a660338-3281-43aa-affc-986af7b1f5e7"},"vehicle_type_id":"4","last_reported":1685722074,"current_range_meters":2400,"station_id":"","pricing_plan_id":"free"},{"bike_id":"1c805ea9-31c6-4637-b9ef-0bf9e68dfb41","system_id":"levelo_inurba_marseille","lat":43.31333,"lon":5.39698,"is_reserved":false,"is_disabled":false,"rental_uris":{"android":"levelo://app?vid=1c805ea9-31c6-4637-b9ef-0bf9e68dfb41","ios":"levelo://app?vid=1c805ea9-31c6-4637-b9ef-0bf9e68dfb41"},"vehicle_type_id":"4","last_reported":1685722074,"current_range_meters":12000,"station_id":"ce4bgvp2rcd13ifvqcu0","pricing_plan_id":"free"},{"bike_id":"b6442894-c447-4d51-a7e5-66810d494e34","system_id":"levelo_inurba_marseille","lat":43.29529,"lon":5.385581,"is_reserved":false,"is_disabled":false,"rental_uris":{"android":"levelo://app?vid=b6442894-c447-4d51-a7e5-66810d494e34","ios":"levelo://app?vid=b6442894-c447-4d51-a7e5-66810d494e34"},"vehicle_type_id":"4","last_reported":1685722074,"current_range_meters":0,"station_id":"ce4bgih2rcd13ifvqba0","pricing_plan_id":"free"},{"bike_id":"fee31150-f020-40c9-bd46-2dd10d0a0f09","system_id":"levelo_inurba_marseille","lat":43.290779,"lon":5.371482,"is_reserved":false,"is_disabled":false,"rental_uris":{"android":"levelo://app?vid=fee31150-f020-40c9-bd46-2dd10d0a0f09","ios":"levelo://app?vid=fee31150-f020-40c9-bd46-2dd10d0a0f09"},"vehicle_type_id":"4","last_reported":1685722074,"current_range_meters":18400,"station_id":"ce4bh5p2rcd13ifvqe4g","pricing_plan_id":"free"},{"bike_id":"a1d588f9-8125-4a8f-9f59-c1cf1bdc5430","system_id":"levelo_inurba_marseille","lat":43.3283,"lon":5.38909,"is_reserved":false,"is_disabled":false,"rental_uris":{"android":"levelo://app?vid=a1d588f9-8125-4a8f-9f59-c1cf1bdc5430","ios":"levelo://app?vid=a1d588f9-8125-4a8f-9f59-c1cf1bdc5430"},"vehicle_type_id":"4","last_reported":1685722074,"current_range_meters":20800,"station_id":"","pricing_plan_id":"free"},{"bike_id":"0915d0dd-80da-4c97-9e8a-2d37556e1c83","system_id":"levelo_inurba_marseille","lat":43.290631,"lon":5.359244,"is_reserved":false,"is_disabled":false,"rental_uris":{"android":"levelo://app?vid=0915d0dd-80da-4c97-9e8a-2d37556e1c83","ios":"levelo://app?vid=0915d0dd-80da-4c97-9e8a-2d37556e1c83"},"vehicle_type_id":"4","last_reported":1685722074,"current_range_meters":29200,"station_id":"ce4bha92rcd13ifvqeg0","pricing_plan_id":"free"},{"bike_id":"adbfea93-f4e2-4cb0-9e97-338f02822ac8","system_id":"levelo_inurba_marseille","lat":43.289184,"lon":5.366408,"is_reserved":false,"is_disabled":false,"rental_uris":{"android":"levelo://app?vid=adbfea93-f4e2-4cb0-9e97-338f02822ac8","ios":"levelo://app?vid=adbfea93-f4e2-4cb0-9e97-338f02822ac8"},"vehicle_type_id":"4","last_reported":1685722074,"current_range_meters":7200,"station_id":"ce4bhap2rcd13ifvqek0","pricing_plan_id":"free"},{"bike_id":"5a626672-2007-41b0-955c-36e890404321","system_id":"levelo_inurba_marseille","lat":43.289184,"lon":5.366408,"is_reserved":false,"is_disabled":false,"rental_uris":{"android":"levelo://app?vid=5a626672-2007-41b0-955c-36e890404321","ios":"levelo://app?vid=5a626672-2007-41b0-955c-36e890404321"},"vehicle_type_id":"4","last_reported":1685722074,"current_range_meters":24400,"station_id":"ce4bhap2rcd13ifvqek0","pricing_plan_id":"free"},{"bike_id":"7d1c9970-00a2-445a-b667-3fdac623c917","system_id":"levelo_inurba_marseille","lat":43.28932,"lon":5.36393,"is_reserved":false,"is_disabled":false,"rental_uris":{"android":"levelo://app?vid=7d1c9970-00a2-445a-b667-3fdac623c917","ios":"levelo://app?vid=7d1c9970-00a2-445a-b667-3fdac623c917"},"vehicle_type_id":"4","last_reported":1685722074,"current_range_meters":24800,"station_id":"ce4bhc92rcd13ifvqetg","pricing_plan_id":"free"},{"bike_id":"6206e393-1f0c-4c22-b780-e01b2c80fdf4","system_id":"levelo_inurba_marseille","lat":43.28996,"lon":5.35751,"is_reserved":false,"is_disabled":false,"rental_uris":{"android":"levelo://app?vid=6206e393-1f0c-4c22-b780-e01b2c80fdf4","ios":"levelo://app?vid=6206e393-1f0c-4c22-b780-e01b2c80fdf4"},"vehicle_type_id":"4","last_reported":1685722074,"current_range_meters":9200,"station_id":"","pricing_plan_id":"free"},{"bike_id":"7eb4c8f8-c045-4917-a786-58c6e1403c66","system_id":"levelo_inurba_marseille","lat":43.330384,"lon":5.389044,"is_reserved":false,"is_disabled":false,"rental_uris":{"android":"levelo://app?vid=7eb4c8f8-c045-4917-a786-58c6e1403c66","ios":"levelo://app?vid=7eb4c8f8-c045-4917-a786-58c6e1403c66"},"vehicle_type_id":"4","last_reported":1685722074,"current_range_meters":23600,"station_id":"ce4bhr92rcd13ifvqhrg","pricing_plan_id":"free"},{"bike_id":"31479021-8c49-4aac-bad8-95849e8793a6","system_id":"levelo_inurba_marseille","lat":43.290103,"lon":5.356114,"is_reserved":false,"is_disabled":false,"rental_uris":{"android":"levelo://app?vid=31479021-8c49-4aac-bad8-95849e8793a6","ios":"levelo://app?vid=31479021-8c49-4aac-bad8-95849e8793a6"},"vehicle_type_id":"4","last_reported":1685722074,"current_range_meters":16400,"station_id":"ce4bhb92rcd13ifvqen0","pricing_plan_id":"free"},{"bike_id":"3ffcaa2f-dd1a-44fd-82d2-0a689b03c297","system_id":"levelo_inurba_marseille","lat":43.28998,"lon":5.37865,"is_reserved":false,"is_disabled":false,"rental_uris":{"android":"levelo://app?vid=3ffcaa2f-dd1a-44fd-82d2-0a689b03c297","ios":"levelo://app?vid=3ffcaa2f-dd1a-44fd-82d2-0a689b03c297"},"vehicle_type_id":"4","last_reported":1685722074,"current_range_meters":13200,"station_id":"","pricing_plan_id":"free"},{"bike_id":"356b41bd-38ce-44e5-abf3-a1236533d1a3","system_id":"levelo_inurba_marseille","lat":43.301117,"lon":5.398795,"is_reserved":false,"is_disabled":false,"rental_uris":{"android":"levelo://app?vid=356b41bd-38ce-44e5-abf3-a1236533d1a3","ios":"levelo://app?vid=356b41bd-38ce-44e5-abf3-a1236533d1a3"},"vehicle_type_id":"4","last_reported":1685722074,"current_range_meters":4000,"station_id":"ce4bh0h2rcd13ifvqd40","pricing_plan_id":"free"},{"bike_id":"644eae7b-15db-4f04-8fc1-767de871d87c","system_id":"levelo_inurba_marseille","lat":43.2901,"lon":5.381269,"is_reserved":false,"is_disabled":false,"rental_uris":{"android":"levelo://app?vid=644eae7b-15db-4f04-8fc1-767de871d87c","ios":"levelo://app?vid=644eae7b-15db-4f04-8fc1-767de871d87c"},"vehicle_type_id":"4","last_reported":1685722074,"current_range_meters":2800,"station_id":"ce4bh4p2rcd13ifvqe1g","pricing_plan_id":"free"},{"bike_id":"e11214de-54a0-4576-9707-335eaf3210d8","system_id":"levelo_inurba_marseille","lat":43.2901,"lon":5.381269,"is_reserved":false,"is_disabled":false,"rental_uris":{"android":"levelo://app?vid=e11214de-54a0-4576-9707-335eaf3210d8","ios":"levelo://app?vid=e11214de-54a0-4576-9707-335eaf3210d8"},"vehicle_type_id":"4","last_reported":1685722074,"current_range_meters":800,"station_id":"ce4bh4p2rcd13ifvqe1g","pricing_plan_id":"free"},{"bike_id":"e6fdbc10-727f-4a63-ad85-51626889b469","system_id":"levelo_inurba_marseille","lat":43.2901,"lon":5.381269,"is_reserved":false,"is_disabled":false,"rental_uris":{"android":"levelo://app?vid=e6fdbc10-727f-4a63-ad85-51626889b469","ios":"levelo://app?vid=e6fdbc10-727f-4a63-ad85-51626889b469"},"vehicle_type_id":"4","last_reported":1685722074,"current_range_meters":800,"station_id":"ce4bh4p2rcd13ifvqe1g","pricing_plan_id":"free"},{"bike_id":"91aa5cb6-dd3c-4140-b0cb-c25d08dbeb3b","system_id":"levelo_inurba_marseille","lat":43.28856,"lon":5.358371,"is_reserved":false,"is_disabled":false,"rental_uris":{"android":"levelo://app?vid=91aa5cb6-dd3c-4140-b0cb-c25d08dbeb3b","ios":"levelo://app?vid=91aa5cb6-dd3c-4140-b0cb-c25d08dbeb3b"},"vehicle_type_id":"4","last_reported":1685722074,"current_range_meters":16000,"station_id":"ce4bhb12rcd13ifvqem0","pricing_plan_id":"free"},{"bike_id":"eef708c5-ac2b-4543-8e97-8602c47ae504","system_id":"levelo_inurba_marseille","lat":43.28856,"lon":5.358371,"is_reserved":false,"is_disabled":false,"rental_uris":{"android":"levelo://app?vid=eef708c5-ac2b-4543-8e97-8602c47ae504","ios":"levelo://app?vid=eef708c5-ac2b-4543-8e97-8602c47ae504"},"vehicle_type_id":"4","last_reported":1685722074,"current_range_meters":800,"station_id":"ce4bhb12rcd13ifvqem0","pricing_plan_id":"free"},{"bike_id":"bddf66ef-0c9c-4e5f-8017-a1f0c58cac94","system_id":"levelo_inurba_marseille","lat":43.30933,"lon":5.40137,"is_reserved":false,"is_disabled":false,"rental_uris":{"android":"levelo://app?vid=bddf66ef-0c9c-4e5f-8017-a1f0c58cac94","ios":"levelo://app?vid=bddf66ef-0c9c-4e5f-8017-a1f0c58cac94"},"vehicle_type_id":"4","last_reported":1685722074,"current_range_meters":1600,"station_id":"","pricing_plan_id":"free"},{"bike_id":"178c8f48-bd41-4e96-a8d8-8f6b997a2dd2","system_id":"levelo_inurba_marseille","lat":43.298681,"lon":5.397225,"is_reserved":false,"is_disabled":false,"rental_uris":{"android":"levelo://app?vid=178c8f48-bd41-4e96-a8d8-8f6b997a2dd2","ios":"levelo://app?vid=178c8f48-bd41-4e96-a8d8-8f6b997a2dd2"},"vehicle_type_id":"4","last_reported":1685722074,"current_range_meters":20400,"station_id":"ce4bh0h2rcd13ifvqd50","pricing_plan_id":"free"},{"bike_id":"04228c67-b206-44e6-9528-19f1043ead22","system_id":"levelo_inurba_marseille","lat":43.33762,"lon":5.37467,"is_reserved":false,"is_disabled":false,"rental_uris":{"android":"levelo://app?vid=04228c67-b206-44e6-9528-19f1043ead22","ios":"levelo://app?vid=04228c67-b206-44e6-9528-19f1043ead22"},"vehicle_type_id":"4","last_reported":1685722074,"current_range_meters":26000,"station_id":"","pricing_plan_id":"free"},{"bike_id":"d80bce2e-b7b1-4164-94d5-a5e0ef3bad02","system_id":"levelo_inurba_marseille","lat":43.30643,"lon":5.40104,"is_reserved":false,"is_disabled":false,"rental_uris":{"android":"levelo://app?vid=d80bce2e-b7b1-4164-94d5-a5e0ef3bad02","ios":"levelo://app?vid=d80bce2e-b7b1-4164-94d5-a5e0ef3bad02"},"vehicle_type_id":"4","last_reported":1685722074,"current_range_meters":28400,"station_id":"ce4bh112rcd13ifvqda0","pricing_plan_id":"free"},{"bike_id":"5f9d35dd-6738-437e-ab7e-296c18c987d4","system_id":"levelo_inurba_marseille","lat":43.306412,"lon":5.401035,"is_reserved":false,"is_disabled":false,"rental_uris":{"android":"levelo://app?vid=5f9d35dd-6738-437e-ab7e-296c18c987d4","ios":"levelo://app?vid=5f9d35dd-6738-437e-ab7e-296c18c987d4"},"vehicle_type_id":"4","last_reported":1685722074,"current_range_meters":0,"station_id":"ce4bh112rcd13ifvqda0","pricing_plan_id":"free"},{"bike_id":"a22bbed6-86a8-4dc1-be06-1dd12fd25a1f","system_id":"levelo_inurba_marseille","lat":43.337733,"lon":5.374753,"is_reserved":false,"is_disabled":false,"rental_uris":{"android":"levelo://app?vid=a22bbed6-86a8-4dc1-be06-1dd12fd25a1f","ios":"levelo://app?vid=a22bbed6-86a8-4dc1-be06-1dd12fd25a1f"},"vehicle_type_id":"4","last_reported":1685722074,"current_range_meters":0,"station_id":"","pricing_plan_id":"free"},{"bike_id":"cf0caa37-cec8-408b-98f7-37211a80813c","system_id":"levelo_inurba_marseille","lat":43.33783,"lon":5.37434,"is_reserved":false,"is_disabled":false,"rental_uris":{"android":"levelo://app?vid=cf0caa37-cec8-408b-98f7-37211a80813c","ios":"levelo://app?vid=cf0caa37-cec8-408b-98f7-37211a80813c"},"vehicle_type_id":"4","last_reported":1685722074,"current_range_meters":25600,"station_id":"","pricing_plan_id":"free"},{"bike_id":"e2427565-b1dc-4329-9233-8ee93a4b9fc4","system_id":"levelo_inurba_marseille","lat":43.301117,"lon":5.398795,"is_reserved":false,"is_disabled":false,"rental_uris":{"android":"levelo://app?vid=e2427565-b1dc-4329-9233-8ee93a4b9fc4","ios":"levelo://app?vid=e2427565-b1dc-4329-9233-8ee93a4b9fc4"},"vehicle_type_id":"4","last_reported":1685722074,"current_range_meters":800,"station_id":"ce4bh0h2rcd13ifvqd40","pricing_plan_id":"free"},{"bike_id":"37fc05e7-4e21-4ec9-8699-8bb9a22bd11f","system_id":"levelo_inurba_marseille","lat":43.295169,"lon":5.390426,"is_reserved":false,"is_disabled":false,"rental_uris":{"android":"levelo://app?vid=37fc05e7-4e21-4ec9-8699-8bb9a22bd11f","ios":"levelo://app?vid=37fc05e7-4e21-4ec9-8699-8bb9a22bd11f"},"vehicle_type_id":"4","last_reported":1685722074,"current_range_meters":16800,"station_id":"ce4bh3p2rcd13ifvqdp0","pricing_plan_id":"free"},{"bike_id":"1291281c-7acf-4ec3-84ef-209abb2795a3","system_id":"levelo_inurba_marseille","lat":43.30423,"lon":5.40086,"is_reserved":false,"is_disabled":false,"rental_uris":{"android":"levelo://app?vid=1291281c-7acf-4ec3-84ef-209abb2795a3","ios":"levelo://app?vid=1291281c-7acf-4ec3-84ef-209abb2795a3"},"vehicle_type_id":"4","last_reported":1685722074,"current_range_meters":4000,"station_id":"","pricing_plan_id":"free"},{"bike_id":"52f8e68f-0c84-47fa-99c1-7064ba8357dc","system_id":"levelo_inurba_marseille","lat":43.28788,"lon":5.37866,"is_reserved":false,"is_disabled":false,"rental_uris":{"android":"levelo://app?vid=52f8e68f-0c84-47fa-99c1-7064ba8357dc","ios":"levelo://app?vid=52f8e68f-0c84-47fa-99c1-7064ba8357dc"},"vehicle_type_id":"4","last_reported":1685722074,"current_range_meters":19600,"station_id":"","pricing_plan_id":"free"},{"bike_id":"ebb7ea6f-3ff5-437e-ab21-a0499c8ad4ab","system_id":"levelo_inurba_marseille","lat":43.302759,"lon":5.400793,"is_reserved":false,"is_disabled":false,"rental_uris":{"android":"levelo://app?vid=ebb7ea6f-3ff5-437e-ab21-a0499c8ad4ab","ios":"levelo://app?vid=ebb7ea6f-3ff5-437e-ab21-a0499c8ad4ab"},"vehicle_type_id":"4","last_reported":1685722074,"current_range_meters":20400,"station_id":"ce4bgvh2rcd13ifvqcs0","pricing_plan_id":"free"},{"bike_id":"ee40e7c0-f06a-4f86-b144-b8077f2fd079","system_id":"levelo_inurba_marseille","lat":43.290345,"lon":5.38646,"is_reserved":false,"is_disabled":false,"rental_uris":{"android":"levelo://app?vid=ee40e7c0-f06a-4f86-b144-b8077f2fd079","ios":"levelo://app?vid=ee40e7c0-f06a-4f86-b144-b8077f2fd079"},"vehicle_type_id":"4","last_reported":1685722074,"current_range_meters":10400,"station_id":"ce4bh4p2rcd13ifvqe0g","pricing_plan_id":"free"},{"bike_id":"28003249-5ac0-41d7-8bbc-33554dac1e86","system_id":"levelo_inurba_marseille","lat":43.302759,"lon":5.400793,"is_reserved":false,"is_disabled":false,"rental_uris":{"android":"levelo://app?vid=28003249-5ac0-41d7-8bbc-33554dac1e86","ios":"levelo://app?vid=28003249-5ac0-41d7-8bbc-33554dac1e86"},"vehicle_type_id":"4","last_reported":1685722074,"current_range_meters":21200,"station_id":"ce4bgvh2rcd13ifvqcs0","pricing_plan_id":"free"},{"bike_id":"021b2471-0d95-4159-b7ba-2dcd05f02ac8","system_id":"levelo_inurba_marseille","lat":43.302759,"lon":5.400793,"is_reserved":false,"is_disabled":false,"rental_uris":{"android":"levelo://app?vid=021b2471-0d95-4159-b7ba-2dcd05f02ac8","ios":"levelo://app?vid=021b2471-0d95-4159-b7ba-2dcd05f02ac8"},"vehicle_type_id":"4","last_reported":1685722074,"current_range_meters":26400,"station_id":"ce4bgvh2rcd13ifvqcs0","pricing_plan_id":"free"},{"bike_id":"897aafab-0d75-43d8-810e-ad9ffa2f8aa9","system_id":"levelo_inurba_marseille","lat":43.302759,"lon":5.400793,"is_reserved":false,"is_disabled":false,"rental_uris":{"android":"levelo://app?vid=897aafab-0d75-43d8-810e-ad9ffa2f8aa9","ios":"levelo://app?vid=897aafab-0d75-43d8-810e-ad9ffa2f8aa9"},"vehicle_type_id":"4","last_reported":1685722074,"current_range_meters":4400,"station_id":"ce4bgvh2rcd13ifvqcs0","pricing_plan_id":"free"},{"bike_id":"a66a04fc-30da-48c1-ab90-44bdd5cb67e1","system_id":"levelo_inurba_marseille","lat":43.30197,"lon":5.40052,"is_reserved":false,"is_disabled":false,"rental_uris":{"android":"levelo://app?vid=a66a04fc-30da-48c1-ab90-44bdd5cb67e1","ios":"levelo://app?vid=a66a04fc-30da-48c1-ab90-44bdd5cb67e1"},"vehicle_type_id":"4","last_reported":1685722074,"current_range_meters":2400,"station_id":"","pricing_plan_id":"free"},{"bike_id":"0bfdf4ad-7f74-45e6-b5ab-6e46870e4d34","system_id":"levelo_inurba_marseille","lat":43.287184,"lon":5.37937,"is_reserved":false,"is_disabled":false,"rental_uris":{"android":"levelo://app?vid=0bfdf4ad-7f74-45e6-b5ab-6e46870e4d34","ios":"levelo://app?vid=0bfdf4ad-7f74-45e6-b5ab-6e46870e4d34"},"vehicle_type_id":"4","last_reported":1685722074,"current_range_meters":0,"station_id":"ce4bh9p2rcd13ifvqec0","pricing_plan_id":"free"},{"bike_id":"8677d640-6060-4f10-b09a-48e6e53d4879","system_id":"levelo_inurba_marseille","lat":43.316517,"lon":5.404375,"is_reserved":false,"is_disabled":false,"rental_uris":{"android":"levelo://app?vid=8677d640-6060-4f10-b09a-48e6e53d4879","ios":"levelo://app?vid=8677d640-6060-4f10-b09a-48e6e53d4879"},"vehicle_type_id":"4","last_reported":1685722074,"current_range_meters":2000,"station_id":"ce4bh012rcd13ifvqd00","pricing_plan_id":"free"},{"bike_id":"0ab2bb99-5423-4870-b6db-949f0e3d1789","system_id":"levelo_inurba_marseille","lat":43.28463,"lon":5.35892,"is_reserved":false,"is_disabled":false,"rental_uris":{"android":"levelo://app?vid=0ab2bb99-5423-4870-b6db-949f0e3d1789","ios":"levelo://app?vid=0ab2bb99-5423-4870-b6db-949f0e3d1789"},"vehicle_type_id":"4","last_reported":1685722074,"current_range_meters":0,"station_id":"ce4bhah2rcd13ifvqei0","pricing_plan_id":"free"},{"bike_id":"378185ca-20af-4103-b389-20f21fda992e","system_id":"levelo_inurba_marseille","lat":43.284534,"lon":5.358662,"is_reserved":false,"is_disabled":false,"rental_uris":{"android":"levelo://app?vid=378185ca-20af-4103-b389-20f21fda992e","ios":"levelo://app?vid=378185ca-20af-4103-b389-20f21fda992e"},"vehicle_type_id":"4","last_reported":1685722074,"current_range_meters":25200,"station_id":"ce4bhah2rcd13ifvqei0","pricing_plan_id":"free"},{"bike_id":"117ddeb4-df7e-4dee-884a-71abf1ebd9a3","system_id":"levelo_inurba_marseille","lat":43.28624,"lon":5.35108,"is_reserved":false,"is_disabled":false,"rental_uris":{"android":"levelo://app?vid=117ddeb4-df7e-4dee-884a-71abf1ebd9a3","ios":"levelo://app?vid=117ddeb4-df7e-4dee-884a-71abf1ebd9a3"},"vehicle_type_id":"4","last_reported":1685722074,"current_range_meters":22800,"station_id":"","pricing_plan_id":"free"},{"bike_id":"cba02cce-9dd6-4413-aea8-df7a096f0ed1","system_id":"levelo_inurba_marseille","lat":43.285848,"lon":5.350787,"is_reserved":false,"is_disabled":false,"rental_uris":{"android":"levelo://app?vid=cba02cce-9dd6-4413-aea8-df7a096f0ed1","ios":"levelo://app?vid=cba02cce-9dd6-4413-aea8-df7a096f0ed1"},"vehicle_type_id":"4","last_reported":1685722074,"current_range_meters":13600,"station_id":"ce4bhch2rcd13ifvqeug","pricing_plan_id":"free"},{"bike_id":"c48be8a5-5932-448b-bcca-299b891b41c5","system_id":"levelo_inurba_marseille","lat":43.285848,"lon":5.350787,"is_reserved":false,"is_disabled":false,"rental_uris":{"android":"levelo://app?vid=c48be8a5-5932-448b-bcca-299b891b41c5","ios":"levelo://app?vid=c48be8a5-5932-448b-bcca-299b891b41c5"},"vehicle_type_id":"4","last_reported":1685722074,"current_range_meters":15600,"station_id":"ce4bhch2rcd13ifvqeug","pricing_plan_id":"free"},{"bike_id":"9b2c5895-d8b6-4135-92cd-38e56a8f3525","system_id":"levelo_inurba_marseille","lat":43.285848,"lon":5.350787,"is_reserved":false,"is_disabled":false,"rental_uris":{"android":"levelo://app?vid=9b2c5895-d8b6-4135-92cd-38e56a8f3525","ios":"levelo://app?vid=9b2c5895-d8b6-4135-92cd-38e56a8f3525"},"vehicle_type_id":"4","last_reported":1685722074,"current_range_meters":800,"station_id":"ce4bhch2rcd13ifvqeug","pricing_plan_id":"free"},{"bike_id":"64aa1fe1-8810-45aa-b5bf-942dcee978e1","system_id":"levelo_inurba_marseille","lat":43.286595,"lon":5.386795,"is_reserved":false,"is_disabled":false,"rental_uris":{"android":"levelo://app?vid=64aa1fe1-8810-45aa-b5bf-942dcee978e1","ios":"levelo://app?vid=64aa1fe1-8810-45aa-b5bf-942dcee978e1"},"vehicle_type_id":"4","last_reported":1685722074,"current_range_meters":3600,"station_id":"ce4bh492rcd13ifvqdug","pricing_plan_id":"free"},{"bike_id":"47f0e2d2-629d-4598-880d-dd6d6a30bc6c","system_id":"levelo_inurba_marseille","lat":43.323464,"lon":5.406297,"is_reserved":false,"is_disabled":false,"rental_uris":{"android":"levelo://app?vid=47f0e2d2-629d-4598-880d-dd6d6a30bc6c","ios":"levelo://app?vid=47f0e2d2-629d-4598-880d-dd6d6a30bc6c"},"vehicle_type_id":"4","last_reported":1685722074,"current_range_meters":30000,"station_id":"ce4bhq92rcd13ifvqhjg","pricing_plan_id":"free"},{"bike_id":"01392d24-e4be-41c4-aefb-8ab2a29fcd92","system_id":"levelo_inurba_marseille","lat":43.323464,"lon":5.406297,"is_reserved":false,"is_disabled":false,"rental_uris":{"android":"levelo://app?vid=01392d24-e4be-41c4-aefb-8ab2a29fcd92","ios":"levelo://app?vid=01392d24-e4be-41c4-aefb-8ab2a29fcd92"},"vehicle_type_id":"4","last_reported":1685722074,"current_range_meters":30400,"station_id":"ce4bhq92rcd13ifvqhjg","pricing_plan_id":"free"},{"bike_id":"679584b5-30d5-4240-982f-f732669589f3","system_id":"levelo_inurba_marseille","lat":43.323464,"lon":5.406297,"is_reserved":false,"is_disabled":false,"rental_uris":{"android":"levelo://app?vid=679584b5-30d5-4240-982f-f732669589f3","ios":"levelo://app?vid=679584b5-30d5-4240-982f-f732669589f3"},"vehicle_type_id":"4","last_reported":1685722074,"current_range_meters":29600,"station_id":"ce4bhq92rcd13ifvqhjg","pricing_plan_id":"free"},{"bike_id":"4f3e918a-fbef-40d0-8421-5167dbebbd00","system_id":"levelo_inurba_marseille","lat":43.323464,"lon":5.406297,"is_reserved":false,"is_disabled":false,"rental_uris":{"android":"levelo://app?vid=4f3e918a-fbef-40d0-8421-5167dbebbd00","ios":"levelo://app?vid=4f3e918a-fbef-40d0-8421-5167dbebbd00"},"vehicle_type_id":"4","last_reported":1685722074,"current_range_meters":26800,"station_id":"ce4bhq92rcd13ifvqhjg","pricing_plan_id":"free"},{"bike_id":"82a80a42-2cd3-4e39-9c1e-8a2d97957f7f","system_id":"levelo_inurba_marseille","lat":43.323464,"lon":5.406297,"is_reserved":false,"is_disabled":false,"rental_uris":{"android":"levelo://app?vid=82a80a42-2cd3-4e39-9c1e-8a2d97957f7f","ios":"levelo://app?vid=82a80a42-2cd3-4e39-9c1e-8a2d97957f7f"},"vehicle_type_id":"4","last_reported":1685722074,"current_range_meters":28000,"station_id":"ce4bhq92rcd13ifvqhjg","pricing_plan_id":"free"},{"bike_id":"8025a85d-9cc2-413a-9e42-d144853f9906","system_id":"levelo_inurba_marseille","lat":43.284793,"lon":5.384119,"is_reserved":false,"is_disabled":false,"rental_uris":{"android":"levelo://app?vid=8025a85d-9cc2-413a-9e42-d144853f9906","ios":"levelo://app?vid=8025a85d-9cc2-413a-9e42-d144853f9906"},"vehicle_type_id":"4","last_reported":1685722074,"current_range_meters":0,"station_id":"ce4bh512rcd13ifvqe3g","pricing_plan_id":"free"},{"bike_id":"f36c54b6-c845-4a82-b240-0f1bc12a93b0","system_id":"levelo_inurba_marseille","lat":43.288501,"lon":5.393087,"is_reserved":false,"is_disabled":false,"rental_uris":{"android":"levelo://app?vid=f36c54b6-c845-4a82-b240-0f1bc12a93b0","ios":"levelo://app?vid=f36c54b6-c845-4a82-b240-0f1bc12a93b0"},"vehicle_type_id":"4","last_reported":1685722074,"current_range_meters":1600,"station_id":"ce4bh2p2rcd13ifvqdi0","pricing_plan_id":"free"},{"bike_id":"ab5d74c8-78c0-4f29-96ed-15b1e58c8dae","system_id":"levelo_inurba_marseille","lat":43.288501,"lon":5.393087,"is_reserved":false,"is_disabled":false,"rental_uris":{"android":"levelo://app?vid=ab5d74c8-78c0-4f29-96ed-15b1e58c8dae","ios":"levelo://app?vid=ab5d74c8-78c0-4f29-96ed-15b1e58c8dae"},"vehicle_type_id":"4","last_reported":1685722074,"current_range_meters":30400,"station_id":"ce4bh2p2rcd13ifvqdi0","pricing_plan_id":"free"},{"bike_id":"d7221ae4-6468-4fcc-8e0a-5eeb09accd0d","system_id":"levelo_inurba_marseille","lat":43.28428,"lon":5.35002,"is_reserved":false,"is_disabled":false,"rental_uris":{"android":"levelo://app?vid=d7221ae4-6468-4fcc-8e0a-5eeb09accd0d","ios":"levelo://app?vid=d7221ae4-6468-4fcc-8e0a-5eeb09accd0d"},"vehicle_type_id":"4","last_reported":1685722074,"current_range_meters":14800,"station_id":"ce4bhbh2rcd13ifvqepg","pricing_plan_id":"free"},{"bike_id":"085284ed-2a57-4585-a12e-ad4963fc22d5","system_id":"levelo_inurba_marseille","lat":43.284219,"lon":5.3497,"is_reserved":false,"is_disabled":false,"rental_uris":{"android":"levelo://app?vid=085284ed-2a57-4585-a12e-ad4963fc22d5","ios":"levelo://app?vid=085284ed-2a57-4585-a12e-ad4963fc22d5"},"vehicle_type_id":"4","last_reported":1685722074,"current_range_meters":18800,"station_id":"ce4bhbh2rcd13ifvqepg","pricing_plan_id":"free"},{"bike_id":"a4b26d5a-b209-48ee-8785-7091b9e14fee","system_id":"levelo_inurba_marseille","lat":43.284219,"lon":5.3497,"is_reserved":false,"is_disabled":false,"rental_uris":{"android":"levelo://app?vid=a4b26d5a-b209-48ee-8785-7091b9e14fee","ios":"levelo://app?vid=a4b26d5a-b209-48ee-8785-7091b9e14fee"},"vehicle_type_id":"4","last_reported":1685722074,"current_range_meters":10400,"station_id":"ce4bhbh2rcd13ifvqepg","pricing_plan_id":"free"},{"bike_id":"f1b51b29-890c-43cf-aa02-896850e5f697","system_id":"levelo_inurba_marseille","lat":43.284219,"lon":5.3497,"is_reserved":false,"is_disabled":false,"rental_uris":{"android":"levelo://app?vid=f1b51b29-890c-43cf-aa02-896850e5f697","ios":"levelo://app?vid=f1b51b29-890c-43cf-aa02-896850e5f697"},"vehicle_type_id":"4","last_reported":1685722074,"current_range_meters":0,"station_id":"ce4bhbh2rcd13ifvqepg","pricing_plan_id":"free"},{"bike_id":"922d873b-3c5f-433a-ab8f-28812281c616","system_id":"levelo_inurba_marseille","lat":43.284219,"lon":5.3497,"is_reserved":false,"is_disabled":false,"rental_uris":{"android":"levelo://app?vid=922d873b-3c5f-433a-ab8f-28812281c616","ios":"levelo://app?vid=922d873b-3c5f-433a-ab8f-28812281c616"},"vehicle_type_id":"4","last_reported":1685722074,"current_range_meters":2800,"station_id":"ce4bhbh2rcd13ifvqepg","pricing_plan_id":"free"},{"bike_id":"7260b94a-f328-4bb2-aec2-4ab3262efef8","system_id":"levelo_inurba_marseille","lat":43.284219,"lon":5.3497,"is_reserved":false,"is_disabled":false,"rental_uris":{"android":"levelo://app?vid=7260b94a-f328-4bb2-aec2-4ab3262efef8","ios":"levelo://app?vid=7260b94a-f328-4bb2-aec2-4ab3262efef8"},"vehicle_type_id":"4","last_reported":1685722074,"current_range_meters":16000,"station_id":"ce4bhbh2rcd13ifvqepg","pricing_plan_id":"free"},{"bike_id":"167e4ddb-8850-4924-95c9-4fba5a1d5388","system_id":"levelo_inurba_marseille","lat":43.284219,"lon":5.3497,"is_reserved":false,"is_disabled":false,"rental_uris":{"android":"levelo://app?vid=167e4ddb-8850-4924-95c9-4fba5a1d5388","ios":"levelo://app?vid=167e4ddb-8850-4924-95c9-4fba5a1d5388"},"vehicle_type_id":"4","last_reported":1685722074,"current_range_meters":23600,"station_id":"ce4bhbh2rcd13ifvqepg","pricing_plan_id":"free"},{"bike_id":"a997a219-e35d-4ccd-a787-01988d3f471a","system_id":"levelo_inurba_marseille","lat":43.284219,"lon":5.3497,"is_reserved":false,"is_disabled":false,"rental_uris":{"android":"levelo://app?vid=a997a219-e35d-4ccd-a787-01988d3f471a","ios":"levelo://app?vid=a997a219-e35d-4ccd-a787-01988d3f471a"},"vehicle_type_id":"4","last_reported":1685722074,"current_range_meters":3200,"station_id":"ce4bhbh2rcd13ifvqepg","pricing_plan_id":"free"},{"bike_id":"7b33980b-15f2-4ce4-9a11-2a31ef2bc949","system_id":"levelo_inurba_marseille","lat":43.284192,"lon":5.349725,"is_reserved":false,"is_disabled":false,"rental_uris":{"android":"levelo://app?vid=7b33980b-15f2-4ce4-9a11-2a31ef2bc949","ios":"levelo://app?vid=7b33980b-15f2-4ce4-9a11-2a31ef2bc949"},"vehicle_type_id":"4","last_reported":1685722074,"current_range_meters":20400,"station_id":"ce4bhbh2rcd13ifvqepg","pricing_plan_id":"free"},{"bike_id":"6665d989-52c1-43d7-83ed-dae436576875","system_id":"levelo_inurba_marseille","lat":43.284219,"lon":5.3497,"is_reserved":false,"is_disabled":false,"rental_uris":{"android":"levelo://app?vid=6665d989-52c1-43d7-83ed-dae436576875","ios":"levelo://app?vid=6665d989-52c1-43d7-83ed-dae436576875"},"vehicle_type_id":"4","last_reported":1685722074,"current_range_meters":11200,"station_id":"ce4bhbh2rcd13ifvqepg","pricing_plan_id":"free"},{"bike_id":"a7a7b39e-e305-4a69-811e-9e9c71a93518","system_id":"levelo_inurba_marseille","lat":43.284217,"lon":5.349697,"is_reserved":false,"is_disabled":false,"rental_uris":{"android":"levelo://app?vid=a7a7b39e-e305-4a69-811e-9e9c71a93518","ios":"levelo://app?vid=a7a7b39e-e305-4a69-811e-9e9c71a93518"},"vehicle_type_id":"4","last_reported":1685722074,"current_range_meters":20400,"station_id":"ce4bhbh2rcd13ifvqepg","pricing_plan_id":"free"},{"bike_id":"23273dab-feb4-4eec-8e70-924091c14bd7","system_id":"levelo_inurba_marseille","lat":43.292724,"lon":5.401131,"is_reserved":false,"is_disabled":false,"rental_uris":{"android":"levelo://app?vid=23273dab-feb4-4eec-8e70-924091c14bd7","ios":"levelo://app?vid=23273dab-feb4-4eec-8e70-924091c14bd7"},"vehicle_type_id":"4","last_reported":1685722074,"current_range_meters":0,"station_id":"ce4bh312rcd13ifvqdk0","pricing_plan_id":"free"},{"bike_id":"cda68664-37c4-48b8-8140-58663cefd9b3","system_id":"levelo_inurba_marseille","lat":43.292724,"lon":5.401131,"is_reserved":false,"is_disabled":false,"rental_uris":{"android":"levelo://app?vid=cda68664-37c4-48b8-8140-58663cefd9b3","ios":"levelo://app?vid=cda68664-37c4-48b8-8140-58663cefd9b3"},"vehicle_type_id":"4","last_reported":1685722074,"current_range_meters":6800,"station_id":"ce4bh312rcd13ifvqdk0","pricing_plan_id":"free"},{"bike_id":"796d7e7e-b604-490e-8c45-de433b3e643d","system_id":"levelo_inurba_marseille","lat":43.28282,"lon":5.35096,"is_reserved":false,"is_disabled":false,"rental_uris":{"android":"levelo://app?vid=796d7e7e-b604-490e-8c45-de433b3e643d","ios":"levelo://app?vid=796d7e7e-b604-490e-8c45-de433b3e643d"},"vehicle_type_id":"4","last_reported":1685722074,"current_range_meters":17600,"station_id":"","pricing_plan_id":"free"},{"bike_id":"05226b8d-ce5f-45df-a6b9-8b7599db67f6","system_id":"levelo_inurba_marseille","lat":43.28283,"lon":5.3508,"is_reserved":false,"is_disabled":false,"rental_uris":{"android":"levelo://app?vid=05226b8d-ce5f-45df-a6b9-8b7599db67f6","ios":"levelo://app?vid=05226b8d-ce5f-45df-a6b9-8b7599db67f6"},"vehicle_type_id":"4","last_reported":1685722074,"current_range_meters":31200,"station_id":"ce4bhbp2rcd13ifvqerg","pricing_plan_id":"free"},{"bike_id":"fe4c4e39-b601-40dd-ab69-eb021bfa7741","system_id":"levelo_inurba_marseille","lat":43.2828,"lon":5.35085,"is_reserved":false,"is_disabled":false,"rental_uris":{"android":"levelo://app?vid=fe4c4e39-b601-40dd-ab69-eb021bfa7741","ios":"levelo://app?vid=fe4c4e39-b601-40dd-ab69-eb021bfa7741"},"vehicle_type_id":"4","last_reported":1685722074,"current_range_meters":6000,"station_id":"ce4bhbp2rcd13ifvqerg","pricing_plan_id":"free"},{"bike_id":"5639402e-d961-4c06-b97e-103345e43297","system_id":"levelo_inurba_marseille","lat":43.28278,"lon":5.35088,"is_reserved":false,"is_disabled":false,"rental_uris":{"android":"levelo://app?vid=5639402e-d961-4c06-b97e-103345e43297","ios":"levelo://app?vid=5639402e-d961-4c06-b97e-103345e43297"},"vehicle_type_id":"4","last_reported":1685722074,"current_range_meters":8400,"station_id":"","pricing_plan_id":"free"},{"bike_id":"8cff9397-9f04-4d5d-8147-afa271d19636","system_id":"levelo_inurba_marseille","lat":43.2828,"lon":5.35077,"is_reserved":false,"is_disabled":false,"rental_uris":{"android":"levelo://app?vid=8cff9397-9f04-4d5d-8147-afa271d19636","ios":"levelo://app?vid=8cff9397-9f04-4d5d-8147-afa271d19636"},"vehicle_type_id":"4","last_reported":1685722074,"current_range_meters":18400,"station_id":"ce4bhbp2rcd13ifvqerg","pricing_plan_id":"free"},{"bike_id":"4597a396-0ccd-40eb-b9c8-67fe52843083","system_id":"levelo_inurba_marseille","lat":43.28278,"lon":5.35075,"is_reserved":false,"is_disabled":false,"rental_uris":{"android":"levelo://app?vid=4597a396-0ccd-40eb-b9c8-67fe52843083","ios":"levelo://app?vid=4597a396-0ccd-40eb-b9c8-67fe52843083"},"vehicle_type_id":"4","last_reported":1685722074,"current_range_meters":14400,"station_id":"ce4bhbp2rcd13ifvqerg","pricing_plan_id":"free"},{"bike_id":"ac450574-87da-4308-bef6-8a1bf6a8d96e","system_id":"levelo_inurba_marseille","lat":43.28277,"lon":5.35078,"is_reserved":false,"is_disabled":false,"rental_uris":{"android":"levelo://app?vid=ac450574-87da-4308-bef6-8a1bf6a8d96e","ios":"levelo://app?vid=ac450574-87da-4308-bef6-8a1bf6a8d96e"},"vehicle_type_id":"4","last_reported":1685722074,"current_range_meters":3600,"station_id":"ce4bhbp2rcd13ifvqerg","pricing_plan_id":"free"},{"bike_id":"5daa77e1-a3d3-4bec-9131-f0f4de7b123b","system_id":"levelo_inurba_marseille","lat":43.28275,"lon":5.35074,"is_reserved":false,"is_disabled":false,"rental_uris":{"android":"levelo://app?vid=5daa77e1-a3d3-4bec-9131-f0f4de7b123b","ios":"levelo://app?vid=5daa77e1-a3d3-4bec-9131-f0f4de7b123b"},"vehicle_type_id":"4","last_reported":1685722074,"current_range_meters":0,"station_id":"ce4bhbp2rcd13ifvqerg","pricing_plan_id":"free"},{"bike_id":"b96c8d43-a82d-43d5-b7bc-e613743fc021","system_id":"levelo_inurba_marseille","lat":43.28273,"lon":5.35074,"is_reserved":false,"is_disabled":false,"rental_uris":{"android":"levelo://app?vid=b96c8d43-a82d-43d5-b7bc-e613743fc021","ios":"levelo://app?vid=b96c8d43-a82d-43d5-b7bc-e613743fc021"},"vehicle_type_id":"4","last_reported":1685722074,"current_range_meters":4800,"station_id":"ce4bhbp2rcd13ifvqerg","pricing_plan_id":"free"},{"bike_id":"cdb7ba79-381b-4377-8769-75e5bd11cfca","system_id":"levelo_inurba_marseille","lat":43.28271,"lon":5.3508,"is_reserved":false,"is_disabled":false,"rental_uris":{"android":"levelo://app?vid=cdb7ba79-381b-4377-8769-75e5bd11cfca","ios":"levelo://app?vid=cdb7ba79-381b-4377-8769-75e5bd11cfca"},"vehicle_type_id":"4","last_reported":1685722074,"current_range_meters":6000,"station_id":"ce4bhbp2rcd13ifvqerg","pricing_plan_id":"free"},{"bike_id":"e371a291-ab57-455e-82e6-84bc53eb8915","system_id":"levelo_inurba_marseille","lat":43.28272,"lon":5.35069,"is_reserved":false,"is_disabled":false,"rental_uris":{"android":"levelo://app?vid=e371a291-ab57-455e-82e6-84bc53eb8915","ios":"levelo://app?vid=e371a291-ab57-455e-82e6-84bc53eb8915"},"vehicle_type_id":"4","last_reported":1685722074,"current_range_meters":26400,"station_id":"ce4bhbp2rcd13ifvqerg","pricing_plan_id":"free"},{"bike_id":"a66a014a-4ddc-4baa-a818-d9cd28cdd51d","system_id":"levelo_inurba_marseille","lat":43.28272,"lon":5.35069,"is_reserved":false,"is_disabled":false,"rental_uris":{"android":"levelo://app?vid=a66a014a-4ddc-4baa-a818-d9cd28cdd51d","ios":"levelo://app?vid=a66a014a-4ddc-4baa-a818-d9cd28cdd51d"},"vehicle_type_id":"4","last_reported":1685722074,"current_range_meters":17200,"station_id":"ce4bhbp2rcd13ifvqerg","pricing_plan_id":"free"},{"bike_id":"72ade128-8060-4485-8fba-03ae7cfd4e5e","system_id":"levelo_inurba_marseille","lat":43.28271,"lon":5.35064,"is_reserved":false,"is_disabled":false,"rental_uris":{"android":"levelo://app?vid=72ade128-8060-4485-8fba-03ae7cfd4e5e","ios":"levelo://app?vid=72ade128-8060-4485-8fba-03ae7cfd4e5e"},"vehicle_type_id":"4","last_reported":1685722074,"current_range_meters":0,"station_id":"ce4bhbp2rcd13ifvqerg","pricing_plan_id":"free"},{"bike_id":"c640a09e-a347-4583-b3a3-8fc9701c42ed","system_id":"levelo_inurba_marseille","lat":43.28273,"lon":5.35055,"is_reserved":false,"is_disabled":false,"rental_uris":{"android":"levelo://app?vid=c640a09e-a347-4583-b3a3-8fc9701c42ed","ios":"levelo://app?vid=c640a09e-a347-4583-b3a3-8fc9701c42ed"},"vehicle_type_id":"4","last_reported":1685722074,"current_range_meters":27200,"station_id":"ce4bhbp2rcd13ifvqerg","pricing_plan_id":"free"},{"bike_id":"cfbb8467-f761-471f-88a7-5b44663a5ac9","system_id":"levelo_inurba_marseille","lat":43.28268,"lon":5.35072,"is_reserved":false,"is_disabled":false,"rental_uris":{"android":"levelo://app?vid=cfbb8467-f761-471f-88a7-5b44663a5ac9","ios":"levelo://app?vid=cfbb8467-f761-471f-88a7-5b44663a5ac9"},"vehicle_type_id":"4","last_reported":1685722074,"current_range_meters":13200,"station_id":"ce4bhbp2rcd13ifvqerg","pricing_plan_id":"free"},{"bike_id":"46ea7d2e-a40b-420c-b60e-198d5fb02f27","system_id":"levelo_inurba_marseille","lat":43.292724,"lon":5.401131,"is_reserved":false,"is_disabled":false,"rental_uris":{"android":"levelo://app?vid=46ea7d2e-a40b-420c-b60e-198d5fb02f27","ios":"levelo://app?vid=46ea7d2e-a40b-420c-b60e-198d5fb02f27"},"vehicle_type_id":"4","last_reported":1685722074,"current_range_meters":21200,"station_id":"ce4bh312rcd13ifvqdk0","pricing_plan_id":"free"},{"bike_id":"f705c208-2b10-4e6d-b8f9-9281cecdc521","system_id":"levelo_inurba_marseille","lat":43.28269,"lon":5.35065,"is_reserved":false,"is_disabled":false,"rental_uris":{"android":"levelo://app?vid=f705c208-2b10-4e6d-b8f9-9281cecdc521","ios":"levelo://app?vid=f705c208-2b10-4e6d-b8f9-9281cecdc521"},"vehicle_type_id":"4","last_reported":1685722074,"current_range_meters":10000,"station_id":"ce4bhbp2rcd13ifvqerg","pricing_plan_id":"free"},{"bike_id":"aa275d9a-44e5-4f8a-bb84-db5069f2aede","system_id":"levelo_inurba_marseille","lat":43.28267,"lon":5.35071,"is_reserved":false,"is_disabled":false,"rental_uris":{"android":"levelo://app?vid=aa275d9a-44e5-4f8a-bb84-db5069f2aede","ios":"levelo://app?vid=aa275d9a-44e5-4f8a-bb84-db5069f2aede"},"vehicle_type_id":"4","last_reported":1685722074,"current_range_meters":14000,"station_id":"ce4bhbp2rcd13ifvqerg","pricing_plan_id":"free"},{"bike_id":"c24e73de-f8f5-4126-8d59-cd34c0bae80e","system_id":"levelo_inurba_marseille","lat":43.28265,"lon":5.3507,"is_reserved":false,"is_disabled":false,"rental_uris":{"android":"levelo://app?vid=c24e73de-f8f5-4126-8d59-cd34c0bae80e","ios":"levelo://app?vid=c24e73de-f8f5-4126-8d59-cd34c0bae80e"},"vehicle_type_id":"4","last_reported":1685722074,"current_range_meters":20000,"station_id":"ce4bhbp2rcd13ifvqerg","pricing_plan_id":"free"},{"bike_id":"4117b2d4-9914-4ce7-aadd-3d3b2253d371","system_id":"levelo_inurba_marseille","lat":43.28264,"lon":5.35071,"is_reserved":false,"is_disabled":false,"rental_uris":{"android":"levelo://app?vid=4117b2d4-9914-4ce7-aadd-3d3b2253d371","ios":"levelo://app?vid=4117b2d4-9914-4ce7-aadd-3d3b2253d371"},"vehicle_type_id":"4","last_reported":1685722074,"current_range_meters":17200,"station_id":"ce4bhbp2rcd13ifvqerg","pricing_plan_id":"free"},{"bike_id":"ae82ac63-3945-4af3-9adb-263ed94b4a5f","system_id":"levelo_inurba_marseille","lat":43.28267,"lon":5.35058,"is_reserved":false,"is_disabled":false,"rental_uris":{"android":"levelo://app?vid=ae82ac63-3945-4af3-9adb-263ed94b4a5f","ios":"levelo://app?vid=ae82ac63-3945-4af3-9adb-263ed94b4a5f"},"vehicle_type_id":"4","last_reported":1685722074,"current_range_meters":18000,"station_id":"ce4bhbp2rcd13ifvqerg","pricing_plan_id":"free"},{"bike_id":"526882a5-cb54-42c7-9ca4-29aa9e109fa1","system_id":"levelo_inurba_marseille","lat":43.28264,"lon":5.35063,"is_reserved":false,"is_disabled":false,"rental_uris":{"android":"levelo://app?vid=526882a5-cb54-42c7-9ca4-29aa9e109fa1","ios":"levelo://app?vid=526882a5-cb54-42c7-9ca4-29aa9e109fa1"},"vehicle_type_id":"4","last_reported":1685722074,"current_range_meters":4400,"station_id":"ce4bhbp2rcd13ifvqerg","pricing_plan_id":"free"},{"bike_id":"79a6599a-a540-42d4-b494-15b4baa94a32","system_id":"levelo_inurba_marseille","lat":43.28039,"lon":5.36934,"is_reserved":false,"is_disabled":false,"rental_uris":{"android":"levelo://app?vid=79a6599a-a540-42d4-b494-15b4baa94a32","ios":"levelo://app?vid=79a6599a-a540-42d4-b494-15b4baa94a32"},"vehicle_type_id":"4","last_reported":1685722074,"current_range_meters":31200,"station_id":"ce4bha12rcd13ifvqef0","pricing_plan_id":"free"},{"bike_id":"1919fe3c-bdec-4819-a7b7-33f095c40f38","system_id":"levelo_inurba_marseille","lat":43.28039,"lon":5.369297,"is_reserved":false,"is_disabled":false,"rental_uris":{"android":"levelo://app?vid=1919fe3c-bdec-4819-a7b7-33f095c40f38","ios":"levelo://app?vid=1919fe3c-bdec-4819-a7b7-33f095c40f38"},"vehicle_type_id":"4","last_reported":1685722074,"current_range_meters":21600,"station_id":"ce4bha12rcd13ifvqef0","pricing_plan_id":"free"},{"bike_id":"59018e2b-1417-4910-9529-efbe523b357b","system_id":"levelo_inurba_marseille","lat":43.28039,"lon":5.369297,"is_reserved":false,"is_disabled":false,"rental_uris":{"android":"levelo://app?vid=59018e2b-1417-4910-9529-efbe523b357b","ios":"levelo://app?vid=59018e2b-1417-4910-9529-efbe523b357b"},"vehicle_type_id":"4","last_reported":1685722074,"current_range_meters":28000,"station_id":"ce4bha12rcd13ifvqef0","pricing_plan_id":"free"},{"bike_id":"89dfaf53-cb99-40d7-b275-e3ff28b39d55","system_id":"levelo_inurba_marseille","lat":43.290457,"lon":5.399594,"is_reserved":false,"is_disabled":false,"rental_uris":{"android":"levelo://app?vid=89dfaf53-cb99-40d7-b275-e3ff28b39d55","ios":"levelo://app?vid=89dfaf53-cb99-40d7-b275-e3ff28b39d55"},"vehicle_type_id":"4","last_reported":1685722074,"current_range_meters":26000,"station_id":"","pricing_plan_id":"free"},{"bike_id":"3cc16814-3f05-4290-9977-55e2bdc73ca7","system_id":"levelo_inurba_marseille","lat":43.296263,"lon":5.40601,"is_reserved":false,"is_disabled":false,"rental_uris":{"android":"levelo://app?vid=3cc16814-3f05-4290-9977-55e2bdc73ca7","ios":"levelo://app?vid=3cc16814-3f05-4290-9977-55e2bdc73ca7"},"vehicle_type_id":"4","last_reported":1685722074,"current_range_meters":400,"station_id":"ce4bh0h2rcd13ifvqd60","pricing_plan_id":"free"},{"bike_id":"9930009a-7110-41e9-b1d3-bd4177622878","system_id":"levelo_inurba_marseille","lat":43.284462,"lon":5.392121,"is_reserved":false,"is_disabled":false,"rental_uris":{"android":"levelo://app?vid=9930009a-7110-41e9-b1d3-bd4177622878","ios":"levelo://app?vid=9930009a-7110-41e9-b1d3-bd4177622878"},"vehicle_type_id":"4","last_reported":1685722074,"current_range_meters":31200,"station_id":"ce4bhoh2rcd13ifvqh5g","pricing_plan_id":"free"},{"bike_id":"9b3df9af-4e69-4fcb-99d6-3a8fada8c095","system_id":"levelo_inurba_marseille","lat":43.284462,"lon":5.392121,"is_reserved":false,"is_disabled":false,"rental_uris":{"android":"levelo://app?vid=9b3df9af-4e69-4fcb-99d6-3a8fada8c095","ios":"levelo://app?vid=9b3df9af-4e69-4fcb-99d6-3a8fada8c095"},"vehicle_type_id":"4","last_reported":1685722074,"current_range_meters":12400,"station_id":"ce4bhoh2rcd13ifvqh5g","pricing_plan_id":"free"},{"bike_id":"96e62ce6-9814-4a40-93c7-ac8b30d5a95e","system_id":"levelo_inurba_marseille","lat":43.284462,"lon":5.392121,"is_reserved":false,"is_disabled":false,"rental_uris":{"android":"levelo://app?vid=96e62ce6-9814-4a40-93c7-ac8b30d5a95e","ios":"levelo://app?vid=96e62ce6-9814-4a40-93c7-ac8b30d5a95e"},"vehicle_type_id":"4","last_reported":1685722074,"current_range_meters":18800,"station_id":"ce4bhoh2rcd13ifvqh5g","pricing_plan_id":"free"},{"bike_id":"ab8b1940-07eb-449e-94b4-fd101ce2cf41","system_id":"levelo_inurba_marseille","lat":43.284462,"lon":5.392121,"is_reserved":false,"is_disabled":false,"rental_uris":{"android":"levelo://app?vid=ab8b1940-07eb-449e-94b4-fd101ce2cf41","ios":"levelo://app?vid=ab8b1940-07eb-449e-94b4-fd101ce2cf41"},"vehicle_type_id":"4","last_reported":1685722074,"current_range_meters":8800,"station_id":"ce4bhoh2rcd13ifvqh5g","pricing_plan_id":"free"},{"bike_id":"badf297e-5b3d-40ac-84b3-18947ef05c59","system_id":"levelo_inurba_marseille","lat":43.284462,"lon":5.392121,"is_reserved":false,"is_disabled":false,"rental_uris":{"android":"levelo://app?vid=badf297e-5b3d-40ac-84b3-18947ef05c59","ios":"levelo://app?vid=badf297e-5b3d-40ac-84b3-18947ef05c59"},"vehicle_type_id":"4","last_reported":1685722074,"current_range_meters":15200,"station_id":"ce4bhoh2rcd13ifvqh5g","pricing_plan_id":"free"},{"bike_id":"f45cf7b7-4dc8-4304-9649-a8171ec129bc","system_id":"levelo_inurba_marseille","lat":43.285742,"lon":5.395004,"is_reserved":false,"is_disabled":false,"rental_uris":{"android":"levelo://app?vid=f45cf7b7-4dc8-4304-9649-a8171ec129bc","ios":"levelo://app?vid=f45cf7b7-4dc8-4304-9649-a8171ec129bc"},"vehicle_type_id":"4","last_reported":1685722074,"current_range_meters":22000,"station_id":"ce4bh292rcd13ifvqdg0","pricing_plan_id":"free"},{"bike_id":"0dd3ad6c-495b-4f2e-ab78-6b580bb0ad48","system_id":"levelo_inurba_marseille","lat":43.28573,"lon":5.394992,"is_reserved":false,"is_disabled":false,"rental_uris":{"android":"levelo://app?vid=0dd3ad6c-495b-4f2e-ab78-6b580bb0ad48","ios":"levelo://app?vid=0dd3ad6c-495b-4f2e-ab78-6b580bb0ad48"},"vehicle_type_id":"4","last_reported":1685722074,"current_range_meters":2800,"station_id":"ce4bh292rcd13ifvqdg0","pricing_plan_id":"free"},{"bike_id":"428b2024-4ec1-447a-bffb-6ee0e46eebb1","system_id":"levelo_inurba_marseille","lat":43.285742,"lon":5.395004,"is_reserved":false,"is_disabled":false,"rental_uris":{"android":"levelo://app?vid=428b2024-4ec1-447a-bffb-6ee0e46eebb1","ios":"levelo://app?vid=428b2024-4ec1-447a-bffb-6ee0e46eebb1"},"vehicle_type_id":"4","last_reported":1685722074,"current_range_meters":3200,"station_id":"ce4bh292rcd13ifvqdg0","pricing_plan_id":"free"},{"bike_id":"b205e703-9cc6-479d-b47b-dcec15459f4d","system_id":"levelo_inurba_marseille","lat":43.32578,"lon":5.4103,"is_reserved":false,"is_disabled":false,"rental_uris":{"android":"levelo://app?vid=b205e703-9cc6-479d-b47b-dcec15459f4d","ios":"levelo://app?vid=b205e703-9cc6-479d-b47b-dcec15459f4d"},"vehicle_type_id":"4","last_reported":1685722074,"current_range_meters":21600,"station_id":"","pricing_plan_id":"free"},{"bike_id":"9dcabd41-802e-4d1e-9fa7-36d77edf08a3","system_id":"levelo_inurba_marseille","lat":43.28712,"lon":5.39984,"is_reserved":false,"is_disabled":false,"rental_uris":{"android":"levelo://app?vid=9dcabd41-802e-4d1e-9fa7-36d77edf08a3","ios":"levelo://app?vid=9dcabd41-802e-4d1e-9fa7-36d77edf08a3"},"vehicle_type_id":"4","last_reported":1685722074,"current_range_meters":19600,"station_id":"ce4bho92rcd13ifvqh3g","pricing_plan_id":"free"},{"bike_id":"080ffa00-f5dd-4feb-849d-072d500347de","system_id":"levelo_inurba_marseille","lat":43.28704,"lon":5.39988,"is_reserved":false,"is_disabled":false,"rental_uris":{"android":"levelo://app?vid=080ffa00-f5dd-4feb-849d-072d500347de","ios":"levelo://app?vid=080ffa00-f5dd-4feb-849d-072d500347de"},"vehicle_type_id":"4","last_reported":1685722074,"current_range_meters":0,"station_id":"ce4bho92rcd13ifvqh3g","pricing_plan_id":"free"},{"bike_id":"1b4cf615-fd99-4533-a7fc-6fceb200ddb5","system_id":"levelo_inurba_marseille","lat":43.287154,"lon":5.399979,"is_reserved":false,"is_disabled":false,"rental_uris":{"android":"levelo://app?vid=1b4cf615-fd99-4533-a7fc-6fceb200ddb5","ios":"levelo://app?vid=1b4cf615-fd99-4533-a7fc-6fceb200ddb5"},"vehicle_type_id":"4","last_reported":1685722074,"current_range_meters":29600,"station_id":"ce4bho92rcd13ifvqh3g","pricing_plan_id":"free"},{"bike_id":"2a91f73c-ed81-4394-8a42-788cae4940d2","system_id":"levelo_inurba_marseille","lat":43.28693,"lon":5.3999,"is_reserved":false,"is_disabled":false,"rental_uris":{"android":"levelo://app?vid=2a91f73c-ed81-4394-8a42-788cae4940d2","ios":"levelo://app?vid=2a91f73c-ed81-4394-8a42-788cae4940d2"},"vehicle_type_id":"4","last_reported":1685722074,"current_range_meters":11200,"station_id":"ce4bho92rcd13ifvqh3g","pricing_plan_id":"free"},{"bike_id":"5603b14d-dec4-43f8-898f-1ac1e189fc4e","system_id":"levelo_inurba_marseille","lat":43.32041,"lon":5.41588,"is_reserved":false,"is_disabled":false,"rental_uris":{"android":"levelo://app?vid=5603b14d-dec4-43f8-898f-1ac1e189fc4e","ios":"levelo://app?vid=5603b14d-dec4-43f8-898f-1ac1e189fc4e"},"vehicle_type_id":"4","last_reported":1685722074,"current_range_meters":3600,"station_id":"","pricing_plan_id":"free"},{"bike_id":"8d76fbbb-bd82-49ac-8501-3064a2cef743","system_id":"levelo_inurba_marseille","lat":43.27698,"lon":5.37793,"is_reserved":false,"is_disabled":false,"rental_uris":{"android":"levelo://app?vid=8d76fbbb-bd82-49ac-8501-3064a2cef743","ios":"levelo://app?vid=8d76fbbb-bd82-49ac-8501-3064a2cef743"},"vehicle_type_id":"4","last_reported":1685722074,"current_range_meters":1200,"station_id":"","pricing_plan_id":"free"},{"bike_id":"51b04d44-6c75-4559-a511-f97cfb15fa4a","system_id":"levelo_inurba_marseille","lat":43.3253,"lon":5.41444,"is_reserved":false,"is_disabled":false,"rental_uris":{"android":"levelo://app?vid=51b04d44-6c75-4559-a511-f97cfb15fa4a","ios":"levelo://app?vid=51b04d44-6c75-4559-a511-f97cfb15fa4a"},"vehicle_type_id":"4","last_reported":1685722074,"current_range_meters":31200,"station_id":"ce4bhq12rcd13ifvqhhg","pricing_plan_id":"free"},{"bike_id":"9acde39a-5a10-46f9-b886-b309629ebc98","system_id":"levelo_inurba_marseille","lat":43.27618,"lon":5.361009,"is_reserved":false,"is_disabled":false,"rental_uris":{"android":"levelo://app?vid=9acde39a-5a10-46f9-b886-b309629ebc98","ios":"levelo://app?vid=9acde39a-5a10-46f9-b886-b309629ebc98"},"vehicle_type_id":"4","last_reported":1685722074,"current_range_meters":10000,"station_id":"ce4bgj92rcd13ifvqbe0","pricing_plan_id":"free"},{"bike_id":"5898de2e-2fd6-407f-8716-7fa648702662","system_id":"levelo_inurba_marseille","lat":43.27618,"lon":5.361009,"is_reserved":false,"is_disabled":false,"rental_uris":{"android":"levelo://app?vid=5898de2e-2fd6-407f-8716-7fa648702662","ios":"levelo://app?vid=5898de2e-2fd6-407f-8716-7fa648702662"},"vehicle_type_id":"4","last_reported":1685722074,"current_range_meters":16000,"station_id":"ce4bgj92rcd13ifvqbe0","pricing_plan_id":"free"},{"bike_id":"eaafd50c-f359-48eb-94de-44bf403bb333","system_id":"levelo_inurba_marseille","lat":43.29249,"lon":5.40915,"is_reserved":false,"is_disabled":false,"rental_uris":{"android":"levelo://app?vid=eaafd50c-f359-48eb-94de-44bf403bb333","ios":"levelo://app?vid=eaafd50c-f359-48eb-94de-44bf403bb333"},"vehicle_type_id":"4","last_reported":1685722074,"current_range_meters":9200,"station_id":"ce4bh192rcd13ifvqdc0","pricing_plan_id":"free"},{"bike_id":"89fb99ff-bd0c-47e7-b3ca-9981e02b6e59","system_id":"levelo_inurba_marseille","lat":43.27618,"lon":5.361009,"is_reserved":false,"is_disabled":false,"rental_uris":{"android":"levelo://app?vid=89fb99ff-bd0c-47e7-b3ca-9981e02b6e59","ios":"levelo://app?vid=89fb99ff-bd0c-47e7-b3ca-9981e02b6e59"},"vehicle_type_id":"4","last_reported":1685722074,"current_range_meters":25600,"station_id":"ce4bgj92rcd13ifvqbe0","pricing_plan_id":"free"},{"bike_id":"76516433-7f23-48b5-a827-3470d7b003cd","system_id":"levelo_inurba_marseille","lat":43.27618,"lon":5.361009,"is_reserved":false,"is_disabled":false,"rental_uris":{"android":"levelo://app?vid=76516433-7f23-48b5-a827-3470d7b003cd","ios":"levelo://app?vid=76516433-7f23-48b5-a827-3470d7b003cd"},"vehicle_type_id":"4","last_reported":1685722074,"current_range_meters":5600,"station_id":"ce4bgj92rcd13ifvqbe0","pricing_plan_id":"free"},{"bike_id":"2b2d2326-1310-4ce9-ba02-03d959c0ac49","system_id":"levelo_inurba_marseille","lat":43.27618,"lon":5.361009,"is_reserved":false,"is_disabled":false,"rental_uris":{"android":"levelo://app?vid=2b2d2326-1310-4ce9-ba02-03d959c0ac49","ios":"levelo://app?vid=2b2d2326-1310-4ce9-ba02-03d959c0ac49"},"vehicle_type_id":"4","last_reported":1685722074,"current_range_meters":24800,"station_id":"ce4bgj92rcd13ifvqbe0","pricing_plan_id":"free"},{"bike_id":"cf6f73e2-34bc-4dac-abdc-5a11eb41c353","system_id":"levelo_inurba_marseille","lat":43.27618,"lon":5.361009,"is_reserved":false,"is_disabled":false,"rental_uris":{"android":"levelo://app?vid=cf6f73e2-34bc-4dac-abdc-5a11eb41c353","ios":"levelo://app?vid=cf6f73e2-34bc-4dac-abdc-5a11eb41c353"},"vehicle_type_id":"4","last_reported":1685722074,"current_range_meters":12400,"station_id":"ce4bgj92rcd13ifvqbe0","pricing_plan_id":"free"},{"bike_id":"d853e9bf-ecd3-4844-b8e5-c80ed994bfa6","system_id":"levelo_inurba_marseille","lat":43.28064,"lon":5.39346,"is_reserved":false,"is_disabled":false,"rental_uris":{"android":"levelo://app?vid=d853e9bf-ecd3-4844-b8e5-c80ed994bfa6","ios":"levelo://app?vid=d853e9bf-ecd3-4844-b8e5-c80ed994bfa6"},"vehicle_type_id":"4","last_reported":1685722074,"current_range_meters":2800,"station_id":"","pricing_plan_id":"free"},{"bike_id":"5b3c36aa-ecba-4305-9109-12ae0b2bab29","system_id":"levelo_inurba_marseille","lat":43.303837,"lon":5.418724,"is_reserved":false,"is_disabled":false,"rental_uris":{"android":"levelo://app?vid=5b3c36aa-ecba-4305-9109-12ae0b2bab29","ios":"levelo://app?vid=5b3c36aa-ecba-4305-9109-12ae0b2bab29"},"vehicle_type_id":"4","last_reported":1685722074,"current_range_meters":0,"station_id":"ce4bhop2rcd13ifvqh7g","pricing_plan_id":"free"},{"bike_id":"b517696b-048d-4754-84d2-7f7bc6558e04","system_id":"levelo_inurba_marseille","lat":43.273613,"lon":5.362705,"is_reserved":false,"is_disabled":false,"rental_uris":{"android":"levelo://app?vid=b517696b-048d-4754-84d2-7f7bc6558e04","ios":"levelo://app?vid=b517696b-048d-4754-84d2-7f7bc6558e04"},"vehicle_type_id":"4","last_reported":1685722074,"current_range_meters":6400,"station_id":"ce4bhbh2rcd13ifvqeo0","pricing_plan_id":"free"},{"bike_id":"8328750f-b3ad-44bb-8aae-3c45a7961be2","system_id":"levelo_inurba_marseille","lat":43.27379,"lon":5.36258,"is_reserved":false,"is_disabled":false,"rental_uris":{"android":"levelo://app?vid=8328750f-b3ad-44bb-8aae-3c45a7961be2","ios":"levelo://app?vid=8328750f-b3ad-44bb-8aae-3c45a7961be2"},"vehicle_type_id":"4","last_reported":1685722074,"current_range_meters":15200,"station_id":"ce4bhbh2rcd13ifvqeo0","pricing_plan_id":"free"},{"bike_id":"b420911f-dc6f-4369-816e-9a442b37b170","system_id":"levelo_inurba_marseille","lat":43.27572,"lon":5.38414,"is_reserved":false,"is_disabled":false,"rental_uris":{"android":"levelo://app?vid=b420911f-dc6f-4369-816e-9a442b37b170","ios":"levelo://app?vid=b420911f-dc6f-4369-816e-9a442b37b170"},"vehicle_type_id":"4","last_reported":1685722074,"current_range_meters":11200,"station_id":"","pricing_plan_id":"free"},{"bike_id":"f38a971b-ff61-4838-9f30-a5406ccd63f2","system_id":"levelo_inurba_marseille","lat":43.27378,"lon":5.36258,"is_reserved":false,"is_disabled":false,"rental_uris":{"android":"levelo://app?vid=f38a971b-ff61-4838-9f30-a5406ccd63f2","ios":"levelo://app?vid=f38a971b-ff61-4838-9f30-a5406ccd63f2"},"vehicle_type_id":"4","last_reported":1685722074,"current_range_meters":13200,"station_id":"ce4bhbh2rcd13ifvqeo0","pricing_plan_id":"free"},{"bike_id":"efc983bc-d8df-4d21-94e7-d40d29c78959","system_id":"levelo_inurba_marseille","lat":43.27377,"lon":5.36258,"is_reserved":false,"is_disabled":false,"rental_uris":{"android":"levelo://app?vid=efc983bc-d8df-4d21-94e7-d40d29c78959","ios":"levelo://app?vid=efc983bc-d8df-4d21-94e7-d40d29c78959"},"vehicle_type_id":"4","last_reported":1685722074,"current_range_meters":0,"station_id":"ce4bhbh2rcd13ifvqeo0","pricing_plan_id":"free"},{"bike_id":"b3d5ecac-cf5f-4550-b6d5-d5f751f65d12","system_id":"levelo_inurba_marseille","lat":43.27377,"lon":5.36256,"is_reserved":false,"is_disabled":false,"rental_uris":{"android":"levelo://app?vid=b3d5ecac-cf5f-4550-b6d5-d5f751f65d12","ios":"levelo://app?vid=b3d5ecac-cf5f-4550-b6d5-d5f751f65d12"},"vehicle_type_id":"4","last_reported":1685722074,"current_range_meters":6000,"station_id":"ce4bhbh2rcd13ifvqeo0","pricing_plan_id":"free"},{"bike_id":"356fe5ab-62cc-43f3-8b4d-21900526d7b4","system_id":"levelo_inurba_marseille","lat":43.27377,"lon":5.36253,"is_reserved":false,"is_disabled":false,"rental_uris":{"android":"levelo://app?vid=356fe5ab-62cc-43f3-8b4d-21900526d7b4","ios":"levelo://app?vid=356fe5ab-62cc-43f3-8b4d-21900526d7b4"},"vehicle_type_id":"4","last_reported":1685722074,"current_range_meters":18000,"station_id":"ce4bhbh2rcd13ifvqeo0","pricing_plan_id":"free"},{"bike_id":"caa15af1-8d9b-4617-bea6-7c20e78e06a9","system_id":"levelo_inurba_marseille","lat":43.273609,"lon":5.362708,"is_reserved":false,"is_disabled":false,"rental_uris":{"android":"levelo://app?vid=caa15af1-8d9b-4617-bea6-7c20e78e06a9","ios":"levelo://app?vid=caa15af1-8d9b-4617-bea6-7c20e78e06a9"},"vehicle_type_id":"4","last_reported":1685722074,"current_range_meters":3200,"station_id":"ce4bhbh2rcd13ifvqeo0","pricing_plan_id":"free"},{"bike_id":"26832606-3aaf-4d3f-9c26-4e5f2570a913","system_id":"levelo_inurba_marseille","lat":43.27376,"lon":5.36258,"is_reserved":false,"is_disabled":false,"rental_uris":{"android":"levelo://app?vid=26832606-3aaf-4d3f-9c26-4e5f2570a913","ios":"levelo://app?vid=26832606-3aaf-4d3f-9c26-4e5f2570a913"},"vehicle_type_id":"4","last_reported":1685722074,"current_range_meters":23200,"station_id":"ce4bhbh2rcd13ifvqeo0","pricing_plan_id":"free"},{"bike_id":"17e8b2d7-d83e-4d7c-98a9-d3cf1e0bbbe0","system_id":"levelo_inurba_marseille","lat":43.27375,"lon":5.36261,"is_reserved":false,"is_disabled":false,"rental_uris":{"android":"levelo://app?vid=17e8b2d7-d83e-4d7c-98a9-d3cf1e0bbbe0","ios":"levelo://app?vid=17e8b2d7-d83e-4d7c-98a9-d3cf1e0bbbe0"},"vehicle_type_id":"4","last_reported":1685722074,"current_range_meters":0,"station_id":"ce4bhbh2rcd13ifvqeo0","pricing_plan_id":"free"},{"bike_id":"4cc1c871-2eaf-4c39-a614-1b3a45b02a9e","system_id":"levelo_inurba_marseille","lat":43.273609,"lon":5.362708,"is_reserved":false,"is_disabled":false,"rental_uris":{"android":"levelo://app?vid=4cc1c871-2eaf-4c39-a614-1b3a45b02a9e","ios":"levelo://app?vid=4cc1c871-2eaf-4c39-a614-1b3a45b02a9e"},"vehicle_type_id":"4","last_reported":1685722074,"current_range_meters":12000,"station_id":"ce4bhbh2rcd13ifvqeo0","pricing_plan_id":"free"},{"bike_id":"75111e3c-b64b-484b-8409-4d23eab049f4","system_id":"levelo_inurba_marseille","lat":43.273609,"lon":5.362708,"is_reserved":false,"is_disabled":false,"rental_uris":{"android":"levelo://app?vid=75111e3c-b64b-484b-8409-4d23eab049f4","ios":"levelo://app?vid=75111e3c-b64b-484b-8409-4d23eab049f4"},"vehicle_type_id":"4","last_reported":1685722074,"current_range_meters":23200,"station_id":"ce4bhbh2rcd13ifvqeo0","pricing_plan_id":"free"},{"bike_id":"cb01fbb8-ce48-4ca9-a286-a8a1d56a0ff3","system_id":"levelo_inurba_marseille","lat":43.273609,"lon":5.362708,"is_reserved":false,"is_disabled":false,"rental_uris":{"android":"levelo://app?vid=cb01fbb8-ce48-4ca9-a286-a8a1d56a0ff3","ios":"levelo://app?vid=cb01fbb8-ce48-4ca9-a286-a8a1d56a0ff3"},"vehicle_type_id":"4","last_reported":1685722074,"current_range_meters":22400,"station_id":"ce4bhbh2rcd13ifvqeo0","pricing_plan_id":"free"},{"bike_id":"2abca482-bcef-4443-aa58-73431612dbf2","system_id":"levelo_inurba_marseille","lat":43.27375,"lon":5.36258,"is_reserved":false,"is_disabled":false,"rental_uris":{"android":"levelo://app?vid=2abca482-bcef-4443-aa58-73431612dbf2","ios":"levelo://app?vid=2abca482-bcef-4443-aa58-73431612dbf2"},"vehicle_type_id":"4","last_reported":1685722074,"current_range_meters":400,"station_id":"ce4bhbh2rcd13ifvqeo0","pricing_plan_id":"free"},{"bike_id":"352f53fb-2408-446c-ae0c-544f92c559f4","system_id":"levelo_inurba_marseille","lat":43.27375,"lon":5.36256,"is_reserved":false,"is_disabled":false,"rental_uris":{"android":"levelo://app?vid=352f53fb-2408-446c-ae0c-544f92c559f4","ios":"levelo://app?vid=352f53fb-2408-446c-ae0c-544f92c559f4"},"vehicle_type_id":"4","last_reported":1685722074,"current_range_meters":15200,"station_id":"ce4bhbh2rcd13ifvqeo0","pricing_plan_id":"free"},{"bike_id":"7f219536-901d-4ffc-864a-c629e542a40f","system_id":"levelo_inurba_marseille","lat":43.27375,"lon":5.36255,"is_reserved":false,"is_disabled":false,"rental_uris":{"android":"levelo://app?vid=7f219536-901d-4ffc-864a-c629e542a40f","ios":"levelo://app?vid=7f219536-901d-4ffc-864a-c629e542a40f"},"vehicle_type_id":"4","last_reported":1685722074,"current_range_meters":19600,"station_id":"ce4bhbh2rcd13ifvqeo0","pricing_plan_id":"free"},{"bike_id":"dbaf76b0-3a79-4773-a3fc-62a34617223c","system_id":"levelo_inurba_marseille","lat":43.273609,"lon":5.362708,"is_reserved":false,"is_disabled":false,"rental_uris":{"android":"levelo://app?vid=dbaf76b0-3a79-4773-a3fc-62a34617223c","ios":"levelo://app?vid=dbaf76b0-3a79-4773-a3fc-62a34617223c"},"vehicle_type_id":"4","last_reported":1685722074,"current_range_meters":31600,"station_id":"ce4bhbh2rcd13ifvqeo0","pricing_plan_id":"free"},{"bike_id":"c5882171-9a2a-4b33-9240-84041e111856","system_id":"levelo_inurba_marseille","lat":43.27374,"lon":5.36255,"is_reserved":false,"is_disabled":false,"rental_uris":{"android":"levelo://app?vid=c5882171-9a2a-4b33-9240-84041e111856","ios":"levelo://app?vid=c5882171-9a2a-4b33-9240-84041e111856"},"vehicle_type_id":"4","last_reported":1685722074,"current_range_meters":21600,"station_id":"ce4bhbh2rcd13ifvqeo0","pricing_plan_id":"free"},{"bike_id":"4f82e8db-c784-497b-ac81-d8096ab63c1f","system_id":"levelo_inurba_marseille","lat":43.273613,"lon":5.362705,"is_reserved":false,"is_disabled":false,"rental_uris":{"android":"levelo://app?vid=4f82e8db-c784-497b-ac81-d8096ab63c1f","ios":"levelo://app?vid=4f82e8db-c784-497b-ac81-d8096ab63c1f"},"vehicle_type_id":"4","last_reported":1685722074,"current_range_meters":29600,"station_id":"ce4bhbh2rcd13ifvqeo0","pricing_plan_id":"free"},{"bike_id":"759c0741-5967-45a9-a432-f7ec1f1444b6","system_id":"levelo_inurba_marseille","lat":43.273609,"lon":5.362708,"is_reserved":false,"is_disabled":false,"rental_uris":{"android":"levelo://app?vid=759c0741-5967-45a9-a432-f7ec1f1444b6","ios":"levelo://app?vid=759c0741-5967-45a9-a432-f7ec1f1444b6"},"vehicle_type_id":"4","last_reported":1685722074,"current_range_meters":5600,"station_id":"ce4bhbh2rcd13ifvqeo0","pricing_plan_id":"free"},{"bike_id":"be03a30e-4fb5-4e26-8fe1-7cca92ee342b","system_id":"levelo_inurba_marseille","lat":43.27373,"lon":5.36255,"is_reserved":false,"is_disabled":false,"rental_uris":{"android":"levelo://app?vid=be03a30e-4fb5-4e26-8fe1-7cca92ee342b","ios":"levelo://app?vid=be03a30e-4fb5-4e26-8fe1-7cca92ee342b"},"vehicle_type_id":"4","last_reported":1685722074,"current_range_meters":4400,"station_id":"ce4bhbh2rcd13ifvqeo0","pricing_plan_id":"free"},{"bike_id":"d6c03251-6531-4923-a91e-d5f97f4235de","system_id":"levelo_inurba_marseille","lat":43.27372,"lon":5.36261,"is_reserved":false,"is_disabled":false,"rental_uris":{"android":"levelo://app?vid=d6c03251-6531-4923-a91e-d5f97f4235de","ios":"levelo://app?vid=d6c03251-6531-4923-a91e-d5f97f4235de"},"vehicle_type_id":"4","last_reported":1685722074,"current_range_meters":22800,"station_id":"ce4bhbh2rcd13ifvqeo0","pricing_plan_id":"free"},{"bike_id":"6280163b-b639-45ee-8ff5-c0c2c1510a38","system_id":"levelo_inurba_marseille","lat":43.27372,"lon":5.36258,"is_reserved":false,"is_disabled":false,"rental_uris":{"android":"levelo://app?vid=6280163b-b639-45ee-8ff5-c0c2c1510a38","ios":"levelo://app?vid=6280163b-b639-45ee-8ff5-c0c2c1510a38"},"vehicle_type_id":"4","last_reported":1685722074,"current_range_meters":22800,"station_id":"ce4bhbh2rcd13ifvqeo0","pricing_plan_id":"free"},{"bike_id":"60fce4cf-088d-4862-9fc7-ed8a71c2bc92","system_id":"levelo_inurba_marseille","lat":43.27568,"lon":5.38428,"is_reserved":false,"is_disabled":false,"rental_uris":{"android":"levelo://app?vid=60fce4cf-088d-4862-9fc7-ed8a71c2bc92","ios":"levelo://app?vid=60fce4cf-088d-4862-9fc7-ed8a71c2bc92"},"vehicle_type_id":"4","last_reported":1685722074,"current_range_meters":4400,"station_id":"","pricing_plan_id":"free"},{"bike_id":"bb643989-61b7-4131-addf-4157111af2e9","system_id":"levelo_inurba_marseille","lat":43.27371,"lon":5.3626,"is_reserved":false,"is_disabled":false,"rental_uris":{"android":"levelo://app?vid=bb643989-61b7-4131-addf-4157111af2e9","ios":"levelo://app?vid=bb643989-61b7-4131-addf-4157111af2e9"},"vehicle_type_id":"4","last_reported":1685722074,"current_range_meters":20800,"station_id":"ce4bhbh2rcd13ifvqeo0","pricing_plan_id":"free"},{"bike_id":"67d786d1-1fda-4692-8119-81de9535f8a2","system_id":"levelo_inurba_marseille","lat":43.273609,"lon":5.362708,"is_reserved":false,"is_disabled":false,"rental_uris":{"android":"levelo://app?vid=67d786d1-1fda-4692-8119-81de9535f8a2","ios":"levelo://app?vid=67d786d1-1fda-4692-8119-81de9535f8a2"},"vehicle_type_id":"4","last_reported":1685722074,"current_range_meters":14800,"station_id":"ce4bhbh2rcd13ifvqeo0","pricing_plan_id":"free"},{"bike_id":"34de669f-33ba-42ce-ace1-35eabd3cba17","system_id":"levelo_inurba_marseille","lat":43.273609,"lon":5.362708,"is_reserved":false,"is_disabled":false,"rental_uris":{"android":"levelo://app?vid=34de669f-33ba-42ce-ace1-35eabd3cba17","ios":"levelo://app?vid=34de669f-33ba-42ce-ace1-35eabd3cba17"},"vehicle_type_id":"4","last_reported":1685722074,"current_range_meters":28400,"station_id":"ce4bhbh2rcd13ifvqeo0","pricing_plan_id":"free"},{"bike_id":"046981be-6ac3-4732-a214-cc5a33a49a1e","system_id":"levelo_inurba_marseille","lat":43.27422,"lon":5.39413,"is_reserved":false,"is_disabled":false,"rental_uris":{"android":"levelo://app?vid=046981be-6ac3-4732-a214-cc5a33a49a1e","ios":"levelo://app?vid=046981be-6ac3-4732-a214-cc5a33a49a1e"},"vehicle_type_id":"4","last_reported":1685722074,"current_range_meters":24400,"station_id":"","pricing_plan_id":"free"},{"bike_id":"2d911ec0-a0a4-476c-871a-167bf2b838bc","system_id":"levelo_inurba_marseille","lat":43.295523,"lon":5.422926,"is_reserved":false,"is_disabled":false,"rental_uris":{"android":"levelo://app?vid=2d911ec0-a0a4-476c-871a-167bf2b838bc","ios":"levelo://app?vid=2d911ec0-a0a4-476c-871a-167bf2b838bc"},"vehicle_type_id":"4","last_reported":1685722074,"current_range_meters":13200,"station_id":"ce4bhph2rcd13ifvqhdg","pricing_plan_id":"free"},{"bike_id":"7e9fdb8e-d023-460b-96b1-2036391b5711","system_id":"levelo_inurba_marseille","lat":43.272124,"lon":5.391768,"is_reserved":false,"is_disabled":false,"rental_uris":{"android":"levelo://app?vid=7e9fdb8e-d023-460b-96b1-2036391b5711","ios":"levelo://app?vid=7e9fdb8e-d023-460b-96b1-2036391b5711"},"vehicle_type_id":"4","last_reported":1685722074,"current_range_meters":28400,"station_id":"ce4bhhp2rcd13ifvqfm0","pricing_plan_id":"free"},{"bike_id":"d07d1b65-0ee2-4889-b652-b05cef42bca5","system_id":"levelo_inurba_marseille","lat":43.272116,"lon":5.391747,"is_reserved":false,"is_disabled":false,"rental_uris":{"android":"levelo://app?vid=d07d1b65-0ee2-4889-b652-b05cef42bca5","ios":"levelo://app?vid=d07d1b65-0ee2-4889-b652-b05cef42bca5"},"vehicle_type_id":"4","last_reported":1685722074,"current_range_meters":4000,"station_id":"ce4bhhp2rcd13ifvqfm0","pricing_plan_id":"free"},{"bike_id":"477c9b24-a1bd-4af2-9e3a-7a10b9af13d1","system_id":"levelo_inurba_marseille","lat":43.31715,"lon":5.43305,"is_reserved":false,"is_disabled":false,"rental_uris":{"android":"levelo://app?vid=477c9b24-a1bd-4af2-9e3a-7a10b9af13d1","ios":"levelo://app?vid=477c9b24-a1bd-4af2-9e3a-7a10b9af13d1"},"vehicle_type_id":"4","last_reported":1685722074,"current_range_meters":0,"station_id":"","pricing_plan_id":"free"},{"bike_id":"f19dc414-811e-4341-9450-26e15451a011","system_id":"levelo_inurba_marseille","lat":43.26341,"lon":5.37756,"is_reserved":false,"is_disabled":false,"rental_uris":{"android":"levelo://app?vid=f19dc414-811e-4341-9450-26e15451a011","ios":"levelo://app?vid=f19dc414-811e-4341-9450-26e15451a011"},"vehicle_type_id":"4","last_reported":1685722074,"current_range_meters":0,"station_id":"","pricing_plan_id":"free"},{"bike_id":"9cb85d52-70a6-42d0-b4e8-173b5668d78a","system_id":"levelo_inurba_marseille","lat":43.317104,"lon":5.436818,"is_reserved":false,"is_disabled":false,"rental_uris":{"android":"levelo://app?vid=9cb85d52-70a6-42d0-b4e8-173b5668d78a","ios":"levelo://app?vid=9cb85d52-70a6-42d0-b4e8-173b5668d78a"},"vehicle_type_id":"4","last_reported":1685722074,"current_range_meters":31600,"station_id":"ce4bhp92rcd13ifvqhcg","pricing_plan_id":"free"},{"bike_id":"c8399c69-2f14-4cee-8cb3-4d0b1ddc6023","system_id":"levelo_inurba_marseille","lat":43.261782,"lon":5.374515,"is_reserved":false,"is_disabled":false,"rental_uris":{"android":"levelo://app?vid=c8399c69-2f14-4cee-8cb3-4d0b1ddc6023","ios":"levelo://app?vid=c8399c69-2f14-4cee-8cb3-4d0b1ddc6023"},"vehicle_type_id":"4","last_reported":1685722074,"current_range_meters":5200,"station_id":"ce4bhgp2rcd13ifvqfc0","pricing_plan_id":"free"},{"bike_id":"90855097-d628-413d-a605-c67d34b8a7ca","system_id":"levelo_inurba_marseille","lat":43.317104,"lon":5.436818,"is_reserved":false,"is_disabled":false,"rental_uris":{"android":"levelo://app?vid=90855097-d628-413d-a605-c67d34b8a7ca","ios":"levelo://app?vid=90855097-d628-413d-a605-c67d34b8a7ca"},"vehicle_type_id":"4","last_reported":1685722074,"current_range_meters":27200,"station_id":"ce4bhp92rcd13ifvqhcg","pricing_plan_id":"free"},{"bike_id":"b70b94d5-7864-4951-9a84-d0af009c89fc","system_id":"levelo_inurba_marseille","lat":43.317104,"lon":5.436818,"is_reserved":false,"is_disabled":false,"rental_uris":{"android":"levelo://app?vid=b70b94d5-7864-4951-9a84-d0af009c89fc","ios":"levelo://app?vid=b70b94d5-7864-4951-9a84-d0af009c89fc"},"vehicle_type_id":"4","last_reported":1685722074,"current_range_meters":30000,"station_id":"ce4bhp92rcd13ifvqhcg","pricing_plan_id":"free"},{"bike_id":"5e5f4dea-a722-4b1a-a40b-b64eabaa30e4","system_id":"levelo_inurba_marseille","lat":43.317104,"lon":5.436818,"is_reserved":false,"is_disabled":false,"rental_uris":{"android":"levelo://app?vid=5e5f4dea-a722-4b1a-a40b-b64eabaa30e4","ios":"levelo://app?vid=5e5f4dea-a722-4b1a-a40b-b64eabaa30e4"},"vehicle_type_id":"4","last_reported":1685722074,"current_range_meters":26000,"station_id":"ce4bhp92rcd13ifvqhcg","pricing_plan_id":"free"},{"bike_id":"2c8cb84b-1112-4638-840b-42a6227cf279","system_id":"levelo_inurba_marseille","lat":43.28507,"lon":5.42652,"is_reserved":false,"is_disabled":false,"rental_uris":{"android":"levelo://app?vid=2c8cb84b-1112-4638-840b-42a6227cf279","ios":"levelo://app?vid=2c8cb84b-1112-4638-840b-42a6227cf279"},"vehicle_type_id":"4","last_reported":1685722074,"current_range_meters":15600,"station_id":"","pricing_plan_id":"free"},{"bike_id":"97911575-0740-4ace-9259-7ac6b2b09d9e","system_id":"levelo_inurba_marseille","lat":43.28508,"lon":5.42654,"is_reserved":false,"is_disabled":false,"rental_uris":{"android":"levelo://app?vid=97911575-0740-4ace-9259-7ac6b2b09d9e","ios":"levelo://app?vid=97911575-0740-4ace-9259-7ac6b2b09d9e"},"vehicle_type_id":"4","last_reported":1685722074,"current_range_meters":6800,"station_id":"","pricing_plan_id":"free"},{"bike_id":"e0b764a4-ba05-4f43-b204-dcfb29ea2c4e","system_id":"levelo_inurba_marseille","lat":43.26206,"lon":5.37931,"is_reserved":false,"is_disabled":false,"rental_uris":{"android":"levelo://app?vid=e0b764a4-ba05-4f43-b204-dcfb29ea2c4e","ios":"levelo://app?vid=e0b764a4-ba05-4f43-b204-dcfb29ea2c4e"},"vehicle_type_id":"4","last_reported":1685722074,"current_range_meters":2800,"station_id":"ce4bhjp2rcd13ifvqg90","pricing_plan_id":"free"},{"bike_id":"d932aa58-4a15-4f6f-aafd-1c936e91cfa2","system_id":"levelo_inurba_marseille","lat":43.262012,"lon":5.379307,"is_reserved":false,"is_disabled":false,"rental_uris":{"android":"levelo://app?vid=d932aa58-4a15-4f6f-aafd-1c936e91cfa2","ios":"levelo://app?vid=d932aa58-4a15-4f6f-aafd-1c936e91cfa2"},"vehicle_type_id":"4","last_reported":1685722074,"current_range_meters":20400,"station_id":"ce4bhjp2rcd13ifvqg90","pricing_plan_id":"free"},{"bike_id":"559972c1-60b4-48d6-8a39-b0485dab896f","system_id":"levelo_inurba_marseille","lat":43.26202,"lon":5.379299,"is_reserved":false,"is_disabled":false,"rental_uris":{"android":"levelo://app?vid=559972c1-60b4-48d6-8a39-b0485dab896f","ios":"levelo://app?vid=559972c1-60b4-48d6-8a39-b0485dab896f"},"vehicle_type_id":"4","last_reported":1685722074,"current_range_meters":16000,"station_id":"ce4bhjp2rcd13ifvqg90","pricing_plan_id":"free"},{"bike_id":"ed233748-0be2-4ead-b1f7-00583a5312d8","system_id":"levelo_inurba_marseille","lat":43.267959,"lon":5.402687,"is_reserved":false,"is_disabled":false,"rental_uris":{"android":"levelo://app?vid=ed233748-0be2-4ead-b1f7-00583a5312d8","ios":"levelo://app?vid=ed233748-0be2-4ead-b1f7-00583a5312d8"},"vehicle_type_id":"4","last_reported":1685722074,"current_range_meters":6400,"station_id":"ce501612rcd8frsf0b60","pricing_plan_id":"free"},{"bike_id":"6dbd882f-7e54-430d-a9f8-6458198438c5","system_id":"levelo_inurba_marseille","lat":43.267959,"lon":5.402685,"is_reserved":false,"is_disabled":false,"rental_uris":{"android":"levelo://app?vid=6dbd882f-7e54-430d-a9f8-6458198438c5","ios":"levelo://app?vid=6dbd882f-7e54-430d-a9f8-6458198438c5"},"vehicle_type_id":"4","last_reported":1685722074,"current_range_meters":12000,"station_id":"ce501612rcd8frsf0b60","pricing_plan_id":"free"},{"bike_id":"3db5447b-a0c0-4fd3-8599-8517318ccf85","system_id":"levelo_inurba_marseille","lat":43.267959,"lon":5.402687,"is_reserved":false,"is_disabled":false,"rental_uris":{"android":"levelo://app?vid=3db5447b-a0c0-4fd3-8599-8517318ccf85","ios":"levelo://app?vid=3db5447b-a0c0-4fd3-8599-8517318ccf85"},"vehicle_type_id":"4","last_reported":1685722074,"current_range_meters":21200,"station_id":"ce501612rcd8frsf0b60","pricing_plan_id":"free"},{"bike_id":"b1cc55f4-586e-44e4-b6fc-621f0bf685a3","system_id":"levelo_inurba_marseille","lat":43.267959,"lon":5.402685,"is_reserved":false,"is_disabled":false,"rental_uris":{"android":"levelo://app?vid=b1cc55f4-586e-44e4-b6fc-621f0bf685a3","ios":"levelo://app?vid=b1cc55f4-586e-44e4-b6fc-621f0bf685a3"},"vehicle_type_id":"4","last_reported":1685722074,"current_range_meters":25600,"station_id":"ce501612rcd8frsf0b60","pricing_plan_id":"free"},{"bike_id":"948c508b-6fd6-4706-82cc-8eda66d6e6a0","system_id":"levelo_inurba_marseille","lat":43.268,"lon":5.40267,"is_reserved":false,"is_disabled":false,"rental_uris":{"android":"levelo://app?vid=948c508b-6fd6-4706-82cc-8eda66d6e6a0","ios":"levelo://app?vid=948c508b-6fd6-4706-82cc-8eda66d6e6a0"},"vehicle_type_id":"4","last_reported":1685722074,"current_range_meters":18800,"station_id":"ce501612rcd8frsf0b60","pricing_plan_id":"free"},{"bike_id":"60fb9408-2a27-48a3-a8f3-67a123c510fb","system_id":"levelo_inurba_marseille","lat":43.2607,"lon":5.393983,"is_reserved":false,"is_disabled":false,"rental_uris":{"android":"levelo://app?vid=60fb9408-2a27-48a3-a8f3-67a123c510fb","ios":"levelo://app?vid=60fb9408-2a27-48a3-a8f3-67a123c510fb"},"vehicle_type_id":"4","last_reported":1685722074,"current_range_meters":18800,"station_id":"ce4bhh92rcd13ifvqfj0","pricing_plan_id":"free"},{"bike_id":"62562acd-18c9-4d5b-96fc-e1f980fb1070","system_id":"levelo_inurba_marseille","lat":43.260225,"lon":5.375455,"is_reserved":false,"is_disabled":false,"rental_uris":{"android":"levelo://app?vid=62562acd-18c9-4d5b-96fc-e1f980fb1070","ios":"levelo://app?vid=62562acd-18c9-4d5b-96fc-e1f980fb1070"},"vehicle_type_id":"4","last_reported":1685722074,"current_range_meters":8400,"station_id":"ce4bhgh2rcd13ifvqfa0","pricing_plan_id":"free"},{"bike_id":"41c2590e-164d-41e9-b96b-588d43dd2f8b","system_id":"levelo_inurba_marseille","lat":43.28604,"lon":5.44216,"is_reserved":false,"is_disabled":false,"rental_uris":{"android":"levelo://app?vid=41c2590e-164d-41e9-b96b-588d43dd2f8b","ios":"levelo://app?vid=41c2590e-164d-41e9-b96b-588d43dd2f8b"},"vehicle_type_id":"4","last_reported":1685722074,"current_range_meters":11600,"station_id":"","pricing_plan_id":"free"},{"bike_id":"add0bc17-daaf-4a4d-b35e-913e5928e5a4","system_id":"levelo_inurba_marseille","lat":43.25238,"lon":5.39218,"is_reserved":false,"is_disabled":false,"rental_uris":{"android":"levelo://app?vid=add0bc17-daaf-4a4d-b35e-913e5928e5a4","ios":"levelo://app?vid=add0bc17-daaf-4a4d-b35e-913e5928e5a4"},"vehicle_type_id":"4","last_reported":1685722074,"current_range_meters":18000,"station_id":"ce4bhm12rcd13ifvqgkg","pricing_plan_id":"free"},{"bike_id":"297d476f-5f53-4983-99f0-5b4c7656cf61","system_id":"levelo_inurba_marseille","lat":43.25085,"lon":5.39528,"is_reserved":false,"is_disabled":false,"rental_uris":{"android":"levelo://app?vid=297d476f-5f53-4983-99f0-5b4c7656cf61","ios":"levelo://app?vid=297d476f-5f53-4983-99f0-5b4c7656cf61"},"vehicle_type_id":"4","last_reported":1685722074,"current_range_meters":20400,"station_id":"ce4bhm12rcd13ifvqgkg","pricing_plan_id":"free"},{"bike_id":"fb8ed81e-a4fa-4c87-9aeb-c245bb56d885","system_id":"levelo_inurba_marseille","lat":43.24664,"lon":5.38169,"is_reserved":false,"is_disabled":false,"rental_uris":{"android":"levelo://app?vid=fb8ed81e-a4fa-4c87-9aeb-c245bb56d885","ios":"levelo://app?vid=fb8ed81e-a4fa-4c87-9aeb-c245bb56d885"},"vehicle_type_id":"4","last_reported":1685722074,"current_range_meters":30000,"station_id":"","pricing_plan_id":"free"},{"bike_id":"c41a3385-2adf-4469-96ec-5b0d1a7d049b","system_id":"levelo_inurba_marseille","lat":43.25102,"lon":5.403214,"is_reserved":false,"is_disabled":false,"rental_uris":{"android":"levelo://app?vid=c41a3385-2adf-4469-96ec-5b0d1a7d049b","ios":"levelo://app?vid=c41a3385-2adf-4469-96ec-5b0d1a7d049b"},"vehicle_type_id":"4","last_reported":1685722074,"current_range_meters":4400,"station_id":"ce4bhlh2rcd13ifvqgig","pricing_plan_id":"free"},{"bike_id":"c31efd33-caed-4827-86e9-f5dfec92071a","system_id":"levelo_inurba_marseille","lat":43.25117,"lon":5.4032,"is_reserved":false,"is_disabled":false,"rental_uris":{"android":"levelo://app?vid=c31efd33-caed-4827-86e9-f5dfec92071a","ios":"levelo://app?vid=c31efd33-caed-4827-86e9-f5dfec92071a"},"vehicle_type_id":"4","last_reported":1685722074,"current_range_meters":8000,"station_id":"ce4bhlh2rcd13ifvqgig","pricing_plan_id":"free"},{"bike_id":"18109a5f-ac55-4d8b-ba5d-a7756e75391b","system_id":"levelo_inurba_marseille","lat":43.2466,"lon":5.38166,"is_reserved":false,"is_disabled":false,"rental_uris":{"android":"levelo://app?vid=18109a5f-ac55-4d8b-ba5d-a7756e75391b","ios":"levelo://app?vid=18109a5f-ac55-4d8b-ba5d-a7756e75391b"},"vehicle_type_id":"4","last_reported":1685722074,"current_range_meters":10800,"station_id":"","pricing_plan_id":"free"},{"bike_id":"880a9a8b-4287-42b5-aee6-73bd555018e0","system_id":"levelo_inurba_marseille","lat":43.25102,"lon":5.403214,"is_reserved":false,"is_disabled":false,"rental_uris":{"android":"levelo://app?vid=880a9a8b-4287-42b5-aee6-73bd555018e0","ios":"levelo://app?vid=880a9a8b-4287-42b5-aee6-73bd555018e0"},"vehicle_type_id":"4","last_reported":1685722074,"current_range_meters":400,"station_id":"ce4bhlh2rcd13ifvqgig","pricing_plan_id":"free"},{"bike_id":"f2cf1ce5-e231-4040-bb27-1929ab6707c5","system_id":"levelo_inurba_marseille","lat":43.25102,"lon":5.403214,"is_reserved":false,"is_disabled":false,"rental_uris":{"android":"levelo://app?vid=f2cf1ce5-e231-4040-bb27-1929ab6707c5","ios":"levelo://app?vid=f2cf1ce5-e231-4040-bb27-1929ab6707c5"},"vehicle_type_id":"4","last_reported":1685722074,"current_range_meters":18800,"station_id":"ce4bhlh2rcd13ifvqgig","pricing_plan_id":"free"},{"bike_id":"c04f3fb0-ece4-4aa3-90e3-d2638a7bec3e","system_id":"levelo_inurba_marseille","lat":43.25102,"lon":5.403214,"is_reserved":false,"is_disabled":false,"rental_uris":{"android":"levelo://app?vid=c04f3fb0-ece4-4aa3-90e3-d2638a7bec3e","ios":"levelo://app?vid=c04f3fb0-ece4-4aa3-90e3-d2638a7bec3e"},"vehicle_type_id":"4","last_reported":1685722074,"current_range_meters":26000,"station_id":"ce4bhlh2rcd13ifvqgig","pricing_plan_id":"free"},{"bike_id":"ea5f287d-3d26-48bf-b2d3-f5350694b25a","system_id":"levelo_inurba_marseille","lat":43.246521,"lon":5.381723,"is_reserved":false,"is_disabled":false,"rental_uris":{"android":"levelo://app?vid=ea5f287d-3d26-48bf-b2d3-f5350694b25a","ios":"levelo://app?vid=ea5f287d-3d26-48bf-b2d3-f5350694b25a"},"vehicle_type_id":"4","last_reported":1685722074,"current_range_meters":2000,"station_id":"","pricing_plan_id":"free"},{"bike_id":"c149ccd0-720c-4351-8d08-c887f18aece1","system_id":"levelo_inurba_marseille","lat":43.25102,"lon":5.403214,"is_reserved":false,"is_disabled":false,"rental_uris":{"android":"levelo://app?vid=c149ccd0-720c-4351-8d08-c887f18aece1","ios":"levelo://app?vid=c149ccd0-720c-4351-8d08-c887f18aece1"},"vehicle_type_id":"4","last_reported":1685722074,"current_range_meters":12800,"station_id":"ce4bhlh2rcd13ifvqgig","pricing_plan_id":"free"},{"bike_id":"95bcfb21-2b44-4380-9a6f-5bfe31442f94","system_id":"levelo_inurba_marseille","lat":43.24789,"lon":5.3971,"is_reserved":false,"is_disabled":false,"rental_uris":{"android":"levelo://app?vid=95bcfb21-2b44-4380-9a6f-5bfe31442f94","ios":"levelo://app?vid=95bcfb21-2b44-4380-9a6f-5bfe31442f94"},