{"last_updated":1716656887,"ttl":30,"version":"2.2","data":{"bikes":[{"bike_id":"dfe77dfa-8cb6-4e75-9211-9b8039266f5c","system_id":"levelo_inurba_marseille","lat":43.312239,"lon":5.368562,"is_reserved":false,"is_disabled":false,"rental_uris":{"android":"levelo://app?vid=dfe77dfa-8cb6-4e75-9211-9b8039266f5c","ios":"levelo://app?vid=dfe77dfa-8cb6-4e75-9211-9b8039266f5c"},"vehicle_type_id":"4","last_reported":1716656887,"current_range_meters":30800,"station_id":"ce4bgl92rcd13ifvqbq0","pricing_plan_id":"cebpf4jnsgd1na2vs0mg"},{"bike_id":"47a9bd9d-edc3-411f-a367-75e670c9a4a8","system_id":"levelo_inurba_marseille","lat":43.309076,"lon":5.368465,"is_reserved":false,"is_disabled":false,"rental_uris":{"android":"levelo://app?vid=47a9bd9d-edc3-411f-a367-75e670c9a4a8","ios":"levelo://app?vid=47a9bd9d-edc3-411f-a367-75e670c9a4a8"},"vehicle_type_id":"4","last_reported":1716656887,"current_range_meters":14000,"station_id":"ce4bgn92rcd13ifvqbvg","pricing_plan_id":"cebpf4jnsgd1na2vs0mg"},{"bike_id":"410eefbc-0fb3-4bb5-9f77-06a3c0c72b87","system_id":"levelo_inurba_marseille","lat":43.309076,"lon":5.368465,"is_reserved":false,"is_disabled":false,"rental_uris":{"android":"levelo://app?vid=410eefbc-0fb3-4bb5-9f77-06a3c0c72b87","ios":"levelo://app?vid=410eefbc-0fb3-4bb5-9f77-06a3c0c72b87"},"vehicle_type_id":"4","last_reported":1716656887,"current_range_meters":10800,"station_id":"ce4bgn92rcd13ifvqbvg","pricing_plan_id":"cebpf4jnsgd1na2vs0mg"},{"bike_id":"cbf85e50-6202-469f-887f-aa10ffd57a21","system_id":"levelo_inurba_marseille","lat":43.31503,"lon":5.37295,"is_reserved":false,"is_disabled":false,"rental_uris":{"android":"levelo://app?vid=cbf85e50-6202-469f-887f-aa10ffd57a21","ios":"levelo://app?vid=cbf85e50-6202-469f-887f-aa10ffd57a21"},"vehicle_type_id":"4","last_reported":1716656887,"current_range_meters":0,"station_id":"ce4bgt12rcd13ifvqcd0","pricing_plan_id":"cebpf4jnsgd1na2vs0mg"},{"bike_id":"8441e944-3df1-42a1-9d03-01feb0c42e1b","system_id":"levelo_inurba_marseille","lat":43.309034,"lon":5.371783,"is_reserved":false,"is_disabled":false,"rental_uris":{"android":"levelo://app?vid=8441e944-3df1-42a1-9d03-01feb0c42e1b","ios":"levelo://app?vid=8441e944-3df1-42a1-9d03-01feb0c42e1b"},"vehicle_type_id":"4","last_reported":1716656887,"current_range_meters":21200,"station_id":"ce4bguh2rcd13ifvqckg","pricing_plan_id":"cebpf4jnsgd1na2vs0mg"},{"bike_id":"f607a2d9-dea8-4867-a264-a375240e5b9a","system_id":"levelo_inurba_marseille","lat":43.31672,"lon":5.3722,"is_reserved":false,"is_disabled":false,"rental_uris":{"android":"levelo://app?vid=f607a2d9-dea8-4867-a264-a375240e5b9a","ios":"levelo://app?vid=f607a2d9-dea8-4867-a264-a375240e5b9a"},"vehicle_type_id":"4","last_reported":1716656887,"current_range_meters":0,"station_id":"","pricing_plan_id":"cebpf4jnsgd1na2vs0mg"},{"bike_id":"928bc50a-0e7e-4d69-9516-be1bf27850f9","system_id":"levelo_inurba_marseille","lat":43.30688,"lon":5.3662,"is_reserved":false,"is_disabled":false,"rental_uris":{"android":"levelo://app?vid=928bc50a-0e7e-4d69-9516-be1bf27850f9","ios":"levelo://app?vid=928bc50a-0e7e-4d69-9516-be1bf27850f9"},"vehicle_type_id":"4","last_reported":1716656887,"current_range_meters":8000,"station_id":"","pricing_plan_id":"cebpf4jnsgd1na2vs0mg"},{"bike_id":"a7c135d0-bd17-4385-9ed7-8369fcf3f734","system_id":"levelo_inurba_marseille","lat":43.305989,"lon":5.37225,"is_reserved":false,"is_disabled":false,"rental_uris":{"android":"levelo://app?vid=a7c135d0-bd17-4385-9ed7-8369fcf3f734","ios":"levelo://app?vid=a7c135d0-bd17-4385-9ed7-8369fcf3f734"},"vehicle_type_id":"4","last_reported":1716656887,"current_range_meters":18800,"station_id":"ce4bgqh2rcd13ifvqc4g","pricing_plan_id":"cebpf4jnsgd1na2vs0mg"},{"bike_id":"5f990a6e-cf9a-4259-8c52-b34add9fee45","system_id":"levelo_inurba_marseille","lat":43.30537,"lon":5.367345,"is_reserved":false,"is_disabled":false,"rental_uris":{"android":"levelo://app?vid=5f990a6e-cf9a-4259-8c52-b34add9fee45","ios":"levelo://app?vid=5f990a6e-cf9a-4259-8c52-b34add9fee45"},"vehicle_type_id":"4","last_reported":1716656887,"current_range_meters":8400,"station_id":"ce4bgrp2rcd13ifvqc9g","pricing_plan_id":"cebpf4jnsgd1na2vs0mg"},{"bike_id":"bce06d8b-e2e7-4b43-9e77-82c7db5de34c","system_id":"levelo_inurba_marseille","lat":43.30537,"lon":5.367345,"is_reserved":false,"is_disabled":false,"rental_uris":{"android":"levelo://app?vid=bce06d8b-e2e7-4b43-9e77-82c7db5de34c","ios":"levelo://app?vid=bce06d8b-e2e7-4b43-9e77-82c7db5de34c"},"vehicle_type_id":"4","last_reported":1716656887,"current_range_meters":0,"station_id":"ce4bgrp2rcd13ifvqc9g","pricing_plan_id":"cebpf4jnsgd1na2vs0mg"},{"bike_id":"4dd7fc92-1ed0-41e0-be40-8c28c37abcf1","system_id":"levelo_inurba_marseille","lat":43.305714,"lon":5.365633,"is_reserved":false,"is_disabled":false,"rental_uris":{"android":"levelo://app?vid=4dd7fc92-1ed0-41e0-be40-8c28c37abcf1","ios":"levelo://app?vid=4dd7fc92-1ed0-41e0-be40-8c28c37abcf1"},"vehicle_type_id":"4","last_reported":1716656887,"current_range_meters":19200,"station_id":"ce4bgs12rcd13ifvqcag","pricing_plan_id":"cebpf4jnsgd1na2vs0mg"},{"bike_id":"4928c130-75a5-4d17-b333-239adf583729","system_id":"levelo_inurba_marseille","lat":43.30514,"lon":5.36545,"is_reserved":false,"is_disabled":false,"rental_uris":{"android":"levelo://app?vid=4928c130-75a5-4d17-b333-239adf583729","ios":"levelo://app?vid=4928c130-75a5-4d17-b333-239adf583729"},"vehicle_type_id":"4","last_reported":1716656887,"current_range_meters":0,"station_id":"","pricing_plan_id":"cebpf4jnsgd1na2vs0mg"},{"bike_id":"085f8808-1d82-4a31-a42a-8e58df7e3717","system_id":"levelo_inurba_marseille","lat":43.305989,"lon":5.37225,"is_reserved":false,"is_disabled":false,"rental_uris":{"android":"levelo://app?vid=085f8808-1d82-4a31-a42a-8e58df7e3717","ios":"levelo://app?vid=085f8808-1d82-4a31-a42a-8e58df7e3717"},"vehicle_type_id":"4","last_reported":1716656887,"current_range_meters":31200,"station_id":"ce4bgqh2rcd13ifvqc4g","pricing_plan_id":"cebpf4jnsgd1na2vs0mg"},{"bike_id":"007e1d9d-444d-4f4c-a226-27dc372dc752","system_id":"levelo_inurba_marseille","lat":43.311131,"lon":5.377651,"is_reserved":false,"is_disabled":false,"rental_uris":{"android":"levelo://app?vid=007e1d9d-444d-4f4c-a226-27dc372dc752","ios":"levelo://app?vid=007e1d9d-444d-4f4c-a226-27dc372dc752"},"vehicle_type_id":"4","last_reported":1716656887,"current_range_meters":4800,"station_id":"ce4bgt92rcd13ifvqcg0","pricing_plan_id":"cebpf4jnsgd1na2vs0mg"},{"bike_id":"e6fd5297-31df-410e-ba04-e0ad5df51492","system_id":"levelo_inurba_marseille","lat":43.311125,"lon":5.377624,"is_reserved":false,"is_disabled":false,"rental_uris":{"android":"levelo://app?vid=e6fd5297-31df-410e-ba04-e0ad5df51492","ios":"levelo://app?vid=e6fd5297-31df-410e-ba04-e0ad5df51492"},"vehicle_type_id":"4","last_reported":1716656887,"current_range_meters":17600,"station_id":"ce4bgt92rcd13ifvqcg0","pricing_plan_id":"cebpf4jnsgd1na2vs0mg"},{"bike_id":"7db89b90-199d-4b31-8430-84d6cf5adb0a","system_id":"levelo_inurba_marseille","lat":43.311131,"lon":5.377651,"is_reserved":false,"is_disabled":false,"rental_uris":{"android":"levelo://app?vid=7db89b90-199d-4b31-8430-84d6cf5adb0a","ios":"levelo://app?vid=7db89b90-199d-4b31-8430-84d6cf5adb0a"},"vehicle_type_id":"4","last_reported":1716656887,"current_range_meters":1200,"station_id":"ce4bgt92rcd13ifvqcg0","pricing_plan_id":"cebpf4jnsgd1na2vs0mg"},{"bike_id":"a8465c69-09ed-41a6-bddc-121d8e5e7ffe","system_id":"levelo_inurba_marseille","lat":43.311131,"lon":5.377651,"is_reserved":false,"is_disabled":false,"rental_uris":{"android":"levelo://app?vid=a8465c69-09ed-41a6-bddc-121d8e5e7ffe","ios":"levelo://app?vid=a8465c69-09ed-41a6-bddc-121d8e5e7ffe"},"vehicle_type_id":"4","last_reported":1716656887,"current_range_meters":0,"station_id":"ce4bgt92rcd13ifvqcg0","pricing_plan_id":"cebpf4jnsgd1na2vs0mg"},{"bike_id":"0183678c-06b1-4696-ad6d-33623b5baebd","system_id":"levelo_inurba_marseille","lat":43.311125,"lon":5.377624,"is_reserved":false,"is_disabled":false,"rental_uris":{"android":"levelo://app?vid=0183678c-06b1-4696-ad6d-33623b5baebd","ios":"levelo://app?vid=0183678c-06b1-4696-ad6d-33623b5baebd"},"vehicle_type_id":"4","last_reported":1716656887,"current_range_meters":27200,"station_id":"ce4bgt92rcd13ifvqcg0","pricing_plan_id":"cebpf4jnsgd1na2vs0mg"},{"bike_id":"162848a4-ec73-43f2-a2a7-d482428e9d70","system_id":"levelo_inurba_marseille","lat":43.311131,"lon":5.377651,"is_reserved":false,"is_disabled":false,"rental_uris":{"android":"levelo://app?vid=162848a4-ec73-43f2-a2a7-d482428e9d70","ios":"levelo://app?vid=162848a4-ec73-43f2-a2a7-d482428e9d70"},"vehicle_type_id":"4","last_reported":1716656887,"current_range_meters":0,"station_id":"ce4bgt92rcd13ifvqcg0","pricing_plan_id":"cebpf4jnsgd1na2vs0mg"},{"bike_id":"c231b2b0-56a8-471d-9877-ee0a3baea388","system_id":"levelo_inurba_marseille","lat":43.311131,"lon":5.377651,"is_reserved":false,"is_disabled":false,"rental_uris":{"android":"levelo://app?vid=c231b2b0-56a8-471d-9877-ee0a3baea388","ios":"levelo://app?vid=c231b2b0-56a8-471d-9877-ee0a3baea388"},"vehicle_type_id":"4","last_reported":1716656887,"current_range_meters":6000,"station_id":"ce4bgt92rcd13ifvqcg0","pricing_plan_id":"cebpf4jnsgd1na2vs0mg"},{"bike_id":"2627746f-c74d-45b3-aa5f-0bbec7d77b98","system_id":"levelo_inurba_marseille","lat":43.31115,"lon":5.37779,"is_reserved":false,"is_disabled":false,"rental_uris":{"android":"levelo://app?vid=2627746f-c74d-45b3-aa5f-0bbec7d77b98","ios":"levelo://app?vid=2627746f-c74d-45b3-aa5f-0bbec7d77b98"},"vehicle_type_id":"4","last_reported":1716656887,"current_range_meters":19200,"station_id":"","pricing_plan_id":"cebpf4jnsgd1na2vs0mg"},{"bike_id":"ef5ce654-4bb5-443b-ac5d-4e4fc115ac05","system_id":"levelo_inurba_marseille","lat":43.307945,"lon":5.376487,"is_reserved":false,"is_disabled":false,"rental_uris":{"android":"levelo://app?vid=ef5ce654-4bb5-443b-ac5d-4e4fc115ac05","ios":"levelo://app?vid=ef5ce654-4bb5-443b-ac5d-4e4fc115ac05"},"vehicle_type_id":"4","last_reported":1716656887,"current_range_meters":19200,"station_id":"ce4bgv92rcd13ifvqcq0","pricing_plan_id":"cebpf4jnsgd1na2vs0mg"},{"bike_id":"bf6b97d1-1b15-4b9d-89b8-26b3604c04a1","system_id":"levelo_inurba_marseille","lat":43.307945,"lon":5.376487,"is_reserved":false,"is_disabled":false,"rental_uris":{"android":"levelo://app?vid=bf6b97d1-1b15-4b9d-89b8-26b3604c04a1","ios":"levelo://app?vid=bf6b97d1-1b15-4b9d-89b8-26b3604c04a1"},"vehicle_type_id":"4","last_reported":1716656887,"current_range_meters":15200,"station_id":"ce4bgv92rcd13ifvqcq0","pricing_plan_id":"cebpf4jnsgd1na2vs0mg"},{"bike_id":"0f6d9576-87e0-4b69-bcdb-24042973a5a4","system_id":"levelo_inurba_marseille","lat":43.307945,"lon":5.376487,"is_reserved":false,"is_disabled":false,"rental_uris":{"android":"levelo://app?vid=0f6d9576-87e0-4b69-bcdb-24042973a5a4","ios":"levelo://app?vid=0f6d9576-87e0-4b69-bcdb-24042973a5a4"},"vehicle_type_id":"4","last_reported":1716656887,"current_range_meters":0,"station_id":"ce4bgv92rcd13ifvqcq0","pricing_plan_id":"cebpf4jnsgd1na2vs0mg"},{"bike_id":"0af9c232-4501-4c61-a8c7-9bc6322c7669","system_id":"levelo_inurba_marseille","lat":43.307945,"lon":5.376487,"is_reserved":false,"is_disabled":false,"rental_uris":{"android":"levelo://app?vid=0af9c232-4501-4c61-a8c7-9bc6322c7669","ios":"levelo://app?vid=0af9c232-4501-4c61-a8c7-9bc6322c7669"},"vehicle_type_id":"4","last_reported":1716656887,"current_range_meters":28400,"station_id":"ce4bgv92rcd13ifvqcq0","pricing_plan_id":"cebpf4jnsgd1na2vs0mg"},{"bike_id":"fc7c6e6b-d91e-4efd-99f6-dbd2f957b276","system_id":"levelo_inurba_marseille","lat":43.307945,"lon":5.376487,"is_reserved":false,"is_disabled":false,"rental_uris":{"android":"levelo://app?vid=fc7c6e6b-d91e-4efd-99f6-dbd2f957b276","ios":"levelo://app?vid=fc7c6e6b-d91e-4efd-99f6-dbd2f957b276"},"vehicle_type_id":"4","last_reported":1716656887,"current_range_meters":20800,"station_id":"ce4bgv92rcd13ifvqcq0","pricing_plan_id":"cebpf4jnsgd1na2vs0mg"},{"bike_id":"0c2c45af-735b-493c-964d-64d817fa485f","system_id":"levelo_inurba_marseille","lat":43.317075,"lon":5.377367,"is_reserved":false,"is_disabled":false,"rental_uris":{"android":"levelo://app?vid=0c2c45af-735b-493c-964d-64d817fa485f","ios":"levelo://app?vid=0c2c45af-735b-493c-964d-64d817fa485f"},"vehicle_type_id":"4","last_reported":1716656887,"current_range_meters":0,"station_id":"ce4bgth2rcd13ifvqch0","pricing_plan_id":"cebpf4jnsgd1na2vs0mg"},{"bike_id":"181829a5-5c61-4f09-ad67-529d3fa523c3","system_id":"levelo_inurba_marseille","lat":43.317075,"lon":5.377367,"is_reserved":false,"is_disabled":false,"rental_uris":{"android":"levelo://app?vid=181829a5-5c61-4f09-ad67-529d3fa523c3","ios":"levelo://app?vid=181829a5-5c61-4f09-ad67-529d3fa523c3"},"vehicle_type_id":"4","last_reported":1716656887,"current_range_meters":0,"station_id":"ce4bgth2rcd13ifvqch0","pricing_plan_id":"cebpf4jnsgd1na2vs0mg"},{"bike_id":"fe180df9-0597-4154-844f-213cd0843fa3","system_id":"levelo_inurba_marseille","lat":43.317075,"lon":5.377367,"is_reserved":false,"is_disabled":false,"rental_uris":{"android":"levelo://app?vid=fe180df9-0597-4154-844f-213cd0843fa3","ios":"levelo://app?vid=fe180df9-0597-4154-844f-213cd0843fa3"},"vehicle_type_id":"4","last_reported":1716656887,"current_range_meters":27200,"station_id":"ce4bgth2rcd13ifvqch0","pricing_plan_id":"cebpf4jnsgd1na2vs0mg"},{"bike_id":"ee40b6c7-9064-41fc-86e7-eb8e37180431","system_id":"levelo_inurba_marseille","lat":43.317075,"lon":5.377367,"is_reserved":false,"is_disabled":false,"rental_uris":{"android":"levelo://app?vid=ee40b6c7-9064-41fc-86e7-eb8e37180431","ios":"levelo://app?vid=ee40b6c7-9064-41fc-86e7-eb8e37180431"},"vehicle_type_id":"4","last_reported":1716656887,"current_range_meters":1600,"station_id":"ce4bgth2rcd13ifvqch0","pricing_plan_id":"cebpf4jnsgd1na2vs0mg"},{"bike_id":"1a609388-eb2c-4fe9-847a-d3a0df48794b","system_id":"levelo_inurba_marseille","lat":43.30304,"lon":5.368987,"is_reserved":false,"is_disabled":false,"rental_uris":{"android":"levelo://app?vid=1a609388-eb2c-4fe9-847a-d3a0df48794b","ios":"levelo://app?vid=1a609388-eb2c-4fe9-847a-d3a0df48794b"},"vehicle_type_id":"4","last_reported":1716656887,"current_range_meters":1600,"station_id":"ce4bgqh2rcd13ifvqc5g","pricing_plan_id":"cebpf4jnsgd1na2vs0mg"},{"bike_id":"ae47c551-307c-4661-8755-2d9767709f65","system_id":"levelo_inurba_marseille","lat":43.315293,"lon":5.380349,"is_reserved":false,"is_disabled":false,"rental_uris":{"android":"levelo://app?vid=ae47c551-307c-4661-8755-2d9767709f65","ios":"levelo://app?vid=ae47c551-307c-4661-8755-2d9767709f65"},"vehicle_type_id":"4","last_reported":1716656887,"current_range_meters":16400,"station_id":"ce4bhsp2rcd13ifvqi50","pricing_plan_id":"cebpf4jnsgd1na2vs0mg"},{"bike_id":"06a3eb02-2265-4f03-ba94-91bab042b483","system_id":"levelo_inurba_marseille","lat":43.31036,"lon":5.38061,"is_reserved":false,"is_disabled":false,"rental_uris":{"android":"levelo://app?vid=06a3eb02-2265-4f03-ba94-91bab042b483","ios":"levelo://app?vid=06a3eb02-2265-4f03-ba94-91bab042b483"},"vehicle_type_id":"4","last_reported":1716656887,"current_range_meters":0,"station_id":"","pricing_plan_id":"cebpf4jnsgd1na2vs0mg"},{"bike_id":"a59b88af-300a-497f-811e-76731877fe30","system_id":"levelo_inurba_marseille","lat":43.30424,"lon":5.37491,"is_reserved":false,"is_disabled":false,"rental_uris":{"android":"levelo://app?vid=a59b88af-300a-497f-811e-76731877fe30","ios":"levelo://app?vid=a59b88af-300a-497f-811e-76731877fe30"},"vehicle_type_id":"4","last_reported":1716656887,"current_range_meters":6000,"station_id":"","pricing_plan_id":"cebpf4jnsgd1na2vs0mg"},{"bike_id":"be97996b-db25-4246-aefc-c593c2562c6c","system_id":"levelo_inurba_marseille","lat":43.30281,"lon":5.37488,"is_reserved":false,"is_disabled":false,"rental_uris":{"android":"levelo://app?vid=be97996b-db25-4246-aefc-c593c2562c6c","ios":"levelo://app?vid=be97996b-db25-4246-aefc-c593c2562c6c"},"vehicle_type_id":"4","last_reported":1716656887,"current_range_meters":14000,"station_id":"","pricing_plan_id":"cebpf4jnsgd1na2vs0mg"},{"bike_id":"f6c9ea8a-5639-45bc-a949-1c8e64a45df3","system_id":"levelo_inurba_marseille","lat":43.30817,"lon":5.3815,"is_reserved":false,"is_disabled":false,"rental_uris":{"android":"levelo://app?vid=f6c9ea8a-5639-45bc-a949-1c8e64a45df3","ios":"levelo://app?vid=f6c9ea8a-5639-45bc-a949-1c8e64a45df3"},"vehicle_type_id":"4","last_reported":1716656887,"current_range_meters":21600,"station_id":"ce4bgt12rcd13ifvqce0","pricing_plan_id":"cebpf4jnsgd1na2vs0mg"},{"bike_id":"d30d7e3a-b698-4839-ae62-431567902a38","system_id":"levelo_inurba_marseille","lat":43.304606,"lon":5.379026,"is_reserved":false,"is_disabled":false,"rental_uris":{"android":"levelo://app?vid=d30d7e3a-b698-4839-ae62-431567902a38","ios":"levelo://app?vid=d30d7e3a-b698-4839-ae62-431567902a38"},"vehicle_type_id":"4","last_reported":1716656887,"current_range_meters":8000,"station_id":"ce4bgup2rcd13ifvqcn0","pricing_plan_id":"cebpf4jnsgd1na2vs0mg"},{"bike_id":"8b6ede61-ad41-4e78-aeab-572a36b2db68","system_id":"levelo_inurba_marseille","lat":43.304606,"lon":5.379026,"is_reserved":false,"is_disabled":false,"rental_uris":{"android":"levelo://app?vid=8b6ede61-ad41-4e78-aeab-572a36b2db68","ios":"levelo://app?vid=8b6ede61-ad41-4e78-aeab-572a36b2db68"},"vehicle_type_id":"4","last_reported":1716656887,"current_range_meters":3200,"station_id":"ce4bgup2rcd13ifvqcn0","pricing_plan_id":"cebpf4jnsgd1na2vs0mg"},{"bike_id":"91b2e419-73fb-46f0-a073-79252e2fe1df","system_id":"levelo_inurba_marseille","lat":43.304606,"lon":5.379026,"is_reserved":false,"is_disabled":false,"rental_uris":{"android":"levelo://app?vid=91b2e419-73fb-46f0-a073-79252e2fe1df","ios":"levelo://app?vid=91b2e419-73fb-46f0-a073-79252e2fe1df"},"vehicle_type_id":"4","last_reported":1716656887,"current_range_meters":0,"station_id":"ce4bgup2rcd13ifvqcn0","pricing_plan_id":"cebpf4jnsgd1na2vs0mg"},{"bike_id":"67c52a3c-9f5a-4df7-97db-66b68039bfd1","system_id":"levelo_inurba_marseille","lat":43.304606,"lon":5.379026,"is_reserved":false,"is_disabled":false,"rental_uris":{"android":"levelo://app?vid=67c52a3c-9f5a-4df7-97db-66b68039bfd1","ios":"levelo://app?vid=67c52a3c-9f5a-4df7-97db-66b68039bfd1"},"vehicle_type_id":"4","last_reported":1716656887,"current_range_meters":7200,"station_id":"ce4bgup2rcd13ifvqcn0","pricing_plan_id":"cebpf4jnsgd1na2vs0mg"},{"bike_id":"9ddb00f9-1c51-4f51-ade6-f02e9677b7ba","system_id":"levelo_inurba_marseille","lat":43.304606,"lon":5.379026,"is_reserved":false,"is_disabled":false,"rental_uris":{"android":"levelo://app?vid=9ddb00f9-1c51-4f51-ade6-f02e9677b7ba","ios":"levelo://app?vid=9ddb00f9-1c51-4f51-ade6-f02e9677b7ba"},"vehicle_type_id":"4","last_reported":1716656887,"current_range_meters":0,"station_id":"ce4bgup2rcd13ifvqcn0","pricing_plan_id":"cebpf4jnsgd1na2vs0mg"},{"bike_id":"99a35186-da9f-462a-b777-ca5d239a806c","system_id":"levelo_inurba_marseille","lat":43.324771,"lon":5.36557,"is_reserved":false,"is_disabled":false,"rental_uris":{"android":"levelo://app?vid=99a35186-da9f-462a-b777-ca5d239a806c","ios":"levelo://app?vid=99a35186-da9f-462a-b777-ca5d239a806c"},"vehicle_type_id":"4","last_reported":1716656887,"current_range_meters":1200,"station_id":"ce4bhs12rcd13ifvqhvg","pricing_plan_id":"cebpf4jnsgd1na2vs0mg"},{"bike_id":"7f5165f1-e91e-4e3b-9c9f-a604cabc23c4","system_id":"levelo_inurba_marseille","lat":43.32476,"lon":5.36568,"is_reserved":false,"is_disabled":false,"rental_uris":{"android":"levelo://app?vid=7f5165f1-e91e-4e3b-9c9f-a604cabc23c4","ios":"levelo://app?vid=7f5165f1-e91e-4e3b-9c9f-a604cabc23c4"},"vehicle_type_id":"4","last_reported":1716656887,"current_range_meters":16400,"station_id":"ce4bhs12rcd13ifvqhvg","pricing_plan_id":"cebpf4jnsgd1na2vs0mg"},{"bike_id":"97aa767d-4a7c-4d81-b244-c5d3efb49efc","system_id":"levelo_inurba_marseille","lat":43.324771,"lon":5.36557,"is_reserved":false,"is_disabled":false,"rental_uris":{"android":"levelo://app?vid=97aa767d-4a7c-4d81-b244-c5d3efb49efc","ios":"levelo://app?vid=97aa767d-4a7c-4d81-b244-c5d3efb49efc"},"vehicle_type_id":"4","last_reported":1716656887,"current_range_meters":20800,"station_id":"ce4bhs12rcd13ifvqhvg","pricing_plan_id":"cebpf4jnsgd1na2vs0mg"},{"bike_id":"dec6bbc4-1aa5-4ae4-b13a-641f2ab79092","system_id":"levelo_inurba_marseille","lat":43.324771,"lon":5.36557,"is_reserved":false,"is_disabled":false,"rental_uris":{"android":"levelo://app?vid=dec6bbc4-1aa5-4ae4-b13a-641f2ab79092","ios":"levelo://app?vid=dec6bbc4-1aa5-4ae4-b13a-641f2ab79092"},"vehicle_type_id":"4","last_reported":1716656887,"current_range_meters":800,"station_id":"ce4bhs12rcd13ifvqhvg","pricing_plan_id":"cebpf4jnsgd1na2vs0mg"},{"bike_id":"814ae5b8-d7ee-435a-bc6e-cdc304e28599","system_id":"levelo_inurba_marseille","lat":43.32486,"lon":5.36567,"is_reserved":false,"is_disabled":false,"rental_uris":{"android":"levelo://app?vid=814ae5b8-d7ee-435a-bc6e-cdc304e28599","ios":"levelo://app?vid=814ae5b8-d7ee-435a-bc6e-cdc304e28599"},"vehicle_type_id":"4","last_reported":1716656887,"current_range_meters":22800,"station_id":"ce4bhs12rcd13ifvqhvg","pricing_plan_id":"cebpf4jnsgd1na2vs0mg"},{"bike_id":"1e27f010-3bdb-4762-a3d2-70f5517cc08d","system_id":"levelo_inurba_marseille","lat":43.324771,"lon":5.36557,"is_reserved":false,"is_disabled":false,"rental_uris":{"android":"levelo://app?vid=1e27f010-3bdb-4762-a3d2-70f5517cc08d","ios":"levelo://app?vid=1e27f010-3bdb-4762-a3d2-70f5517cc08d"},"vehicle_type_id":"4","last_reported":1716656887,"current_range_meters":4800,"station_id":"ce4bhs12rcd13ifvqhvg","pricing_plan_id":"cebpf4jnsgd1na2vs0mg"},{"bike_id":"71a56a80-db24-465f-af67-8ee54602e2c2","system_id":"levelo_inurba_marseille","lat":43.324771,"lon":5.36557,"is_reserved":false,"is_disabled":false,"rental_uris":{"android":"levelo://app?vid=71a56a80-db24-465f-af67-8ee54602e2c2","ios":"levelo://app?vid=71a56a80-db24-465f-af67-8ee54602e2c2"},"vehicle_type_id":"4","last_reported":1716656887,"current_range_meters":21200,"station_id":"ce4bhs12rcd13ifvqhvg","pricing_plan_id":"cebpf4jnsgd1na2vs0mg"},{"bike_id":"26e57726-7b66-47d0-84cf-e8f516e1bd49","system_id":"levelo_inurba_marseille","lat":43.302784,"lon":5.377158,"is_reserved":false,"is_disabled":false,"rental_uris":{"android":"levelo://app?vid=26e57726-7b66-47d0-84cf-e8f516e1bd49","ios":"levelo://app?vid=26e57726-7b66-47d0-84cf-e8f516e1bd49"},"vehicle_type_id":"4","last_reported":1716656887,"current_range_meters":4800,"station_id":"ce4bguh2rcd13ifvqcj0","pricing_plan_id":"cebpf4jnsgd1na2vs0mg"},{"bike_id":"69547b5e-748e-4278-ba12-588ec93464ef","system_id":"levelo_inurba_marseille","lat":43.301429,"lon":5.37413,"is_reserved":false,"is_disabled":false,"rental_uris":{"android":"levelo://app?vid=69547b5e-748e-4278-ba12-588ec93464ef","ios":"levelo://app?vid=69547b5e-748e-4278-ba12-588ec93464ef"},"vehicle_type_id":"4","last_reported":1716656887,"current_range_meters":4800,"station_id":"ce4bgs92rcd13ifvqcc0","pricing_plan_id":"cebpf4jnsgd1na2vs0mg"},{"bike_id":"03b2d0ac-4855-463a-a2f0-be21041dc802","system_id":"levelo_inurba_marseille","lat":43.305367,"lon":5.380816,"is_reserved":false,"is_disabled":false,"rental_uris":{"android":"levelo://app?vid=03b2d0ac-4855-463a-a2f0-be21041dc802","ios":"levelo://app?vid=03b2d0ac-4855-463a-a2f0-be21041dc802"},"vehicle_type_id":"4","last_reported":1716656887,"current_range_meters":30400,"station_id":"","pricing_plan_id":"cebpf4jnsgd1na2vs0mg"},{"bike_id":"3a4bf51d-bdde-4749-af26-ad42a77ec1be","system_id":"levelo_inurba_marseille","lat":43.305348,"lon":5.380832,"is_reserved":false,"is_disabled":false,"rental_uris":{"android":"levelo://app?vid=3a4bf51d-bdde-4749-af26-ad42a77ec1be","ios":"levelo://app?vid=3a4bf51d-bdde-4749-af26-ad42a77ec1be"},"vehicle_type_id":"4","last_reported":1716656887,"current_range_meters":11600,"station_id":"","pricing_plan_id":"cebpf4jnsgd1na2vs0mg"},{"bike_id":"3767bfa0-2669-442b-8f1d-d10fe8b94eff","system_id":"levelo_inurba_marseille","lat":43.301429,"lon":5.37413,"is_reserved":false,"is_disabled":false,"rental_uris":{"android":"levelo://app?vid=3767bfa0-2669-442b-8f1d-d10fe8b94eff","ios":"levelo://app?vid=3767bfa0-2669-442b-8f1d-d10fe8b94eff"},"vehicle_type_id":"4","last_reported":1716656887,"current_range_meters":13200,"station_id":"ce4bgs92rcd13ifvqcc0","pricing_plan_id":"cebpf4jnsgd1na2vs0mg"},{"bike_id":"7a16ad69-8bdc-439a-87dc-40956e792aa4","system_id":"levelo_inurba_marseille","lat":43.30143,"lon":5.37413,"is_reserved":false,"is_disabled":false,"rental_uris":{"android":"levelo://app?vid=7a16ad69-8bdc-439a-87dc-40956e792aa4","ios":"levelo://app?vid=7a16ad69-8bdc-439a-87dc-40956e792aa4"},"vehicle_type_id":"4","last_reported":1716656887,"current_range_meters":23600,"station_id":"ce4bgs92rcd13ifvqcc0","pricing_plan_id":"cebpf4jnsgd1na2vs0mg"},{"bike_id":"60980060-0f96-46f6-b65a-0e2208da4e13","system_id":"levelo_inurba_marseille","lat":43.319935,"lon":5.381699,"is_reserved":false,"is_disabled":false,"rental_uris":{"android":"levelo://app?vid=60980060-0f96-46f6-b65a-0e2208da4e13","ios":"levelo://app?vid=60980060-0f96-46f6-b65a-0e2208da4e13"},"vehicle_type_id":"4","last_reported":1716656887,"current_range_meters":2400,"station_id":"ce4bhr12rcd13ifvqhpg","pricing_plan_id":"cebpf4jnsgd1na2vs0mg"},{"bike_id":"2881e190-fdc7-4942-ae9f-fa5742ee64e5","system_id":"levelo_inurba_marseille","lat":43.29998,"lon":5.368647,"is_reserved":false,"is_disabled":false,"rental_uris":{"android":"levelo://app?vid=2881e190-fdc7-4942-ae9f-fa5742ee64e5","ios":"levelo://app?vid=2881e190-fdc7-4942-ae9f-fa5742ee64e5"},"vehicle_type_id":"4","last_reported":1716656887,"current_range_meters":12400,"station_id":"","pricing_plan_id":"cebpf4jnsgd1na2vs0mg"},{"bike_id":"2b2d5eea-b301-4cd7-b9a2-561e63b82a66","system_id":"levelo_inurba_marseille","lat":43.319935,"lon":5.381699,"is_reserved":false,"is_disabled":false,"rental_uris":{"android":"levelo://app?vid=2b2d5eea-b301-4cd7-b9a2-561e63b82a66","ios":"levelo://app?vid=2b2d5eea-b301-4cd7-b9a2-561e63b82a66"},"vehicle_type_id":"4","last_reported":1716656887,"current_range_meters":24000,"station_id":"ce4bhr12rcd13ifvqhpg","pricing_plan_id":"cebpf4jnsgd1na2vs0mg"},{"bike_id":"3bca11a9-b106-41ba-96fe-fcdf9d6b7c65","system_id":"levelo_inurba_marseille","lat":43.319935,"lon":5.381699,"is_reserved":false,"is_disabled":false,"rental_uris":{"android":"levelo://app?vid=3bca11a9-b106-41ba-96fe-fcdf9d6b7c65","ios":"levelo://app?vid=3bca11a9-b106-41ba-96fe-fcdf9d6b7c65"},"vehicle_type_id":"4","last_reported":1716656887,"current_range_meters":20800,"station_id":"ce4bhr12rcd13ifvqhpg","pricing_plan_id":"cebpf4jnsgd1na2vs0mg"},{"bike_id":"ce5b3283-9dab-422e-9a75-ac5a9bd6e58b","system_id":"levelo_inurba_marseille","lat":43.319935,"lon":5.381699,"is_reserved":false,"is_disabled":false,"rental_uris":{"android":"levelo://app?vid=ce5b3283-9dab-422e-9a75-ac5a9bd6e58b","ios":"levelo://app?vid=ce5b3283-9dab-422e-9a75-ac5a9bd6e58b"},"vehicle_type_id":"4","last_reported":1716656887,"current_range_meters":5600,"station_id":"ce4bhr12rcd13ifvqhpg","pricing_plan_id":"cebpf4jnsgd1na2vs0mg"},{"bike_id":"5c2bdd49-d022-4eb3-a807-112e44c5b286","system_id":"levelo_inurba_marseille","lat":43.319935,"lon":5.381699,"is_reserved":false,"is_disabled":false,"rental_uris":{"android":"levelo://app?vid=5c2bdd49-d022-4eb3-a807-112e44c5b286","ios":"levelo://app?vid=5c2bdd49-d022-4eb3-a807-112e44c5b286"},"vehicle_type_id":"4","last_reported":1716656887,"current_range_meters":8000,"station_id":"ce4bhr12rcd13ifvqhpg","pricing_plan_id":"cebpf4jnsgd1na2vs0mg"},{"bike_id":"6a3d2d5b-9b02-4e5c-a88e-220ed745856f","system_id":"levelo_inurba_marseille","lat":43.304606,"lon":5.379026,"is_reserved":false,"is_disabled":false,"rental_uris":{"android":"levelo://app?vid=6a3d2d5b-9b02-4e5c-a88e-220ed745856f","ios":"levelo://app?vid=6a3d2d5b-9b02-4e5c-a88e-220ed745856f"},"vehicle_type_id":"4","last_reported":1716656887,"current_range_meters":6800,"station_id":"ce4bgup2rcd13ifvqcn0","pricing_plan_id":"cebpf4jnsgd1na2vs0mg"},{"bike_id":"f6823f9d-d54d-4e34-8887-1f2cfeaa3f9e","system_id":"levelo_inurba_marseille","lat":43.313571,"lon":5.384829,"is_reserved":false,"is_disabled":false,"rental_uris":{"android":"levelo://app?vid=f6823f9d-d54d-4e34-8887-1f2cfeaa3f9e","ios":"levelo://app?vid=f6823f9d-d54d-4e34-8887-1f2cfeaa3f9e"},"vehicle_type_id":"4","last_reported":1716656887,"current_range_meters":8400,"station_id":"ce4bgt92rcd13ifvqcf0","pricing_plan_id":"cebpf4jnsgd1na2vs0mg"},{"bike_id":"911f2ee9-754b-446a-93cb-cb91453dd800","system_id":"levelo_inurba_marseille","lat":43.299867,"lon":5.371663,"is_reserved":false,"is_disabled":false,"rental_uris":{"android":"levelo://app?vid=911f2ee9-754b-446a-93cb-cb91453dd800","ios":"levelo://app?vid=911f2ee9-754b-446a-93cb-cb91453dd800"},"vehicle_type_id":"4","last_reported":1716656887,"current_range_meters":0,"station_id":"ce4bgr92rcd13ifvqc7g","pricing_plan_id":"cebpf4jnsgd1na2vs0mg"},{"bike_id":"b402d498-e789-4e5f-9e41-a7a36bd1c5d4","system_id":"levelo_inurba_marseille","lat":43.299724,"lon":5.371829,"is_reserved":false,"is_disabled":false,"rental_uris":{"android":"levelo://app?vid=b402d498-e789-4e5f-9e41-a7a36bd1c5d4","ios":"levelo://app?vid=b402d498-e789-4e5f-9e41-a7a36bd1c5d4"},"vehicle_type_id":"4","last_reported":1716656887,"current_range_meters":0,"station_id":"ce4bgr92rcd13ifvqc7g","pricing_plan_id":"cebpf4jnsgd1na2vs0mg"},{"bike_id":"7c0279c4-785e-41cc-9875-11b1aa5697b0","system_id":"levelo_inurba_marseille","lat":43.29847,"lon":5.3628,"is_reserved":false,"is_disabled":false,"rental_uris":{"android":"levelo://app?vid=7c0279c4-785e-41cc-9875-11b1aa5697b0","ios":"levelo://app?vid=7c0279c4-785e-41cc-9875-11b1aa5697b0"},"vehicle_type_id":"4","last_reported":1716656887,"current_range_meters":28400,"station_id":"ce4bgpp2rcd13ifvqc3g","pricing_plan_id":"cebpf4jnsgd1na2vs0mg"},{"bike_id":"bce9199d-1b1a-4380-855f-25fcd3d8e237","system_id":"levelo_inurba_marseille","lat":43.305364,"lon":5.384119,"is_reserved":false,"is_disabled":false,"rental_uris":{"android":"levelo://app?vid=bce9199d-1b1a-4380-855f-25fcd3d8e237","ios":"levelo://app?vid=bce9199d-1b1a-4380-855f-25fcd3d8e237"},"vehicle_type_id":"4","last_reported":1716656887,"current_range_meters":13600,"station_id":"ce4bgg92rcd13ifvqb30","pricing_plan_id":"cebpf4jnsgd1na2vs0mg"},{"bike_id":"069bc724-dea5-41ba-ae29-f64d9609f19b","system_id":"levelo_inurba_marseille","lat":43.305364,"lon":5.384119,"is_reserved":false,"is_disabled":false,"rental_uris":{"android":"levelo://app?vid=069bc724-dea5-41ba-ae29-f64d9609f19b","ios":"levelo://app?vid=069bc724-dea5-41ba-ae29-f64d9609f19b"},"vehicle_type_id":"4","last_reported":1716656887,"current_range_meters":10800,"station_id":"ce4bgg92rcd13ifvqb30","pricing_plan_id":"cebpf4jnsgd1na2vs0mg"},{"bike_id":"04786399-7294-4271-ab48-d69fe7ee235c","system_id":"levelo_inurba_marseille","lat":43.31173,"lon":5.38709,"is_reserved":false,"is_disabled":false,"rental_uris":{"android":"levelo://app?vid=04786399-7294-4271-ab48-d69fe7ee235c","ios":"levelo://app?vid=04786399-7294-4271-ab48-d69fe7ee235c"},"vehicle_type_id":"4","last_reported":1716656887,"current_range_meters":0,"station_id":"ce4bgv12rcd13ifvqcp0","pricing_plan_id":"cebpf4jnsgd1na2vs0mg"},{"bike_id":"4d98a697-b306-4222-8230-ed979f114a33","system_id":"levelo_inurba_marseille","lat":43.31183,"lon":5.38711,"is_reserved":false,"is_disabled":false,"rental_uris":{"android":"levelo://app?vid=4d98a697-b306-4222-8230-ed979f114a33","ios":"levelo://app?vid=4d98a697-b306-4222-8230-ed979f114a33"},"vehicle_type_id":"4","last_reported":1716656887,"current_range_meters":14000,"station_id":"ce4bgv12rcd13ifvqcp0","pricing_plan_id":"cebpf4jnsgd1na2vs0mg"},{"bike_id":"a47600f6-ee4a-433e-8fa4-abb2b163391d","system_id":"levelo_inurba_marseille","lat":43.311722,"lon":5.387247,"is_reserved":false,"is_disabled":false,"rental_uris":{"android":"levelo://app?vid=a47600f6-ee4a-433e-8fa4-abb2b163391d","ios":"levelo://app?vid=a47600f6-ee4a-433e-8fa4-abb2b163391d"},"vehicle_type_id":"4","last_reported":1716656887,"current_range_meters":8000,"station_id":"ce4bgv12rcd13ifvqcp0","pricing_plan_id":"cebpf4jnsgd1na2vs0mg"},{"bike_id":"1fb9de2a-38dd-4533-9022-cbfaa58d5cc7","system_id":"levelo_inurba_marseille","lat":43.31165,"lon":5.38721,"is_reserved":false,"is_disabled":false,"rental_uris":{"android":"levelo://app?vid=1fb9de2a-38dd-4533-9022-cbfaa58d5cc7","ios":"levelo://app?vid=1fb9de2a-38dd-4533-9022-cbfaa58d5cc7"},"vehicle_type_id":"4","last_reported":1716656887,"current_range_meters":0,"station_id":"ce4bgv12rcd13ifvqcp0","pricing_plan_id":"cebpf4jnsgd1na2vs0mg"},{"bike_id":"716470a2-7cb3-49f9-8bba-cbcf239bc6a7","system_id":"levelo_inurba_marseille","lat":43.311722,"lon":5.387247,"is_reserved":false,"is_disabled":false,"rental_uris":{"android":"levelo://app?vid=716470a2-7cb3-49f9-8bba-cbcf239bc6a7","ios":"levelo://app?vid=716470a2-7cb3-49f9-8bba-cbcf239bc6a7"},"vehicle_type_id":"4","last_reported":1716656887,"current_range_meters":4800,"station_id":"ce4bgv12rcd13ifvqcp0","pricing_plan_id":"cebpf4jnsgd1na2vs0mg"},{"bike_id":"ed492a4e-944e-43b3-bd26-4581a8e6f7a8","system_id":"levelo_inurba_marseille","lat":43.297794,"lon":5.370888,"is_reserved":false,"is_disabled":false,"rental_uris":{"android":"levelo://app?vid=ed492a4e-944e-43b3-bd26-4581a8e6f7a8","ios":"levelo://app?vid=ed492a4e-944e-43b3-bd26-4581a8e6f7a8"},"vehicle_type_id":"4","last_reported":1716656887,"current_range_meters":30000,"station_id":"ce4bgop2rcd13ifvqc1g","pricing_plan_id":"cebpf4jnsgd1na2vs0mg"},{"bike_id":"185792cb-c8a4-4893-a883-0d9b7bbaaf3d","system_id":"levelo_inurba_marseille","lat":43.297774,"lon":5.370875,"is_reserved":false,"is_disabled":false,"rental_uris":{"android":"levelo://app?vid=185792cb-c8a4-4893-a883-0d9b7bbaaf3d","ios":"levelo://app?vid=185792cb-c8a4-4893-a883-0d9b7bbaaf3d"},"vehicle_type_id":"4","last_reported":1716656887,"current_range_meters":5200,"station_id":"ce4bgop2rcd13ifvqc1g","pricing_plan_id":"cebpf4jnsgd1na2vs0mg"},{"bike_id":"6f847c7b-c4a1-420a-ab0f-7f41cb0247c5","system_id":"levelo_inurba_marseille","lat":43.297774,"lon":5.370875,"is_reserved":false,"is_disabled":false,"rental_uris":{"android":"levelo://app?vid=6f847c7b-c4a1-420a-ab0f-7f41cb0247c5","ios":"levelo://app?vid=6f847c7b-c4a1-420a-ab0f-7f41cb0247c5"},"vehicle_type_id":"4","last_reported":1716656887,"current_range_meters":400,"station_id":"ce4bgop2rcd13ifvqc1g","pricing_plan_id":"cebpf4jnsgd1na2vs0mg"},{"bike_id":"44991ac8-d706-4f51-9a70-e44937b720db","system_id":"levelo_inurba_marseille","lat":43.30219,"lon":5.38261,"is_reserved":false,"is_disabled":false,"rental_uris":{"android":"levelo://app?vid=44991ac8-d706-4f51-9a70-e44937b720db","ios":"levelo://app?vid=44991ac8-d706-4f51-9a70-e44937b720db"},"vehicle_type_id":"4","last_reported":1716656887,"current_range_meters":10000,"station_id":"","pricing_plan_id":"cebpf4jnsgd1na2vs0mg"},{"bike_id":"ede03452-f6f5-4dc6-a4fe-d05797f21b7d","system_id":"levelo_inurba_marseille","lat":43.297163,"lon":5.365866,"is_reserved":false,"is_disabled":false,"rental_uris":{"android":"levelo://app?vid=ede03452-f6f5-4dc6-a4fe-d05797f21b7d","ios":"levelo://app?vid=ede03452-f6f5-4dc6-a4fe-d05797f21b7d"},"vehicle_type_id":"4","last_reported":1716656887,"current_range_meters":0,"station_id":"ce4bgn12rcd13ifvqbt0","pricing_plan_id":"cebpf4jnsgd1na2vs0mg"},{"bike_id":"b0181dbd-d16d-4347-9382-b450da867146","system_id":"levelo_inurba_marseille","lat":43.29657,"lon":5.36162,"is_reserved":false,"is_disabled":false,"rental_uris":{"android":"levelo://app?vid=b0181dbd-d16d-4347-9382-b450da867146","ios":"levelo://app?vid=b0181dbd-d16d-4347-9382-b450da867146"},"vehicle_type_id":"4","last_reported":1716656887,"current_range_meters":8000,"station_id":"","pricing_plan_id":"cebpf4jnsgd1na2vs0mg"},{"bike_id":"bd8a6e8b-b44b-4637-bfe1-c71b5ffc8283","system_id":"levelo_inurba_marseille","lat":43.296131,"lon":5.370773,"is_reserved":false,"is_disabled":false,"rental_uris":{"android":"levelo://app?vid=bd8a6e8b-b44b-4637-bfe1-c71b5ffc8283","ios":"levelo://app?vid=bd8a6e8b-b44b-4637-bfe1-c71b5ffc8283"},"vehicle_type_id":"4","last_reported":1716656887,"current_range_meters":0,"station_id":"ce4bgnh2rcd13ifvqc0g","pricing_plan_id":"cebpf4jnsgd1na2vs0mg"},{"bike_id":"5bfbf0ac-b659-49bb-869a-31419ebfdcbf","system_id":"levelo_inurba_marseille","lat":43.29581,"lon":5.36752,"is_reserved":false,"is_disabled":false,"rental_uris":{"android":"levelo://app?vid=5bfbf0ac-b659-49bb-869a-31419ebfdcbf","ios":"levelo://app?vid=5bfbf0ac-b659-49bb-869a-31419ebfdcbf"},"vehicle_type_id":"4","last_reported":1716656887,"current_range_meters":4400,"station_id":"ce4bgph2rcd13ifvqc2g","pricing_plan_id":"cebpf4jnsgd1na2vs0mg"},{"bike_id":"d4ba02af-6a84-42d0-a358-d0e718841e6d","system_id":"levelo_inurba_marseille","lat":43.29573,"lon":5.367355,"is_reserved":false,"is_disabled":false,"rental_uris":{"android":"levelo://app?vid=d4ba02af-6a84-42d0-a358-d0e718841e6d","ios":"levelo://app?vid=d4ba02af-6a84-42d0-a358-d0e718841e6d"},"vehicle_type_id":"4","last_reported":1716656887,"current_range_meters":19600,"station_id":"ce4bgph2rcd13ifvqc2g","pricing_plan_id":"cebpf4jnsgd1na2vs0mg"},{"bike_id":"e00a8d7d-2238-4060-a164-f0727ef95472","system_id":"levelo_inurba_marseille","lat":43.29573,"lon":5.367355,"is_reserved":false,"is_disabled":false,"rental_uris":{"android":"levelo://app?vid=e00a8d7d-2238-4060-a164-f0727ef95472","ios":"levelo://app?vid=e00a8d7d-2238-4060-a164-f0727ef95472"},"vehicle_type_id":"4","last_reported":1716656887,"current_range_meters":3200,"station_id":"ce4bgph2rcd13ifvqc2g","pricing_plan_id":"cebpf4jnsgd1na2vs0mg"},{"bike_id":"9ff82eb4-9684-4f47-b0dc-5c10806f8645","system_id":"levelo_inurba_marseille","lat":43.29573,"lon":5.367355,"is_reserved":false,"is_disabled":false,"rental_uris":{"android":"levelo://app?vid=9ff82eb4-9684-4f47-b0dc-5c10806f8645","ios":"levelo://app?vid=9ff82eb4-9684-4f47-b0dc-5c10806f8645"},"vehicle_type_id":"4","last_reported":1716656887,"current_range_meters":14400,"station_id":"ce4bgph2rcd13ifvqc2g","pricing_plan_id":"cebpf4jnsgd1na2vs0mg"},{"bike_id":"c0ed7320-0d7e-4d6a-9514-40b780d0a713","system_id":"levelo_inurba_marseille","lat":43.296921,"lon":5.376579,"is_reserved":false,"is_disabled":false,"rental_uris":{"android":"levelo://app?vid=c0ed7320-0d7e-4d6a-9514-40b780d0a713","ios":"levelo://app?vid=c0ed7320-0d7e-4d6a-9514-40b780d0a713"},"vehicle_type_id":"4","last_reported":1716656887,"current_range_meters":26400,"station_id":"ce4bgkh2rcd13ifvqbl0","pricing_plan_id":"cebpf4jnsgd1na2vs0mg"},{"bike_id":"8040de35-c836-4169-9636-43367d61fe4e","system_id":"levelo_inurba_marseille","lat":43.296935,"lon":5.376544,"is_reserved":false,"is_disabled":false,"rental_uris":{"android":"levelo://app?vid=8040de35-c836-4169-9636-43367d61fe4e","ios":"levelo://app?vid=8040de35-c836-4169-9636-43367d61fe4e"},"vehicle_type_id":"4","last_reported":1716656887,"current_range_meters":0,"station_id":"ce4bgkh2rcd13ifvqbl0","pricing_plan_id":"cebpf4jnsgd1na2vs0mg"},{"bike_id":"0c26e736-6e0a-4b44-80c8-cae515918036","system_id":"levelo_inurba_marseille","lat":43.299028,"lon":5.381509,"is_reserved":false,"is_disabled":false,"rental_uris":{"android":"levelo://app?vid=0c26e736-6e0a-4b44-80c8-cae515918036","ios":"levelo://app?vid=0c26e736-6e0a-4b44-80c8-cae515918036"},"vehicle_type_id":"4","last_reported":1716656887,"current_range_meters":1200,"station_id":"ce4bgj12rcd13ifvqbc0","pricing_plan_id":"cebpf4jnsgd1na2vs0mg"},{"bike_id":"e83c4850-5f54-4443-9807-1d65d9478989","system_id":"levelo_inurba_marseille","lat":43.299028,"lon":5.381509,"is_reserved":false,"is_disabled":false,"rental_uris":{"android":"levelo://app?vid=e83c4850-5f54-4443-9807-1d65d9478989","ios":"levelo://app?vid=e83c4850-5f54-4443-9807-1d65d9478989"},"vehicle_type_id":"4","last_reported":1716656887,"current_range_meters":22800,"station_id":"ce4bgj12rcd13ifvqbc0","pricing_plan_id":"cebpf4jnsgd1na2vs0mg"},{"bike_id":"1ce46f49-762e-42fa-83c9-b27fd19dfaa3","system_id":"levelo_inurba_marseille","lat":43.317557,"lon":5.390173,"is_reserved":false,"is_disabled":false,"rental_uris":{"android":"levelo://app?vid=1ce46f49-762e-42fa-83c9-b27fd19dfaa3","ios":"levelo://app?vid=1ce46f49-762e-42fa-83c9-b27fd19dfaa3"},"vehicle_type_id":"4","last_reported":1716656887,"current_range_meters":3600,"station_id":"ce4bhqp2rcd13ifvqhng","pricing_plan_id":"cebpf4jnsgd1na2vs0mg"},{"bike_id":"c1c5c2f6-4d20-4634-95e1-78b68fa68edc","system_id":"levelo_inurba_marseille","lat":43.299028,"lon":5.381509,"is_reserved":false,"is_disabled":false,"rental_uris":{"android":"levelo://app?vid=c1c5c2f6-4d20-4634-95e1-78b68fa68edc","ios":"levelo://app?vid=c1c5c2f6-4d20-4634-95e1-78b68fa68edc"},"vehicle_type_id":"4","last_reported":1716656887,"current_range_meters":2400,"station_id":"ce4bgj12rcd13ifvqbc0","pricing_plan_id":"cebpf4jnsgd1na2vs0mg"},{"bike_id":"cbee9dba-6195-44e7-aba7-2c0b0f2cd95e","system_id":"levelo_inurba_marseille","lat":43.317557,"lon":5.390173,"is_reserved":false,"is_disabled":false,"rental_uris":{"android":"levelo://app?vid=cbee9dba-6195-44e7-aba7-2c0b0f2cd95e","ios":"levelo://app?vid=cbee9dba-6195-44e7-aba7-2c0b0f2cd95e"},"vehicle_type_id":"4","last_reported":1716656887,"current_range_meters":19200,"station_id":"ce4bhqp2rcd13ifvqhng","pricing_plan_id":"cebpf4jnsgd1na2vs0mg"},{"bike_id":"ba885830-4676-4f77-ba9b-a9b3518c0124","system_id":"levelo_inurba_marseille","lat":43.29803,"lon":5.38113,"is_reserved":false,"is_disabled":false,"rental_uris":{"android":"levelo://app?vid=ba885830-4676-4f77-ba9b-a9b3518c0124","ios":"levelo://app?vid=ba885830-4676-4f77-ba9b-a9b3518c0124"},"vehicle_type_id":"4","last_reported":1716656887,"current_range_meters":0,"station_id":"ce4bgip2rcd13ifvqbb0","pricing_plan_id":"cebpf4jnsgd1na2vs0mg"},{"bike_id":"0cdb46d3-ce9d-46a8-81c5-174cacce58e0","system_id":"levelo_inurba_marseille","lat":43.298037,"lon":5.381066,"is_reserved":false,"is_disabled":false,"rental_uris":{"android":"levelo://app?vid=0cdb46d3-ce9d-46a8-81c5-174cacce58e0","ios":"levelo://app?vid=0cdb46d3-ce9d-46a8-81c5-174cacce58e0"},"vehicle_type_id":"4","last_reported":1716656887,"current_range_meters":30400,"station_id":"ce4bgip2rcd13ifvqbb0","pricing_plan_id":"cebpf4jnsgd1na2vs0mg"},{"bike_id":"755eb7ca-7b5e-4ee7-acf5-64764ad37ec5","system_id":"levelo_inurba_marseille","lat":43.29569,"lon":5.37524,"is_reserved":false,"is_disabled":false,"rental_uris":{"android":"levelo://app?vid=755eb7ca-7b5e-4ee7-acf5-64764ad37ec5","ios":"levelo://app?vid=755eb7ca-7b5e-4ee7-acf5-64764ad37ec5"},"vehicle_type_id":"4","last_reported":1716656887,"current_range_meters":0,"station_id":"ce4bgh92rcd13ifvqb50","pricing_plan_id":"cebpf4jnsgd1na2vs0mg"},{"bike_id":"3c9c03ac-0099-4945-a7cb-ed42d2caaf8c","system_id":"levelo_inurba_marseille","lat":43.295748,"lon":5.37522,"is_reserved":false,"is_disabled":false,"rental_uris":{"android":"levelo://app?vid=3c9c03ac-0099-4945-a7cb-ed42d2caaf8c","ios":"levelo://app?vid=3c9c03ac-0099-4945-a7cb-ed42d2caaf8c"},"vehicle_type_id":"4","last_reported":1716656887,"current_range_meters":3200,"station_id":"ce4bgh92rcd13ifvqb50","pricing_plan_id":"cebpf4jnsgd1na2vs0mg"},{"bike_id":"3aee82ec-bd7e-4333-b458-502e78d50698","system_id":"levelo_inurba_marseille","lat":43.295748,"lon":5.37522,"is_reserved":false,"is_disabled":false,"rental_uris":{"android":"levelo://app?vid=3aee82ec-bd7e-4333-b458-502e78d50698","ios":"levelo://app?vid=3aee82ec-bd7e-4333-b458-502e78d50698"},"vehicle_type_id":"4","last_reported":1716656887,"current_range_meters":0,"station_id":"ce4bgh92rcd13ifvqb50","pricing_plan_id":"cebpf4jnsgd1na2vs0mg"},{"bike_id":"7ddf45d6-245b-4fb7-9602-367b6a30e219","system_id":"levelo_inurba_marseille","lat":43.304274,"lon":5.388873,"is_reserved":false,"is_disabled":false,"rental_uris":{"android":"levelo://app?vid=7ddf45d6-245b-4fb7-9602-367b6a30e219","ios":"levelo://app?vid=7ddf45d6-245b-4fb7-9602-367b6a30e219"},"vehicle_type_id":"4","last_reported":1716656887,"current_range_meters":0,"station_id":"ce4bgk12rcd13ifvqbi0","pricing_plan_id":"cebpf4jnsgd1na2vs0mg"},{"bike_id":"fc7cc62f-827c-4fa7-96db-2caa3d7706c1","system_id":"levelo_inurba_marseille","lat":43.295748,"lon":5.37522,"is_reserved":false,"is_disabled":false,"rental_uris":{"android":"levelo://app?vid=fc7cc62f-827c-4fa7-96db-2caa3d7706c1","ios":"levelo://app?vid=fc7cc62f-827c-4fa7-96db-2caa3d7706c1"},"vehicle_type_id":"4","last_reported":1716656887,"current_range_meters":0,"station_id":"ce4bgh92rcd13ifvqb50","pricing_plan_id":"cebpf4jnsgd1na2vs0mg"},{"bike_id":"7aa2e344-24a6-4f14-b324-f29b5dc1ad19","system_id":"levelo_inurba_marseille","lat":43.295748,"lon":5.37522,"is_reserved":false,"is_disabled":false,"rental_uris":{"android":"levelo://app?vid=7aa2e344-24a6-4f14-b324-f29b5dc1ad19","ios":"levelo://app?vid=7aa2e344-24a6-4f14-b324-f29b5dc1ad19"},"vehicle_type_id":"4","last_reported":1716656887,"current_range_meters":11600,"station_id":"ce4bgh92rcd13ifvqb50","pricing_plan_id":"cebpf4jnsgd1na2vs0mg"},{"bike_id":"69390f8e-c594-4809-9784-6363755e29b2","system_id":"levelo_inurba_marseille","lat":43.29529,"lon":5.375069,"is_reserved":false,"is_disabled":false,"rental_uris":{"android":"levelo://app?vid=69390f8e-c594-4809-9784-6363755e29b2","ios":"levelo://app?vid=69390f8e-c594-4809-9784-6363755e29b2"},"vehicle_type_id":"4","last_reported":1716656887,"current_range_meters":26800,"station_id":"ce4bgkp2rcd13ifvqbmg","pricing_plan_id":"cebpf4jnsgd1na2vs0mg"},{"bike_id":"3e9529c9-56bd-4d35-a30c-f37979076015","system_id":"levelo_inurba_marseille","lat":43.295279,"lon":5.375048,"is_reserved":false,"is_disabled":false,"rental_uris":{"android":"levelo://app?vid=3e9529c9-56bd-4d35-a30c-f37979076015","ios":"levelo://app?vid=3e9529c9-56bd-4d35-a30c-f37979076015"},"vehicle_type_id":"4","last_reported":1716656887,"current_range_meters":4800,"station_id":"ce4bgkp2rcd13ifvqbmg","pricing_plan_id":"cebpf4jnsgd1na2vs0mg"},{"bike_id":"7cc0e144-b1a3-4318-9f18-50f1a5b02e37","system_id":"levelo_inurba_marseille","lat":43.29971,"lon":5.38487,"is_reserved":false,"is_disabled":false,"rental_uris":{"android":"levelo://app?vid=7cc0e144-b1a3-4318-9f18-50f1a5b02e37","ios":"levelo://app?vid=7cc0e144-b1a3-4318-9f18-50f1a5b02e37"},"vehicle_type_id":"4","last_reported":1716656887,"current_range_meters":0,"station_id":"ce4bgj92rcd13ifvqbd0","pricing_plan_id":"cebpf4jnsgd1na2vs0mg"},{"bike_id":"432e9bca-7c43-482b-a927-155fb9e4a280","system_id":"levelo_inurba_marseille","lat":43.29525,"lon":5.37505,"is_reserved":false,"is_disabled":false,"rental_uris":{"android":"levelo://app?vid=432e9bca-7c43-482b-a927-155fb9e4a280","ios":"levelo://app?vid=432e9bca-7c43-482b-a927-155fb9e4a280"},"vehicle_type_id":"4","last_reported":1716656887,"current_range_meters":0,"station_id":"ce4bgkp2rcd13ifvqbmg","pricing_plan_id":"cebpf4jnsgd1na2vs0mg"},{"bike_id":"fa39f682-f6f7-4376-9eed-9192c92fc381","system_id":"levelo_inurba_marseille","lat":43.295279,"lon":5.375048,"is_reserved":false,"is_disabled":false,"rental_uris":{"android":"levelo://app?vid=fa39f682-f6f7-4376-9eed-9192c92fc381","ios":"levelo://app?vid=fa39f682-f6f7-4376-9eed-9192c92fc381"},"vehicle_type_id":"4","last_reported":1716656887,"current_range_meters":0,"station_id":"ce4bgkp2rcd13ifvqbmg","pricing_plan_id":"cebpf4jnsgd1na2vs0mg"},{"bike_id":"d014cf3e-048b-41f0-8f75-4b7171a47831","system_id":"levelo_inurba_marseille","lat":43.299724,"lon":5.384848,"is_reserved":false,"is_disabled":false,"rental_uris":{"android":"levelo://app?vid=d014cf3e-048b-41f0-8f75-4b7171a47831","ios":"levelo://app?vid=d014cf3e-048b-41f0-8f75-4b7171a47831"},"vehicle_type_id":"4","last_reported":1716656887,"current_range_meters":31200,"station_id":"ce4bgj92rcd13ifvqbd0","pricing_plan_id":"cebpf4jnsgd1na2vs0mg"},{"bike_id":"ea5c8d42-c861-4802-a2ac-9f57d3bd183f","system_id":"levelo_inurba_marseille","lat":43.299717,"lon":5.384845,"is_reserved":false,"is_disabled":false,"rental_uris":{"android":"levelo://app?vid=ea5c8d42-c861-4802-a2ac-9f57d3bd183f","ios":"levelo://app?vid=ea5c8d42-c861-4802-a2ac-9f57d3bd183f"},"vehicle_type_id":"4","last_reported":1716656887,"current_range_meters":31200,"station_id":"ce4bgj92rcd13ifvqbd0","pricing_plan_id":"cebpf4jnsgd1na2vs0mg"},{"bike_id":"61e6696e-624d-4e52-a309-14b32fa58aee","system_id":"levelo_inurba_marseille","lat":43.295279,"lon":5.375048,"is_reserved":false,"is_disabled":false,"rental_uris":{"android":"levelo://app?vid=61e6696e-624d-4e52-a309-14b32fa58aee","ios":"levelo://app?vid=61e6696e-624d-4e52-a309-14b32fa58aee"},"vehicle_type_id":"4","last_reported":1716656887,"current_range_meters":29200,"station_id":"ce4bgkp2rcd13ifvqbmg","pricing_plan_id":"cebpf4jnsgd1na2vs0mg"},{"bike_id":"2164b4e2-cf83-4860-958c-17f98f2491eb","system_id":"levelo_inurba_marseille","lat":43.295279,"lon":5.375048,"is_reserved":false,"is_disabled":false,"rental_uris":{"android":"levelo://app?vid=2164b4e2-cf83-4860-958c-17f98f2491eb","ios":"levelo://app?vid=2164b4e2-cf83-4860-958c-17f98f2491eb"},"vehicle_type_id":"4","last_reported":1716656887,"current_range_meters":6800,"station_id":"ce4bgkp2rcd13ifvqbmg","pricing_plan_id":"cebpf4jnsgd1na2vs0mg"},{"bike_id":"2e3f0ee3-6ab6-4e31-893e-b77a2899d1e0","system_id":"levelo_inurba_marseille","lat":43.29926,"lon":5.385096,"is_reserved":false,"is_disabled":false,"rental_uris":{"android":"levelo://app?vid=2e3f0ee3-6ab6-4e31-893e-b77a2899d1e0","ios":"levelo://app?vid=2e3f0ee3-6ab6-4e31-893e-b77a2899d1e0"},"vehicle_type_id":"4","last_reported":1716656887,"current_range_meters":0,"station_id":"","pricing_plan_id":"cebpf4jnsgd1na2vs0mg"},{"bike_id":"4a761951-210d-43e0-8336-57ac2010ebb5","system_id":"levelo_inurba_marseille","lat":43.294737,"lon":5.375122,"is_reserved":false,"is_disabled":false,"rental_uris":{"android":"levelo://app?vid=4a761951-210d-43e0-8336-57ac2010ebb5","ios":"levelo://app?vid=4a761951-210d-43e0-8336-57ac2010ebb5"},"vehicle_type_id":"4","last_reported":1716656887,"current_range_meters":0,"station_id":"ce4bgkp2rcd13ifvqbmg","pricing_plan_id":"cebpf4jnsgd1na2vs0mg"},{"bike_id":"78252e3e-8eff-4ccb-a142-6526e4cc39f4","system_id":"levelo_inurba_marseille","lat":43.30089,"lon":5.38729,"is_reserved":false,"is_disabled":false,"rental_uris":{"android":"levelo://app?vid=78252e3e-8eff-4ccb-a142-6526e4cc39f4","ios":"levelo://app?vid=78252e3e-8eff-4ccb-a142-6526e4cc39f4"},"vehicle_type_id":"4","last_reported":1716656887,"current_range_meters":0,"station_id":"","pricing_plan_id":"cebpf4jnsgd1na2vs0mg"},{"bike_id":"2f28c6fb-f5d6-4b94-9948-f4d8ea8092bc","system_id":"levelo_inurba_marseille","lat":43.29601,"lon":5.381084,"is_reserved":false,"is_disabled":false,"rental_uris":{"android":"levelo://app?vid=2f28c6fb-f5d6-4b94-9948-f4d8ea8092bc","ios":"levelo://app?vid=2f28c6fb-f5d6-4b94-9948-f4d8ea8092bc"},"vehicle_type_id":"4","last_reported":1716656887,"current_range_meters":7600,"station_id":"ce4bgl12rcd13ifvqbo0","pricing_plan_id":"cebpf4jnsgd1na2vs0mg"},{"bike_id":"339424cf-c43e-42d4-bed7-e589728ebb8b","system_id":"levelo_inurba_marseille","lat":43.29601,"lon":5.381084,"is_reserved":false,"is_disabled":false,"rental_uris":{"android":"levelo://app?vid=339424cf-c43e-42d4-bed7-e589728ebb8b","ios":"levelo://app?vid=339424cf-c43e-42d4-bed7-e589728ebb8b"},"vehicle_type_id":"4","last_reported":1716656887,"current_range_meters":8000,"station_id":"ce4bgl12rcd13ifvqbo0","pricing_plan_id":"cebpf4jnsgd1na2vs0mg"},{"bike_id":"28a96d14-2844-48db-85e8-d0dbb4e0d984","system_id":"levelo_inurba_marseille","lat":43.293112,"lon":5.371466,"is_reserved":false,"is_disabled":false,"rental_uris":{"android":"levelo://app?vid=28a96d14-2844-48db-85e8-d0dbb4e0d984","ios":"levelo://app?vid=28a96d14-2844-48db-85e8-d0dbb4e0d984"},"vehicle_type_id":"4","last_reported":1716656887,"current_range_meters":12400,"station_id":"ce4bgh92rcd13ifvqb40","pricing_plan_id":"cebpf4jnsgd1na2vs0mg"},{"bike_id":"638e1048-f393-4e07-ada0-2a45a506b9b4","system_id":"levelo_inurba_marseille","lat":43.293565,"lon":5.374497,"is_reserved":false,"is_disabled":false,"rental_uris":{"android":"levelo://app?vid=638e1048-f393-4e07-ada0-2a45a506b9b4","ios":"levelo://app?vid=638e1048-f393-4e07-ada0-2a45a506b9b4"},"vehicle_type_id":"4","last_reported":1716656887,"current_range_meters":4000,"station_id":"ce4bgi12rcd13ifvqb70","pricing_plan_id":"cebpf4jnsgd1na2vs0mg"},{"bike_id":"2fce2e86-7a79-4a67-ad55-9d5ef062e6f0","system_id":"levelo_inurba_marseille","lat":43.29307,"lon":5.37182,"is_reserved":false,"is_disabled":false,"rental_uris":{"android":"levelo://app?vid=2fce2e86-7a79-4a67-ad55-9d5ef062e6f0","ios":"levelo://app?vid=2fce2e86-7a79-4a67-ad55-9d5ef062e6f0"},"vehicle_type_id":"4","last_reported":1716656887,"current_range_meters":0,"station_id":"ce4bgh92rcd13ifvqb40","pricing_plan_id":"cebpf4jnsgd1na2vs0mg"},{"bike_id":"76c701f8-d650-42dc-b323-257bcb9853c6","system_id":"levelo_inurba_marseille","lat":43.292749,"lon":5.368402,"is_reserved":false,"is_disabled":false,"rental_uris":{"android":"levelo://app?vid=76c701f8-d650-42dc-b323-257bcb9853c6","ios":"levelo://app?vid=76c701f8-d650-42dc-b323-257bcb9853c6"},"vehicle_type_id":"4","last_reported":1716656887,"current_range_meters":17200,"station_id":"ce4bhbp2rcd13ifvqesg","pricing_plan_id":"cebpf4jnsgd1na2vs0mg"},{"bike_id":"659e30b2-22b6-4471-a310-6f2bdeb2387f","system_id":"levelo_inurba_marseille","lat":43.29304,"lon":5.37176,"is_reserved":false,"is_disabled":false,"rental_uris":{"android":"levelo://app?vid=659e30b2-22b6-4471-a310-6f2bdeb2387f","ios":"levelo://app?vid=659e30b2-22b6-4471-a310-6f2bdeb2387f"},"vehicle_type_id":"4","last_reported":1716656887,"current_range_meters":7600,"station_id":"ce4bgh92rcd13ifvqb40","pricing_plan_id":"cebpf4jnsgd1na2vs0mg"},{"bike_id":"05142c90-0a57-46b5-89a3-8bdb1f098ddc","system_id":"levelo_inurba_marseille","lat":43.29305,"lon":5.37187,"is_reserved":false,"is_disabled":false,"rental_uris":{"android":"levelo://app?vid=05142c90-0a57-46b5-89a3-8bdb1f098ddc","ios":"levelo://app?vid=05142c90-0a57-46b5-89a3-8bdb1f098ddc"},"vehicle_type_id":"4","last_reported":1716656887,"current_range_meters":31600,"station_id":"ce4bgh92rcd13ifvqb40","pricing_plan_id":"cebpf4jnsgd1na2vs0mg"},{"bike_id":"a7b3ff6d-b6b0-4c8c-b44c-4d6ff7239edd","system_id":"levelo_inurba_marseille","lat":43.292749,"lon":5.368398,"is_reserved":false,"is_disabled":false,"rental_uris":{"android":"levelo://app?vid=a7b3ff6d-b6b0-4c8c-b44c-4d6ff7239edd","ios":"levelo://app?vid=a7b3ff6d-b6b0-4c8c-b44c-4d6ff7239edd"},"vehicle_type_id":"4","last_reported":1716656887,"current_range_meters":10400,"station_id":"ce4bhbp2rcd13ifvqesg","pricing_plan_id":"cebpf4jnsgd1na2vs0mg"},{"bike_id":"73ee7d89-249d-4265-960f-7508fb214570","system_id":"levelo_inurba_marseille","lat":43.29302,"lon":5.37171,"is_reserved":false,"is_disabled":false,"rental_uris":{"android":"levelo://app?vid=73ee7d89-249d-4265-960f-7508fb214570","ios":"levelo://app?vid=73ee7d89-249d-4265-960f-7508fb214570"},"vehicle_type_id":"4","last_reported":1716656887,"current_range_meters":9200,"station_id":"ce4bgh92rcd13ifvqb40","pricing_plan_id":"cebpf4jnsgd1na2vs0mg"},{"bike_id":"aebbac67-99e5-482a-8e50-e1f799f32026","system_id":"levelo_inurba_marseille","lat":43.292749,"lon":5.368402,"is_reserved":false,"is_disabled":false,"rental_uris":{"android":"levelo://app?vid=aebbac67-99e5-482a-8e50-e1f799f32026","ios":"levelo://app?vid=aebbac67-99e5-482a-8e50-e1f799f32026"},"vehicle_type_id":"4","last_reported":1716656887,"current_range_meters":12000,"station_id":"ce4bhbp2rcd13ifvqesg","pricing_plan_id":"cebpf4jnsgd1na2vs0mg"},{"bike_id":"6734be83-b1a1-4c71-87e0-f7c99940f69a","system_id":"levelo_inurba_marseille","lat":43.292749,"lon":5.368398,"is_reserved":false,"is_disabled":false,"rental_uris":{"android":"levelo://app?vid=6734be83-b1a1-4c71-87e0-f7c99940f69a","ios":"levelo://app?vid=6734be83-b1a1-4c71-87e0-f7c99940f69a"},"vehicle_type_id":"4","last_reported":1716656887,"current_range_meters":0,"station_id":"ce4bhbp2rcd13ifvqesg","pricing_plan_id":"cebpf4jnsgd1na2vs0mg"},{"bike_id":"dfc6b94e-c5ac-4bba-a937-1056ee19f5f4","system_id":"levelo_inurba_marseille","lat":43.292951,"lon":5.371672,"is_reserved":false,"is_disabled":false,"rental_uris":{"android":"levelo://app?vid=dfc6b94e-c5ac-4bba-a937-1056ee19f5f4","ios":"levelo://app?vid=dfc6b94e-c5ac-4bba-a937-1056ee19f5f4"},"vehicle_type_id":"4","last_reported":1716656887,"current_range_meters":15200,"station_id":"ce4bgh92rcd13ifvqb40","pricing_plan_id":"cebpf4jnsgd1na2vs0mg"},{"bike_id":"e5577034-d07a-4d0a-9c03-372c8379c96b","system_id":"levelo_inurba_marseille","lat":43.292749,"lon":5.368402,"is_reserved":false,"is_disabled":false,"rental_uris":{"android":"levelo://app?vid=e5577034-d07a-4d0a-9c03-372c8379c96b","ios":"levelo://app?vid=e5577034-d07a-4d0a-9c03-372c8379c96b"},"vehicle_type_id":"4","last_reported":1716656887,"current_range_meters":0,"station_id":"ce4bhbp2rcd13ifvqesg","pricing_plan_id":"cebpf4jnsgd1na2vs0mg"},{"bike_id":"7a862e2c-50be-4efa-bafe-da52daac5e97","system_id":"levelo_inurba_marseille","lat":43.305994,"lon":5.393687,"is_reserved":false,"is_disabled":false,"rental_uris":{"android":"levelo://app?vid=7a862e2c-50be-4efa-bafe-da52daac5e97","ios":"levelo://app?vid=7a862e2c-50be-4efa-bafe-da52daac5e97"},"vehicle_type_id":"4","last_reported":1716656887,"current_range_meters":0,"station_id":"ce4bh0p2rcd13ifvqd80","pricing_plan_id":"cebpf4jnsgd1na2vs0mg"},{"bike_id":"cba76842-3f84-47f7-bc7c-a81f8616b5b5","system_id":"levelo_inurba_marseille","lat":43.302992,"lon":5.392136,"is_reserved":false,"is_disabled":false,"rental_uris":{"android":"levelo://app?vid=cba76842-3f84-47f7-bc7c-a81f8616b5b5","ios":"levelo://app?vid=cba76842-3f84-47f7-bc7c-a81f8616b5b5"},"vehicle_type_id":"4","last_reported":1716656887,"current_range_meters":3600,"station_id":"ce4bgkh2rcd13ifvqbk0","pricing_plan_id":"cebpf4jnsgd1na2vs0mg"},{"bike_id":"96d3f928-fa9d-4cc0-9019-899bfdee8f14","system_id":"levelo_inurba_marseille","lat":43.305994,"lon":5.393687,"is_reserved":false,"is_disabled":false,"rental_uris":{"android":"levelo://app?vid=96d3f928-fa9d-4cc0-9019-899bfdee8f14","ios":"levelo://app?vid=96d3f928-fa9d-4cc0-9019-899bfdee8f14"},"vehicle_type_id":"4","last_reported":1716656887,"current_range_meters":23600,"station_id":"ce4bh0p2rcd13ifvqd80","pricing_plan_id":"cebpf4jnsgd1na2vs0mg"},{"bike_id":"3cba4a80-eddc-4ff0-b133-20c68396acb8","system_id":"levelo_inurba_marseille","lat":43.305994,"lon":5.393687,"is_reserved":false,"is_disabled":false,"rental_uris":{"android":"levelo://app?vid=3cba4a80-eddc-4ff0-b133-20c68396acb8","ios":"levelo://app?vid=3cba4a80-eddc-4ff0-b133-20c68396acb8"},"vehicle_type_id":"4","last_reported":1716656887,"current_range_meters":11200,"station_id":"ce4bh0p2rcd13ifvqd80","pricing_plan_id":"cebpf4jnsgd1na2vs0mg"},{"bike_id":"ad99470a-efee-4406-9941-fa3c2f79a2be","system_id":"levelo_inurba_marseille","lat":43.305994,"lon":5.393687,"is_reserved":false,"is_disabled":false,"rental_uris":{"android":"levelo://app?vid=ad99470a-efee-4406-9941-fa3c2f79a2be","ios":"levelo://app?vid=ad99470a-efee-4406-9941-fa3c2f79a2be"},"vehicle_type_id":"4","last_reported":1716656887,"current_range_meters":15600,"station_id":"ce4bh0p2rcd13ifvqd80","pricing_plan_id":"cebpf4jnsgd1na2vs0mg"},{"bike_id":"fdffce7c-dc26-449a-a74b-4338789ef00e","system_id":"levelo_inurba_marseille","lat":43.305994,"lon":5.393687,"is_reserved":false,"is_disabled":false,"rental_uris":{"android":"levelo://app?vid=fdffce7c-dc26-449a-a74b-4338789ef00e","ios":"levelo://app?vid=fdffce7c-dc26-449a-a74b-4338789ef00e"},"vehicle_type_id":"4","last_reported":1716656887,"current_range_meters":28400,"station_id":"ce4bh0p2rcd13ifvqd80","pricing_plan_id":"cebpf4jnsgd1na2vs0mg"},{"bike_id":"2a2dfb71-4316-4de5-8173-d61cfc88e0d4","system_id":"levelo_inurba_marseille","lat":43.305994,"lon":5.393687,"is_reserved":false,"is_disabled":false,"rental_uris":{"android":"levelo://app?vid=2a2dfb71-4316-4de5-8173-d61cfc88e0d4","ios":"levelo://app?vid=2a2dfb71-4316-4de5-8173-d61cfc88e0d4"},"vehicle_type_id":"4","last_reported":1716656887,"current_range_meters":4800,"station_id":"ce4bh0p2rcd13ifvqd80","pricing_plan_id":"cebpf4jnsgd1na2vs0mg"},{"bike_id":"f9b6651c-4b08-4f68-b8f2-16cb31162bcd","system_id":"levelo_inurba_marseille","lat":43.305994,"lon":5.393687,"is_reserved":false,"is_disabled":false,"rental_uris":{"android":"levelo://app?vid=f9b6651c-4b08-4f68-b8f2-16cb31162bcd","ios":"levelo://app?vid=f9b6651c-4b08-4f68-b8f2-16cb31162bcd"},"vehicle_type_id":"4","last_reported":1716656887,"current_range_meters":6800,"station_id":"ce4bh0p2rcd13ifvqd80","pricing_plan_id":"cebpf4jnsgd1na2vs0mg"},{"bike_id":"670145e6-b9be-42df-b7dc-094eeb72ce7a","system_id":"levelo_inurba_marseille","lat":43.305994,"lon":5.393687,"is_reserved":false,"is_disabled":false,"rental_uris":{"android":"levelo://app?vid=670145e6-b9be-42df-b7dc-094eeb72ce7a","ios":"levelo://app?vid=670145e6-b9be-42df-b7dc-094eeb72ce7a"},"vehicle_type_id":"4","last_reported":1716656887,"current_range_meters":6800,"station_id":"ce4bh0p2rcd13ifvqd80","pricing_plan_id":"cebpf4jnsgd1na2vs0mg"},{"bike_id":"613f648a-79c5-463c-b36c-5dbaa907fa97","system_id":"levelo_inurba_marseille","lat":43.305994,"lon":5.393687,"is_reserved":false,"is_disabled":false,"rental_uris":{"android":"levelo://app?vid=613f648a-79c5-463c-b36c-5dbaa907fa97","ios":"levelo://app?vid=613f648a-79c5-463c-b36c-5dbaa907fa97"},"vehicle_type_id":"4","last_reported":1716656887,"current_range_meters":0,"station_id":"ce4bh0p2rcd13ifvqd80","pricing_plan_id":"cebpf4jnsgd1na2vs0mg"},{"bike_id":"c05a8a5f-4951-49c8-8284-ddef691547ff","system_id":"levelo_inurba_marseille","lat":43.305994,"lon":5.393687,"is_reserved":false,"is_disabled":false,"rental_uris":{"android":"levelo://app?vid=c05a8a5f-4951-49c8-8284-ddef691547ff","ios":"levelo://app?vid=c05a8a5f-4951-49c8-8284-ddef691547ff"},"vehicle_type_id":"4","last_reported":1716656887,"current_range_meters":24000,"station_id":"ce4bh0p2rcd13ifvqd80","pricing_plan_id":"cebpf4jnsgd1na2vs0mg"},{"bike_id":"183cabe7-c957-43fb-b292-c31ead0a3aa4","system_id":"levelo_inurba_marseille","lat":43.302992,"lon":5.392136,"is_reserved":false,"is_disabled":false,"rental_uris":{"android":"levelo://app?vid=183cabe7-c957-43fb-b292-c31ead0a3aa4","ios":"levelo://app?vid=183cabe7-c957-43fb-b292-c31ead0a3aa4"},"vehicle_type_id":"4","last_reported":1716656887,"current_range_meters":8800,"station_id":"ce4bgkh2rcd13ifvqbk0","pricing_plan_id":"cebpf4jnsgd1na2vs0mg"},{"bike_id":"20d5882a-0525-405d-9ed6-089acb5e9ed6","system_id":"levelo_inurba_marseille","lat":43.30315,"lon":5.392509,"is_reserved":false,"is_disabled":false,"rental_uris":{"android":"levelo://app?vid=20d5882a-0525-405d-9ed6-089acb5e9ed6","ios":"levelo://app?vid=20d5882a-0525-405d-9ed6-089acb5e9ed6"},"vehicle_type_id":"4","last_reported":1716656887,"current_range_meters":2000,"station_id":"ce4bgkh2rcd13ifvqbk0","pricing_plan_id":"cebpf4jnsgd1na2vs0mg"},{"bike_id":"19932ea8-90c6-4014-9638-6f77bf0f3a10","system_id":"levelo_inurba_marseille","lat":43.30085,"lon":5.390856,"is_reserved":false,"is_disabled":false,"rental_uris":{"android":"levelo://app?vid=19932ea8-90c6-4014-9638-6f77bf0f3a10","ios":"levelo://app?vid=19932ea8-90c6-4014-9638-6f77bf0f3a10"},"vehicle_type_id":"4","last_reported":1716656887,"current_range_meters":18000,"station_id":"ce4bh192rcd13ifvqdb0","pricing_plan_id":"cebpf4jnsgd1na2vs0mg"},{"bike_id":"1c8682e9-8496-4b84-8850-068f98acc65a","system_id":"levelo_inurba_marseille","lat":43.293923,"lon":5.379736,"is_reserved":false,"is_disabled":false,"rental_uris":{"android":"levelo://app?vid=1c8682e9-8496-4b84-8850-068f98acc65a","ios":"levelo://app?vid=1c8682e9-8496-4b84-8850-068f98acc65a"},"vehicle_type_id":"4","last_reported":1716656887,"current_range_meters":22400,"station_id":"","pricing_plan_id":"cebpf4jnsgd1na2vs0mg"},{"bike_id":"4b1c43f4-a87e-48a7-a23e-7cccc2e08a17","system_id":"levelo_inurba_marseille","lat":43.292311,"lon":5.360731,"is_reserved":false,"is_disabled":false,"rental_uris":{"android":"levelo://app?vid=4b1c43f4-a87e-48a7-a23e-7cccc2e08a17","ios":"levelo://app?vid=4b1c43f4-a87e-48a7-a23e-7cccc2e08a17"},"vehicle_type_id":"4","last_reported":1716656887,"current_range_meters":0,"station_id":"ce4bhbh2rcd13ifvqeqg","pricing_plan_id":"cebpf4jnsgd1na2vs0mg"},{"bike_id":"4361b9b8-2686-48d0-b4a4-f15aec81c586","system_id":"levelo_inurba_marseille","lat":43.30085,"lon":5.390856,"is_reserved":false,"is_disabled":false,"rental_uris":{"android":"levelo://app?vid=4361b9b8-2686-48d0-b4a4-f15aec81c586","ios":"levelo://app?vid=4361b9b8-2686-48d0-b4a4-f15aec81c586"},"vehicle_type_id":"4","last_reported":1716656887,"current_range_meters":4000,"station_id":"ce4bh192rcd13ifvqdb0","pricing_plan_id":"cebpf4jnsgd1na2vs0mg"},{"bike_id":"925d0d84-31c3-4adf-8ae3-59be39e92957","system_id":"levelo_inurba_marseille","lat":43.30085,"lon":5.390856,"is_reserved":false,"is_disabled":false,"rental_uris":{"android":"levelo://app?vid=925d0d84-31c3-4adf-8ae3-59be39e92957","ios":"levelo://app?vid=925d0d84-31c3-4adf-8ae3-59be39e92957"},"vehicle_type_id":"4","last_reported":1716656887,"current_range_meters":24000,"station_id":"ce4bh192rcd13ifvqdb0","pricing_plan_id":"cebpf4jnsgd1na2vs0mg"},{"bike_id":"1164c789-3676-4071-a6ff-eed27b23cb19","system_id":"levelo_inurba_marseille","lat":43.291671,"lon":5.371575,"is_reserved":false,"is_disabled":false,"rental_uris":{"android":"levelo://app?vid=1164c789-3676-4071-a6ff-eed27b23cb19","ios":"levelo://app?vid=1164c789-3676-4071-a6ff-eed27b23cb19"},"vehicle_type_id":"4","last_reported":1716656887,"current_range_meters":10800,"station_id":"ce4bha92rcd13ifvqeh0","pricing_plan_id":"cebpf4jnsgd1na2vs0mg"},{"bike_id":"8ed1fc01-5007-4b3d-8df3-39242a7f39f6","system_id":"levelo_inurba_marseille","lat":43.29164,"lon":5.3716,"is_reserved":false,"is_disabled":false,"rental_uris":{"android":"levelo://app?vid=8ed1fc01-5007-4b3d-8df3-39242a7f39f6","ios":"levelo://app?vid=8ed1fc01-5007-4b3d-8df3-39242a7f39f6"},"vehicle_type_id":"4","last_reported":1716656887,"current_range_meters":0,"station_id":"ce4bha92rcd13ifvqeh0","pricing_plan_id":"cebpf4jnsgd1na2vs0mg"},{"bike_id":"aace3ae0-c61a-4c52-8487-0cbcbacff43b","system_id":"levelo_inurba_marseille","lat":43.291994,"lon":5.357886,"is_reserved":false,"is_disabled":false,"rental_uris":{"android":"levelo://app?vid=aace3ae0-c61a-4c52-8487-0cbcbacff43b","ios":"levelo://app?vid=aace3ae0-c61a-4c52-8487-0cbcbacff43b"},"vehicle_type_id":"4","last_reported":1716656887,"current_range_meters":800,"station_id":"ce4bhb12rcd13ifvqel0","pricing_plan_id":"cebpf4jnsgd1na2vs0mg"},{"bike_id":"07995d64-982c-4959-be9c-bf744d365f43","system_id":"levelo_inurba_marseille","lat":43.313291,"lon":5.396838,"is_reserved":false,"is_disabled":false,"rental_uris":{"android":"levelo://app?vid=07995d64-982c-4959-be9c-bf744d365f43","ios":"levelo://app?vid=07995d64-982c-4959-be9c-bf744d365f43"},"vehicle_type_id":"4","last_reported":1716656887,"current_range_meters":28000,"station_id":"ce4bgvp2rcd13ifvqcu0","pricing_plan_id":"cebpf4jnsgd1na2vs0mg"},{"bike_id":"d0bb481e-24bf-40b9-8589-672073e0c2f6","system_id":"levelo_inurba_marseille","lat":43.313291,"lon":5.396838,"is_reserved":false,"is_disabled":false,"rental_uris":{"android":"levelo://app?vid=d0bb481e-24bf-40b9-8589-672073e0c2f6","ios":"levelo://app?vid=d0bb481e-24bf-40b9-8589-672073e0c2f6"},"vehicle_type_id":"4","last_reported":1716656887,"current_range_meters":13600,"station_id":"ce4bgvp2rcd13ifvqcu0","pricing_plan_id":"cebpf4jnsgd1na2vs0mg"},{"bike_id":"5e21d3de-6acf-4916-bc8b-884446276ab5","system_id":"levelo_inurba_marseille","lat":43.3133,"lon":5.39694,"is_reserved":false,"is_disabled":false,"rental_uris":{"android":"levelo://app?vid=5e21d3de-6acf-4916-bc8b-884446276ab5","ios":"levelo://app?vid=5e21d3de-6acf-4916-bc8b-884446276ab5"},"vehicle_type_id":"4","last_reported":1716656887,"current_range_meters":10000,"station_id":"ce4bgvp2rcd13ifvqcu0","pricing_plan_id":"cebpf4jnsgd1na2vs0mg"},{"bike_id":"5fb45de2-19f0-4ffc-94e3-6d7c28e667d2","system_id":"levelo_inurba_marseille","lat":43.291994,"lon":5.357886,"is_reserved":false,"is_disabled":false,"rental_uris":{"android":"levelo://app?vid=5fb45de2-19f0-4ffc-94e3-6d7c28e667d2","ios":"levelo://app?vid=5fb45de2-19f0-4ffc-94e3-6d7c28e667d2"},"vehicle_type_id":"4","last_reported":1716656887,"current_range_meters":0,"station_id":"ce4bhb12rcd13ifvqel0","pricing_plan_id":"cebpf4jnsgd1na2vs0mg"},{"bike_id":"5d0f9d48-614e-438c-874d-4a3515f60f96","system_id":"levelo_inurba_marseille","lat":43.30888,"lon":5.39659,"is_reserved":false,"is_disabled":false,"rental_uris":{"android":"levelo://app?vid=5d0f9d48-614e-438c-874d-4a3515f60f96","ios":"levelo://app?vid=5d0f9d48-614e-438c-874d-4a3515f60f96"},"vehicle_type_id":"4","last_reported":1716656887,"current_range_meters":3600,"station_id":"ce4bh012rcd13ifvqcv0","pricing_plan_id":"cebpf4jnsgd1na2vs0mg"},{"bike_id":"930106a5-6f3c-4825-a031-7ec9b5716b20","system_id":"levelo_inurba_marseille","lat":43.309047,"lon":5.396551,"is_reserved":false,"is_disabled":false,"rental_uris":{"android":"levelo://app?vid=930106a5-6f3c-4825-a031-7ec9b5716b20","ios":"levelo://app?vid=930106a5-6f3c-4825-a031-7ec9b5716b20"},"vehicle_type_id":"4","last_reported":1716656887,"current_range_meters":16000,"station_id":"ce4bh012rcd13ifvqcv0","pricing_plan_id":"cebpf4jnsgd1na2vs0mg"},{"bike_id":"c5c0bf8e-6cc5-4ae5-ab1c-8e1dbd78a4fe","system_id":"levelo_inurba_marseille","lat":43.309047,"lon":5.396551,"is_reserved":false,"is_disabled":false,"rental_uris":{"android":"levelo://app?vid=c5c0bf8e-6cc5-4ae5-ab1c-8e1dbd78a4fe","ios":"levelo://app?vid=c5c0bf8e-6cc5-4ae5-ab1c-8e1dbd78a4fe"},"vehicle_type_id":"4","last_reported":1716656887,"current_range_meters":21600,"station_id":"ce4bh012rcd13ifvqcv0","pricing_plan_id":"cebpf4jnsgd1na2vs0mg"},{"bike_id":"39cc2b76-334c-4e89-b2f4-c70395820f05","system_id":"levelo_inurba_marseille","lat":43.29529,"lon":5.385581,"is_reserved":false,"is_disabled":false,"rental_uris":{"android":"levelo://app?vid=39cc2b76-334c-4e89-b2f4-c70395820f05","ios":"levelo://app?vid=39cc2b76-334c-4e89-b2f4-c70395820f05"},"vehicle_type_id":"4","last_reported":1716656887,"current_range_meters":0,"station_id":"ce4bgih2rcd13ifvqba0","pricing_plan_id":"cebpf4jnsgd1na2vs0mg"},{"bike_id":"514604a5-6dba-4551-9341-809ef206f861","system_id":"levelo_inurba_marseille","lat":43.29529,"lon":5.385581,"is_reserved":false,"is_disabled":false,"rental_uris":{"android":"levelo://app?vid=514604a5-6dba-4551-9341-809ef206f861","ios":"levelo://app?vid=514604a5-6dba-4551-9341-809ef206f861"},"vehicle_type_id":"4","last_reported":1716656887,"current_range_meters":0,"station_id":"ce4bgih2rcd13ifvqba0","pricing_plan_id":"cebpf4jnsgd1na2vs0mg"},{"bike_id":"3a175039-783e-4be5-8c31-74624aece1f5","system_id":"levelo_inurba_marseille","lat":43.29529,"lon":5.385581,"is_reserved":false,"is_disabled":false,"rental_uris":{"android":"levelo://app?vid=3a175039-783e-4be5-8c31-74624aece1f5","ios":"levelo://app?vid=3a175039-783e-4be5-8c31-74624aece1f5"},"vehicle_type_id":"4","last_reported":1716656887,"current_range_meters":6800,"station_id":"ce4bgih2rcd13ifvqba0","pricing_plan_id":"cebpf4jnsgd1na2vs0mg"},{"bike_id":"309fc958-f406-4869-ba12-6d5f5b37b324","system_id":"levelo_inurba_marseille","lat":43.29529,"lon":5.385581,"is_reserved":false,"is_disabled":false,"rental_uris":{"android":"levelo://app?vid=309fc958-f406-4869-ba12-6d5f5b37b324","ios":"levelo://app?vid=309fc958-f406-4869-ba12-6d5f5b37b324"},"vehicle_type_id":"4","last_reported":1716656887,"current_range_meters":5600,"station_id":"ce4bgih2rcd13ifvqba0","pricing_plan_id":"cebpf4jnsgd1na2vs0mg"},{"bike_id":"e699614f-4153-44dd-84a7-587f13ef847d","system_id":"levelo_inurba_marseille","lat":43.29526,"lon":5.38531,"is_reserved":false,"is_disabled":false,"rental_uris":{"android":"levelo://app?vid=e699614f-4153-44dd-84a7-587f13ef847d","ios":"levelo://app?vid=e699614f-4153-44dd-84a7-587f13ef847d"},"vehicle_type_id":"4","last_reported":1716656887,"current_range_meters":0,"station_id":"ce4bgih2rcd13ifvqba0","pricing_plan_id":"cebpf4jnsgd1na2vs0mg"},{"bike_id":"f50d0b4e-a5a9-4343-9807-c22aeb8d2261","system_id":"levelo_inurba_marseille","lat":43.29529,"lon":5.385581,"is_reserved":false,"is_disabled":false,"rental_uris":{"android":"levelo://app?vid=f50d0b4e-a5a9-4343-9807-c22aeb8d2261","ios":"levelo://app?vid=f50d0b4e-a5a9-4343-9807-c22aeb8d2261"},"vehicle_type_id":"4","last_reported":1716656887,"current_range_meters":10000,"station_id":"ce4bgih2rcd13ifvqba0","pricing_plan_id":"cebpf4jnsgd1na2vs0mg"},{"bike_id":"1a927076-066a-4830-af92-b1f1f3da5eac","system_id":"levelo_inurba_marseille","lat":43.302089,"lon":5.394663,"is_reserved":false,"is_disabled":false,"rental_uris":{"android":"levelo://app?vid=1a927076-066a-4830-af92-b1f1f3da5eac","ios":"levelo://app?vid=1a927076-066a-4830-af92-b1f1f3da5eac"},"vehicle_type_id":"4","last_reported":1716656887,"current_range_meters":6800,"station_id":"ce4bh0p2rcd13ifvqd70","pricing_plan_id":"cebpf4jnsgd1na2vs0mg"},{"bike_id":"509c356e-800f-4d6a-8082-c330456f3c1c","system_id":"levelo_inurba_marseille","lat":43.290319,"lon":5.375732,"is_reserved":false,"is_disabled":false,"rental_uris":{"android":"levelo://app?vid=509c356e-800f-4d6a-8082-c330456f3c1c","ios":"levelo://app?vid=509c356e-800f-4d6a-8082-c330456f3c1c"},"vehicle_type_id":"4","last_reported":1716656887,"current_range_meters":24400,"station_id":"ce4bh692rcd13ifvqe90","pricing_plan_id":"cebpf4jnsgd1na2vs0mg"},{"bike_id":"a0b02155-dd4d-4444-b5a6-290784b6173d","system_id":"levelo_inurba_marseille","lat":43.294153,"lon":5.386305,"is_reserved":false,"is_disabled":false,"rental_uris":{"android":"levelo://app?vid=a0b02155-dd4d-4444-b5a6-290784b6173d","ios":"levelo://app?vid=a0b02155-dd4d-4444-b5a6-290784b6173d"},"vehicle_type_id":"4","last_reported":1716656887,"current_range_meters":9600,"station_id":"ce4bh2h2rcd13ifvqdh0","pricing_plan_id":"cebpf4jnsgd1na2vs0mg"},{"bike_id":"ea647cf5-3dad-471b-a707-29cc43f06bda","system_id":"levelo_inurba_marseille","lat":43.290319,"lon":5.375732,"is_reserved":false,"is_disabled":false,"rental_uris":{"android":"levelo://app?vid=ea647cf5-3dad-471b-a707-29cc43f06bda","ios":"levelo://app?vid=ea647cf5-3dad-471b-a707-29cc43f06bda"},"vehicle_type_id":"4","last_reported":1716656887,"current_range_meters":8400,"station_id":"ce4bh692rcd13ifvqe90","pricing_plan_id":"cebpf4jnsgd1na2vs0mg"},{"bike_id":"ffa6a548-3dd4-487f-b227-a590511a8372","system_id":"levelo_inurba_marseille","lat":43.294153,"lon":5.386305,"is_reserved":false,"is_disabled":false,"rental_uris":{"android":"levelo://app?vid=ffa6a548-3dd4-487f-b227-a590511a8372","ios":"levelo://app?vid=ffa6a548-3dd4-487f-b227-a590511a8372"},"vehicle_type_id":"4","last_reported":1716656887,"current_range_meters":4000,"station_id":"ce4bh2h2rcd13ifvqdh0","pricing_plan_id":"cebpf4jnsgd1na2vs0mg"},{"bike_id":"7c55f801-2f61-41f4-bd48-c92d452c36b6","system_id":"levelo_inurba_marseille","lat":43.294162,"lon":5.386292,"is_reserved":false,"is_disabled":false,"rental_uris":{"android":"levelo://app?vid=7c55f801-2f61-41f4-bd48-c92d452c36b6","ios":"levelo://app?vid=7c55f801-2f61-41f4-bd48-c92d452c36b6"},"vehicle_type_id":"4","last_reported":1716656887,"current_range_meters":0,"station_id":"ce4bh2h2rcd13ifvqdh0","pricing_plan_id":"cebpf4jnsgd1na2vs0mg"},{"bike_id":"e4d7df01-0923-46b0-bd7d-7972e8c54cd3","system_id":"levelo_inurba_marseille","lat":43.294162,"lon":5.386292,"is_reserved":false,"is_disabled":false,"rental_uris":{"android":"levelo://app?vid=e4d7df01-0923-46b0-bd7d-7972e8c54cd3","ios":"levelo://app?vid=e4d7df01-0923-46b0-bd7d-7972e8c54cd3"},"vehicle_type_id":"4","last_reported":1716656887,"current_range_meters":10400,"station_id":"ce4bh2h2rcd13ifvqdh0","pricing_plan_id":"cebpf4jnsgd1na2vs0mg"},{"bike_id":"9378baa5-f3fa-43e5-b005-1205996e9a8c","system_id":"levelo_inurba_marseille","lat":43.28921,"lon":5.36688,"is_reserved":false,"is_disabled":false,"rental_uris":{"android":"levelo://app?vid=9378baa5-f3fa-43e5-b005-1205996e9a8c","ios":"levelo://app?vid=9378baa5-f3fa-43e5-b005-1205996e9a8c"},"vehicle_type_id":"4","last_reported":1716656887,"current_range_meters":3600,"station_id":"ce4bhap2rcd13ifvqek0","pricing_plan_id":"cebpf4jnsgd1na2vs0mg"},{"bike_id":"8df1143f-100c-4b7e-b349-43bd50d8a255","system_id":"levelo_inurba_marseille","lat":43.304274,"lon":5.397513,"is_reserved":false,"is_disabled":false,"rental_uris":{"android":"levelo://app?vid=8df1143f-100c-4b7e-b349-43bd50d8a255","ios":"levelo://app?vid=8df1143f-100c-4b7e-b349-43bd50d8a255"},"vehicle_type_id":"4","last_reported":1716656887,"current_range_meters":9200,"station_id":"ce4bh092rcd13ifvqd20","pricing_plan_id":"cebpf4jnsgd1na2vs0mg"},{"bike_id":"5d337d6a-b882-482b-b800-31860647e60a","system_id":"levelo_inurba_marseille","lat":43.30428,"lon":5.39746,"is_reserved":false,"is_disabled":false,"rental_uris":{"android":"levelo://app?vid=5d337d6a-b882-482b-b800-31860647e60a","ios":"levelo://app?vid=5d337d6a-b882-482b-b800-31860647e60a"},"vehicle_type_id":"4","last_reported":1716656887,"current_range_meters":1600,"station_id":"ce4bh092rcd13ifvqd20","pricing_plan_id":"cebpf4jnsgd1na2vs0mg"},{"bike_id":"aaa30eec-309f-48de-9a9c-80961c0709e6","system_id":"levelo_inurba_marseille","lat":43.304274,"lon":5.397513,"is_reserved":false,"is_disabled":false,"rental_uris":{"android":"levelo://app?vid=aaa30eec-309f-48de-9a9c-80961c0709e6","ios":"levelo://app?vid=aaa30eec-309f-48de-9a9c-80961c0709e6"},"vehicle_type_id":"4","last_reported":1716656887,"current_range_meters":12000,"station_id":"ce4bh092rcd13ifvqd20","pricing_plan_id":"cebpf4jnsgd1na2vs0mg"},{"bike_id":"8246c6fa-13ba-465d-8d18-0b2456293b74","system_id":"levelo_inurba_marseille","lat":43.292644,"lon":5.384257,"is_reserved":false,"is_disabled":false,"rental_uris":{"android":"levelo://app?vid=8246c6fa-13ba-465d-8d18-0b2456293b74","ios":"levelo://app?vid=8246c6fa-13ba-465d-8d18-0b2456293b74"},"vehicle_type_id":"4","last_reported":1716656887,"current_range_meters":23600,"station_id":"ce4bh692rcd13ifvqea0","pricing_plan_id":"cebpf4jnsgd1na2vs0mg"},{"bike_id":"f10817cb-cb7f-4a0e-a451-db0748524ef0","system_id":"levelo_inurba_marseille","lat":43.292642,"lon":5.384254,"is_reserved":false,"is_disabled":false,"rental_uris":{"android":"levelo://app?vid=f10817cb-cb7f-4a0e-a451-db0748524ef0","ios":"levelo://app?vid=f10817cb-cb7f-4a0e-a451-db0748524ef0"},"vehicle_type_id":"4","last_reported":1716656887,"current_range_meters":11600,"station_id":"ce4bh692rcd13ifvqea0","pricing_plan_id":"cebpf4jnsgd1na2vs0mg"},{"bike_id":"81dbe407-0012-410e-9ea5-9331a988fcd1","system_id":"levelo_inurba_marseille","lat":43.290033,"lon":5.356279,"is_reserved":false,"is_disabled":false,"rental_uris":{"android":"levelo://app?vid=81dbe407-0012-410e-9ea5-9331a988fcd1","ios":"levelo://app?vid=81dbe407-0012-410e-9ea5-9331a988fcd1"},"vehicle_type_id":"4","last_reported":1716656887,"current_range_meters":24800,"station_id":"ce4bhb92rcd13ifvqen0","pricing_plan_id":"cebpf4jnsgd1na2vs0mg"},{"bike_id":"fb100658-b258-4221-8cab-bb1d396531cd","system_id":"levelo_inurba_marseille","lat":43.290027,"lon":5.356254,"is_reserved":false,"is_disabled":false,"rental_uris":{"android":"levelo://app?vid=fb100658-b258-4221-8cab-bb1d396531cd","ios":"levelo://app?vid=fb100658-b258-4221-8cab-bb1d396531cd"},"vehicle_type_id":"4","last_reported":1716656887,"current_range_meters":0,"station_id":"ce4bhb92rcd13ifvqen0","pricing_plan_id":"cebpf4jnsgd1na2vs0mg"},{"bike_id":"c759fcc1-72bc-44d1-a7ef-9ac3e3eb67e1","system_id":"levelo_inurba_marseille","lat":43.29,"lon":5.35624,"is_reserved":false,"is_disabled":false,"rental_uris":{"android":"levelo://app?vid=c759fcc1-72bc-44d1-a7ef-9ac3e3eb67e1","ios":"levelo://app?vid=c759fcc1-72bc-44d1-a7ef-9ac3e3eb67e1"},"vehicle_type_id":"4","last_reported":1716656887,"current_range_meters":0,"station_id":"ce4bhb92rcd13ifvqen0","pricing_plan_id":"cebpf4jnsgd1na2vs0mg"},{"bike_id":"2d498466-b77f-4f71-bfdf-71d515429415","system_id":"levelo_inurba_marseille","lat":43.28999,"lon":5.35622,"is_reserved":false,"is_disabled":false,"rental_uris":{"android":"levelo://app?vid=2d498466-b77f-4f71-bfdf-71d515429415","ios":"levelo://app?vid=2d498466-b77f-4f71-bfdf-71d515429415"},"vehicle_type_id":"4","last_reported":1716656887,"current_range_meters":0,"station_id":"ce4bhb92rcd13ifvqen0","pricing_plan_id":"cebpf4jnsgd1na2vs0mg"},{"bike_id":"eed2d4ec-71dc-42d4-a305-88fbad753b0c","system_id":"levelo_inurba_marseille","lat":43.290103,"lon":5.356114,"is_reserved":false,"is_disabled":false,"rental_uris":{"android":"levelo://app?vid=eed2d4ec-71dc-42d4-a305-88fbad753b0c","ios":"levelo://app?vid=eed2d4ec-71dc-42d4-a305-88fbad753b0c"},"vehicle_type_id":"4","last_reported":1716656887,"current_range_meters":30400,"station_id":"ce4bhb92rcd13ifvqen0","pricing_plan_id":"cebpf4jnsgd1na2vs0mg"},{"bike_id":"28457c4c-ac97-44f4-bfda-cda50418bd6d","system_id":"levelo_inurba_marseille","lat":43.290995,"lon":5.381361,"is_reserved":false,"is_disabled":false,"rental_uris":{"android":"levelo://app?vid=28457c4c-ac97-44f4-bfda-cda50418bd6d","ios":"levelo://app?vid=28457c4c-ac97-44f4-bfda-cda50418bd6d"},"vehicle_type_id":"4","last_reported":1716656887,"current_range_meters":800,"station_id":"ce4bh512rcd13ifvqe2g","pricing_plan_id":"cebpf4jnsgd1na2vs0mg"},{"bike_id":"89f344b6-ac94-49f7-b3f7-1dcd06387783","system_id":"levelo_inurba_marseille","lat":43.290995,"lon":5.381361,"is_reserved":false,"is_disabled":false,"rental_uris":{"android":"levelo://app?vid=89f344b6-ac94-49f7-b3f7-1dcd06387783","ios":"levelo://app?vid=89f344b6-ac94-49f7-b3f7-1dcd06387783"},"vehicle_type_id":"4","last_reported":1716656887,"current_range_meters":0,"station_id":"ce4bh512rcd13ifvqe2g","pricing_plan_id":"cebpf4jnsgd1na2vs0mg"},{"bike_id":"c24f3831-fce6-4fb8-b2d0-9f66070ba621","system_id":"levelo_inurba_marseille","lat":43.290995,"lon":5.381361,"is_reserved":false,"is_disabled":false,"rental_uris":{"android":"levelo://app?vid=c24f3831-fce6-4fb8-b2d0-9f66070ba621","ios":"levelo://app?vid=c24f3831-fce6-4fb8-b2d0-9f66070ba621"},"vehicle_type_id":"4","last_reported":1716656887,"current_range_meters":5200,"station_id":"ce4bh512rcd13ifvqe2g","pricing_plan_id":"cebpf4jnsgd1na2vs0mg"},{"bike_id":"fdfa472d-2238-4877-ae9b-ec9c2208c666","system_id":"levelo_inurba_marseille","lat":43.295169,"lon":5.390426,"is_reserved":false,"is_disabled":false,"rental_uris":{"android":"levelo://app?vid=fdfa472d-2238-4877-ae9b-ec9c2208c666","ios":"levelo://app?vid=fdfa472d-2238-4877-ae9b-ec9c2208c666"},"vehicle_type_id":"4","last_reported":1716656887,"current_range_meters":0,"station_id":"ce4bh3p2rcd13ifvqdp0","pricing_plan_id":"cebpf4jnsgd1na2vs0mg"},{"bike_id":"4d8d7239-64b0-46d5-8d2b-e3a3bde64e47","system_id":"levelo_inurba_marseille","lat":43.295169,"lon":5.390426,"is_reserved":false,"is_disabled":false,"rental_uris":{"android":"levelo://app?vid=4d8d7239-64b0-46d5-8d2b-e3a3bde64e47","ios":"levelo://app?vid=4d8d7239-64b0-46d5-8d2b-e3a3bde64e47"},"vehicle_type_id":"4","last_reported":1716656887,"current_range_meters":0,"station_id":"ce4bh3p2rcd13ifvqdp0","pricing_plan_id":"cebpf4jnsgd1na2vs0mg"},{"bike_id":"b717e656-8fd5-431a-ac20-b2b09be6187d","system_id":"levelo_inurba_marseille","lat":43.289743,"lon":5.378304,"is_reserved":false,"is_disabled":false,"rental_uris":{"android":"levelo://app?vid=b717e656-8fd5-431a-ac20-b2b09be6187d","ios":"levelo://app?vid=b717e656-8fd5-431a-ac20-b2b09be6187d"},"vehicle_type_id":"4","last_reported":1716656887,"current_range_meters":3600,"station_id":"ce4bh9p2rcd13ifvqed0","pricing_plan_id":"cebpf4jnsgd1na2vs0mg"},{"bike_id":"f5eeff03-0e38-4f9e-b689-ea73f27605ac","system_id":"levelo_inurba_marseille","lat":43.289741,"lon":5.378306,"is_reserved":false,"is_disabled":false,"rental_uris":{"android":"levelo://app?vid=f5eeff03-0e38-4f9e-b689-ea73f27605ac","ios":"levelo://app?vid=f5eeff03-0e38-4f9e-b689-ea73f27605ac"},"vehicle_type_id":"4","last_reported":1716656887,"current_range_meters":9200,"station_id":"ce4bh9p2rcd13ifvqed0","pricing_plan_id":"cebpf4jnsgd1na2vs0mg"},{"bike_id":"02d4a8ad-a24c-4eac-9775-06d0ccf4b3c5","system_id":"levelo_inurba_marseille","lat":43.33028,"lon":5.39045,"is_reserved":false,"is_disabled":false,"rental_uris":{"android":"levelo://app?vid=02d4a8ad-a24c-4eac-9775-06d0ccf4b3c5","ios":"levelo://app?vid=02d4a8ad-a24c-4eac-9775-06d0ccf4b3c5"},"vehicle_type_id":"4","last_reported":1716656887,"current_range_meters":11600,"station_id":"ce4bhr92rcd13ifvqhrg","pricing_plan_id":"cebpf4jnsgd1na2vs0mg"},{"bike_id":"58232c71-7b86-4fb5-b0bd-ffdb972882fd","system_id":"levelo_inurba_marseille","lat":43.28856,"lon":5.358371,"is_reserved":false,"is_disabled":false,"rental_uris":{"android":"levelo://app?vid=58232c71-7b86-4fb5-b0bd-ffdb972882fd","ios":"levelo://app?vid=58232c71-7b86-4fb5-b0bd-ffdb972882fd"},"vehicle_type_id":"4","last_reported":1716656887,"current_range_meters":15600,"station_id":"ce4bhb12rcd13ifvqem0","pricing_plan_id":"cebpf4jnsgd1na2vs0mg"},{"bike_id":"ba7bba16-c57b-44f6-9f9c-c9839289854f","system_id":"levelo_inurba_marseille","lat":43.31065,"lon":5.40081,"is_reserved":false,"is_disabled":false,"rental_uris":{"android":"levelo://app?vid=ba7bba16-c57b-44f6-9f9c-c9839289854f","ios":"levelo://app?vid=ba7bba16-c57b-44f6-9f9c-c9839289854f"},"vehicle_type_id":"4","last_reported":1716656887,"current_range_meters":13200,"station_id":"","pricing_plan_id":"cebpf4jnsgd1na2vs0mg"},{"bike_id":"e7e729a9-7057-4170-8488-6e93850d79e3","system_id":"levelo_inurba_marseille","lat":43.29023,"lon":5.38135,"is_reserved":false,"is_disabled":false,"rental_uris":{"android":"levelo://app?vid=e7e729a9-7057-4170-8488-6e93850d79e3","ios":"levelo://app?vid=e7e729a9-7057-4170-8488-6e93850d79e3"},"vehicle_type_id":"4","last_reported":1716656887,"current_range_meters":0,"station_id":"ce4bh4p2rcd13ifvqe1g","pricing_plan_id":"cebpf4jnsgd1na2vs0mg"},{"bike_id":"1a1505af-a805-4e97-b6c5-ef86c8ad33ae","system_id":"levelo_inurba_marseille","lat":43.310618,"lon":5.40104,"is_reserved":false,"is_disabled":false,"rental_uris":{"android":"levelo://app?vid=1a1505af-a805-4e97-b6c5-ef86c8ad33ae","ios":"levelo://app?vid=1a1505af-a805-4e97-b6c5-ef86c8ad33ae"},"vehicle_type_id":"4","last_reported":1716656887,"current_range_meters":4800,"station_id":"","pricing_plan_id":"cebpf4jnsgd1na2vs0mg"},{"bike_id":"62c3ad2f-1ec6-4595-a4e7-025edb8f873d","system_id":"levelo_inurba_marseille","lat":43.28856,"lon":5.358371,"is_reserved":false,"is_disabled":false,"rental_uris":{"android":"levelo://app?vid=62c3ad2f-1ec6-4595-a4e7-025edb8f873d","ios":"levelo://app?vid=62c3ad2f-1ec6-4595-a4e7-025edb8f873d"},"vehicle_type_id":"4","last_reported":1716656887,"current_range_meters":14400,"station_id":"ce4bhb12rcd13ifvqem0","pricing_plan_id":"cebpf4jnsgd1na2vs0mg"},{"bike_id":"202e6d39-1dde-4d1f-9d03-1c83dbc85644","system_id":"levelo_inurba_marseille","lat":43.290094,"lon":5.381264,"is_reserved":false,"is_disabled":false,"rental_uris":{"android":"levelo://app?vid=202e6d39-1dde-4d1f-9d03-1c83dbc85644","ios":"levelo://app?vid=202e6d39-1dde-4d1f-9d03-1c83dbc85644"},"vehicle_type_id":"4","last_reported":1716656887,"current_range_meters":18800,"station_id":"ce4bh4p2rcd13ifvqe1g","pricing_plan_id":"cebpf4jnsgd1na2vs0mg"},{"bike_id":"ad9065f3-28d0-4521-9e09-edb2b8cf76ef","system_id":"levelo_inurba_marseille","lat":43.28856,"lon":5.358371,"is_reserved":false,"is_disabled":false,"rental_uris":{"android":"levelo://app?vid=ad9065f3-28d0-4521-9e09-edb2b8cf76ef","ios":"levelo://app?vid=ad9065f3-28d0-4521-9e09-edb2b8cf76ef"},"vehicle_type_id":"4","last_reported":1716656887,"current_range_meters":400,"station_id":"ce4bhb12rcd13ifvqem0","pricing_plan_id":"cebpf4jnsgd1na2vs0mg"},{"bike_id":"6397c6fc-150d-444d-badd-9c6177b742a2","system_id":"levelo_inurba_marseille","lat":43.290094,"lon":5.381264,"is_reserved":false,"is_disabled":false,"rental_uris":{"android":"levelo://app?vid=6397c6fc-150d-444d-badd-9c6177b742a2","ios":"levelo://app?vid=6397c6fc-150d-444d-badd-9c6177b742a2"},"vehicle_type_id":"4","last_reported":1716656887,"current_range_meters":10400,"station_id":"ce4bh4p2rcd13ifvqe1g","pricing_plan_id":"cebpf4jnsgd1na2vs0mg"},{"bike_id":"8794257d-5afb-4059-96cf-7896bd498801","system_id":"levelo_inurba_marseille","lat":43.309038,"lon":5.396546,"is_reserved":false,"is_disabled":false,"rental_uris":{"android":"levelo://app?vid=8794257d-5afb-4059-96cf-7896bd498801","ios":"levelo://app?vid=8794257d-5afb-4059-96cf-7896bd498801"},"vehicle_type_id":"4","last_reported":1716656887,"current_range_meters":0,"station_id":"ce4bh012rcd13ifvqcv0","pricing_plan_id":"cebpf4jnsgd1na2vs0mg"},{"bike_id":"c817be8a-4d3f-428e-9e83-fb97be659edc","system_id":"levelo_inurba_marseille","lat":43.33739,"lon":5.37443,"is_reserved":false,"is_disabled":false,"rental_uris":{"android":"levelo://app?vid=c817be8a-4d3f-428e-9e83-fb97be659edc","ios":"levelo://app?vid=c817be8a-4d3f-428e-9e83-fb97be659edc"},"vehicle_type_id":"4","last_reported":1716656887,"current_range_meters":24000,"station_id":"","pricing_plan_id":"cebpf4jnsgd1na2vs0mg"},{"bike_id":"711083e6-8331-4424-8e4a-eaffe6f7f58d","system_id":"levelo_inurba_marseille","lat":43.306412,"lon":5.401035,"is_reserved":false,"is_disabled":false,"rental_uris":{"android":"levelo://app?vid=711083e6-8331-4424-8e4a-eaffe6f7f58d","ios":"levelo://app?vid=711083e6-8331-4424-8e4a-eaffe6f7f58d"},"vehicle_type_id":"4","last_reported":1716656887,"current_range_meters":25600,"station_id":"ce4bh112rcd13ifvqda0","pricing_plan_id":"cebpf4jnsgd1na2vs0mg"},{"bike_id":"10dc6824-80c8-4d5c-baa1-e83df51009a1","system_id":"levelo_inurba_marseille","lat":43.312609,"lon":5.401662,"is_reserved":false,"is_disabled":false,"rental_uris":{"android":"levelo://app?vid=10dc6824-80c8-4d5c-baa1-e83df51009a1","ios":"levelo://app?vid=10dc6824-80c8-4d5c-baa1-e83df51009a1"},"vehicle_type_id":"4","last_reported":1716656887,"current_range_meters":400,"station_id":"ce4bh092rcd13ifvqd30","pricing_plan_id":"cebpf4jnsgd1na2vs0mg"},{"bike_id":"4e6d7732-c19a-4b97-ada8-a58d6fc3c1e1","system_id":"levelo_inurba_marseille","lat":43.306412,"lon":5.401035,"is_reserved":false,"is_disabled":false,"rental_uris":{"android":"levelo://app?vid=4e6d7732-c19a-4b97-ada8-a58d6fc3c1e1","ios":"levelo://app?vid=4e6d7732-c19a-4b97-ada8-a58d6fc3c1e1"},"vehicle_type_id":"4","last_reported":1716656887,"current_range_meters":14000,"station_id":"ce4bh112rcd13ifvqda0","pricing_plan_id":"cebpf4jnsgd1na2vs0mg"},{"bike_id":"5e08015a-b315-49d5-b067-121fc243166b","system_id":"levelo_inurba_marseille","lat":43.33752,"lon":5.37436,"is_reserved":false,"is_disabled":false,"rental_uris":{"android":"levelo://app?vid=5e08015a-b315-49d5-b067-121fc243166b","ios":"levelo://app?vid=5e08015a-b315-49d5-b067-121fc243166b"},"vehicle_type_id":"4","last_reported":1716656887,"current_range_meters":18800,"station_id":"","pricing_plan_id":"cebpf4jnsgd1na2vs0mg"},{"bike_id":"efb0165a-ce5a-4a82-83d1-66c19656a534","system_id":"levelo_inurba_marseille","lat":43.30642,"lon":5.401031,"is_reserved":false,"is_disabled":false,"rental_uris":{"android":"levelo://app?vid=efb0165a-ce5a-4a82-83d1-66c19656a534","ios":"levelo://app?vid=efb0165a-ce5a-4a82-83d1-66c19656a534"},"vehicle_type_id":"4","last_reported":1716656887,"current_range_meters":20000,"station_id":"ce4bh112rcd13ifvqda0","pricing_plan_id":"cebpf4jnsgd1na2vs0mg"},{"bike_id":"4baa171a-6f41-4b4c-bcc1-759d97c52644","system_id":"levelo_inurba_marseille","lat":43.337567,"lon":5.374574,"is_reserved":false,"is_disabled":false,"rental_uris":{"android":"levelo://app?vid=4baa171a-6f41-4b4c-bcc1-759d97c52644","ios":"levelo://app?vid=4baa171a-6f41-4b4c-bcc1-759d97c52644"},"vehicle_type_id":"4","last_reported":1716656887,"current_range_meters":22000,"station_id":"","pricing_plan_id":"cebpf4jnsgd1na2vs0mg"},{"bike_id":"3f87736a-1eb2-4b21-bc47-1b766f19c016","system_id":"levelo_inurba_marseille","lat":43.30642,"lon":5.401031,"is_reserved":false,"is_disabled":false,"rental_uris":{"android":"levelo://app?vid=3f87736a-1eb2-4b21-bc47-1b766f19c016","ios":"levelo://app?vid=3f87736a-1eb2-4b21-bc47-1b766f19c016"},"vehicle_type_id":"4","last_reported":1716656887,"current_range_meters":26800,"station_id":"ce4bh112rcd13ifvqda0","pricing_plan_id":"cebpf4jnsgd1na2vs0mg"},{"bike_id":"4d476eee-4013-46a3-be70-3fc5198fa0f9","system_id":"levelo_inurba_marseille","lat":43.33763,"lon":5.374318,"is_reserved":false,"is_disabled":false,"rental_uris":{"android":"levelo://app?vid=4d476eee-4013-46a3-be70-3fc5198fa0f9","ios":"levelo://app?vid=4d476eee-4013-46a3-be70-3fc5198fa0f9"},"vehicle_type_id":"4","last_reported":1716656887,"current_range_meters":15600,"station_id":"","pricing_plan_id":"cebpf4jnsgd1na2vs0mg"},{"bike_id":"ebdb2536-5cfb-4634-8239-02cc22422879","system_id":"levelo_inurba_marseille","lat":43.337625,"lon":5.374405,"is_reserved":false,"is_disabled":false,"rental_uris":{"android":"levelo://app?vid=ebdb2536-5cfb-4634-8239-02cc22422879","ios":"levelo://app?vid=ebdb2536-5cfb-4634-8239-02cc22422879"},"vehicle_type_id":"4","last_reported":1716656887,"current_range_meters":15600,"station_id":"","pricing_plan_id":"cebpf4jnsgd1na2vs0mg"},{"bike_id":"e7456612-441e-4b9f-a398-75eeceb8c166","system_id":"levelo_inurba_marseille","lat":43.30642,"lon":5.401031,"is_reserved":false,"is_disabled":false,"rental_uris":{"android":"levelo://app?vid=e7456612-441e-4b9f-a398-75eeceb8c166","ios":"levelo://app?vid=e7456612-441e-4b9f-a398-75eeceb8c166"},"vehicle_type_id":"4","last_reported":1716656887,"current_range_meters":30000,"station_id":"ce4bh112rcd13ifvqda0","pricing_plan_id":"cebpf4jnsgd1na2vs0mg"},{"bike_id":"de609f3b-f2e7-4b37-96b4-3315c7ebe8bb","system_id":"levelo_inurba_marseille","lat":43.33764,"lon":5.37471,"is_reserved":false,"is_disabled":false,"rental_uris":{"android":"levelo://app?vid=de609f3b-f2e7-4b37-96b4-3315c7ebe8bb","ios":"levelo://app?vid=de609f3b-f2e7-4b37-96b4-3315c7ebe8bb"},"vehicle_type_id":"4","last_reported":1716656887,"current_range_meters":18000,"station_id":"","pricing_plan_id":"cebpf4jnsgd1na2vs0mg"},{"bike_id":"2af0ea86-b4a2-43b0-9fea-6048a6435c90","system_id":"levelo_inurba_marseille","lat":43.306412,"lon":5.401035,"is_reserved":false,"is_disabled":false,"rental_uris":{"android":"levelo://app?vid=2af0ea86-b4a2-43b0-9fea-6048a6435c90","ios":"levelo://app?vid=2af0ea86-b4a2-43b0-9fea-6048a6435c90"},"vehicle_type_id":"4","last_reported":1716656887,"current_range_meters":6800,"station_id":"ce4bh112rcd13ifvqda0","pricing_plan_id":"cebpf4jnsgd1na2vs0mg"},{"bike_id":"011864fd-8c89-4c4f-ae4b-87c99c34b09f","system_id":"levelo_inurba_marseille","lat":43.30642,"lon":5.401031,"is_reserved":false,"is_disabled":false,"rental_uris":{"android":"levelo://app?vid=011864fd-8c89-4c4f-ae4b-87c99c34b09f","ios":"levelo://app?vid=011864fd-8c89-4c4f-ae4b-87c99c34b09f"},"vehicle_type_id":"4","last_reported":1716656887,"current_range_meters":20800,"station_id":"ce4bh112rcd13ifvqda0","pricing_plan_id":"cebpf4jnsgd1na2vs0mg"},{"bike_id":"e0ba7dd5-8243-4716-bab5-7ff95a4fbd53","system_id":"levelo_inurba_marseille","lat":43.306412,"lon":5.401035,"is_reserved":false,"is_disabled":false,"rental_uris":{"android":"levelo://app?vid=e0ba7dd5-8243-4716-bab5-7ff95a4fbd53","ios":"levelo://app?vid=e0ba7dd5-8243-4716-bab5-7ff95a4fbd53"},"vehicle_type_id":"4","last_reported":1716656887,"current_range_meters":9600,"station_id":"ce4bh112rcd13ifvqda0","pricing_plan_id":"cebpf4jnsgd1na2vs0mg"},{"bike_id":"0de9f840-395b-48e2-82aa-fbf4271c2b4a","system_id":"levelo_inurba_marseille","lat":43.30642,"lon":5.401031,"is_reserved":false,"is_disabled":false,"rental_uris":{"android":"levelo://app?vid=0de9f840-395b-48e2-82aa-fbf4271c2b4a","ios":"levelo://app?vid=0de9f840-395b-48e2-82aa-fbf4271c2b4a"},"vehicle_type_id":"4","last_reported":1716656887,"current_range_meters":4800,"station_id":"ce4bh112rcd13ifvqda0","pricing_plan_id":"cebpf4jnsgd1na2vs0mg"},{"bike_id":"825fa8d8-f677-44ea-959e-e28a76bf9c1f","system_id":"levelo_inurba_marseille","lat":43.33772,"lon":5.37468,"is_reserved":false,"is_disabled":false,"rental_uris":{"android":"levelo://app?vid=825fa8d8-f677-44ea-959e-e28a76bf9c1f","ios":"levelo://app?vid=825fa8d8-f677-44ea-959e-e28a76bf9c1f"},"vehicle_type_id":"4","last_reported":1716656887,"current_range_meters":20000,"station_id":"","pricing_plan_id":"cebpf4jnsgd1na2vs0mg"},{"bike_id":"03404de2-638d-47c4-b8af-f59bf3607ed5","system_id":"levelo_inurba_marseille","lat":43.306412,"lon":5.401035,"is_reserved":false,"is_disabled":false,"rental_uris":{"android":"levelo://app?vid=03404de2-638d-47c4-b8af-f59bf3607ed5","ios":"levelo://app?vid=03404de2-638d-47c4-b8af-f59bf3607ed5"},"vehicle_type_id":"4","last_reported":1716656887,"current_range_meters":6800,"station_id":"ce4bh112rcd13ifvqda0","pricing_plan_id":"cebpf4jnsgd1na2vs0mg"},{"bike_id":"47a13753-2bf1-4521-a58e-408a07698113","system_id":"levelo_inurba_marseille","lat":43.29221,"lon":5.38814,"is_reserved":false,"is_disabled":false,"rental_uris":{"android":"levelo://app?vid=47a13753-2bf1-4521-a58e-408a07698113","ios":"levelo://app?vid=47a13753-2bf1-4521-a58e-408a07698113"},"vehicle_type_id":"4","last_reported":1716656887,"current_range_meters":16800,"station_id":"ce4bh192rcd13ifvqdd0","pricing_plan_id":"cebpf4jnsgd1na2vs0mg"},{"bike_id":"9a0b0ef5-217b-4989-86e6-e62dc497b729","system_id":"levelo_inurba_marseille","lat":43.301117,"lon":5.398795,"is_reserved":false,"is_disabled":false,"rental_uris":{"android":"levelo://app?vid=9a0b0ef5-217b-4989-86e6-e62dc497b729","ios":"levelo://app?vid=9a0b0ef5-217b-4989-86e6-e62dc497b729"},"vehicle_type_id":"4","last_reported":1716656887,"current_range_meters":0,"station_id":"ce4bh0h2rcd13ifvqd40","pricing_plan_id":"cebpf4jnsgd1na2vs0mg"},{"bike_id":"cec9a0ac-c75c-4090-8987-310962d80d88","system_id":"levelo_inurba_marseille","lat":43.30128,"lon":5.39877,"is_reserved":false,"is_disabled":false,"rental_uris":{"android":"levelo://app?vid=cec9a0ac-c75c-4090-8987-310962d80d88","ios":"levelo://app?vid=cec9a0ac-c75c-4090-8987-310962d80d88"},"vehicle_type_id":"4","last_reported":1716656887,"current_range_meters":0,"station_id":"ce4bh0h2rcd13ifvqd40","pricing_plan_id":"cebpf4jnsgd1na2vs0mg"},{"bike_id":"aaeb072b-7d42-4597-b1e5-fb007c07f802","system_id":"levelo_inurba_marseille","lat":43.290327,"lon":5.375711,"is_reserved":false,"is_disabled":false,"rental_uris":{"android":"levelo://app?vid=aaeb072b-7d42-4597-b1e5-fb007c07f802","ios":"levelo://app?vid=aaeb072b-7d42-4597-b1e5-fb007c07f802"},"vehicle_type_id":"4","last_reported":1716656887,"current_range_meters":0,"station_id":"ce4bh692rcd13ifvqe90","pricing_plan_id":"cebpf4jnsgd1na2vs0mg"},{"bike_id":"5f7a3b8c-bc6c-4e78-be7b-aa18142835f9","system_id":"levelo_inurba_marseille","lat":43.29875,"lon":5.39724,"is_reserved":false,"is_disabled":false,"rental_uris":{"android":"levelo://app?vid=5f7a3b8c-bc6c-4e78-be7b-aa18142835f9","ios":"levelo://app?vid=5f7a3b8c-bc6c-4e78-be7b-aa18142835f9"},"vehicle_type_id":"4","last_reported":1716656887,"current_range_meters":0,"station_id":"ce4bh0h2rcd13ifvqd50","pricing_plan_id":"cebpf4jnsgd1na2vs0mg"},{"bike_id":"59d98446-4af3-4df0-a3f4-bd3bc6ab36e3","system_id":"levelo_inurba_marseille","lat":43.298681,"lon":5.397225,"is_reserved":false,"is_disabled":false,"rental_uris":{"android":"levelo://app?vid=59d98446-4af3-4df0-a3f4-bd3bc6ab36e3","ios":"levelo://app?vid=59d98446-4af3-4df0-a3f4-bd3bc6ab36e3"},"vehicle_type_id":"4","last_reported":1716656887,"current_range_meters":14000,"station_id":"ce4bh0h2rcd13ifvqd50","pricing_plan_id":"cebpf4jnsgd1na2vs0mg"},{"bike_id":"e828a00f-4c8c-48dd-8484-6cf930c21f2f","system_id":"levelo_inurba_marseille","lat":43.298681,"lon":5.397225,"is_reserved":false,"is_disabled":false,"rental_uris":{"android":"levelo://app?vid=e828a00f-4c8c-48dd-8484-6cf930c21f2f","ios":"levelo://app?vid=e828a00f-4c8c-48dd-8484-6cf930c21f2f"},"vehicle_type_id":"4","last_reported":1716656887,"current_range_meters":10800,"station_id":"ce4bh0h2rcd13ifvqd50","pricing_plan_id":"cebpf4jnsgd1na2vs0mg"},{"bike_id":"65f863b6-7af1-4ee6-94fa-68a456fe2f29","system_id":"levelo_inurba_marseille","lat":43.286593,"lon":5.363346,"is_reserved":false,"is_disabled":false,"rental_uris":{"android":"levelo://app?vid=65f863b6-7af1-4ee6-94fa-68a456fe2f29","ios":"levelo://app?vid=65f863b6-7af1-4ee6-94fa-68a456fe2f29"},"vehicle_type_id":"4","last_reported":1716656887,"current_range_meters":21600,"station_id":"ce4bhah2rcd13ifvqej0","pricing_plan_id":"cebpf4jnsgd1na2vs0mg"},{"bike_id":"477e6902-10ea-430f-b599-d320a86c2340","system_id":"levelo_inurba_marseille","lat":43.298681,"lon":5.397225,"is_reserved":false,"is_disabled":false,"rental_uris":{"android":"levelo://app?vid=477e6902-10ea-430f-b599-d320a86c2340","ios":"levelo://app?vid=477e6902-10ea-430f-b599-d320a86c2340"},