{"last_updated":1727845812,"ttl":60,"version":"2.2","data":{"bikes":[{"bike_id":"1ec1f50b-6830-48fa-87dc-50ac191fb307","system_id":"levelo_inurba_marseille","lat":43.30469,"lon":5.37903,"is_reserved":false,"is_disabled":false,"rental_uris":{"android":"levelo://app?vid=1ec1f50b-6830-48fa-87dc-50ac191fb307","ios":"levelo://app?vid=1ec1f50b-6830-48fa-87dc-50ac191fb307"},"vehicle_type_id":"4","last_reported":1727845812,"current_range_meters":33600,"station_id":"ce4bgup2rcd13ifvqcn0","pricing_plan_id":"cebpf4jnsgd1na2vs0mg"},{"bike_id":"484edfb5-9f03-4dae-a24e-4b5baa8721ea","system_id":"levelo_inurba_marseille","lat":43.30545,"lon":5.38107,"is_reserved":false,"is_disabled":false,"rental_uris":{"android":"levelo://app?vid=484edfb5-9f03-4dae-a24e-4b5baa8721ea","ios":"levelo://app?vid=484edfb5-9f03-4dae-a24e-4b5baa8721ea"},"vehicle_type_id":"4","last_reported":1727845812,"current_range_meters":39200,"station_id":"ce4bgup2rcd13ifvqcn0","pricing_plan_id":"cebpf4jnsgd1na2vs0mg"},{"bike_id":"fbc4b367-7bbb-43b3-ba51-7142eb83236b","system_id":"levelo_inurba_marseille","lat":43.31451,"lon":5.37371,"is_reserved":false,"is_disabled":false,"rental_uris":{"android":"levelo://app?vid=fbc4b367-7bbb-43b3-ba51-7142eb83236b","ios":"levelo://app?vid=fbc4b367-7bbb-43b3-ba51-7142eb83236b"},"vehicle_type_id":"4","last_reported":1727845812,"current_range_meters":25600,"station_id":"","pricing_plan_id":"cebpf4jnsgd1na2vs0mg"},{"bike_id":"d97196d4-185e-4916-bd86-5eb6fdf18447","system_id":"levelo_inurba_marseille","lat":43.33017,"lon":5.39044,"is_reserved":false,"is_disabled":false,"rental_uris":{"android":"levelo://app?vid=d97196d4-185e-4916-bd86-5eb6fdf18447","ios":"levelo://app?vid=d97196d4-185e-4916-bd86-5eb6fdf18447"},"vehicle_type_id":"4","last_reported":1727845812,"current_range_meters":38400,"station_id":"ce4bhr92rcd13ifvqhrg","pricing_plan_id":"cebpf4jnsgd1na2vs0mg"},{"bike_id":"c1f8fd95-7047-428b-8805-d2bc5bdc3363","system_id":"levelo_inurba_marseille","lat":43.33024,"lon":5.39041,"is_reserved":false,"is_disabled":false,"rental_uris":{"android":"levelo://app?vid=c1f8fd95-7047-428b-8805-d2bc5bdc3363","ios":"levelo://app?vid=c1f8fd95-7047-428b-8805-d2bc5bdc3363"},"vehicle_type_id":"4","last_reported":1727845812,"current_range_meters":36400,"station_id":"ce4bhr92rcd13ifvqhrg","pricing_plan_id":"cebpf4jnsgd1na2vs0mg"},{"bike_id":"590a8d58-4170-45bf-9ac5-837bd3ff5b81","system_id":"levelo_inurba_marseille","lat":43.27072,"lon":5.4229,"is_reserved":false,"is_disabled":false,"rental_uris":{"android":"levelo://app?vid=590a8d58-4170-45bf-9ac5-837bd3ff5b81","ios":"levelo://app?vid=590a8d58-4170-45bf-9ac5-837bd3ff5b81"},"vehicle_type_id":"4","last_reported":1727845812,"current_range_meters":24800,"station_id":"ce4bhk92rcd13ifvqgb0","pricing_plan_id":"cebpf4jnsgd1na2vs0mg"},{"bike_id":"44cefc2e-25d9-4040-b45f-14956c78c679","system_id":"levelo_inurba_marseille","lat":43.27098,"lon":5.42305,"is_reserved":false,"is_disabled":false,"rental_uris":{"android":"levelo://app?vid=44cefc2e-25d9-4040-b45f-14956c78c679","ios":"levelo://app?vid=44cefc2e-25d9-4040-b45f-14956c78c679"},"vehicle_type_id":"4","last_reported":1727845812,"current_range_meters":38400,"station_id":"ce4bhk92rcd13ifvqgb0","pricing_plan_id":"cebpf4jnsgd1na2vs0mg"},{"bike_id":"a814215c-f3f0-4b2e-be81-e83f4e5a2fd2","system_id":"levelo_inurba_marseille","lat":43.24074,"lon":5.3777,"is_reserved":false,"is_disabled":false,"rental_uris":{"android":"levelo://app?vid=a814215c-f3f0-4b2e-be81-e83f4e5a2fd2","ios":"levelo://app?vid=a814215c-f3f0-4b2e-be81-e83f4e5a2fd2"},"vehicle_type_id":"4","last_reported":1727845812,"current_range_meters":31200,"station_id":"ce4bhnp2rcd13ifvqgvg","pricing_plan_id":"cebpf4jnsgd1na2vs0mg"},{"bike_id":"83e07b7c-5a31-4eac-92e4-4f0fe5973f81","system_id":"levelo_inurba_marseille","lat":43.24673,"lon":5.389,"is_reserved":false,"is_disabled":false,"rental_uris":{"android":"levelo://app?vid=83e07b7c-5a31-4eac-92e4-4f0fe5973f81","ios":"levelo://app?vid=83e07b7c-5a31-4eac-92e4-4f0fe5973f81"},"vehicle_type_id":"4","last_reported":1727845812,"current_range_meters":38800,"station_id":"ce4bhg12rcd13ifvqf60","pricing_plan_id":"cebpf4jnsgd1na2vs0mg"},{"bike_id":"8fe827a3-1238-4df7-9413-f62726e6fe31","system_id":"levelo_inurba_marseille","lat":43.2972,"lon":5.37702,"is_reserved":false,"is_disabled":false,"rental_uris":{"android":"levelo://app?vid=8fe827a3-1238-4df7-9413-f62726e6fe31","ios":"levelo://app?vid=8fe827a3-1238-4df7-9413-f62726e6fe31"},"vehicle_type_id":"4","last_reported":1727845812,"current_range_meters":37600,"station_id":"ce4bgkh2rcd13ifvqbl0","pricing_plan_id":"cebpf4jnsgd1na2vs0mg"},{"bike_id":"33a75d1e-713e-4484-ada7-22735735e31a","system_id":"levelo_inurba_marseille","lat":43.31718,"lon":5.42399,"is_reserved":false,"is_disabled":false,"rental_uris":{"android":"levelo://app?vid=33a75d1e-713e-4484-ada7-22735735e31a","ios":"levelo://app?vid=33a75d1e-713e-4484-ada7-22735735e31a"},"vehicle_type_id":"4","last_reported":1727845812,"current_range_meters":38800,"station_id":"ce4bhp92rcd13ifvqhbg","pricing_plan_id":"cebpf4jnsgd1na2vs0mg"},{"bike_id":"1a3ec3a1-7767-4940-a140-a358655f8458","system_id":"levelo_inurba_marseille","lat":43.29555,"lon":5.42285,"is_reserved":false,"is_disabled":false,"rental_uris":{"android":"levelo://app?vid=1a3ec3a1-7767-4940-a140-a358655f8458","ios":"levelo://app?vid=1a3ec3a1-7767-4940-a140-a358655f8458"},"vehicle_type_id":"4","last_reported":1727845812,"current_range_meters":38800,"station_id":"ce4bhph2rcd13ifvqhdg","pricing_plan_id":"cebpf4jnsgd1na2vs0mg"},{"bike_id":"c92a38d9-de10-477a-8e6d-a4f5631ecb8e","system_id":"levelo_inurba_marseille","lat":43.24651,"lon":5.38898,"is_reserved":false,"is_disabled":false,"rental_uris":{"android":"levelo://app?vid=c92a38d9-de10-477a-8e6d-a4f5631ecb8e","ios":"levelo://app?vid=c92a38d9-de10-477a-8e6d-a4f5631ecb8e"},"vehicle_type_id":"4","last_reported":1727845812,"current_range_meters":28000,"station_id":"ce4bhg12rcd13ifvqf60","pricing_plan_id":"cebpf4jnsgd1na2vs0mg"},{"bike_id":"36a344bb-cf52-468f-82ca-bd8a027880ad","system_id":"levelo_inurba_marseille","lat":43.2958,"lon":5.36737,"is_reserved":false,"is_disabled":false,"rental_uris":{"android":"levelo://app?vid=36a344bb-cf52-468f-82ca-bd8a027880ad","ios":"levelo://app?vid=36a344bb-cf52-468f-82ca-bd8a027880ad"},"vehicle_type_id":"4","last_reported":1727845812,"current_range_meters":37600,"station_id":"ce4bgph2rcd13ifvqc2g","pricing_plan_id":"cebpf4jnsgd1na2vs0mg"},{"bike_id":"09ae8c03-4961-49ed-b29a-bf4a8ba84722","system_id":"levelo_inurba_marseille","lat":43.2511,"lon":5.40332,"is_reserved":false,"is_disabled":false,"rental_uris":{"android":"levelo://app?vid=09ae8c03-4961-49ed-b29a-bf4a8ba84722","ios":"levelo://app?vid=09ae8c03-4961-49ed-b29a-bf4a8ba84722"},"vehicle_type_id":"4","last_reported":1727845812,"current_range_meters":38800,"station_id":"ce4bhlh2rcd13ifvqgig","pricing_plan_id":"cebpf4jnsgd1na2vs0mg"},{"bike_id":"085bfafa-c735-4e73-a53e-90db6f6abf7a","system_id":"levelo_inurba_marseille","lat":43.2439,"lon":5.37056,"is_reserved":false,"is_disabled":false,"rental_uris":{"android":"levelo://app?vid=085bfafa-c735-4e73-a53e-90db6f6abf7a","ios":"levelo://app?vid=085bfafa-c735-4e73-a53e-90db6f6abf7a"},"vehicle_type_id":"4","last_reported":1727845812,"current_range_meters":37600,"station_id":"ce4bhhh2rcd13ifvqfk0","pricing_plan_id":"cebpf4jnsgd1na2vs0mg"},{"bike_id":"854c95e7-16e1-4318-a90f-808c2d83aff5","system_id":"levelo_inurba_marseille","lat":43.292013,"lon":5.358004,"is_reserved":false,"is_disabled":false,"rental_uris":{"android":"levelo://app?vid=854c95e7-16e1-4318-a90f-808c2d83aff5","ios":"levelo://app?vid=854c95e7-16e1-4318-a90f-808c2d83aff5"},"vehicle_type_id":"4","last_reported":1727845812,"current_range_meters":38000,"station_id":"ce4bhb12rcd13ifvqel0","pricing_plan_id":"cebpf4jnsgd1na2vs0mg"},{"bike_id":"98fbf9ef-9ed7-49eb-af86-a4d6a740b79a","system_id":"levelo_inurba_marseille","lat":43.27313,"lon":5.39078,"is_reserved":false,"is_disabled":false,"rental_uris":{"android":"levelo://app?vid=98fbf9ef-9ed7-49eb-af86-a4d6a740b79a","ios":"levelo://app?vid=98fbf9ef-9ed7-49eb-af86-a4d6a740b79a"},"vehicle_type_id":"4","last_reported":1727845812,"current_range_meters":28800,"station_id":"ce4bhgp2rcd13ifvqfe0","pricing_plan_id":"cebpf4jnsgd1na2vs0mg"},{"bike_id":"f139bc38-1ba2-4d42-a550-2a060e4202e5","system_id":"levelo_inurba_marseille","lat":43.2781,"lon":5.40722,"is_reserved":false,"is_disabled":false,"rental_uris":{"android":"levelo://app?vid=f139bc38-1ba2-4d42-a550-2a060e4202e5","ios":"levelo://app?vid=f139bc38-1ba2-4d42-a550-2a060e4202e5"},"vehicle_type_id":"4","last_reported":1727845812,"current_range_meters":38800,"station_id":"ce4bhnh2rcd13ifvqgtg","pricing_plan_id":"cebpf4jnsgd1na2vs0mg"},{"bike_id":"2a62678b-7307-4fb5-9cbc-d335087ba1ad","system_id":"levelo_inurba_marseille","lat":43.28437,"lon":5.39183,"is_reserved":false,"is_disabled":false,"rental_uris":{"android":"levelo://app?vid=2a62678b-7307-4fb5-9cbc-d335087ba1ad","ios":"levelo://app?vid=2a62678b-7307-4fb5-9cbc-d335087ba1ad"},"vehicle_type_id":"4","last_reported":1727845812,"current_range_meters":38800,"station_id":"ce4bhoh2rcd13ifvqh5g","pricing_plan_id":"cebpf4jnsgd1na2vs0mg"},{"bike_id":"990c12aa-9878-42d7-adee-717160a3fdf4","system_id":"levelo_inurba_marseille","lat":43.30464,"lon":5.37913,"is_reserved":false,"is_disabled":false,"rental_uris":{"android":"levelo://app?vid=990c12aa-9878-42d7-adee-717160a3fdf4","ios":"levelo://app?vid=990c12aa-9878-42d7-adee-717160a3fdf4"},"vehicle_type_id":"4","last_reported":1727845812,"current_range_meters":14000,"station_id":"ce4bgup2rcd13ifvqcn0","pricing_plan_id":"cebpf4jnsgd1na2vs0mg"},{"bike_id":"6bac66e0-811a-4dc5-af95-25fafe85dad4","system_id":"levelo_inurba_marseille","lat":43.28339,"lon":5.38103,"is_reserved":false,"is_disabled":false,"rental_uris":{"android":"levelo://app?vid=6bac66e0-811a-4dc5-af95-25fafe85dad4","ios":"levelo://app?vid=6bac66e0-811a-4dc5-af95-25fafe85dad4"},"vehicle_type_id":"4","last_reported":1727845812,"current_range_meters":39200,"station_id":"ce4bh412rcd13ifvqdr0","pricing_plan_id":"cebpf4jnsgd1na2vs0mg"},{"bike_id":"299a2ae8-3c93-4a97-bb80-41c1bc0c9465","system_id":"levelo_inurba_marseille","lat":43.28664,"lon":5.36348,"is_reserved":false,"is_disabled":false,"rental_uris":{"android":"levelo://app?vid=299a2ae8-3c93-4a97-bb80-41c1bc0c9465","ios":"levelo://app?vid=299a2ae8-3c93-4a97-bb80-41c1bc0c9465"},"vehicle_type_id":"4","last_reported":1727845812,"current_range_meters":38000,"station_id":"ce4bhah2rcd13ifvqej0","pricing_plan_id":"cebpf4jnsgd1na2vs0mg"},{"bike_id":"e7c090c4-a395-497f-aafe-dafdf7011f5d","system_id":"levelo_inurba_marseille","lat":43.31172,"lon":5.38713,"is_reserved":false,"is_disabled":false,"rental_uris":{"android":"levelo://app?vid=e7c090c4-a395-497f-aafe-dafdf7011f5d","ios":"levelo://app?vid=e7c090c4-a395-497f-aafe-dafdf7011f5d"},"vehicle_type_id":"4","last_reported":1727845812,"current_range_meters":37600,"station_id":"ce4bgv12rcd13ifvqcp0","pricing_plan_id":"cebpf4jnsgd1na2vs0mg"},{"bike_id":"bcd3d28a-ea65-4172-8f36-03236c255f65","system_id":"levelo_inurba_marseille","lat":43.3032,"lon":5.4044,"is_reserved":false,"is_disabled":false,"rental_uris":{"android":"levelo://app?vid=bcd3d28a-ea65-4172-8f36-03236c255f65","ios":"levelo://app?vid=bcd3d28a-ea65-4172-8f36-03236c255f65"},"vehicle_type_id":"4","last_reported":1727845812,"current_range_meters":37600,"station_id":"ce4bh012rcd13ifvqd10","pricing_plan_id":"cebpf4jnsgd1na2vs0mg"},{"bike_id":"a4224d16-b792-43d4-bccc-ee1385fa6dad","system_id":"levelo_inurba_marseille","lat":43.3254,"lon":5.41448,"is_reserved":false,"is_disabled":false,"rental_uris":{"android":"levelo://app?vid=a4224d16-b792-43d4-bccc-ee1385fa6dad","ios":"levelo://app?vid=a4224d16-b792-43d4-bccc-ee1385fa6dad"},"vehicle_type_id":"4","last_reported":1727845812,"current_range_meters":38800,"station_id":"ce4bhq12rcd13ifvqhhg","pricing_plan_id":"cebpf4jnsgd1na2vs0mg"},{"bike_id":"9ea65383-a0de-4a50-8614-6075feadc120","system_id":"levelo_inurba_marseille","lat":43.313266,"lon":5.396998,"is_reserved":false,"is_disabled":false,"rental_uris":{"android":"levelo://app?vid=9ea65383-a0de-4a50-8614-6075feadc120","ios":"levelo://app?vid=9ea65383-a0de-4a50-8614-6075feadc120"},"vehicle_type_id":"4","last_reported":1727845812,"current_range_meters":36000,"station_id":"ce4bgvp2rcd13ifvqcu0","pricing_plan_id":"cebpf4jnsgd1na2vs0mg"},{"bike_id":"5356d702-f88f-4771-8ac7-432a8cbedae9","system_id":"levelo_inurba_marseille","lat":43.305394,"lon":5.384259,"is_reserved":false,"is_disabled":false,"rental_uris":{"android":"levelo://app?vid=5356d702-f88f-4771-8ac7-432a8cbedae9","ios":"levelo://app?vid=5356d702-f88f-4771-8ac7-432a8cbedae9"},"vehicle_type_id":"4","last_reported":1727845812,"current_range_meters":27200,"station_id":"ce4bgg92rcd13ifvqb30","pricing_plan_id":"cebpf4jnsgd1na2vs0mg"},{"bike_id":"202e0f5d-a2cc-4f86-93f0-5e300189a421","system_id":"levelo_inurba_marseille","lat":43.31231,"lon":5.36854,"is_reserved":false,"is_disabled":false,"rental_uris":{"android":"levelo://app?vid=202e0f5d-a2cc-4f86-93f0-5e300189a421","ios":"levelo://app?vid=202e0f5d-a2cc-4f86-93f0-5e300189a421"},"vehicle_type_id":"4","last_reported":1727845812,"current_range_meters":13600,"station_id":"ce4bgl92rcd13ifvqbq0","pricing_plan_id":"cebpf4jnsgd1na2vs0mg"},{"bike_id":"554d7a73-3b40-4dac-9894-f5eadfdc26ff","system_id":"levelo_inurba_marseille","lat":43.28156,"lon":5.42649,"is_reserved":false,"is_disabled":false,"rental_uris":{"android":"levelo://app?vid=554d7a73-3b40-4dac-9894-f5eadfdc26ff","ios":"levelo://app?vid=554d7a73-3b40-4dac-9894-f5eadfdc26ff"},"vehicle_type_id":"4","last_reported":1727845812,"current_range_meters":38800,"station_id":"ce4bhnh2rcd13ifvqgug","pricing_plan_id":"cebpf4jnsgd1na2vs0mg"},{"bike_id":"43c1e5a4-b8d0-43e7-82b5-8d7b9ca74bff","system_id":"levelo_inurba_marseille","lat":43.31371,"lon":5.38503,"is_reserved":false,"is_disabled":false,"rental_uris":{"android":"levelo://app?vid=43c1e5a4-b8d0-43e7-82b5-8d7b9ca74bff","ios":"levelo://app?vid=43c1e5a4-b8d0-43e7-82b5-8d7b9ca74bff"},"vehicle_type_id":"4","last_reported":1727845812,"current_range_meters":20400,"station_id":"ce4bgt92rcd13ifvqcf0","pricing_plan_id":"cebpf4jnsgd1na2vs0mg"},{"bike_id":"7e76f61d-1104-460b-895f-03b2abf7da39","system_id":"levelo_inurba_marseille","lat":43.24073,"lon":5.37751,"is_reserved":false,"is_disabled":false,"rental_uris":{"android":"levelo://app?vid=7e76f61d-1104-460b-895f-03b2abf7da39","ios":"levelo://app?vid=7e76f61d-1104-460b-895f-03b2abf7da39"},"vehicle_type_id":"4","last_reported":1727845812,"current_range_meters":12800,"station_id":"ce4bhnp2rcd13ifvqgvg","pricing_plan_id":"cebpf4jnsgd1na2vs0mg"},{"bike_id":"bc33db4a-e3c9-4718-b2b1-11c0fecddb09","system_id":"levelo_inurba_marseille","lat":43.3027,"lon":5.37692,"is_reserved":false,"is_disabled":false,"rental_uris":{"android":"levelo://app?vid=bc33db4a-e3c9-4718-b2b1-11c0fecddb09","ios":"levelo://app?vid=bc33db4a-e3c9-4718-b2b1-11c0fecddb09"},"vehicle_type_id":"4","last_reported":1727845812,"current_range_meters":38800,"station_id":"ce4bguh2rcd13ifvqcj0","pricing_plan_id":"cebpf4jnsgd1na2vs0mg"},{"bike_id":"6a9f3fd4-6b9c-4ffe-93e8-b38b5c517806","system_id":"levelo_inurba_marseille","lat":43.30801,"lon":5.43526,"is_reserved":false,"is_disabled":false,"rental_uris":{"android":"levelo://app?vid=6a9f3fd4-6b9c-4ffe-93e8-b38b5c517806","ios":"levelo://app?vid=6a9f3fd4-6b9c-4ffe-93e8-b38b5c517806"},"vehicle_type_id":"4","last_reported":1727845812,"current_range_meters":36800,"station_id":"ce4bhph2rcd13ifvqheg","pricing_plan_id":"cebpf4jnsgd1na2vs0mg"},{"bike_id":"04101f76-1db7-4a38-9a1b-42c1449ca618","system_id":"levelo_inurba_marseille","lat":43.29035,"lon":5.39964,"is_reserved":false,"is_disabled":false,"rental_uris":{"android":"levelo://app?vid=04101f76-1db7-4a38-9a1b-42c1449ca618","ios":"levelo://app?vid=04101f76-1db7-4a38-9a1b-42c1449ca618"},"vehicle_type_id":"4","last_reported":1727845812,"current_range_meters":38800,"station_id":"ce4bh392rcd13ifvqdm0","pricing_plan_id":"cebpf4jnsgd1na2vs0mg"},{"bike_id":"f2832095-e7fd-4b0a-9937-b9657b859693","system_id":"levelo_inurba_marseille","lat":43.26944,"lon":5.40247,"is_reserved":false,"is_disabled":false,"rental_uris":{"android":"levelo://app?vid=f2832095-e7fd-4b0a-9937-b9657b859693","ios":"levelo://app?vid=f2832095-e7fd-4b0a-9937-b9657b859693"},"vehicle_type_id":"4","last_reported":1727845812,"current_range_meters":38800,"station_id":"cjm6bp8fraef2m0cb0m0","pricing_plan_id":"cebpf4jnsgd1na2vs0mg"},{"bike_id":"c32d92b6-7ce5-4d09-bf38-7781f66ad1d1","system_id":"levelo_inurba_marseille","lat":43.25718,"lon":5.41115,"is_reserved":false,"is_disabled":false,"rental_uris":{"android":"levelo://app?vid=c32d92b6-7ce5-4d09-bf38-7781f66ad1d1","ios":"levelo://app?vid=c32d92b6-7ce5-4d09-bf38-7781f66ad1d1"},"vehicle_type_id":"4","last_reported":1727845812,"current_range_meters":6000,"station_id":"ce4bhkp2rcd13ifvqgd0","pricing_plan_id":"cebpf4jnsgd1na2vs0mg"},{"bike_id":"ff778085-1125-46f3-a87a-d5156786b279","system_id":"levelo_inurba_marseille","lat":43.265157,"lon":5.391016,"is_reserved":false,"is_disabled":false,"rental_uris":{"android":"levelo://app?vid=ff778085-1125-46f3-a87a-d5156786b279","ios":"levelo://app?vid=ff778085-1125-46f3-a87a-d5156786b279"},"vehicle_type_id":"4","last_reported":1727845812,"current_range_meters":36000,"station_id":"ce4bhe12rcd13ifvqf30","pricing_plan_id":"cebpf4jnsgd1na2vs0mg"},{"bike_id":"6ad5b8bd-ee48-4955-b149-8d107ba3399a","system_id":"levelo_inurba_marseille","lat":43.24964,"lon":5.3818,"is_reserved":false,"is_disabled":false,"rental_uris":{"android":"levelo://app?vid=6ad5b8bd-ee48-4955-b149-8d107ba3399a","ios":"levelo://app?vid=6ad5b8bd-ee48-4955-b149-8d107ba3399a"},"vehicle_type_id":"4","last_reported":1727845812,"current_range_meters":8000,"station_id":"","pricing_plan_id":"cebpf4jnsgd1na2vs0mg"},{"bike_id":"2028cdfd-a15b-43cc-980f-9ab89ecb686c","system_id":"levelo_inurba_marseille","lat":43.25853,"lon":5.39904,"is_reserved":false,"is_disabled":false,"rental_uris":{"android":"levelo://app?vid=2028cdfd-a15b-43cc-980f-9ab89ecb686c","ios":"levelo://app?vid=2028cdfd-a15b-43cc-980f-9ab89ecb686c"},"vehicle_type_id":"4","last_reported":1727845812,"current_range_meters":12800,"station_id":"ce4bhl92rcd13ifvqghg","pricing_plan_id":"cebpf4jnsgd1na2vs0mg"},{"bike_id":"259eaa39-41cd-49da-afdf-9b857b269a04","system_id":"levelo_inurba_marseille","lat":43.3107,"lon":5.38362,"is_reserved":false,"is_disabled":false,"rental_uris":{"android":"levelo://app?vid=259eaa39-41cd-49da-afdf-9b857b269a04","ios":"levelo://app?vid=259eaa39-41cd-49da-afdf-9b857b269a04"},"vehicle_type_id":"4","last_reported":1727845812,"current_range_meters":38800,"station_id":"ce4bgv92rcd13ifvqcr0","pricing_plan_id":"cebpf4jnsgd1na2vs0mg"},{"bike_id":"e24c17eb-50c5-4f74-8372-e38785c54118","system_id":"levelo_inurba_marseille","lat":43.33031,"lon":5.39047,"is_reserved":false,"is_disabled":false,"rental_uris":{"android":"levelo://app?vid=e24c17eb-50c5-4f74-8372-e38785c54118","ios":"levelo://app?vid=e24c17eb-50c5-4f74-8372-e38785c54118"},"vehicle_type_id":"4","last_reported":1727845812,"current_range_meters":38800,"station_id":"ce4bhr92rcd13ifvqhrg","pricing_plan_id":"cebpf4jnsgd1na2vs0mg"},{"bike_id":"d8aca88c-2b37-438e-a894-303d677e2f8e","system_id":"levelo_inurba_marseille","lat":43.30775,"lon":5.37652,"is_reserved":false,"is_disabled":false,"rental_uris":{"android":"levelo://app?vid=d8aca88c-2b37-438e-a894-303d677e2f8e","ios":"levelo://app?vid=d8aca88c-2b37-438e-a894-303d677e2f8e"},"vehicle_type_id":"4","last_reported":1727845812,"current_range_meters":8000,"station_id":"ce4bgv92rcd13ifvqcq0","pricing_plan_id":"cebpf4jnsgd1na2vs0mg"},{"bike_id":"d5bf9db1-7dca-49c1-8306-b4004223ad4f","system_id":"levelo_inurba_marseille","lat":43.30539,"lon":5.36564,"is_reserved":false,"is_disabled":false,"rental_uris":{"android":"levelo://app?vid=d5bf9db1-7dca-49c1-8306-b4004223ad4f","ios":"levelo://app?vid=d5bf9db1-7dca-49c1-8306-b4004223ad4f"},"vehicle_type_id":"4","last_reported":1727845812,"current_range_meters":25600,"station_id":"ce4bgs12rcd13ifvqcag","pricing_plan_id":"cebpf4jnsgd1na2vs0mg"},{"bike_id":"0a401d57-16fb-4ba3-95f5-660ee6285378","system_id":"levelo_inurba_marseille","lat":43.32342,"lon":5.40614,"is_reserved":false,"is_disabled":false,"rental_uris":{"android":"levelo://app?vid=0a401d57-16fb-4ba3-95f5-660ee6285378","ios":"levelo://app?vid=0a401d57-16fb-4ba3-95f5-660ee6285378"},"vehicle_type_id":"4","last_reported":1727845812,"current_range_meters":28800,"station_id":"","pricing_plan_id":"cebpf4jnsgd1na2vs0mg"},{"bike_id":"81750190-39ad-463e-969c-0a74da3c78de","system_id":"levelo_inurba_marseille","lat":43.29252,"lon":5.40911,"is_reserved":false,"is_disabled":false,"rental_uris":{"android":"levelo://app?vid=81750190-39ad-463e-969c-0a74da3c78de","ios":"levelo://app?vid=81750190-39ad-463e-969c-0a74da3c78de"},"vehicle_type_id":"4","last_reported":1727845812,"current_range_meters":38000,"station_id":"ce4bh192rcd13ifvqdc0","pricing_plan_id":"cebpf4jnsgd1na2vs0mg"},{"bike_id":"d3c14b45-10b9-4e55-901e-e81271fe2779","system_id":"levelo_inurba_marseille","lat":43.23182,"lon":5.39989,"is_reserved":false,"is_disabled":false,"rental_uris":{"android":"levelo://app?vid=d3c14b45-10b9-4e55-901e-e81271fe2779","ios":"levelo://app?vid=d3c14b45-10b9-4e55-901e-e81271fe2779"},"vehicle_type_id":"4","last_reported":1727845812,"current_range_meters":22400,"station_id":"ce4bhn12rcd13ifvqgqg","pricing_plan_id":"cebpf4jnsgd1na2vs0mg"},{"bike_id":"7d6ae683-bb41-4a80-98db-e23bf06032e9","system_id":"levelo_inurba_marseille","lat":43.27315,"lon":5.39092,"is_reserved":false,"is_disabled":false,"rental_uris":{"android":"levelo://app?vid=7d6ae683-bb41-4a80-98db-e23bf06032e9","ios":"levelo://app?vid=7d6ae683-bb41-4a80-98db-e23bf06032e9"},"vehicle_type_id":"4","last_reported":1727845812,"current_range_meters":8800,"station_id":"ce4bhgp2rcd13ifvqfe0","pricing_plan_id":"cebpf4jnsgd1na2vs0mg"},{"bike_id":"205cc5f6-52f3-4805-bfcd-4e372f6a7196","system_id":"levelo_inurba_marseille","lat":43.25089,"lon":5.39516,"is_reserved":false,"is_disabled":false,"rental_uris":{"android":"levelo://app?vid=205cc5f6-52f3-4805-bfcd-4e372f6a7196","ios":"levelo://app?vid=205cc5f6-52f3-4805-bfcd-4e372f6a7196"},"vehicle_type_id":"4","last_reported":1727845812,"current_range_meters":24400,"station_id":"ce4bhm12rcd13ifvqgkg","pricing_plan_id":"cebpf4jnsgd1na2vs0mg"},{"bike_id":"cc348d5e-b637-44b1-84a4-6c92ec751a0c","system_id":"levelo_inurba_marseille","lat":43.31175,"lon":5.38712,"is_reserved":false,"is_disabled":false,"rental_uris":{"android":"levelo://app?vid=cc348d5e-b637-44b1-84a4-6c92ec751a0c","ios":"levelo://app?vid=cc348d5e-b637-44b1-84a4-6c92ec751a0c"},"vehicle_type_id":"4","last_reported":1727845812,"current_range_meters":30000,"station_id":"ce4bgv12rcd13ifvqcp0","pricing_plan_id":"cebpf4jnsgd1na2vs0mg"},{"bike_id":"195eb908-4c7d-445c-8df1-eaa1089873cd","system_id":"levelo_inurba_marseille","lat":43.286987,"lon":5.364027,"is_reserved":false,"is_disabled":false,"rental_uris":{"android":"levelo://app?vid=195eb908-4c7d-445c-8df1-eaa1089873cd","ios":"levelo://app?vid=195eb908-4c7d-445c-8df1-eaa1089873cd"},"vehicle_type_id":"4","last_reported":1727845812,"current_range_meters":38400,"station_id":"ce4bgh92rcd13ifvqb40","pricing_plan_id":"cebpf4jnsgd1na2vs0mg"},{"bike_id":"1707d12d-dbcd-4cb6-93a5-2b328c9bed87","system_id":"levelo_inurba_marseille","lat":43.25865,"lon":5.39896,"is_reserved":false,"is_disabled":false,"rental_uris":{"android":"levelo://app?vid=1707d12d-dbcd-4cb6-93a5-2b328c9bed87","ios":"levelo://app?vid=1707d12d-dbcd-4cb6-93a5-2b328c9bed87"},"vehicle_type_id":"4","last_reported":1727845812,"current_range_meters":38800,"station_id":"ce4bhl92rcd13ifvqghg","pricing_plan_id":"cebpf4jnsgd1na2vs0mg"},{"bike_id":"b19d06a6-3ad5-4325-91a8-36e9658141ba","system_id":"levelo_inurba_marseille","lat":43.29278,"lon":5.40138,"is_reserved":false,"is_disabled":false,"rental_uris":{"android":"levelo://app?vid=b19d06a6-3ad5-4325-91a8-36e9658141ba","ios":"levelo://app?vid=b19d06a6-3ad5-4325-91a8-36e9658141ba"},"vehicle_type_id":"4","last_reported":1727845812,"current_range_meters":38800,"station_id":"ce4bh312rcd13ifvqdk0","pricing_plan_id":"cebpf4jnsgd1na2vs0mg"},{"bike_id":"6f145e4b-a2f1-447b-ae74-c4e533f7e679","system_id":"levelo_inurba_marseille","lat":43.32663,"lon":5.40994,"is_reserved":false,"is_disabled":false,"rental_uris":{"android":"levelo://app?vid=6f145e4b-a2f1-447b-ae74-c4e533f7e679","ios":"levelo://app?vid=6f145e4b-a2f1-447b-ae74-c4e533f7e679"},"vehicle_type_id":"4","last_reported":1727845812,"current_range_meters":38400,"station_id":"ce4bhpp2rcd13ifvqhgg","pricing_plan_id":"cebpf4jnsgd1na2vs0mg"},{"bike_id":"8884666a-6177-4a7b-b0cb-8adad2eb0450","system_id":"levelo_inurba_marseille","lat":43.30601,"lon":5.37224,"is_reserved":false,"is_disabled":false,"rental_uris":{"android":"levelo://app?vid=8884666a-6177-4a7b-b0cb-8adad2eb0450","ios":"levelo://app?vid=8884666a-6177-4a7b-b0cb-8adad2eb0450"},"vehicle_type_id":"4","last_reported":1727845812,"current_range_meters":39200,"station_id":"ce4bgqh2rcd13ifvqc4g","pricing_plan_id":"cebpf4jnsgd1na2vs0mg"},{"bike_id":"0a44300e-e0be-4b18-9930-50ca4ca286dd","system_id":"levelo_inurba_marseille","lat":43.3046,"lon":5.37899,"is_reserved":false,"is_disabled":false,"rental_uris":{"android":"levelo://app?vid=0a44300e-e0be-4b18-9930-50ca4ca286dd","ios":"levelo://app?vid=0a44300e-e0be-4b18-9930-50ca4ca286dd"},"vehicle_type_id":"4","last_reported":1727845812,"current_range_meters":26000,"station_id":"ce4bgup2rcd13ifvqcn0","pricing_plan_id":"cebpf4jnsgd1na2vs0mg"},{"bike_id":"bcf1f236-ab9a-4337-83f1-ee59277cb654","system_id":"levelo_inurba_marseille","lat":43.29257,"lon":5.40908,"is_reserved":false,"is_disabled":false,"rental_uris":{"android":"levelo://app?vid=bcf1f236-ab9a-4337-83f1-ee59277cb654","ios":"levelo://app?vid=bcf1f236-ab9a-4337-83f1-ee59277cb654"},"vehicle_type_id":"4","last_reported":1727845812,"current_range_meters":22800,"station_id":"ce4bh192rcd13ifvqdc0","pricing_plan_id":"cebpf4jnsgd1na2vs0mg"},{"bike_id":"55ab17f1-7827-4fda-89fe-60d616ba6069","system_id":"levelo_inurba_marseille","lat":43.298,"lon":5.38091,"is_reserved":false,"is_disabled":false,"rental_uris":{"android":"levelo://app?vid=55ab17f1-7827-4fda-89fe-60d616ba6069","ios":"levelo://app?vid=55ab17f1-7827-4fda-89fe-60d616ba6069"},"vehicle_type_id":"4","last_reported":1727845812,"current_range_meters":38400,"station_id":"ce4bgip2rcd13ifvqbb0","pricing_plan_id":"cebpf4jnsgd1na2vs0mg"},{"bike_id":"196d312b-4c3a-4864-9b4b-d156fba48afb","system_id":"levelo_inurba_marseille","lat":43.29889,"lon":5.39743,"is_reserved":false,"is_disabled":false,"rental_uris":{"android":"levelo://app?vid=196d312b-4c3a-4864-9b4b-d156fba48afb","ios":"levelo://app?vid=196d312b-4c3a-4864-9b4b-d156fba48afb"},"vehicle_type_id":"4","last_reported":1727845812,"current_range_meters":38800,"station_id":"ce4bh0h2rcd13ifvqd50","pricing_plan_id":"cebpf4jnsgd1na2vs0mg"},{"bike_id":"df780b36-1bd7-4ee0-a23e-812efc385c51","system_id":"levelo_inurba_marseille","lat":43.28407,"lon":5.37512,"is_reserved":false,"is_disabled":false,"rental_uris":{"android":"levelo://app?vid=df780b36-1bd7-4ee0-a23e-812efc385c51","ios":"levelo://app?vid=df780b36-1bd7-4ee0-a23e-812efc385c51"},"vehicle_type_id":"4","last_reported":1727845812,"current_range_meters":38800,"station_id":"ce4bh412rcd13ifvqds0","pricing_plan_id":"cebpf4jnsgd1na2vs0mg"},{"bike_id":"c3bd477f-1cfd-4699-95b7-bd853a8e55cb","system_id":"levelo_inurba_marseille","lat":43.31331,"lon":5.39697,"is_reserved":false,"is_disabled":false,"rental_uris":{"android":"levelo://app?vid=c3bd477f-1cfd-4699-95b7-bd853a8e55cb","ios":"levelo://app?vid=c3bd477f-1cfd-4699-95b7-bd853a8e55cb"},"vehicle_type_id":"4","last_reported":1727845812,"current_range_meters":38400,"station_id":"ce4bgvp2rcd13ifvqcu0","pricing_plan_id":"cebpf4jnsgd1na2vs0mg"},{"bike_id":"d9935980-1a1e-417b-9dde-bc0953e2ec18","system_id":"levelo_inurba_marseille","lat":43.26202,"lon":5.37931,"is_reserved":false,"is_disabled":false,"rental_uris":{"android":"levelo://app?vid=d9935980-1a1e-417b-9dde-bc0953e2ec18","ios":"levelo://app?vid=d9935980-1a1e-417b-9dde-bc0953e2ec18"},"vehicle_type_id":"4","last_reported":1727845812,"current_range_meters":38400,"station_id":"ce4bhjp2rcd13ifvqg90","pricing_plan_id":"cebpf4jnsgd1na2vs0mg"},{"bike_id":"7421063a-800a-48c3-92f9-01b2315d5e97","system_id":"levelo_inurba_marseille","lat":43.30456,"lon":5.37914,"is_reserved":false,"is_disabled":false,"rental_uris":{"android":"levelo://app?vid=7421063a-800a-48c3-92f9-01b2315d5e97","ios":"levelo://app?vid=7421063a-800a-48c3-92f9-01b2315d5e97"},"vehicle_type_id":"4","last_reported":1727845812,"current_range_meters":39200,"station_id":"ce4bgup2rcd13ifvqcn0","pricing_plan_id":"cebpf4jnsgd1na2vs0mg"},{"bike_id":"e61b0e2b-f600-47ed-a252-8caf712f924c","system_id":"levelo_inurba_marseille","lat":43.24551,"lon":5.395224,"is_reserved":false,"is_disabled":false,"rental_uris":{"android":"levelo://app?vid=e61b0e2b-f600-47ed-a252-8caf712f924c","ios":"levelo://app?vid=e61b0e2b-f600-47ed-a252-8caf712f924c"},"vehicle_type_id":"4","last_reported":1727845812,"current_range_meters":38800,"station_id":"ce4bhlp2rcd13ifvqgjg","pricing_plan_id":"cebpf4jnsgd1na2vs0mg"},{"bike_id":"0be4e430-5d51-46df-9aaa-18ad86f0ea1a","system_id":"levelo_inurba_marseille","lat":43.27371,"lon":5.3626,"is_reserved":false,"is_disabled":false,"rental_uris":{"android":"levelo://app?vid=0be4e430-5d51-46df-9aaa-18ad86f0ea1a","ios":"levelo://app?vid=0be4e430-5d51-46df-9aaa-18ad86f0ea1a"},"vehicle_type_id":"4","last_reported":1727845812,"current_range_meters":4400,"station_id":"ce4bhbh2rcd13ifvqeo0","pricing_plan_id":"cebpf4jnsgd1na2vs0mg"},{"bike_id":"9cd128bb-3a64-4bb5-8c11-3fd33409958b","system_id":"levelo_inurba_marseille","lat":43.23151,"lon":5.43709,"is_reserved":false,"is_disabled":false,"rental_uris":{"android":"levelo://app?vid=9cd128bb-3a64-4bb5-8c11-3fd33409958b","ios":"levelo://app?vid=9cd128bb-3a64-4bb5-8c11-3fd33409958b"},"vehicle_type_id":"4","last_reported":1727845812,"current_range_meters":24800,"station_id":"ce4bhmp2rcd13ifvqgog","pricing_plan_id":"cebpf4jnsgd1na2vs0mg"},{"bike_id":"736bcb89-3fa5-4423-83ab-c46b1faa6d18","system_id":"levelo_inurba_marseille","lat":43.34497,"lon":5.41642,"is_reserved":false,"is_disabled":false,"rental_uris":{"android":"levelo://app?vid=736bcb89-3fa5-4423-83ab-c46b1faa6d18","ios":"levelo://app?vid=736bcb89-3fa5-4423-83ab-c46b1faa6d18"},"vehicle_type_id":"4","last_reported":1727845812,"current_range_meters":7200,"station_id":"","pricing_plan_id":"cebpf4jnsgd1na2vs0mg"},{"bike_id":"c87cbcf6-5323-4613-b4d0-9266fc83505c","system_id":"levelo_inurba_marseille","lat":43.27806,"lon":5.40712,"is_reserved":false,"is_disabled":false,"rental_uris":{"android":"levelo://app?vid=c87cbcf6-5323-4613-b4d0-9266fc83505c","ios":"levelo://app?vid=c87cbcf6-5323-4613-b4d0-9266fc83505c"},"vehicle_type_id":"4","last_reported":1727845812,"current_range_meters":18000,"station_id":"ce4bhnh2rcd13ifvqgtg","pricing_plan_id":"cebpf4jnsgd1na2vs0mg"},{"bike_id":"a2b2e7ec-9291-4e2e-99f8-400018f4dc70","system_id":"levelo_inurba_marseille","lat":43.30537,"lon":5.36704,"is_reserved":false,"is_disabled":false,"rental_uris":{"android":"levelo://app?vid=a2b2e7ec-9291-4e2e-99f8-400018f4dc70","ios":"levelo://app?vid=a2b2e7ec-9291-4e2e-99f8-400018f4dc70"},"vehicle_type_id":"4","last_reported":1727845812,"current_range_meters":38800,"station_id":"ce4bgrp2rcd13ifvqc9g","pricing_plan_id":"cebpf4jnsgd1na2vs0mg"},{"bike_id":"693b0b71-bb67-4134-8574-576dffda85de","system_id":"levelo_inurba_marseille","lat":43.25089,"lon":5.39513,"is_reserved":false,"is_disabled":false,"rental_uris":{"android":"levelo://app?vid=693b0b71-bb67-4134-8574-576dffda85de","ios":"levelo://app?vid=693b0b71-bb67-4134-8574-576dffda85de"},"vehicle_type_id":"4","last_reported":1727845812,"current_range_meters":38800,"station_id":"ce4bhm12rcd13ifvqgkg","pricing_plan_id":"cebpf4jnsgd1na2vs0mg"},{"bike_id":"29b32010-3be1-4e38-ab1f-d6426365567b","system_id":"levelo_inurba_marseille","lat":43.24662,"lon":5.38164,"is_reserved":false,"is_disabled":false,"rental_uris":{"android":"levelo://app?vid=29b32010-3be1-4e38-ab1f-d6426365567b","ios":"levelo://app?vid=29b32010-3be1-4e38-ab1f-d6426365567b"},"vehicle_type_id":"4","last_reported":1727845812,"current_range_meters":32400,"station_id":"ce4bhih2rcd13ifvqfr0","pricing_plan_id":"cebpf4jnsgd1na2vs0mg"},{"bike_id":"e52875b1-df1d-41af-920c-3ced6cf76cac","system_id":"levelo_inurba_marseille","lat":43.32367,"lon":5.388828,"is_reserved":false,"is_disabled":false,"rental_uris":{"android":"levelo://app?vid=e52875b1-df1d-41af-920c-3ced6cf76cac","ios":"levelo://app?vid=e52875b1-df1d-41af-920c-3ced6cf76cac"},"vehicle_type_id":"4","last_reported":1727845812,"current_range_meters":29600,"station_id":"ce4bhqp2rcd13ifvqhog","pricing_plan_id":"cebpf4jnsgd1na2vs0mg"},{"bike_id":"2cb0e818-0cd7-4b14-b3e2-a4fe86b5667b","system_id":"levelo_inurba_marseille","lat":43.27922,"lon":5.39583,"is_reserved":false,"is_disabled":false,"rental_uris":{"android":"levelo://app?vid=2cb0e818-0cd7-4b14-b3e2-a4fe86b5667b","ios":"levelo://app?vid=2cb0e818-0cd7-4b14-b3e2-a4fe86b5667b"},"vehicle_type_id":"4","last_reported":1727845812,"current_range_meters":36800,"station_id":"ce4bhf92rcd13ifvqf40","pricing_plan_id":"cebpf4jnsgd1na2vs0mg"},{"bike_id":"b02ce4ff-39f7-4817-a21b-8246f8c8e6c1","system_id":"levelo_inurba_marseille","lat":43.31119,"lon":5.37765,"is_reserved":false,"is_disabled":false,"rental_uris":{"android":"levelo://app?vid=b02ce4ff-39f7-4817-a21b-8246f8c8e6c1","ios":"levelo://app?vid=b02ce4ff-39f7-4817-a21b-8246f8c8e6c1"},"vehicle_type_id":"4","last_reported":1727845812,"current_range_meters":38400,"station_id":"ce4bgt92rcd13ifvqcg0","pricing_plan_id":"cebpf4jnsgd1na2vs0mg"},{"bike_id":"609844d3-402e-4c83-8b7f-d2093120cb67","system_id":"levelo_inurba_marseille","lat":43.32534,"lon":5.41443,"is_reserved":false,"is_disabled":false,"rental_uris":{"android":"levelo://app?vid=609844d3-402e-4c83-8b7f-d2093120cb67","ios":"levelo://app?vid=609844d3-402e-4c83-8b7f-d2093120cb67"},"vehicle_type_id":"4","last_reported":1727845812,"current_range_meters":36800,"station_id":"ce4bhq12rcd13ifvqhhg","pricing_plan_id":"cebpf4jnsgd1na2vs0mg"},{"bike_id":"6ee6d8bf-d19a-443d-a462-4df4ba42ccf2","system_id":"levelo_inurba_marseille","lat":43.25733,"lon":5.41107,"is_reserved":false,"is_disabled":false,"rental_uris":{"android":"levelo://app?vid=6ee6d8bf-d19a-443d-a462-4df4ba42ccf2","ios":"levelo://app?vid=6ee6d8bf-d19a-443d-a462-4df4ba42ccf2"},"vehicle_type_id":"4","last_reported":1727845812,"current_range_meters":38800,"station_id":"ce4bhkp2rcd13ifvqgd0","pricing_plan_id":"cebpf4jnsgd1na2vs0mg"},{"bike_id":"649b0ebd-72c1-4ccb-bdb5-0127394604e7","system_id":"levelo_inurba_marseille","lat":43.33612,"lon":5.41021,"is_reserved":false,"is_disabled":false,"rental_uris":{"android":"levelo://app?vid=649b0ebd-72c1-4ccb-bdb5-0127394604e7","ios":"levelo://app?vid=649b0ebd-72c1-4ccb-bdb5-0127394604e7"},"vehicle_type_id":"4","last_reported":1727845812,"current_range_meters":38400,"station_id":"ce4bhqh2rcd13ifvqhmg","pricing_plan_id":"cebpf4jnsgd1na2vs0mg"},{"bike_id":"342d6839-168e-4c4b-9389-b1f4214b5099","system_id":"levelo_inurba_marseille","lat":43.28704,"lon":5.39982,"is_reserved":false,"is_disabled":false,"rental_uris":{"android":"levelo://app?vid=342d6839-168e-4c4b-9389-b1f4214b5099","ios":"levelo://app?vid=342d6839-168e-4c4b-9389-b1f4214b5099"},"vehicle_type_id":"4","last_reported":1727845812,"current_range_meters":38800,"station_id":"ce4bho92rcd13ifvqh3g","pricing_plan_id":"cebpf4jnsgd1na2vs0mg"},{"bike_id":"3bcc095d-700a-4eb9-9793-f2e50d9b626e","system_id":"levelo_inurba_marseille","lat":43.29554,"lon":5.42278,"is_reserved":false,"is_disabled":false,"rental_uris":{"android":"levelo://app?vid=3bcc095d-700a-4eb9-9793-f2e50d9b626e","ios":"levelo://app?vid=3bcc095d-700a-4eb9-9793-f2e50d9b626e"},"vehicle_type_id":"4","last_reported":1727845812,"current_range_meters":37600,"station_id":"ce4bhph2rcd13ifvqhdg","pricing_plan_id":"cebpf4jnsgd1na2vs0mg"},{"bike_id":"9e6f82c5-7edd-4d61-8fe9-86f829a7226e","system_id":"levelo_inurba_marseille","lat":43.2315,"lon":5.43722,"is_reserved":false,"is_disabled":false,"rental_uris":{"android":"levelo://app?vid=9e6f82c5-7edd-4d61-8fe9-86f829a7226e","ios":"levelo://app?vid=9e6f82c5-7edd-4d61-8fe9-86f829a7226e"},"vehicle_type_id":"4","last_reported":1727845812,"current_range_meters":12800,"station_id":"ce4bhmp2rcd13ifvqgog","pricing_plan_id":"cebpf4jnsgd1na2vs0mg"},{"bike_id":"3997dd27-fc07-42d9-8b50-a60e20400007","system_id":"levelo_inurba_marseille","lat":43.27991,"lon":5.41658,"is_reserved":false,"is_disabled":false,"rental_uris":{"android":"levelo://app?vid=3997dd27-fc07-42d9-8b50-a60e20400007","ios":"levelo://app?vid=3997dd27-fc07-42d9-8b50-a60e20400007"},"vehicle_type_id":"4","last_reported":1727845812,"current_range_meters":38800,"station_id":"ce4bho12rcd13ifvqh1g","pricing_plan_id":"cebpf4jnsgd1na2vs0mg"},{"bike_id":"2efe889c-d7f9-441d-afae-d38011cb4d35","system_id":"levelo_inurba_marseille","lat":43.28451,"lon":5.35888,"is_reserved":false,"is_disabled":false,"rental_uris":{"android":"levelo://app?vid=2efe889c-d7f9-441d-afae-d38011cb4d35","ios":"levelo://app?vid=2efe889c-d7f9-441d-afae-d38011cb4d35"},"vehicle_type_id":"4","last_reported":1727845812,"current_range_meters":38800,"station_id":"ce4bhah2rcd13ifvqei0","pricing_plan_id":"cebpf4jnsgd1na2vs0mg"},{"bike_id":"05fea5b6-168c-4aec-ae13-ba3e0d274323","system_id":"levelo_inurba_marseille","lat":43.24178,"lon":5.39736,"is_reserved":false,"is_disabled":false,"rental_uris":{"android":"levelo://app?vid=05fea5b6-168c-4aec-ae13-ba3e0d274323","ios":"levelo://app?vid=05fea5b6-168c-4aec-ae13-ba3e0d274323"},"vehicle_type_id":"4","last_reported":1727845812,"current_range_meters":20000,"station_id":"ce4bhn12rcd13ifvqgpg","pricing_plan_id":"cebpf4jnsgd1na2vs0mg"},{"bike_id":"d633adbf-c648-466b-8c2c-9563678ba4d6","system_id":"levelo_inurba_marseille","lat":43.31501,"lon":5.37302,"is_reserved":false,"is_disabled":false,"rental_uris":{"android":"levelo://app?vid=d633adbf-c648-466b-8c2c-9563678ba4d6","ios":"levelo://app?vid=d633adbf-c648-466b-8c2c-9563678ba4d6"},"vehicle_type_id":"4","last_reported":1727845812,"current_range_meters":12800,"station_id":"ce4bgt12rcd13ifvqcd0","pricing_plan_id":"cebpf4jnsgd1na2vs0mg"},{"bike_id":"aae9a778-56fb-41da-990d-16fb4770a5a3","system_id":"levelo_inurba_marseille","lat":43.25576,"lon":5.38237,"is_reserved":false,"is_disabled":false,"rental_uris":{"android":"levelo://app?vid=aae9a778-56fb-41da-990d-16fb4770a5a3","ios":"levelo://app?vid=aae9a778-56fb-41da-990d-16fb4770a5a3"},"vehicle_type_id":"4","last_reported":1727845812,"current_range_meters":38800,"station_id":"ce4bhih2rcd13ifvqfs0","pricing_plan_id":"cebpf4jnsgd1na2vs0mg"},{"bike_id":"cc4d67ad-30d6-4ec4-9225-0aea9258758d","system_id":"levelo_inurba_marseille","lat":43.2919,"lon":5.35808,"is_reserved":false,"is_disabled":false,"rental_uris":{"android":"levelo://app?vid=cc4d67ad-30d6-4ec4-9225-0aea9258758d","ios":"levelo://app?vid=cc4d67ad-30d6-4ec4-9225-0aea9258758d"},"vehicle_type_id":"4","last_reported":1727845812,"current_range_meters":38800,"station_id":"ce4bhb12rcd13ifvqel0","pricing_plan_id":"cebpf4jnsgd1na2vs0mg"},{"bike_id":"c0930808-f56f-44c0-832d-f564381e4521","system_id":"levelo_inurba_marseille","lat":43.2781,"lon":5.40715,"is_reserved":false,"is_disabled":false,"rental_uris":{"android":"levelo://app?vid=c0930808-f56f-44c0-832d-f564381e4521","ios":"levelo://app?vid=c0930808-f56f-44c0-832d-f564381e4521"},"vehicle_type_id":"4","last_reported":1727845812,"current_range_meters":38400,"station_id":"ce4bhnh2rcd13ifvqgtg","pricing_plan_id":"cebpf4jnsgd1na2vs0mg"},{"bike_id":"8e160c7f-3a0b-4d22-9d6b-fd33004f5e98","system_id":"levelo_inurba_marseille","lat":43.24179,"lon":5.39732,"is_reserved":false,"is_disabled":false,"rental_uris":{"android":"levelo://app?vid=8e160c7f-3a0b-4d22-9d6b-fd33004f5e98","ios":"levelo://app?vid=8e160c7f-3a0b-4d22-9d6b-fd33004f5e98"},"vehicle_type_id":"4","last_reported":1727845812,"current_range_meters":38800,"station_id":"ce4bhn12rcd13ifvqgpg","pricing_plan_id":"cebpf4jnsgd1na2vs0mg"},{"bike_id":"6c05f302-12d0-4100-b4f1-ff2bc6f80530","system_id":"levelo_inurba_marseille","lat":43.30602,"lon":5.37219,"is_reserved":false,"is_disabled":false,"rental_uris":{"android":"levelo://app?vid=6c05f302-12d0-4100-b4f1-ff2bc6f80530","ios":"levelo://app?vid=6c05f302-12d0-4100-b4f1-ff2bc6f80530"},"vehicle_type_id":"4","last_reported":1727845812,"current_range_meters":39200,"station_id":"ce4bgqh2rcd13ifvqc4g","pricing_plan_id":"cebpf4jnsgd1na2vs0mg"},{"bike_id":"8087968d-3566-4acc-85fc-5c9fccf3ef88","system_id":"levelo_inurba_marseille","lat":43.27568,"lon":5.38415,"is_reserved":false,"is_disabled":false,"rental_uris":{"android":"levelo://app?vid=8087968d-3566-4acc-85fc-5c9fccf3ef88","ios":"levelo://app?vid=8087968d-3566-4acc-85fc-5c9fccf3ef88"},"vehicle_type_id":"4","last_reported":1727845812,"current_range_meters":38800,"station_id":"ce4bhh92rcd13ifvqfi0","pricing_plan_id":"cebpf4jnsgd1na2vs0mg"},{"bike_id":"de1e7b09-ca4b-4b48-a3fd-23a534e7333f","system_id":"levelo_inurba_marseille","lat":43.31753,"lon":5.39026,"is_reserved":false,"is_disabled":false,"rental_uris":{"android":"levelo://app?vid=de1e7b09-ca4b-4b48-a3fd-23a534e7333f","ios":"levelo://app?vid=de1e7b09-ca4b-4b48-a3fd-23a534e7333f"},"vehicle_type_id":"4","last_reported":1727845812,"current_range_meters":38800,"station_id":"ce4bhqp2rcd13ifvqhng","pricing_plan_id":"cebpf4jnsgd1na2vs0mg"},{"bike_id":"9c8586d4-27b7-469d-a70c-c733c2987ada","system_id":"levelo_inurba_marseille","lat":43.281,"lon":5.37847,"is_reserved":false,"is_disabled":false,"rental_uris":{"android":"levelo://app?vid=9c8586d4-27b7-469d-a70c-c733c2987ada","ios":"levelo://app?vid=9c8586d4-27b7-469d-a70c-c733c2987ada"},"vehicle_type_id":"4","last_reported":1727845812,"current_range_meters":38400,"station_id":"","pricing_plan_id":"cebpf4jnsgd1na2vs0mg"},{"bike_id":"db254dac-45f5-4132-9ca6-b0673a65c2b8","system_id":"levelo_inurba_marseille","lat":43.26493,"lon":5.39541,"is_reserved":false,"is_disabled":false,"rental_uris":{"android":"levelo://app?vid=db254dac-45f5-4132-9ca6-b0673a65c2b8","ios":"levelo://app?vid=db254dac-45f5-4132-9ca6-b0673a65c2b8"},"vehicle_type_id":"4","last_reported":1727845812,"current_range_meters":36800,"station_id":"ce4bhi12rcd13ifvqfq0","pricing_plan_id":"cebpf4jnsgd1na2vs0mg"},{"bike_id":"e954c728-b727-4cf6-a939-5b998b391c1e","system_id":"levelo_inurba_marseille","lat":43.24078,"lon":5.37748,"is_reserved":false,"is_disabled":false,"rental_uris":{"android":"levelo://app?vid=e954c728-b727-4cf6-a939-5b998b391c1e","ios":"levelo://app?vid=e954c728-b727-4cf6-a939-5b998b391c1e"},"vehicle_type_id":"4","last_reported":1727845812,"current_range_meters":38800,"station_id":"ce4bhnp2rcd13ifvqgvg","pricing_plan_id":"cebpf4jnsgd1na2vs0mg"},{"bike_id":"d4ee366f-491d-4484-8ef6-3ee33462286b","system_id":"levelo_inurba_marseille","lat":43.31688,"lon":5.40466,"is_reserved":false,"is_disabled":false,"rental_uris":{"android":"levelo://app?vid=d4ee366f-491d-4484-8ef6-3ee33462286b","ios":"levelo://app?vid=d4ee366f-491d-4484-8ef6-3ee33462286b"},"vehicle_type_id":"4","last_reported":1727845812,"current_range_meters":8800,"station_id":"","pricing_plan_id":"cebpf4jnsgd1na2vs0mg"},{"bike_id":"d7d91b57-6103-4f3d-8543-a4c8fe7881cd","system_id":"levelo_inurba_marseille","lat":43.29039,"lon":5.39966,"is_reserved":false,"is_disabled":false,"rental_uris":{"android":"levelo://app?vid=d7d91b57-6103-4f3d-8543-a4c8fe7881cd","ios":"levelo://app?vid=d7d91b57-6103-4f3d-8543-a4c8fe7881cd"},"vehicle_type_id":"4","last_reported":1727845812,"current_range_meters":32000,"station_id":"ce4bh392rcd13ifvqdm0","pricing_plan_id":"cebpf4jnsgd1na2vs0mg"},{"bike_id":"d74fb2ef-f814-4ca8-94df-c647e77cc523","system_id":"levelo_inurba_marseille","lat":43.28151,"lon":5.42647,"is_reserved":false,"is_disabled":false,"rental_uris":{"android":"levelo://app?vid=d74fb2ef-f814-4ca8-94df-c647e77cc523","ios":"levelo://app?vid=d74fb2ef-f814-4ca8-94df-c647e77cc523"},"vehicle_type_id":"4","last_reported":1727845812,"current_range_meters":38800,"station_id":"ce4bhnh2rcd13ifvqgug","pricing_plan_id":"cebpf4jnsgd1na2vs0mg"},{"bike_id":"2ae79f09-d280-47e8-864e-c5ffdd4f6c88","system_id":"levelo_inurba_marseille","lat":43.28572,"lon":5.39495,"is_reserved":false,"is_disabled":false,"rental_uris":{"android":"levelo://app?vid=2ae79f09-d280-47e8-864e-c5ffdd4f6c88","ios":"levelo://app?vid=2ae79f09-d280-47e8-864e-c5ffdd4f6c88"},"vehicle_type_id":"4","last_reported":1727845812,"current_range_meters":24000,"station_id":"ce4bh292rcd13ifvqdg0","pricing_plan_id":"cebpf4jnsgd1na2vs0mg"},{"bike_id":"98796747-ed9b-4562-a96c-8ab785ac535f","system_id":"levelo_inurba_marseille","lat":43.31068,"lon":5.38358,"is_reserved":false,"is_disabled":false,"rental_uris":{"android":"levelo://app?vid=98796747-ed9b-4562-a96c-8ab785ac535f","ios":"levelo://app?vid=98796747-ed9b-4562-a96c-8ab785ac535f"},"vehicle_type_id":"4","last_reported":1727845812,"current_range_meters":26000,"station_id":"ce4bgv92rcd13ifvqcr0","pricing_plan_id":"cebpf4jnsgd1na2vs0mg"},{"bike_id":"1ef5589b-3f77-4b59-93f4-be8b2b45d9ef","system_id":"levelo_inurba_marseille","lat":43.26941,"lon":5.40254,"is_reserved":false,"is_disabled":false,"rental_uris":{"android":"levelo://app?vid=1ef5589b-3f77-4b59-93f4-be8b2b45d9ef","ios":"levelo://app?vid=1ef5589b-3f77-4b59-93f4-be8b2b45d9ef"},"vehicle_type_id":"4","last_reported":1727845812,"current_range_meters":10000,"station_id":"cjm6bp8fraef2m0cb0m0","pricing_plan_id":"cebpf4jnsgd1na2vs0mg"},{"bike_id":"52f96dfb-9ddf-4085-ac6a-650cf2c85d4b","system_id":"levelo_inurba_marseille","lat":43.25124,"lon":5.4032,"is_reserved":false,"is_disabled":false,"rental_uris":{"android":"levelo://app?vid=52f96dfb-9ddf-4085-ac6a-650cf2c85d4b","ios":"levelo://app?vid=52f96dfb-9ddf-4085-ac6a-650cf2c85d4b"},"vehicle_type_id":"4","last_reported":1727845812,"current_range_meters":36400,"station_id":"ce4bhlh2rcd13ifvqgig","pricing_plan_id":"cebpf4jnsgd1na2vs0mg"},{"bike_id":"e39cd6f1-548c-400d-9f96-bf8b0c294a2d","system_id":"levelo_inurba_marseille","lat":43.24076,"lon":5.37741,"is_reserved":false,"is_disabled":false,"rental_uris":{"android":"levelo://app?vid=e39cd6f1-548c-400d-9f96-bf8b0c294a2d","ios":"levelo://app?vid=e39cd6f1-548c-400d-9f96-bf8b0c294a2d"},"vehicle_type_id":"4","last_reported":1727845812,"current_range_meters":9200,"station_id":"ce4bhnp2rcd13ifvqgvg","pricing_plan_id":"cebpf4jnsgd1na2vs0mg"},{"bike_id":"3baa6935-96c4-4261-90b6-046b87419675","system_id":"levelo_inurba_marseille","lat":43.3107,"lon":5.38345,"is_reserved":false,"is_disabled":false,"rental_uris":{"android":"levelo://app?vid=3baa6935-96c4-4261-90b6-046b87419675","ios":"levelo://app?vid=3baa6935-96c4-4261-90b6-046b87419675"},"vehicle_type_id":"4","last_reported":1727845812,"current_range_meters":38400,"station_id":"ce4bgv92rcd13ifvqcr0","pricing_plan_id":"cebpf4jnsgd1na2vs0mg"},{"bike_id":"507aca41-3be7-4755-877d-c4a3fbef9610","system_id":"levelo_inurba_marseille","lat":43.23152,"lon":5.43707,"is_reserved":false,"is_disabled":false,"rental_uris":{"android":"levelo://app?vid=507aca41-3be7-4755-877d-c4a3fbef9610","ios":"levelo://app?vid=507aca41-3be7-4755-877d-c4a3fbef9610"},"vehicle_type_id":"4","last_reported":1727845812,"current_range_meters":18000,"station_id":"ce4bhmp2rcd13ifvqgog","pricing_plan_id":"cebpf4jnsgd1na2vs0mg"},{"bike_id":"3de6e063-d170-445d-99e6-b76ac33be872","system_id":"levelo_inurba_marseille","lat":43.23157,"lon":5.43697,"is_reserved":false,"is_disabled":false,"rental_uris":{"android":"levelo://app?vid=3de6e063-d170-445d-99e6-b76ac33be872","ios":"levelo://app?vid=3de6e063-d170-445d-99e6-b76ac33be872"},"vehicle_type_id":"4","last_reported":1727845812,"current_range_meters":18800,"station_id":"ce4bhmp2rcd13ifvqgog","pricing_plan_id":"cebpf4jnsgd1na2vs0mg"},{"bike_id":"97e51c0e-64f8-4ffc-97e9-8ff5d02f96b0","system_id":"levelo_inurba_marseille","lat":43.28706,"lon":5.39979,"is_reserved":false,"is_disabled":false,"rental_uris":{"android":"levelo://app?vid=97e51c0e-64f8-4ffc-97e9-8ff5d02f96b0","ios":"levelo://app?vid=97e51c0e-64f8-4ffc-97e9-8ff5d02f96b0"},"vehicle_type_id":"4","last_reported":1727845812,"current_range_meters":28800,"station_id":"ce4bho92rcd13ifvqh3g","pricing_plan_id":"cebpf4jnsgd1na2vs0mg"},{"bike_id":"f09c731c-5c02-47d4-ad6f-4b608712d763","system_id":"levelo_inurba_marseille","lat":43.27185,"lon":5.40988,"is_reserved":false,"is_disabled":false,"rental_uris":{"android":"levelo://app?vid=f09c731c-5c02-47d4-ad6f-4b608712d763","ios":"levelo://app?vid=f09c731c-5c02-47d4-ad6f-4b608712d763"},"vehicle_type_id":"4","last_reported":1727845812,"current_range_meters":24400,"station_id":"ce4bhl12rcd13ifvqgf0","pricing_plan_id":"cebpf4jnsgd1na2vs0mg"},{"bike_id":"2db2135c-b728-4c6a-a7c1-37d20fc88d62","system_id":"levelo_inurba_marseille","lat":43.32031,"lon":5.41559,"is_reserved":false,"is_disabled":false,"rental_uris":{"android":"levelo://app?vid=2db2135c-b728-4c6a-a7c1-37d20fc88d62","ios":"levelo://app?vid=2db2135c-b728-4c6a-a7c1-37d20fc88d62"},"vehicle_type_id":"4","last_reported":1727845812,"current_range_meters":39200,"station_id":"ce4bhq92rcd13ifvqhkg","pricing_plan_id":"cebpf4jnsgd1na2vs0mg"},{"bike_id":"134a88fb-c4a2-4650-a0e7-749ffca99de4","system_id":"levelo_inurba_marseille","lat":43.27907,"lon":5.3956,"is_reserved":false,"is_disabled":false,"rental_uris":{"android":"levelo://app?vid=134a88fb-c4a2-4650-a0e7-749ffca99de4","ios":"levelo://app?vid=134a88fb-c4a2-4650-a0e7-749ffca99de4"},"vehicle_type_id":"4","last_reported":1727845812,"current_range_meters":37600,"station_id":"ce4bhf92rcd13ifvqf40","pricing_plan_id":"cebpf4jnsgd1na2vs0mg"},{"bike_id":"f8f518e3-bd48-40f5-801a-4ead88758ee2","system_id":"levelo_inurba_marseille","lat":43.32112,"lon":5.36771,"is_reserved":false,"is_disabled":false,"rental_uris":{"android":"levelo://app?vid=f8f518e3-bd48-40f5-801a-4ead88758ee2","ios":"levelo://app?vid=f8f518e3-bd48-40f5-801a-4ead88758ee2"},"vehicle_type_id":"4","last_reported":1727845812,"current_range_meters":10800,"station_id":"ce4bhrh2rcd13ifvqhug","pricing_plan_id":"cebpf4jnsgd1na2vs0mg"},{"bike_id":"6a45f6fd-9fea-4138-9229-bd8600390f1a","system_id":"levelo_inurba_marseille","lat":43.29634,"lon":5.40603,"is_reserved":false,"is_disabled":false,"rental_uris":{"android":"levelo://app?vid=6a45f6fd-9fea-4138-9229-bd8600390f1a","ios":"levelo://app?vid=6a45f6fd-9fea-4138-9229-bd8600390f1a"},"vehicle_type_id":"4","last_reported":1727845812,"current_range_meters":38800,"station_id":"ce4bh0h2rcd13ifvqd60","pricing_plan_id":"cebpf4jnsgd1na2vs0mg"},{"bike_id":"6d171952-8646-46b5-bd60-3234337f3603","system_id":"levelo_inurba_marseille","lat":43.32044,"lon":5.41576,"is_reserved":false,"is_disabled":false,"rental_uris":{"android":"levelo://app?vid=6d171952-8646-46b5-bd60-3234337f3603","ios":"levelo://app?vid=6d171952-8646-46b5-bd60-3234337f3603"},"vehicle_type_id":"4","last_reported":1727845812,"current_range_meters":38800,"station_id":"ce4bhq92rcd13ifvqhkg","pricing_plan_id":"cebpf4jnsgd1na2vs0mg"},{"bike_id":"2def81ca-9886-4391-9ee8-c6ea94127750","system_id":"levelo_inurba_marseille","lat":43.27069,"lon":5.4228,"is_reserved":false,"is_disabled":false,"rental_uris":{"android":"levelo://app?vid=2def81ca-9886-4391-9ee8-c6ea94127750","ios":"levelo://app?vid=2def81ca-9886-4391-9ee8-c6ea94127750"},"vehicle_type_id":"4","last_reported":1727845812,"current_range_meters":38800,"station_id":"ce4bhk92rcd13ifvqgb0","pricing_plan_id":"cebpf4jnsgd1na2vs0mg"},{"bike_id":"ea93fcf4-b5e9-40c1-b370-a567f9b54856","system_id":"levelo_inurba_marseille","lat":43.28961,"lon":5.39701,"is_reserved":false,"is_disabled":false,"rental_uris":{"android":"levelo://app?vid=ea93fcf4-b5e9-40c1-b370-a567f9b54856","ios":"levelo://app?vid=ea93fcf4-b5e9-40c1-b370-a567f9b54856"},"vehicle_type_id":"4","last_reported":1727845812,"current_range_meters":30000,"station_id":"","pricing_plan_id":"cebpf4jnsgd1na2vs0mg"},{"bike_id":"364c1297-b2bd-4bf6-ac6d-3b9694b62af6","system_id":"levelo_inurba_marseille","lat":43.26804,"lon":5.40264,"is_reserved":false,"is_disabled":false,"rental_uris":{"android":"levelo://app?vid=364c1297-b2bd-4bf6-ac6d-3b9694b62af6","ios":"levelo://app?vid=364c1297-b2bd-4bf6-ac6d-3b9694b62af6"},"vehicle_type_id":"4","last_reported":1727845812,"current_range_meters":38800,"station_id":"ce501612rcd8frsf0b60","pricing_plan_id":"cebpf4jnsgd1na2vs0mg"},{"bike_id":"d1fd22c9-724e-4047-974b-0b6e64659788","system_id":"levelo_inurba_marseille","lat":43.30774,"lon":5.37654,"is_reserved":false,"is_disabled":false,"rental_uris":{"android":"levelo://app?vid=d1fd22c9-724e-4047-974b-0b6e64659788","ios":"levelo://app?vid=d1fd22c9-724e-4047-974b-0b6e64659788"},"vehicle_type_id":"4","last_reported":1727845812,"current_range_meters":11200,"station_id":"ce4bgv92rcd13ifvqcq0","pricing_plan_id":"cebpf4jnsgd1na2vs0mg"},{"bike_id":"a7cd8a41-b4e8-4261-b35d-8d7fc80eefc3","system_id":"levelo_inurba_marseille","lat":43.30594,"lon":5.3935,"is_reserved":false,"is_disabled":false,"rental_uris":{"android":"levelo://app?vid=a7cd8a41-b4e8-4261-b35d-8d7fc80eefc3","ios":"levelo://app?vid=a7cd8a41-b4e8-4261-b35d-8d7fc80eefc3"},"vehicle_type_id":"4","last_reported":1727845812,"current_range_meters":33200,"station_id":"ce4bh0p2rcd13ifvqd80","pricing_plan_id":"cebpf4jnsgd1na2vs0mg"},{"bike_id":"18f0ebb9-80ba-4131-b0ed-701fab87af48","system_id":"levelo_inurba_marseille","lat":43.31169,"lon":5.38714,"is_reserved":false,"is_disabled":false,"rental_uris":{"android":"levelo://app?vid=18f0ebb9-80ba-4131-b0ed-701fab87af48","ios":"levelo://app?vid=18f0ebb9-80ba-4131-b0ed-701fab87af48"},"vehicle_type_id":"4","last_reported":1727845812,"current_range_meters":38800,"station_id":"ce4bgv12rcd13ifvqcp0","pricing_plan_id":"cebpf4jnsgd1na2vs0mg"},{"bike_id":"ff0c3ffe-a45a-4d7c-a518-9099eb9d2e67","system_id":"levelo_inurba_marseille","lat":43.29248,"lon":5.40916,"is_reserved":false,"is_disabled":false,"rental_uris":{"android":"levelo://app?vid=ff0c3ffe-a45a-4d7c-a518-9099eb9d2e67","ios":"levelo://app?vid=ff0c3ffe-a45a-4d7c-a518-9099eb9d2e67"},"vehicle_type_id":"4","last_reported":1727845812,"current_range_meters":37600,"station_id":"ce4bh192rcd13ifvqdc0","pricing_plan_id":"cebpf4jnsgd1na2vs0mg"},{"bike_id":"c93f410b-f930-47a0-ac39-acca8834b648","system_id":"levelo_inurba_marseille","lat":43.26504,"lon":5.39547,"is_reserved":false,"is_disabled":false,"rental_uris":{"android":"levelo://app?vid=c93f410b-f930-47a0-ac39-acca8834b648","ios":"levelo://app?vid=c93f410b-f930-47a0-ac39-acca8834b648"},"vehicle_type_id":"4","last_reported":1727845812,"current_range_meters":38000,"station_id":"ce4bhi12rcd13ifvqfq0","pricing_plan_id":"cebpf4jnsgd1na2vs0mg"},{"bike_id":"480c0361-ae68-49da-a8bb-b26f4d368c0c","system_id":"levelo_inurba_marseille","lat":43.30463,"lon":5.37904,"is_reserved":false,"is_disabled":false,"rental_uris":{"android":"levelo://app?vid=480c0361-ae68-49da-a8bb-b26f4d368c0c","ios":"levelo://app?vid=480c0361-ae68-49da-a8bb-b26f4d368c0c"},"vehicle_type_id":"4","last_reported":1727845812,"current_range_meters":30800,"station_id":"ce4bgup2rcd13ifvqcn0","pricing_plan_id":"cebpf4jnsgd1na2vs0mg"},{"bike_id":"c0726d95-92ce-4d02-ad3e-566e7d2b5f43","system_id":"levelo_inurba_marseille","lat":43.28104,"lon":5.37839,"is_reserved":false,"is_disabled":false,"rental_uris":{"android":"levelo://app?vid=c0726d95-92ce-4d02-ad3e-566e7d2b5f43","ios":"levelo://app?vid=c0726d95-92ce-4d02-ad3e-566e7d2b5f43"},"vehicle_type_id":"4","last_reported":1727845812,"current_range_meters":38800,"station_id":"ce4bha12rcd13ifvqee0","pricing_plan_id":"cebpf4jnsgd1na2vs0mg"},{"bike_id":"e66e6ac0-6116-429a-a746-391fb59fc967","system_id":"levelo_inurba_marseille","lat":43.295683,"lon":5.399755,"is_reserved":false,"is_disabled":false,"rental_uris":{"android":"levelo://app?vid=e66e6ac0-6116-429a-a746-391fb59fc967","ios":"levelo://app?vid=e66e6ac0-6116-429a-a746-391fb59fc967"},"vehicle_type_id":"4","last_reported":1727845812,"current_range_meters":37600,"station_id":"ce4bh312rcd13ifvqdj0","pricing_plan_id":"cebpf4jnsgd1na2vs0mg"},{"bike_id":"3484e591-7135-4cf2-bf8f-79af031773fe","system_id":"levelo_inurba_marseille","lat":43.29912,"lon":5.37466,"is_reserved":false,"is_disabled":false,"rental_uris":{"android":"levelo://app?vid=3484e591-7135-4cf2-bf8f-79af031773fe","ios":"levelo://app?vid=3484e591-7135-4cf2-bf8f-79af031773fe"},"vehicle_type_id":"4","last_reported":1727845812,"current_range_meters":31200,"station_id":"ce4bgjh2rcd13ifvqbg0","pricing_plan_id":"cebpf4jnsgd1na2vs0mg"},{"bike_id":"bc53e0b5-cbb9-4c3e-83f6-dbe3fa65662e","system_id":"levelo_inurba_marseille","lat":43.32028,"lon":5.41579,"is_reserved":false,"is_disabled":false,"rental_uris":{"android":"levelo://app?vid=bc53e0b5-cbb9-4c3e-83f6-dbe3fa65662e","ios":"levelo://app?vid=bc53e0b5-cbb9-4c3e-83f6-dbe3fa65662e"},"vehicle_type_id":"4","last_reported":1727845812,"current_range_meters":38000,"station_id":"ce4bhq92rcd13ifvqhkg","pricing_plan_id":"cebpf4jnsgd1na2vs0mg"},{"bike_id":"3375e05b-1315-4c90-a181-1bef544bd0c4","system_id":"levelo_inurba_marseille","lat":43.31534,"lon":5.38029,"is_reserved":false,"is_disabled":false,"rental_uris":{"android":"levelo://app?vid=3375e05b-1315-4c90-a181-1bef544bd0c4","ios":"levelo://app?vid=3375e05b-1315-4c90-a181-1bef544bd0c4"},"vehicle_type_id":"4","last_reported":1727845812,"current_range_meters":24000,"station_id":"ce4bhsp2rcd13ifvqi50","pricing_plan_id":"cebpf4jnsgd1na2vs0mg"},{"bike_id":"78863aa1-ed71-4955-9c54-509cc7bf9e19","system_id":"levelo_inurba_marseille","lat":43.30717,"lon":5.38043,"is_reserved":false,"is_disabled":false,"rental_uris":{"android":"levelo://app?vid=78863aa1-ed71-4955-9c54-509cc7bf9e19","ios":"levelo://app?vid=78863aa1-ed71-4955-9c54-509cc7bf9e19"},"vehicle_type_id":"4","last_reported":1727845812,"current_range_meters":20800,"station_id":"","pricing_plan_id":"cebpf4jnsgd1na2vs0mg"},{"bike_id":"dc03e946-be64-435d-a6e2-304d0c9f3ef5","system_id":"levelo_inurba_marseille","lat":43.31531,"lon":5.38028,"is_reserved":false,"is_disabled":false,"rental_uris":{"android":"levelo://app?vid=dc03e946-be64-435d-a6e2-304d0c9f3ef5","ios":"levelo://app?vid=dc03e946-be64-435d-a6e2-304d0c9f3ef5"},"vehicle_type_id":"4","last_reported":1727845812,"current_range_meters":39200,"station_id":"ce4bhsp2rcd13ifvqi50","pricing_plan_id":"cebpf4jnsgd1na2vs0mg"},{"bike_id":"bf7ae5ba-7674-46bf-8c61-9ffd920fd771","system_id":"levelo_inurba_marseille","lat":43.30317,"lon":5.40444,"is_reserved":false,"is_disabled":false,"rental_uris":{"android":"levelo://app?vid=bf7ae5ba-7674-46bf-8c61-9ffd920fd771","ios":"levelo://app?vid=bf7ae5ba-7674-46bf-8c61-9ffd920fd771"},"vehicle_type_id":"4","last_reported":1727845812,"current_range_meters":35200,"station_id":"ce4bh012rcd13ifvqd10","pricing_plan_id":"cebpf4jnsgd1na2vs0mg"},{"bike_id":"d995d233-d2fe-4db9-b69b-baa1337469bf","system_id":"levelo_inurba_marseille","lat":43.26751,"lon":5.40229,"is_reserved":false,"is_disabled":false,"rental_uris":{"android":"levelo://app?vid=d995d233-d2fe-4db9-b69b-baa1337469bf","ios":"levelo://app?vid=d995d233-d2fe-4db9-b69b-baa1337469bf"},"vehicle_type_id":"4","last_reported":1727845812,"current_range_meters":10800,"station_id":"ce4bhm92rcd13ifvqglg","pricing_plan_id":"cebpf4jnsgd1na2vs0mg"},{"bike_id":"13735882-26b3-46c8-8ce1-152b872c0b92","system_id":"levelo_inurba_marseille","lat":43.29888,"lon":5.39742,"is_reserved":false,"is_disabled":false,"rental_uris":{"android":"levelo://app?vid=13735882-26b3-46c8-8ce1-152b872c0b92","ios":"levelo://app?vid=13735882-26b3-46c8-8ce1-152b872c0b92"},"vehicle_type_id":"4","last_reported":1727845812,"current_range_meters":38000,"station_id":"ce4bh0h2rcd13ifvqd50","pricing_plan_id":"cebpf4jnsgd1na2vs0mg"},{"bike_id":"3ddf769c-c1f4-4c07-a643-d89d6207fa69","system_id":"levelo_inurba_marseille","lat":43.26685,"lon":5.38277,"is_reserved":false,"is_disabled":false,"rental_uris":{"android":"levelo://app?vid=3ddf769c-c1f4-4c07-a643-d89d6207fa69","ios":"levelo://app?vid=3ddf769c-c1f4-4c07-a643-d89d6207fa69"},"vehicle_type_id":"4","last_reported":1727845812,"current_range_meters":34000,"station_id":"ce4bhg92rcd13ifvqf90","pricing_plan_id":"cebpf4jnsgd1na2vs0mg"},{"bike_id":"9ae55583-61da-4955-afe0-934f7c2a6fdd","system_id":"levelo_inurba_marseille","lat":43.24647,"lon":5.38896,"is_reserved":false,"is_disabled":false,"rental_uris":{"android":"levelo://app?vid=9ae55583-61da-4955-afe0-934f7c2a6fdd","ios":"levelo://app?vid=9ae55583-61da-4955-afe0-934f7c2a6fdd"},"vehicle_type_id":"4","last_reported":1727845812,"current_range_meters":38800,"station_id":"ce4bhg12rcd13ifvqf60","pricing_plan_id":"cebpf4jnsgd1na2vs0mg"},{"bike_id":"9e0f8531-ac87-4939-876c-6806e8dfeda9","system_id":"levelo_inurba_marseille","lat":43.23153,"lon":5.43716,"is_reserved":false,"is_disabled":false,"rental_uris":{"android":"levelo://app?vid=9e0f8531-ac87-4939-876c-6806e8dfeda9","ios":"levelo://app?vid=9e0f8531-ac87-4939-876c-6806e8dfeda9"},"vehicle_type_id":"4","last_reported":1727845812,"current_range_meters":8800,"station_id":"ce4bhmp2rcd13ifvqgog","pricing_plan_id":"cebpf4jnsgd1na2vs0mg"},{"bike_id":"c5eb70be-602f-4124-93c5-6e2097d0a344","system_id":"levelo_inurba_marseille","lat":43.31367,"lon":5.38493,"is_reserved":false,"is_disabled":false,"rental_uris":{"android":"levelo://app?vid=c5eb70be-602f-4124-93c5-6e2097d0a344","ios":"levelo://app?vid=c5eb70be-602f-4124-93c5-6e2097d0a344"},"vehicle_type_id":"4","last_reported":1727845812,"current_range_meters":36400,"station_id":"ce4bgt92rcd13ifvqcf0","pricing_plan_id":"cebpf4jnsgd1na2vs0mg"},{"bike_id":"920ae6e9-b10c-40c5-83b8-cbf54d4d5138","system_id":"levelo_inurba_marseille","lat":43.32061,"lon":5.41577,"is_reserved":false,"is_disabled":false,"rental_uris":{"android":"levelo://app?vid=920ae6e9-b10c-40c5-83b8-cbf54d4d5138","ios":"levelo://app?vid=920ae6e9-b10c-40c5-83b8-cbf54d4d5138"},"vehicle_type_id":"4","last_reported":1727845812,"current_range_meters":16800,"station_id":"ce4bhq92rcd13ifvqhkg","pricing_plan_id":"cebpf4jnsgd1na2vs0mg"},{"bike_id":"7c8e102b-8729-45dd-a2e0-c8af2fc278ec","system_id":"levelo_inurba_marseille","lat":43.25117,"lon":5.40318,"is_reserved":false,"is_disabled":false,"rental_uris":{"android":"levelo://app?vid=7c8e102b-8729-45dd-a2e0-c8af2fc278ec","ios":"levelo://app?vid=7c8e102b-8729-45dd-a2e0-c8af2fc278ec"},"vehicle_type_id":"4","last_reported":1727845812,"current_range_meters":3600,"station_id":"ce4bhlh2rcd13ifvqgig","pricing_plan_id":"cebpf4jnsgd1na2vs0mg"},{"bike_id":"009ea4a6-0561-421e-8a2c-1845d149d45a","system_id":"levelo_inurba_marseille","lat":43.30466,"lon":5.37893,"is_reserved":false,"is_disabled":false,"rental_uris":{"android":"levelo://app?vid=009ea4a6-0561-421e-8a2c-1845d149d45a","ios":"levelo://app?vid=009ea4a6-0561-421e-8a2c-1845d149d45a"},"vehicle_type_id":"4","last_reported":1727845812,"current_range_meters":8800,"station_id":"ce4bgup2rcd13ifvqcn0","pricing_plan_id":"cebpf4jnsgd1na2vs0mg"},{"bike_id":"b652f429-09b8-4697-9c1b-3b9adc3c55d8","system_id":"levelo_inurba_marseille","lat":43.26871,"lon":5.39135,"is_reserved":false,"is_disabled":false,"rental_uris":{"android":"levelo://app?vid=b652f429-09b8-4697-9c1b-3b9adc3c55d8","ios":"levelo://app?vid=b652f429-09b8-4697-9c1b-3b9adc3c55d8"},"vehicle_type_id":"4","last_reported":1727845812,"current_range_meters":3200,"station_id":"","pricing_plan_id":"cebpf4jnsgd1na2vs0mg"},{"bike_id":"61a947e1-a421-40aa-a820-d6e19a6f0fe4","system_id":"levelo_inurba_marseille","lat":43.31715,"lon":5.42398,"is_reserved":false,"is_disabled":false,"rental_uris":{"android":"levelo://app?vid=61a947e1-a421-40aa-a820-d6e19a6f0fe4","ios":"levelo://app?vid=61a947e1-a421-40aa-a820-d6e19a6f0fe4"},"vehicle_type_id":"4","last_reported":1727845812,"current_range_meters":38800,"station_id":"ce4bhp92rcd13ifvqhbg","pricing_plan_id":"cebpf4jnsgd1na2vs0mg"},{"bike_id":"f63a0315-66c7-431d-9b04-c6d43fc0cc07","system_id":"levelo_inurba_marseille","lat":43.26499,"lon":5.39543,"is_reserved":false,"is_disabled":false,"rental_uris":{"android":"levelo://app?vid=f63a0315-66c7-431d-9b04-c6d43fc0cc07","ios":"levelo://app?vid=f63a0315-66c7-431d-9b04-c6d43fc0cc07"},"vehicle_type_id":"4","last_reported":1727845812,"current_range_meters":38800,"station_id":"ce4bhi12rcd13ifvqfq0","pricing_plan_id":"cebpf4jnsgd1na2vs0mg"},{"bike_id":"be8e92ca-9b24-4ee5-8ca2-bb0ca7e20306","system_id":"levelo_inurba_marseille","lat":43.26501,"lon":5.39546,"is_reserved":false,"is_disabled":false,"rental_uris":{"android":"levelo://app?vid=be8e92ca-9b24-4ee5-8ca2-bb0ca7e20306","ios":"levelo://app?vid=be8e92ca-9b24-4ee5-8ca2-bb0ca7e20306"},"vehicle_type_id":"4","last_reported":1727845812,"current_range_meters":4400,"station_id":"ce4bhi12rcd13ifvqfq0","pricing_plan_id":"cebpf4jnsgd1na2vs0mg"},{"bike_id":"1cbb5b9f-27fd-4647-944e-96013dabaee7","system_id":"levelo_inurba_marseille","lat":43.31759,"lon":5.39011,"is_reserved":false,"is_disabled":false,"rental_uris":{"android":"levelo://app?vid=1cbb5b9f-27fd-4647-944e-96013dabaee7","ios":"levelo://app?vid=1cbb5b9f-27fd-4647-944e-96013dabaee7"},"vehicle_type_id":"4","last_reported":1727845812,"current_range_meters":38000,"station_id":"ce4bhqp2rcd13ifvqhng","pricing_plan_id":"cebpf4jnsgd1na2vs0mg"},{"bike_id":"cc334f47-266c-4194-bd67-059ec0658e9f","system_id":"levelo_inurba_marseille","lat":43.3127,"lon":5.40173,"is_reserved":false,"is_disabled":false,"rental_uris":{"android":"levelo://app?vid=cc334f47-266c-4194-bd67-059ec0658e9f","ios":"levelo://app?vid=cc334f47-266c-4194-bd67-059ec0658e9f"},"vehicle_type_id":"4","last_reported":1727845812,"current_range_meters":38800,"station_id":"ce4bh092rcd13ifvqd30","pricing_plan_id":"cebpf4jnsgd1na2vs0mg"},{"bike_id":"c64ff189-4dfb-413c-893e-267f264e37e2","system_id":"levelo_inurba_marseille","lat":43.29628,"lon":5.4059,"is_reserved":false,"is_disabled":false,"rental_uris":{"android":"levelo://app?vid=c64ff189-4dfb-413c-893e-267f264e37e2","ios":"levelo://app?vid=c64ff189-4dfb-413c-893e-267f264e37e2"},"vehicle_type_id":"4","last_reported":1727845812,"current_range_meters":38800,"station_id":"ce4bh0h2rcd13ifvqd60","pricing_plan_id":"cebpf4jnsgd1na2vs0mg"},{"bike_id":"d4c26f9a-1080-4999-bf2c-e944fa58d3ff","system_id":"levelo_inurba_marseille","lat":43.287,"lon":5.39984,"is_reserved":false,"is_disabled":false,"rental_uris":{"android":"levelo://app?vid=d4c26f9a-1080-4999-bf2c-e944fa58d3ff","ios":"levelo://app?vid=d4c26f9a-1080-4999-bf2c-e944fa58d3ff"},"vehicle_type_id":"4","last_reported":1727845812,"current_range_meters":28400,"station_id":"ce4bho92rcd13ifvqh3g","pricing_plan_id":"cebpf4jnsgd1na2vs0mg"},{"bike_id":"4f2db1d7-0354-4715-b08e-7421c6196cab","system_id":"levelo_inurba_marseille","lat":43.30453,"lon":5.3791,"is_reserved":false,"is_disabled":false,"rental_uris":{"android":"levelo://app?vid=4f2db1d7-0354-4715-b08e-7421c6196cab","ios":"levelo://app?vid=4f2db1d7-0354-4715-b08e-7421c6196cab"},"vehicle_type_id":"4","last_reported":1727845812,"current_range_meters":30000,"station_id":"ce4bgup2rcd13ifvqcn0","pricing_plan_id":"cebpf4jnsgd1na2vs0mg"},{"bike_id":"43ec8304-b11c-44d9-9f47-bc865890f14a","system_id":"levelo_inurba_marseille","lat":43.2509,"lon":5.39516,"is_reserved":false,"is_disabled":false,"rental_uris":{"android":"levelo://app?vid=43ec8304-b11c-44d9-9f47-bc865890f14a","ios":"levelo://app?vid=43ec8304-b11c-44d9-9f47-bc865890f14a"},"vehicle_type_id":"4","last_reported":1727845812,"current_range_meters":12000,"station_id":"ce4bhm12rcd13ifvqgkg","pricing_plan_id":"cebpf4jnsgd1na2vs0mg"},{"bike_id":"aa3f7887-67de-4c79-a3f5-a73bf8411118","system_id":"levelo_inurba_marseille","lat":43.29116,"lon":5.38537,"is_reserved":false,"is_disabled":false,"rental_uris":{"android":"levelo://app?vid=aa3f7887-67de-4c79-a3f5-a73bf8411118","ios":"levelo://app?vid=aa3f7887-67de-4c79-a3f5-a73bf8411118"},"vehicle_type_id":"4","last_reported":1727845812,"current_range_meters":16000,"station_id":"","pricing_plan_id":"cebpf4jnsgd1na2vs0mg"},{"bike_id":"0726aaf9-3448-465a-8d21-944ad6140277","system_id":"levelo_inurba_marseille","lat":43.31365,"lon":5.38492,"is_reserved":false,"is_disabled":false,"rental_uris":{"android":"levelo://app?vid=0726aaf9-3448-465a-8d21-944ad6140277","ios":"levelo://app?vid=0726aaf9-3448-465a-8d21-944ad6140277"},"vehicle_type_id":"4","last_reported":1727845812,"current_range_meters":16400,"station_id":"ce4bgt92rcd13ifvqcf0","pricing_plan_id":"cebpf4jnsgd1na2vs0mg"},{"bike_id":"e5f61d33-8415-4a03-ae60-f12eae9e325c","system_id":"levelo_inurba_marseille","lat":43.28037,"lon":5.36951,"is_reserved":false,"is_disabled":false,"rental_uris":{"android":"levelo://app?vid=e5f61d33-8415-4a03-ae60-f12eae9e325c","ios":"levelo://app?vid=e5f61d33-8415-4a03-ae60-f12eae9e325c"},"vehicle_type_id":"4","last_reported":1727845812,"current_range_meters":37600,"station_id":"ce4bha12rcd13ifvqef0","pricing_plan_id":"cebpf4jnsgd1na2vs0mg"},{"bike_id":"0d0c09c7-e409-4059-95eb-e2007a7f7fa5","system_id":"levelo_inurba_marseille","lat":43.335571,"lon":5.41026,"is_reserved":false,"is_disabled":false,"rental_uris":{"android":"levelo://app?vid=0d0c09c7-e409-4059-95eb-e2007a7f7fa5","ios":"levelo://app?vid=0d0c09c7-e409-4059-95eb-e2007a7f7fa5"},"vehicle_type_id":"4","last_reported":1727845812,"current_range_meters":8000,"station_id":"ce4bhqh2rcd13ifvqhmg","pricing_plan_id":"cebpf4jnsgd1na2vs0mg"},{"bike_id":"152be7fe-903a-4137-9bfe-6e779d55c33f","system_id":"levelo_inurba_marseille","lat":43.26807,"lon":5.40266,"is_reserved":false,"is_disabled":false,"rental_uris":{"android":"levelo://app?vid=152be7fe-903a-4137-9bfe-6e779d55c33f","ios":"levelo://app?vid=152be7fe-903a-4137-9bfe-6e779d55c33f"},"vehicle_type_id":"4","last_reported":1727845812,"current_range_meters":20800,"station_id":"ce501612rcd8frsf0b60","pricing_plan_id":"cebpf4jnsgd1na2vs0mg"},{"bike_id":"0385b8aa-f99f-4f2f-a4a1-989fe579f52f","system_id":"levelo_inurba_marseille","lat":43.3204,"lon":5.41563,"is_reserved":false,"is_disabled":false,"rental_uris":{"android":"levelo://app?vid=0385b8aa-f99f-4f2f-a4a1-989fe579f52f","ios":"levelo://app?vid=0385b8aa-f99f-4f2f-a4a1-989fe579f52f"},"vehicle_type_id":"4","last_reported":1727845812,"current_range_meters":38000,"station_id":"ce4bhq92rcd13ifvqhkg","pricing_plan_id":"cebpf4jnsgd1na2vs0mg"},{"bike_id":"67308192-2f7b-4ea3-9476-a8c25e23c6c8","system_id":"levelo_inurba_marseille","lat":43.24673,"lon":5.38154,"is_reserved":false,"is_disabled":false,"rental_uris":{"android":"levelo://app?vid=67308192-2f7b-4ea3-9476-a8c25e23c6c8","ios":"levelo://app?vid=67308192-2f7b-4ea3-9476-a8c25e23c6c8"},"vehicle_type_id":"4","last_reported":1727845812,"current_range_meters":38800,"station_id":"ce4bhih2rcd13ifvqfr0","pricing_plan_id":"cebpf4jnsgd1na2vs0mg"},{"bike_id":"e602d960-7762-4556-87f3-7ca7eb9e1588","system_id":"levelo_inurba_marseille","lat":43.31888,"lon":5.4073,"is_reserved":false,"is_disabled":false,"rental_uris":{"android":"levelo://app?vid=e602d960-7762-4556-87f3-7ca7eb9e1588","ios":"levelo://app?vid=e602d960-7762-4556-87f3-7ca7eb9e1588"},"vehicle_type_id":"4","last_reported":1727845812,"current_range_meters":38000,"station_id":"ce4bhq12rcd13ifvqhig","pricing_plan_id":"cebpf4jnsgd1na2vs0mg"},{"bike_id":"b24ed694-878c-47f4-9c65-106fddc4c6d9","system_id":"levelo_inurba_marseille","lat":43.30461,"lon":5.37912,"is_reserved":false,"is_disabled":false,"rental_uris":{"android":"levelo://app?vid=b24ed694-878c-47f4-9c65-106fddc4c6d9","ios":"levelo://app?vid=b24ed694-878c-47f4-9c65-106fddc4c6d9"},"vehicle_type_id":"4","last_reported":1727845812,"current_range_meters":7200,"station_id":"ce4bgup2rcd13ifvqcn0","pricing_plan_id":"cebpf4jnsgd1na2vs0mg"},{"bike_id":"12aa1752-7cc3-4906-b1c3-41a6193b64ff","system_id":"levelo_inurba_marseille","lat":43.26561,"lon":5.39002,"is_reserved":false,"is_disabled":false,"rental_uris":{"android":"levelo://app?vid=12aa1752-7cc3-4906-b1c3-41a6193b64ff","ios":"levelo://app?vid=12aa1752-7cc3-4906-b1c3-41a6193b64ff"},"vehicle_type_id":"4","last_reported":1727845812,"current_range_meters":38800,"station_id":"ce4bhe12rcd13ifvqf30","pricing_plan_id":"cebpf4jnsgd1na2vs0mg"},{"bike_id":"6fd13259-3116-404c-92cb-683c3b491724","system_id":"levelo_inurba_marseille","lat":43.31177,"lon":5.38709,"is_reserved":false,"is_disabled":false,"rental_uris":{"android":"levelo://app?vid=6fd13259-3116-404c-92cb-683c3b491724","ios":"levelo://app?vid=6fd13259-3116-404c-92cb-683c3b491724"},"vehicle_type_id":"4","last_reported":1727845812,"current_range_meters":22000,"station_id":"ce4bgv12rcd13ifvqcp0","pricing_plan_id":"cebpf4jnsgd1na2vs0mg"},{"bike_id":"5cedae51-eea5-4235-bd02-1451c712e4b0","system_id":"levelo_inurba_marseille","lat":43.31694,"lon":5.40473,"is_reserved":false,"is_disabled":false,"rental_uris":{"android":"levelo://app?vid=5cedae51-eea5-4235-bd02-1451c712e4b0","ios":"levelo://app?vid=5cedae51-eea5-4235-bd02-1451c712e4b0"},"vehicle_type_id":"4","last_reported":1727845812,"current_range_meters":39200,"station_id":"ce4bh012rcd13ifvqd00","pricing_plan_id":"cebpf4jnsgd1na2vs0mg"},{"bike_id":"89b9dfd5-0dc9-4197-bb8d-be7f07ee51ff","system_id":"levelo_inurba_marseille","lat":43.31527,"lon":5.38032,"is_reserved":false,"is_disabled":false,"rental_uris":{"android":"levelo://app?vid=89b9dfd5-0dc9-4197-bb8d-be7f07ee51ff","ios":"levelo://app?vid=89b9dfd5-0dc9-4197-bb8d-be7f07ee51ff"},"vehicle_type_id":"4","last_reported":1727845812,"current_range_meters":39200,"station_id":"ce4bhsp2rcd13ifvqi50","pricing_plan_id":"cebpf4jnsgd1na2vs0mg"},{"bike_id":"92b8c02b-11e4-42cf-bea6-e95bf9790284","system_id":"levelo_inurba_marseille","lat":43.27211,"lon":5.39176,"is_reserved":false,"is_disabled":false,"rental_uris":{"android":"levelo://app?vid=92b8c02b-11e4-42cf-bea6-e95bf9790284","ios":"levelo://app?vid=92b8c02b-11e4-42cf-bea6-e95bf9790284"},"vehicle_type_id":"4","last_reported":1727845812,"current_range_meters":38800,"station_id":"ce4bhhp2rcd13ifvqfm0","pricing_plan_id":"cebpf4jnsgd1na2vs0mg"},{"bike_id":"b7fc4ff2-2bad-4a32-9ac9-c7dce7dc8248","system_id":"levelo_inurba_marseille","lat":43.2509,"lon":5.39515,"is_reserved":false,"is_disabled":false,"rental_uris":{"android":"levelo://app?vid=b7fc4ff2-2bad-4a32-9ac9-c7dce7dc8248","ios":"levelo://app?vid=b7fc4ff2-2bad-4a32-9ac9-c7dce7dc8248"},"vehicle_type_id":"4","last_reported":1727845812,"current_range_meters":37600,"station_id":"ce4bhm12rcd13ifvqgkg","pricing_plan_id":"cebpf4jnsgd1na2vs0mg"},{"bike_id":"6ae20033-92da-495d-9743-905496a75472","system_id":"levelo_inurba_marseille","lat":43.33623,"lon":5.4103,"is_reserved":false,"is_disabled":false,"rental_uris":{"android":"levelo://app?vid=6ae20033-92da-495d-9743-905496a75472","ios":"levelo://app?vid=6ae20033-92da-495d-9743-905496a75472"},"vehicle_type_id":"4","last_reported":1727845812,"current_range_meters":39200,"station_id":"ce4bhqh2rcd13ifvqhmg","pricing_plan_id":"cebpf4jnsgd1na2vs0mg"},{"bike_id":"ff324f9f-4d8f-4d7e-a0c5-274cf470f26e","system_id":"levelo_inurba_marseille","lat":43.27187,"lon":5.40989,"is_reserved":false,"is_disabled":false,"rental_uris":{"android":"levelo://app?vid=ff324f9f-4d8f-4d7e-a0c5-274cf470f26e","ios":"levelo://app?vid=ff324f9f-4d8f-4d7e-a0c5-274cf470f26e"},"vehicle_type_id":"4","last_reported":1727845812,"current_range_meters":38400,"station_id":"ce4bhl12rcd13ifvqgf0","pricing_plan_id":"cebpf4jnsgd1na2vs0mg"},{"bike_id":"638c74dd-e4e1-4289-8a8d-da973877e81d","system_id":"levelo_inurba_marseille","lat":43.30536,"lon":5.36711,"is_reserved":false,"is_disabled":false,"rental_uris":{"android":"levelo://app?vid=638c74dd-e4e1-4289-8a8d-da973877e81d","ios":"levelo://app?vid=638c74dd-e4e1-4289-8a8d-da973877e81d"},"vehicle_type_id":"4","last_reported":1727845812,"current_range_meters":33200,"station_id":"ce4bgrp2rcd13ifvqc9g","pricing_plan_id":"cebpf4jnsgd1na2vs0mg"},{"bike_id":"6ff016f9-d31d-4e50-9002-5dee01876d27","system_id":"levelo_inurba_marseille","lat":43.31327,"lon":5.39701,"is_reserved":false,"is_disabled":false,"rental_uris":{"android":"levelo://app?vid=6ff016f9-d31d-4e50-9002-5dee01876d27","ios":"levelo://app?vid=6ff016f9-d31d-4e50-9002-5dee01876d27"},"vehicle_type_id":"4","last_reported":1727845812,"current_range_meters":13600,"station_id":"ce4bgvp2rcd13ifvqcu0","pricing_plan_id":"cebpf4jnsgd1na2vs0mg"},{"bike_id":"8c26e438-ca37-450a-9880-ac121c3e449a","system_id":"levelo_inurba_marseille","lat":43.30896,"lon":5.37189,"is_reserved":false,"is_disabled":false,"rental_uris":{"android":"levelo://app?vid=8c26e438-ca37-450a-9880-ac121c3e449a","ios":"levelo://app?vid=8c26e438-ca37-450a-9880-ac121c3e449a"},"vehicle_type_id":"4","last_reported":1727845812,"current_range_meters":34800,"station_id":"ce4bguh2rcd13ifvqckg","pricing_plan_id":"cebpf4jnsgd1na2vs0mg"},{"bike_id":"972f0298-3b6a-4a5a-9a88-2b3812e933f5","system_id":"levelo_inurba_marseille","lat":43.27924,"lon":5.39583,"is_reserved":false,"is_disabled":false,"rental_uris":{"android":"levelo://app?vid=972f0298-3b6a-4a5a-9a88-2b3812e933f5","ios":"levelo://app?vid=972f0298-3b6a-4a5a-9a88-2b3812e933f5"},"vehicle_type_id":"4","last_reported":1727845812,"current_range_meters":4400,"station_id":"ce4bhf92rcd13ifvqf40","pricing_plan_id":"cebpf4jnsgd1na2vs0mg"},{"bike_id":"5b9d22e3-323f-44fa-bde7-8d6ce3f5d391","system_id":"levelo_inurba_marseille","lat":43.28617,"lon":5.35099,"is_reserved":false,"is_disabled":false,"rental_uris":{"android":"levelo://app?vid=5b9d22e3-323f-44fa-bde7-8d6ce3f5d391","ios":"levelo://app?vid=5b9d22e3-323f-44fa-bde7-8d6ce3f5d391"},"vehicle_type_id":"4","last_reported":1727845812,"current_range_meters":17200,"station_id":"ce4bhch2rcd13ifvqeug","pricing_plan_id":"cebpf4jnsgd1na2vs0mg"},{"bike_id":"7c0a7e9a-274d-4edb-a5f4-3ab54445f147","system_id":"levelo_inurba_marseille","lat":43.26489,"lon":5.39544,"is_reserved":false,"is_disabled":false,"rental_uris":{"android":"levelo://app?vid=7c0a7e9a-274d-4edb-a5f4-3ab54445f147","ios":"levelo://app?vid=7c0a7e9a-274d-4edb-a5f4-3ab54445f147"},"vehicle_type_id":"4","last_reported":1727845812,"current_range_meters":38800,"station_id":"ce4bhi12rcd13ifvqfq0","pricing_plan_id":"cebpf4jnsgd1na2vs0mg"},{"bike_id":"9d98c167-ce53-4a4d-871d-1c099d57722c","system_id":"levelo_inurba_marseille","lat":43.30608,"lon":5.37225,"is_reserved":false,"is_disabled":false,"rental_uris":{"android":"levelo://app?vid=9d98c167-ce53-4a4d-871d-1c099d57722c","ios":"levelo://app?vid=9d98c167-ce53-4a4d-871d-1c099d57722c"},"vehicle_type_id":"4","last_reported":1727845812,"current_range_meters":40000,"station_id":"ce4bgqh2rcd13ifvqc4g","pricing_plan_id":"cebpf4jnsgd1na2vs0mg"},{"bike_id":"82c2475c-c35b-4b23-a470-b125ed8a5409","system_id":"levelo_inurba_marseille","lat":43.30356,"lon":5.41884,"is_reserved":false,"is_disabled":false,"rental_uris":{"android":"levelo://app?vid=82c2475c-c35b-4b23-a470-b125ed8a5409","ios":"levelo://app?vid=82c2475c-c35b-4b23-a470-b125ed8a5409"},"vehicle_type_id":"4","last_reported":1727845812,"current_range_meters":7200,"station_id":"ce4bhop2rcd13ifvqh7g","pricing_plan_id":"cebpf4jnsgd1na2vs0mg"},{"bike_id":"36ba55be-55c0-4d75-9db6-d5e0c0cd66af","system_id":"levelo_inurba_marseille","lat":43.31354,"lon":5.38495,"is_reserved":false,"is_disabled":false,"rental_uris":{"android":"levelo://app?vid=36ba55be-55c0-4d75-9db6-d5e0c0cd66af","ios":"levelo://app?vid=36ba55be-55c0-4d75-9db6-d5e0c0cd66af"},"vehicle_type_id":"4","last_reported":1727845812,"current_range_meters":33200,"station_id":"ce4bgt92rcd13ifvqcf0","pricing_plan_id":"cebpf4jnsgd1na2vs0mg"},{"bike_id":"78b1dac7-5bed-47e2-8698-6f2dc96554bd","system_id":"levelo_inurba_marseille","lat":43.31531,"lon":5.38025,"is_reserved":false,"is_disabled":false,"rental_uris":{"android":"levelo://app?vid=78b1dac7-5bed-47e2-8698-6f2dc96554bd","ios":"levelo://app?vid=78b1dac7-5bed-47e2-8698-6f2dc96554bd"},"vehicle_type_id":"4","last_reported":1727845812,"current_range_meters":30800,"station_id":"ce4bhsp2rcd13ifvqi50","pricing_plan_id":"cebpf4jnsgd1na2vs0mg"},{"bike_id":"2b889d16-9dfb-4234-b9cd-a1f18c4d7543","system_id":"levelo_inurba_marseille","lat":43.28034,"lon":5.36949,"is_reserved":false,"is_disabled":false,"rental_uris":{"android":"levelo://app?vid=2b889d16-9dfb-4234-b9cd-a1f18c4d7543","ios":"levelo://app?vid=2b889d16-9dfb-4234-b9cd-a1f18c4d7543"},"vehicle_type_id":"4","last_reported":1727845812,"current_range_meters":24400,"station_id":"ce4bha12rcd13ifvqef0","pricing_plan_id":"cebpf4jnsgd1na2vs0mg"},{"bike_id":"08dbe2c5-4145-42ad-9a05-8f365678e294","system_id":"levelo_inurba_marseille","lat":43.28933,"lon":5.39633,"is_reserved":false,"is_disabled":false,"rental_uris":{"android":"levelo://app?vid=08dbe2c5-4145-42ad-9a05-8f365678e294","ios":"levelo://app?vid=08dbe2c5-4145-42ad-9a05-8f365678e294"},"vehicle_type_id":"4","last_reported":1727845812,"current_range_meters":38800,"station_id":"ce4bh3h2rcd13ifvqdn0","pricing_plan_id":"cebpf4jnsgd1na2vs0mg"},{"bike_id":"4326db58-40ed-4c40-8024-fb7d24341f84","system_id":"levelo_inurba_marseille","lat":43.29041,"lon":5.39978,"is_reserved":false,"is_disabled":false,"rental_uris":{"android":"levelo://app?vid=4326db58-40ed-4c40-8024-fb7d24341f84","ios":"levelo://app?vid=4326db58-40ed-4c40-8024-fb7d24341f84"},"vehicle_type_id":"4","last_reported":1727845812,"current_range_meters":38800,"station_id":"ce4bh392rcd13ifvqdm0","pricing_plan_id":"cebpf4jnsgd1na2vs0mg"},{"bike_id":"75f7d3bd-f2a1-4d79-867f-cd81045ec393","system_id":"levelo_inurba_marseille","lat":43.30323,"lon":5.40441,"is_reserved":false,"is_disabled":false,"rental_uris":{"android":"levelo://app?vid=75f7d3bd-f2a1-4d79-867f-cd81045ec393","ios":"levelo://app?vid=75f7d3bd-f2a1-4d79-867f-cd81045ec393"},"vehicle_type_id":"4","last_reported":1727845812,"current_range_meters":28800,"station_id":"ce4bh012rcd13ifvqd10","pricing_plan_id":"cebpf4jnsgd1na2vs0mg"},{"bike_id":"db20535b-4fbd-4918-a5d3-d644cb8f4053","system_id":"levelo_inurba_marseille","lat":43.24183,"lon":5.39732,"is_reserved":false,"is_disabled":false,"rental_uris":{"android":"levelo://app?vid=db20535b-4fbd-4918-a5d3-d644cb8f4053","ios":"levelo://app?vid=db20535b-4fbd-4918-a5d3-d644cb8f4053"},"vehicle_type_id":"4","last_reported":1727845812,"current_range_meters":38800,"station_id":"ce4bhn12rcd13ifvqgpg","pricing_plan_id":"cebpf4jnsgd1na2vs0mg"},{"bike_id":"b6a28727-ebfc-4faa-bbf7-4c9d29c07b03","system_id":"levelo_inurba_marseille","lat":43.24651,"lon":5.38901,"is_reserved":false,"is_disabled":false,"rental_uris":{"android":"levelo://app?vid=b6a28727-ebfc-4faa-bbf7-4c9d29c07b03","ios":"levelo://app?vid=b6a28727-ebfc-4faa-bbf7-4c9d29c07b03"},"vehicle_type_id":"4","last_reported":1727845812,"current_range_meters":38800,"station_id":"ce4bhg12rcd13ifvqf60","pricing_plan_id":"cebpf4jnsgd1na2vs0mg"},{"bike_id":"1b0da400-df7f-46cf-a71b-f878e1e3bfe9","system_id":"levelo_inurba_marseille","lat":43.2407,"lon":5.37758,"is_reserved":false,"is_disabled":false,"rental_uris":{"android":"levelo://app?vid=1b0da400-df7f-46cf-a71b-f878e1e3bfe9","ios":"levelo://app?vid=1b0da400-df7f-46cf-a71b-f878e1e3bfe9"},"vehicle_type_id":"4","last_reported":1727845812,"current_range_meters":27600,"station_id":"ce4bhnp2rcd13ifvqgvg","pricing_plan_id":"cebpf4jnsgd1na2vs0mg"},{"bike_id":"e231fe26-5e80-4032-bcc1-94cbee7088c0","system_id":"levelo_inurba_marseille","lat":43.28709,"lon":5.39995,"is_reserved":false,"is_disabled":false,"rental_uris":{"android":"levelo://app?vid=e231fe26-5e80-4032-bcc1-94cbee7088c0","ios":"levelo://app?vid=e231fe26-5e80-4032-bcc1-94cbee7088c0"},"vehicle_type_id":"4","last_reported":1727845812,"current_range_meters":38800,"station_id":"ce4bho92rcd13ifvqh3g","pricing_plan_id":"cebpf4jnsgd1na2vs0mg"},{"bike_id":"304eea07-ca6d-4788-a05c-a46512228cf5","system_id":"levelo_inurba_marseille","lat":43.3127,"lon":5.40171,"is_reserved":false,"is_disabled":false,"rental_uris":{"android":"levelo://app?vid=304eea07-ca6d-4788-a05c-a46512228cf5","ios":"levelo://app?vid=304eea07-ca6d-4788-a05c-a46512228cf5"},"vehicle_type_id":"4","last_reported":1727845812,"current_range_meters":15200,"station_id":"ce4bh092rcd13ifvqd30","pricing_plan_id":"cebpf4jnsgd1na2vs0mg"},{"bike_id":"aae274d4-174b-48df-8d7a-32f65846d636","system_id":"levelo_inurba_marseille","lat":43.27838,"lon":5.39208,"is_reserved":false,"is_disabled":false,"rental_uris":{"android":"levelo://app?vid=aae274d4-174b-48df-8d7a-32f65846d636","ios":"levelo://app?vid=aae274d4-174b-48df-8d7a-32f65846d636"},"vehicle_type_id":"4","last_reported":1727845812,"current_range_meters":37600,"station_id":"ce4bhjp2rcd13ifvqga0","pricing_plan_id":"cebpf4jnsgd1na2vs0mg"},{"bike_id":"4bc069e9-27cb-4e2c-9e2e-007bc95d2cfc","system_id":"levelo_inurba_marseille","lat":43.2922,"lon":5.36059,"is_reserved":false,"is_disabled":false,"rental_uris":{"android":"levelo://app?vid=4bc069e9-27cb-4e2c-9e2e-007bc95d2cfc","ios":"levelo://app?vid=4bc069e9-27cb-4e2c-9e2e-007bc95d2cfc"},"vehicle_type_id":"4","last_reported":1727845812,"current_range_meters":38800,"station_id":"ce4bhbh2rcd13ifvqeqg","pricing_plan_id":"cebpf4jnsgd1na2vs0mg"},{"bike_id":"d22ae321-847f-4577-8563-9e21e8a7db72","system_id":"levelo_inurba_marseille","lat":43.30776,"lon":5.37647,"is_reserved":false,"is_disabled":false,"rental_uris":{"android":"levelo://app?vid=d22ae321-847f-4577-8563-9e21e8a7db72","ios":"levelo://app?vid=d22ae321-847f-4577-8563-9e21e8a7db72"},"vehicle_type_id":"4","last_reported":1727845812,"current_range_meters":24800,"station_id":"ce4bgv92rcd13ifvqcq0","pricing_plan_id":"cebpf4jnsgd1na2vs0mg"},{"bike_id":"2ad48f66-d496-4774-9d3a-071b3547565a","system_id":"levelo_inurba_marseille","lat":43.30323,"lon":5.40438,"is_reserved":false,"is_disabled":false,"rental_uris":{"android":"levelo://app?vid=2ad48f66-d496-4774-9d3a-071b3547565a","ios":"levelo://app?vid=2ad48f66-d496-4774-9d3a-071b3547565a"},"vehicle_type_id":"4","last_reported":1727845812,"current_range_meters":3200,"station_id":"ce4bh012rcd13ifvqd10","pricing_plan_id":"cebpf4jnsgd1na2vs0mg"},{"bike_id":"70f74d0c-0a17-4007-9ccc-80f0aabb7627","system_id":"levelo_inurba_marseille","lat":43.25109,"lon":5.40327,"is_reserved":false,"is_disabled":false,"rental_uris":{"android":"levelo://app?vid=70f74d0c-0a17-4007-9ccc-80f0aabb7627","ios":"levelo://app?vid=70f74d0c-0a17-4007-9ccc-80f0aabb7627"},"vehicle_type_id":"4","last_reported":1727845812,"current_range_meters":38800,"station_id":"ce4bhlh2rcd13ifvqgig","pricing_plan_id":"cebpf4jnsgd1na2vs0mg"},{"bike_id":"e61218e9-130e-442d-9e2d-efa6627f1768","system_id":"levelo_inurba_marseille","lat":43.30144,"lon":5.38074,"is_reserved":false,"is_disabled":false,"rental_uris":{"android":"levelo://app?vid=e61218e9-130e-442d-9e2d-efa6627f1768","ios":"levelo://app?vid=e61218e9-130e-442d-9e2d-efa6627f1768"},"vehicle_type_id":"4","last_reported":1727845812,"current_range_meters":25600,"station_id":"ce4bgjp2rcd13ifvqbh0","pricing_plan_id":"cebpf4jnsgd1na2vs0mg"},{"bike_id":"8a9a5a88-54ba-43dc-8df1-8efce13be32e","system_id":"levelo_inurba_marseille","lat":43.27912,"lon":5.39583,"is_reserved":false,"is_disabled":false,"rental_uris":{"android":"levelo://app?vid=8a9a5a88-54ba-43dc-8df1-8efce13be32e","ios":"levelo://app?vid=8a9a5a88-54ba-43dc-8df1-8efce13be32e"},"vehicle_type_id":"4","last_reported":1727845812,"current_range_meters":38400,"station_id":"ce4bhf92rcd13ifvqf40","pricing_plan_id":"cebpf4jnsgd1na2vs0mg"},{"bike_id":"b0f503d5-5140-4e59-9745-fc546178f1f9","system_id":"levelo_inurba_marseille","lat":43.292048,"lon":5.400158,"is_reserved":false,"is_disabled":false,"rental_uris":{"android":"levelo://app?vid=b0f503d5-5140-4e59-9745-fc546178f1f9","ios":"levelo://app?vid=b0f503d5-5140-4e59-9745-fc546178f1f9"},"vehicle_type_id":"4","last_reported":1727845812,"current_range_meters":38800,"station_id":"ce4bh392rcd13ifvqdm0","pricing_plan_id":"cebpf4jnsgd1na2vs0mg"},{"bike_id":"ea269157-2820-4123-89db-09c68bbb110a","system_id":"levelo_inurba_marseille","lat":43.303314,"lon":5.366616,"is_reserved":false,"is_disabled":false,"rental_uris":{"android":"levelo://app?vid=ea269157-2820-4123-89db-09c68bbb110a","ios":"levelo://app?vid=ea269157-2820-4123-89db-09c68bbb110a"},"vehicle_type_id":"4","last_reported":1727845812,"current_range_meters":9200,"station_id":"","pricing_plan_id":"cebpf4jnsgd1na2vs0mg"},{"bike_id":"f8cabb24-b291-43a7-b863-b2f6c298db17","system_id":"levelo_inurba_marseille","lat":43.30884,"lon":5.39639,"is_reserved":false,"is_disabled":false,"rental_uris":{"android":"levelo://app?vid=f8cabb24-b291-43a7-b863-b2f6c298db17","ios":"levelo://app?vid=f8cabb24-b291-43a7-b863-b2f6c298db17"},"vehicle_type_id":"4","last_reported":1727845812,"current_range_meters":8000,"station_id":"ce4bh012rcd13ifvqcv0","pricing_plan_id":"cebpf4jnsgd1na2vs0mg"},{"bike_id":"9e293ca7-6bf9-444f-b38f-f33855779b8c","system_id":"levelo_inurba_marseille","lat":43.26211,"lon":5.3744,"is_reserved":false,"is_disabled":false,"rental_uris":{"android":"levelo://app?vid=9e293ca7-6bf9-444f-b38f-f33855779b8c","ios":"levelo://app?vid=9e293ca7-6bf9-444f-b38f-f33855779b8c"},"vehicle_type_id":"4","last_reported":1727845812,"current_range_meters":20000,"station_id":"ce4bhgp2rcd13ifvqfc0","pricing_plan_id":"cebpf4jnsgd1na2vs0mg"},{"bike_id":"8ceb96fe-a74c-49c6-8577-bc4076ef5c3c","system_id":"levelo_inurba_marseille","lat":43.32288,"lon":5.38282,"is_reserved":false,"is_disabled":false,"rental_uris":{"android":"levelo://app?vid=8ceb96fe-a74c-49c6-8577-bc4076ef5c3c","ios":"levelo://app?vid=8ceb96fe-a74c-49c6-8577-bc4076ef5c3c"},"vehicle_type_id":"4","last_reported":1727845812,"current_range_meters":7200,"station_id":"ce4bhr12rcd13ifvqhqg","pricing_plan_id":"cebpf4jnsgd1na2vs0mg"},{"bike_id":"b6291581-2ff7-490c-bf63-5c7ac8cc3675","system_id":"levelo_inurba_marseille","lat":43.30647,"lon":5.40092,"is_reserved":false,"is_disabled":false,"rental_uris":{"android":"levelo://app?vid=b6291581-2ff7-490c-bf63-5c7ac8cc3675","ios":"levelo://app?vid=b6291581-2ff7-490c-bf63-5c7ac8cc3675"},"vehicle_type_id":"4","last_reported":1727845812,"current_range_meters":38800,"station_id":"ce4bh112rcd13ifvqda0","pricing_plan_id":"cebpf4jnsgd1na2vs0mg"},{"bike_id":"e470c48a-bee6-4363-9f47-6fa009637af9","system_id":"levelo_inurba_marseille","lat":43.28441,"lon":5.39184,"is_reserved":false,"is_disabled":false,"rental_uris":{"android":"levelo://app?vid=e470c48a-bee6-4363-9f47-6fa009637af9","ios":"levelo://app?vid=e470c48a-bee6-4363-9f47-6fa009637af9"},"vehicle_type_id":"4","last_reported":1727845812,"current_range_meters":36000,"station_id":"ce4bhoh2rcd13ifvqh5g","pricing_plan_id":"cebpf4jnsgd1na2vs0mg"},{"bike_id":"b337bd20-f5ab-4d71-a842-ea60a4480d01","system_id":"levelo_inurba_marseille","lat":43.33752,"lon":5.37462,"is_reserved":false,"is_disabled":false,"rental_uris":{"android":"levelo://app?vid=b337bd20-f5ab-4d71-a842-ea60a4480d01","ios":"levelo://app?vid=b337bd20-f5ab-4d71-a842-ea60a4480d01"},"vehicle_type_id":"4","last_reported":1727845812,"current_range_meters":34800,"station_id":"","pricing_plan_id":"cebpf4jnsgd1na2vs0mg"},{"bike_id":"6c1cfd53-6570-49ff-9900-dbc15086be93","system_id":"levelo_inurba_marseille","lat":43.28462,"lon":5.35891,"is_reserved":false,"is_disabled":false,"rental_uris":{"android":"levelo://app?vid=6c1cfd53-6570-49ff-9900-dbc15086be93","ios":"levelo://app?vid=6c1cfd53-6570-49ff-9900-dbc15086be93"},"vehicle_type_id":"4","last_reported":1727845812,"current_range_meters":38400,"station_id":"ce4bhah2rcd13ifvqei0","pricing_plan_id":"cebpf4jnsgd1na2vs0mg"},{"bike_id":"2d1e394b-c65c-48dd-8f6c-7fbd688f784e","system_id":"levelo_inurba_marseille","lat":43.31634,"lon":5.3881,"is_reserved":false,"is_disabled":false,"rental_uris":{"android":"levelo://app?vid=2d1e394b-c65c-48dd-8f6c-7fbd688f784e","ios":"levelo://app?vid=2d1e394b-c65c-48dd-8f6c-7fbd688f784e"},"vehicle_type_id":"4","last_reported":1727845812,"current_range_meters":9200,"station_id":"ce4bhqp2rcd13ifvqhng","pricing_plan_id":"cebpf4jnsgd1na2vs0mg"},{"bike_id":"5b7a131a-dc18-4121-b4f2-b1d01298b714","system_id":"levelo_inurba_marseille","lat":43.30124,"lon":5.38799,"is_reserved":false,"is_disabled":false,"rental_uris":{"android":"levelo://app?vid=5b7a131a-dc18-4121-b4f2-b1d01298b714","ios":"levelo://app?vid=5b7a131a-dc18-4121-b4f2-b1d01298b714"},"vehicle_type_id":"4","last_reported":1727845812,"current_range_meters":31200,"station_id":"ce4bghh2rcd13ifvqb60","pricing_plan_id":"cebpf4jnsgd1na2vs0mg"},{"bike_id":"737387ba-9b3a-423e-82d6-7f2519af15e7","system_id":"levelo_inurba_marseille","lat":43.32657,"lon":5.40987,"is_reserved":false,"is_disabled":false,"rental_uris":{"android":"levelo://app?vid=737387ba-9b3a-423e-82d6-7f2519af15e7","ios":"levelo://app?vid=737387ba-9b3a-423e-82d6-7f2519af15e7"},"vehicle_type_id":"4","last_reported":1727845812,"current_range_meters":37600,"station_id":"ce4bhpp2rcd13ifvqhgg","pricing_plan_id":"cebpf4jnsgd1na2vs0mg"},{"bike_id":"a839f8c2-1f19-41c9-b661-130324e30c0f","system_id":"levelo_inurba_marseille","lat":43.32286,"lon":5.38274,"is_reserved":false,"is_disabled":false,"rental_uris":{"android":"levelo://app?vid=a839f8c2-1f19-41c9-b661-130324e30c0f","ios":"levelo://app?vid=a839f8c2-1f19-41c9-b661-130324e30c0f"},"vehicle_type_id":"4","last_reported":1727845812,"current_range_meters":38800,"station_id":"ce4bhr12rcd13ifvqhqg","pricing_plan_id":"cebpf4jnsgd1na2vs0mg"},{"bike_id":"a08fb8e3-178d-48a6-81dd-3d2b604c8945","system_id":"levelo_inurba_marseille","lat":43.29935,"lon":5.3655,"is_reserved":false,"is_disabled":false,"rental_uris":{"android":"levelo://app?vid=a08fb8e3-178d-48a6-81dd-3d2b604c8945","ios":"levelo://app?vid=a08fb8e3-178d-48a6-81dd-3d2b604c8945"},"vehicle_type_id":"4","last_reported":1727845812,"current_range_meters":38000,"station_id":"ce4bgm92rcd13ifvqbr0","pricing_plan_id":"cebpf4jnsgd1na2vs0mg"},{"bike_id":"cd385f71-7ba5-497a-9c21-e01e06c76d4e","system_id":"levelo_inurba_marseille","lat":43.3204,"lon":5.41567,"is_reserved":false,"is_disabled":false,"rental_uris":{"android":"levelo://app?vid=cd385f71-7ba5-497a-9c21-e01e06c76d4e","ios":"levelo://app?vid=cd385f71-7ba5-497a-9c21-e01e06c76d4e"},"vehicle_type_id":"4","last_reported":1727845812,"current_range_meters":10000,"station_id":"ce4bhq92rcd13ifvqhkg","pricing_plan_id":"cebpf4jnsgd1na2vs0mg"},{"bike_id":"8c1accad-b6bf-4e13-a5db-e4e1385211dd","system_id":"levelo_inurba_marseille","lat":43.29629,"lon":5.40603,"is_reserved":false,"is_disabled":false,"rental_uris":{"android":"levelo://app?vid=8c1accad-b6bf-4e13-a5db-e4e1385211dd","ios":"levelo://app?vid=8c1accad-b6bf-4e13-a5db-e4e1385211dd"},"vehicle_type_id":"4","last_reported":1727845812,"current_range_meters":39200,"station_id":"ce4bh0h2rcd13ifvqd60","pricing_plan_id":"cebpf4jnsgd1na2vs0mg"},{"bike_id":"7c447bf8-71c6-4f4f-b6ab-71c625ee8bab","system_id":"levelo_inurba_marseille","lat":43.29708,"lon":5.36614,"is_reserved":false,"is_disabled":false,"rental_uris":{"android":"levelo://app?vid=7c447bf8-71c6-4f4f-b6ab-71c625ee8bab","ios":"levelo://app?vid=7c447bf8-71c6-4f4f-b6ab-71c625ee8bab"},"vehicle_type_id":"4","last_reported":1727845812,"current_range_meters":38800,"station_id":"ce4bgn12rcd13ifvqbt0","pricing_plan_id":"cebpf4jnsgd1na2vs0mg"},{"bike_id":"b95204c1-bdab-4c5e-8a83-8655665ce92a","system_id":"levelo_inurba_marseille","lat":43.26932,"lon":5.38922,"is_reserved":false,"is_disabled":false,"rental_uris":{"android":"levelo://app?vid=b95204c1-bdab-4c5e-8a83-8655665ce92a","ios":"levelo://app?vid=b95204c1-bdab-4c5e-8a83-8655665ce92a"},"vehicle_type_id":"4","last_reported":1727845812,"current_range_meters":38800,"station_id":"ce4bhhh2rcd13ifvqfl0","pricing_plan_id":"cebpf4jnsgd1na2vs0mg"},{"bike_id":"f493192b-13c6-47a1-9573-739dd32e633f","system_id":"levelo_inurba_marseille","lat":43.337444,"lon":5.374475,"is_reserved":false,"is_disabled":false,"rental_uris":{"android":"levelo://app?vid=f493192b-13c6-47a1-9573-739dd32e633f","ios":"levelo://app?vid=f493192b-13c6-47a1-9573-739dd32e633f"},"vehicle_type_id":"4","last_reported":1727845812,"current_range_meters":14000,"station_id":"","pricing_plan_id":"cebpf4jnsgd1na2vs0mg"},{"bike_id":"82629651-f3f6-4e9b-971d-0a40fe1449ba","system_id":"levelo_inurba_marseille","lat":43.28152,"lon":5.42647,"is_reserved":false,"is_disabled":false,"rental_uris":{"android":"levelo://app?vid=82629651-f3f6-4e9b-971d-0a40fe1449ba","ios":"levelo://app?vid=82629651-f3f6-4e9b-971d-0a40fe1449ba"},"vehicle_type_id":"4","last_reported":1727845812,"current_range_meters":38800,"station_id":"ce4bhnh2rcd13ifvqgug","pricing_plan_id":"cebpf4jnsgd1na2vs0mg"},{"bike_id":"68f3b9b5-799b-4212-88ae-ca4abc9378d2","system_id":"levelo_inurba_marseille","lat":43.27183,"lon":5.40985,"is_reserved":false,"is_disabled":false,"rental_uris":{"android":"levelo://app?vid=68f3b9b5-799b-4212-88ae-ca4abc9378d2","ios":"levelo://app?vid=68f3b9b5-799b-4212-88ae-ca4abc9378d2"},"vehicle_type_id":"4","last_reported":1727845812,"current_range_meters":12800,"station_id":"ce4bhl12rcd13ifvqgf0","pricing_plan_id":"cebpf4jnsgd1na2vs0mg"},{"bike_id":"bc2aa294-28b1-4690-9785-3c58b7d4f9c5","system_id":"levelo_inurba_marseille","lat":43.28454,"lon":5.35888,"is_reserved":false,"is_disabled":false,"rental_uris":{"android":"levelo://app?vid=bc2aa294-28b1-4690-9785-3c58b7d4f9c5","ios":"levelo://app?vid=bc2aa294-28b1-4690-9785-3c58b7d4f9c5"},"vehicle_type_id":"4","last_reported":1727845812,"current_range_meters":38800,"station_id":"ce4bhah2rcd13ifvqei0","pricing_plan_id":"cebpf4jnsgd1na2vs0mg"},{"bike_id":"f203cc79-9bd2-4a70-b798-cae37710981d","system_id":"levelo_inurba_marseille","lat":43.31088,"lon":5.42427,"is_reserved":false,"is_disabled":false,"rental_uris":{"android":"levelo://app?vid=f203cc79-9bd2-4a70-b798-cae37710981d","ios":"levelo://app?vid=f203cc79-9bd2-4a70-b798-cae37710981d"},"vehicle_type_id":"4","last_reported":1727845812,"current_range_meters":32400,"station_id":"ce4bhp92rcd13ifvqhag","pricing_plan_id":"cebpf4jnsgd1na2vs0mg"},{"bike_id":"6fbf65e4-f1fe-410a-98a5-78919e4be360","system_id":"levelo_inurba_marseille","lat":43.27207,"lon":5.39186,"is_reserved":false,"is_disabled":false,"rental_uris":{"android":"levelo://app?vid=6fbf65e4-f1fe-410a-98a5-78919e4be360","ios":"levelo://app?vid=6fbf65e4-f1fe-410a-98a5-78919e4be360"},"vehicle_type_id":"4","last_reported":1727845812,"current_range_meters":28000,"station_id":"ce4bhhp2rcd13ifvqfm0","pricing_plan_id":"cebpf4jnsgd1na2vs0mg"},{"bike_id":"4f732e4f-6c22-4da0-8fec-e3b960d8d942","system_id":"levelo_inurba_marseille","lat":43.3095,"lon":5.39041,"is_reserved":false,"is_disabled":false,"rental_uris":{"android":"levelo://app?vid=4f732e4f-6c22-4da0-8fec-e3b960d8d942","ios":"levelo://app?vid=4f732e4f-6c22-4da0-8fec-e3b960d8d942"},"vehicle_type_id":"4","last_reported":1727845812,"current_range_meters":39200,"station_id":"ce4bgup2rcd13ifvqco0","pricing_plan_id":"cebpf4jnsgd1na2vs0mg"},{"bike_id":"dc3289b7-5397-463d-b8ee-3f7e34403a59","system_id":"levelo_inurba_marseille","lat":43.28457,"lon":5.35884,"is_reserved":false,"is_disabled":false,"rental_uris":{"android":"levelo://app?vid=dc3289b7-5397-463d-b8ee-3f7e34403a59","ios":"levelo://app?vid=dc3289b7-5397-463d-b8ee-3f7e34403a59"},"vehicle_type_id":"4","last_reported":1727845812,"current_range_meters":24800,"station_id":"ce4bhah2rcd13ifvqei0","pricing_plan_id":"cebpf4jnsgd1na2vs0mg"},{"bike_id":"d0f3ba74-2db6-4276-a970-d6d9e934005a","system_id":"levelo_inurba_marseille","lat":43.33721,"lon":5.39182,"is_reserved":false,"is_disabled":false,"rental_uris":{"android":"levelo://app?vid=d0f3ba74-2db6-4276-a970-d6d9e934005a","ios":"levelo://app?vid=d0f3ba74-2db6-4276-a970-d6d9e934005a"},"vehicle_type_id":"4","last_reported":1727845812,"current_range_meters":38800,"station_id":"ce4bhr92rcd13ifvqhsg","pricing_plan_id":"cebpf4jnsgd1na2vs0mg"},{"bike_id":"27ff15c2-602e-4fb3-b4e3-3f271bc5b364","system_id":"levelo_inurba_marseille","lat":43.28571,"lon":5.39501,"is_reserved":false,"is_disabled":false,"rental_uris":{"android":"levelo://app?vid=27ff15c2-602e-4fb3-b4e3-3f271bc5b364","ios":"levelo://app?vid=27ff15c2-602e-4fb3-b4e3-3f271bc5b364"},"vehicle_type_id":"4","last_reported":1727845812,"current_range_meters":27200,"station_id":"ce4bh292rcd13ifvqdg0","pricing_plan_id":"cebpf4jnsgd1na2vs0mg"},