{"last_updated":1747505610,"ttl":60,"version":"2.2","data":{"bikes":[{"bike_id":"1b304bc2-c944-4223-872d-62e1b1fab845","system_id":"levelo_inurba_marseille","lat":43.26939,"lon":5.4026,"is_reserved":false,"is_disabled":false,"rental_uris":{"android":"levelo://app?vid=1b304bc2-c944-4223-872d-62e1b1fab845","ios":"levelo://app?vid=1b304bc2-c944-4223-872d-62e1b1fab845"},"vehicle_type_id":"4","last_reported":1747505610,"current_range_meters":2000,"station_id":"cjm6bp8fraef2m0cb0m0","pricing_plan_id":"cebpf4jnsgd1na2vs0mg"},{"bike_id":"81885d0b-d70a-416f-9cc5-d6e37717f3cc","system_id":"levelo_inurba_marseille","lat":43.23867,"lon":5.36317,"is_reserved":false,"is_disabled":false,"rental_uris":{"android":"levelo://app?vid=81885d0b-d70a-416f-9cc5-d6e37717f3cc","ios":"levelo://app?vid=81885d0b-d70a-416f-9cc5-d6e37717f3cc"},"vehicle_type_id":"4","last_reported":1747505610,"current_range_meters":2800,"station_id":"","pricing_plan_id":"cebpf4jnsgd1na2vs0mg"},{"bike_id":"90097bc3-15f7-4dd3-b9d3-92ec5268caa4","system_id":"levelo_inurba_marseille","lat":43.29417,"lon":5.38627,"is_reserved":false,"is_disabled":false,"rental_uris":{"android":"levelo://app?vid=90097bc3-15f7-4dd3-b9d3-92ec5268caa4","ios":"levelo://app?vid=90097bc3-15f7-4dd3-b9d3-92ec5268caa4"},"vehicle_type_id":"4","last_reported":1747505610,"current_range_meters":2800,"station_id":"ce4bh2h2rcd13ifvqdh0","pricing_plan_id":"cebpf4jnsgd1na2vs0mg"},{"bike_id":"2c74853f-f739-41c8-af14-4c4147f9020e","system_id":"levelo_inurba_marseille","lat":43.29272,"lon":5.38441,"is_reserved":false,"is_disabled":false,"rental_uris":{"android":"levelo://app?vid=2c74853f-f739-41c8-af14-4c4147f9020e","ios":"levelo://app?vid=2c74853f-f739-41c8-af14-4c4147f9020e"},"vehicle_type_id":"4","last_reported":1747505610,"current_range_meters":2000,"station_id":"ce4bh692rcd13ifvqea0","pricing_plan_id":"cebpf4jnsgd1na2vs0mg"},{"bike_id":"aad1e957-4464-4d50-80b7-683cce866dfd","system_id":"levelo_inurba_marseille","lat":43.29263,"lon":5.38438,"is_reserved":false,"is_disabled":false,"rental_uris":{"android":"levelo://app?vid=aad1e957-4464-4d50-80b7-683cce866dfd","ios":"levelo://app?vid=aad1e957-4464-4d50-80b7-683cce866dfd"},"vehicle_type_id":"4","last_reported":1747505610,"current_range_meters":2800,"station_id":"ce4bh692rcd13ifvqea0","pricing_plan_id":"cebpf4jnsgd1na2vs0mg"},{"bike_id":"15bdb2cb-60a0-4c42-8c18-0e6826a8f67b","system_id":"levelo_inurba_marseille","lat":43.27409,"lon":5.39402,"is_reserved":false,"is_disabled":false,"rental_uris":{"android":"levelo://app?vid=15bdb2cb-60a0-4c42-8c18-0e6826a8f67b","ios":"levelo://app?vid=15bdb2cb-60a0-4c42-8c18-0e6826a8f67b"},"vehicle_type_id":"4","last_reported":1747505610,"current_range_meters":2800,"station_id":"ce4bhdp2rcd13ifvqf20","pricing_plan_id":"cebpf4jnsgd1na2vs0mg"},{"bike_id":"472e57a3-664b-4ab4-869a-d85311df6e06","system_id":"levelo_inurba_marseille","lat":43.2318,"lon":5.39984,"is_reserved":false,"is_disabled":false,"rental_uris":{"android":"levelo://app?vid=472e57a3-664b-4ab4-869a-d85311df6e06","ios":"levelo://app?vid=472e57a3-664b-4ab4-869a-d85311df6e06"},"vehicle_type_id":"4","last_reported":1747505610,"current_range_meters":2800,"station_id":"ce4bhn12rcd13ifvqgqg","pricing_plan_id":"cebpf4jnsgd1na2vs0mg"},{"bike_id":"e54e773f-a2a0-4645-905d-0d628288f58a","system_id":"levelo_inurba_marseille","lat":43.29298,"lon":5.3746,"is_reserved":false,"is_disabled":false,"rental_uris":{"android":"levelo://app?vid=e54e773f-a2a0-4645-905d-0d628288f58a","ios":"levelo://app?vid=e54e773f-a2a0-4645-905d-0d628288f58a"},"vehicle_type_id":"4","last_reported":1747505610,"current_range_meters":2800,"station_id":"ce4bgi12rcd13ifvqb70","pricing_plan_id":"cebpf4jnsgd1na2vs0mg"},{"bike_id":"044ed685-07df-4209-9202-1f6248990171","system_id":"levelo_inurba_marseille","lat":43.28471,"lon":5.38416,"is_reserved":false,"is_disabled":false,"rental_uris":{"android":"levelo://app?vid=044ed685-07df-4209-9202-1f6248990171","ios":"levelo://app?vid=044ed685-07df-4209-9202-1f6248990171"},"vehicle_type_id":"4","last_reported":1747505610,"current_range_meters":3600,"station_id":"ce4bh512rcd13ifvqe3g","pricing_plan_id":"cebpf4jnsgd1na2vs0mg"},{"bike_id":"3f8ebfef-f152-4871-8611-2fe3d6a1e65d","system_id":"levelo_inurba_marseille","lat":43.27371,"lon":5.36259,"is_reserved":false,"is_disabled":false,"rental_uris":{"android":"levelo://app?vid=3f8ebfef-f152-4871-8611-2fe3d6a1e65d","ios":"levelo://app?vid=3f8ebfef-f152-4871-8611-2fe3d6a1e65d"},"vehicle_type_id":"4","last_reported":1747505610,"current_range_meters":3200,"station_id":"ce4bhbh2rcd13ifvqeo0","pricing_plan_id":"cebpf4jnsgd1na2vs0mg"},{"bike_id":"62f34f29-0ff7-451b-bca8-68097d91cd93","system_id":"levelo_inurba_marseille","lat":43.2902,"lon":5.38655,"is_reserved":false,"is_disabled":false,"rental_uris":{"android":"levelo://app?vid=62f34f29-0ff7-451b-bca8-68097d91cd93","ios":"levelo://app?vid=62f34f29-0ff7-451b-bca8-68097d91cd93"},"vehicle_type_id":"4","last_reported":1747505610,"current_range_meters":3200,"station_id":"ce4bh4p2rcd13ifvqe0g","pricing_plan_id":"cebpf4jnsgd1na2vs0mg"},{"bike_id":"5e7eb795-b3bd-4351-bfe8-cca3a8c956d9","system_id":"levelo_inurba_marseille","lat":43.2679,"lon":5.39409,"is_reserved":false,"is_disabled":false,"rental_uris":{"android":"levelo://app?vid=5e7eb795-b3bd-4351-bfe8-cca3a8c956d9","ios":"levelo://app?vid=5e7eb795-b3bd-4351-bfe8-cca3a8c956d9"},"vehicle_type_id":"4","last_reported":1747505610,"current_range_meters":3200,"station_id":"ce4bhh12rcd13ifvqfg0","pricing_plan_id":"cebpf4jnsgd1na2vs0mg"},{"bike_id":"50659f65-50c2-42be-9fb4-b362cff5da56","system_id":"levelo_inurba_marseille","lat":43.26568,"lon":5.390135,"is_reserved":false,"is_disabled":false,"rental_uris":{"android":"levelo://app?vid=50659f65-50c2-42be-9fb4-b362cff5da56","ios":"levelo://app?vid=50659f65-50c2-42be-9fb4-b362cff5da56"},"vehicle_type_id":"4","last_reported":1747505610,"current_range_meters":3200,"station_id":"ce4bhe12rcd13ifvqf30","pricing_plan_id":"cebpf4jnsgd1na2vs0mg"},{"bike_id":"77079cc6-e9d1-4409-9ad0-e05fdedc7cc4","system_id":"levelo_inurba_marseille","lat":43.29537,"lon":5.38548,"is_reserved":false,"is_disabled":false,"rental_uris":{"android":"levelo://app?vid=77079cc6-e9d1-4409-9ad0-e05fdedc7cc4","ios":"levelo://app?vid=77079cc6-e9d1-4409-9ad0-e05fdedc7cc4"},"vehicle_type_id":"4","last_reported":1747505610,"current_range_meters":2800,"station_id":"ce4bgih2rcd13ifvqba0","pricing_plan_id":"cebpf4jnsgd1na2vs0mg"},{"bike_id":"e3ba2884-7e65-449c-b724-4f173c22453c","system_id":"levelo_inurba_marseille","lat":43.27311,"lon":5.39077,"is_reserved":false,"is_disabled":false,"rental_uris":{"android":"levelo://app?vid=e3ba2884-7e65-449c-b724-4f173c22453c","ios":"levelo://app?vid=e3ba2884-7e65-449c-b724-4f173c22453c"},"vehicle_type_id":"4","last_reported":1747505610,"current_range_meters":3200,"station_id":"ce4bhgp2rcd13ifvqfe0","pricing_plan_id":"cebpf4jnsgd1na2vs0mg"},{"bike_id":"71688339-897f-409a-a028-ddd6244d75b0","system_id":"levelo_inurba_marseille","lat":43.29575,"lon":5.39979,"is_reserved":false,"is_disabled":false,"rental_uris":{"android":"levelo://app?vid=71688339-897f-409a-a028-ddd6244d75b0","ios":"levelo://app?vid=71688339-897f-409a-a028-ddd6244d75b0"},"vehicle_type_id":"4","last_reported":1747505610,"current_range_meters":2800,"station_id":"ce4bh312rcd13ifvqdj0","pricing_plan_id":"cebpf4jnsgd1na2vs0mg"},{"bike_id":"34262b7e-8cf6-4764-abd6-dbcff4692d8a","system_id":"levelo_inurba_marseille","lat":43.262165,"lon":5.3744,"is_reserved":false,"is_disabled":false,"rental_uris":{"android":"levelo://app?vid=34262b7e-8cf6-4764-abd6-dbcff4692d8a","ios":"levelo://app?vid=34262b7e-8cf6-4764-abd6-dbcff4692d8a"},"vehicle_type_id":"4","last_reported":1747505610,"current_range_meters":3200,"station_id":"ce4bhgp2rcd13ifvqfc0","pricing_plan_id":"cebpf4jnsgd1na2vs0mg"},{"bike_id":"88fd2089-751a-498a-acf8-aa4841a4f24f","system_id":"levelo_inurba_marseille","lat":43.232574,"lon":5.436417,"is_reserved":false,"is_disabled":false,"rental_uris":{"android":"levelo://app?vid=88fd2089-751a-498a-acf8-aa4841a4f24f","ios":"levelo://app?vid=88fd2089-751a-498a-acf8-aa4841a4f24f"},"vehicle_type_id":"4","last_reported":1747505610,"current_range_meters":3200,"station_id":"ce4bhmp2rcd13ifvqgog","pricing_plan_id":"cebpf4jnsgd1na2vs0mg"},{"bike_id":"c7081110-c80a-471f-bc7c-f78963f3e1a3","system_id":"levelo_inurba_marseille","lat":43.287,"lon":5.37402,"is_reserved":false,"is_disabled":false,"rental_uris":{"android":"levelo://app?vid=c7081110-c80a-471f-bc7c-f78963f3e1a3","ios":"levelo://app?vid=c7081110-c80a-471f-bc7c-f78963f3e1a3"},"vehicle_type_id":"4","last_reported":1747505610,"current_range_meters":3600,"station_id":"ce4bh3p2rcd13ifvqdq0","pricing_plan_id":"cebpf4jnsgd1na2vs0mg"},{"bike_id":"8a1583b2-fc85-4b95-a57c-3ec13ecb207e","system_id":"levelo_inurba_marseille","lat":43.2994,"lon":5.36522,"is_reserved":false,"is_disabled":false,"rental_uris":{"android":"levelo://app?vid=8a1583b2-fc85-4b95-a57c-3ec13ecb207e","ios":"levelo://app?vid=8a1583b2-fc85-4b95-a57c-3ec13ecb207e"},"vehicle_type_id":"4","last_reported":1747505610,"current_range_meters":3600,"station_id":"ce4bgm92rcd13ifvqbr0","pricing_plan_id":"cebpf4jnsgd1na2vs0mg"},{"bike_id":"61159754-233e-4c9f-9a88-ae2a620745c1","system_id":"levelo_inurba_marseille","lat":43.292672,"lon":5.401198,"is_reserved":false,"is_disabled":true,"rental_uris":{"android":"levelo://app?vid=61159754-233e-4c9f-9a88-ae2a620745c1","ios":"levelo://app?vid=61159754-233e-4c9f-9a88-ae2a620745c1"},"vehicle_type_id":"4","last_reported":1747505610,"current_range_meters":3600,"station_id":"ce4bh312rcd13ifvqdk0","pricing_plan_id":"cebpf4jnsgd1na2vs0mg"},{"bike_id":"5e95c466-178f-4d4d-bbf7-2515dc306a5d","system_id":"levelo_inurba_marseille","lat":43.32335,"lon":5.38869,"is_reserved":false,"is_disabled":false,"rental_uris":{"android":"levelo://app?vid=5e95c466-178f-4d4d-bbf7-2515dc306a5d","ios":"levelo://app?vid=5e95c466-178f-4d4d-bbf7-2515dc306a5d"},"vehicle_type_id":"4","last_reported":1747505610,"current_range_meters":3600,"station_id":"ce4bhqp2rcd13ifvqhog","pricing_plan_id":"cebpf4jnsgd1na2vs0mg"},{"bike_id":"e1ec36dc-1003-49f4-ac6c-d84a8ab2285f","system_id":"levelo_inurba_marseille","lat":43.29264,"lon":5.38445,"is_reserved":false,"is_disabled":false,"rental_uris":{"android":"levelo://app?vid=e1ec36dc-1003-49f4-ac6c-d84a8ab2285f","ios":"levelo://app?vid=e1ec36dc-1003-49f4-ac6c-d84a8ab2285f"},"vehicle_type_id":"4","last_reported":1747505610,"current_range_meters":3600,"station_id":"ce4bh692rcd13ifvqea0","pricing_plan_id":"cebpf4jnsgd1na2vs0mg"},{"bike_id":"f1acc901-4f19-4b2f-81bc-eea982933fa1","system_id":"levelo_inurba_marseille","lat":43.27215,"lon":5.39185,"is_reserved":false,"is_disabled":false,"rental_uris":{"android":"levelo://app?vid=f1acc901-4f19-4b2f-81bc-eea982933fa1","ios":"levelo://app?vid=f1acc901-4f19-4b2f-81bc-eea982933fa1"},"vehicle_type_id":"4","last_reported":1747505610,"current_range_meters":4000,"station_id":"","pricing_plan_id":"cebpf4jnsgd1na2vs0mg"},{"bike_id":"f3fb027a-3be7-4972-aa95-40cebc2a9b4a","system_id":"levelo_inurba_marseille","lat":43.24802,"lon":5.37455,"is_reserved":false,"is_disabled":false,"rental_uris":{"android":"levelo://app?vid=f3fb027a-3be7-4972-aa95-40cebc2a9b4a","ios":"levelo://app?vid=f3fb027a-3be7-4972-aa95-40cebc2a9b4a"},"vehicle_type_id":"4","last_reported":1747505610,"current_range_meters":3600,"station_id":"ce4bhgh2rcd13ifvqfb0","pricing_plan_id":"cebpf4jnsgd1na2vs0mg"},{"bike_id":"87e4d684-9e90-479a-92e9-d7f60d481c8e","system_id":"levelo_inurba_marseille","lat":43.290347,"lon":5.387552,"is_reserved":false,"is_disabled":false,"rental_uris":{"android":"levelo://app?vid=87e4d684-9e90-479a-92e9-d7f60d481c8e","ios":"levelo://app?vid=87e4d684-9e90-479a-92e9-d7f60d481c8e"},"vehicle_type_id":"4","last_reported":1747505610,"current_range_meters":4000,"station_id":"ce4bh4p2rcd13ifvqe0g","pricing_plan_id":"cebpf4jnsgd1na2vs0mg"},{"bike_id":"2cde55c4-7fcf-4cc2-97f4-a9db0ecb9887","system_id":"levelo_inurba_marseille","lat":43.299683,"lon":5.384971,"is_reserved":false,"is_disabled":false,"rental_uris":{"android":"levelo://app?vid=2cde55c4-7fcf-4cc2-97f4-a9db0ecb9887","ios":"levelo://app?vid=2cde55c4-7fcf-4cc2-97f4-a9db0ecb9887"},"vehicle_type_id":"4","last_reported":1747505610,"current_range_meters":4000,"station_id":"ce4bgj92rcd13ifvqbd0","pricing_plan_id":"cebpf4jnsgd1na2vs0mg"},{"bike_id":"ad98dd10-d89a-42b1-8437-f4d99a182252","system_id":"levelo_inurba_marseille","lat":43.29031,"lon":5.38136,"is_reserved":false,"is_disabled":false,"rental_uris":{"android":"levelo://app?vid=ad98dd10-d89a-42b1-8437-f4d99a182252","ios":"levelo://app?vid=ad98dd10-d89a-42b1-8437-f4d99a182252"},"vehicle_type_id":"4","last_reported":1747505610,"current_range_meters":4000,"station_id":"ce4bh4p2rcd13ifvqe1g","pricing_plan_id":"cebpf4jnsgd1na2vs0mg"},{"bike_id":"5bd5a2c5-c8a3-421f-92e4-82cd1bd0d064","system_id":"levelo_inurba_marseille","lat":43.30408,"lon":5.39758,"is_reserved":false,"is_disabled":false,"rental_uris":{"android":"levelo://app?vid=5bd5a2c5-c8a3-421f-92e4-82cd1bd0d064","ios":"levelo://app?vid=5bd5a2c5-c8a3-421f-92e4-82cd1bd0d064"},"vehicle_type_id":"4","last_reported":1747505610,"current_range_meters":4400,"station_id":"ce4bh092rcd13ifvqd20","pricing_plan_id":"cebpf4jnsgd1na2vs0mg"},{"bike_id":"5921eafe-c33b-4d5e-8818-952bbae89d0c","system_id":"levelo_inurba_marseille","lat":43.29844,"lon":5.36268,"is_reserved":false,"is_disabled":false,"rental_uris":{"android":"levelo://app?vid=5921eafe-c33b-4d5e-8818-952bbae89d0c","ios":"levelo://app?vid=5921eafe-c33b-4d5e-8818-952bbae89d0c"},"vehicle_type_id":"4","last_reported":1747505610,"current_range_meters":4400,"station_id":"ce4bgpp2rcd13ifvqc3g","pricing_plan_id":"cebpf4jnsgd1na2vs0mg"},{"bike_id":"f0b8bfaa-d455-41ed-b8a7-fd0f927e60cf","system_id":"levelo_inurba_marseille","lat":43.26952,"lon":5.38632,"is_reserved":false,"is_disabled":false,"rental_uris":{"android":"levelo://app?vid=f0b8bfaa-d455-41ed-b8a7-fd0f927e60cf","ios":"levelo://app?vid=f0b8bfaa-d455-41ed-b8a7-fd0f927e60cf"},"vehicle_type_id":"4","last_reported":1747505610,"current_range_meters":4400,"station_id":"ce4bhh92rcd13ifvqfh0","pricing_plan_id":"cebpf4jnsgd1na2vs0mg"},{"bike_id":"7019c47b-11f1-47de-8113-a3e4dd944a9a","system_id":"levelo_inurba_marseille","lat":43.26803,"lon":5.40278,"is_reserved":false,"is_disabled":true,"rental_uris":{"android":"levelo://app?vid=7019c47b-11f1-47de-8113-a3e4dd944a9a","ios":"levelo://app?vid=7019c47b-11f1-47de-8113-a3e4dd944a9a"},"vehicle_type_id":"4","last_reported":1747505610,"current_range_meters":4400,"station_id":"ce501612rcd8frsf0b60","pricing_plan_id":"cebpf4jnsgd1na2vs0mg"},{"bike_id":"3f56209f-fcf8-405c-ad29-4968f9789036","system_id":"levelo_inurba_marseille","lat":43.26934,"lon":5.40247,"is_reserved":false,"is_disabled":false,"rental_uris":{"android":"levelo://app?vid=3f56209f-fcf8-405c-ad29-4968f9789036","ios":"levelo://app?vid=3f56209f-fcf8-405c-ad29-4968f9789036"},"vehicle_type_id":"4","last_reported":1747505610,"current_range_meters":4400,"station_id":"cjm6bp8fraef2m0cb0m0","pricing_plan_id":"cebpf4jnsgd1na2vs0mg"},{"bike_id":"7f383b93-1a83-49e2-805a-51a8d5edad66","system_id":"levelo_inurba_marseille","lat":43.30251,"lon":5.40065,"is_reserved":false,"is_disabled":false,"rental_uris":{"android":"levelo://app?vid=7f383b93-1a83-49e2-805a-51a8d5edad66","ios":"levelo://app?vid=7f383b93-1a83-49e2-805a-51a8d5edad66"},"vehicle_type_id":"4","last_reported":1747505610,"current_range_meters":4400,"station_id":"ce4bgvh2rcd13ifvqcs0","pricing_plan_id":"cebpf4jnsgd1na2vs0mg"},{"bike_id":"a78bfd86-0a82-49e7-a99b-b186bd9cfc72","system_id":"levelo_inurba_marseille","lat":43.30604,"lon":5.37224,"is_reserved":false,"is_disabled":false,"rental_uris":{"android":"levelo://app?vid=a78bfd86-0a82-49e7-a99b-b186bd9cfc72","ios":"levelo://app?vid=a78bfd86-0a82-49e7-a99b-b186bd9cfc72"},"vehicle_type_id":"4","last_reported":1747505610,"current_range_meters":4400,"station_id":"ce4bgqh2rcd13ifvqc4g","pricing_plan_id":"cebpf4jnsgd1na2vs0mg"},{"bike_id":"679405b7-f0ab-486a-8eec-cf1cfdfdea2a","system_id":"levelo_inurba_marseille","lat":43.305481,"lon":5.40091,"is_reserved":false,"is_disabled":false,"rental_uris":{"android":"levelo://app?vid=679405b7-f0ab-486a-8eec-cf1cfdfdea2a","ios":"levelo://app?vid=679405b7-f0ab-486a-8eec-cf1cfdfdea2a"},"vehicle_type_id":"4","last_reported":1747505610,"current_range_meters":4400,"station_id":"ce4bh112rcd13ifvqda0","pricing_plan_id":"cebpf4jnsgd1na2vs0mg"},{"bike_id":"c0b9fd4f-e181-46ce-b0bf-f5119973334f","system_id":"levelo_inurba_marseille","lat":43.33771,"lon":5.37424,"is_reserved":false,"is_disabled":false,"rental_uris":{"android":"levelo://app?vid=c0b9fd4f-e181-46ce-b0bf-f5119973334f","ios":"levelo://app?vid=c0b9fd4f-e181-46ce-b0bf-f5119973334f"},"vehicle_type_id":"4","last_reported":1747505610,"current_range_meters":4400,"station_id":"","pricing_plan_id":"cebpf4jnsgd1na2vs0mg"},{"bike_id":"f320ff1e-90db-4643-bf86-10e2be8d2444","system_id":"levelo_inurba_marseille","lat":43.2407,"lon":5.37761,"is_reserved":false,"is_disabled":false,"rental_uris":{"android":"levelo://app?vid=f320ff1e-90db-4643-bf86-10e2be8d2444","ios":"levelo://app?vid=f320ff1e-90db-4643-bf86-10e2be8d2444"},"vehicle_type_id":"4","last_reported":1747505610,"current_range_meters":4800,"station_id":"ce4bhnp2rcd13ifvqgvg","pricing_plan_id":"cebpf4jnsgd1na2vs0mg"},{"bike_id":"85fdf9b3-9aa1-4c8e-93ad-f8ce08ed7d17","system_id":"levelo_inurba_marseille","lat":43.29847,"lon":5.36267,"is_reserved":false,"is_disabled":false,"rental_uris":{"android":"levelo://app?vid=85fdf9b3-9aa1-4c8e-93ad-f8ce08ed7d17","ios":"levelo://app?vid=85fdf9b3-9aa1-4c8e-93ad-f8ce08ed7d17"},"vehicle_type_id":"4","last_reported":1747505610,"current_range_meters":4800,"station_id":"ce4bgpp2rcd13ifvqc3g","pricing_plan_id":"cebpf4jnsgd1na2vs0mg"},{"bike_id":"54255574-d73a-48d1-85ed-ee6fbfc41d57","system_id":"levelo_inurba_marseille","lat":43.25456,"lon":5.37579,"is_reserved":false,"is_disabled":true,"rental_uris":{"android":"levelo://app?vid=54255574-d73a-48d1-85ed-ee6fbfc41d57","ios":"levelo://app?vid=54255574-d73a-48d1-85ed-ee6fbfc41d57"},"vehicle_type_id":"4","last_reported":1747505610,"current_range_meters":4800,"station_id":"","pricing_plan_id":"cebpf4jnsgd1na2vs0mg"},{"bike_id":"2e429e31-61c1-4949-b228-c4325a3127f0","system_id":"levelo_inurba_marseille","lat":43.29198,"lon":5.39318,"is_reserved":false,"is_disabled":false,"rental_uris":{"android":"levelo://app?vid=2e429e31-61c1-4949-b228-c4325a3127f0","ios":"levelo://app?vid=2e429e31-61c1-4949-b228-c4325a3127f0"},"vehicle_type_id":"4","last_reported":1747505610,"current_range_meters":4800,"station_id":"ce4bh192rcd13ifvqdd0","pricing_plan_id":"cebpf4jnsgd1na2vs0mg"},{"bike_id":"c67be3ff-2159-4818-a915-6b4509662a38","system_id":"levelo_inurba_marseille","lat":43.292292,"lon":5.360578,"is_reserved":false,"is_disabled":false,"rental_uris":{"android":"levelo://app?vid=c67be3ff-2159-4818-a915-6b4509662a38","ios":"levelo://app?vid=c67be3ff-2159-4818-a915-6b4509662a38"},"vehicle_type_id":"4","last_reported":1747505610,"current_range_meters":4800,"station_id":"ce4bhbh2rcd13ifvqeqg","pricing_plan_id":"cebpf4jnsgd1na2vs0mg"},{"bike_id":"94d097f3-074c-4891-a0cd-21220d9cf835","system_id":"levelo_inurba_marseille","lat":43.29927,"lon":5.36555,"is_reserved":false,"is_disabled":false,"rental_uris":{"android":"levelo://app?vid=94d097f3-074c-4891-a0cd-21220d9cf835","ios":"levelo://app?vid=94d097f3-074c-4891-a0cd-21220d9cf835"},"vehicle_type_id":"4","last_reported":1747505610,"current_range_meters":4800,"station_id":"ce4bgm92rcd13ifvqbr0","pricing_plan_id":"cebpf4jnsgd1na2vs0mg"},{"bike_id":"45bc8c94-be6f-4edd-b541-10c6ba5444a8","system_id":"levelo_inurba_marseille","lat":43.29779,"lon":5.39337,"is_reserved":false,"is_disabled":false,"rental_uris":{"android":"levelo://app?vid=45bc8c94-be6f-4edd-b541-10c6ba5444a8","ios":"levelo://app?vid=45bc8c94-be6f-4edd-b541-10c6ba5444a8"},"vehicle_type_id":"4","last_reported":1747505610,"current_range_meters":4800,"station_id":"chh1huq6cuj3fo74tm60","pricing_plan_id":"cebpf4jnsgd1na2vs0mg"},{"bike_id":"b8ba991c-766c-4cc2-b5d1-e9784bda0683","system_id":"levelo_inurba_marseille","lat":43.25091,"lon":5.3952,"is_reserved":false,"is_disabled":true,"rental_uris":{"android":"levelo://app?vid=b8ba991c-766c-4cc2-b5d1-e9784bda0683","ios":"levelo://app?vid=b8ba991c-766c-4cc2-b5d1-e9784bda0683"},"vehicle_type_id":"4","last_reported":1747505610,"current_range_meters":5600,"station_id":"ce4bhm12rcd13ifvqgkg","pricing_plan_id":"cebpf4jnsgd1na2vs0mg"},{"bike_id":"603e8d03-d525-4d80-98fd-d8a8169a647b","system_id":"levelo_inurba_marseille","lat":43.297092,"lon":5.366139,"is_reserved":false,"is_disabled":false,"rental_uris":{"android":"levelo://app?vid=603e8d03-d525-4d80-98fd-d8a8169a647b","ios":"levelo://app?vid=603e8d03-d525-4d80-98fd-d8a8169a647b"},"vehicle_type_id":"4","last_reported":1747505610,"current_range_meters":5600,"station_id":"ce4bgn12rcd13ifvqbt0","pricing_plan_id":"cebpf4jnsgd1na2vs0mg"},{"bike_id":"088a952d-05ec-4a50-84cb-9e0beaf63713","system_id":"levelo_inurba_marseille","lat":43.29593,"lon":5.36746,"is_reserved":false,"is_disabled":false,"rental_uris":{"android":"levelo://app?vid=088a952d-05ec-4a50-84cb-9e0beaf63713","ios":"levelo://app?vid=088a952d-05ec-4a50-84cb-9e0beaf63713"},"vehicle_type_id":"4","last_reported":1747505610,"current_range_meters":5600,"station_id":"ce4bgph2rcd13ifvqc2g","pricing_plan_id":"cebpf4jnsgd1na2vs0mg"},{"bike_id":"8b2ee46f-f1c9-47f8-a298-b88e11b9ff79","system_id":"levelo_inurba_marseille","lat":43.283517,"lon":5.381054,"is_reserved":false,"is_disabled":false,"rental_uris":{"android":"levelo://app?vid=8b2ee46f-f1c9-47f8-a298-b88e11b9ff79","ios":"levelo://app?vid=8b2ee46f-f1c9-47f8-a298-b88e11b9ff79"},"vehicle_type_id":"4","last_reported":1747505610,"current_range_meters":5600,"station_id":"ce4bh412rcd13ifvqdr0","pricing_plan_id":"cebpf4jnsgd1na2vs0mg"},{"bike_id":"03921903-6b5d-43cc-9b01-96ff9c50c166","system_id":"levelo_inurba_marseille","lat":43.23181,"lon":5.3998,"is_reserved":false,"is_disabled":false,"rental_uris":{"android":"levelo://app?vid=03921903-6b5d-43cc-9b01-96ff9c50c166","ios":"levelo://app?vid=03921903-6b5d-43cc-9b01-96ff9c50c166"},"vehicle_type_id":"4","last_reported":1747505610,"current_range_meters":5600,"station_id":"ce4bhn12rcd13ifvqgqg","pricing_plan_id":"cebpf4jnsgd1na2vs0mg"},{"bike_id":"14885091-98ca-4d80-b8d7-7e5a1860bd77","system_id":"levelo_inurba_marseille","lat":43.30423,"lon":5.41276,"is_reserved":false,"is_disabled":true,"rental_uris":{"android":"levelo://app?vid=14885091-98ca-4d80-b8d7-7e5a1860bd77","ios":"levelo://app?vid=14885091-98ca-4d80-b8d7-7e5a1860bd77"},"vehicle_type_id":"4","last_reported":1747505610,"current_range_meters":5600,"station_id":"ce4bhop2rcd13ifvqh8g","pricing_plan_id":"cebpf4jnsgd1na2vs0mg"},{"bike_id":"d14a9606-124f-4a96-a344-a40d6d2642fd","system_id":"levelo_inurba_marseille","lat":43.30987,"lon":5.41731,"is_reserved":false,"is_disabled":false,"rental_uris":{"android":"levelo://app?vid=d14a9606-124f-4a96-a344-a40d6d2642fd","ios":"levelo://app?vid=d14a9606-124f-4a96-a344-a40d6d2642fd"},"vehicle_type_id":"4","last_reported":1747505610,"current_range_meters":5600,"station_id":"","pricing_plan_id":"cebpf4jnsgd1na2vs0mg"},{"bike_id":"7d8130ae-9331-4223-b554-30ab8f0d0a05","system_id":"levelo_inurba_marseille","lat":43.27322,"lon":5.39071,"is_reserved":false,"is_disabled":false,"rental_uris":{"android":"levelo://app?vid=7d8130ae-9331-4223-b554-30ab8f0d0a05","ios":"levelo://app?vid=7d8130ae-9331-4223-b554-30ab8f0d0a05"},"vehicle_type_id":"4","last_reported":1747505610,"current_range_meters":5600,"station_id":"ce4bhgp2rcd13ifvqfe0","pricing_plan_id":"cebpf4jnsgd1na2vs0mg"},{"bike_id":"5898831f-2264-4e77-9d15-2dcb2b694e43","system_id":"levelo_inurba_marseille","lat":43.29528,"lon":5.39407,"is_reserved":false,"is_disabled":false,"rental_uris":{"android":"levelo://app?vid=5898831f-2264-4e77-9d15-2dcb2b694e43","ios":"levelo://app?vid=5898831f-2264-4e77-9d15-2dcb2b694e43"},"vehicle_type_id":"4","last_reported":1747505610,"current_range_meters":5600,"station_id":"ce4bh292rcd13ifvqdf0","pricing_plan_id":"cebpf4jnsgd1na2vs0mg"},{"bike_id":"76eea6a4-9e02-4b58-8823-5d3042108e9c","system_id":"levelo_inurba_marseille","lat":43.26949,"lon":5.40249,"is_reserved":false,"is_disabled":false,"rental_uris":{"android":"levelo://app?vid=76eea6a4-9e02-4b58-8823-5d3042108e9c","ios":"levelo://app?vid=76eea6a4-9e02-4b58-8823-5d3042108e9c"},"vehicle_type_id":"4","last_reported":1747505610,"current_range_meters":6000,"station_id":"cjm6bp8fraef2m0cb0m0","pricing_plan_id":"cebpf4jnsgd1na2vs0mg"},{"bike_id":"00b90f99-239c-4dd6-b3ed-ff950e2f14f1","system_id":"levelo_inurba_marseille","lat":43.29504,"lon":5.37514,"is_reserved":false,"is_disabled":false,"rental_uris":{"android":"levelo://app?vid=00b90f99-239c-4dd6-b3ed-ff950e2f14f1","ios":"levelo://app?vid=00b90f99-239c-4dd6-b3ed-ff950e2f14f1"},"vehicle_type_id":"4","last_reported":1747505610,"current_range_meters":6000,"station_id":"ce4bgkp2rcd13ifvqbmg","pricing_plan_id":"cebpf4jnsgd1na2vs0mg"},{"bike_id":"6f2ad226-33bf-40e7-bb8e-dbaba8ca029c","system_id":"levelo_inurba_marseille","lat":43.23967,"lon":5.36631,"is_reserved":false,"is_disabled":false,"rental_uris":{"android":"levelo://app?vid=6f2ad226-33bf-40e7-bb8e-dbaba8ca029c","ios":"levelo://app?vid=6f2ad226-33bf-40e7-bb8e-dbaba8ca029c"},"vehicle_type_id":"4","last_reported":1747505610,"current_range_meters":5600,"station_id":"ce4bhi12rcd13ifvqfp0","pricing_plan_id":"cebpf4jnsgd1na2vs0mg"},{"bike_id":"1fdd971e-b654-4179-9617-7c7716ea612d","system_id":"levelo_inurba_marseille","lat":43.316925,"lon":5.404737,"is_reserved":false,"is_disabled":false,"rental_uris":{"android":"levelo://app?vid=1fdd971e-b654-4179-9617-7c7716ea612d","ios":"levelo://app?vid=1fdd971e-b654-4179-9617-7c7716ea612d"},"vehicle_type_id":"4","last_reported":1747505610,"current_range_meters":6000,"station_id":"","pricing_plan_id":"cebpf4jnsgd1na2vs0mg"},{"bike_id":"280a4d83-84f3-4791-a4e7-cc83f3a05a61","system_id":"levelo_inurba_marseille","lat":43.26557,"lon":5.37284,"is_reserved":false,"is_disabled":false,"rental_uris":{"android":"levelo://app?vid=280a4d83-84f3-4791-a4e7-cc83f3a05a61","ios":"levelo://app?vid=280a4d83-84f3-4791-a4e7-cc83f3a05a61"},"vehicle_type_id":"4","last_reported":1747505610,"current_range_meters":6000,"station_id":"ce4bhg12rcd13ifvqf70","pricing_plan_id":"cebpf4jnsgd1na2vs0mg"},{"bike_id":"e0e4ace6-4889-49bf-ae50-7485cd51cafb","system_id":"levelo_inurba_marseille","lat":43.32364,"lon":5.38878,"is_reserved":false,"is_disabled":false,"rental_uris":{"android":"levelo://app?vid=e0e4ace6-4889-49bf-ae50-7485cd51cafb","ios":"levelo://app?vid=e0e4ace6-4889-49bf-ae50-7485cd51cafb"},"vehicle_type_id":"4","last_reported":1747505610,"current_range_meters":6000,"station_id":"ce4bhqp2rcd13ifvqhog","pricing_plan_id":"cebpf4jnsgd1na2vs0mg"},{"bike_id":"c1e77f61-f385-4969-8161-e2436730fd3b","system_id":"levelo_inurba_marseille","lat":43.21753,"lon":5.34598,"is_reserved":false,"is_disabled":false,"rental_uris":{"android":"levelo://app?vid=c1e77f61-f385-4969-8161-e2436730fd3b","ios":"levelo://app?vid=c1e77f61-f385-4969-8161-e2436730fd3b"},"vehicle_type_id":"4","last_reported":1747505610,"current_range_meters":6000,"station_id":"st_cvj6r9ubvosntc0bgbag","pricing_plan_id":"cebpf4jnsgd1na2vs0mg"},{"bike_id":"c265cad5-7eed-45a4-b19b-7dc58a698ed0","system_id":"levelo_inurba_marseille","lat":43.29584,"lon":5.36739,"is_reserved":false,"is_disabled":false,"rental_uris":{"android":"levelo://app?vid=c265cad5-7eed-45a4-b19b-7dc58a698ed0","ios":"levelo://app?vid=c265cad5-7eed-45a4-b19b-7dc58a698ed0"},"vehicle_type_id":"4","last_reported":1747505610,"current_range_meters":6000,"station_id":"ce4bgph2rcd13ifvqc2g","pricing_plan_id":"cebpf4jnsgd1na2vs0mg"},{"bike_id":"8281b740-9b7a-4c29-bdd6-0ce6b9e3bba6","system_id":"levelo_inurba_marseille","lat":43.25089,"lon":5.39524,"is_reserved":false,"is_disabled":false,"rental_uris":{"android":"levelo://app?vid=8281b740-9b7a-4c29-bdd6-0ce6b9e3bba6","ios":"levelo://app?vid=8281b740-9b7a-4c29-bdd6-0ce6b9e3bba6"},"vehicle_type_id":"4","last_reported":1747505610,"current_range_meters":6000,"station_id":"ce4bhm12rcd13ifvqgkg","pricing_plan_id":"cebpf4jnsgd1na2vs0mg"},{"bike_id":"21030218-cad3-4650-a3e2-3966313b2b2d","system_id":"levelo_inurba_marseille","lat":43.29783,"lon":5.37109,"is_reserved":false,"is_disabled":false,"rental_uris":{"android":"levelo://app?vid=21030218-cad3-4650-a3e2-3966313b2b2d","ios":"levelo://app?vid=21030218-cad3-4650-a3e2-3966313b2b2d"},"vehicle_type_id":"4","last_reported":1747505610,"current_range_meters":6000,"station_id":"ce4bgop2rcd13ifvqc1g","pricing_plan_id":"cebpf4jnsgd1na2vs0mg"},{"bike_id":"5c7d5ff1-4256-4b62-8f2f-b3f2344a873d","system_id":"levelo_inurba_marseille","lat":43.31491,"lon":5.37308,"is_reserved":false,"is_disabled":false,"rental_uris":{"android":"levelo://app?vid=5c7d5ff1-4256-4b62-8f2f-b3f2344a873d","ios":"levelo://app?vid=5c7d5ff1-4256-4b62-8f2f-b3f2344a873d"},"vehicle_type_id":"4","last_reported":1747505610,"current_range_meters":6000,"station_id":"ce4bgt12rcd13ifvqcd0","pricing_plan_id":"cebpf4jnsgd1na2vs0mg"},{"bike_id":"0ca99a24-717c-4bb8-a6de-d052d09a876b","system_id":"levelo_inurba_marseille","lat":43.25126,"lon":5.40279,"is_reserved":false,"is_disabled":false,"rental_uris":{"android":"levelo://app?vid=0ca99a24-717c-4bb8-a6de-d052d09a876b","ios":"levelo://app?vid=0ca99a24-717c-4bb8-a6de-d052d09a876b"},"vehicle_type_id":"4","last_reported":1747505610,"current_range_meters":6400,"station_id":"ce4bhlh2rcd13ifvqgig","pricing_plan_id":"cebpf4jnsgd1na2vs0mg"},{"bike_id":"c1272a6a-9d0b-4ebe-a02e-3e07ab483a66","system_id":"levelo_inurba_marseille","lat":43.26679,"lon":5.38274,"is_reserved":false,"is_disabled":false,"rental_uris":{"android":"levelo://app?vid=c1272a6a-9d0b-4ebe-a02e-3e07ab483a66","ios":"levelo://app?vid=c1272a6a-9d0b-4ebe-a02e-3e07ab483a66"},"vehicle_type_id":"4","last_reported":1747505610,"current_range_meters":6400,"station_id":"ce4bhg92rcd13ifvqf90","pricing_plan_id":"cebpf4jnsgd1na2vs0mg"},{"bike_id":"0929b969-a1de-4da2-a854-cf69b0a949df","system_id":"levelo_inurba_marseille","lat":43.29931,"lon":5.3655,"is_reserved":false,"is_disabled":false,"rental_uris":{"android":"levelo://app?vid=0929b969-a1de-4da2-a854-cf69b0a949df","ios":"levelo://app?vid=0929b969-a1de-4da2-a854-cf69b0a949df"},"vehicle_type_id":"4","last_reported":1747505610,"current_range_meters":6400,"station_id":"ce4bgm92rcd13ifvqbr0","pricing_plan_id":"cebpf4jnsgd1na2vs0mg"},{"bike_id":"fd76a433-4247-4795-8250-9931730a2234","system_id":"levelo_inurba_marseille","lat":43.29514,"lon":5.37511,"is_reserved":false,"is_disabled":false,"rental_uris":{"android":"levelo://app?vid=fd76a433-4247-4795-8250-9931730a2234","ios":"levelo://app?vid=fd76a433-4247-4795-8250-9931730a2234"},"vehicle_type_id":"4","last_reported":1747505610,"current_range_meters":6400,"station_id":"ce4bgkp2rcd13ifvqbmg","pricing_plan_id":"cebpf4jnsgd1na2vs0mg"},{"bike_id":"3200028d-adb7-46d7-854a-0d16d1a6f998","system_id":"levelo_inurba_marseille","lat":43.29777,"lon":5.3811,"is_reserved":false,"is_disabled":true,"rental_uris":{"android":"levelo://app?vid=3200028d-adb7-46d7-854a-0d16d1a6f998","ios":"levelo://app?vid=3200028d-adb7-46d7-854a-0d16d1a6f998"},"vehicle_type_id":"4","last_reported":1747505610,"current_range_meters":6800,"station_id":"ce4bgip2rcd13ifvqbb0","pricing_plan_id":"cebpf4jnsgd1na2vs0mg"},{"bike_id":"60d2207c-b4c4-4360-8dfc-fe42fed2e1cc","system_id":"levelo_inurba_marseille","lat":43.29284,"lon":5.36831,"is_reserved":false,"is_disabled":false,"rental_uris":{"android":"levelo://app?vid=60d2207c-b4c4-4360-8dfc-fe42fed2e1cc","ios":"levelo://app?vid=60d2207c-b4c4-4360-8dfc-fe42fed2e1cc"},"vehicle_type_id":"4","last_reported":1747505610,"current_range_meters":6800,"station_id":"ce4bhbp2rcd13ifvqesg","pricing_plan_id":"cebpf4jnsgd1na2vs0mg"},{"bike_id":"c106489d-3153-48d5-ab1e-ccc2bdfc676a","system_id":"levelo_inurba_marseille","lat":43.29857,"lon":5.36283,"is_reserved":false,"is_disabled":false,"rental_uris":{"android":"levelo://app?vid=c106489d-3153-48d5-ab1e-ccc2bdfc676a","ios":"levelo://app?vid=c106489d-3153-48d5-ab1e-ccc2bdfc676a"},"vehicle_type_id":"4","last_reported":1747505610,"current_range_meters":6800,"station_id":"ce4bgpp2rcd13ifvqc3g","pricing_plan_id":"cebpf4jnsgd1na2vs0mg"},{"bike_id":"78b6bc8f-ce2f-4c76-bf94-56581d4854e1","system_id":"levelo_inurba_marseille","lat":43.32231,"lon":5.37128,"is_reserved":false,"is_disabled":false,"rental_uris":{"android":"levelo://app?vid=78b6bc8f-ce2f-4c76-bf94-56581d4854e1","ios":"levelo://app?vid=78b6bc8f-ce2f-4c76-bf94-56581d4854e1"},"vehicle_type_id":"4","last_reported":1747505610,"current_range_meters":6800,"station_id":"","pricing_plan_id":"cebpf4jnsgd1na2vs0mg"},{"bike_id":"6e612e7b-28be-478c-9618-97651a5de57b","system_id":"levelo_inurba_marseille","lat":43.24642,"lon":5.39547,"is_reserved":false,"is_disabled":false,"rental_uris":{"android":"levelo://app?vid=6e612e7b-28be-478c-9618-97651a5de57b","ios":"levelo://app?vid=6e612e7b-28be-478c-9618-97651a5de57b"},"vehicle_type_id":"4","last_reported":1747505610,"current_range_meters":6800,"station_id":"","pricing_plan_id":"cebpf4jnsgd1na2vs0mg"},{"bike_id":"6f0eb859-c354-4ec9-9ed0-fc59fdc99960","system_id":"levelo_inurba_marseille","lat":43.317201,"lon":5.423994,"is_reserved":false,"is_disabled":false,"rental_uris":{"android":"levelo://app?vid=6f0eb859-c354-4ec9-9ed0-fc59fdc99960","ios":"levelo://app?vid=6f0eb859-c354-4ec9-9ed0-fc59fdc99960"},"vehicle_type_id":"4","last_reported":1747505610,"current_range_meters":6800,"station_id":"ce4bhp92rcd13ifvqhbg","pricing_plan_id":"cebpf4jnsgd1na2vs0mg"},{"bike_id":"547f3f82-ba1b-4520-b634-adf098624e39","system_id":"levelo_inurba_marseille","lat":43.27199,"lon":5.39181,"is_reserved":false,"is_disabled":false,"rental_uris":{"android":"levelo://app?vid=547f3f82-ba1b-4520-b634-adf098624e39","ios":"levelo://app?vid=547f3f82-ba1b-4520-b634-adf098624e39"},"vehicle_type_id":"4","last_reported":1747505610,"current_range_meters":6800,"station_id":"ce4bhhp2rcd13ifvqfm0","pricing_plan_id":"cebpf4jnsgd1na2vs0mg"},{"bike_id":"550fbdcd-823d-428d-a876-c0c4e2bc9eaa","system_id":"levelo_inurba_marseille","lat":43.24081,"lon":5.37751,"is_reserved":false,"is_disabled":false,"rental_uris":{"android":"levelo://app?vid=550fbdcd-823d-428d-a876-c0c4e2bc9eaa","ios":"levelo://app?vid=550fbdcd-823d-428d-a876-c0c4e2bc9eaa"},"vehicle_type_id":"4","last_reported":1747505610,"current_range_meters":6800,"station_id":"ce4bhnp2rcd13ifvqgvg","pricing_plan_id":"cebpf4jnsgd1na2vs0mg"},{"bike_id":"22687f9c-53ac-43ac-8907-d1f7b5876312","system_id":"levelo_inurba_marseille","lat":43.295166,"lon":5.374496,"is_reserved":false,"is_disabled":false,"rental_uris":{"android":"levelo://app?vid=22687f9c-53ac-43ac-8907-d1f7b5876312","ios":"levelo://app?vid=22687f9c-53ac-43ac-8907-d1f7b5876312"},"vehicle_type_id":"4","last_reported":1747505610,"current_range_meters":6400,"station_id":"ce4bgkp2rcd13ifvqbmg","pricing_plan_id":"cebpf4jnsgd1na2vs0mg"},{"bike_id":"d0cc36ba-dea5-4301-b9bc-2db32098db5e","system_id":"levelo_inurba_marseille","lat":43.25081,"lon":5.39515,"is_reserved":false,"is_disabled":false,"rental_uris":{"android":"levelo://app?vid=d0cc36ba-dea5-4301-b9bc-2db32098db5e","ios":"levelo://app?vid=d0cc36ba-dea5-4301-b9bc-2db32098db5e"},"vehicle_type_id":"4","last_reported":1747505610,"current_range_meters":6800,"station_id":"ce4bhm12rcd13ifvqgkg","pricing_plan_id":"cebpf4jnsgd1na2vs0mg"},{"bike_id":"be0eeaa6-6a01-46b0-a0ef-e5c5255336fe","system_id":"levelo_inurba_marseille","lat":43.29841,"lon":5.36277,"is_reserved":false,"is_disabled":false,"rental_uris":{"android":"levelo://app?vid=be0eeaa6-6a01-46b0-a0ef-e5c5255336fe","ios":"levelo://app?vid=be0eeaa6-6a01-46b0-a0ef-e5c5255336fe"},"vehicle_type_id":"4","last_reported":1747505610,"current_range_meters":6800,"station_id":"ce4bgpp2rcd13ifvqc3g","pricing_plan_id":"cebpf4jnsgd1na2vs0mg"},{"bike_id":"264c07ec-dfec-47be-9f59-b98b9730cf6f","system_id":"levelo_inurba_marseille","lat":43.28719,"lon":5.37935,"is_reserved":false,"is_disabled":false,"rental_uris":{"android":"levelo://app?vid=264c07ec-dfec-47be-9f59-b98b9730cf6f","ios":"levelo://app?vid=264c07ec-dfec-47be-9f59-b98b9730cf6f"},"vehicle_type_id":"4","last_reported":1747505610,"current_range_meters":6800,"station_id":"ce4bh9p2rcd13ifvqec0","pricing_plan_id":"cebpf4jnsgd1na2vs0mg"},{"bike_id":"a392d7ff-afbd-4943-b95f-0e4810e0d2f0","system_id":"levelo_inurba_marseille","lat":43.28717,"lon":5.37938,"is_reserved":false,"is_disabled":false,"rental_uris":{"android":"levelo://app?vid=a392d7ff-afbd-4943-b95f-0e4810e0d2f0","ios":"levelo://app?vid=a392d7ff-afbd-4943-b95f-0e4810e0d2f0"},"vehicle_type_id":"4","last_reported":1747505610,"current_range_meters":6800,"station_id":"ce4bh9p2rcd13ifvqec0","pricing_plan_id":"cebpf4jnsgd1na2vs0mg"},{"bike_id":"7bedfe0d-ff9c-4963-aa41-171c29b454e1","system_id":"levelo_inurba_marseille","lat":43.26562,"lon":5.3901,"is_reserved":false,"is_disabled":false,"rental_uris":{"android":"levelo://app?vid=7bedfe0d-ff9c-4963-aa41-171c29b454e1","ios":"levelo://app?vid=7bedfe0d-ff9c-4963-aa41-171c29b454e1"},"vehicle_type_id":"4","last_reported":1747505610,"current_range_meters":6800,"station_id":"ce4bhe12rcd13ifvqf30","pricing_plan_id":"cebpf4jnsgd1na2vs0mg"},{"bike_id":"b6fce000-ed4d-48e0-93db-a58bed1975d0","system_id":"levelo_inurba_marseille","lat":43.27203,"lon":5.3917,"is_reserved":false,"is_disabled":false,"rental_uris":{"android":"levelo://app?vid=b6fce000-ed4d-48e0-93db-a58bed1975d0","ios":"levelo://app?vid=b6fce000-ed4d-48e0-93db-a58bed1975d0"},"vehicle_type_id":"4","last_reported":1747505610,"current_range_meters":6400,"station_id":"ce4bhhp2rcd13ifvqfm0","pricing_plan_id":"cebpf4jnsgd1na2vs0mg"},{"bike_id":"f4c88e79-74c7-4757-acf6-c5d248182012","system_id":"levelo_inurba_marseille","lat":43.29849,"lon":5.36292,"is_reserved":false,"is_disabled":false,"rental_uris":{"android":"levelo://app?vid=f4c88e79-74c7-4757-acf6-c5d248182012","ios":"levelo://app?vid=f4c88e79-74c7-4757-acf6-c5d248182012"},"vehicle_type_id":"4","last_reported":1747505610,"current_range_meters":7200,"station_id":"ce4bgpp2rcd13ifvqc3g","pricing_plan_id":"cebpf4jnsgd1na2vs0mg"},{"bike_id":"ab43c104-4e10-4612-851d-5dfa7077d919","system_id":"levelo_inurba_marseille","lat":43.29278,"lon":5.36842,"is_reserved":false,"is_disabled":false,"rental_uris":{"android":"levelo://app?vid=ab43c104-4e10-4612-851d-5dfa7077d919","ios":"levelo://app?vid=ab43c104-4e10-4612-851d-5dfa7077d919"},"vehicle_type_id":"4","last_reported":1747505610,"current_range_meters":7200,"station_id":"ce4bhbp2rcd13ifvqesg","pricing_plan_id":"cebpf4jnsgd1na2vs0mg"},{"bike_id":"81583fab-a757-4a28-b302-c4d4132d8f5c","system_id":"levelo_inurba_marseille","lat":43.28074,"lon":5.3966,"is_reserved":false,"is_disabled":false,"rental_uris":{"android":"levelo://app?vid=81583fab-a757-4a28-b302-c4d4132d8f5c","ios":"levelo://app?vid=81583fab-a757-4a28-b302-c4d4132d8f5c"},"vehicle_type_id":"4","last_reported":1747505610,"current_range_meters":7200,"station_id":"ce4bho12rcd13ifvqh2g","pricing_plan_id":"cebpf4jnsgd1na2vs0mg"},{"bike_id":"6cd5c425-f8ac-4068-b8ea-a8bfbef29ee5","system_id":"levelo_inurba_marseille","lat":43.25002,"lon":5.37935,"is_reserved":false,"is_disabled":false,"rental_uris":{"android":"levelo://app?vid=6cd5c425-f8ac-4068-b8ea-a8bfbef29ee5","ios":"levelo://app?vid=6cd5c425-f8ac-4068-b8ea-a8bfbef29ee5"},"vehicle_type_id":"4","last_reported":1747505610,"current_range_meters":7200,"station_id":"","pricing_plan_id":"cebpf4jnsgd1na2vs0mg"},{"bike_id":"ef825642-76b8-42d2-9a19-457183614ef0","system_id":"levelo_inurba_marseille","lat":43.31682,"lon":5.40479,"is_reserved":false,"is_disabled":false,"rental_uris":{"android":"levelo://app?vid=ef825642-76b8-42d2-9a19-457183614ef0","ios":"levelo://app?vid=ef825642-76b8-42d2-9a19-457183614ef0"},"vehicle_type_id":"4","last_reported":1747505610,"current_range_meters":7200,"station_id":"ce4bh012rcd13ifvqd00","pricing_plan_id":"cebpf4jnsgd1na2vs0mg"},{"bike_id":"abcab4dc-a01d-4842-8943-3e802a150462","system_id":"levelo_inurba_marseille","lat":43.30354,"lon":5.41882,"is_reserved":false,"is_disabled":false,"rental_uris":{"android":"levelo://app?vid=abcab4dc-a01d-4842-8943-3e802a150462","ios":"levelo://app?vid=abcab4dc-a01d-4842-8943-3e802a150462"},"vehicle_type_id":"4","last_reported":1747505610,"current_range_meters":7200,"station_id":"ce4bhop2rcd13ifvqh7g","pricing_plan_id":"cebpf4jnsgd1na2vs0mg"},{"bike_id":"7f6746c4-1c7c-4c44-a078-4a2fb50d8073","system_id":"levelo_inurba_marseille","lat":43.24551,"lon":5.39521,"is_reserved":false,"is_disabled":false,"rental_uris":{"android":"levelo://app?vid=7f6746c4-1c7c-4c44-a078-4a2fb50d8073","ios":"levelo://app?vid=7f6746c4-1c7c-4c44-a078-4a2fb50d8073"},"vehicle_type_id":"4","last_reported":1747505610,"current_range_meters":7200,"station_id":"ce4bhlp2rcd13ifvqgjg","pricing_plan_id":"cebpf4jnsgd1na2vs0mg"},{"bike_id":"eaaad56b-637b-49e0-8df3-68228f0a5881","system_id":"levelo_inurba_marseille","lat":43.31532,"lon":5.38033,"is_reserved":false,"is_disabled":false,"rental_uris":{"android":"levelo://app?vid=eaaad56b-637b-49e0-8df3-68228f0a5881","ios":"levelo://app?vid=eaaad56b-637b-49e0-8df3-68228f0a5881"},"vehicle_type_id":"4","last_reported":1747505610,"current_range_meters":7200,"station_id":"ce4bhsp2rcd13ifvqi50","pricing_plan_id":"cebpf4jnsgd1na2vs0mg"},{"bike_id":"8d3195bd-3a8c-4d5e-84f3-31e65a4a1232","system_id":"levelo_inurba_marseille","lat":43.28723,"lon":5.37931,"is_reserved":false,"is_disabled":false,"rental_uris":{"android":"levelo://app?vid=8d3195bd-3a8c-4d5e-84f3-31e65a4a1232","ios":"levelo://app?vid=8d3195bd-3a8c-4d5e-84f3-31e65a4a1232"},"vehicle_type_id":"4","last_reported":1747505610,"current_range_meters":8000,"station_id":"ce4bh9p2rcd13ifvqec0","pricing_plan_id":"cebpf4jnsgd1na2vs0mg"},{"bike_id":"bbd82c95-01a7-4785-92ed-ebfbcf1fab88","system_id":"levelo_inurba_marseille","lat":43.23206,"lon":5.35547,"is_reserved":false,"is_disabled":false,"rental_uris":{"android":"levelo://app?vid=bbd82c95-01a7-4785-92ed-ebfbcf1fab88","ios":"levelo://app?vid=bbd82c95-01a7-4785-92ed-ebfbcf1fab88"},"vehicle_type_id":"4","last_reported":1747505610,"current_range_meters":8000,"station_id":"ce4bhu92rcd13ifvqi70","pricing_plan_id":"cebpf4jnsgd1na2vs0mg"},{"bike_id":"3972b280-0f2e-4293-be39-76a5d547c1eb","system_id":"levelo_inurba_marseille","lat":43.28479,"lon":5.38413,"is_reserved":false,"is_disabled":false,"rental_uris":{"android":"levelo://app?vid=3972b280-0f2e-4293-be39-76a5d547c1eb","ios":"levelo://app?vid=3972b280-0f2e-4293-be39-76a5d547c1eb"},"vehicle_type_id":"4","last_reported":1747505610,"current_range_meters":5600,"station_id":"ce4bh512rcd13ifvqe3g","pricing_plan_id":"cebpf4jnsgd1na2vs0mg"},{"bike_id":"de94389c-489a-4da1-a603-c406f024563c","system_id":"levelo_inurba_marseille","lat":43.29846,"lon":5.36267,"is_reserved":false,"is_disabled":false,"rental_uris":{"android":"levelo://app?vid=de94389c-489a-4da1-a603-c406f024563c","ios":"levelo://app?vid=de94389c-489a-4da1-a603-c406f024563c"},"vehicle_type_id":"4","last_reported":1747505610,"current_range_meters":8000,"station_id":"ce4bgpp2rcd13ifvqc3g","pricing_plan_id":"cebpf4jnsgd1na2vs0mg"},{"bike_id":"394cadcc-3a78-4403-9bfc-1006acf0fb23","system_id":"levelo_inurba_marseille","lat":43.26215,"lon":5.379093,"is_reserved":false,"is_disabled":true,"rental_uris":{"android":"levelo://app?vid=394cadcc-3a78-4403-9bfc-1006acf0fb23","ios":"levelo://app?vid=394cadcc-3a78-4403-9bfc-1006acf0fb23"},"vehicle_type_id":"4","last_reported":1747505610,"current_range_meters":8000,"station_id":"ce4bhjp2rcd13ifvqg90","pricing_plan_id":"cebpf4jnsgd1na2vs0mg"},{"bike_id":"2dcd9dca-06e0-4888-88d7-8def1cbafe06","system_id":"levelo_inurba_marseille","lat":43.29565,"lon":5.36751,"is_reserved":false,"is_disabled":false,"rental_uris":{"android":"levelo://app?vid=2dcd9dca-06e0-4888-88d7-8def1cbafe06","ios":"levelo://app?vid=2dcd9dca-06e0-4888-88d7-8def1cbafe06"},"vehicle_type_id":"4","last_reported":1747505610,"current_range_meters":7200,"station_id":"ce4bgph2rcd13ifvqc2g","pricing_plan_id":"cebpf4jnsgd1na2vs0mg"},{"bike_id":"a1fae0e6-7858-4bf4-9fdc-a191133a8ba1","system_id":"levelo_inurba_marseille","lat":43.27063,"lon":5.402581,"is_reserved":false,"is_disabled":false,"rental_uris":{"android":"levelo://app?vid=a1fae0e6-7858-4bf4-9fdc-a191133a8ba1","ios":"levelo://app?vid=a1fae0e6-7858-4bf4-9fdc-a191133a8ba1"},"vehicle_type_id":"4","last_reported":1747505610,"current_range_meters":8000,"station_id":"ce4bhk92rcd13ifvqgc0","pricing_plan_id":"cebpf4jnsgd1na2vs0mg"},{"bike_id":"23955898-0909-4526-a7be-8fa1d1837683","system_id":"levelo_inurba_marseille","lat":43.30299,"lon":5.36878,"is_reserved":false,"is_disabled":false,"rental_uris":{"android":"levelo://app?vid=23955898-0909-4526-a7be-8fa1d1837683","ios":"levelo://app?vid=23955898-0909-4526-a7be-8fa1d1837683"},"vehicle_type_id":"4","last_reported":1747505610,"current_range_meters":8000,"station_id":"ce4bgqh2rcd13ifvqc5g","pricing_plan_id":"cebpf4jnsgd1na2vs0mg"},{"bike_id":"e6b90654-f35c-49ac-9d3a-a1d46fcb69e3","system_id":"levelo_inurba_marseille","lat":43.273071,"lon":5.390975,"is_reserved":false,"is_disabled":false,"rental_uris":{"android":"levelo://app?vid=e6b90654-f35c-49ac-9d3a-a1d46fcb69e3","ios":"levelo://app?vid=e6b90654-f35c-49ac-9d3a-a1d46fcb69e3"},"vehicle_type_id":"4","last_reported":1747505610,"current_range_meters":8000,"station_id":"ce4bhgp2rcd13ifvqfe0","pricing_plan_id":"cebpf4jnsgd1na2vs0mg"},{"bike_id":"da973b6e-dbca-4131-b699-f9d1d82c3982","system_id":"levelo_inurba_marseille","lat":43.30959,"lon":5.39019,"is_reserved":false,"is_disabled":false,"rental_uris":{"android":"levelo://app?vid=da973b6e-dbca-4131-b699-f9d1d82c3982","ios":"levelo://app?vid=da973b6e-dbca-4131-b699-f9d1d82c3982"},"vehicle_type_id":"4","last_reported":1747505610,"current_range_meters":8000,"station_id":"ce4bgup2rcd13ifvqco0","pricing_plan_id":"cebpf4jnsgd1na2vs0mg"},{"bike_id":"93eb4dbb-619c-4516-ba80-5b5f3bf40ae0","system_id":"levelo_inurba_marseille","lat":43.25819,"lon":5.3943,"is_reserved":false,"is_disabled":false,"rental_uris":{"android":"levelo://app?vid=93eb4dbb-619c-4516-ba80-5b5f3bf40ae0","ios":"levelo://app?vid=93eb4dbb-619c-4516-ba80-5b5f3bf40ae0"},"vehicle_type_id":"4","last_reported":1747505610,"current_range_meters":7200,"station_id":"ce4bhip2rcd13ifvqft0","pricing_plan_id":"cebpf4jnsgd1na2vs0mg"},{"bike_id":"7bf1a3b6-c953-4127-b182-3e7225723589","system_id":"levelo_inurba_marseille","lat":43.3089,"lon":5.37192,"is_reserved":false,"is_disabled":false,"rental_uris":{"android":"levelo://app?vid=7bf1a3b6-c953-4127-b182-3e7225723589","ios":"levelo://app?vid=7bf1a3b6-c953-4127-b182-3e7225723589"},"vehicle_type_id":"4","last_reported":1747505610,"current_range_meters":8400,"station_id":"ce4bguh2rcd13ifvqckg","pricing_plan_id":"cebpf4jnsgd1na2vs0mg"},{"bike_id":"c94a2a1e-e6f0-4728-8af3-060b80f0fc21","system_id":"levelo_inurba_marseille","lat":43.29228,"lon":5.36058,"is_reserved":false,"is_disabled":false,"rental_uris":{"android":"levelo://app?vid=c94a2a1e-e6f0-4728-8af3-060b80f0fc21","ios":"levelo://app?vid=c94a2a1e-e6f0-4728-8af3-060b80f0fc21"},"vehicle_type_id":"4","last_reported":1747505610,"current_range_meters":8800,"station_id":"ce4bhbh2rcd13ifvqeqg","pricing_plan_id":"cebpf4jnsgd1na2vs0mg"},{"bike_id":"4bfea6bc-2392-4775-9877-3dd198aa19b6","system_id":"levelo_inurba_marseille","lat":43.29431,"lon":5.39752,"is_reserved":false,"is_disabled":false,"rental_uris":{"android":"levelo://app?vid=4bfea6bc-2392-4775-9877-3dd198aa19b6","ios":"levelo://app?vid=4bfea6bc-2392-4775-9877-3dd198aa19b6"},"vehicle_type_id":"4","last_reported":1747505610,"current_range_meters":8000,"station_id":"ce4bh3h2rcd13ifvqdo0","pricing_plan_id":"cebpf4jnsgd1na2vs0mg"},{"bike_id":"7e356026-595e-498e-aaa8-96f29358020a","system_id":"levelo_inurba_marseille","lat":43.29175,"lon":5.37146,"is_reserved":false,"is_disabled":false,"rental_uris":{"android":"levelo://app?vid=7e356026-595e-498e-aaa8-96f29358020a","ios":"levelo://app?vid=7e356026-595e-498e-aaa8-96f29358020a"},"vehicle_type_id":"4","last_reported":1747505610,"current_range_meters":8400,"station_id":"ce4bha92rcd13ifvqeh0","pricing_plan_id":"cebpf4jnsgd1na2vs0mg"},{"bike_id":"794d3110-ab78-4ef2-a94f-10f659ae7c02","system_id":"levelo_inurba_marseille","lat":43.25868,"lon":5.39893,"is_reserved":false,"is_disabled":false,"rental_uris":{"android":"levelo://app?vid=794d3110-ab78-4ef2-a94f-10f659ae7c02","ios":"levelo://app?vid=794d3110-ab78-4ef2-a94f-10f659ae7c02"},"vehicle_type_id":"4","last_reported":1747505610,"current_range_meters":8400,"station_id":"ce4bhl92rcd13ifvqghg","pricing_plan_id":"cebpf4jnsgd1na2vs0mg"},{"bike_id":"1e5a7839-d218-47a9-988d-f5fdcdfa5acb","system_id":"levelo_inurba_marseille","lat":43.25825,"lon":5.3943,"is_reserved":false,"is_disabled":false,"rental_uris":{"android":"levelo://app?vid=1e5a7839-d218-47a9-988d-f5fdcdfa5acb","ios":"levelo://app?vid=1e5a7839-d218-47a9-988d-f5fdcdfa5acb"},"vehicle_type_id":"4","last_reported":1747505610,"current_range_meters":8400,"station_id":"ce4bhip2rcd13ifvqft0","pricing_plan_id":"cebpf4jnsgd1na2vs0mg"},{"bike_id":"3f6978b5-6fff-443a-8d1b-e43e74b6a464","system_id":"levelo_inurba_marseille","lat":43.27173,"lon":5.41,"is_reserved":false,"is_disabled":false,"rental_uris":{"android":"levelo://app?vid=3f6978b5-6fff-443a-8d1b-e43e74b6a464","ios":"levelo://app?vid=3f6978b5-6fff-443a-8d1b-e43e74b6a464"},"vehicle_type_id":"4","last_reported":1747505610,"current_range_meters":8000,"station_id":"ce4bhl12rcd13ifvqgf0","pricing_plan_id":"cebpf4jnsgd1na2vs0mg"},{"bike_id":"80847b8f-fe5f-4104-8fa5-2df627c6cf50","system_id":"levelo_inurba_marseille","lat":43.28105,"lon":5.37835,"is_reserved":false,"is_disabled":false,"rental_uris":{"android":"levelo://app?vid=80847b8f-fe5f-4104-8fa5-2df627c6cf50","ios":"levelo://app?vid=80847b8f-fe5f-4104-8fa5-2df627c6cf50"},"vehicle_type_id":"4","last_reported":1747505610,"current_range_meters":8400,"station_id":"ce4bha12rcd13ifvqee0","pricing_plan_id":"cebpf4jnsgd1na2vs0mg"},{"bike_id":"aac7be30-bfad-4543-bda0-ec72f19cbf5d","system_id":"levelo_inurba_marseille","lat":43.28695,"lon":5.39988,"is_reserved":false,"is_disabled":false,"rental_uris":{"android":"levelo://app?vid=aac7be30-bfad-4543-bda0-ec72f19cbf5d","ios":"levelo://app?vid=aac7be30-bfad-4543-bda0-ec72f19cbf5d"},"vehicle_type_id":"4","last_reported":1747505610,"current_range_meters":8000,"station_id":"ce4bho92rcd13ifvqh3g","pricing_plan_id":"cebpf4jnsgd1na2vs0mg"},{"bike_id":"6e333ddb-ff74-46f5-86ff-28cabf7ebc61","system_id":"levelo_inurba_marseille","lat":43.29264,"lon":5.4013,"is_reserved":false,"is_disabled":false,"rental_uris":{"android":"levelo://app?vid=6e333ddb-ff74-46f5-86ff-28cabf7ebc61","ios":"levelo://app?vid=6e333ddb-ff74-46f5-86ff-28cabf7ebc61"},"vehicle_type_id":"4","last_reported":1747505610,"current_range_meters":8400,"station_id":"ce4bh312rcd13ifvqdk0","pricing_plan_id":"cebpf4jnsgd1na2vs0mg"},{"bike_id":"f240e6f0-59f3-4b5b-b66f-184b49e4504c","system_id":"levelo_inurba_marseille","lat":43.26777,"lon":5.39436,"is_reserved":false,"is_disabled":false,"rental_uris":{"android":"levelo://app?vid=f240e6f0-59f3-4b5b-b66f-184b49e4504c","ios":"levelo://app?vid=f240e6f0-59f3-4b5b-b66f-184b49e4504c"},"vehicle_type_id":"4","last_reported":1747505610,"current_range_meters":8800,"station_id":"ce4bhh12rcd13ifvqfg0","pricing_plan_id":"cebpf4jnsgd1na2vs0mg"},{"bike_id":"6485c046-f03e-4175-ad4a-1c8a13b7e19c","system_id":"levelo_inurba_marseille","lat":43.29891,"lon":5.38895,"is_reserved":false,"is_disabled":false,"rental_uris":{"android":"levelo://app?vid=6485c046-f03e-4175-ad4a-1c8a13b7e19c","ios":"levelo://app?vid=6485c046-f03e-4175-ad4a-1c8a13b7e19c"},"vehicle_type_id":"4","last_reported":1747505610,"current_range_meters":8800,"station_id":"ce4bh392rcd13ifvqdl0","pricing_plan_id":"cebpf4jnsgd1na2vs0mg"},{"bike_id":"9dbba1b7-fc63-4e4c-9eb3-be0648ca56a6","system_id":"levelo_inurba_marseille","lat":43.3172,"lon":5.42398,"is_reserved":false,"is_disabled":false,"rental_uris":{"android":"levelo://app?vid=9dbba1b7-fc63-4e4c-9eb3-be0648ca56a6","ios":"levelo://app?vid=9dbba1b7-fc63-4e4c-9eb3-be0648ca56a6"},"vehicle_type_id":"4","last_reported":1747505610,"current_range_meters":8800,"station_id":"ce4bhp92rcd13ifvqhbg","pricing_plan_id":"cebpf4jnsgd1na2vs0mg"},{"bike_id":"e1cd3a7f-baea-4de5-8c24-4878c553322b","system_id":"levelo_inurba_marseille","lat":43.32292,"lon":5.38253,"is_reserved":false,"is_disabled":false,"rental_uris":{"android":"levelo://app?vid=e1cd3a7f-baea-4de5-8c24-4878c553322b","ios":"levelo://app?vid=e1cd3a7f-baea-4de5-8c24-4878c553322b"},"vehicle_type_id":"4","last_reported":1747505610,"current_range_meters":8800,"station_id":"ce4bhr12rcd13ifvqhqg","pricing_plan_id":"cebpf4jnsgd1na2vs0mg"},{"bike_id":"4004816e-123b-44bd-8254-b65446e4d206","system_id":"levelo_inurba_marseille","lat":43.3035,"lon":5.41883,"is_reserved":false,"is_disabled":false,"rental_uris":{"android":"levelo://app?vid=4004816e-123b-44bd-8254-b65446e4d206","ios":"levelo://app?vid=4004816e-123b-44bd-8254-b65446e4d206"},"vehicle_type_id":"4","last_reported":1747505610,"current_range_meters":8800,"station_id":"ce4bhop2rcd13ifvqh7g","pricing_plan_id":"cebpf4jnsgd1na2vs0mg"},{"bike_id":"47bf7178-38e4-45c5-8ad9-075cbbb5dbb8","system_id":"levelo_inurba_marseille","lat":43.27313,"lon":5.39109,"is_reserved":false,"is_disabled":false,"rental_uris":{"android":"levelo://app?vid=47bf7178-38e4-45c5-8ad9-075cbbb5dbb8","ios":"levelo://app?vid=47bf7178-38e4-45c5-8ad9-075cbbb5dbb8"},"vehicle_type_id":"4","last_reported":1747505610,"current_range_meters":9200,"station_id":"ce4bhgp2rcd13ifvqfe0","pricing_plan_id":"cebpf4jnsgd1na2vs0mg"},{"bike_id":"862157fb-f8c0-4dec-a2b6-4e40c2ca000a","system_id":"levelo_inurba_marseille","lat":43.29042,"lon":5.39942,"is_reserved":false,"is_disabled":true,"rental_uris":{"android":"levelo://app?vid=862157fb-f8c0-4dec-a2b6-4e40c2ca000a","ios":"levelo://app?vid=862157fb-f8c0-4dec-a2b6-4e40c2ca000a"},"vehicle_type_id":"4","last_reported":1747505610,"current_range_meters":9200,"station_id":"ce4bh392rcd13ifvqdm0","pricing_plan_id":"cebpf4jnsgd1na2vs0mg"},{"bike_id":"55fb771a-6e76-45c4-a9b7-cda97a0011d0","system_id":"levelo_inurba_marseille","lat":43.28671,"lon":5.38317,"is_reserved":false,"is_disabled":false,"rental_uris":{"android":"levelo://app?vid=55fb771a-6e76-45c4-a9b7-cda97a0011d0","ios":"levelo://app?vid=55fb771a-6e76-45c4-a9b7-cda97a0011d0"},"vehicle_type_id":"4","last_reported":1747505610,"current_range_meters":9200,"station_id":"","pricing_plan_id":"cebpf4jnsgd1na2vs0mg"},{"bike_id":"580b6f03-8579-4224-b28e-e8c77e245b14","system_id":"levelo_inurba_marseille","lat":43.24545,"lon":5.39518,"is_reserved":false,"is_disabled":false,"rental_uris":{"android":"levelo://app?vid=580b6f03-8579-4224-b28e-e8c77e245b14","ios":"levelo://app?vid=580b6f03-8579-4224-b28e-e8c77e245b14"},"vehicle_type_id":"4","last_reported":1747505610,"current_range_meters":9200,"station_id":"","pricing_plan_id":"cebpf4jnsgd1na2vs0mg"},{"bike_id":"aca5606a-e08f-445b-b972-58f1ba94fed3","system_id":"levelo_inurba_marseille","lat":43.303,"lon":5.39213,"is_reserved":false,"is_disabled":false,"rental_uris":{"android":"levelo://app?vid=aca5606a-e08f-445b-b972-58f1ba94fed3","ios":"levelo://app?vid=aca5606a-e08f-445b-b972-58f1ba94fed3"},"vehicle_type_id":"4","last_reported":1747505610,"current_range_meters":9600,"station_id":"ce4bgkh2rcd13ifvqbk0","pricing_plan_id":"cebpf4jnsgd1na2vs0mg"},{"bike_id":"83df6560-d839-4cc1-b9c4-6c477190f614","system_id":"levelo_inurba_marseille","lat":43.244,"lon":5.37056,"is_reserved":false,"is_disabled":true,"rental_uris":{"android":"levelo://app?vid=83df6560-d839-4cc1-b9c4-6c477190f614","ios":"levelo://app?vid=83df6560-d839-4cc1-b9c4-6c477190f614"},"vehicle_type_id":"4","last_reported":1747505610,"current_range_meters":9600,"station_id":"ce4bhhh2rcd13ifvqfk0","pricing_plan_id":"cebpf4jnsgd1na2vs0mg"},{"bike_id":"52821864-67bd-4b16-ace0-e0a73c9fb6fa","system_id":"levelo_inurba_marseille","lat":43.30644,"lon":5.40103,"is_reserved":false,"is_disabled":false,"rental_uris":{"android":"levelo://app?vid=52821864-67bd-4b16-ace0-e0a73c9fb6fa","ios":"levelo://app?vid=52821864-67bd-4b16-ace0-e0a73c9fb6fa"},"vehicle_type_id":"4","last_reported":1747505610,"current_range_meters":9600,"station_id":"ce4bh112rcd13ifvqda0","pricing_plan_id":"cebpf4jnsgd1na2vs0mg"},{"bike_id":"848b6061-d0e5-4185-92f5-e25517aae7ab","system_id":"levelo_inurba_marseille","lat":43.30604,"lon":5.37234,"is_reserved":false,"is_disabled":false,"rental_uris":{"android":"levelo://app?vid=848b6061-d0e5-4185-92f5-e25517aae7ab","ios":"levelo://app?vid=848b6061-d0e5-4185-92f5-e25517aae7ab"},"vehicle_type_id":"4","last_reported":1747505610,"current_range_meters":9600,"station_id":"ce4bgqh2rcd13ifvqc4g","pricing_plan_id":"cebpf4jnsgd1na2vs0mg"},{"bike_id":"9d1ced73-c438-4da3-99cb-5368d05e355b","system_id":"levelo_inurba_marseille","lat":43.26942,"lon":5.40257,"is_reserved":false,"is_disabled":false,"rental_uris":{"android":"levelo://app?vid=9d1ced73-c438-4da3-99cb-5368d05e355b","ios":"levelo://app?vid=9d1ced73-c438-4da3-99cb-5368d05e355b"},"vehicle_type_id":"4","last_reported":1747505610,"current_range_meters":9600,"station_id":"cjm6bp8fraef2m0cb0m0","pricing_plan_id":"cebpf4jnsgd1na2vs0mg"},{"bike_id":"c4fffe92-a9b9-4135-bbcc-b8f95984e285","system_id":"levelo_inurba_marseille","lat":43.292629,"lon":5.384072,"is_reserved":false,"is_disabled":false,"rental_uris":{"android":"levelo://app?vid=c4fffe92-a9b9-4135-bbcc-b8f95984e285","ios":"levelo://app?vid=c4fffe92-a9b9-4135-bbcc-b8f95984e285"},"vehicle_type_id":"4","last_reported":1747505610,"current_range_meters":9600,"station_id":"ce4bh692rcd13ifvqea0","pricing_plan_id":"cebpf4jnsgd1na2vs0mg"},{"bike_id":"6a4abd9f-a0b2-44cb-887b-ada3a1dd2658","system_id":"levelo_inurba_marseille","lat":43.29855,"lon":5.36269,"is_reserved":false,"is_disabled":false,"rental_uris":{"android":"levelo://app?vid=6a4abd9f-a0b2-44cb-887b-ada3a1dd2658","ios":"levelo://app?vid=6a4abd9f-a0b2-44cb-887b-ada3a1dd2658"},"vehicle_type_id":"4","last_reported":1747505610,"current_range_meters":9600,"station_id":"ce4bgpp2rcd13ifvqc3g","pricing_plan_id":"cebpf4jnsgd1na2vs0mg"},{"bike_id":"26808a24-9e36-4930-921c-a3113ce9be8a","system_id":"levelo_inurba_marseille","lat":43.2721,"lon":5.39099,"is_reserved":false,"is_disabled":false,"rental_uris":{"android":"levelo://app?vid=26808a24-9e36-4930-921c-a3113ce9be8a","ios":"levelo://app?vid=26808a24-9e36-4930-921c-a3113ce9be8a"},"vehicle_type_id":"4","last_reported":1747505610,"current_range_meters":9600,"station_id":"","pricing_plan_id":"cebpf4jnsgd1na2vs0mg"},{"bike_id":"bfb86bfb-2142-4725-b9d5-573a554688b6","system_id":"levelo_inurba_marseille","lat":43.29783,"lon":5.39342,"is_reserved":false,"is_disabled":false,"rental_uris":{"android":"levelo://app?vid=bfb86bfb-2142-4725-b9d5-573a554688b6","ios":"levelo://app?vid=bfb86bfb-2142-4725-b9d5-573a554688b6"},"vehicle_type_id":"4","last_reported":1747505610,"current_range_meters":9600,"station_id":"chh1huq6cuj3fo74tm60","pricing_plan_id":"cebpf4jnsgd1na2vs0mg"},{"bike_id":"2b4343e6-23f4-4f11-a8f1-c6bd8558055c","system_id":"levelo_inurba_marseille","lat":43.3174,"lon":5.42408,"is_reserved":false,"is_disabled":false,"rental_uris":{"android":"levelo://app?vid=2b4343e6-23f4-4f11-a8f1-c6bd8558055c","ios":"levelo://app?vid=2b4343e6-23f4-4f11-a8f1-c6bd8558055c"},"vehicle_type_id":"4","last_reported":1747505610,"current_range_meters":9200,"station_id":"ce4bhp92rcd13ifvqhbg","pricing_plan_id":"cebpf4jnsgd1na2vs0mg"},{"bike_id":"9001dfbe-007b-460a-abd6-ec52769da0d5","system_id":"levelo_inurba_marseille","lat":43.311734,"lon":5.387204,"is_reserved":false,"is_disabled":false,"rental_uris":{"android":"levelo://app?vid=9001dfbe-007b-460a-abd6-ec52769da0d5","ios":"levelo://app?vid=9001dfbe-007b-460a-abd6-ec52769da0d5"},"vehicle_type_id":"4","last_reported":1747505610,"current_range_meters":10000,"station_id":"ce4bgv12rcd13ifvqcp0","pricing_plan_id":"cebpf4jnsgd1na2vs0mg"},{"bike_id":"b8e6468b-87db-4ff6-8122-ef13bf5b7c8c","system_id":"levelo_inurba_marseille","lat":43.31379,"lon":5.37916,"is_reserved":false,"is_disabled":false,"rental_uris":{"android":"levelo://app?vid=b8e6468b-87db-4ff6-8122-ef13bf5b7c8c","ios":"levelo://app?vid=b8e6468b-87db-4ff6-8122-ef13bf5b7c8c"},"vehicle_type_id":"4","last_reported":1747505610,"current_range_meters":10000,"station_id":"","pricing_plan_id":"cebpf4jnsgd1na2vs0mg"},{"bike_id":"ca046087-a8bc-4f7b-9b15-45221230521d","system_id":"levelo_inurba_marseille","lat":43.27303,"lon":5.39109,"is_reserved":false,"is_disabled":false,"rental_uris":{"android":"levelo://app?vid=ca046087-a8bc-4f7b-9b15-45221230521d","ios":"levelo://app?vid=ca046087-a8bc-4f7b-9b15-45221230521d"},"vehicle_type_id":"4","last_reported":1747505610,"current_range_meters":10000,"station_id":"ce4bhgp2rcd13ifvqfe0","pricing_plan_id":"cebpf4jnsgd1na2vs0mg"},{"bike_id":"0390d809-9393-482c-b3c5-bf6e57a8f578","system_id":"levelo_inurba_marseille","lat":43.2986,"lon":5.36283,"is_reserved":false,"is_disabled":false,"rental_uris":{"android":"levelo://app?vid=0390d809-9393-482c-b3c5-bf6e57a8f578","ios":"levelo://app?vid=0390d809-9393-482c-b3c5-bf6e57a8f578"},"vehicle_type_id":"4","last_reported":1747505610,"current_range_meters":10000,"station_id":"ce4bgpp2rcd13ifvqc3g","pricing_plan_id":"cebpf4jnsgd1na2vs0mg"},{"bike_id":"0c34b593-39af-4c0b-aef0-e25cd680f42b","system_id":"levelo_inurba_marseille","lat":43.2318,"lon":5.3999,"is_reserved":false,"is_disabled":false,"rental_uris":{"android":"levelo://app?vid=0c34b593-39af-4c0b-aef0-e25cd680f42b","ios":"levelo://app?vid=0c34b593-39af-4c0b-aef0-e25cd680f42b"},"vehicle_type_id":"4","last_reported":1747505610,"current_range_meters":12000,"station_id":"ce4bhn12rcd13ifvqgqg","pricing_plan_id":"cebpf4jnsgd1na2vs0mg"},{"bike_id":"073cea53-701f-411c-9644-314e1cf7b9ca","system_id":"levelo_inurba_marseille","lat":43.32481,"lon":5.36562,"is_reserved":false,"is_disabled":false,"rental_uris":{"android":"levelo://app?vid=073cea53-701f-411c-9644-314e1cf7b9ca","ios":"levelo://app?vid=073cea53-701f-411c-9644-314e1cf7b9ca"},"vehicle_type_id":"4","last_reported":1747505610,"current_range_meters":10000,"station_id":"ce4bhs12rcd13ifvqhvg","pricing_plan_id":"cebpf4jnsgd1na2vs0mg"},{"bike_id":"6bad99d6-c400-4729-a6f1-dd5f2da6c3f2","system_id":"levelo_inurba_marseille","lat":43.31727,"lon":5.42362,"is_reserved":false,"is_disabled":false,"rental_uris":{"android":"levelo://app?vid=6bad99d6-c400-4729-a6f1-dd5f2da6c3f2","ios":"levelo://app?vid=6bad99d6-c400-4729-a6f1-dd5f2da6c3f2"},"vehicle_type_id":"4","last_reported":1747505610,"current_range_meters":10000,"station_id":"ce4bhp92rcd13ifvqhbg","pricing_plan_id":"cebpf4jnsgd1na2vs0mg"},{"bike_id":"ac6b1e09-f019-4344-ab1b-528e68b9077c","system_id":"levelo_inurba_marseille","lat":43.27314,"lon":5.39103,"is_reserved":false,"is_disabled":false,"rental_uris":{"android":"levelo://app?vid=ac6b1e09-f019-4344-ab1b-528e68b9077c","ios":"levelo://app?vid=ac6b1e09-f019-4344-ab1b-528e68b9077c"},"vehicle_type_id":"4","last_reported":1747505610,"current_range_meters":10000,"station_id":"ce4bhgp2rcd13ifvqfe0","pricing_plan_id":"cebpf4jnsgd1na2vs0mg"},{"bike_id":"4fbb7b1b-7f23-47f7-80fe-a4e6f73e37a2","system_id":"levelo_inurba_marseille","lat":43.31359,"lon":5.3848,"is_reserved":false,"is_disabled":false,"rental_uris":{"android":"levelo://app?vid=4fbb7b1b-7f23-47f7-80fe-a4e6f73e37a2","ios":"levelo://app?vid=4fbb7b1b-7f23-47f7-80fe-a4e6f73e37a2"},"vehicle_type_id":"4","last_reported":1747505610,"current_range_meters":10000,"station_id":"ce4bgt92rcd13ifvqcf0","pricing_plan_id":"cebpf4jnsgd1na2vs0mg"},{"bike_id":"de979d31-5445-4942-821b-4e1ba98232c9","system_id":"levelo_inurba_marseille","lat":43.29868,"lon":5.39727,"is_reserved":false,"is_disabled":false,"rental_uris":{"android":"levelo://app?vid=de979d31-5445-4942-821b-4e1ba98232c9","ios":"levelo://app?vid=de979d31-5445-4942-821b-4e1ba98232c9"},"vehicle_type_id":"4","last_reported":1747505610,"current_range_meters":10000,"station_id":"ce4bh0h2rcd13ifvqd50","pricing_plan_id":"cebpf4jnsgd1na2vs0mg"},{"bike_id":"a063b40b-df40-49a7-9f2d-1f2ba19974f2","system_id":"levelo_inurba_marseille","lat":43.29857,"lon":5.36284,"is_reserved":false,"is_disabled":false,"rental_uris":{"android":"levelo://app?vid=a063b40b-df40-49a7-9f2d-1f2ba19974f2","ios":"levelo://app?vid=a063b40b-df40-49a7-9f2d-1f2ba19974f2"},"vehicle_type_id":"4","last_reported":1747505610,"current_range_meters":10000,"station_id":"ce4bgpp2rcd13ifvqc3g","pricing_plan_id":"cebpf4jnsgd1na2vs0mg"},{"bike_id":"79842b00-96df-4fb6-b6da-9c22b71e810a","system_id":"levelo_inurba_marseille","lat":43.26493,"lon":5.39549,"is_reserved":false,"is_disabled":false,"rental_uris":{"android":"levelo://app?vid=79842b00-96df-4fb6-b6da-9c22b71e810a","ios":"levelo://app?vid=79842b00-96df-4fb6-b6da-9c22b71e810a"},"vehicle_type_id":"4","last_reported":1747505610,"current_range_meters":10000,"station_id":"ce4bhi12rcd13ifvqfq0","pricing_plan_id":"cebpf4jnsgd1na2vs0mg"},{"bike_id":"c3beb57a-9e27-4da6-991f-b555397b9187","system_id":"levelo_inurba_marseille","lat":43.28965,"lon":5.38381,"is_reserved":false,"is_disabled":false,"rental_uris":{"android":"levelo://app?vid=c3beb57a-9e27-4da6-991f-b555397b9187","ios":"levelo://app?vid=c3beb57a-9e27-4da6-991f-b555397b9187"},"vehicle_type_id":"4","last_reported":1747505610,"current_range_meters":10800,"station_id":"ce4bh612rcd13ifvqe6g","pricing_plan_id":"cebpf4jnsgd1na2vs0mg"},{"bike_id":"66a43757-335b-430c-bbf1-1ffd50fa4679","system_id":"levelo_inurba_marseille","lat":43.311686,"lon":5.387116,"is_reserved":false,"is_disabled":false,"rental_uris":{"android":"levelo://app?vid=66a43757-335b-430c-bbf1-1ffd50fa4679","ios":"levelo://app?vid=66a43757-335b-430c-bbf1-1ffd50fa4679"},"vehicle_type_id":"4","last_reported":1747505610,"current_range_meters":10800,"station_id":"ce4bgv12rcd13ifvqcp0","pricing_plan_id":"cebpf4jnsgd1na2vs0mg"},{"bike_id":"81c659b6-3a02-46e7-a46f-d340746ad32e","system_id":"levelo_inurba_marseille","lat":43.27379,"lon":5.36232,"is_reserved":false,"is_disabled":true,"rental_uris":{"android":"levelo://app?vid=81c659b6-3a02-46e7-a46f-d340746ad32e","ios":"levelo://app?vid=81c659b6-3a02-46e7-a46f-d340746ad32e"},"vehicle_type_id":"4","last_reported":1747505610,"current_range_meters":10800,"station_id":"ce4bhbh2rcd13ifvqeo0","pricing_plan_id":"cebpf4jnsgd1na2vs0mg"},{"bike_id":"82377e0c-7139-4988-a7fa-ea933ce968b2","system_id":"levelo_inurba_marseille","lat":43.27309,"lon":5.391063,"is_reserved":false,"is_disabled":false,"rental_uris":{"android":"levelo://app?vid=82377e0c-7139-4988-a7fa-ea933ce968b2","ios":"levelo://app?vid=82377e0c-7139-4988-a7fa-ea933ce968b2"},"vehicle_type_id":"4","last_reported":1747505610,"current_range_meters":10800,"station_id":"ce4bhgp2rcd13ifvqfe0","pricing_plan_id":"cebpf4jnsgd1na2vs0mg"},{"bike_id":"da17cca1-6049-4552-aa9f-6f82f234a76a","system_id":"levelo_inurba_marseille","lat":43.29421,"lon":5.38621,"is_reserved":false,"is_disabled":false,"rental_uris":{"android":"levelo://app?vid=da17cca1-6049-4552-aa9f-6f82f234a76a","ios":"levelo://app?vid=da17cca1-6049-4552-aa9f-6f82f234a76a"},"vehicle_type_id":"4","last_reported":1747505610,"current_range_meters":10800,"station_id":"ce4bh2h2rcd13ifvqdh0","pricing_plan_id":"cebpf4jnsgd1na2vs0mg"},{"bike_id":"1e1e8766-562c-47e5-b239-039198f39080","system_id":"levelo_inurba_marseille","lat":43.26225,"lon":5.37437,"is_reserved":false,"is_disabled":true,"rental_uris":{"android":"levelo://app?vid=1e1e8766-562c-47e5-b239-039198f39080","ios":"levelo://app?vid=1e1e8766-562c-47e5-b239-039198f39080"},"vehicle_type_id":"4","last_reported":1747505610,"current_range_meters":10800,"station_id":"ce4bhgp2rcd13ifvqfc0","pricing_plan_id":"cebpf4jnsgd1na2vs0mg"},{"bike_id":"4898d777-06db-4cd3-834c-7f2c4a783e7a","system_id":"levelo_inurba_marseille","lat":43.26033,"lon":5.375488,"is_reserved":false,"is_disabled":false,"rental_uris":{"android":"levelo://app?vid=4898d777-06db-4cd3-834c-7f2c4a783e7a","ios":"levelo://app?vid=4898d777-06db-4cd3-834c-7f2c4a783e7a"},"vehicle_type_id":"4","last_reported":1747505610,"current_range_meters":11200,"station_id":"","pricing_plan_id":"cebpf4jnsgd1na2vs0mg"},{"bike_id":"a02e7ec4-f839-45ba-a0de-626e5cc1876e","system_id":"levelo_inurba_marseille","lat":43.28727,"lon":5.37939,"is_reserved":false,"is_disabled":false,"rental_uris":{"android":"levelo://app?vid=a02e7ec4-f839-45ba-a0de-626e5cc1876e","ios":"levelo://app?vid=a02e7ec4-f839-45ba-a0de-626e5cc1876e"},"vehicle_type_id":"4","last_reported":1747505610,"current_range_meters":11200,"station_id":"ce4bh9p2rcd13ifvqec0","pricing_plan_id":"cebpf4jnsgd1na2vs0mg"},{"bike_id":"fba23bf6-6685-4550-bbe6-2ca5485e50f0","system_id":"levelo_inurba_marseille","lat":43.24645,"lon":5.38897,"is_reserved":false,"is_disabled":false,"rental_uris":{"android":"levelo://app?vid=fba23bf6-6685-4550-bbe6-2ca5485e50f0","ios":"levelo://app?vid=fba23bf6-6685-4550-bbe6-2ca5485e50f0"},"vehicle_type_id":"4","last_reported":1747505610,"current_range_meters":11200,"station_id":"ce4bhg12rcd13ifvqf60","pricing_plan_id":"cebpf4jnsgd1na2vs0mg"},{"bike_id":"10598d57-b1af-46f9-9b61-111a756bf0a8","system_id":"levelo_inurba_marseille","lat":43.25124,"lon":5.40313,"is_reserved":false,"is_disabled":false,"rental_uris":{"android":"levelo://app?vid=10598d57-b1af-46f9-9b61-111a756bf0a8","ios":"levelo://app?vid=10598d57-b1af-46f9-9b61-111a756bf0a8"},"vehicle_type_id":"4","last_reported":1747505610,"current_range_meters":11200,"station_id":"ce4bhlh2rcd13ifvqgig","pricing_plan_id":"cebpf4jnsgd1na2vs0mg"},{"bike_id":"36b33bb9-5329-4976-a2f3-a5815cfa6aa1","system_id":"levelo_inurba_marseille","lat":43.25085,"lon":5.395285,"is_reserved":false,"is_disabled":false,"rental_uris":{"android":"levelo://app?vid=36b33bb9-5329-4976-a2f3-a5815cfa6aa1","ios":"levelo://app?vid=36b33bb9-5329-4976-a2f3-a5815cfa6aa1"},"vehicle_type_id":"4","last_reported":1747505610,"current_range_meters":11600,"station_id":"ce4bhm12rcd13ifvqgkg","pricing_plan_id":"cebpf4jnsgd1na2vs0mg"},{"bike_id":"b934e6da-efb5-4ac5-a51a-eb50220f6e1b","system_id":"levelo_inurba_marseille","lat":43.26989,"lon":5.40594,"is_reserved":false,"is_disabled":true,"rental_uris":{"android":"levelo://app?vid=b934e6da-efb5-4ac5-a51a-eb50220f6e1b","ios":"levelo://app?vid=b934e6da-efb5-4ac5-a51a-eb50220f6e1b"},"vehicle_type_id":"4","last_reported":1747505610,"current_range_meters":11600,"station_id":"","pricing_plan_id":"cebpf4jnsgd1na2vs0mg"},{"bike_id":"ab1904d4-31f6-4d30-bad4-6636770922e7","system_id":"levelo_inurba_marseille","lat":43.26797,"lon":5.39416,"is_reserved":false,"is_disabled":false,"rental_uris":{"android":"levelo://app?vid=ab1904d4-31f6-4d30-bad4-6636770922e7","ios":"levelo://app?vid=ab1904d4-31f6-4d30-bad4-6636770922e7"},"vehicle_type_id":"4","last_reported":1747505610,"current_range_meters":11600,"station_id":"ce4bhh12rcd13ifvqfg0","pricing_plan_id":"cebpf4jnsgd1na2vs0mg"},{"bike_id":"272817ba-5ef5-4655-94f9-302214ab3fd0","system_id":"levelo_inurba_marseille","lat":43.26492,"lon":5.39534,"is_reserved":false,"is_disabled":false,"rental_uris":{"android":"levelo://app?vid=272817ba-5ef5-4655-94f9-302214ab3fd0","ios":"levelo://app?vid=272817ba-5ef5-4655-94f9-302214ab3fd0"},"vehicle_type_id":"4","last_reported":1747505610,"current_range_meters":11600,"station_id":"ce4bhi12rcd13ifvqfq0","pricing_plan_id":"cebpf4jnsgd1na2vs0mg"},{"bike_id":"b5878393-fc21-437b-87ad-81498e72a2f0","system_id":"levelo_inurba_marseille","lat":43.31163,"lon":5.38724,"is_reserved":false,"is_disabled":false,"rental_uris":{"android":"levelo://app?vid=b5878393-fc21-437b-87ad-81498e72a2f0","ios":"levelo://app?vid=b5878393-fc21-437b-87ad-81498e72a2f0"},"vehicle_type_id":"4","last_reported":1747505610,"current_range_meters":11600,"station_id":"ce4bgv12rcd13ifvqcp0","pricing_plan_id":"cebpf4jnsgd1na2vs0mg"},{"bike_id":"8b1b9fc8-2f5f-49e8-b567-ad39dc989cb7","system_id":"levelo_inurba_marseille","lat":43.29034,"lon":5.3756,"is_reserved":false,"is_disabled":true,"rental_uris":{"android":"levelo://app?vid=8b1b9fc8-2f5f-49e8-b567-ad39dc989cb7","ios":"levelo://app?vid=8b1b9fc8-2f5f-49e8-b567-ad39dc989cb7"},"vehicle_type_id":"4","last_reported":1747505610,"current_range_meters":11600,"station_id":"ce4bh692rcd13ifvqe90","pricing_plan_id":"cebpf4jnsgd1na2vs0mg"},{"bike_id":"b5d77a8f-fdc4-492d-8f9b-12c8d6129be4","system_id":"levelo_inurba_marseille","lat":43.27209,"lon":5.39171,"is_reserved":false,"is_disabled":false,"rental_uris":{"android":"levelo://app?vid=b5d77a8f-fdc4-492d-8f9b-12c8d6129be4","ios":"levelo://app?vid=b5d77a8f-fdc4-492d-8f9b-12c8d6129be4"},"vehicle_type_id":"4","last_reported":1747505610,"current_range_meters":11600,"station_id":"ce4bhhp2rcd13ifvqfm0","pricing_plan_id":"cebpf4jnsgd1na2vs0mg"},{"bike_id":"6e1bd625-3ec1-43df-9657-36d71ae09f8d","system_id":"levelo_inurba_marseille","lat":43.33747,"lon":5.37449,"is_reserved":false,"is_disabled":false,"rental_uris":{"android":"levelo://app?vid=6e1bd625-3ec1-43df-9657-36d71ae09f8d","ios":"levelo://app?vid=6e1bd625-3ec1-43df-9657-36d71ae09f8d"},"vehicle_type_id":"4","last_reported":1747505610,"current_range_meters":11600,"station_id":"","pricing_plan_id":"cebpf4jnsgd1na2vs0mg"},{"bike_id":"78e1da3c-b6b2-4f14-b5bb-706aa24108a6","system_id":"levelo_inurba_marseille","lat":43.272115,"lon":5.391705,"is_reserved":false,"is_disabled":false,"rental_uris":{"android":"levelo://app?vid=78e1da3c-b6b2-4f14-b5bb-706aa24108a6","ios":"levelo://app?vid=78e1da3c-b6b2-4f14-b5bb-706aa24108a6"},"vehicle_type_id":"4","last_reported":1747505610,"current_range_meters":12000,"station_id":"ce4bhhp2rcd13ifvqfm0","pricing_plan_id":"cebpf4jnsgd1na2vs0mg"},{"bike_id":"4206d1ce-b4ee-4658-b0f6-05d919ab0465","system_id":"levelo_inurba_marseille","lat":43.30431,"lon":5.38893,"is_reserved":false,"is_disabled":false,"rental_uris":{"android":"levelo://app?vid=4206d1ce-b4ee-4658-b0f6-05d919ab0465","ios":"levelo://app?vid=4206d1ce-b4ee-4658-b0f6-05d919ab0465"},"vehicle_type_id":"4","last_reported":1747505610,"current_range_meters":12000,"station_id":"ce4bgk12rcd13ifvqbi0","pricing_plan_id":"cebpf4jnsgd1na2vs0mg"},{"bike_id":"60f14375-aa9b-4f04-91e7-80b4f634f4ea","system_id":"levelo_inurba_marseille","lat":43.275697,"lon":5.384322,"is_reserved":false,"is_disabled":false,"rental_uris":{"android":"levelo://app?vid=60f14375-aa9b-4f04-91e7-80b4f634f4ea","ios":"levelo://app?vid=60f14375-aa9b-4f04-91e7-80b4f634f4ea"},"vehicle_type_id":"4","last_reported":1747505610,"current_range_meters":12000,"station_id":"ce4bhh12rcd13ifvqff0","pricing_plan_id":"cebpf4jnsgd1na2vs0mg"},{"bike_id":"ea5df583-c8aa-44b5-a1e0-6f92478b4065","system_id":"levelo_inurba_marseille","lat":43.28419,"lon":5.34978,"is_reserved":false,"is_disabled":false,"rental_uris":{"android":"levelo://app?vid=ea5df583-c8aa-44b5-a1e0-6f92478b4065","ios":"levelo://app?vid=ea5df583-c8aa-44b5-a1e0-6f92478b4065"},"vehicle_type_id":"4","last_reported":1747505610,"current_range_meters":12000,"station_id":"ce4bhbh2rcd13ifvqepg","pricing_plan_id":"cebpf4jnsgd1na2vs0mg"},{"bike_id":"047d4b14-2087-412f-a355-bd5ca051b6fa","system_id":"levelo_inurba_marseille","lat":43.30611,"lon":5.393437,"is_reserved":false,"is_disabled":false,"rental_uris":{"android":"levelo://app?vid=047d4b14-2087-412f-a355-bd5ca051b6fa","ios":"levelo://app?vid=047d4b14-2087-412f-a355-bd5ca051b6fa"},"vehicle_type_id":"4","last_reported":1747505610,"current_range_meters":12000,"station_id":"ce4bh0p2rcd13ifvqd80","pricing_plan_id":"cebpf4jnsgd1na2vs0mg"},{"bike_id":"4c33e9a2-0e5c-427f-a7cc-632c63a61d9d","system_id":"levelo_inurba_marseille","lat":43.28321,"lon":5.38132,"is_reserved":false,"is_disabled":true,"rental_uris":{"android":"levelo://app?vid=4c33e9a2-0e5c-427f-a7cc-632c63a61d9d","ios":"levelo://app?vid=4c33e9a2-0e5c-427f-a7cc-632c63a61d9d"},"vehicle_type_id":"4","last_reported":1747505610,"current_range_meters":12000,"station_id":"ce4bh412rcd13ifvqdr0","pricing_plan_id":"cebpf4jnsgd1na2vs0mg"},{"bike_id":"99795b96-409c-4a95-83d9-3540ec7c8d7d","system_id":"levelo_inurba_marseille","lat":43.27226,"lon":5.39155,"is_reserved":false,"is_disabled":false,"rental_uris":{"android":"levelo://app?vid=99795b96-409c-4a95-83d9-3540ec7c8d7d","ios":"levelo://app?vid=99795b96-409c-4a95-83d9-3540ec7c8d7d"},"vehicle_type_id":"4","last_reported":1747505610,"current_range_meters":12000,"station_id":"ce4bhhp2rcd13ifvqfm0","pricing_plan_id":"cebpf4jnsgd1na2vs0mg"},{"bike_id":"f991fad9-6a36-46a3-85b4-795eec09dea9","system_id":"levelo_inurba_marseille","lat":43.26024,"lon":5.37547,"is_reserved":false,"is_disabled":false,"rental_uris":{"android":"levelo://app?vid=f991fad9-6a36-46a3-85b4-795eec09dea9","ios":"levelo://app?vid=f991fad9-6a36-46a3-85b4-795eec09dea9"},"vehicle_type_id":"4","last_reported":1747505610,"current_range_meters":11600,"station_id":"ce4bhgh2rcd13ifvqfa0","pricing_plan_id":"cebpf4jnsgd1na2vs0mg"},{"bike_id":"85a6f221-57fc-426d-8518-c84e0670667b","system_id":"levelo_inurba_marseille","lat":43.31165,"lon":5.38719,"is_reserved":false,"is_disabled":false,"rental_uris":{"android":"levelo://app?vid=85a6f221-57fc-426d-8518-c84e0670667b","ios":"levelo://app?vid=85a6f221-57fc-426d-8518-c84e0670667b"},"vehicle_type_id":"4","last_reported":1747505610,"current_range_meters":11600,"station_id":"ce4bgv12rcd13ifvqcp0","pricing_plan_id":"cebpf4jnsgd1na2vs0mg"},{"bike_id":"5e852e79-f357-4391-b3cc-1a233eb573e4","system_id":"levelo_inurba_marseille","lat":43.31109,"lon":5.37761,"is_reserved":false,"is_disabled":false,"rental_uris":{"android":"levelo://app?vid=5e852e79-f357-4391-b3cc-1a233eb573e4","ios":"levelo://app?vid=5e852e79-f357-4391-b3cc-1a233eb573e4"},"vehicle_type_id":"4","last_reported":1747505610,"current_range_meters":12000,"station_id":"ce4bgt92rcd13ifvqcg0","pricing_plan_id":"cebpf4jnsgd1na2vs0mg"},{"bike_id":"d61fb63a-1e70-400e-8f51-60c75fb4d020","system_id":"levelo_inurba_marseille","lat":43.311757,"lon":5.38722,"is_reserved":false,"is_disabled":false,"rental_uris":{"android":"levelo://app?vid=d61fb63a-1e70-400e-8f51-60c75fb4d020","ios":"levelo://app?vid=d61fb63a-1e70-400e-8f51-60c75fb4d020"},"vehicle_type_id":"4","last_reported":1747505610,"current_range_meters":12000,"station_id":"ce4bgv12rcd13ifvqcp0","pricing_plan_id":"cebpf4jnsgd1na2vs0mg"},{"bike_id":"2bbb8131-5a80-4d80-921f-b36644287362","system_id":"levelo_inurba_marseille","lat":43.2849,"lon":5.384,"is_reserved":false,"is_disabled":false,"rental_uris":{"android":"levelo://app?vid=2bbb8131-5a80-4d80-921f-b36644287362","ios":"levelo://app?vid=2bbb8131-5a80-4d80-921f-b36644287362"},"vehicle_type_id":"4","last_reported":1747505610,"current_range_meters":12000,"station_id":"ce4bh512rcd13ifvqe3g","pricing_plan_id":"cebpf4jnsgd1na2vs0mg"},{"bike_id":"1e154a11-3324-46b8-acab-f852665de604","system_id":"levelo_inurba_marseille","lat":43.26798,"lon":5.39388,"is_reserved":false,"is_disabled":false,"rental_uris":{"android":"levelo://app?vid=1e154a11-3324-46b8-acab-f852665de604","ios":"levelo://app?vid=1e154a11-3324-46b8-acab-f852665de604"},"vehicle_type_id":"4","last_reported":1747505610,"current_range_meters":12400,"station_id":"ce4bhh12rcd13ifvqfg0","pricing_plan_id":"cebpf4jnsgd1na2vs0mg"},{"bike_id":"51a33848-f0f0-40ec-b6c6-8948c992d932","system_id":"levelo_inurba_marseille","lat":43.2509,"lon":5.39514,"is_reserved":false,"is_disabled":false,"rental_uris":{"android":"levelo://app?vid=51a33848-f0f0-40ec-b6c6-8948c992d932","ios":"levelo://app?vid=51a33848-f0f0-40ec-b6c6-8948c992d932"},"vehicle_type_id":"4","last_reported":1747505610,"current_range_meters":12400,"station_id":"ce4bhm12rcd13ifvqgkg","pricing_plan_id":"cebpf4jnsgd1na2vs0mg"},{"bike_id":"d694cf2e-b8ab-4fbf-8b16-bfba80adfa05","system_id":"levelo_inurba_marseille","lat":43.29288,"lon":5.40117,"is_reserved":false,"is_disabled":false,"rental_uris":{"android":"levelo://app?vid=d694cf2e-b8ab-4fbf-8b16-bfba80adfa05","ios":"levelo://app?vid=d694cf2e-b8ab-4fbf-8b16-bfba80adfa05"},"vehicle_type_id":"4","last_reported":1747505610,"current_range_meters":12000,"station_id":"ce4bh312rcd13ifvqdk0","pricing_plan_id":"cebpf4jnsgd1na2vs0mg"},{"bike_id":"4a86f4fc-3711-4a60-b7dd-21c6880091fe","system_id":"levelo_inurba_marseille","lat":43.27668,"lon":5.38912,"is_reserved":false,"is_disabled":false,"rental_uris":{"android":"levelo://app?vid=4a86f4fc-3711-4a60-b7dd-21c6880091fe","ios":"levelo://app?vid=4a86f4fc-3711-4a60-b7dd-21c6880091fe"},"vehicle_type_id":"4","last_reported":1747505610,"current_range_meters":12400,"station_id":"ce4bhi12rcd13ifvqfo0","pricing_plan_id":"cebpf4jnsgd1na2vs0mg"},{"bike_id":"14603e41-b2dd-4757-a53c-2e366aa4f983","system_id":"levelo_inurba_marseille","lat":43.269961,"lon":5.428197,"is_reserved":false,"is_disabled":false,"rental_uris":{"android":"levelo://app?vid=14603e41-b2dd-4757-a53c-2e366aa4f983","ios":"levelo://app?vid=14603e41-b2dd-4757-a53c-2e366aa4f983"},"vehicle_type_id":"4","last_reported":1747505610,"current_range_meters":12400,"station_id":"","pricing_plan_id":"cebpf4jnsgd1na2vs0mg"},{"bike_id":"9d205712-4faf-4521-a59b-52c8a122e1ca","system_id":"levelo_inurba_marseille","lat":43.30798,"lon":5.38164,"is_reserved":false,"is_disabled":true,"rental_uris":{"android":"levelo://app?vid=9d205712-4faf-4521-a59b-52c8a122e1ca","ios":"levelo://app?vid=9d205712-4faf-4521-a59b-52c8a122e1ca"},"vehicle_type_id":"4","last_reported":1747505610,"current_range_meters":12800,"station_id":"ce4bgt12rcd13ifvqce0","pricing_plan_id":"cebpf4jnsgd1na2vs0mg"},{"bike_id":"3980d76b-e904-45ba-9bbd-4ee10919b44c","system_id":"levelo_inurba_marseille","lat":43.31079,"lon":5.38187,"is_reserved":false,"is_disabled":false,"rental_uris":{"android":"levelo://app?vid=3980d76b-e904-45ba-9bbd-4ee10919b44c","ios":"levelo://app?vid=3980d76b-e904-45ba-9bbd-4ee10919b44c"},"vehicle_type_id":"4","last_reported":1747505610,"current_range_meters":12800,"station_id":"","pricing_plan_id":"cebpf4jnsgd1na2vs0mg"},{"bike_id":"46073970-6fec-4720-851a-12a46e3cb0d4","system_id":"levelo_inurba_marseille","lat":43.29896,"lon":5.37475,"is_reserved":false,"is_disabled":false,"rental_uris":{"android":"levelo://app?vid=46073970-6fec-4720-851a-12a46e3cb0d4","ios":"levelo://app?vid=46073970-6fec-4720-851a-12a46e3cb0d4"},"vehicle_type_id":"4","last_reported":1747505610,"current_range_meters":12800,"station_id":"ce4bgjh2rcd13ifvqbg0","pricing_plan_id":"cebpf4jnsgd1na2vs0mg"},{"bike_id":"83c3f74d-7fec-4920-8118-0ae071cfd360","system_id":"levelo_inurba_marseille","lat":43.29297,"lon":5.37454,"is_reserved":false,"is_disabled":false,"rental_uris":{"android":"levelo://app?vid=83c3f74d-7fec-4920-8118-0ae071cfd360","ios":"levelo://app?vid=83c3f74d-7fec-4920-8118-0ae071cfd360"},"vehicle_type_id":"4","last_reported":1747505610,"current_range_meters":14000,"station_id":"ce4bgi12rcd13ifvqb70","pricing_plan_id":"cebpf4jnsgd1na2vs0mg"},{"bike_id":"ac4821a8-c4b7-4dbd-82a6-67d50d25afbb","system_id":"levelo_inurba_marseille","lat":43.29575,"lon":5.37522,"is_reserved":false,"is_disabled":false,"rental_uris":{"android":"levelo://app?vid=ac4821a8-c4b7-4dbd-82a6-67d50d25afbb","ios":"levelo://app?vid=ac4821a8-c4b7-4dbd-82a6-67d50d25afbb"},"vehicle_type_id":"4","last_reported":1747505610,"current_range_meters":13600,"station_id":"ce4bgh92rcd13ifvqb50","pricing_plan_id":"cebpf4jnsgd1na2vs0mg"},{"bike_id":"6bbe9715-5587-4cb5-afc4-a0c352cbced8","system_id":"levelo_inurba_marseille","lat":43.29934,"lon":5.36557,"is_reserved":false,"is_disabled":false,"rental_uris":{"android":"levelo://app?vid=6bbe9715-5587-4cb5-afc4-a0c352cbced8","ios":"levelo://app?vid=6bbe9715-5587-4cb5-afc4-a0c352cbced8"},"vehicle_type_id":"4","last_reported":1747505610,"current_range_meters":13600,"station_id":"ce4bgm92rcd13ifvqbr0","pricing_plan_id":"cebpf4jnsgd1na2vs0mg"},{"bike_id":"062b506c-f039-492e-a480-e99b7856a7e9","system_id":"levelo_inurba_marseille","lat":43.30481,"lon":5.37279,"is_reserved":false,"is_disabled":false,"rental_uris":{"android":"levelo://app?vid=062b506c-f039-492e-a480-e99b7856a7e9","ios":"levelo://app?vid=062b506c-f039-492e-a480-e99b7856a7e9"},"vehicle_type_id":"4","last_reported":1747505610,"current_range_meters":14000,"station_id":"","pricing_plan_id":"cebpf4jnsgd1na2vs0mg"},{"bike_id":"045120a5-c438-49ba-84e0-850128db22a8","system_id":"levelo_inurba_marseille","lat":43.26058,"lon":5.39399,"is_reserved":false,"is_disabled":false,"rental_uris":{"android":"levelo://app?vid=045120a5-c438-49ba-84e0-850128db22a8","ios":"levelo://app?vid=045120a5-c438-49ba-84e0-850128db22a8"},"vehicle_type_id":"4","last_reported":1747505610,"current_range_meters":13600,"station_id":"ce4bhh92rcd13ifvqfj0","pricing_plan_id":"cebpf4jnsgd1na2vs0mg"},{"bike_id":"f1048496-1bad-4ee4-bd22-cfe9455b0496","system_id":"levelo_inurba_marseille","lat":43.29939,"lon":5.36558,"is_reserved":false,"is_disabled":false,"rental_uris":{"android":"levelo://app?vid=f1048496-1bad-4ee4-bd22-cfe9455b0496","ios":"levelo://app?vid=f1048496-1bad-4ee4-bd22-cfe9455b0496"},"vehicle_type_id":"4","last_reported":1747505610,"current_range_meters":13600,"station_id":"ce4bgm92rcd13ifvqbr0","pricing_plan_id":"cebpf4jnsgd1na2vs0mg"},{"bike_id":"8ec5b191-2995-4ff1-9eba-c6dab6c95aa6","system_id":"levelo_inurba_marseille","lat":43.27307,"lon":5.39112,"is_reserved":false,"is_disabled":false,"rental_uris":{"android":"levelo://app?vid=8ec5b191-2995-4ff1-9eba-c6dab6c95aa6","ios":"levelo://app?vid=8ec5b191-2995-4ff1-9eba-c6dab6c95aa6"},"vehicle_type_id":"4","last_reported":1747505610,"current_range_meters":13600,"station_id":"ce4bhgp2rcd13ifvqfe0","pricing_plan_id":"cebpf4jnsgd1na2vs0mg"},{"bike_id":"3d8ddce6-50a5-41c7-8c7a-b46427c53229","system_id":"levelo_inurba_marseille","lat":43.29804,"lon":5.40404,"is_reserved":false,"is_disabled":false,"rental_uris":{"android":"levelo://app?vid=3d8ddce6-50a5-41c7-8c7a-b46427c53229","ios":"levelo://app?vid=3d8ddce6-50a5-41c7-8c7a-b46427c53229"},"vehicle_type_id":"4","last_reported":1747505610,"current_range_meters":14000,"station_id":"ce4bh112rcd13ifvqd90","pricing_plan_id":"cebpf4jnsgd1na2vs0mg"},{"bike_id":"94857d49-45e1-473a-8b7c-59257142bb9a","system_id":"levelo_inurba_marseille","lat":43.27494,"lon":5.42449,"is_reserved":false,"is_disabled":false,"rental_uris":{"android":"levelo://app?vid=94857d49-45e1-473a-8b7c-59257142bb9a","ios":"levelo://app?vid=94857d49-45e1-473a-8b7c-59257142bb9a"},"vehicle_type_id":"4","last_reported":1747505610,"current_range_meters":13600,"station_id":"ce4bhn92rcd13ifvqgrg","pricing_plan_id":"cebpf4jnsgd1na2vs0mg"},{"bike_id":"e9dbb013-e8a5-42a8-8e17-26ab3fd1f7f0","system_id":"levelo_inurba_marseille","lat":43.24178,"lon":5.39736,"is_reserved":false,"is_disabled":false,"rental_uris":{"android":"levelo://app?vid=e9dbb013-e8a5-42a8-8e17-26ab3fd1f7f0","ios":"levelo://app?vid=e9dbb013-e8a5-42a8-8e17-26ab3fd1f7f0"},"vehicle_type_id":"4","last_reported":1747505610,"current_range_meters":14000,"station_id":"ce4bhn12rcd13ifvqgpg","pricing_plan_id":"cebpf4jnsgd1na2vs0mg"},{"bike_id":"f464cf9c-778b-40cd-af2a-cf03a6ac8b2c","system_id":"levelo_inurba_marseille","lat":43.28353,"lon":5.38106,"is_reserved":false,"is_disabled":false,"rental_uris":{"android":"levelo://app?vid=f464cf9c-778b-40cd-af2a-cf03a6ac8b2c","ios":"levelo://app?vid=f464cf9c-778b-40cd-af2a-cf03a6ac8b2c"},"vehicle_type_id":"4","last_reported":1747505610,"current_range_meters":14000,"station_id":"ce4bh412rcd13ifvqdr0","pricing_plan_id":"cebpf4jnsgd1na2vs0mg"},{"bike_id":"75c7a913-a448-4811-a2d0-cd8c45ffc389","system_id":"levelo_inurba_marseille","lat":43.28665,"lon":5.3868,"is_reserved":false,"is_disabled":false,"rental_uris":{"android":"levelo://app?vid=75c7a913-a448-4811-a2d0-cd8c45ffc389","ios":"levelo://app?vid=75c7a913-a448-4811-a2d0-cd8c45ffc389"},"vehicle_type_id":"4","last_reported":1747505610,"current_range_meters":14000,"station_id":"ce4bh492rcd13ifvqdug","pricing_plan_id":"cebpf4jnsgd1na2vs0mg"},{"bike_id":"65c3bb69-c67e-45b6-a2fd-9d883741dc7c","system_id":"levelo_inurba_marseille","lat":43.2781,"lon":5.40707,"is_reserved":false,"is_disabled":false,"rental_uris":{"android":"levelo://app?vid=65c3bb69-c67e-45b6-a2fd-9d883741dc7c","ios":"levelo://app?vid=65c3bb69-c67e-45b6-a2fd-9d883741dc7c"},"vehicle_type_id":"4","last_reported":1747505610,"current_range_meters":14000,"station_id":"ce4bhnh2rcd13ifvqgtg","pricing_plan_id":"cebpf4jnsgd1na2vs0mg"},{"bike_id":"8d3ba799-4866-4e13-8f0a-753a801550a2","system_id":"levelo_inurba_marseille","lat":43.27305,"lon":5.39128,"is_reserved":false,"is_disabled":false,"rental_uris":{"android":"levelo://app?vid=8d3ba799-4866-4e13-8f0a-753a801550a2","ios":"levelo://app?vid=8d3ba799-4866-4e13-8f0a-753a801550a2"},"vehicle_type_id":"4","last_reported":1747505610,"current_range_meters":14000,"station_id":"ce4bhgp2rcd13ifvqfe0","pricing_plan_id":"cebpf4jnsgd1na2vs0mg"},{"bike_id":"7139a84d-5202-4b60-836f-84bec5457709","system_id":"levelo_inurba_marseille","lat":43.297203,"lon":5.36617,"is_reserved":false,"is_disabled":false,"rental_uris":{"android":"levelo://app?vid=7139a84d-5202-4b60-836f-84bec5457709","ios":"levelo://app?vid=7139a84d-5202-4b60-836f-84bec5457709"},"vehicle_type_id":"4","last_reported":1747505610,"current_range_meters":14400,"station_id":"ce4bgn12rcd13ifvqbt0","pricing_plan_id":"cebpf4jnsgd1na2vs0mg"},{"bike_id":"09b3eb29-a917-4cfd-803f-f199cab89b4d","system_id":"levelo_inurba_marseille","lat":43.255362,"lon":5.376562,"is_reserved":false,"is_disabled":false,"rental_uris":{"android":"levelo://app?vid=09b3eb29-a917-4cfd-803f-f199cab89b4d","ios":"levelo://app?vid=09b3eb29-a917-4cfd-803f-f199cab89b4d"},"vehicle_type_id":"4","last_reported":1747505610,"current_range_meters":14400,"station_id":"ce4bhh12rcd13ifvqff0","pricing_plan_id":"cebpf4jnsgd1na2vs0mg"},{"bike_id":"64112e14-f93f-4a9c-8e75-f0b86fe02be3","system_id":"levelo_inurba_marseille","lat":43.29852,"lon":5.36284,"is_reserved":false,"is_disabled":false,"rental_uris":{"android":"levelo://app?vid=64112e14-f93f-4a9c-8e75-f0b86fe02be3","ios":"levelo://app?vid=64112e14-f93f-4a9c-8e75-f0b86fe02be3"},"vehicle_type_id":"4","last_reported":1747505610,"current_range_meters":14400,"station_id":"ce4bgpp2rcd13ifvqc3g","pricing_plan_id":"cebpf4jnsgd1na2vs0mg"},{"bike_id":"d279acb3-4689-4f01-b8d9-dbf6198f2c33","system_id":"levelo_inurba_marseille","lat":43.2649,"lon":5.3952,"is_reserved":false,"is_disabled":false,"rental_uris":{"android":"levelo://app?vid=d279acb3-4689-4f01-b8d9-dbf6198f2c33","ios":"levelo://app?vid=d279acb3-4689-4f01-b8d9-dbf6198f2c33"},"vehicle_type_id":"4","last_reported":1747505610,"current_range_meters":10000,"station_id":"ce4bhi12rcd13ifvqfq0","pricing_plan_id":"cebpf4jnsgd1na2vs0mg"},{"bike_id":"2a96e152-b832-4364-af24-99a93e0347db","system_id":"levelo_inurba_marseille","lat":43.29262,"lon":5.38444,"is_reserved":false,"is_disabled":false,"rental_uris":{"android":"levelo://app?vid=2a96e152-b832-4364-af24-99a93e0347db","ios":"levelo://app?vid=2a96e152-b832-4364-af24-99a93e0347db"},"vehicle_type_id":"4","last_reported":1747505610,"current_range_meters":14400,"station_id":"ce4bh692rcd13ifvqea0","pricing_plan_id":"cebpf4jnsgd1na2vs0mg"},{"bike_id":"88de6b1d-aed1-4f1e-8a95-f4ad2364e003","system_id":"levelo_inurba_marseille","lat":43.23201,"lon":5.3555,"is_reserved":false,"is_disabled":false,"rental_uris":{"android":"levelo://app?vid=88de6b1d-aed1-4f1e-8a95-f4ad2364e003","ios":"levelo://app?vid=88de6b1d-aed1-4f1e-8a95-f4ad2364e003"},"vehicle_type_id":"4","last_reported":1747505610,"current_range_meters":14800,"station_id":"ce4bhu92rcd13ifvqi70","pricing_plan_id":"cebpf4jnsgd1na2vs0mg"},{"bike_id":"88c266e6-7038-494f-b358-90ca603fb435","system_id":"levelo_inurba_marseille","lat":43.29568,"lon":5.37503,"is_reserved":false,"is_disabled":true,"rental_uris":{"android":"levelo://app?vid=88c266e6-7038-494f-b358-90ca603fb435","ios":"levelo://app?vid=88c266e6-7038-494f-b358-90ca603fb435"},"vehicle_type_id":"4","last_reported":1747505610,"current_range_meters":14800,"station_id":"ce4bgh92rcd13ifvqb50","pricing_plan_id":"cebpf4jnsgd1na2vs0mg"},{"bike_id":"ff2172c2-7fdb-4812-a532-09e7bc91b126","system_id":"levelo_inurba_marseille","lat":43.27964,"lon":5.3875,"is_reserved":false,"is_disabled":false,"rental_uris":{"android":"levelo://app?vid=ff2172c2-7fdb-4812-a532-09e7bc91b126","ios":"levelo://app?vid=ff2172c2-7fdb-4812-a532-09e7bc91b126"},"vehicle_type_id":"4","last_reported":1747505610,"current_range_meters":14400,"station_id":"ce4bhg12rcd13ifvqf80","pricing_plan_id":"cebpf4jnsgd1na2vs0mg"},{"bike_id":"33bab87c-c9f7-4898-908e-db2e61f4a98e","system_id":"levelo_inurba_marseille","lat":43.28158,"lon":5.42666,"is_reserved":false,"is_disabled":false,"rental_uris":{"android":"levelo://app?vid=33bab87c-c9f7-4898-908e-db2e61f4a98e","ios":"levelo://app?vid=33bab87c-c9f7-4898-908e-db2e61f4a98e"},"vehicle_type_id":"4","last_reported":1747505610,"current_range_meters":14800,"station_id":"ce4bhnh2rcd13ifvqgug","pricing_plan_id":"cebpf4jnsgd1na2vs0mg"},{"bike_id":"40182993-021c-4a4b-86eb-aa8ab196c4fc","system_id":"levelo_inurba_marseille","lat":43.30108,"lon":5.39073,"is_reserved":false,"is_disabled":false,"rental_uris":{"android":"levelo://app?vid=40182993-021c-4a4b-86eb-aa8ab196c4fc","ios":"levelo://app?vid=40182993-021c-4a4b-86eb-aa8ab196c4fc"},"vehicle_type_id":"4","last_reported":1747505610,"current_range_meters":14800,"station_id":"ce4bh192rcd13ifvqdb0","pricing_plan_id":"cebpf4jnsgd1na2vs0mg"},{"bike_id":"4c57dbdf-50cf-400e-856c-02f38b605415","system_id":"levelo_inurba_marseille","lat":43.29933,"lon":5.36557,"is_reserved":false,"is_disabled":false,"rental_uris":{"android":"levelo://app?vid=4c57dbdf-50cf-400e-856c-02f38b605415","ios":"levelo://app?vid=4c57dbdf-50cf-400e-856c-02f38b605415"},"vehicle_type_id":"4","last_reported":1747505610,"current_range_meters":14800,"station_id":"ce4bgm92rcd13ifvqbr0","pricing_plan_id":"cebpf4jnsgd1na2vs0mg"},{"bike_id":"9d6c91b0-f0fc-41bc-9b27-2eddcec5bc2a","system_id":"levelo_inurba_marseille","lat":43.282646,"lon":5.350569,"is_reserved":false,"is_disabled":false,"rental_uris":{"android":"levelo://app?vid=9d6c91b0-f0fc-41bc-9b27-2eddcec5bc2a","ios":"levelo://app?vid=9d6c91b0-f0fc-41bc-9b27-2eddcec5bc2a"},"vehicle_type_id":"4","last_reported":1747505610,"current_range_meters":14800,"station_id":"","pricing_plan_id":"cebpf4jnsgd1na2vs0mg"},{"bike_id":"b89f615c-899c-4011-9d75-bd18e63003d6","system_id":"levelo_inurba_marseille","lat":43.24077,"lon":5.37756,"is_reserved":false,"is_disabled":false,"rental_uris":{"android":"levelo://app?vid=b89f615c-899c-4011-9d75-bd18e63003d6","ios":"levelo://app?vid=b89f615c-899c-4011-9d75-bd18e63003d6"},"vehicle_type_id":"4","last_reported":1747505610,"current_range_meters":14800,"station_id":"ce4bhnp2rcd13ifvqgvg","pricing_plan_id":"cebpf4jnsgd1na2vs0mg"},{"bike_id":"9e1a5fd5-2836-4dd0-918f-7584c78cf495","system_id":"levelo_inurba_marseille","lat":43.298474,"lon":5.362776,"is_reserved":false,"is_disabled":false,"rental_uris":{"android":"levelo://app?vid=9e1a5fd5-2836-4dd0-918f-7584c78cf495","ios":"levelo://app?vid=9e1a5fd5-2836-4dd0-918f-7584c78cf495"},"vehicle_type_id":"4","last_reported":1747505610,"current_range_meters":15200,"station_id":"ce4bgpp2rcd13ifvqc3g","pricing_plan_id":"cebpf4jnsgd1na2vs0mg"},{"bike_id":"f6b330aa-7efb-4b9c-9f83-02d7ed1fe6cf","system_id":"levelo_inurba_marseille","lat":43.27313,"lon":5.39075,"is_reserved":false,"is_disabled":false,"rental_uris":{"android":"levelo://app?vid=f6b330aa-7efb-4b9c-9f83-02d7ed1fe6cf","ios":"levelo://app?vid=f6b330aa-7efb-4b9c-9f83-02d7ed1fe6cf"},"vehicle_type_id":"4","last_reported":1747505610,"current_range_meters":15200,"station_id":"ce4bhgp2rcd13ifvqfe0","pricing_plan_id":"cebpf4jnsgd1na2vs0mg"},{"bike_id":"d29765b1-0b7f-42d3-b8c5-f57edda9038b","system_id":"levelo_inurba_marseille","lat":43.27206,"lon":5.39186,"is_reserved":false,"is_disabled":false,"rental_uris":{"android":"levelo://app?vid=d29765b1-0b7f-42d3-b8c5-f57edda9038b","ios":"levelo://app?vid=d29765b1-0b7f-42d3-b8c5-f57edda9038b"},"vehicle_type_id":"4","last_reported":1747505610,"current_range_meters":15200,"station_id":"ce4bhhp2rcd13ifvqfm0","pricing_plan_id":"cebpf4jnsgd1na2vs0mg"},{"bike_id":"bbbb8f70-6be3-4d35-9b2b-49dcc1288d0c","system_id":"levelo_inurba_marseille","lat":43.273143,"lon":5.390667,"is_reserved":false,"is_disabled":false,"rental_uris":{"android":"levelo://app?vid=bbbb8f70-6be3-4d35-9b2b-49dcc1288d0c","ios":"levelo://app?vid=bbbb8f70-6be3-4d35-9b2b-49dcc1288d0c"},"vehicle_type_id":"4","last_reported":1747505610,"current_range_meters":15200,"station_id":"ce4bhgp2rcd13ifvqfe0","pricing_plan_id":"cebpf4jnsgd1na2vs0mg"},{"bike_id":"ecf5f0e9-fbc1-4258-ad57-f8db94b3d3e2","system_id":"levelo_inurba_marseille","lat":43.25094,"lon":5.39502,"is_reserved":false,"is_disabled":false,"rental_uris":{"android":"levelo://app?vid=ecf5f0e9-fbc1-4258-ad57-f8db94b3d3e2","ios":"levelo://app?vid=ecf5f0e9-fbc1-4258-ad57-f8db94b3d3e2"},"vehicle_type_id":"4","last_reported":1747505610,"current_range_meters":15200,"station_id":"ce4bhm12rcd13ifvqgkg","pricing_plan_id":"cebpf4jnsgd1na2vs0mg"},{"bike_id":"b025addf-0cfe-40c2-9845-9ed901c3850e","system_id":"levelo_inurba_marseille","lat":43.28076,"lon":5.3967,"is_reserved":false,"is_disabled":false,"rental_uris":{"android":"levelo://app?vid=b025addf-0cfe-40c2-9845-9ed901c3850e","ios":"levelo://app?vid=b025addf-0cfe-40c2-9845-9ed901c3850e"},"vehicle_type_id":"4","last_reported":1747505610,"current_range_meters":16000,"station_id":"ce4bho12rcd13ifvqh2g","pricing_plan_id":"cebpf4jnsgd1na2vs0mg"},{"bike_id":"d55f9225-e6ff-4e45-92e4-2cc2ba495a7c","system_id":"levelo_inurba_marseille","lat":43.30871,"lon":5.38266,"is_reserved":false,"is_disabled":false,"rental_uris":{"android":"levelo://app?vid=d55f9225-e6ff-4e45-92e4-2cc2ba495a7c","ios":"levelo://app?vid=d55f9225-e6ff-4e45-92e4-2cc2ba495a7c"},"vehicle_type_id":"4","last_reported":1747505610,"current_range_meters":16000,"station_id":"","pricing_plan_id":"cebpf4jnsgd1na2vs0mg"},{"bike_id":"0fff26c1-ee5a-45bd-8576-8f20831a7bcd","system_id":"levelo_inurba_marseille","lat":43.299683,"lon":5.384832,"is_reserved":false,"is_disabled":true,"rental_uris":{"android":"levelo://app?vid=0fff26c1-ee5a-45bd-8576-8f20831a7bcd","ios":"levelo://app?vid=0fff26c1-ee5a-45bd-8576-8f20831a7bcd"},"vehicle_type_id":"4","last_reported":1747505610,"current_range_meters":16000,"station_id":"ce4bgj92rcd13ifvqbd0","pricing_plan_id":"cebpf4jnsgd1na2vs0mg"},{"bike_id":"6ee7001e-07ad-49d2-9902-4e2095457f59","system_id":"levelo_inurba_marseille","lat":43.27072,"lon":5.42281,"is_reserved":false,"is_disabled":true,"rental_uris":{"android":"levelo://app?vid=6ee7001e-07ad-49d2-9902-4e2095457f59","ios":"levelo://app?vid=6ee7001e-07ad-49d2-9902-4e2095457f59"},"vehicle_type_id":"4","last_reported":1747505610,"current_range_meters":16400,"station_id":"ce4bhk92rcd13ifvqgb0","pricing_plan_id":"cebpf4jnsgd1na2vs0mg"},{"bike_id":"b26a0dd7-cbdc-4ab7-8def-31c4b88b224a","system_id":"levelo_inurba_marseille","lat":43.31211,"lon":5.39243,"is_reserved":false,"is_disabled":false,"rental_uris":{"android":"levelo://app?vid=b26a0dd7-cbdc-4ab7-8def-31c4b88b224a","ios":"levelo://app?vid=b26a0dd7-cbdc-4ab7-8def-31c4b88b224a"},"vehicle_type_id":"4","last_reported":1747505610,"current_range_meters":16400,"station_id":"","pricing_plan_id":"cebpf4jnsgd1na2vs0mg"},{"bike_id":"7808dd78-5220-43f8-b912-3e932b887d76","system_id":"levelo_inurba_marseille","lat":43.28038,"lon":5.36948,"is_reserved":false,"is_disabled":false,"rental_uris":{"android":"levelo://app?vid=7808dd78-5220-43f8-b912-3e932b887d76","ios":"levelo://app?vid=7808dd78-5220-43f8-b912-3e932b887d76"},"vehicle_type_id":"4","last_reported":1747505610,"current_range_meters":16400,"station_id":"ce4bha12rcd13ifvqef0","pricing_plan_id":"cebpf4jnsgd1na2vs0mg"},{"bike_id":"714e46a7-cc7e-445a-94bb-fc82a24385df","system_id":"levelo_inurba_marseille","lat":43.31167,"lon":5.3872,"is_reserved":false,"is_disabled":false,"rental_uris":{"android":"levelo://app?vid=714e46a7-cc7e-445a-94bb-fc82a24385df","ios":"levelo://app?vid=714e46a7-cc7e-445a-94bb-fc82a24385df"},