{"last_updated":1701411009,"ttl":30,"version":"2.2","data":{"bikes":[{"bike_id":"f7c86f2e-3d0c-4539-be9d-3162ed85a55c","system_id":"levelo_inurba_marseille","lat":43.313391,"lon":5.36706,"is_reserved":false,"is_disabled":false,"rental_uris":{"android":"levelo://app?vid=f7c86f2e-3d0c-4539-be9d-3162ed85a55c","ios":"levelo://app?vid=f7c86f2e-3d0c-4539-be9d-3162ed85a55c"},"vehicle_type_id":"4","last_reported":1701411010,"current_range_meters":31200,"station_id":"ce4bgr92rcd13ifvqc6g","pricing_plan_id":"free"},{"bike_id":"1dd8cbee-738d-414e-a418-766b5e9d8b0a","system_id":"levelo_inurba_marseille","lat":43.312239,"lon":5.368562,"is_reserved":false,"is_disabled":false,"rental_uris":{"android":"levelo://app?vid=1dd8cbee-738d-414e-a418-766b5e9d8b0a","ios":"levelo://app?vid=1dd8cbee-738d-414e-a418-766b5e9d8b0a"},"vehicle_type_id":"4","last_reported":1701411010,"current_range_meters":26800,"station_id":"ce4bgl92rcd13ifvqbq0","pricing_plan_id":"free"},{"bike_id":"f09210a7-6334-41ab-a040-25a644ecaeab","system_id":"levelo_inurba_marseille","lat":43.309076,"lon":5.368465,"is_reserved":false,"is_disabled":false,"rental_uris":{"android":"levelo://app?vid=f09210a7-6334-41ab-a040-25a644ecaeab","ios":"levelo://app?vid=f09210a7-6334-41ab-a040-25a644ecaeab"},"vehicle_type_id":"4","last_reported":1701411010,"current_range_meters":30000,"station_id":"ce4bgn92rcd13ifvqbvg","pricing_plan_id":"free"},{"bike_id":"85ebfaaa-3017-45f3-906e-a6c2319c069c","system_id":"levelo_inurba_marseille","lat":43.308691,"lon":5.368525,"is_reserved":false,"is_disabled":false,"rental_uris":{"android":"levelo://app?vid=85ebfaaa-3017-45f3-906e-a6c2319c069c","ios":"levelo://app?vid=85ebfaaa-3017-45f3-906e-a6c2319c069c"},"vehicle_type_id":"4","last_reported":1701411010,"current_range_meters":12000,"station_id":"ce4bgn92rcd13ifvqbvg","pricing_plan_id":"free"},{"bike_id":"6f8eb1d5-a0bd-4851-b2b9-7bbde748ff94","system_id":"levelo_inurba_marseille","lat":43.314811,"lon":5.373103,"is_reserved":false,"is_disabled":false,"rental_uris":{"android":"levelo://app?vid=6f8eb1d5-a0bd-4851-b2b9-7bbde748ff94","ios":"levelo://app?vid=6f8eb1d5-a0bd-4851-b2b9-7bbde748ff94"},"vehicle_type_id":"4","last_reported":1701411010,"current_range_meters":26400,"station_id":"ce4bgt12rcd13ifvqcd0","pricing_plan_id":"free"},{"bike_id":"fcb7b767-15fd-4a5d-827a-4bb97f1898fc","system_id":"levelo_inurba_marseille","lat":43.314811,"lon":5.373103,"is_reserved":false,"is_disabled":false,"rental_uris":{"android":"levelo://app?vid=fcb7b767-15fd-4a5d-827a-4bb97f1898fc","ios":"levelo://app?vid=fcb7b767-15fd-4a5d-827a-4bb97f1898fc"},"vehicle_type_id":"4","last_reported":1701411010,"current_range_meters":27200,"station_id":"ce4bgt12rcd13ifvqcd0","pricing_plan_id":"free"},{"bike_id":"4b6258a8-2402-4797-b77b-3e183b380b2c","system_id":"levelo_inurba_marseille","lat":43.314811,"lon":5.373104,"is_reserved":false,"is_disabled":false,"rental_uris":{"android":"levelo://app?vid=4b6258a8-2402-4797-b77b-3e183b380b2c","ios":"levelo://app?vid=4b6258a8-2402-4797-b77b-3e183b380b2c"},"vehicle_type_id":"4","last_reported":1701411010,"current_range_meters":12800,"station_id":"ce4bgt12rcd13ifvqcd0","pricing_plan_id":"free"},{"bike_id":"c0bca953-52c5-4c8f-9b64-0888e773dee0","system_id":"levelo_inurba_marseille","lat":43.309039,"lon":5.371797,"is_reserved":false,"is_disabled":false,"rental_uris":{"android":"levelo://app?vid=c0bca953-52c5-4c8f-9b64-0888e773dee0","ios":"levelo://app?vid=c0bca953-52c5-4c8f-9b64-0888e773dee0"},"vehicle_type_id":"4","last_reported":1701411010,"current_range_meters":0,"station_id":"ce4bguh2rcd13ifvqckg","pricing_plan_id":"free"},{"bike_id":"3ce68969-9bf5-4206-8049-8078d75610f6","system_id":"levelo_inurba_marseille","lat":43.308846,"lon":5.372003,"is_reserved":false,"is_disabled":false,"rental_uris":{"android":"levelo://app?vid=3ce68969-9bf5-4206-8049-8078d75610f6","ios":"levelo://app?vid=3ce68969-9bf5-4206-8049-8078d75610f6"},"vehicle_type_id":"4","last_reported":1701411010,"current_range_meters":0,"station_id":"ce4bguh2rcd13ifvqckg","pricing_plan_id":"free"},{"bike_id":"38ac72cf-81da-4b9d-8ab8-ea080484fa2f","system_id":"levelo_inurba_marseille","lat":43.30542,"lon":5.36728,"is_reserved":false,"is_disabled":false,"rental_uris":{"android":"levelo://app?vid=38ac72cf-81da-4b9d-8ab8-ea080484fa2f","ios":"levelo://app?vid=38ac72cf-81da-4b9d-8ab8-ea080484fa2f"},"vehicle_type_id":"4","last_reported":1701411010,"current_range_meters":26000,"station_id":"ce4bgrp2rcd13ifvqc9g","pricing_plan_id":"free"},{"bike_id":"9204e4e9-9259-4b00-af32-cf1621761ebb","system_id":"levelo_inurba_marseille","lat":43.305706,"lon":5.365654,"is_reserved":false,"is_disabled":false,"rental_uris":{"android":"levelo://app?vid=9204e4e9-9259-4b00-af32-cf1621761ebb","ios":"levelo://app?vid=9204e4e9-9259-4b00-af32-cf1621761ebb"},"vehicle_type_id":"4","last_reported":1701411010,"current_range_meters":22400,"station_id":"ce4bgs12rcd13ifvqcag","pricing_plan_id":"free"},{"bike_id":"1fa5b1d9-3d1d-45af-b062-e03bfddf52f4","system_id":"levelo_inurba_marseille","lat":43.311125,"lon":5.377624,"is_reserved":false,"is_disabled":false,"rental_uris":{"android":"levelo://app?vid=1fa5b1d9-3d1d-45af-b062-e03bfddf52f4","ios":"levelo://app?vid=1fa5b1d9-3d1d-45af-b062-e03bfddf52f4"},"vehicle_type_id":"4","last_reported":1701411010,"current_range_meters":31200,"station_id":"ce4bgt92rcd13ifvqcg0","pricing_plan_id":"free"},{"bike_id":"727d231a-d425-4d8f-ad3f-99b5a47572e8","system_id":"levelo_inurba_marseille","lat":43.30439,"lon":5.36753,"is_reserved":false,"is_disabled":false,"rental_uris":{"android":"levelo://app?vid=727d231a-d425-4d8f-ad3f-99b5a47572e8","ios":"levelo://app?vid=727d231a-d425-4d8f-ad3f-99b5a47572e8"},"vehicle_type_id":"4","last_reported":1701411010,"current_range_meters":29200,"station_id":"","pricing_plan_id":"free"},{"bike_id":"28b67163-d496-4d2f-a83c-ef6bda2c636e","system_id":"levelo_inurba_marseille","lat":43.308145,"lon":5.376575,"is_reserved":false,"is_disabled":false,"rental_uris":{"android":"levelo://app?vid=28b67163-d496-4d2f-a83c-ef6bda2c636e","ios":"levelo://app?vid=28b67163-d496-4d2f-a83c-ef6bda2c636e"},"vehicle_type_id":"4","last_reported":1701411010,"current_range_meters":2800,"station_id":"ce4bgv92rcd13ifvqcq0","pricing_plan_id":"free"},{"bike_id":"f427a2c3-6e4a-446b-ae2f-9be8aa7f4122","system_id":"levelo_inurba_marseille","lat":43.31719,"lon":5.376813,"is_reserved":false,"is_disabled":false,"rental_uris":{"android":"levelo://app?vid=f427a2c3-6e4a-446b-ae2f-9be8aa7f4122","ios":"levelo://app?vid=f427a2c3-6e4a-446b-ae2f-9be8aa7f4122"},"vehicle_type_id":"4","last_reported":1701411010,"current_range_meters":2800,"station_id":"","pricing_plan_id":"free"},{"bike_id":"e913f328-1e31-4c22-bd87-f809ea246de4","system_id":"levelo_inurba_marseille","lat":43.317168,"lon":5.376883,"is_reserved":false,"is_disabled":false,"rental_uris":{"android":"levelo://app?vid=e913f328-1e31-4c22-bd87-f809ea246de4","ios":"levelo://app?vid=e913f328-1e31-4c22-bd87-f809ea246de4"},"vehicle_type_id":"4","last_reported":1701411010,"current_range_meters":5200,"station_id":"","pricing_plan_id":"free"},{"bike_id":"1472dd3c-318e-4705-9847-d319e44e24ac","system_id":"levelo_inurba_marseille","lat":43.307945,"lon":5.376487,"is_reserved":false,"is_disabled":false,"rental_uris":{"android":"levelo://app?vid=1472dd3c-318e-4705-9847-d319e44e24ac","ios":"levelo://app?vid=1472dd3c-318e-4705-9847-d319e44e24ac"},"vehicle_type_id":"4","last_reported":1701411010,"current_range_meters":30800,"station_id":"ce4bgv92rcd13ifvqcq0","pricing_plan_id":"free"},{"bike_id":"9e5cd5bb-9665-43e5-a324-ea1a7ec8b6f8","system_id":"levelo_inurba_marseille","lat":43.307945,"lon":5.376487,"is_reserved":false,"is_disabled":false,"rental_uris":{"android":"levelo://app?vid=9e5cd5bb-9665-43e5-a324-ea1a7ec8b6f8","ios":"levelo://app?vid=9e5cd5bb-9665-43e5-a324-ea1a7ec8b6f8"},"vehicle_type_id":"4","last_reported":1701411010,"current_range_meters":31200,"station_id":"ce4bgv92rcd13ifvqcq0","pricing_plan_id":"free"},{"bike_id":"10fef5e5-3b10-49d6-abda-7e0064656bbb","system_id":"levelo_inurba_marseille","lat":43.317075,"lon":5.377367,"is_reserved":false,"is_disabled":false,"rental_uris":{"android":"levelo://app?vid=10fef5e5-3b10-49d6-abda-7e0064656bbb","ios":"levelo://app?vid=10fef5e5-3b10-49d6-abda-7e0064656bbb"},"vehicle_type_id":"4","last_reported":1701411010,"current_range_meters":27200,"station_id":"ce4bgth2rcd13ifvqch0","pricing_plan_id":"free"},{"bike_id":"914d24a3-f3d8-4a31-be66-aa0f8f7dfec9","system_id":"levelo_inurba_marseille","lat":43.303046,"lon":5.368981,"is_reserved":false,"is_disabled":false,"rental_uris":{"android":"levelo://app?vid=914d24a3-f3d8-4a31-be66-aa0f8f7dfec9","ios":"levelo://app?vid=914d24a3-f3d8-4a31-be66-aa0f8f7dfec9"},"vehicle_type_id":"4","last_reported":1701411010,"current_range_meters":25600,"station_id":"ce4bgqh2rcd13ifvqc5g","pricing_plan_id":"free"},{"bike_id":"a353da53-2844-47b1-b7b8-563a86bb4f14","system_id":"levelo_inurba_marseille","lat":43.315293,"lon":5.380349,"is_reserved":false,"is_disabled":false,"rental_uris":{"android":"levelo://app?vid=a353da53-2844-47b1-b7b8-563a86bb4f14","ios":"levelo://app?vid=a353da53-2844-47b1-b7b8-563a86bb4f14"},"vehicle_type_id":"4","last_reported":1701411010,"current_range_meters":21600,"station_id":"ce4bhsp2rcd13ifvqi50","pricing_plan_id":"free"},{"bike_id":"b7356d4c-0db6-4e13-af7b-3a96604588b7","system_id":"levelo_inurba_marseille","lat":43.31516,"lon":5.38048,"is_reserved":false,"is_disabled":false,"rental_uris":{"android":"levelo://app?vid=b7356d4c-0db6-4e13-af7b-3a96604588b7","ios":"levelo://app?vid=b7356d4c-0db6-4e13-af7b-3a96604588b7"},"vehicle_type_id":"4","last_reported":1701411010,"current_range_meters":2800,"station_id":"ce4bhsp2rcd13ifvqi50","pricing_plan_id":"free"},{"bike_id":"8fe6ab62-f013-4f8b-bea7-62743915562c","system_id":"levelo_inurba_marseille","lat":43.30811,"lon":5.381473,"is_reserved":false,"is_disabled":false,"rental_uris":{"android":"levelo://app?vid=8fe6ab62-f013-4f8b-bea7-62743915562c","ios":"levelo://app?vid=8fe6ab62-f013-4f8b-bea7-62743915562c"},"vehicle_type_id":"4","last_reported":1701411010,"current_range_meters":23600,"station_id":"ce4bgt12rcd13ifvqce0","pricing_plan_id":"free"},{"bike_id":"4ff7e3bd-24b6-41b0-8c5a-3e31a2e92f90","system_id":"levelo_inurba_marseille","lat":43.30467,"lon":5.37899,"is_reserved":false,"is_disabled":false,"rental_uris":{"android":"levelo://app?vid=4ff7e3bd-24b6-41b0-8c5a-3e31a2e92f90","ios":"levelo://app?vid=4ff7e3bd-24b6-41b0-8c5a-3e31a2e92f90"},"vehicle_type_id":"4","last_reported":1701411010,"current_range_meters":31200,"station_id":"ce4bgup2rcd13ifvqcn0","pricing_plan_id":"free"},{"bike_id":"126f41ec-e91f-45bb-a3d6-771304ba64a8","system_id":"levelo_inurba_marseille","lat":43.304606,"lon":5.379026,"is_reserved":false,"is_disabled":false,"rental_uris":{"android":"levelo://app?vid=126f41ec-e91f-45bb-a3d6-771304ba64a8","ios":"levelo://app?vid=126f41ec-e91f-45bb-a3d6-771304ba64a8"},"vehicle_type_id":"4","last_reported":1701411010,"current_range_meters":4400,"station_id":"ce4bgup2rcd13ifvqcn0","pricing_plan_id":"free"},{"bike_id":"6bff53ad-6daa-481c-a036-63fbfa5d5eac","system_id":"levelo_inurba_marseille","lat":43.304606,"lon":5.379026,"is_reserved":false,"is_disabled":false,"rental_uris":{"android":"levelo://app?vid=6bff53ad-6daa-481c-a036-63fbfa5d5eac","ios":"levelo://app?vid=6bff53ad-6daa-481c-a036-63fbfa5d5eac"},"vehicle_type_id":"4","last_reported":1701411010,"current_range_meters":18000,"station_id":"ce4bgup2rcd13ifvqcn0","pricing_plan_id":"free"},{"bike_id":"54102709-d40a-4a07-be13-4e690f637306","system_id":"levelo_inurba_marseille","lat":43.304606,"lon":5.379026,"is_reserved":false,"is_disabled":false,"rental_uris":{"android":"levelo://app?vid=54102709-d40a-4a07-be13-4e690f637306","ios":"levelo://app?vid=54102709-d40a-4a07-be13-4e690f637306"},"vehicle_type_id":"4","last_reported":1701411010,"current_range_meters":22400,"station_id":"ce4bgup2rcd13ifvqcn0","pricing_plan_id":"free"},{"bike_id":"46e16261-ae34-4ef3-bf0e-485782405f26","system_id":"levelo_inurba_marseille","lat":43.304606,"lon":5.379026,"is_reserved":false,"is_disabled":false,"rental_uris":{"android":"levelo://app?vid=46e16261-ae34-4ef3-bf0e-485782405f26","ios":"levelo://app?vid=46e16261-ae34-4ef3-bf0e-485782405f26"},"vehicle_type_id":"4","last_reported":1701411010,"current_range_meters":24800,"station_id":"ce4bgup2rcd13ifvqcn0","pricing_plan_id":"free"},{"bike_id":"e7849a79-33d7-4299-a52c-7564a8e92d24","system_id":"levelo_inurba_marseille","lat":43.304606,"lon":5.379026,"is_reserved":false,"is_disabled":false,"rental_uris":{"android":"levelo://app?vid=e7849a79-33d7-4299-a52c-7564a8e92d24","ios":"levelo://app?vid=e7849a79-33d7-4299-a52c-7564a8e92d24"},"vehicle_type_id":"4","last_reported":1701411010,"current_range_meters":26400,"station_id":"ce4bgup2rcd13ifvqcn0","pricing_plan_id":"free"},{"bike_id":"880d7e97-4f0c-410e-b29d-2668887708e3","system_id":"levelo_inurba_marseille","lat":43.30462,"lon":5.37907,"is_reserved":false,"is_disabled":false,"rental_uris":{"android":"levelo://app?vid=880d7e97-4f0c-410e-b29d-2668887708e3","ios":"levelo://app?vid=880d7e97-4f0c-410e-b29d-2668887708e3"},"vehicle_type_id":"4","last_reported":1701411010,"current_range_meters":30400,"station_id":"ce4bgup2rcd13ifvqcn0","pricing_plan_id":"free"},{"bike_id":"31dac493-d0d9-4c82-8c7e-d0b5c001f2f3","system_id":"levelo_inurba_marseille","lat":43.304545,"lon":5.37898,"is_reserved":false,"is_disabled":false,"rental_uris":{"android":"levelo://app?vid=31dac493-d0d9-4c82-8c7e-d0b5c001f2f3","ios":"levelo://app?vid=31dac493-d0d9-4c82-8c7e-d0b5c001f2f3"},"vehicle_type_id":"4","last_reported":1701411010,"current_range_meters":29200,"station_id":"ce4bgup2rcd13ifvqcn0","pricing_plan_id":"free"},{"bike_id":"2ce9b3ab-5b69-49a9-94c7-0364ab72961f","system_id":"levelo_inurba_marseille","lat":43.304606,"lon":5.379026,"is_reserved":false,"is_disabled":false,"rental_uris":{"android":"levelo://app?vid=2ce9b3ab-5b69-49a9-94c7-0364ab72961f","ios":"levelo://app?vid=2ce9b3ab-5b69-49a9-94c7-0364ab72961f"},"vehicle_type_id":"4","last_reported":1701411010,"current_range_meters":18800,"station_id":"ce4bgup2rcd13ifvqcn0","pricing_plan_id":"free"},{"bike_id":"91edec0c-0881-4c99-a190-4deb491817df","system_id":"levelo_inurba_marseille","lat":43.30463,"lon":5.37911,"is_reserved":false,"is_disabled":false,"rental_uris":{"android":"levelo://app?vid=91edec0c-0881-4c99-a190-4deb491817df","ios":"levelo://app?vid=91edec0c-0881-4c99-a190-4deb491817df"},"vehicle_type_id":"4","last_reported":1701411010,"current_range_meters":28800,"station_id":"ce4bgup2rcd13ifvqcn0","pricing_plan_id":"free"},{"bike_id":"94363c90-84bc-4415-a00d-9dc71a46942f","system_id":"levelo_inurba_marseille","lat":43.3046,"lon":5.3791,"is_reserved":false,"is_disabled":false,"rental_uris":{"android":"levelo://app?vid=94363c90-84bc-4415-a00d-9dc71a46942f","ios":"levelo://app?vid=94363c90-84bc-4415-a00d-9dc71a46942f"},"vehicle_type_id":"4","last_reported":1701411010,"current_range_meters":12000,"station_id":"ce4bgup2rcd13ifvqcn0","pricing_plan_id":"free"},{"bike_id":"c8687a6f-e625-49d3-b818-1bb313e36d48","system_id":"levelo_inurba_marseille","lat":43.304606,"lon":5.379026,"is_reserved":false,"is_disabled":false,"rental_uris":{"android":"levelo://app?vid=c8687a6f-e625-49d3-b818-1bb313e36d48","ios":"levelo://app?vid=c8687a6f-e625-49d3-b818-1bb313e36d48"},"vehicle_type_id":"4","last_reported":1701411010,"current_range_meters":24000,"station_id":"ce4bgup2rcd13ifvqcn0","pricing_plan_id":"free"},{"bike_id":"13ab5075-5053-4a81-a27f-7147931c11fd","system_id":"levelo_inurba_marseille","lat":43.304575,"lon":5.379095,"is_reserved":false,"is_disabled":false,"rental_uris":{"android":"levelo://app?vid=13ab5075-5053-4a81-a27f-7147931c11fd","ios":"levelo://app?vid=13ab5075-5053-4a81-a27f-7147931c11fd"},"vehicle_type_id":"4","last_reported":1701411010,"current_range_meters":28400,"station_id":"ce4bgup2rcd13ifvqcn0","pricing_plan_id":"free"},{"bike_id":"1c720aff-5e25-471c-b405-5764b99c9dc3","system_id":"levelo_inurba_marseille","lat":43.3046,"lon":5.37918,"is_reserved":false,"is_disabled":false,"rental_uris":{"android":"levelo://app?vid=1c720aff-5e25-471c-b405-5764b99c9dc3","ios":"levelo://app?vid=1c720aff-5e25-471c-b405-5764b99c9dc3"},"vehicle_type_id":"4","last_reported":1701411010,"current_range_meters":20400,"station_id":"ce4bgup2rcd13ifvqcn0","pricing_plan_id":"free"},{"bike_id":"68bd1b8e-0810-439e-bf52-cbf75242ae67","system_id":"levelo_inurba_marseille","lat":43.30458,"lon":5.37916,"is_reserved":false,"is_disabled":false,"rental_uris":{"android":"levelo://app?vid=68bd1b8e-0810-439e-bf52-cbf75242ae67","ios":"levelo://app?vid=68bd1b8e-0810-439e-bf52-cbf75242ae67"},"vehicle_type_id":"4","last_reported":1701411010,"current_range_meters":23200,"station_id":"ce4bgup2rcd13ifvqcn0","pricing_plan_id":"free"},{"bike_id":"7de4fb38-989e-45d8-a91f-2c5f9ae7481c","system_id":"levelo_inurba_marseille","lat":43.304606,"lon":5.379026,"is_reserved":false,"is_disabled":false,"rental_uris":{"android":"levelo://app?vid=7de4fb38-989e-45d8-a91f-2c5f9ae7481c","ios":"levelo://app?vid=7de4fb38-989e-45d8-a91f-2c5f9ae7481c"},"vehicle_type_id":"4","last_reported":1701411010,"current_range_meters":20800,"station_id":"ce4bgup2rcd13ifvqcn0","pricing_plan_id":"free"},{"bike_id":"549b6845-b50f-4b40-a9b2-732246af7221","system_id":"levelo_inurba_marseille","lat":43.304606,"lon":5.379026,"is_reserved":false,"is_disabled":false,"rental_uris":{"android":"levelo://app?vid=549b6845-b50f-4b40-a9b2-732246af7221","ios":"levelo://app?vid=549b6845-b50f-4b40-a9b2-732246af7221"},"vehicle_type_id":"4","last_reported":1701411010,"current_range_meters":29200,"station_id":"ce4bgup2rcd13ifvqcn0","pricing_plan_id":"free"},{"bike_id":"7d29b552-0814-46c5-ab50-ed9c785b7d82","system_id":"levelo_inurba_marseille","lat":43.304606,"lon":5.379026,"is_reserved":false,"is_disabled":false,"rental_uris":{"android":"levelo://app?vid=7d29b552-0814-46c5-ab50-ed9c785b7d82","ios":"levelo://app?vid=7d29b552-0814-46c5-ab50-ed9c785b7d82"},"vehicle_type_id":"4","last_reported":1701411010,"current_range_meters":25200,"station_id":"ce4bgup2rcd13ifvqcn0","pricing_plan_id":"free"},{"bike_id":"617624f7-67fb-443e-a8b0-9b9817b017d4","system_id":"levelo_inurba_marseille","lat":43.302784,"lon":5.377158,"is_reserved":false,"is_disabled":false,"rental_uris":{"android":"levelo://app?vid=617624f7-67fb-443e-a8b0-9b9817b017d4","ios":"levelo://app?vid=617624f7-67fb-443e-a8b0-9b9817b017d4"},"vehicle_type_id":"4","last_reported":1701411010,"current_range_meters":30800,"station_id":"ce4bguh2rcd13ifvqcj0","pricing_plan_id":"free"},{"bike_id":"ee255ebd-6a73-4a9c-9a2e-3a44b5182799","system_id":"levelo_inurba_marseille","lat":43.30139,"lon":5.37412,"is_reserved":false,"is_disabled":false,"rental_uris":{"android":"levelo://app?vid=ee255ebd-6a73-4a9c-9a2e-3a44b5182799","ios":"levelo://app?vid=ee255ebd-6a73-4a9c-9a2e-3a44b5182799"},"vehicle_type_id":"4","last_reported":1701411010,"current_range_meters":7200,"station_id":"ce4bgs92rcd13ifvqcc0","pricing_plan_id":"free"},{"bike_id":"2335e630-3c3a-4409-8d07-eab74b95dc30","system_id":"levelo_inurba_marseille","lat":43.30143,"lon":5.37413,"is_reserved":false,"is_disabled":false,"rental_uris":{"android":"levelo://app?vid=2335e630-3c3a-4409-8d07-eab74b95dc30","ios":"levelo://app?vid=2335e630-3c3a-4409-8d07-eab74b95dc30"},"vehicle_type_id":"4","last_reported":1701411010,"current_range_meters":11200,"station_id":"ce4bgs92rcd13ifvqcc0","pricing_plan_id":"free"},{"bike_id":"a7ca3d4c-28e3-48b3-bafa-5cc2ba79900d","system_id":"levelo_inurba_marseille","lat":43.31993,"lon":5.381479,"is_reserved":false,"is_disabled":false,"rental_uris":{"android":"levelo://app?vid=a7ca3d4c-28e3-48b3-bafa-5cc2ba79900d","ios":"levelo://app?vid=a7ca3d4c-28e3-48b3-bafa-5cc2ba79900d"},"vehicle_type_id":"4","last_reported":1701411010,"current_range_meters":14800,"station_id":"ce4bhr12rcd13ifvqhpg","pricing_plan_id":"free"},{"bike_id":"3c307197-3ac8-4287-b052-043de935fdd4","system_id":"levelo_inurba_marseille","lat":43.31993,"lon":5.38148,"is_reserved":false,"is_disabled":false,"rental_uris":{"android":"levelo://app?vid=3c307197-3ac8-4287-b052-043de935fdd4","ios":"levelo://app?vid=3c307197-3ac8-4287-b052-043de935fdd4"},"vehicle_type_id":"4","last_reported":1701411010,"current_range_meters":6000,"station_id":"ce4bhr12rcd13ifvqhpg","pricing_plan_id":"free"},{"bike_id":"9a8c326a-2956-42d0-9bce-9c1da7b272ea","system_id":"levelo_inurba_marseille","lat":43.31999,"lon":5.38145,"is_reserved":false,"is_disabled":false,"rental_uris":{"android":"levelo://app?vid=9a8c326a-2956-42d0-9bce-9c1da7b272ea","ios":"levelo://app?vid=9a8c326a-2956-42d0-9bce-9c1da7b272ea"},"vehicle_type_id":"4","last_reported":1701411010,"current_range_meters":20000,"station_id":"ce4bhr12rcd13ifvqhpg","pricing_plan_id":"free"},{"bike_id":"2275aca5-3158-4c2c-8022-ca5d2714bc86","system_id":"levelo_inurba_marseille","lat":43.319997,"lon":5.381594,"is_reserved":false,"is_disabled":false,"rental_uris":{"android":"levelo://app?vid=2275aca5-3158-4c2c-8022-ca5d2714bc86","ios":"levelo://app?vid=2275aca5-3158-4c2c-8022-ca5d2714bc86"},"vehicle_type_id":"4","last_reported":1701411010,"current_range_meters":20400,"station_id":"ce4bhr12rcd13ifvqhpg","pricing_plan_id":"free"},{"bike_id":"72dcacfb-91e1-4c51-81ed-e191326091e3","system_id":"levelo_inurba_marseille","lat":43.313571,"lon":5.384829,"is_reserved":false,"is_disabled":false,"rental_uris":{"android":"levelo://app?vid=72dcacfb-91e1-4c51-81ed-e191326091e3","ios":"levelo://app?vid=72dcacfb-91e1-4c51-81ed-e191326091e3"},"vehicle_type_id":"4","last_reported":1701411010,"current_range_meters":28400,"station_id":"ce4bgt92rcd13ifvqcf0","pricing_plan_id":"free"},{"bike_id":"f9685f73-dc9d-4367-8765-ae9818630f3d","system_id":"levelo_inurba_marseille","lat":43.313571,"lon":5.384829,"is_reserved":false,"is_disabled":false,"rental_uris":{"android":"levelo://app?vid=f9685f73-dc9d-4367-8765-ae9818630f3d","ios":"levelo://app?vid=f9685f73-dc9d-4367-8765-ae9818630f3d"},"vehicle_type_id":"4","last_reported":1701411010,"current_range_meters":10000,"station_id":"ce4bgt92rcd13ifvqcf0","pricing_plan_id":"free"},{"bike_id":"0ba77c30-9291-49bb-b311-6f1dc330eac3","system_id":"levelo_inurba_marseille","lat":43.313571,"lon":5.384829,"is_reserved":false,"is_disabled":false,"rental_uris":{"android":"levelo://app?vid=0ba77c30-9291-49bb-b311-6f1dc330eac3","ios":"levelo://app?vid=0ba77c30-9291-49bb-b311-6f1dc330eac3"},"vehicle_type_id":"4","last_reported":1701411010,"current_range_meters":26800,"station_id":"ce4bgt92rcd13ifvqcf0","pricing_plan_id":"free"},{"bike_id":"d887cc04-b56b-4c57-8fb3-156a6fc33f1a","system_id":"levelo_inurba_marseille","lat":43.311722,"lon":5.387247,"is_reserved":false,"is_disabled":false,"rental_uris":{"android":"levelo://app?vid=d887cc04-b56b-4c57-8fb3-156a6fc33f1a","ios":"levelo://app?vid=d887cc04-b56b-4c57-8fb3-156a6fc33f1a"},"vehicle_type_id":"4","last_reported":1701411010,"current_range_meters":31200,"station_id":"ce4bgv12rcd13ifvqcp0","pricing_plan_id":"free"},{"bike_id":"16999fd4-5626-449b-9ef8-9c72b1db697f","system_id":"levelo_inurba_marseille","lat":43.311722,"lon":5.387247,"is_reserved":false,"is_disabled":false,"rental_uris":{"android":"levelo://app?vid=16999fd4-5626-449b-9ef8-9c72b1db697f","ios":"levelo://app?vid=16999fd4-5626-449b-9ef8-9c72b1db697f"},"vehicle_type_id":"4","last_reported":1701411010,"current_range_meters":29200,"station_id":"ce4bgv12rcd13ifvqcp0","pricing_plan_id":"free"},{"bike_id":"3e486f75-13eb-4bff-96f3-fa29e51ddb26","system_id":"levelo_inurba_marseille","lat":43.311722,"lon":5.387247,"is_reserved":false,"is_disabled":false,"rental_uris":{"android":"levelo://app?vid=3e486f75-13eb-4bff-96f3-fa29e51ddb26","ios":"levelo://app?vid=3e486f75-13eb-4bff-96f3-fa29e51ddb26"},"vehicle_type_id":"4","last_reported":1701411010,"current_range_meters":31200,"station_id":"ce4bgv12rcd13ifvqcp0","pricing_plan_id":"free"},{"bike_id":"2a5124c6-6d8c-456e-9a72-4daa95a20d78","system_id":"levelo_inurba_marseille","lat":43.311722,"lon":5.387247,"is_reserved":false,"is_disabled":false,"rental_uris":{"android":"levelo://app?vid=2a5124c6-6d8c-456e-9a72-4daa95a20d78","ios":"levelo://app?vid=2a5124c6-6d8c-456e-9a72-4daa95a20d78"},"vehicle_type_id":"4","last_reported":1701411010,"current_range_meters":31200,"station_id":"ce4bgv12rcd13ifvqcp0","pricing_plan_id":"free"},{"bike_id":"aebb5f1f-3a1e-4323-a4f0-ae83e0b78d14","system_id":"levelo_inurba_marseille","lat":43.327603,"lon":5.36705,"is_reserved":false,"is_disabled":false,"rental_uris":{"android":"levelo://app?vid=aebb5f1f-3a1e-4323-a4f0-ae83e0b78d14","ios":"levelo://app?vid=aebb5f1f-3a1e-4323-a4f0-ae83e0b78d14"},"vehicle_type_id":"4","last_reported":1701411010,"current_range_meters":22000,"station_id":"","pricing_plan_id":"free"},{"bike_id":"c4c8a7d7-9fce-427e-ae2b-3824a057f460","system_id":"levelo_inurba_marseille","lat":43.297774,"lon":5.370875,"is_reserved":false,"is_disabled":false,"rental_uris":{"android":"levelo://app?vid=c4c8a7d7-9fce-427e-ae2b-3824a057f460","ios":"levelo://app?vid=c4c8a7d7-9fce-427e-ae2b-3824a057f460"},"vehicle_type_id":"4","last_reported":1701411010,"current_range_meters":27600,"station_id":"ce4bgop2rcd13ifvqc1g","pricing_plan_id":"free"},{"bike_id":"973125e5-b3a0-479a-87a2-0abc6c660c3b","system_id":"levelo_inurba_marseille","lat":43.297794,"lon":5.370888,"is_reserved":false,"is_disabled":false,"rental_uris":{"android":"levelo://app?vid=973125e5-b3a0-479a-87a2-0abc6c660c3b","ios":"levelo://app?vid=973125e5-b3a0-479a-87a2-0abc6c660c3b"},"vehicle_type_id":"4","last_reported":1701411010,"current_range_meters":19200,"station_id":"ce4bgop2rcd13ifvqc1g","pricing_plan_id":"free"},{"bike_id":"2484d89c-f06b-463b-bfb4-4415361ed078","system_id":"levelo_inurba_marseille","lat":43.328371,"lon":5.366909,"is_reserved":false,"is_disabled":false,"rental_uris":{"android":"levelo://app?vid=2484d89c-f06b-463b-bfb4-4415361ed078","ios":"levelo://app?vid=2484d89c-f06b-463b-bfb4-4415361ed078"},"vehicle_type_id":"4","last_reported":1701411010,"current_range_meters":21200,"station_id":"ce4bhs92rcd13ifvqi0g","pricing_plan_id":"free"},{"bike_id":"dd0ce71a-7b5a-4ce1-951e-9194a025d6c5","system_id":"levelo_inurba_marseille","lat":43.297163,"lon":5.365866,"is_reserved":false,"is_disabled":false,"rental_uris":{"android":"levelo://app?vid=dd0ce71a-7b5a-4ce1-951e-9194a025d6c5","ios":"levelo://app?vid=dd0ce71a-7b5a-4ce1-951e-9194a025d6c5"},"vehicle_type_id":"4","last_reported":1701411010,"current_range_meters":25200,"station_id":"ce4bgn12rcd13ifvqbt0","pricing_plan_id":"free"},{"bike_id":"5983625d-69f5-485f-a399-daec2999c965","system_id":"levelo_inurba_marseille","lat":43.321549,"lon":5.385696,"is_reserved":false,"is_disabled":false,"rental_uris":{"android":"levelo://app?vid=5983625d-69f5-485f-a399-daec2999c965","ios":"levelo://app?vid=5983625d-69f5-485f-a399-daec2999c965"},"vehicle_type_id":"4","last_reported":1701411010,"current_range_meters":7600,"station_id":"","pricing_plan_id":"free"},{"bike_id":"d068864e-3768-4cb7-8f2c-e01febcf4d60","system_id":"levelo_inurba_marseille","lat":43.296274,"lon":5.365094,"is_reserved":false,"is_disabled":false,"rental_uris":{"android":"levelo://app?vid=d068864e-3768-4cb7-8f2c-e01febcf4d60","ios":"levelo://app?vid=d068864e-3768-4cb7-8f2c-e01febcf4d60"},"vehicle_type_id":"4","last_reported":1701411010,"current_range_meters":9200,"station_id":"","pricing_plan_id":"free"},{"bike_id":"5d0951e6-1219-48d8-a0eb-8be9281f7239","system_id":"levelo_inurba_marseille","lat":43.29573,"lon":5.367355,"is_reserved":false,"is_disabled":false,"rental_uris":{"android":"levelo://app?vid=5d0951e6-1219-48d8-a0eb-8be9281f7239","ios":"levelo://app?vid=5d0951e6-1219-48d8-a0eb-8be9281f7239"},"vehicle_type_id":"4","last_reported":1701411010,"current_range_meters":30400,"station_id":"ce4bgph2rcd13ifvqc2g","pricing_plan_id":"free"},{"bike_id":"6c2371a4-4eef-4760-ba91-f8cdf7af9193","system_id":"levelo_inurba_marseille","lat":43.296921,"lon":5.376579,"is_reserved":false,"is_disabled":false,"rental_uris":{"android":"levelo://app?vid=6c2371a4-4eef-4760-ba91-f8cdf7af9193","ios":"levelo://app?vid=6c2371a4-4eef-4760-ba91-f8cdf7af9193"},"vehicle_type_id":"4","last_reported":1701411010,"current_range_meters":30400,"station_id":"ce4bgkh2rcd13ifvqbl0","pricing_plan_id":"free"},{"bike_id":"51d5801b-279c-4f32-8fe5-c81e7cb49075","system_id":"levelo_inurba_marseille","lat":43.299028,"lon":5.381509,"is_reserved":false,"is_disabled":false,"rental_uris":{"android":"levelo://app?vid=51d5801b-279c-4f32-8fe5-c81e7cb49075","ios":"levelo://app?vid=51d5801b-279c-4f32-8fe5-c81e7cb49075"},"vehicle_type_id":"4","last_reported":1701411010,"current_range_meters":21600,"station_id":"ce4bgj12rcd13ifvqbc0","pricing_plan_id":"free"},{"bike_id":"9cb9df13-c034-44d0-9ee5-02fa594305f7","system_id":"levelo_inurba_marseille","lat":43.309589,"lon":5.390258,"is_reserved":false,"is_disabled":false,"rental_uris":{"android":"levelo://app?vid=9cb9df13-c034-44d0-9ee5-02fa594305f7","ios":"levelo://app?vid=9cb9df13-c034-44d0-9ee5-02fa594305f7"},"vehicle_type_id":"4","last_reported":1701411010,"current_range_meters":21200,"station_id":"ce4bgup2rcd13ifvqco0","pricing_plan_id":"free"},{"bike_id":"01f1a018-bd0c-4d0e-a63d-89b6ee548088","system_id":"levelo_inurba_marseille","lat":43.317557,"lon":5.390173,"is_reserved":false,"is_disabled":false,"rental_uris":{"android":"levelo://app?vid=01f1a018-bd0c-4d0e-a63d-89b6ee548088","ios":"levelo://app?vid=01f1a018-bd0c-4d0e-a63d-89b6ee548088"},"vehicle_type_id":"4","last_reported":1701411010,"current_range_meters":27600,"station_id":"ce4bhqp2rcd13ifvqhng","pricing_plan_id":"free"},{"bike_id":"72121378-a5a7-41f3-928f-9e15c2350373","system_id":"levelo_inurba_marseille","lat":43.317557,"lon":5.390173,"is_reserved":false,"is_disabled":false,"rental_uris":{"android":"levelo://app?vid=72121378-a5a7-41f3-928f-9e15c2350373","ios":"levelo://app?vid=72121378-a5a7-41f3-928f-9e15c2350373"},"vehicle_type_id":"4","last_reported":1701411010,"current_range_meters":26000,"station_id":"ce4bhqp2rcd13ifvqhng","pricing_plan_id":"free"},{"bike_id":"7f40bf8a-e1c9-43c6-b02c-e69c9ad9e035","system_id":"levelo_inurba_marseille","lat":43.298037,"lon":5.381066,"is_reserved":false,"is_disabled":false,"rental_uris":{"android":"levelo://app?vid=7f40bf8a-e1c9-43c6-b02c-e69c9ad9e035","ios":"levelo://app?vid=7f40bf8a-e1c9-43c6-b02c-e69c9ad9e035"},"vehicle_type_id":"4","last_reported":1701411010,"current_range_meters":28400,"station_id":"ce4bgip2rcd13ifvqbb0","pricing_plan_id":"free"},{"bike_id":"6d6f9838-ac3b-4caf-b531-708459c74562","system_id":"levelo_inurba_marseille","lat":43.29797,"lon":5.380957,"is_reserved":false,"is_disabled":false,"rental_uris":{"android":"levelo://app?vid=6d6f9838-ac3b-4caf-b531-708459c74562","ios":"levelo://app?vid=6d6f9838-ac3b-4caf-b531-708459c74562"},"vehicle_type_id":"4","last_reported":1701411010,"current_range_meters":21200,"station_id":"ce4bgip2rcd13ifvqbb0","pricing_plan_id":"free"},{"bike_id":"c7b8f144-43eb-4180-a9a8-b2ef93d9c4f4","system_id":"levelo_inurba_marseille","lat":43.304245,"lon":5.38891,"is_reserved":false,"is_disabled":false,"rental_uris":{"android":"levelo://app?vid=c7b8f144-43eb-4180-a9a8-b2ef93d9c4f4","ios":"levelo://app?vid=c7b8f144-43eb-4180-a9a8-b2ef93d9c4f4"},"vehicle_type_id":"4","last_reported":1701411010,"current_range_meters":25200,"station_id":"ce4bgm92rcd13ifvqbr0","pricing_plan_id":"free"},{"bike_id":"60e2f6c6-658b-427f-8da8-f777c687d108","system_id":"levelo_inurba_marseille","lat":43.296263,"lon":5.377094,"is_reserved":false,"is_disabled":false,"rental_uris":{"android":"levelo://app?vid=60e2f6c6-658b-427f-8da8-f777c687d108","ios":"levelo://app?vid=60e2f6c6-658b-427f-8da8-f777c687d108"},"vehicle_type_id":"4","last_reported":1701411010,"current_range_meters":26000,"station_id":"ce4bgi92rcd13ifvqb90","pricing_plan_id":"free"},{"bike_id":"2a120c67-1661-4b61-adbc-19c4e5ad2994","system_id":"levelo_inurba_marseille","lat":43.299707,"lon":5.384859,"is_reserved":false,"is_disabled":false,"rental_uris":{"android":"levelo://app?vid=2a120c67-1661-4b61-adbc-19c4e5ad2994","ios":"levelo://app?vid=2a120c67-1661-4b61-adbc-19c4e5ad2994"},"vehicle_type_id":"4","last_reported":1701411010,"current_range_meters":27200,"station_id":"ce4bgj92rcd13ifvqbd0","pricing_plan_id":"free"},{"bike_id":"aae7825e-6186-41a1-a8a4-b7b954e9191e","system_id":"levelo_inurba_marseille","lat":43.299724,"lon":5.384848,"is_reserved":false,"is_disabled":false,"rental_uris":{"android":"levelo://app?vid=aae7825e-6186-41a1-a8a4-b7b954e9191e","ios":"levelo://app?vid=aae7825e-6186-41a1-a8a4-b7b954e9191e"},"vehicle_type_id":"4","last_reported":1701411010,"current_range_meters":27600,"station_id":"ce4bgj92rcd13ifvqbd0","pricing_plan_id":"free"},{"bike_id":"eaa0e7e7-2390-47fa-909b-7b240952cbef","system_id":"levelo_inurba_marseille","lat":43.319443,"lon":5.392108,"is_reserved":false,"is_disabled":false,"rental_uris":{"android":"levelo://app?vid=eaa0e7e7-2390-47fa-909b-7b240952cbef","ios":"levelo://app?vid=eaa0e7e7-2390-47fa-909b-7b240952cbef"},"vehicle_type_id":"4","last_reported":1701411010,"current_range_meters":19200,"station_id":"","pricing_plan_id":"free"},{"bike_id":"0d99caf6-5471-42ad-8099-a86154f89f30","system_id":"levelo_inurba_marseille","lat":43.293009,"lon":5.374584,"is_reserved":false,"is_disabled":false,"rental_uris":{"android":"levelo://app?vid=0d99caf6-5471-42ad-8099-a86154f89f30","ios":"levelo://app?vid=0d99caf6-5471-42ad-8099-a86154f89f30"},"vehicle_type_id":"4","last_reported":1701411010,"current_range_meters":22000,"station_id":"ce4bgi12rcd13ifvqb70","pricing_plan_id":"free"},{"bike_id":"223723c8-6d2f-435e-9642-aef80e68dfaf","system_id":"levelo_inurba_marseille","lat":43.2936,"lon":5.37835,"is_reserved":false,"is_disabled":false,"rental_uris":{"android":"levelo://app?vid=223723c8-6d2f-435e-9642-aef80e68dfaf","ios":"levelo://app?vid=223723c8-6d2f-435e-9642-aef80e68dfaf"},"vehicle_type_id":"4","last_reported":1701411010,"current_range_meters":6000,"station_id":"ce4bgjh2rcd13ifvqbf0","pricing_plan_id":"free"},{"bike_id":"cb1222c0-1cf6-4c89-9526-31b0a8404144","system_id":"levelo_inurba_marseille","lat":43.2936,"lon":5.37835,"is_reserved":false,"is_disabled":false,"rental_uris":{"android":"levelo://app?vid=cb1222c0-1cf6-4c89-9526-31b0a8404144","ios":"levelo://app?vid=cb1222c0-1cf6-4c89-9526-31b0a8404144"},"vehicle_type_id":"4","last_reported":1701411010,"current_range_meters":30000,"station_id":"ce4bgjh2rcd13ifvqbf0","pricing_plan_id":"free"},{"bike_id":"daad5bf0-c5e1-4719-87de-e9289709854c","system_id":"levelo_inurba_marseille","lat":43.308797,"lon":5.396202,"is_reserved":false,"is_disabled":false,"rental_uris":{"android":"levelo://app?vid=daad5bf0-c5e1-4719-87de-e9289709854c","ios":"levelo://app?vid=daad5bf0-c5e1-4719-87de-e9289709854c"},"vehicle_type_id":"4","last_reported":1701411010,"current_range_meters":25200,"station_id":"ce4bh012rcd13ifvqcv0","pricing_plan_id":"free"},{"bike_id":"39c172a7-89a2-4eed-a555-62b5bb19a35c","system_id":"levelo_inurba_marseille","lat":43.309038,"lon":5.396546,"is_reserved":false,"is_disabled":false,"rental_uris":{"android":"levelo://app?vid=39c172a7-89a2-4eed-a555-62b5bb19a35c","ios":"levelo://app?vid=39c172a7-89a2-4eed-a555-62b5bb19a35c"},"vehicle_type_id":"4","last_reported":1701411010,"current_range_meters":20800,"station_id":"ce4bh012rcd13ifvqcv0","pricing_plan_id":"free"},{"bike_id":"b0e4a12f-5454-4763-8901-0f49046fd84b","system_id":"levelo_inurba_marseille","lat":43.309038,"lon":5.396546,"is_reserved":false,"is_disabled":false,"rental_uris":{"android":"levelo://app?vid=b0e4a12f-5454-4763-8901-0f49046fd84b","ios":"levelo://app?vid=b0e4a12f-5454-4763-8901-0f49046fd84b"},"vehicle_type_id":"4","last_reported":1701411010,"current_range_meters":31200,"station_id":"ce4bh012rcd13ifvqcv0","pricing_plan_id":"free"},{"bike_id":"21d8b618-ada3-4754-92f8-c91f26f200bb","system_id":"levelo_inurba_marseille","lat":43.309047,"lon":5.396551,"is_reserved":false,"is_disabled":false,"rental_uris":{"android":"levelo://app?vid=21d8b618-ada3-4754-92f8-c91f26f200bb","ios":"levelo://app?vid=21d8b618-ada3-4754-92f8-c91f26f200bb"},"vehicle_type_id":"4","last_reported":1701411010,"current_range_meters":31600,"station_id":"ce4bh012rcd13ifvqcv0","pricing_plan_id":"free"},{"bike_id":"6ce841e3-18c9-4cb5-8aa0-416805308a49","system_id":"levelo_inurba_marseille","lat":43.313298,"lon":5.3969,"is_reserved":false,"is_disabled":false,"rental_uris":{"android":"levelo://app?vid=6ce841e3-18c9-4cb5-8aa0-416805308a49","ios":"levelo://app?vid=6ce841e3-18c9-4cb5-8aa0-416805308a49"},"vehicle_type_id":"4","last_reported":1701411010,"current_range_meters":30400,"station_id":"ce4bgvp2rcd13ifvqcu0","pricing_plan_id":"free"},{"bike_id":"0116258c-2efa-449c-ac91-639c596b2bdb","system_id":"levelo_inurba_marseille","lat":43.309047,"lon":5.396551,"is_reserved":false,"is_disabled":false,"rental_uris":{"android":"levelo://app?vid=0116258c-2efa-449c-ac91-639c596b2bdb","ios":"levelo://app?vid=0116258c-2efa-449c-ac91-639c596b2bdb"},"vehicle_type_id":"4","last_reported":1701411010,"current_range_meters":31200,"station_id":"ce4bh012rcd13ifvqcv0","pricing_plan_id":"free"},{"bike_id":"003e3848-9a2d-4a03-b685-53c7efbce624","system_id":"levelo_inurba_marseille","lat":43.313291,"lon":5.396838,"is_reserved":false,"is_disabled":false,"rental_uris":{"android":"levelo://app?vid=003e3848-9a2d-4a03-b685-53c7efbce624","ios":"levelo://app?vid=003e3848-9a2d-4a03-b685-53c7efbce624"},"vehicle_type_id":"4","last_reported":1701411010,"current_range_meters":28000,"station_id":"ce4bgvp2rcd13ifvqcu0","pricing_plan_id":"free"},{"bike_id":"e4640747-17b8-4b10-9bf0-8dbc490e496f","system_id":"levelo_inurba_marseille","lat":43.313249,"lon":5.396953,"is_reserved":false,"is_disabled":false,"rental_uris":{"android":"levelo://app?vid=e4640747-17b8-4b10-9bf0-8dbc490e496f","ios":"levelo://app?vid=e4640747-17b8-4b10-9bf0-8dbc490e496f"},"vehicle_type_id":"4","last_reported":1701411010,"current_range_meters":31200,"station_id":"ce4bgvp2rcd13ifvqcu0","pricing_plan_id":"free"},{"bike_id":"340e64b9-2cf7-4151-9689-ecdbf8a827ce","system_id":"levelo_inurba_marseille","lat":43.313291,"lon":5.396838,"is_reserved":false,"is_disabled":false,"rental_uris":{"android":"levelo://app?vid=340e64b9-2cf7-4151-9689-ecdbf8a827ce","ios":"levelo://app?vid=340e64b9-2cf7-4151-9689-ecdbf8a827ce"},"vehicle_type_id":"4","last_reported":1701411010,"current_range_meters":23200,"station_id":"ce4bgvp2rcd13ifvqcu0","pricing_plan_id":"free"},{"bike_id":"577ec1e7-9d75-4115-a4d6-e081f5f9e880","system_id":"levelo_inurba_marseille","lat":43.309047,"lon":5.396551,"is_reserved":false,"is_disabled":false,"rental_uris":{"android":"levelo://app?vid=577ec1e7-9d75-4115-a4d6-e081f5f9e880","ios":"levelo://app?vid=577ec1e7-9d75-4115-a4d6-e081f5f9e880"},"vehicle_type_id":"4","last_reported":1701411010,"current_range_meters":17200,"station_id":"ce4bh012rcd13ifvqcv0","pricing_plan_id":"free"},{"bike_id":"2d332350-c46e-4f65-a65b-7ad42fc0c0f1","system_id":"levelo_inurba_marseille","lat":43.309038,"lon":5.396546,"is_reserved":false,"is_disabled":false,"rental_uris":{"android":"levelo://app?vid=2d332350-c46e-4f65-a65b-7ad42fc0c0f1","ios":"levelo://app?vid=2d332350-c46e-4f65-a65b-7ad42fc0c0f1"},"vehicle_type_id":"4","last_reported":1701411010,"current_range_meters":26400,"station_id":"ce4bh012rcd13ifvqcv0","pricing_plan_id":"free"},{"bike_id":"b66f6ce2-5f1b-4e8d-a0e3-a0271983c888","system_id":"levelo_inurba_marseille","lat":43.309047,"lon":5.396551,"is_reserved":false,"is_disabled":false,"rental_uris":{"android":"levelo://app?vid=b66f6ce2-5f1b-4e8d-a0e3-a0271983c888","ios":"levelo://app?vid=b66f6ce2-5f1b-4e8d-a0e3-a0271983c888"},"vehicle_type_id":"4","last_reported":1701411010,"current_range_meters":28000,"station_id":"ce4bh012rcd13ifvqcv0","pricing_plan_id":"free"},{"bike_id":"f0dd45b3-f13c-4a3b-bdd5-be0672e5a3b8","system_id":"levelo_inurba_marseille","lat":43.30887,"lon":5.39656,"is_reserved":false,"is_disabled":false,"rental_uris":{"android":"levelo://app?vid=f0dd45b3-f13c-4a3b-bdd5-be0672e5a3b8","ios":"levelo://app?vid=f0dd45b3-f13c-4a3b-bdd5-be0672e5a3b8"},"vehicle_type_id":"4","last_reported":1701411010,"current_range_meters":31200,"station_id":"ce4bh012rcd13ifvqcv0","pricing_plan_id":"free"},{"bike_id":"849bd07f-b33f-4961-ac84-d84ea6c847e7","system_id":"levelo_inurba_marseille","lat":43.31325,"lon":5.39704,"is_reserved":false,"is_disabled":false,"rental_uris":{"android":"levelo://app?vid=849bd07f-b33f-4961-ac84-d84ea6c847e7","ios":"levelo://app?vid=849bd07f-b33f-4961-ac84-d84ea6c847e7"},"vehicle_type_id":"4","last_reported":1701411010,"current_range_meters":22000,"station_id":"ce4bgvp2rcd13ifvqcu0","pricing_plan_id":"free"},{"bike_id":"dc49844e-a1fc-49cd-9b36-2581cda011a9","system_id":"levelo_inurba_marseille","lat":43.289468,"lon":5.363719,"is_reserved":false,"is_disabled":false,"rental_uris":{"android":"levelo://app?vid=dc49844e-a1fc-49cd-9b36-2581cda011a9","ios":"levelo://app?vid=dc49844e-a1fc-49cd-9b36-2581cda011a9"},"vehicle_type_id":"4","last_reported":1701411010,"current_range_meters":28400,"station_id":"ce4bhc92rcd13ifvqetg","pricing_plan_id":"free"},{"bike_id":"50b936ad-569e-43ac-87c0-e8a3a79ea710","system_id":"levelo_inurba_marseille","lat":43.304274,"lon":5.397513,"is_reserved":false,"is_disabled":false,"rental_uris":{"android":"levelo://app?vid=50b936ad-569e-43ac-87c0-e8a3a79ea710","ios":"levelo://app?vid=50b936ad-569e-43ac-87c0-e8a3a79ea710"},"vehicle_type_id":"4","last_reported":1701411010,"current_range_meters":30000,"station_id":"ce4bh092rcd13ifvqd20","pricing_plan_id":"free"},{"bike_id":"47707aab-a8b6-4a67-bd9d-165026b25262","system_id":"levelo_inurba_marseille","lat":43.290104,"lon":5.356111,"is_reserved":false,"is_disabled":false,"rental_uris":{"android":"levelo://app?vid=47707aab-a8b6-4a67-bd9d-165026b25262","ios":"levelo://app?vid=47707aab-a8b6-4a67-bd9d-165026b25262"},"vehicle_type_id":"4","last_reported":1701411010,"current_range_meters":25600,"station_id":"ce4bhb92rcd13ifvqen0","pricing_plan_id":"free"},{"bike_id":"433c11ae-8306-4bbf-850d-086e9b9b8b2e","system_id":"levelo_inurba_marseille","lat":43.2909,"lon":5.381212,"is_reserved":false,"is_disabled":false,"rental_uris":{"android":"levelo://app?vid=433c11ae-8306-4bbf-850d-086e9b9b8b2e","ios":"levelo://app?vid=433c11ae-8306-4bbf-850d-086e9b9b8b2e"},"vehicle_type_id":"4","last_reported":1701411010,"current_range_meters":16000,"station_id":"ce4bh512rcd13ifvqe2g","pricing_plan_id":"free"},{"bike_id":"8f39f328-8673-411a-a45b-daae3b0a7648","system_id":"levelo_inurba_marseille","lat":43.295363,"lon":5.390803,"is_reserved":false,"is_disabled":false,"rental_uris":{"android":"levelo://app?vid=8f39f328-8673-411a-a45b-daae3b0a7648","ios":"levelo://app?vid=8f39f328-8673-411a-a45b-daae3b0a7648"},"vehicle_type_id":"4","last_reported":1701411010,"current_range_meters":2400,"station_id":"ce4bh3p2rcd13ifvqdp0","pricing_plan_id":"free"},{"bike_id":"08c92996-1334-49ff-a9bf-b4a10f64fd17","system_id":"levelo_inurba_marseille","lat":43.312781,"lon":5.401654,"is_reserved":false,"is_disabled":false,"rental_uris":{"android":"levelo://app?vid=08c92996-1334-49ff-a9bf-b4a10f64fd17","ios":"levelo://app?vid=08c92996-1334-49ff-a9bf-b4a10f64fd17"},"vehicle_type_id":"4","last_reported":1701411010,"current_range_meters":17200,"station_id":"ce4bh092rcd13ifvqd30","pricing_plan_id":"free"},{"bike_id":"a2c112a6-58e1-4e8b-8be8-80d2c9d8d3d7","system_id":"levelo_inurba_marseille","lat":43.31265,"lon":5.401699,"is_reserved":false,"is_disabled":false,"rental_uris":{"android":"levelo://app?vid=a2c112a6-58e1-4e8b-8be8-80d2c9d8d3d7","ios":"levelo://app?vid=a2c112a6-58e1-4e8b-8be8-80d2c9d8d3d7"},"vehicle_type_id":"4","last_reported":1701411010,"current_range_meters":15600,"station_id":"","pricing_plan_id":"free"},{"bike_id":"fd3d1981-b606-41f6-8603-56a8571b0bd5","system_id":"levelo_inurba_marseille","lat":43.30642,"lon":5.401031,"is_reserved":false,"is_disabled":false,"rental_uris":{"android":"levelo://app?vid=fd3d1981-b606-41f6-8603-56a8571b0bd5","ios":"levelo://app?vid=fd3d1981-b606-41f6-8603-56a8571b0bd5"},"vehicle_type_id":"4","last_reported":1701411010,"current_range_meters":28400,"station_id":"ce4bh112rcd13ifvqda0","pricing_plan_id":"free"},{"bike_id":"75b8326e-c5b2-4adb-bbf9-7f730664ad36","system_id":"levelo_inurba_marseille","lat":43.3093,"lon":5.40152,"is_reserved":false,"is_disabled":false,"rental_uris":{"android":"levelo://app?vid=75b8326e-c5b2-4adb-bbf9-7f730664ad36","ios":"levelo://app?vid=75b8326e-c5b2-4adb-bbf9-7f730664ad36"},"vehicle_type_id":"4","last_reported":1701411010,"current_range_meters":22000,"station_id":"ce4bgvp2rcd13ifvqct0","pricing_plan_id":"free"},{"bike_id":"de117050-8bd5-4e62-8beb-ea605b189848","system_id":"levelo_inurba_marseille","lat":43.30642,"lon":5.401031,"is_reserved":false,"is_disabled":false,"rental_uris":{"android":"levelo://app?vid=de117050-8bd5-4e62-8beb-ea605b189848","ios":"levelo://app?vid=de117050-8bd5-4e62-8beb-ea605b189848"},"vehicle_type_id":"4","last_reported":1701411010,"current_range_meters":29600,"station_id":"ce4bh112rcd13ifvqda0","pricing_plan_id":"free"},{"bike_id":"401debdc-028b-49f0-96ac-7f14f29d7ae3","system_id":"levelo_inurba_marseille","lat":43.306412,"lon":5.401035,"is_reserved":false,"is_disabled":false,"rental_uris":{"android":"levelo://app?vid=401debdc-028b-49f0-96ac-7f14f29d7ae3","ios":"levelo://app?vid=401debdc-028b-49f0-96ac-7f14f29d7ae3"},"vehicle_type_id":"4","last_reported":1701411010,"current_range_meters":31200,"station_id":"ce4bh112rcd13ifvqda0","pricing_plan_id":"free"},{"bike_id":"637ab514-70ce-4fe6-8c27-a80254d9c341","system_id":"levelo_inurba_marseille","lat":43.306412,"lon":5.401035,"is_reserved":false,"is_disabled":false,"rental_uris":{"android":"levelo://app?vid=637ab514-70ce-4fe6-8c27-a80254d9c341","ios":"levelo://app?vid=637ab514-70ce-4fe6-8c27-a80254d9c341"},"vehicle_type_id":"4","last_reported":1701411010,"current_range_meters":23600,"station_id":"ce4bh112rcd13ifvqda0","pricing_plan_id":"free"},{"bike_id":"ccfb25ce-b411-4503-909a-1567633ccfc0","system_id":"levelo_inurba_marseille","lat":43.306412,"lon":5.401035,"is_reserved":false,"is_disabled":false,"rental_uris":{"android":"levelo://app?vid=ccfb25ce-b411-4503-909a-1567633ccfc0","ios":"levelo://app?vid=ccfb25ce-b411-4503-909a-1567633ccfc0"},"vehicle_type_id":"4","last_reported":1701411010,"current_range_meters":19200,"station_id":"ce4bh112rcd13ifvqda0","pricing_plan_id":"free"},{"bike_id":"2210b1ba-7d52-4736-986b-ce4e0f32607c","system_id":"levelo_inurba_marseille","lat":43.287282,"lon":5.360812,"is_reserved":false,"is_disabled":false,"rental_uris":{"android":"levelo://app?vid=2210b1ba-7d52-4736-986b-ce4e0f32607c","ios":"levelo://app?vid=2210b1ba-7d52-4736-986b-ce4e0f32607c"},"vehicle_type_id":"4","last_reported":1701411010,"current_range_meters":17600,"station_id":"cki0cbj6b192h4jlfktg","pricing_plan_id":"free"},{"bike_id":"893909e0-073b-4941-8588-c74be12a8858","system_id":"levelo_inurba_marseille","lat":43.287271,"lon":5.360837,"is_reserved":false,"is_disabled":false,"rental_uris":{"android":"levelo://app?vid=893909e0-073b-4941-8588-c74be12a8858","ios":"levelo://app?vid=893909e0-073b-4941-8588-c74be12a8858"},"vehicle_type_id":"4","last_reported":1701411010,"current_range_meters":12000,"station_id":"cki0cbj6b192h4jlfktg","pricing_plan_id":"free"},{"bike_id":"f0b62317-80a8-4e72-a32b-c493ad8bd6c3","system_id":"levelo_inurba_marseille","lat":43.28727,"lon":5.36078,"is_reserved":false,"is_disabled":false,"rental_uris":{"android":"levelo://app?vid=f0b62317-80a8-4e72-a32b-c493ad8bd6c3","ios":"levelo://app?vid=f0b62317-80a8-4e72-a32b-c493ad8bd6c3"},"vehicle_type_id":"4","last_reported":1701411010,"current_range_meters":28800,"station_id":"cki0cbj6b192h4jlfktg","pricing_plan_id":"free"},{"bike_id":"f950ad11-18dd-44f1-b288-cb9023e1b65f","system_id":"levelo_inurba_marseille","lat":43.28722,"lon":5.360827,"is_reserved":false,"is_disabled":false,"rental_uris":{"android":"levelo://app?vid=f950ad11-18dd-44f1-b288-cb9023e1b65f","ios":"levelo://app?vid=f950ad11-18dd-44f1-b288-cb9023e1b65f"},"vehicle_type_id":"4","last_reported":1701411010,"current_range_meters":24000,"station_id":"cki0cbj6b192h4jlfktg","pricing_plan_id":"free"},{"bike_id":"d7b73794-d79c-4c78-ab5c-8024c29078ea","system_id":"levelo_inurba_marseille","lat":43.28718,"lon":5.36093,"is_reserved":false,"is_disabled":false,"rental_uris":{"android":"levelo://app?vid=d7b73794-d79c-4c78-ab5c-8024c29078ea","ios":"levelo://app?vid=d7b73794-d79c-4c78-ab5c-8024c29078ea"},"vehicle_type_id":"4","last_reported":1701411010,"current_range_meters":25600,"station_id":"cki0cbj6b192h4jlfktg","pricing_plan_id":"free"},{"bike_id":"246292a8-49c4-4e1d-913d-f78fdc8f52ea","system_id":"levelo_inurba_marseille","lat":43.28718,"lon":5.36077,"is_reserved":false,"is_disabled":false,"rental_uris":{"android":"levelo://app?vid=246292a8-49c4-4e1d-913d-f78fdc8f52ea","ios":"levelo://app?vid=246292a8-49c4-4e1d-913d-f78fdc8f52ea"},"vehicle_type_id":"4","last_reported":1701411010,"current_range_meters":24800,"station_id":"cki0cbj6b192h4jlfktg","pricing_plan_id":"free"},{"bike_id":"7cec73a3-273f-4b34-a160-9f7190a42704","system_id":"levelo_inurba_marseille","lat":43.28727,"lon":5.36078,"is_reserved":false,"is_disabled":false,"rental_uris":{"android":"levelo://app?vid=7cec73a3-273f-4b34-a160-9f7190a42704","ios":"levelo://app?vid=7cec73a3-273f-4b34-a160-9f7190a42704"},"vehicle_type_id":"4","last_reported":1701411010,"current_range_meters":28400,"station_id":"cki0cbj6b192h4jlfktg","pricing_plan_id":"free"},{"bike_id":"bdb81330-23ad-4b52-864a-6a12c4a5a52b","system_id":"levelo_inurba_marseille","lat":43.286593,"lon":5.363346,"is_reserved":false,"is_disabled":false,"rental_uris":{"android":"levelo://app?vid=bdb81330-23ad-4b52-864a-6a12c4a5a52b","ios":"levelo://app?vid=bdb81330-23ad-4b52-864a-6a12c4a5a52b"},"vehicle_type_id":"4","last_reported":1701411010,"current_range_meters":31200,"station_id":"ce4bhah2rcd13ifvqej0","pricing_plan_id":"free"},{"bike_id":"c065e889-39ea-4222-a682-89ea3d5cc014","system_id":"levelo_inurba_marseille","lat":43.286593,"lon":5.363346,"is_reserved":false,"is_disabled":false,"rental_uris":{"android":"levelo://app?vid=c065e889-39ea-4222-a682-89ea3d5cc014","ios":"levelo://app?vid=c065e889-39ea-4222-a682-89ea3d5cc014"},"vehicle_type_id":"4","last_reported":1701411010,"current_range_meters":20400,"station_id":"ce4bhah2rcd13ifvqej0","pricing_plan_id":"free"},{"bike_id":"d6810763-5071-4f23-8495-866a604692b6","system_id":"levelo_inurba_marseille","lat":43.286961,"lon":5.373785,"is_reserved":false,"is_disabled":false,"rental_uris":{"android":"levelo://app?vid=d6810763-5071-4f23-8495-866a604692b6","ios":"levelo://app?vid=d6810763-5071-4f23-8495-866a604692b6"},"vehicle_type_id":"4","last_reported":1701411010,"current_range_meters":24800,"station_id":"ce4bh3p2rcd13ifvqdq0","pricing_plan_id":"free"},{"bike_id":"59d449fd-154f-41e3-ae94-2e9547bc447e","system_id":"levelo_inurba_marseille","lat":43.286591,"lon":5.363346,"is_reserved":false,"is_disabled":false,"rental_uris":{"android":"levelo://app?vid=59d449fd-154f-41e3-ae94-2e9547bc447e","ios":"levelo://app?vid=59d449fd-154f-41e3-ae94-2e9547bc447e"},"vehicle_type_id":"4","last_reported":1701411010,"current_range_meters":10000,"station_id":"ce4bhah2rcd13ifvqej0","pricing_plan_id":"free"},{"bike_id":"73e3bb1b-932d-4672-a139-185caab6c0d7","system_id":"levelo_inurba_marseille","lat":43.302759,"lon":5.400793,"is_reserved":false,"is_disabled":false,"rental_uris":{"android":"levelo://app?vid=73e3bb1b-932d-4672-a139-185caab6c0d7","ios":"levelo://app?vid=73e3bb1b-932d-4672-a139-185caab6c0d7"},"vehicle_type_id":"4","last_reported":1701411010,"current_range_meters":12400,"station_id":"ce4bgvh2rcd13ifvqcs0","pricing_plan_id":"free"},{"bike_id":"59478bbb-454c-47ef-b624-0be37854a9e4","system_id":"levelo_inurba_marseille","lat":43.307623,"lon":5.402774,"is_reserved":false,"is_disabled":false,"rental_uris":{"android":"levelo://app?vid=59478bbb-454c-47ef-b624-0be37854a9e4","ios":"levelo://app?vid=59478bbb-454c-47ef-b624-0be37854a9e4"},"vehicle_type_id":"4","last_reported":1701411010,"current_range_meters":18800,"station_id":"ce4bgvp2rcd13ifvqct0","pricing_plan_id":"free"},{"bike_id":"e8ed007f-61c7-4549-9252-c0f627c6eed5","system_id":"levelo_inurba_marseille","lat":43.302759,"lon":5.400793,"is_reserved":false,"is_disabled":false,"rental_uris":{"android":"levelo://app?vid=e8ed007f-61c7-4549-9252-c0f627c6eed5","ios":"levelo://app?vid=e8ed007f-61c7-4549-9252-c0f627c6eed5"},"vehicle_type_id":"4","last_reported":1701411010,"current_range_meters":31200,"station_id":"ce4bgvh2rcd13ifvqcs0","pricing_plan_id":"free"},{"bike_id":"51e80092-f709-463a-96a2-8b25587b914d","system_id":"levelo_inurba_marseille","lat":43.286039,"lon":5.370681,"is_reserved":false,"is_disabled":false,"rental_uris":{"android":"levelo://app?vid=51e80092-f709-463a-96a2-8b25587b914d","ios":"levelo://app?vid=51e80092-f709-463a-96a2-8b25587b914d"},"vehicle_type_id":"4","last_reported":1701411010,"current_range_meters":3200,"station_id":"ce4bht12rcd13ifvqi60","pricing_plan_id":"free"},{"bike_id":"fc4e565b-2ea5-4295-b7e3-c3d170f3b704","system_id":"levelo_inurba_marseille","lat":43.286039,"lon":5.370681,"is_reserved":false,"is_disabled":false,"rental_uris":{"android":"levelo://app?vid=fc4e565b-2ea5-4295-b7e3-c3d170f3b704","ios":"levelo://app?vid=fc4e565b-2ea5-4295-b7e3-c3d170f3b704"},"vehicle_type_id":"4","last_reported":1701411010,"current_range_meters":29200,"station_id":"ce4bht12rcd13ifvqi60","pricing_plan_id":"free"},{"bike_id":"748a4b12-b668-4fae-bf1a-b7df0017758a","system_id":"levelo_inurba_marseille","lat":43.286039,"lon":5.370681,"is_reserved":false,"is_disabled":false,"rental_uris":{"android":"levelo://app?vid=748a4b12-b668-4fae-bf1a-b7df0017758a","ios":"levelo://app?vid=748a4b12-b668-4fae-bf1a-b7df0017758a"},"vehicle_type_id":"4","last_reported":1701411010,"current_range_meters":31200,"station_id":"ce4bht12rcd13ifvqi60","pricing_plan_id":"free"},{"bike_id":"7c586522-cbd0-4b30-87c4-d1b00e2d5421","system_id":"levelo_inurba_marseille","lat":43.316439,"lon":5.404376,"is_reserved":false,"is_disabled":false,"rental_uris":{"android":"levelo://app?vid=7c586522-cbd0-4b30-87c4-d1b00e2d5421","ios":"levelo://app?vid=7c586522-cbd0-4b30-87c4-d1b00e2d5421"},"vehicle_type_id":"4","last_reported":1701411010,"current_range_meters":10400,"station_id":"ce4bh012rcd13ifvqd00","pricing_plan_id":"free"},{"bike_id":"ebf17176-9fba-4e7e-90b9-791b0da4501a","system_id":"levelo_inurba_marseille","lat":43.284534,"lon":5.358662,"is_reserved":false,"is_disabled":false,"rental_uris":{"android":"levelo://app?vid=ebf17176-9fba-4e7e-90b9-791b0da4501a","ios":"levelo://app?vid=ebf17176-9fba-4e7e-90b9-791b0da4501a"},"vehicle_type_id":"4","last_reported":1701411010,"current_range_meters":31200,"station_id":"ce4bhah2rcd13ifvqei0","pricing_plan_id":"free"},{"bike_id":"22511f74-5698-411c-a650-27843927ea3e","system_id":"levelo_inurba_marseille","lat":43.284534,"lon":5.358662,"is_reserved":false,"is_disabled":false,"rental_uris":{"android":"levelo://app?vid=22511f74-5698-411c-a650-27843927ea3e","ios":"levelo://app?vid=22511f74-5698-411c-a650-27843927ea3e"},"vehicle_type_id":"4","last_reported":1701411010,"current_range_meters":28000,"station_id":"ce4bhah2rcd13ifvqei0","pricing_plan_id":"free"},{"bike_id":"21169003-7cd8-4dcc-90d2-c0b535fa7f98","system_id":"levelo_inurba_marseille","lat":43.284538,"lon":5.358657,"is_reserved":false,"is_disabled":false,"rental_uris":{"android":"levelo://app?vid=21169003-7cd8-4dcc-90d2-c0b535fa7f98","ios":"levelo://app?vid=21169003-7cd8-4dcc-90d2-c0b535fa7f98"},"vehicle_type_id":"4","last_reported":1701411010,"current_range_meters":18800,"station_id":"ce4bhah2rcd13ifvqei0","pricing_plan_id":"free"},{"bike_id":"17f9a08f-f653-4795-ab7f-1ff49e1b30ff","system_id":"levelo_inurba_marseille","lat":43.284538,"lon":5.358657,"is_reserved":false,"is_disabled":false,"rental_uris":{"android":"levelo://app?vid=17f9a08f-f653-4795-ab7f-1ff49e1b30ff","ios":"levelo://app?vid=17f9a08f-f653-4795-ab7f-1ff49e1b30ff"},"vehicle_type_id":"4","last_reported":1701411010,"current_range_meters":8800,"station_id":"ce4bhah2rcd13ifvqei0","pricing_plan_id":"free"},{"bike_id":"d8afdaf7-a980-4e89-9d7e-e47dccdeb5f1","system_id":"levelo_inurba_marseille","lat":43.284538,"lon":5.358657,"is_reserved":false,"is_disabled":false,"rental_uris":{"android":"levelo://app?vid=d8afdaf7-a980-4e89-9d7e-e47dccdeb5f1","ios":"levelo://app?vid=d8afdaf7-a980-4e89-9d7e-e47dccdeb5f1"},"vehicle_type_id":"4","last_reported":1701411010,"current_range_meters":31200,"station_id":"ce4bhah2rcd13ifvqei0","pricing_plan_id":"free"},{"bike_id":"d2793e46-d8de-4714-aae7-4386fc0c8a4f","system_id":"levelo_inurba_marseille","lat":43.284538,"lon":5.358657,"is_reserved":false,"is_disabled":false,"rental_uris":{"android":"levelo://app?vid=d2793e46-d8de-4714-aae7-4386fc0c8a4f","ios":"levelo://app?vid=d2793e46-d8de-4714-aae7-4386fc0c8a4f"},"vehicle_type_id":"4","last_reported":1701411010,"current_range_meters":9600,"station_id":"ce4bhah2rcd13ifvqei0","pricing_plan_id":"free"},{"bike_id":"7e86716c-7d1c-41fc-b4d1-bedcc84d4e3f","system_id":"levelo_inurba_marseille","lat":43.284538,"lon":5.358657,"is_reserved":false,"is_disabled":false,"rental_uris":{"android":"levelo://app?vid=7e86716c-7d1c-41fc-b4d1-bedcc84d4e3f","ios":"levelo://app?vid=7e86716c-7d1c-41fc-b4d1-bedcc84d4e3f"},"vehicle_type_id":"4","last_reported":1701411010,"current_range_meters":23200,"station_id":"ce4bhah2rcd13ifvqei0","pricing_plan_id":"free"},{"bike_id":"f0af66be-b54e-441d-bca6-9912ae6f8e4c","system_id":"levelo_inurba_marseille","lat":43.284538,"lon":5.358657,"is_reserved":false,"is_disabled":false,"rental_uris":{"android":"levelo://app?vid=f0af66be-b54e-441d-bca6-9912ae6f8e4c","ios":"levelo://app?vid=f0af66be-b54e-441d-bca6-9912ae6f8e4c"},"vehicle_type_id":"4","last_reported":1701411010,"current_range_meters":28000,"station_id":"ce4bhah2rcd13ifvqei0","pricing_plan_id":"free"},{"bike_id":"b7bfcd62-d06d-495c-a8ea-3ac584fcd939","system_id":"levelo_inurba_marseille","lat":43.28457,"lon":5.35888,"is_reserved":false,"is_disabled":false,"rental_uris":{"android":"levelo://app?vid=b7bfcd62-d06d-495c-a8ea-3ac584fcd939","ios":"levelo://app?vid=b7bfcd62-d06d-495c-a8ea-3ac584fcd939"},"vehicle_type_id":"4","last_reported":1701411010,"current_range_meters":26400,"station_id":"ce4bhah2rcd13ifvqei0","pricing_plan_id":"free"},{"bike_id":"d27c3822-c0f8-4b95-a49f-2375387b9290","system_id":"levelo_inurba_marseille","lat":43.28456,"lon":5.35892,"is_reserved":false,"is_disabled":false,"rental_uris":{"android":"levelo://app?vid=d27c3822-c0f8-4b95-a49f-2375387b9290","ios":"levelo://app?vid=d27c3822-c0f8-4b95-a49f-2375387b9290"},"vehicle_type_id":"4","last_reported":1701411010,"current_range_meters":16000,"station_id":"ce4bhah2rcd13ifvqei0","pricing_plan_id":"free"},{"bike_id":"fb9a3ba1-bd19-4ec5-9708-e57a8fcabc47","system_id":"levelo_inurba_marseille","lat":43.284538,"lon":5.358657,"is_reserved":false,"is_disabled":false,"rental_uris":{"android":"levelo://app?vid=fb9a3ba1-bd19-4ec5-9708-e57a8fcabc47","ios":"levelo://app?vid=fb9a3ba1-bd19-4ec5-9708-e57a8fcabc47"},"vehicle_type_id":"4","last_reported":1701411010,"current_range_meters":29600,"station_id":"ce4bhah2rcd13ifvqei0","pricing_plan_id":"free"},{"bike_id":"b6a0a756-c772-43a0-a874-c8a9bb6af229","system_id":"levelo_inurba_marseille","lat":43.284534,"lon":5.358662,"is_reserved":false,"is_disabled":false,"rental_uris":{"android":"levelo://app?vid=b6a0a756-c772-43a0-a874-c8a9bb6af229","ios":"levelo://app?vid=b6a0a756-c772-43a0-a874-c8a9bb6af229"},"vehicle_type_id":"4","last_reported":1701411010,"current_range_meters":27600,"station_id":"ce4bhah2rcd13ifvqei0","pricing_plan_id":"free"},{"bike_id":"31f12269-79e5-4833-aed7-f7b53d63e4d0","system_id":"levelo_inurba_marseille","lat":43.284534,"lon":5.358662,"is_reserved":false,"is_disabled":false,"rental_uris":{"android":"levelo://app?vid=31f12269-79e5-4833-aed7-f7b53d63e4d0","ios":"levelo://app?vid=31f12269-79e5-4833-aed7-f7b53d63e4d0"},"vehicle_type_id":"4","last_reported":1701411010,"current_range_meters":29200,"station_id":"ce4bhah2rcd13ifvqei0","pricing_plan_id":"free"},{"bike_id":"3ed4ebb1-2e97-449b-8da9-9f0785af9529","system_id":"levelo_inurba_marseille","lat":43.285856,"lon":5.350771,"is_reserved":false,"is_disabled":false,"rental_uris":{"android":"levelo://app?vid=3ed4ebb1-2e97-449b-8da9-9f0785af9529","ios":"levelo://app?vid=3ed4ebb1-2e97-449b-8da9-9f0785af9529"},"vehicle_type_id":"4","last_reported":1701411010,"current_range_meters":31200,"station_id":"ce4bhch2rcd13ifvqeug","pricing_plan_id":"free"},{"bike_id":"e84f8ee3-be42-421f-a02e-2baaf8c1b070","system_id":"levelo_inurba_marseille","lat":43.295728,"lon":5.399685,"is_reserved":false,"is_disabled":false,"rental_uris":{"android":"levelo://app?vid=e84f8ee3-be42-421f-a02e-2baaf8c1b070","ios":"levelo://app?vid=e84f8ee3-be42-421f-a02e-2baaf8c1b070"},"vehicle_type_id":"4","last_reported":1701411010,"current_range_meters":24400,"station_id":"ce4bh312rcd13ifvqdj0","pricing_plan_id":"free"},{"bike_id":"c646540c-041f-40a2-ac70-d0fce0d4ecd7","system_id":"levelo_inurba_marseille","lat":43.286595,"lon":5.386795,"is_reserved":false,"is_disabled":false,"rental_uris":{"android":"levelo://app?vid=c646540c-041f-40a2-ac70-d0fce0d4ecd7","ios":"levelo://app?vid=c646540c-041f-40a2-ac70-d0fce0d4ecd7"},"vehicle_type_id":"4","last_reported":1701411010,"current_range_meters":26000,"station_id":"ce4bh492rcd13ifvqdug","pricing_plan_id":"free"},{"bike_id":"bc327c8c-e79f-4e9a-953c-47258ac86bb9","system_id":"levelo_inurba_marseille","lat":43.319179,"lon":5.407725,"is_reserved":false,"is_disabled":false,"rental_uris":{"android":"levelo://app?vid=bc327c8c-e79f-4e9a-953c-47258ac86bb9","ios":"levelo://app?vid=bc327c8c-e79f-4e9a-953c-47258ac86bb9"},"vehicle_type_id":"4","last_reported":1701411010,"current_range_meters":10400,"station_id":"ce4bhq12rcd13ifvqhig","pricing_plan_id":"free"},{"bike_id":"d147e0d7-0e39-41c3-9168-806b6269bef3","system_id":"levelo_inurba_marseille","lat":43.319179,"lon":5.407725,"is_reserved":false,"is_disabled":false,"rental_uris":{"android":"levelo://app?vid=d147e0d7-0e39-41c3-9168-806b6269bef3","ios":"levelo://app?vid=d147e0d7-0e39-41c3-9168-806b6269bef3"},"vehicle_type_id":"4","last_reported":1701411010,"current_range_meters":31200,"station_id":"ce4bhq12rcd13ifvqhig","pricing_plan_id":"free"},{"bike_id":"3cbe5523-c0af-4c78-806d-878dad7cb03c","system_id":"levelo_inurba_marseille","lat":43.323464,"lon":5.406297,"is_reserved":false,"is_disabled":false,"rental_uris":{"android":"levelo://app?vid=3cbe5523-c0af-4c78-806d-878dad7cb03c","ios":"levelo://app?vid=3cbe5523-c0af-4c78-806d-878dad7cb03c"},"vehicle_type_id":"4","last_reported":1701411010,"current_range_meters":24000,"station_id":"ce4bhq92rcd13ifvqhjg","pricing_plan_id":"free"},{"bike_id":"430fab3b-85ff-459e-b705-171d153ad923","system_id":"levelo_inurba_marseille","lat":43.323464,"lon":5.406297,"is_reserved":false,"is_disabled":false,"rental_uris":{"android":"levelo://app?vid=430fab3b-85ff-459e-b705-171d153ad923","ios":"levelo://app?vid=430fab3b-85ff-459e-b705-171d153ad923"},"vehicle_type_id":"4","last_reported":1701411010,"current_range_meters":31200,"station_id":"ce4bhq92rcd13ifvqhjg","pricing_plan_id":"free"},{"bike_id":"f7c82c0d-6ce1-44ff-b58a-a6c1d47c8817","system_id":"levelo_inurba_marseille","lat":43.284793,"lon":5.384113,"is_reserved":false,"is_disabled":false,"rental_uris":{"android":"levelo://app?vid=f7c82c0d-6ce1-44ff-b58a-a6c1d47c8817","ios":"levelo://app?vid=f7c82c0d-6ce1-44ff-b58a-a6c1d47c8817"},"vehicle_type_id":"4","last_reported":1701411010,"current_range_meters":29600,"station_id":"ce4bh512rcd13ifvqe3g","pricing_plan_id":"free"},{"bike_id":"c8c708b3-bf0e-48eb-84d3-288e9475d378","system_id":"levelo_inurba_marseille","lat":43.284793,"lon":5.384113,"is_reserved":false,"is_disabled":false,"rental_uris":{"android":"levelo://app?vid=c8c708b3-bf0e-48eb-84d3-288e9475d378","ios":"levelo://app?vid=c8c708b3-bf0e-48eb-84d3-288e9475d378"},"vehicle_type_id":"4","last_reported":1701411010,"current_range_meters":12400,"station_id":"ce4bh512rcd13ifvqe3g","pricing_plan_id":"free"},{"bike_id":"9a3bf365-b977-488e-a686-d360eba6ce10","system_id":"levelo_inurba_marseille","lat":43.284793,"lon":5.384113,"is_reserved":false,"is_disabled":false,"rental_uris":{"android":"levelo://app?vid=9a3bf365-b977-488e-a686-d360eba6ce10","ios":"levelo://app?vid=9a3bf365-b977-488e-a686-d360eba6ce10"},"vehicle_type_id":"4","last_reported":1701411010,"current_range_meters":24000,"station_id":"ce4bh512rcd13ifvqe3g","pricing_plan_id":"free"},{"bike_id":"64b78adc-5fcc-425e-910f-c20a265006b0","system_id":"levelo_inurba_marseille","lat":43.284793,"lon":5.384113,"is_reserved":false,"is_disabled":false,"rental_uris":{"android":"levelo://app?vid=64b78adc-5fcc-425e-910f-c20a265006b0","ios":"levelo://app?vid=64b78adc-5fcc-425e-910f-c20a265006b0"},"vehicle_type_id":"4","last_reported":1701411010,"current_range_meters":24800,"station_id":"ce4bh512rcd13ifvqe3g","pricing_plan_id":"free"},{"bike_id":"1ae1b4b0-5954-4694-8015-4a285fe6e258","system_id":"levelo_inurba_marseille","lat":43.284793,"lon":5.384119,"is_reserved":false,"is_disabled":false,"rental_uris":{"android":"levelo://app?vid=1ae1b4b0-5954-4694-8015-4a285fe6e258","ios":"levelo://app?vid=1ae1b4b0-5954-4694-8015-4a285fe6e258"},"vehicle_type_id":"4","last_reported":1701411010,"current_range_meters":9200,"station_id":"ce4bh512rcd13ifvqe3g","pricing_plan_id":"free"},{"bike_id":"2a280c7d-3587-4a15-a5a1-d37177f1899c","system_id":"levelo_inurba_marseille","lat":43.284787,"lon":5.384116,"is_reserved":false,"is_disabled":false,"rental_uris":{"android":"levelo://app?vid=2a280c7d-3587-4a15-a5a1-d37177f1899c","ios":"levelo://app?vid=2a280c7d-3587-4a15-a5a1-d37177f1899c"},"vehicle_type_id":"4","last_reported":1701411010,"current_range_meters":30800,"station_id":"ce4bh512rcd13ifvqe3g","pricing_plan_id":"free"},{"bike_id":"05ebd347-a52a-422c-85b0-16f14b635f3b","system_id":"levelo_inurba_marseille","lat":43.284787,"lon":5.384116,"is_reserved":false,"is_disabled":false,"rental_uris":{"android":"levelo://app?vid=05ebd347-a52a-422c-85b0-16f14b635f3b","ios":"levelo://app?vid=05ebd347-a52a-422c-85b0-16f14b635f3b"},"vehicle_type_id":"4","last_reported":1701411010,"current_range_meters":15200,"station_id":"ce4bh512rcd13ifvqe3g","pricing_plan_id":"free"},{"bike_id":"1933af5d-0268-487e-a8d4-ed432e3f7528","system_id":"levelo_inurba_marseille","lat":43.297946,"lon":5.404063,"is_reserved":false,"is_disabled":false,"rental_uris":{"android":"levelo://app?vid=1933af5d-0268-487e-a8d4-ed432e3f7528","ios":"levelo://app?vid=1933af5d-0268-487e-a8d4-ed432e3f7528"},"vehicle_type_id":"4","last_reported":1701411010,"current_range_meters":29200,"station_id":"ce4bh112rcd13ifvqd90","pricing_plan_id":"free"},{"bike_id":"b863ceed-6c5a-4321-a01e-8c21d78494de","system_id":"levelo_inurba_marseille","lat":43.284793,"lon":5.384119,"is_reserved":false,"is_disabled":false,"rental_uris":{"android":"levelo://app?vid=b863ceed-6c5a-4321-a01e-8c21d78494de","ios":"levelo://app?vid=b863ceed-6c5a-4321-a01e-8c21d78494de"},"vehicle_type_id":"4","last_reported":1701411010,"current_range_meters":24800,"station_id":"ce4bh512rcd13ifvqe3g","pricing_plan_id":"free"},{"bike_id":"f82f6bc5-47f1-49eb-bed3-1499985499c2","system_id":"levelo_inurba_marseille","lat":43.28937,"lon":5.39631,"is_reserved":false,"is_disabled":false,"rental_uris":{"android":"levelo://app?vid=f82f6bc5-47f1-49eb-bed3-1499985499c2","ios":"levelo://app?vid=f82f6bc5-47f1-49eb-bed3-1499985499c2"},"vehicle_type_id":"4","last_reported":1701411010,"current_range_meters":2800,"station_id":"ce4bh3h2rcd13ifvqdn0","pricing_plan_id":"free"},{"bike_id":"49e83942-7f8a-41f2-934a-a8566b12962c","system_id":"levelo_inurba_marseille","lat":43.290393,"lon":5.39954,"is_reserved":false,"is_disabled":false,"rental_uris":{"android":"levelo://app?vid=49e83942-7f8a-41f2-934a-a8566b12962c","ios":"levelo://app?vid=49e83942-7f8a-41f2-934a-a8566b12962c"},"vehicle_type_id":"4","last_reported":1701411010,"current_range_meters":22800,"station_id":"ce4bh392rcd13ifvqdm0","pricing_plan_id":"free"},{"bike_id":"2d65c65c-b8cd-4d4e-ab60-01b6506e4a74","system_id":"levelo_inurba_marseille","lat":43.290334,"lon":5.399638,"is_reserved":false,"is_disabled":false,"rental_uris":{"android":"levelo://app?vid=2d65c65c-b8cd-4d4e-ab60-01b6506e4a74","ios":"levelo://app?vid=2d65c65c-b8cd-4d4e-ab60-01b6506e4a74"},"vehicle_type_id":"4","last_reported":1701411010,"current_range_meters":20400,"station_id":"ce4bh392rcd13ifvqdm0","pricing_plan_id":"free"},{"bike_id":"58905537-dff7-45d6-87d7-9b08bfc65ab7","system_id":"levelo_inurba_marseille","lat":43.29033,"lon":5.399675,"is_reserved":false,"is_disabled":false,"rental_uris":{"android":"levelo://app?vid=58905537-dff7-45d6-87d7-9b08bfc65ab7","ios":"levelo://app?vid=58905537-dff7-45d6-87d7-9b08bfc65ab7"},"vehicle_type_id":"4","last_reported":1701411010,"current_range_meters":16400,"station_id":"ce4bh392rcd13ifvqdm0","pricing_plan_id":"free"},{"bike_id":"06c21c18-6074-4d81-9587-4bf8b5bd24cf","system_id":"levelo_inurba_marseille","lat":43.296263,"lon":5.40601,"is_reserved":false,"is_disabled":false,"rental_uris":{"android":"levelo://app?vid=06c21c18-6074-4d81-9587-4bf8b5bd24cf","ios":"levelo://app?vid=06c21c18-6074-4d81-9587-4bf8b5bd24cf"},"vehicle_type_id":"4","last_reported":1701411010,"current_range_meters":28000,"station_id":"ce4bh0h2rcd13ifvqd60","pricing_plan_id":"free"},{"bike_id":"c1c2a268-3dc7-4c9a-904a-9e17122585b3","system_id":"levelo_inurba_marseille","lat":43.29026,"lon":5.39984,"is_reserved":false,"is_disabled":false,"rental_uris":{"android":"levelo://app?vid=c1c2a268-3dc7-4c9a-904a-9e17122585b3","ios":"levelo://app?vid=c1c2a268-3dc7-4c9a-904a-9e17122585b3"},"vehicle_type_id":"4","last_reported":1701411010,"current_range_meters":27600,"station_id":"ce4bh392rcd13ifvqdm0","pricing_plan_id":"free"},{"bike_id":"edccd163-f6e1-4e7d-bc68-768d7ebe881c","system_id":"levelo_inurba_marseille","lat":43.326605,"lon":5.409903,"is_reserved":false,"is_disabled":false,"rental_uris":{"android":"levelo://app?vid=edccd163-f6e1-4e7d-bc68-768d7ebe881c","ios":"levelo://app?vid=edccd163-f6e1-4e7d-bc68-768d7ebe881c"},"vehicle_type_id":"4","last_reported":1701411010,"current_range_meters":27200,"station_id":"ce4bhpp2rcd13ifvqhgg","pricing_plan_id":"free"},{"bike_id":"5037ecd6-6342-4ecc-a263-012bbff32aee","system_id":"levelo_inurba_marseille","lat":43.326605,"lon":5.409903,"is_reserved":false,"is_disabled":false,"rental_uris":{"android":"levelo://app?vid=5037ecd6-6342-4ecc-a263-012bbff32aee","ios":"levelo://app?vid=5037ecd6-6342-4ecc-a263-012bbff32aee"},"vehicle_type_id":"4","last_reported":1701411010,"current_range_meters":7600,"station_id":"ce4bhpp2rcd13ifvqhgg","pricing_plan_id":"free"},{"bike_id":"0933293b-7d31-4268-8ec7-1f2188b3567c","system_id":"levelo_inurba_marseille","lat":43.320045,"lon":5.415046,"is_reserved":false,"is_disabled":false,"rental_uris":{"android":"levelo://app?vid=0933293b-7d31-4268-8ec7-1f2188b3567c","ios":"levelo://app?vid=0933293b-7d31-4268-8ec7-1f2188b3567c"},"vehicle_type_id":"4","last_reported":1701411010,"current_range_meters":22400,"station_id":"ce4bhq92rcd13ifvqhkg","pricing_plan_id":"free"},{"bike_id":"0e0f2802-da45-4361-9bfa-b70da2f13cbe","system_id":"levelo_inurba_marseille","lat":43.27967,"lon":5.38754,"is_reserved":false,"is_disabled":false,"rental_uris":{"android":"levelo://app?vid=0e0f2802-da45-4361-9bfa-b70da2f13cbe","ios":"levelo://app?vid=0e0f2802-da45-4361-9bfa-b70da2f13cbe"},"vehicle_type_id":"4","last_reported":1701411010,"current_range_meters":22800,"station_id":"ce4bhg12rcd13ifvqf80","pricing_plan_id":"free"},{"bike_id":"190cbe63-abb2-4d80-b7c2-1ea1d0700488","system_id":"levelo_inurba_marseille","lat":43.27625,"lon":5.36111,"is_reserved":false,"is_disabled":false,"rental_uris":{"android":"levelo://app?vid=190cbe63-abb2-4d80-b7c2-1ea1d0700488","ios":"levelo://app?vid=190cbe63-abb2-4d80-b7c2-1ea1d0700488"},"vehicle_type_id":"4","last_reported":1701411010,"current_range_meters":30400,"station_id":"ce4bgj92rcd13ifvqbe0","pricing_plan_id":"free"},{"bike_id":"76290dae-f1e9-4270-b5e3-e1e5d6e9bf29","system_id":"levelo_inurba_marseille","lat":43.27618,"lon":5.361009,"is_reserved":false,"is_disabled":false,"rental_uris":{"android":"levelo://app?vid=76290dae-f1e9-4270-b5e3-e1e5d6e9bf29","ios":"levelo://app?vid=76290dae-f1e9-4270-b5e3-e1e5d6e9bf29"},"vehicle_type_id":"4","last_reported":1701411010,"current_range_meters":25200,"station_id":"ce4bgj92rcd13ifvqbe0","pricing_plan_id":"free"},{"bike_id":"378c3e67-0c7b-45f5-b855-8e0b1409d9e2","system_id":"levelo_inurba_marseille","lat":43.303837,"lon":5.418724,"is_reserved":false,"is_disabled":false,"rental_uris":{"android":"levelo://app?vid=378c3e67-0c7b-45f5-b855-8e0b1409d9e2","ios":"levelo://app?vid=378c3e67-0c7b-45f5-b855-8e0b1409d9e2"},"vehicle_type_id":"4","last_reported":1701411010,"current_range_meters":26000,"station_id":"ce4bhop2rcd13ifvqh7g","pricing_plan_id":"free"},{"bike_id":"1775d204-0b18-4b2d-944b-2626ade3e634","system_id":"levelo_inurba_marseille","lat":43.303837,"lon":5.418724,"is_reserved":false,"is_disabled":false,"rental_uris":{"android":"levelo://app?vid=1775d204-0b18-4b2d-944b-2626ade3e634","ios":"levelo://app?vid=1775d204-0b18-4b2d-944b-2626ade3e634"},"vehicle_type_id":"4","last_reported":1701411010,"current_range_meters":31200,"station_id":"ce4bhop2rcd13ifvqh7g","pricing_plan_id":"free"},{"bike_id":"9057f908-2dd8-453f-8b7d-5e9dc0f31144","system_id":"levelo_inurba_marseille","lat":43.303837,"lon":5.418724,"is_reserved":false,"is_disabled":false,"rental_uris":{"android":"levelo://app?vid=9057f908-2dd8-453f-8b7d-5e9dc0f31144","ios":"levelo://app?vid=9057f908-2dd8-453f-8b7d-5e9dc0f31144"},"vehicle_type_id":"4","last_reported":1701411010,"current_range_meters":800,"station_id":"ce4bhop2rcd13ifvqh7g","pricing_plan_id":"free"},{"bike_id":"a0ba15a3-d12e-4ea4-b1d7-15f758773042","system_id":"levelo_inurba_marseille","lat":43.27386,"lon":5.36259,"is_reserved":false,"is_disabled":false,"rental_uris":{"android":"levelo://app?vid=a0ba15a3-d12e-4ea4-b1d7-15f758773042","ios":"levelo://app?vid=a0ba15a3-d12e-4ea4-b1d7-15f758773042"},"vehicle_type_id":"4","last_reported":1701411010,"current_range_meters":20800,"station_id":"ce4bhbh2rcd13ifvqeo0","pricing_plan_id":"free"},{"bike_id":"7b26d28a-a47b-441f-9842-2f1c513858ea","system_id":"levelo_inurba_marseille","lat":43.278399,"lon":5.392139,"is_reserved":false,"is_disabled":false,"rental_uris":{"android":"levelo://app?vid=7b26d28a-a47b-441f-9842-2f1c513858ea","ios":"levelo://app?vid=7b26d28a-a47b-441f-9842-2f1c513858ea"},"vehicle_type_id":"4","last_reported":1701411010,"current_range_meters":26800,"station_id":"ce4bhjp2rcd13ifvqga0","pricing_plan_id":"free"},{"bike_id":"b80e3d5e-a914-444c-ac0a-14ac4bf2f294","system_id":"levelo_inurba_marseille","lat":43.33612,"lon":5.410321,"is_reserved":false,"is_disabled":false,"rental_uris":{"android":"levelo://app?vid=b80e3d5e-a914-444c-ac0a-14ac4bf2f294","ios":"levelo://app?vid=b80e3d5e-a914-444c-ac0a-14ac4bf2f294"},"vehicle_type_id":"4","last_reported":1701411010,"current_range_meters":28000,"station_id":"ce4bhqh2rcd13ifvqhmg","pricing_plan_id":"free"},{"bike_id":"4105c0c2-28ef-4989-8112-480de19fb62f","system_id":"levelo_inurba_marseille","lat":43.33613,"lon":5.41013,"is_reserved":false,"is_disabled":false,"rental_uris":{"android":"levelo://app?vid=4105c0c2-28ef-4989-8112-480de19fb62f","ios":"levelo://app?vid=4105c0c2-28ef-4989-8112-480de19fb62f"},"vehicle_type_id":"4","last_reported":1701411010,"current_range_meters":800,"station_id":"ce4bhqh2rcd13ifvqhmg","pricing_plan_id":"free"},{"bike_id":"9be4d6d8-8ac2-423a-a8c4-fe0f5230e53f","system_id":"levelo_inurba_marseille","lat":43.336134,"lon":5.410341,"is_reserved":false,"is_disabled":false,"rental_uris":{"android":"levelo://app?vid=9be4d6d8-8ac2-423a-a8c4-fe0f5230e53f","ios":"levelo://app?vid=9be4d6d8-8ac2-423a-a8c4-fe0f5230e53f"},"vehicle_type_id":"4","last_reported":1701411010,"current_range_meters":28800,"station_id":"ce4bhqh2rcd13ifvqhmg","pricing_plan_id":"free"},{"bike_id":"c3ad9334-67b6-4f78-9fa9-74d08c42907d","system_id":"levelo_inurba_marseille","lat":43.279952,"lon":5.400085,"is_reserved":false,"is_disabled":false,"rental_uris":{"android":"levelo://app?vid=c3ad9334-67b6-4f78-9fa9-74d08c42907d","ios":"levelo://app?vid=c3ad9334-67b6-4f78-9fa9-74d08c42907d"},"vehicle_type_id":"4","last_reported":1701411010,"current_range_meters":27200,"station_id":"ce4bho92rcd13ifvqh4g","pricing_plan_id":"free"},{"bike_id":"02556975-2483-416a-9464-f9d313b5b7c1","system_id":"levelo_inurba_marseille","lat":43.27992,"lon":5.40019,"is_reserved":false,"is_disabled":false,"rental_uris":{"android":"levelo://app?vid=02556975-2483-416a-9464-f9d313b5b7c1","ios":"levelo://app?vid=02556975-2483-416a-9464-f9d313b5b7c1"},"vehicle_type_id":"4","last_reported":1701411010,"current_range_meters":31200,"station_id":"ce4bho92rcd13ifvqh4g","pricing_plan_id":"free"},{"bike_id":"2f711f01-b9ab-4fa4-b7ee-42fd5a353234","system_id":"levelo_inurba_marseille","lat":43.310785,"lon":5.424305,"is_reserved":false,"is_disabled":false,"rental_uris":{"android":"levelo://app?vid=2f711f01-b9ab-4fa4-b7ee-42fd5a353234","ios":"levelo://app?vid=2f711f01-b9ab-4fa4-b7ee-42fd5a353234"},"vehicle_type_id":"4","last_reported":1701411010,"current_range_meters":30000,"station_id":"ce4bhp92rcd13ifvqhag","pricing_plan_id":"free"},{"bike_id":"d6cd08ef-c934-44a0-a330-510b886d15f8","system_id":"levelo_inurba_marseille","lat":43.310785,"lon":5.424305,"is_reserved":false,"is_disabled":false,"rental_uris":{"android":"levelo://app?vid=d6cd08ef-c934-44a0-a330-510b886d15f8","ios":"levelo://app?vid=d6cd08ef-c934-44a0-a330-510b886d15f8"},"vehicle_type_id":"4","last_reported":1701411010,"current_range_meters":30800,"station_id":"ce4bhp92rcd13ifvqhag","pricing_plan_id":"free"},{"bike_id":"d4026725-dd25-4c54-b587-ef51a846128e","system_id":"levelo_inurba_marseille","lat":43.340804,"lon":5.410219,"is_reserved":false,"is_disabled":false,"rental_uris":{"android":"levelo://app?vid=d4026725-dd25-4c54-b587-ef51a846128e","ios":"levelo://app?vid=d4026725-dd25-4c54-b587-ef51a846128e"},"vehicle_type_id":"4","last_reported":1701411010,"current_range_meters":29600,"station_id":"ce4bhqh2rcd13ifvqhlg","pricing_plan_id":"free"},{"bike_id":"1ef094fa-24c6-4235-9373-709b578b0279","system_id":"levelo_inurba_marseille","lat":43.274103,"lon":5.394016,"is_reserved":false,"is_disabled":false,"rental_uris":{"android":"levelo://app?vid=1ef094fa-24c6-4235-9373-709b578b0279","ios":"levelo://app?vid=1ef094fa-24c6-4235-9373-709b578b0279"},"vehicle_type_id":"4","last_reported":1701411010,"current_range_meters":28800,"station_id":"ce4bhdp2rcd13ifvqf20","pricing_plan_id":"free"},{"bike_id":"f6d38aff-a5fe-4ea8-b323-a05c3a6bb4a7","system_id":"levelo_inurba_marseille","lat":43.295511,"lon":5.422926,"is_reserved":false,"is_disabled":false,"rental_uris":{"android":"levelo://app?vid=f6d38aff-a5fe-4ea8-b323-a05c3a6bb4a7","ios":"levelo://app?vid=f6d38aff-a5fe-4ea8-b323-a05c3a6bb4a7"},"vehicle_type_id":"4","last_reported":1701411010,"current_range_meters":30400,"station_id":"ce4bhph2rcd13ifvqhdg","pricing_plan_id":"free"},{"bike_id":"98f2d782-a53e-4e6f-a16c-f4d060256811","system_id":"levelo_inurba_marseille","lat":43.272118,"lon":5.391758,"is_reserved":false,"is_disabled":false,"rental_uris":{"android":"levelo://app?vid=98f2d782-a53e-4e6f-a16c-f4d060256811","ios":"levelo://app?vid=98f2d782-a53e-4e6f-a16c-f4d060256811"},"vehicle_type_id":"4","last_reported":1701411010,"current_range_meters":22000,"station_id":"ce4bhhp2rcd13ifvqfm0","pricing_plan_id":"free"},{"bike_id":"e908fd6d-45f5-4a8e-a78c-5bf4517f9fba","system_id":"levelo_inurba_marseille","lat":43.272118,"lon":5.391758,"is_reserved":false,"is_disabled":false,"rental_uris":{"android":"levelo://app?vid=e908fd6d-45f5-4a8e-a78c-5bf4517f9fba","ios":"levelo://app?vid=e908fd6d-45f5-4a8e-a78c-5bf4517f9fba"},"vehicle_type_id":"4","last_reported":1701411010,"current_range_meters":25200,"station_id":"ce4bhhp2rcd13ifvqfm0","pricing_plan_id":"free"},{"bike_id":"5e72f12b-0f74-4106-9b4d-1f1bfd4ed761","system_id":"levelo_inurba_marseille","lat":43.278128,"lon":5.407195,"is_reserved":false,"is_disabled":false,"rental_uris":{"android":"levelo://app?vid=5e72f12b-0f74-4106-9b4d-1f1bfd4ed761","ios":"levelo://app?vid=5e72f12b-0f74-4106-9b4d-1f1bfd4ed761"},"vehicle_type_id":"4","last_reported":1701411010,"current_range_meters":25200,"station_id":"ce4bhnh2rcd13ifvqgtg","pricing_plan_id":"free"},{"bike_id":"3aea9a3a-ca44-4b46-82e5-362152f3e8fc","system_id":"levelo_inurba_marseille","lat":43.27812,"lon":5.40719,"is_reserved":false,"is_disabled":false,"rental_uris":{"android":"levelo://app?vid=3aea9a3a-ca44-4b46-82e5-362152f3e8fc","ios":"levelo://app?vid=3aea9a3a-ca44-4b46-82e5-362152f3e8fc"},"vehicle_type_id":"4","last_reported":1701411010,"current_range_meters":5200,"station_id":"ce4bhnh2rcd13ifvqgtg","pricing_plan_id":"free"},{"bike_id":"3774850d-e557-4a1f-a40d-3bff215eb7db","system_id":"levelo_inurba_marseille","lat":43.269319,"lon":5.389397,"is_reserved":false,"is_disabled":false,"rental_uris":{"android":"levelo://app?vid=3774850d-e557-4a1f-a40d-3bff215eb7db","ios":"levelo://app?vid=3774850d-e557-4a1f-a40d-3bff215eb7db"},"vehicle_type_id":"4","last_reported":1701411010,"current_range_meters":30000,"station_id":"ce4bhhh2rcd13ifvqfl0","pricing_plan_id":"free"},{"bike_id":"c504edef-e763-4f59-aae9-9fce19d0367f","system_id":"levelo_inurba_marseille","lat":43.269319,"lon":5.389397,"is_reserved":false,"is_disabled":false,"rental_uris":{"android":"levelo://app?vid=c504edef-e763-4f59-aae9-9fce19d0367f","ios":"levelo://app?vid=c504edef-e763-4f59-aae9-9fce19d0367f"},"vehicle_type_id":"4","last_reported":1701411010,"current_range_meters":28800,"station_id":"ce4bhhh2rcd13ifvqfl0","pricing_plan_id":"free"},{"bike_id":"c7f81e7f-054f-4e2f-82ee-e605f4015608","system_id":"levelo_inurba_marseille","lat":43.279948,"lon":5.416598,"is_reserved":false,"is_disabled":false,"rental_uris":{"android":"levelo://app?vid=c7f81e7f-054f-4e2f-82ee-e605f4015608","ios":"levelo://app?vid=c7f81e7f-054f-4e2f-82ee-e605f4015608"},"vehicle_type_id":"4","last_reported":1701411010,"current_range_meters":15600,"station_id":"ce4bho12rcd13ifvqh1g","pricing_plan_id":"free"},{"bike_id":"3a9e3de9-989d-49ef-baaf-f60698970372","system_id":"levelo_inurba_marseille","lat":43.27992,"lon":5.41657,"is_reserved":false,"is_disabled":false,"rental_uris":{"android":"levelo://app?vid=3a9e3de9-989d-49ef-baaf-f60698970372","ios":"levelo://app?vid=3a9e3de9-989d-49ef-baaf-f60698970372"},"vehicle_type_id":"4","last_reported":1701411010,"current_range_meters":16400,"station_id":"ce4bho12rcd13ifvqh1g","pricing_plan_id":"free"},{"bike_id":"2a595ed3-532e-459c-93d4-255be74e8c44","system_id":"levelo_inurba_marseille","lat":43.27996,"lon":5.416624,"is_reserved":false,"is_disabled":false,"rental_uris":{"android":"levelo://app?vid=2a595ed3-532e-459c-93d4-255be74e8c44","ios":"levelo://app?vid=2a595ed3-532e-459c-93d4-255be74e8c44"},"vehicle_type_id":"4","last_reported":1701411010,"current_range_meters":13200,"station_id":"ce4bho12rcd13ifvqh1g","pricing_plan_id":"free"},{"bike_id":"14f8f730-2410-4ff3-b8e9-463bf298232a","system_id":"levelo_inurba_marseille","lat":43.27996,"lon":5.416624,"is_reserved":false,"is_disabled":false,"rental_uris":{"android":"levelo://app?vid=14f8f730-2410-4ff3-b8e9-463bf298232a","ios":"levelo://app?vid=14f8f730-2410-4ff3-b8e9-463bf298232a"},"vehicle_type_id":"4","last_reported":1701411010,"current_range_meters":26800,"station_id":"ce4bho12rcd13ifvqh1g","pricing_plan_id":"free"},{"bike_id":"11d579cd-d95c-4f27-b1d9-b6ec1b617449","system_id":"levelo_inurba_marseille","lat":43.27989,"lon":5.416563,"is_reserved":false,"is_disabled":false,"rental_uris":{"android":"levelo://app?vid=11d579cd-d95c-4f27-b1d9-b6ec1b617449","ios":"levelo://app?vid=11d579cd-d95c-4f27-b1d9-b6ec1b617449"},"vehicle_type_id":"4","last_reported":1701411010,"current_range_meters":20000,"station_id":"ce4bho12rcd13ifvqh1g","pricing_plan_id":"free"},{"bike_id":"26e56408-5dcd-4ce1-968e-328e6ad02f59","system_id":"levelo_inurba_marseille","lat":43.27993,"lon":5.41662,"is_reserved":false,"is_disabled":false,"rental_uris":{"android":"levelo://app?vid=26e56408-5dcd-4ce1-968e-328e6ad02f59","ios":"levelo://app?vid=26e56408-5dcd-4ce1-968e-328e6ad02f59"},"vehicle_type_id":"4","last_reported":1701411010,"current_range_meters":15200,"station_id":"ce4bho12rcd13ifvqh1g","pricing_plan_id":"free"},{"bike_id":"9aa6a01b-7a87-4263-87de-1b8d44f3a155","system_id":"levelo_inurba_marseille","lat":43.279891,"lon":5.416588,"is_reserved":false,"is_disabled":false,"rental_uris":{"android":"levelo://app?vid=9aa6a01b-7a87-4263-87de-1b8d44f3a155","ios":"levelo://app?vid=9aa6a01b-7a87-4263-87de-1b8d44f3a155"},"vehicle_type_id":"4","last_reported":1701411010,"current_range_meters":22000,"station_id":"ce4bho12rcd13ifvqh1g","pricing_plan_id":"free"},{"bike_id":"15f9d067-797e-4c09-86bb-e3859d8b3fd3","system_id":"levelo_inurba_marseille","lat":43.27996,"lon":5.416624,"is_reserved":false,"is_disabled":false,"rental_uris":{"android":"levelo://app?vid=15f9d067-797e-4c09-86bb-e3859d8b3fd3","ios":"levelo://app?vid=15f9d067-797e-4c09-86bb-e3859d8b3fd3"},"vehicle_type_id":"4","last_reported":1701411010,"current_range_meters":24000,"station_id":"ce4bho12rcd13ifvqh1g","pricing_plan_id":"free"},{"bike_id":"22ee340c-bd9a-40e4-b269-c11f5d5d2216","system_id":"levelo_inurba_marseille","lat":43.27996,"lon":5.416624,"is_reserved":false,"is_disabled":false,"rental_uris":{"android":"levelo://app?vid=22ee340c-bd9a-40e4-b269-c11f5d5d2216","ios":"levelo://app?vid=22ee340c-bd9a-40e4-b269-c11f5d5d2216"},"vehicle_type_id":"4","last_reported":1701411010,"current_range_meters":31600,"station_id":"ce4bho12rcd13ifvqh1g","pricing_plan_id":"free"},{"bike_id":"2d1bc294-434c-46f8-a45d-611241015a09","system_id":"levelo_inurba_marseille","lat":43.27996,"lon":5.416624,"is_reserved":false,"is_disabled":false,"rental_uris":{"android":"levelo://app?vid=2d1bc294-434c-46f8-a45d-611241015a09","ios":"levelo://app?vid=2d1bc294-434c-46f8-a45d-611241015a09"},"vehicle_type_id":"4","last_reported":1701411010,"current_range_meters":31200,"station_id":"ce4bho12rcd13ifvqh1g","pricing_plan_id":"free"},{"bike_id":"cf0c3df9-4e41-4907-b5be-38fa5b6d9c92","system_id":"levelo_inurba_marseille","lat":43.27996,"lon":5.416624,"is_reserved":false,"is_disabled":false,"rental_uris":{"android":"levelo://app?vid=cf0c3df9-4e41-4907-b5be-38fa5b6d9c92","ios":"levelo://app?vid=cf0c3df9-4e41-4907-b5be-38fa5b6d9c92"},"vehicle_type_id":"4","last_reported":1701411010,"current_range_meters":20400,"station_id":"ce4bho12rcd13ifvqh1g","pricing_plan_id":"free"},{"bike_id":"577a75b4-3dc3-4fd2-8d74-fdb209bce3cf","system_id":"levelo_inurba_marseille","lat":43.2799,"lon":5.41669,"is_reserved":false,"is_disabled":false,"rental_uris":{"android":"levelo://app?vid=577a75b4-3dc3-4fd2-8d74-fdb209bce3cf","ios":"levelo://app?vid=577a75b4-3dc3-4fd2-8d74-fdb209bce3cf"},"vehicle_type_id":"4","last_reported":1701411010,"current_range_meters":17600,"station_id":"ce4bho12rcd13ifvqh1g","pricing_plan_id":"free"},{"bike_id":"3c770fa2-dc81-484c-8beb-4b28c5042bdb","system_id":"levelo_inurba_marseille","lat":43.26783,"lon":5.39419,"is_reserved":false,"is_disabled":false,"rental_uris":{"android":"levelo://app?vid=3c770fa2-dc81-484c-8beb-4b28c5042bdb","ios":"levelo://app?vid=3c770fa2-dc81-484c-8beb-4b28c5042bdb"},"vehicle_type_id":"4","last_reported":1701411010,"current_range_meters":11200,"station_id":"ce4bhh12rcd13ifvqfg0","pricing_plan_id":"free"},{"bike_id":"56b78eb6-6a29-47d1-b0c1-064dfab655c8","system_id":"levelo_inurba_marseille","lat":43.267966,"lon":5.393976,"is_reserved":false,"is_disabled":false,"rental_uris":{"android":"levelo://app?vid=56b78eb6-6a29-47d1-b0c1-064dfab655c8","ios":"levelo://app?vid=56b78eb6-6a29-47d1-b0c1-064dfab655c8"},"vehicle_type_id":"4","last_reported":1701411010,"current_range_meters":30000,"station_id":"ce4bhh12rcd13ifvqfg0","pricing_plan_id":"free"},{"bike_id":"a575b55e-cddf-457d-aa98-d31f78af4746","system_id":"levelo_inurba_marseille","lat":43.26569,"lon":5.39006,"is_reserved":false,"is_disabled":false,"rental_uris":{"android":"levelo://app?vid=a575b55e-cddf-457d-aa98-d31f78af4746","ios":"levelo://app?vid=a575b55e-cddf-457d-aa98-d31f78af4746"},"vehicle_type_id":"4","last_reported":1701411010,"current_range_meters":31200,"station_id":"ce4bhe12rcd13ifvqf30","pricing_plan_id":"free"},{"bike_id":"8e8d349d-09ef-483a-8322-0fd5fbd7b38e","system_id":"levelo_inurba_marseille","lat":43.308051,"lon":5.43527,"is_reserved":false,"is_disabled":false,"rental_uris":{"android":"levelo://app?vid=8e8d349d-09ef-483a-8322-0fd5fbd7b38e","ios":"levelo://app?vid=8e8d349d-09ef-483a-8322-0fd5fbd7b38e"},"vehicle_type_id":"4","last_reported":1701411010,"current_range_meters":28800,"station_id":"ce4bhph2rcd13ifvqheg","pricing_plan_id":"free"},{"bike_id":"f674a954-23af-4a3b-925c-73dd6de8b90d","system_id":"levelo_inurba_marseille","lat":43.265569,"lon":5.390047,"is_reserved":false,"is_disabled":false,"rental_uris":{"android":"levelo://app?vid=f674a954-23af-4a3b-925c-73dd6de8b90d","ios":"levelo://app?vid=f674a954-23af-4a3b-925c-73dd6de8b90d"},"vehicle_type_id":"4","last_reported":1701411010,"current_range_meters":18000,"station_id":"ce4bhe12rcd13ifvqf30","pricing_plan_id":"free"},{"bike_id":"97651392-0be8-4e9f-90c2-919808dab849","system_id":"levelo_inurba_marseille","lat":43.26558,"lon":5.39004,"is_reserved":false,"is_disabled":false,"rental_uris":{"android":"levelo://app?vid=97651392-0be8-4e9f-90c2-919808dab849","ios":"levelo://app?vid=97651392-0be8-4e9f-90c2-919808dab849"},"vehicle_type_id":"4","last_reported":1701411010,"current_range_meters":30400,"station_id":"ce4bhe12rcd13ifvqf30","pricing_plan_id":"free"},{"bike_id":"5f39605a-cec7-4981-b3c6-283808937125","system_id":"levelo_inurba_marseille","lat":43.269447,"lon":5.40251,"is_reserved":false,"is_disabled":false,"rental_uris":{"android":"levelo://app?vid=5f39605a-cec7-4981-b3c6-283808937125","ios":"levelo://app?vid=5f39605a-cec7-4981-b3c6-283808937125"},"vehicle_type_id":"4","last_reported":1701411010,"current_range_meters":28800,"station_id":"cjm6bp8fraef2m0cb0m0","pricing_plan_id":"free"},{"bike_id":"41ba5062-c21c-4427-88da-4e4857cd5b09","system_id":"levelo_inurba_marseille","lat":43.269451,"lon":5.402587,"is_reserved":false,"is_disabled":false,"rental_uris":{"android":"levelo://app?vid=41ba5062-c21c-4427-88da-4e4857cd5b09","ios":"levelo://app?vid=41ba5062-c21c-4427-88da-4e4857cd5b09"},"vehicle_type_id":"4","last_reported":1701411010,"current_range_meters":23200,"station_id":"cjm6bp8fraef2m0cb0m0","pricing_plan_id":"free"},{"bike_id":"7fe6820a-06e6-42d8-9e38-8e0428267591","system_id":"levelo_inurba_marseille","lat":43.317104,"lon":5.436818,"is_reserved":false,"is_disabled":false,"rental_uris":{"android":"levelo://app?vid=7fe6820a-06e6-42d8-9e38-8e0428267591","ios":"levelo://app?vid=7fe6820a-06e6-42d8-9e38-8e0428267591"},"vehicle_type_id":"4","last_reported":1701411010,"current_range_meters":28400,"station_id":"ce4bhp92rcd13ifvqhcg","pricing_plan_id":"free"},{"bike_id":"44d51874-045e-4906-a2f9-909193d67e63","system_id":"levelo_inurba_marseille","lat":43.317104,"lon":5.436818,"is_reserved":false,"is_disabled":false,"rental_uris":{"android":"levelo://app?vid=44d51874-045e-4906-a2f9-909193d67e63","ios":"levelo://app?vid=44d51874-045e-4906-a2f9-909193d67e63"},"vehicle_type_id":"4","last_reported":1701411010,"current_range_meters":27600,"station_id":"ce4bhp92rcd13ifvqhcg","pricing_plan_id":"free"},{"bike_id":"6d50931a-5553-495d-be31-bbcf7bdad9de","system_id":"levelo_inurba_marseille","lat":43.317104,"lon":5.436818,"is_reserved":false,"is_disabled":false,"rental_uris":{"android":"levelo://app?vid=6d50931a-5553-495d-be31-bbcf7bdad9de","ios":"levelo://app?vid=6d50931a-5553-495d-be31-bbcf7bdad9de"},"vehicle_type_id":"4","last_reported":1701411010,"current_range_meters":31200,"station_id":"ce4bhp92rcd13ifvqhcg","pricing_plan_id":"free"},{"bike_id":"6bf337bd-9c84-4e3a-bc27-176fdeb3212f","system_id":"levelo_inurba_marseille","lat":43.271388,"lon":5.409269,"is_reserved":false,"is_disabled":false,"rental_uris":{"android":"levelo://app?vid=6bf337bd-9c84-4e3a-bc27-176fdeb3212f","ios":"levelo://app?vid=6bf337bd-9c84-4e3a-bc27-176fdeb3212f"},"vehicle_type_id":"4","last_reported":1701411010,"current_range_meters":30400,"station_id":"ce4bhl12rcd13ifvqgf0","pricing_plan_id":"free"},{"bike_id":"e537fa83-9b67-4cbf-9eeb-5080f4aab4e6","system_id":"levelo_inurba_marseille","lat":43.271368,"lon":5.40928,"is_reserved":false,"is_disabled":false,"rental_uris":{"android":"levelo://app?vid=e537fa83-9b67-4cbf-9eeb-5080f4aab4e6","ios":"levelo://app?vid=e537fa83-9b67-4cbf-9eeb-5080f4aab4e6"},"vehicle_type_id":"4","last_reported":1701411010,"current_range_meters":24800,"station_id":"ce4bhl12rcd13ifvqgf0","pricing_plan_id":"free"},{"bike_id":"47bea9d8-b138-432f-9ef0-65c63add9fea","system_id":"levelo_inurba_marseille","lat":43.298946,"lon":5.436607,"is_reserved":false,"is_disabled":false,"rental_uris":{"android":"levelo://app?vid=47bea9d8-b138-432f-9ef0-65c63add9fea","ios":"levelo://app?vid=47bea9d8-b138-432f-9ef0-65c63add9fea"},"vehicle_type_id":"4","last_reported":1701411010,"current_range_meters":24000,"station_id":"ce4bhpp2rcd13ifvqhfg","pricing_plan_id":"free"},{"bike_id":"a265f57d-2203-4406-8278-bc194922c399","system_id":"levelo_inurba_marseille","lat":43.28153,"lon":5.42627,"is_reserved":false,"is_disabled":false,"rental_uris":{"android":"levelo://app?vid=a265f57d-2203-4406-8278-bc194922c399","ios":"levelo://app?vid=a265f57d-2203-4406-8278-bc194922c399"},"vehicle_type_id":"4","last_reported":1701411010,"current_range_meters":31200,"station_id":"ce4bhnh2rcd13ifvqgug","pricing_plan_id":"free"},{"bike_id":"3e4fb47e-33e8-4ee2-bfc1-1bd948cfa529","system_id":"levelo_inurba_marseille","lat":43.281548,"lon":5.42643,"is_reserved":false,"is_disabled":false,"rental_uris":{"android":"levelo://app?vid=3e4fb47e-33e8-4ee2-bfc1-1bd948cfa529","ios":"levelo://app?vid=3e4fb47e-33e8-4ee2-bfc1-1bd948cfa529"},"vehicle_type_id":"4","last_reported":1701411010,"current_range_meters":31200,"station_id":"ce4bhnh2rcd13ifvqgug","pricing_plan_id":"free"},{"bike_id":"3f2b1989-5b73-4cd5-aa40-2053eed33222","system_id":"levelo_inurba_marseille","lat":43.281548,"lon":5.42643,"is_reserved":false,"is_disabled":false,"rental_uris":{"android":"levelo://app?vid=3f2b1989-5b73-4cd5-aa40-2053eed33222","ios":"levelo://app?vid=3f2b1989-5b73-4cd5-aa40-2053eed33222"},"vehicle_type_id":"4","last_reported":1701411010,"current_range_meters":31200,"station_id":"ce4bhnh2rcd13ifvqgug","pricing_plan_id":"free"},{"bike_id":"cb609a7b-f9ee-4981-a18f-2f84ebe6425d","system_id":"levelo_inurba_marseille","lat":43.281548,"lon":5.42643,"is_reserved":false,"is_disabled":false,"rental_uris":{"android":"levelo://app?vid=cb609a7b-f9ee-4981-a18f-2f84ebe6425d","ios":"levelo://app?vid=cb609a7b-f9ee-4981-a18f-2f84ebe6425d"},"vehicle_type_id":"4","last_reported":1701411010,"current_range_meters":29600,"station_id":"ce4bhnh2rcd13ifvqgug","pricing_plan_id":"free"},{"bike_id":"08ee9831-e27a-4de6-b434-68bc147048ef","system_id":"levelo_inurba_marseille","lat":43.281548,"lon":5.42643,"is_reserved":false,"is_disabled":false,"rental_uris":{"android":"levelo://app?vid=08ee9831-e27a-4de6-b434-68bc147048ef","ios":"levelo://app?vid=08ee9831-e27a-4de6-b434-68bc147048ef"},"vehicle_type_id":"4","last_reported":1701411010,"current_range_meters":31600,"station_id":"ce4bhnh2rcd13ifvqgug","pricing_plan_id":"free"},{"bike_id":"3532a786-7312-4db1-88be-2e5e8a274941","system_id":"levelo_inurba_marseille","lat":43.281548,"lon":5.42643,"is_reserved":false,"is_disabled":false,"rental_uris":{"android":"levelo://app?vid=3532a786-7312-4db1-88be-2e5e8a274941","ios":"levelo://app?vid=3532a786-7312-4db1-88be-2e5e8a274941"},"vehicle_type_id":"4","last_reported":1701411010,"current_range_meters":26400,"station_id":"ce4bhnh2rcd13ifvqgug","pricing_plan_id":"free"},{"bike_id":"cc814f0d-7353-4dc1-89a7-72e6d0004443","system_id":"levelo_inurba_marseille","lat":43.281548,"lon":5.42643,"is_reserved":false,"is_disabled":false,"rental_uris":{"android":"levelo://app?vid=cc814f0d-7353-4dc1-89a7-72e6d0004443","ios":"levelo://app?vid=cc814f0d-7353-4dc1-89a7-72e6d0004443"},"vehicle_type_id":"4","last_reported":1701411010,"current_range_meters":27600,"station_id":"ce4bhnh2rcd13ifvqgug","pricing_plan_id":"free"},{"bike_id":"c3be5e57-b7df-4b6f-84f6-e0b7439e5774","system_id":"levelo_inurba_marseille","lat":43.27498,"lon":5.42445,"is_reserved":false,"is_disabled":false,"rental_uris":{"android":"levelo://app?vid=c3be5e57-b7df-4b6f-84f6-e0b7439e5774","ios":"levelo://app?vid=c3be5e57-b7df-4b6f-84f6-e0b7439e5774"},"vehicle_type_id":"4","last_reported":1701411010,"current_range_meters":28800,"station_id":"ce4bhn92rcd13ifvqgrg","pricing_plan_id":"free"},{"bike_id":"2439b834-5f68-4270-bc56-f53ff23adca1","system_id":"levelo_inurba_marseille","lat":43.274942,"lon":5.424499,"is_reserved":false,"is_disabled":false,"rental_uris":{"android":"levelo://app?vid=2439b834-5f68-4270-bc56-f53ff23adca1","ios":"levelo://app?vid=2439b834-5f68-4270-bc56-f53ff23adca1"},"vehicle_type_id":"4","last_reported":1701411010,"current_range_meters":18000,"station_id":"ce4bhn92rcd13ifvqgrg","pricing_plan_id":"free"},{"bike_id":"c040221f-815d-42e3-a1af-5b82d48cfeb0","system_id":"levelo_inurba_marseille","lat":43.260907,"lon":5.397626,"is_reserved":false,"is_disabled":false,"rental_uris":{"android":"levelo://app?vid=c040221f-815d-42e3-a1af-5b82d48cfeb0","ios":"levelo://app?vid=c040221f-815d-42e3-a1af-5b82d48cfeb0"},"vehicle_type_id":"4","last_reported":1701411010,"current_range_meters":22400,"station_id":"ce4bhi12rcd13ifvqfq0","pricing_plan_id":"free"},{"bike_id":"f8dc2911-8d05-4d2e-a014-1e8cbe0ea255","system_id":"levelo_inurba_marseille","lat":43.254947,"lon":5.376454,"is_reserved":false,"is_disabled":false,"rental_uris":{"android":"levelo://app?vid=f8dc2911-8d05-4d2e-a014-1e8cbe0ea255","ios":"levelo://app?vid=f8dc2911-8d05-4d2e-a014-1e8cbe0ea255"},"vehicle_type_id":"4","last_reported":1701411010,"current_range_meters":25600,"station_id":"ce4bhh12rcd13ifvqff0","pricing_plan_id":"free"},{"bike_id":"2c794cda-e1ba-4030-acff-649085b058d6","system_id":"levelo_inurba_marseille","lat":43.270721,"lon":5.422764,"is_reserved":false,"is_disabled":false,"rental_uris":{"android":"levelo://app?vid=2c794cda-e1ba-4030-acff-649085b058d6","ios":"levelo://app?vid=2c794cda-e1ba-4030-acff-649085b058d6"},"vehicle_type_id":"4","last_reported":1701411010,"current_range_meters":21600,"station_id":"ce4bhk92rcd13ifvqgb0","pricing_plan_id":"free"},{"bike_id":"c31d6f97-d623-4262-9b94-0580c155f5d1","system_id":"levelo_inurba_marseille","lat":43.2707,"lon":5.42276,"is_reserved":false,"is_disabled":false,"rental_uris":{"android":"levelo://app?vid=c31d6f97-d623-4262-9b94-0580c155f5d1","ios":"levelo://app?vid=c31d6f97-d623-4262-9b94-0580c155f5d1"},"vehicle_type_id":"4","last_reported":1701411010,"current_range_meters":8800,"station_id":"ce4bhk92rcd13ifvqgb0","pricing_plan_id":"free"},{"bike_id":"fac0e422-c37f-421d-8e1b-a25ffb37ce17","system_id":"levelo_inurba_marseille","lat":43.270721,"lon":5.422764,"is_reserved":false,"is_disabled":false,"rental_uris":{"android":"levelo://app?vid=fac0e422-c37f-421d-8e1b-a25ffb37ce17","ios":"levelo://app?vid=fac0e422-c37f-421d-8e1b-a25ffb37ce17"},"vehicle_type_id":"4","last_reported":1701411010,"current_range_meters":29600,"station_id":"ce4bhk92rcd13ifvqgb0","pricing_plan_id":"free"},{"bike_id":"39a41fc6-fb12-4304-b9bd-c12fd73ba948","system_id":"levelo_inurba_marseille","lat":43.270721,"lon":5.422764,"is_reserved":false,"is_disabled":false,"rental_uris":{"android":"levelo://app?vid=39a41fc6-fb12-4304-b9bd-c12fd73ba948","ios":"levelo://app?vid=39a41fc6-fb12-4304-b9bd-c12fd73ba948"},"vehicle_type_id":"4","last_reported":1701411010,"current_range_meters":31200,"station_id":"ce4bhk92rcd13ifvqgb0","pricing_plan_id":"free"},