{"last_updated":1701951234,"ttl":30,"version":"2.2","data":{"bikes":[{"bike_id":"a7925edc-ad9a-488b-b971-1364fb7a2ffd","system_id":"levelo_inurba_marseille","lat":43.309076,"lon":5.368465,"is_reserved":false,"is_disabled":false,"rental_uris":{"android":"levelo://app?vid=a7925edc-ad9a-488b-b971-1364fb7a2ffd","ios":"levelo://app?vid=a7925edc-ad9a-488b-b971-1364fb7a2ffd"},"vehicle_type_id":"4","last_reported":1701951235,"current_range_meters":31200,"station_id":"ce4bgn92rcd13ifvqbvg","pricing_plan_id":"free"},{"bike_id":"8bb1cf9a-2a7d-44ad-96d1-4abef2cefa22","system_id":"levelo_inurba_marseille","lat":43.309076,"lon":5.368465,"is_reserved":false,"is_disabled":false,"rental_uris":{"android":"levelo://app?vid=8bb1cf9a-2a7d-44ad-96d1-4abef2cefa22","ios":"levelo://app?vid=8bb1cf9a-2a7d-44ad-96d1-4abef2cefa22"},"vehicle_type_id":"4","last_reported":1701951235,"current_range_meters":31600,"station_id":"ce4bgn92rcd13ifvqbvg","pricing_plan_id":"free"},{"bike_id":"d4177412-41ee-4092-b1ca-7e0d183dfa18","system_id":"levelo_inurba_marseille","lat":43.309076,"lon":5.368465,"is_reserved":false,"is_disabled":false,"rental_uris":{"android":"levelo://app?vid=d4177412-41ee-4092-b1ca-7e0d183dfa18","ios":"levelo://app?vid=d4177412-41ee-4092-b1ca-7e0d183dfa18"},"vehicle_type_id":"4","last_reported":1701951235,"current_range_meters":3600,"station_id":"ce4bgn92rcd13ifvqbvg","pricing_plan_id":"free"},{"bike_id":"50aa671b-6ad0-452c-9d6a-e1297f5a0a86","system_id":"levelo_inurba_marseille","lat":43.30538,"lon":5.36707,"is_reserved":false,"is_disabled":false,"rental_uris":{"android":"levelo://app?vid=50aa671b-6ad0-452c-9d6a-e1297f5a0a86","ios":"levelo://app?vid=50aa671b-6ad0-452c-9d6a-e1297f5a0a86"},"vehicle_type_id":"4","last_reported":1701951235,"current_range_meters":14800,"station_id":"ce4bgrp2rcd13ifvqc9g","pricing_plan_id":"free"},{"bike_id":"e46a9c0c-7c49-4209-b119-6c940fc80e2c","system_id":"levelo_inurba_marseille","lat":43.30594,"lon":5.37231,"is_reserved":false,"is_disabled":false,"rental_uris":{"android":"levelo://app?vid=e46a9c0c-7c49-4209-b119-6c940fc80e2c","ios":"levelo://app?vid=e46a9c0c-7c49-4209-b119-6c940fc80e2c"},"vehicle_type_id":"4","last_reported":1701951235,"current_range_meters":26000,"station_id":"ce4bgqh2rcd13ifvqc4g","pricing_plan_id":"free"},{"bike_id":"7085dc50-f07f-43fa-9db9-e9ac21525fc2","system_id":"levelo_inurba_marseille","lat":43.30786,"lon":5.3766,"is_reserved":false,"is_disabled":false,"rental_uris":{"android":"levelo://app?vid=7085dc50-f07f-43fa-9db9-e9ac21525fc2","ios":"levelo://app?vid=7085dc50-f07f-43fa-9db9-e9ac21525fc2"},"vehicle_type_id":"4","last_reported":1701951235,"current_range_meters":20000,"station_id":"ce4bgv92rcd13ifvqcq0","pricing_plan_id":"free"},{"bike_id":"adf146c5-e4e1-4668-9a33-042940925130","system_id":"levelo_inurba_marseille","lat":43.31351,"lon":5.37909,"is_reserved":false,"is_disabled":false,"rental_uris":{"android":"levelo://app?vid=adf146c5-e4e1-4668-9a33-042940925130","ios":"levelo://app?vid=adf146c5-e4e1-4668-9a33-042940925130"},"vehicle_type_id":"4","last_reported":1701951235,"current_range_meters":2800,"station_id":"","pricing_plan_id":"free"},{"bike_id":"7e3d4ead-dce6-4c13-afc3-b8d21512585e","system_id":"levelo_inurba_marseille","lat":43.301939,"lon":5.366286,"is_reserved":false,"is_disabled":false,"rental_uris":{"android":"levelo://app?vid=7e3d4ead-dce6-4c13-afc3-b8d21512585e","ios":"levelo://app?vid=7e3d4ead-dce6-4c13-afc3-b8d21512585e"},"vehicle_type_id":"4","last_reported":1701951235,"current_range_meters":18000,"station_id":"ce4bgrh2rcd13ifvqc8g","pricing_plan_id":"free"},{"bike_id":"1ea60f58-75f7-4484-b705-1156df4b02ad","system_id":"levelo_inurba_marseille","lat":43.302813,"lon":5.373438,"is_reserved":false,"is_disabled":false,"rental_uris":{"android":"levelo://app?vid=1ea60f58-75f7-4484-b705-1156df4b02ad","ios":"levelo://app?vid=1ea60f58-75f7-4484-b705-1156df4b02ad"},"vehicle_type_id":"4","last_reported":1701951235,"current_range_meters":5200,"station_id":"","pricing_plan_id":"free"},{"bike_id":"b81b793c-fd03-4873-8c0e-a0b54234a539","system_id":"levelo_inurba_marseille","lat":43.30465,"lon":5.37898,"is_reserved":false,"is_disabled":false,"rental_uris":{"android":"levelo://app?vid=b81b793c-fd03-4873-8c0e-a0b54234a539","ios":"levelo://app?vid=b81b793c-fd03-4873-8c0e-a0b54234a539"},"vehicle_type_id":"4","last_reported":1701951235,"current_range_meters":0,"station_id":"ce4bgup2rcd13ifvqcn0","pricing_plan_id":"free"},{"bike_id":"1c3409b6-3ef7-4201-9477-ace56ebe0ee1","system_id":"levelo_inurba_marseille","lat":43.30463,"lon":5.37896,"is_reserved":false,"is_disabled":false,"rental_uris":{"android":"levelo://app?vid=1c3409b6-3ef7-4201-9477-ace56ebe0ee1","ios":"levelo://app?vid=1c3409b6-3ef7-4201-9477-ace56ebe0ee1"},"vehicle_type_id":"4","last_reported":1701951235,"current_range_meters":0,"station_id":"ce4bgup2rcd13ifvqcn0","pricing_plan_id":"free"},{"bike_id":"563d2b39-02dd-4680-96db-d94fd835cd51","system_id":"levelo_inurba_marseille","lat":43.304614,"lon":5.379002,"is_reserved":false,"is_disabled":false,"rental_uris":{"android":"levelo://app?vid=563d2b39-02dd-4680-96db-d94fd835cd51","ios":"levelo://app?vid=563d2b39-02dd-4680-96db-d94fd835cd51"},"vehicle_type_id":"4","last_reported":1701951235,"current_range_meters":21600,"station_id":"ce4bgup2rcd13ifvqcn0","pricing_plan_id":"free"},{"bike_id":"7579e49e-349e-4784-976d-0cc65a25ef1c","system_id":"levelo_inurba_marseille","lat":43.304606,"lon":5.379026,"is_reserved":false,"is_disabled":false,"rental_uris":{"android":"levelo://app?vid=7579e49e-349e-4784-976d-0cc65a25ef1c","ios":"levelo://app?vid=7579e49e-349e-4784-976d-0cc65a25ef1c"},"vehicle_type_id":"4","last_reported":1701951235,"current_range_meters":2800,"station_id":"ce4bgup2rcd13ifvqcn0","pricing_plan_id":"free"},{"bike_id":"e6a7946c-a7d5-4369-b254-577b631c8d1a","system_id":"levelo_inurba_marseille","lat":43.31717,"lon":5.38237,"is_reserved":false,"is_disabled":false,"rental_uris":{"android":"levelo://app?vid=e6a7946c-a7d5-4369-b254-577b631c8d1a","ios":"levelo://app?vid=e6a7946c-a7d5-4369-b254-577b631c8d1a"},"vehicle_type_id":"4","last_reported":1701951235,"current_range_meters":25200,"station_id":"","pricing_plan_id":"free"},{"bike_id":"0a826efa-6aeb-4c9a-ba5d-072b1e87b856","system_id":"levelo_inurba_marseille","lat":43.324771,"lon":5.36557,"is_reserved":false,"is_disabled":false,"rental_uris":{"android":"levelo://app?vid=0a826efa-6aeb-4c9a-ba5d-072b1e87b856","ios":"levelo://app?vid=0a826efa-6aeb-4c9a-ba5d-072b1e87b856"},"vehicle_type_id":"4","last_reported":1701951235,"current_range_meters":23200,"station_id":"ce4bhs12rcd13ifvqhvg","pricing_plan_id":"free"},{"bike_id":"44b639d4-c394-49b2-9e18-6098ae373bd6","system_id":"levelo_inurba_marseille","lat":43.31932,"lon":5.38124,"is_reserved":false,"is_disabled":false,"rental_uris":{"android":"levelo://app?vid=44b639d4-c394-49b2-9e18-6098ae373bd6","ios":"levelo://app?vid=44b639d4-c394-49b2-9e18-6098ae373bd6"},"vehicle_type_id":"4","last_reported":1701951235,"current_range_meters":29600,"station_id":"","pricing_plan_id":"free"},{"bike_id":"d611b2bc-f44e-4ad7-93b2-514492736e01","system_id":"levelo_inurba_marseille","lat":43.301429,"lon":5.37413,"is_reserved":false,"is_disabled":false,"rental_uris":{"android":"levelo://app?vid=d611b2bc-f44e-4ad7-93b2-514492736e01","ios":"levelo://app?vid=d611b2bc-f44e-4ad7-93b2-514492736e01"},"vehicle_type_id":"4","last_reported":1701951235,"current_range_meters":800,"station_id":"ce4bgs92rcd13ifvqcc0","pricing_plan_id":"free"},{"bike_id":"9ee0ef7a-8d9c-4d78-8ae5-64e12b708d26","system_id":"levelo_inurba_marseille","lat":43.319997,"lon":5.381594,"is_reserved":false,"is_disabled":false,"rental_uris":{"android":"levelo://app?vid=9ee0ef7a-8d9c-4d78-8ae5-64e12b708d26","ios":"levelo://app?vid=9ee0ef7a-8d9c-4d78-8ae5-64e12b708d26"},"vehicle_type_id":"4","last_reported":1701951235,"current_range_meters":0,"station_id":"ce4bhr12rcd13ifvqhpg","pricing_plan_id":"free"},{"bike_id":"106526d8-02f8-4f5c-a76a-7b703187f35e","system_id":"levelo_inurba_marseille","lat":43.313571,"lon":5.384829,"is_reserved":false,"is_disabled":false,"rental_uris":{"android":"levelo://app?vid=106526d8-02f8-4f5c-a76a-7b703187f35e","ios":"levelo://app?vid=106526d8-02f8-4f5c-a76a-7b703187f35e"},"vehicle_type_id":"4","last_reported":1701951235,"current_range_meters":0,"station_id":"ce4bgt92rcd13ifvqcf0","pricing_plan_id":"free"},{"bike_id":"476a1e5c-0536-4738-aa18-d25861252ad1","system_id":"levelo_inurba_marseille","lat":43.299243,"lon":5.374807,"is_reserved":false,"is_disabled":false,"rental_uris":{"android":"levelo://app?vid=476a1e5c-0536-4738-aa18-d25861252ad1","ios":"levelo://app?vid=476a1e5c-0536-4738-aa18-d25861252ad1"},"vehicle_type_id":"4","last_reported":1701951235,"current_range_meters":27200,"station_id":"ce4bgjh2rcd13ifvqbg0","pricing_plan_id":"free"},{"bike_id":"7b7913ca-6e14-4aab-ae34-73df0570cc1e","system_id":"levelo_inurba_marseille","lat":43.298433,"lon":5.362774,"is_reserved":false,"is_disabled":false,"rental_uris":{"android":"levelo://app?vid=7b7913ca-6e14-4aab-ae34-73df0570cc1e","ios":"levelo://app?vid=7b7913ca-6e14-4aab-ae34-73df0570cc1e"},"vehicle_type_id":"4","last_reported":1701951235,"current_range_meters":5200,"station_id":"ce4bgpp2rcd13ifvqc3g","pricing_plan_id":"free"},{"bike_id":"46e54c8a-f176-4b2c-9a3d-9c8ddb7f5f46","system_id":"levelo_inurba_marseille","lat":43.299243,"lon":5.37481,"is_reserved":false,"is_disabled":false,"rental_uris":{"android":"levelo://app?vid=46e54c8a-f176-4b2c-9a3d-9c8ddb7f5f46","ios":"levelo://app?vid=46e54c8a-f176-4b2c-9a3d-9c8ddb7f5f46"},"vehicle_type_id":"4","last_reported":1701951235,"current_range_meters":21600,"station_id":"ce4bgjh2rcd13ifvqbg0","pricing_plan_id":"free"},{"bike_id":"09606f6e-1c87-4050-a4ac-2c64b1501013","system_id":"levelo_inurba_marseille","lat":43.311722,"lon":5.387247,"is_reserved":false,"is_disabled":false,"rental_uris":{"android":"levelo://app?vid=09606f6e-1c87-4050-a4ac-2c64b1501013","ios":"levelo://app?vid=09606f6e-1c87-4050-a4ac-2c64b1501013"},"vehicle_type_id":"4","last_reported":1701951235,"current_range_meters":18400,"station_id":"ce4bgv12rcd13ifvqcp0","pricing_plan_id":"free"},{"bike_id":"c6e8c1df-6c8c-42f2-ad47-037daf8cedc1","system_id":"levelo_inurba_marseille","lat":43.297794,"lon":5.370888,"is_reserved":false,"is_disabled":false,"rental_uris":{"android":"levelo://app?vid=c6e8c1df-6c8c-42f2-ad47-037daf8cedc1","ios":"levelo://app?vid=c6e8c1df-6c8c-42f2-ad47-037daf8cedc1"},"vehicle_type_id":"4","last_reported":1701951235,"current_range_meters":28000,"station_id":"ce4bgop2rcd13ifvqc1g","pricing_plan_id":"free"},{"bike_id":"0c86a8ae-40bc-4814-a752-f64df22e75f4","system_id":"levelo_inurba_marseille","lat":43.297774,"lon":5.370875,"is_reserved":false,"is_disabled":false,"rental_uris":{"android":"levelo://app?vid=0c86a8ae-40bc-4814-a752-f64df22e75f4","ios":"levelo://app?vid=0c86a8ae-40bc-4814-a752-f64df22e75f4"},"vehicle_type_id":"4","last_reported":1701951235,"current_range_meters":16800,"station_id":"ce4bgop2rcd13ifvqc1g","pricing_plan_id":"free"},{"bike_id":"fa455109-c68b-41cb-b65c-e075ca83a260","system_id":"levelo_inurba_marseille","lat":43.29903,"lon":5.37628,"is_reserved":false,"is_disabled":false,"rental_uris":{"android":"levelo://app?vid=fa455109-c68b-41cb-b65c-e075ca83a260","ios":"levelo://app?vid=fa455109-c68b-41cb-b65c-e075ca83a260"},"vehicle_type_id":"4","last_reported":1701951235,"current_range_meters":25600,"station_id":"","pricing_plan_id":"free"},{"bike_id":"2cad760e-93db-4a89-b098-860b1e2a6aef","system_id":"levelo_inurba_marseille","lat":43.298218,"lon":5.374416,"is_reserved":false,"is_disabled":false,"rental_uris":{"android":"levelo://app?vid=2cad760e-93db-4a89-b098-860b1e2a6aef","ios":"levelo://app?vid=2cad760e-93db-4a89-b098-860b1e2a6aef"},"vehicle_type_id":"4","last_reported":1701951235,"current_range_meters":10000,"station_id":"","pricing_plan_id":"free"},{"bike_id":"26fc0c47-e5ee-49d2-911f-b4135c252acd","system_id":"levelo_inurba_marseille","lat":43.32828,"lon":5.36686,"is_reserved":false,"is_disabled":false,"rental_uris":{"android":"levelo://app?vid=26fc0c47-e5ee-49d2-911f-b4135c252acd","ios":"levelo://app?vid=26fc0c47-e5ee-49d2-911f-b4135c252acd"},"vehicle_type_id":"4","last_reported":1701951235,"current_range_meters":26000,"station_id":"ce4bhs92rcd13ifvqi0g","pricing_plan_id":"free"},{"bike_id":"7e775db5-9112-4f77-a4dd-4ae951879fdd","system_id":"levelo_inurba_marseille","lat":43.328371,"lon":5.366909,"is_reserved":false,"is_disabled":false,"rental_uris":{"android":"levelo://app?vid=7e775db5-9112-4f77-a4dd-4ae951879fdd","ios":"levelo://app?vid=7e775db5-9112-4f77-a4dd-4ae951879fdd"},"vehicle_type_id":"4","last_reported":1701951235,"current_range_meters":22800,"station_id":"ce4bhs92rcd13ifvqi0g","pricing_plan_id":"free"},{"bike_id":"55311dec-ec61-4646-8d1a-4ddd89532043","system_id":"levelo_inurba_marseille","lat":43.328371,"lon":5.366909,"is_reserved":false,"is_disabled":false,"rental_uris":{"android":"levelo://app?vid=55311dec-ec61-4646-8d1a-4ddd89532043","ios":"levelo://app?vid=55311dec-ec61-4646-8d1a-4ddd89532043"},"vehicle_type_id":"4","last_reported":1701951235,"current_range_meters":24000,"station_id":"ce4bhs92rcd13ifvqi0g","pricing_plan_id":"free"},{"bike_id":"c6fc6417-1dd3-483e-9ca1-f0a2ca79b115","system_id":"levelo_inurba_marseille","lat":43.297163,"lon":5.365866,"is_reserved":false,"is_disabled":false,"rental_uris":{"android":"levelo://app?vid=c6fc6417-1dd3-483e-9ca1-f0a2ca79b115","ios":"levelo://app?vid=c6fc6417-1dd3-483e-9ca1-f0a2ca79b115"},"vehicle_type_id":"4","last_reported":1701951235,"current_range_meters":28400,"station_id":"ce4bgn12rcd13ifvqbt0","pricing_plan_id":"free"},{"bike_id":"9190eb99-d6ca-4501-a2a4-7ed7fc8df97e","system_id":"levelo_inurba_marseille","lat":43.32832,"lon":5.36682,"is_reserved":false,"is_disabled":false,"rental_uris":{"android":"levelo://app?vid=9190eb99-d6ca-4501-a2a4-7ed7fc8df97e","ios":"levelo://app?vid=9190eb99-d6ca-4501-a2a4-7ed7fc8df97e"},"vehicle_type_id":"4","last_reported":1701951235,"current_range_meters":19200,"station_id":"ce4bhs92rcd13ifvqi0g","pricing_plan_id":"free"},{"bike_id":"92dc65d6-6823-4de3-93d4-056f738f090c","system_id":"levelo_inurba_marseille","lat":43.316538,"lon":5.38954,"is_reserved":false,"is_disabled":false,"rental_uris":{"android":"levelo://app?vid=92dc65d6-6823-4de3-93d4-056f738f090c","ios":"levelo://app?vid=92dc65d6-6823-4de3-93d4-056f738f090c"},"vehicle_type_id":"4","last_reported":1701951235,"current_range_meters":5600,"station_id":"","pricing_plan_id":"free"},{"bike_id":"5343206a-93bd-4869-a6aa-dac9060cbd16","system_id":"levelo_inurba_marseille","lat":43.295773,"lon":5.367263,"is_reserved":false,"is_disabled":false,"rental_uris":{"android":"levelo://app?vid=5343206a-93bd-4869-a6aa-dac9060cbd16","ios":"levelo://app?vid=5343206a-93bd-4869-a6aa-dac9060cbd16"},"vehicle_type_id":"4","last_reported":1701951235,"current_range_meters":0,"station_id":"ce4bgph2rcd13ifvqc2g","pricing_plan_id":"free"},{"bike_id":"87fb5e00-701d-41de-9f94-fa51db51c599","system_id":"levelo_inurba_marseille","lat":43.309589,"lon":5.390258,"is_reserved":false,"is_disabled":false,"rental_uris":{"android":"levelo://app?vid=87fb5e00-701d-41de-9f94-fa51db51c599","ios":"levelo://app?vid=87fb5e00-701d-41de-9f94-fa51db51c599"},"vehicle_type_id":"4","last_reported":1701951235,"current_range_meters":19200,"station_id":"ce4bgup2rcd13ifvqco0","pricing_plan_id":"free"},{"bike_id":"28339440-b421-4296-a720-237dbfdbdf00","system_id":"levelo_inurba_marseille","lat":43.309589,"lon":5.390258,"is_reserved":false,"is_disabled":false,"rental_uris":{"android":"levelo://app?vid=28339440-b421-4296-a720-237dbfdbdf00","ios":"levelo://app?vid=28339440-b421-4296-a720-237dbfdbdf00"},"vehicle_type_id":"4","last_reported":1701951235,"current_range_meters":28000,"station_id":"ce4bgup2rcd13ifvqco0","pricing_plan_id":"free"},{"bike_id":"e2d1f81d-3e58-4e2b-9dbb-0af1b95b353b","system_id":"levelo_inurba_marseille","lat":43.30952,"lon":5.39034,"is_reserved":false,"is_disabled":false,"rental_uris":{"android":"levelo://app?vid=e2d1f81d-3e58-4e2b-9dbb-0af1b95b353b","ios":"levelo://app?vid=e2d1f81d-3e58-4e2b-9dbb-0af1b95b353b"},"vehicle_type_id":"4","last_reported":1701951235,"current_range_meters":7600,"station_id":"ce4bgup2rcd13ifvqco0","pricing_plan_id":"free"},{"bike_id":"718b2363-5f6b-48a8-911a-067db9dad352","system_id":"levelo_inurba_marseille","lat":43.317557,"lon":5.390173,"is_reserved":false,"is_disabled":false,"rental_uris":{"android":"levelo://app?vid=718b2363-5f6b-48a8-911a-067db9dad352","ios":"levelo://app?vid=718b2363-5f6b-48a8-911a-067db9dad352"},"vehicle_type_id":"4","last_reported":1701951235,"current_range_meters":26000,"station_id":"ce4bhqp2rcd13ifvqhng","pricing_plan_id":"free"},{"bike_id":"939df909-61ad-47d2-9a24-279eade37c8c","system_id":"levelo_inurba_marseille","lat":43.29569,"lon":5.37509,"is_reserved":false,"is_disabled":false,"rental_uris":{"android":"levelo://app?vid=939df909-61ad-47d2-9a24-279eade37c8c","ios":"levelo://app?vid=939df909-61ad-47d2-9a24-279eade37c8c"},"vehicle_type_id":"4","last_reported":1701951235,"current_range_meters":0,"station_id":"ce4bgh92rcd13ifvqb50","pricing_plan_id":"free"},{"bike_id":"b8bcaf75-26b1-4935-8efb-3d6b60f8754a","system_id":"levelo_inurba_marseille","lat":43.304278,"lon":5.388868,"is_reserved":false,"is_disabled":false,"rental_uris":{"android":"levelo://app?vid=b8bcaf75-26b1-4935-8efb-3d6b60f8754a","ios":"levelo://app?vid=b8bcaf75-26b1-4935-8efb-3d6b60f8754a"},"vehicle_type_id":"4","last_reported":1701951235,"current_range_meters":28400,"station_id":"ce4bgk12rcd13ifvqbi0","pricing_plan_id":"free"},{"bike_id":"8173668d-d458-43fc-b8d0-d5b008dc41ae","system_id":"levelo_inurba_marseille","lat":43.299707,"lon":5.384859,"is_reserved":false,"is_disabled":false,"rental_uris":{"android":"levelo://app?vid=8173668d-d458-43fc-b8d0-d5b008dc41ae","ios":"levelo://app?vid=8173668d-d458-43fc-b8d0-d5b008dc41ae"},"vehicle_type_id":"4","last_reported":1701951235,"current_range_meters":0,"station_id":"ce4bgj92rcd13ifvqbd0","pricing_plan_id":"free"},{"bike_id":"b86fe136-9b84-4387-b060-690e76c66a99","system_id":"levelo_inurba_marseille","lat":43.299707,"lon":5.384859,"is_reserved":false,"is_disabled":false,"rental_uris":{"android":"levelo://app?vid=b86fe136-9b84-4387-b060-690e76c66a99","ios":"levelo://app?vid=b86fe136-9b84-4387-b060-690e76c66a99"},"vehicle_type_id":"4","last_reported":1701951235,"current_range_meters":20400,"station_id":"ce4bgj92rcd13ifvqbd0","pricing_plan_id":"free"},{"bike_id":"a357f422-089f-4602-bb6b-ce44a8cc1663","system_id":"levelo_inurba_marseille","lat":43.292311,"lon":5.360731,"is_reserved":false,"is_disabled":false,"rental_uris":{"android":"levelo://app?vid=a357f422-089f-4602-bb6b-ce44a8cc1663","ios":"levelo://app?vid=a357f422-089f-4602-bb6b-ce44a8cc1663"},"vehicle_type_id":"4","last_reported":1701951235,"current_range_meters":14000,"station_id":"ce4bhbh2rcd13ifvqeqg","pricing_plan_id":"free"},{"bike_id":"dbdbf049-d363-48f4-962a-35e0839dda16","system_id":"levelo_inurba_marseille","lat":43.29601,"lon":5.381084,"is_reserved":false,"is_disabled":false,"rental_uris":{"android":"levelo://app?vid=dbdbf049-d363-48f4-962a-35e0839dda16","ios":"levelo://app?vid=dbdbf049-d363-48f4-962a-35e0839dda16"},"vehicle_type_id":"4","last_reported":1701951235,"current_range_meters":0,"station_id":"ce4bgl12rcd13ifvqbo0","pricing_plan_id":"free"},{"bike_id":"2424b203-2bfa-46d0-8b7b-b616d11edac6","system_id":"levelo_inurba_marseille","lat":43.332489,"lon":5.364682,"is_reserved":false,"is_disabled":false,"rental_uris":{"android":"levelo://app?vid=2424b203-2bfa-46d0-8b7b-b616d11edac6","ios":"levelo://app?vid=2424b203-2bfa-46d0-8b7b-b616d11edac6"},"vehicle_type_id":"4","last_reported":1701951235,"current_range_meters":8400,"station_id":"","pricing_plan_id":"free"},{"bike_id":"ce21de0b-5ff9-4beb-a97a-932672a4e034","system_id":"levelo_inurba_marseille","lat":43.293249,"lon":5.371578,"is_reserved":false,"is_disabled":false,"rental_uris":{"android":"levelo://app?vid=ce21de0b-5ff9-4beb-a97a-932672a4e034","ios":"levelo://app?vid=ce21de0b-5ff9-4beb-a97a-932672a4e034"},"vehicle_type_id":"4","last_reported":1701951235,"current_range_meters":0,"station_id":"ce4bgh92rcd13ifvqb40","pricing_plan_id":"free"},{"bike_id":"72714644-a730-462a-b220-6837667c5de6","system_id":"levelo_inurba_marseille","lat":43.318144,"lon":5.394119,"is_reserved":false,"is_disabled":false,"rental_uris":{"android":"levelo://app?vid=72714644-a730-462a-b220-6837667c5de6","ios":"levelo://app?vid=72714644-a730-462a-b220-6837667c5de6"},"vehicle_type_id":"4","last_reported":1701951235,"current_range_meters":14400,"station_id":"","pricing_plan_id":"free"},{"bike_id":"d46c7f35-d449-4233-b3de-37aedc6a041a","system_id":"levelo_inurba_marseille","lat":43.303002,"lon":5.392142,"is_reserved":false,"is_disabled":false,"rental_uris":{"android":"levelo://app?vid=d46c7f35-d449-4233-b3de-37aedc6a041a","ios":"levelo://app?vid=d46c7f35-d449-4233-b3de-37aedc6a041a"},"vehicle_type_id":"4","last_reported":1701951235,"current_range_meters":31600,"station_id":"ce4bgkh2rcd13ifvqbk0","pricing_plan_id":"free"},{"bike_id":"75fa037d-afe4-43a8-beb6-5d5bb07abc6e","system_id":"levelo_inurba_marseille","lat":43.302992,"lon":5.392136,"is_reserved":false,"is_disabled":false,"rental_uris":{"android":"levelo://app?vid=75fa037d-afe4-43a8-beb6-5d5bb07abc6e","ios":"levelo://app?vid=75fa037d-afe4-43a8-beb6-5d5bb07abc6e"},"vehicle_type_id":"4","last_reported":1701951235,"current_range_meters":25600,"station_id":"ce4bgkh2rcd13ifvqbk0","pricing_plan_id":"free"},{"bike_id":"d6289ffb-5e9e-410c-9074-a1ddd1bd1eab","system_id":"levelo_inurba_marseille","lat":43.303002,"lon":5.392142,"is_reserved":false,"is_disabled":false,"rental_uris":{"android":"levelo://app?vid=d6289ffb-5e9e-410c-9074-a1ddd1bd1eab","ios":"levelo://app?vid=d6289ffb-5e9e-410c-9074-a1ddd1bd1eab"},"vehicle_type_id":"4","last_reported":1701951235,"current_range_meters":30000,"station_id":"ce4bgkh2rcd13ifvqbk0","pricing_plan_id":"free"},{"bike_id":"5648baf0-fa13-4bf2-9041-ef510d79ff0f","system_id":"levelo_inurba_marseille","lat":43.293661,"lon":5.378548,"is_reserved":false,"is_disabled":false,"rental_uris":{"android":"levelo://app?vid=5648baf0-fa13-4bf2-9041-ef510d79ff0f","ios":"levelo://app?vid=5648baf0-fa13-4bf2-9041-ef510d79ff0f"},"vehicle_type_id":"4","last_reported":1701951235,"current_range_meters":3200,"station_id":"ce4bgjh2rcd13ifvqbf0","pricing_plan_id":"free"},{"bike_id":"a7e7c06f-0e24-41da-a7ad-4125566b6fae","system_id":"levelo_inurba_marseille","lat":43.300852,"lon":5.390859,"is_reserved":false,"is_disabled":false,"rental_uris":{"android":"levelo://app?vid=a7e7c06f-0e24-41da-a7ad-4125566b6fae","ios":"levelo://app?vid=a7e7c06f-0e24-41da-a7ad-4125566b6fae"},"vehicle_type_id":"4","last_reported":1701951235,"current_range_meters":26400,"station_id":"ce4bh192rcd13ifvqdb0","pricing_plan_id":"free"},{"bike_id":"8eab1b85-d68a-47cc-aa14-39f662391495","system_id":"levelo_inurba_marseille","lat":43.292311,"lon":5.360731,"is_reserved":false,"is_disabled":false,"rental_uris":{"android":"levelo://app?vid=8eab1b85-d68a-47cc-aa14-39f662391495","ios":"levelo://app?vid=8eab1b85-d68a-47cc-aa14-39f662391495"},"vehicle_type_id":"4","last_reported":1701951235,"current_range_meters":24400,"station_id":"ce4bhbh2rcd13ifvqeqg","pricing_plan_id":"free"},{"bike_id":"38c75ede-dd7c-4ded-b095-bfc76c1647c0","system_id":"levelo_inurba_marseille","lat":43.292311,"lon":5.360731,"is_reserved":false,"is_disabled":false,"rental_uris":{"android":"levelo://app?vid=38c75ede-dd7c-4ded-b095-bfc76c1647c0","ios":"levelo://app?vid=38c75ede-dd7c-4ded-b095-bfc76c1647c0"},"vehicle_type_id":"4","last_reported":1701951235,"current_range_meters":7200,"station_id":"ce4bhbh2rcd13ifvqeqg","pricing_plan_id":"free"},{"bike_id":"44b2b85f-1ed5-4514-97dd-16637606b122","system_id":"levelo_inurba_marseille","lat":43.292311,"lon":5.360731,"is_reserved":false,"is_disabled":false,"rental_uris":{"android":"levelo://app?vid=44b2b85f-1ed5-4514-97dd-16637606b122","ios":"levelo://app?vid=44b2b85f-1ed5-4514-97dd-16637606b122"},"vehicle_type_id":"4","last_reported":1701951235,"current_range_meters":23200,"station_id":"ce4bhbh2rcd13ifvqeqg","pricing_plan_id":"free"},{"bike_id":"8dd2f783-5b8a-4d15-b0af-a0363e7afcf7","system_id":"levelo_inurba_marseille","lat":43.291994,"lon":5.357886,"is_reserved":false,"is_disabled":false,"rental_uris":{"android":"levelo://app?vid=8dd2f783-5b8a-4d15-b0af-a0363e7afcf7","ios":"levelo://app?vid=8dd2f783-5b8a-4d15-b0af-a0363e7afcf7"},"vehicle_type_id":"4","last_reported":1701951235,"current_range_meters":21200,"station_id":"ce4bhb12rcd13ifvqel0","pricing_plan_id":"free"},{"bike_id":"ceae909e-0f16-43bc-8a11-624c7908ae0b","system_id":"levelo_inurba_marseille","lat":43.291895,"lon":5.357975,"is_reserved":false,"is_disabled":false,"rental_uris":{"android":"levelo://app?vid=ceae909e-0f16-43bc-8a11-624c7908ae0b","ios":"levelo://app?vid=ceae909e-0f16-43bc-8a11-624c7908ae0b"},"vehicle_type_id":"4","last_reported":1701951235,"current_range_meters":13600,"station_id":"ce4bhb12rcd13ifvqel0","pricing_plan_id":"free"},{"bike_id":"934587b0-87ca-4667-994a-84d46a623c8b","system_id":"levelo_inurba_marseille","lat":43.290631,"lon":5.359244,"is_reserved":false,"is_disabled":false,"rental_uris":{"android":"levelo://app?vid=934587b0-87ca-4667-994a-84d46a623c8b","ios":"levelo://app?vid=934587b0-87ca-4667-994a-84d46a623c8b"},"vehicle_type_id":"4","last_reported":1701951235,"current_range_meters":26400,"station_id":"ce4bha92rcd13ifvqeg0","pricing_plan_id":"free"},{"bike_id":"0485f485-f400-4af2-bdda-ab54c1d52753","system_id":"levelo_inurba_marseille","lat":43.294153,"lon":5.386305,"is_reserved":false,"is_disabled":false,"rental_uris":{"android":"levelo://app?vid=0485f485-f400-4af2-bdda-ab54c1d52753","ios":"levelo://app?vid=0485f485-f400-4af2-bdda-ab54c1d52753"},"vehicle_type_id":"4","last_reported":1701951235,"current_range_meters":12800,"station_id":"ce4bh2h2rcd13ifvqdh0","pricing_plan_id":"free"},{"bike_id":"bcdf663a-951b-4459-bc40-4697f6974438","system_id":"levelo_inurba_marseille","lat":43.289184,"lon":5.366408,"is_reserved":false,"is_disabled":false,"rental_uris":{"android":"levelo://app?vid=bcdf663a-951b-4459-bc40-4697f6974438","ios":"levelo://app?vid=bcdf663a-951b-4459-bc40-4697f6974438"},"vehicle_type_id":"4","last_reported":1701951235,"current_range_meters":20800,"station_id":"ce4bhap2rcd13ifvqek0","pricing_plan_id":"free"},{"bike_id":"d2f8332d-9a86-408a-a1a7-de8f277e9042","system_id":"levelo_inurba_marseille","lat":43.289184,"lon":5.366408,"is_reserved":false,"is_disabled":false,"rental_uris":{"android":"levelo://app?vid=d2f8332d-9a86-408a-a1a7-de8f277e9042","ios":"levelo://app?vid=d2f8332d-9a86-408a-a1a7-de8f277e9042"},"vehicle_type_id":"4","last_reported":1701951235,"current_range_meters":14800,"station_id":"ce4bhap2rcd13ifvqek0","pricing_plan_id":"free"},{"bike_id":"5d39ba32-2108-4c73-9d50-2ceaa229693f","system_id":"levelo_inurba_marseille","lat":43.289184,"lon":5.366408,"is_reserved":false,"is_disabled":false,"rental_uris":{"android":"levelo://app?vid=5d39ba32-2108-4c73-9d50-2ceaa229693f","ios":"levelo://app?vid=5d39ba32-2108-4c73-9d50-2ceaa229693f"},"vehicle_type_id":"4","last_reported":1701951235,"current_range_meters":18000,"station_id":"ce4bhap2rcd13ifvqek0","pricing_plan_id":"free"},{"bike_id":"a02a1b20-1fb1-4951-988a-77389649024d","system_id":"levelo_inurba_marseille","lat":43.289259,"lon":5.366364,"is_reserved":false,"is_disabled":false,"rental_uris":{"android":"levelo://app?vid=a02a1b20-1fb1-4951-988a-77389649024d","ios":"levelo://app?vid=a02a1b20-1fb1-4951-988a-77389649024d"},"vehicle_type_id":"4","last_reported":1701951235,"current_range_meters":20000,"station_id":"","pricing_plan_id":"free"},{"bike_id":"f1a6ef96-bf9f-40f8-ae98-f08beed5f5f6","system_id":"levelo_inurba_marseille","lat":43.28924,"lon":5.36392,"is_reserved":false,"is_disabled":false,"rental_uris":{"android":"levelo://app?vid=f1a6ef96-bf9f-40f8-ae98-f08beed5f5f6","ios":"levelo://app?vid=f1a6ef96-bf9f-40f8-ae98-f08beed5f5f6"},"vehicle_type_id":"4","last_reported":1701951235,"current_range_meters":28800,"station_id":"ce4bhc92rcd13ifvqetg","pricing_plan_id":"free"},{"bike_id":"bbaff8ff-7ccd-4687-b4be-79589e48abbf","system_id":"levelo_inurba_marseille","lat":43.292644,"lon":5.384257,"is_reserved":false,"is_disabled":false,"rental_uris":{"android":"levelo://app?vid=bbaff8ff-7ccd-4687-b4be-79589e48abbf","ios":"levelo://app?vid=bbaff8ff-7ccd-4687-b4be-79589e48abbf"},"vehicle_type_id":"4","last_reported":1701951235,"current_range_meters":5600,"station_id":"ce4bh692rcd13ifvqea0","pricing_plan_id":"free"},{"bike_id":"5c92a378-cebc-41af-8fc6-ea2102bf85d8","system_id":"levelo_inurba_marseille","lat":43.292644,"lon":5.384257,"is_reserved":false,"is_disabled":false,"rental_uris":{"android":"levelo://app?vid=5c92a378-cebc-41af-8fc6-ea2102bf85d8","ios":"levelo://app?vid=5c92a378-cebc-41af-8fc6-ea2102bf85d8"},"vehicle_type_id":"4","last_reported":1701951235,"current_range_meters":5200,"station_id":"ce4bh692rcd13ifvqea0","pricing_plan_id":"free"},{"bike_id":"00591346-67ae-4007-835b-88c5e9f7a162","system_id":"levelo_inurba_marseille","lat":43.33043,"lon":5.38917,"is_reserved":false,"is_disabled":false,"rental_uris":{"android":"levelo://app?vid=00591346-67ae-4007-835b-88c5e9f7a162","ios":"levelo://app?vid=00591346-67ae-4007-835b-88c5e9f7a162"},"vehicle_type_id":"4","last_reported":1701951235,"current_range_meters":0,"station_id":"ce4bhr92rcd13ifvqhrg","pricing_plan_id":"free"},{"bike_id":"bf611a86-039a-45af-8cf4-96ee5765970f","system_id":"levelo_inurba_marseille","lat":43.330442,"lon":5.389148,"is_reserved":false,"is_disabled":false,"rental_uris":{"android":"levelo://app?vid=bf611a86-039a-45af-8cf4-96ee5765970f","ios":"levelo://app?vid=bf611a86-039a-45af-8cf4-96ee5765970f"},"vehicle_type_id":"4","last_reported":1701951235,"current_range_meters":27200,"station_id":"ce4bhr92rcd13ifvqhrg","pricing_plan_id":"free"},{"bike_id":"c12df127-f915-48f4-85a1-4011b4c894ae","system_id":"levelo_inurba_marseille","lat":43.33046,"lon":5.38919,"is_reserved":false,"is_disabled":false,"rental_uris":{"android":"levelo://app?vid=c12df127-f915-48f4-85a1-4011b4c894ae","ios":"levelo://app?vid=c12df127-f915-48f4-85a1-4011b4c894ae"},"vehicle_type_id":"4","last_reported":1701951235,"current_range_meters":17200,"station_id":"ce4bhr92rcd13ifvqhrg","pricing_plan_id":"free"},{"bike_id":"72981be7-2c47-4f82-bf56-c8b40f769151","system_id":"levelo_inurba_marseille","lat":43.290995,"lon":5.381361,"is_reserved":false,"is_disabled":false,"rental_uris":{"android":"levelo://app?vid=72981be7-2c47-4f82-bf56-c8b40f769151","ios":"levelo://app?vid=72981be7-2c47-4f82-bf56-c8b40f769151"},"vehicle_type_id":"4","last_reported":1701951235,"current_range_meters":8400,"station_id":"ce4bh512rcd13ifvqe2g","pricing_plan_id":"free"},{"bike_id":"ffb3b745-b725-4543-b05d-502fafae8b85","system_id":"levelo_inurba_marseille","lat":43.28865,"lon":5.35902,"is_reserved":false,"is_disabled":false,"rental_uris":{"android":"levelo://app?vid=ffb3b745-b725-4543-b05d-502fafae8b85","ios":"levelo://app?vid=ffb3b745-b725-4543-b05d-502fafae8b85"},"vehicle_type_id":"4","last_reported":1701951235,"current_range_meters":3600,"station_id":"ce4bhb12rcd13ifvqem0","pricing_plan_id":"free"},{"bike_id":"13934ab4-d292-4ed0-960d-f2aa56a7f1fc","system_id":"levelo_inurba_marseille","lat":43.29021,"lon":5.38132,"is_reserved":false,"is_disabled":false,"rental_uris":{"android":"levelo://app?vid=13934ab4-d292-4ed0-960d-f2aa56a7f1fc","ios":"levelo://app?vid=13934ab4-d292-4ed0-960d-f2aa56a7f1fc"},"vehicle_type_id":"4","last_reported":1701951235,"current_range_meters":0,"station_id":"ce4bh4p2rcd13ifvqe1g","pricing_plan_id":"free"},{"bike_id":"a5b55618-7f6c-41bb-8de0-52464e71d390","system_id":"levelo_inurba_marseille","lat":43.2901,"lon":5.381269,"is_reserved":false,"is_disabled":false,"rental_uris":{"android":"levelo://app?vid=a5b55618-7f6c-41bb-8de0-52464e71d390","ios":"levelo://app?vid=a5b55618-7f6c-41bb-8de0-52464e71d390"},"vehicle_type_id":"4","last_reported":1701951235,"current_range_meters":1600,"station_id":"ce4bh4p2rcd13ifvqe1g","pricing_plan_id":"free"},{"bike_id":"efe46e7c-cf49-4c7b-80fb-eea57c1d5a63","system_id":"levelo_inurba_marseille","lat":43.288558,"lon":5.358635,"is_reserved":false,"is_disabled":false,"rental_uris":{"android":"levelo://app?vid=efe46e7c-cf49-4c7b-80fb-eea57c1d5a63","ios":"levelo://app?vid=efe46e7c-cf49-4c7b-80fb-eea57c1d5a63"},"vehicle_type_id":"4","last_reported":1701951235,"current_range_meters":28000,"station_id":"","pricing_plan_id":"free"},{"bike_id":"5706e2fb-17c5-499e-8ebb-c57e3b2f70ed","system_id":"levelo_inurba_marseille","lat":43.31276,"lon":5.40176,"is_reserved":false,"is_disabled":false,"rental_uris":{"android":"levelo://app?vid=5706e2fb-17c5-499e-8ebb-c57e3b2f70ed","ios":"levelo://app?vid=5706e2fb-17c5-499e-8ebb-c57e3b2f70ed"},"vehicle_type_id":"4","last_reported":1701951235,"current_range_meters":20400,"station_id":"ce4bh092rcd13ifvqd30","pricing_plan_id":"free"},{"bike_id":"28e0e66a-b48c-4081-b559-d706286c8fb2","system_id":"levelo_inurba_marseille","lat":43.30934,"lon":5.40145,"is_reserved":false,"is_disabled":false,"rental_uris":{"android":"levelo://app?vid=28e0e66a-b48c-4081-b559-d706286c8fb2","ios":"levelo://app?vid=28e0e66a-b48c-4081-b559-d706286c8fb2"},"vehicle_type_id":"4","last_reported":1701951235,"current_range_meters":11600,"station_id":"ce4bgvp2rcd13ifvqct0","pricing_plan_id":"free"},{"bike_id":"88ee7519-1ed4-452e-b351-9f93c9ff0d48","system_id":"levelo_inurba_marseille","lat":43.30928,"lon":5.40144,"is_reserved":false,"is_disabled":false,"rental_uris":{"android":"levelo://app?vid=88ee7519-1ed4-452e-b351-9f93c9ff0d48","ios":"levelo://app?vid=88ee7519-1ed4-452e-b351-9f93c9ff0d48"},"vehicle_type_id":"4","last_reported":1701951235,"current_range_meters":800,"station_id":"ce4bgvp2rcd13ifvqct0","pricing_plan_id":"free"},{"bike_id":"6dfa595a-9d18-4276-a237-0784cc550ab6","system_id":"levelo_inurba_marseille","lat":43.306412,"lon":5.401035,"is_reserved":false,"is_disabled":false,"rental_uris":{"android":"levelo://app?vid=6dfa595a-9d18-4276-a237-0784cc550ab6","ios":"levelo://app?vid=6dfa595a-9d18-4276-a237-0784cc550ab6"},"vehicle_type_id":"4","last_reported":1701951235,"current_range_meters":23600,"station_id":"ce4bh112rcd13ifvqda0","pricing_plan_id":"free"},{"bike_id":"4f72a508-e545-4d1b-8efd-984a72f625dc","system_id":"levelo_inurba_marseille","lat":43.31272,"lon":5.40182,"is_reserved":false,"is_disabled":false,"rental_uris":{"android":"levelo://app?vid=4f72a508-e545-4d1b-8efd-984a72f625dc","ios":"levelo://app?vid=4f72a508-e545-4d1b-8efd-984a72f625dc"},"vehicle_type_id":"4","last_reported":1701951235,"current_range_meters":21600,"station_id":"ce4bh092rcd13ifvqd30","pricing_plan_id":"free"},{"bike_id":"680af6f8-dfbf-4cd9-a9c2-52ee57dffe04","system_id":"levelo_inurba_marseille","lat":43.306391,"lon":5.400732,"is_reserved":false,"is_disabled":false,"rental_uris":{"android":"levelo://app?vid=680af6f8-dfbf-4cd9-a9c2-52ee57dffe04","ios":"levelo://app?vid=680af6f8-dfbf-4cd9-a9c2-52ee57dffe04"},"vehicle_type_id":"4","last_reported":1701951235,"current_range_meters":30400,"station_id":"ce4bh112rcd13ifvqda0","pricing_plan_id":"free"},{"bike_id":"333fa3ed-d0e1-4bfd-b9dd-51fc1eda6d02","system_id":"levelo_inurba_marseille","lat":43.306393,"lon":5.400777,"is_reserved":false,"is_disabled":false,"rental_uris":{"android":"levelo://app?vid=333fa3ed-d0e1-4bfd-b9dd-51fc1eda6d02","ios":"levelo://app?vid=333fa3ed-d0e1-4bfd-b9dd-51fc1eda6d02"},"vehicle_type_id":"4","last_reported":1701951235,"current_range_meters":26400,"station_id":"ce4bh112rcd13ifvqda0","pricing_plan_id":"free"},{"bike_id":"908bb06e-3540-45ea-a799-b20b40be1eca","system_id":"levelo_inurba_marseille","lat":43.309371,"lon":5.401449,"is_reserved":false,"is_disabled":false,"rental_uris":{"android":"levelo://app?vid=908bb06e-3540-45ea-a799-b20b40be1eca","ios":"levelo://app?vid=908bb06e-3540-45ea-a799-b20b40be1eca"},"vehicle_type_id":"4","last_reported":1701951235,"current_range_meters":18400,"station_id":"ce4bgvp2rcd13ifvqct0","pricing_plan_id":"free"},{"bike_id":"914bcfbe-279d-46c4-9073-f6e750aa0a64","system_id":"levelo_inurba_marseille","lat":43.306412,"lon":5.401035,"is_reserved":false,"is_disabled":false,"rental_uris":{"android":"levelo://app?vid=914bcfbe-279d-46c4-9073-f6e750aa0a64","ios":"levelo://app?vid=914bcfbe-279d-46c4-9073-f6e750aa0a64"},"vehicle_type_id":"4","last_reported":1701951235,"current_range_meters":25600,"station_id":"ce4bh112rcd13ifvqda0","pricing_plan_id":"free"},{"bike_id":"380c9d53-1ed0-4829-a007-462e124e97a6","system_id":"levelo_inurba_marseille","lat":43.304296,"lon":5.397513,"is_reserved":false,"is_disabled":false,"rental_uris":{"android":"levelo://app?vid=380c9d53-1ed0-4829-a007-462e124e97a6","ios":"levelo://app?vid=380c9d53-1ed0-4829-a007-462e124e97a6"},"vehicle_type_id":"4","last_reported":1701951235,"current_range_meters":23600,"station_id":"ce4bh092rcd13ifvqd20","pricing_plan_id":"free"},{"bike_id":"87cb461d-19c3-48a4-8d77-1bb9e87f9601","system_id":"levelo_inurba_marseille","lat":43.306412,"lon":5.401035,"is_reserved":false,"is_disabled":false,"rental_uris":{"android":"levelo://app?vid=87cb461d-19c3-48a4-8d77-1bb9e87f9601","ios":"levelo://app?vid=87cb461d-19c3-48a4-8d77-1bb9e87f9601"},"vehicle_type_id":"4","last_reported":1701951235,"current_range_meters":27200,"station_id":"ce4bh112rcd13ifvqda0","pricing_plan_id":"free"},{"bike_id":"9483d5d0-9e37-4171-8b64-f867f6379bac","system_id":"levelo_inurba_marseille","lat":43.301117,"lon":5.398795,"is_reserved":false,"is_disabled":false,"rental_uris":{"android":"levelo://app?vid=9483d5d0-9e37-4171-8b64-f867f6379bac","ios":"levelo://app?vid=9483d5d0-9e37-4171-8b64-f867f6379bac"},"vehicle_type_id":"4","last_reported":1701951235,"current_range_meters":5200,"station_id":"ce4bh0h2rcd13ifvqd40","pricing_plan_id":"free"},{"bike_id":"56a3f60a-fe1e-482c-8496-f2b808134060","system_id":"levelo_inurba_marseille","lat":43.30137,"lon":5.3986,"is_reserved":false,"is_disabled":false,"rental_uris":{"android":"levelo://app?vid=56a3f60a-fe1e-482c-8496-f2b808134060","ios":"levelo://app?vid=56a3f60a-fe1e-482c-8496-f2b808134060"},"vehicle_type_id":"4","last_reported":1701951235,"current_range_meters":8800,"station_id":"ce4bh0h2rcd13ifvqd40","pricing_plan_id":"free"},{"bike_id":"08fb2f32-c962-4dbc-bb4b-0b93a837c32c","system_id":"levelo_inurba_marseille","lat":43.306523,"lon":5.401217,"is_reserved":false,"is_disabled":false,"rental_uris":{"android":"levelo://app?vid=08fb2f32-c962-4dbc-bb4b-0b93a837c32c","ios":"levelo://app?vid=08fb2f32-c962-4dbc-bb4b-0b93a837c32c"},"vehicle_type_id":"4","last_reported":1701951235,"current_range_meters":27600,"station_id":"ce4bh112rcd13ifvqda0","pricing_plan_id":"free"},{"bike_id":"66db19b5-6c71-47d4-9aa8-8faf4ae13720","system_id":"levelo_inurba_marseille","lat":43.301117,"lon":5.398795,"is_reserved":false,"is_disabled":false,"rental_uris":{"android":"levelo://app?vid=66db19b5-6c71-47d4-9aa8-8faf4ae13720","ios":"levelo://app?vid=66db19b5-6c71-47d4-9aa8-8faf4ae13720"},"vehicle_type_id":"4","last_reported":1701951235,"current_range_meters":12000,"station_id":"ce4bh0h2rcd13ifvqd40","pricing_plan_id":"free"},{"bike_id":"0a7144a5-3b5a-440e-ac29-d40ac6913b17","system_id":"levelo_inurba_marseille","lat":43.298681,"lon":5.397225,"is_reserved":false,"is_disabled":false,"rental_uris":{"android":"levelo://app?vid=0a7144a5-3b5a-440e-ac29-d40ac6913b17","ios":"levelo://app?vid=0a7144a5-3b5a-440e-ac29-d40ac6913b17"},"vehicle_type_id":"4","last_reported":1701951235,"current_range_meters":18400,"station_id":"ce4bh0h2rcd13ifvqd50","pricing_plan_id":"free"},{"bike_id":"a5d13238-a60e-4907-b15c-05b9b476718a","system_id":"levelo_inurba_marseille","lat":43.286039,"lon":5.370679,"is_reserved":false,"is_disabled":false,"rental_uris":{"android":"levelo://app?vid=a5d13238-a60e-4907-b15c-05b9b476718a","ios":"levelo://app?vid=a5d13238-a60e-4907-b15c-05b9b476718a"},"vehicle_type_id":"4","last_reported":1701951235,"current_range_meters":12000,"station_id":"ce4bht12rcd13ifvqi60","pricing_plan_id":"free"},{"bike_id":"0cc88580-067f-44bf-83c9-a5919dea8ea1","system_id":"levelo_inurba_marseille","lat":43.286039,"lon":5.370679,"is_reserved":false,"is_disabled":false,"rental_uris":{"android":"levelo://app?vid=0cc88580-067f-44bf-83c9-a5919dea8ea1","ios":"levelo://app?vid=0cc88580-067f-44bf-83c9-a5919dea8ea1"},"vehicle_type_id":"4","last_reported":1701951235,"current_range_meters":16400,"station_id":"ce4bht12rcd13ifvqi60","pricing_plan_id":"free"},{"bike_id":"679dfb99-abda-4cbe-98d4-533c60ec43e0","system_id":"levelo_inurba_marseille","lat":43.287184,"lon":5.37937,"is_reserved":false,"is_disabled":false,"rental_uris":{"android":"levelo://app?vid=679dfb99-abda-4cbe-98d4-533c60ec43e0","ios":"levelo://app?vid=679dfb99-abda-4cbe-98d4-533c60ec43e0"},"vehicle_type_id":"4","last_reported":1701951235,"current_range_meters":17200,"station_id":"ce4bh9p2rcd13ifvqec0","pricing_plan_id":"free"},{"bike_id":"aac03cde-7271-4f5c-a388-0a700b38f71d","system_id":"levelo_inurba_marseille","lat":43.287184,"lon":5.37937,"is_reserved":false,"is_disabled":false,"rental_uris":{"android":"levelo://app?vid=aac03cde-7271-4f5c-a388-0a700b38f71d","ios":"levelo://app?vid=aac03cde-7271-4f5c-a388-0a700b38f71d"},"vehicle_type_id":"4","last_reported":1701951235,"current_range_meters":3200,"station_id":"ce4bh9p2rcd13ifvqec0","pricing_plan_id":"free"},{"bike_id":"93ab452c-d908-4080-9bc7-e5aeb3e46a44","system_id":"levelo_inurba_marseille","lat":43.291994,"lon":5.392907,"is_reserved":false,"is_disabled":false,"rental_uris":{"android":"levelo://app?vid=93ab452c-d908-4080-9bc7-e5aeb3e46a44","ios":"levelo://app?vid=93ab452c-d908-4080-9bc7-e5aeb3e46a44"},"vehicle_type_id":"4","last_reported":1701951235,"current_range_meters":29200,"station_id":"ce4bh192rcd13ifvqdd0","pricing_plan_id":"free"},{"bike_id":"60ce628a-eb10-4524-b670-fb47fc23879f","system_id":"levelo_inurba_marseille","lat":43.284538,"lon":5.358657,"is_reserved":false,"is_disabled":false,"rental_uris":{"android":"levelo://app?vid=60ce628a-eb10-4524-b670-fb47fc23879f","ios":"levelo://app?vid=60ce628a-eb10-4524-b670-fb47fc23879f"},"vehicle_type_id":"4","last_reported":1701951235,"current_range_meters":8800,"station_id":"ce4bhah2rcd13ifvqei0","pricing_plan_id":"free"},{"bike_id":"b31218fa-98b6-48a6-93cc-af6ddce66639","system_id":"levelo_inurba_marseille","lat":43.284538,"lon":5.358657,"is_reserved":false,"is_disabled":false,"rental_uris":{"android":"levelo://app?vid=b31218fa-98b6-48a6-93cc-af6ddce66639","ios":"levelo://app?vid=b31218fa-98b6-48a6-93cc-af6ddce66639"},"vehicle_type_id":"4","last_reported":1701951235,"current_range_meters":0,"station_id":"ce4bhah2rcd13ifvqei0","pricing_plan_id":"free"},{"bike_id":"e99eb46b-77e8-4adc-95b2-867d78cd2a96","system_id":"levelo_inurba_marseille","lat":43.283998,"lon":5.375062,"is_reserved":false,"is_disabled":false,"rental_uris":{"android":"levelo://app?vid=e99eb46b-77e8-4adc-95b2-867d78cd2a96","ios":"levelo://app?vid=e99eb46b-77e8-4adc-95b2-867d78cd2a96"},"vehicle_type_id":"4","last_reported":1701951235,"current_range_meters":17200,"station_id":"ce4bh412rcd13ifvqds0","pricing_plan_id":"free"},{"bike_id":"925c6bfe-1e7b-4b1a-88fa-9c06c8535740","system_id":"levelo_inurba_marseille","lat":43.283998,"lon":5.375062,"is_reserved":false,"is_disabled":false,"rental_uris":{"android":"levelo://app?vid=925c6bfe-1e7b-4b1a-88fa-9c06c8535740","ios":"levelo://app?vid=925c6bfe-1e7b-4b1a-88fa-9c06c8535740"},"vehicle_type_id":"4","last_reported":1701951235,"current_range_meters":30000,"station_id":"ce4bh412rcd13ifvqds0","pricing_plan_id":"free"},{"bike_id":"1e0b22f7-f2ee-4455-9fb7-08ec045e1e71","system_id":"levelo_inurba_marseille","lat":43.283998,"lon":5.375062,"is_reserved":false,"is_disabled":false,"rental_uris":{"android":"levelo://app?vid=1e0b22f7-f2ee-4455-9fb7-08ec045e1e71","ios":"levelo://app?vid=1e0b22f7-f2ee-4455-9fb7-08ec045e1e71"},"vehicle_type_id":"4","last_reported":1701951235,"current_range_meters":0,"station_id":"ce4bh412rcd13ifvqds0","pricing_plan_id":"free"},{"bike_id":"6db55031-df47-4fb6-8b80-a9e9fa62b66a","system_id":"levelo_inurba_marseille","lat":43.337168,"lon":5.391825,"is_reserved":false,"is_disabled":false,"rental_uris":{"android":"levelo://app?vid=6db55031-df47-4fb6-8b80-a9e9fa62b66a","ios":"levelo://app?vid=6db55031-df47-4fb6-8b80-a9e9fa62b66a"},"vehicle_type_id":"4","last_reported":1701951235,"current_range_meters":30800,"station_id":"ce4bhr92rcd13ifvqhsg","pricing_plan_id":"free"},{"bike_id":"eec017fd-8297-4ba4-b48c-cbce9b0a3f5e","system_id":"levelo_inurba_marseille","lat":43.337168,"lon":5.391825,"is_reserved":false,"is_disabled":false,"rental_uris":{"android":"levelo://app?vid=eec017fd-8297-4ba4-b48c-cbce9b0a3f5e","ios":"levelo://app?vid=eec017fd-8297-4ba4-b48c-cbce9b0a3f5e"},"vehicle_type_id":"4","last_reported":1701951235,"current_range_meters":31200,"station_id":"ce4bhr92rcd13ifvqhsg","pricing_plan_id":"free"},{"bike_id":"fa36db7d-97c7-461d-9fd6-a158f91a515c","system_id":"levelo_inurba_marseille","lat":43.284787,"lon":5.384116,"is_reserved":false,"is_disabled":false,"rental_uris":{"android":"levelo://app?vid=fa36db7d-97c7-461d-9fd6-a158f91a515c","ios":"levelo://app?vid=fa36db7d-97c7-461d-9fd6-a158f91a515c"},"vehicle_type_id":"4","last_reported":1701951235,"current_range_meters":4800,"station_id":"ce4bh512rcd13ifvqe3g","pricing_plan_id":"free"},{"bike_id":"87643a9f-866d-4221-b422-627840cf9759","system_id":"levelo_inurba_marseille","lat":43.297946,"lon":5.404063,"is_reserved":false,"is_disabled":false,"rental_uris":{"android":"levelo://app?vid=87643a9f-866d-4221-b422-627840cf9759","ios":"levelo://app?vid=87643a9f-866d-4221-b422-627840cf9759"},"vehicle_type_id":"4","last_reported":1701951235,"current_range_meters":28400,"station_id":"ce4bh112rcd13ifvqd90","pricing_plan_id":"free"},{"bike_id":"8d2de53e-a143-48d7-80d4-77ab1354f8a4","system_id":"levelo_inurba_marseille","lat":43.29795,"lon":5.404086,"is_reserved":false,"is_disabled":false,"rental_uris":{"android":"levelo://app?vid=8d2de53e-a143-48d7-80d4-77ab1354f8a4","ios":"levelo://app?vid=8d2de53e-a143-48d7-80d4-77ab1354f8a4"},"vehicle_type_id":"4","last_reported":1701951235,"current_range_meters":18400,"station_id":"ce4bh112rcd13ifvqd90","pricing_plan_id":"free"},{"bike_id":"1dc3188c-ccba-4374-ab4d-bc15cf8a8d78","system_id":"levelo_inurba_marseille","lat":43.29795,"lon":5.404086,"is_reserved":false,"is_disabled":false,"rental_uris":{"android":"levelo://app?vid=1dc3188c-ccba-4374-ab4d-bc15cf8a8d78","ios":"levelo://app?vid=1dc3188c-ccba-4374-ab4d-bc15cf8a8d78"},"vehicle_type_id":"4","last_reported":1701951235,"current_range_meters":27600,"station_id":"ce4bh112rcd13ifvqd90","pricing_plan_id":"free"},{"bike_id":"a8587f6d-3914-45a3-a93e-e012ae9946d7","system_id":"levelo_inurba_marseille","lat":43.292724,"lon":5.401131,"is_reserved":false,"is_disabled":false,"rental_uris":{"android":"levelo://app?vid=a8587f6d-3914-45a3-a93e-e012ae9946d7","ios":"levelo://app?vid=a8587f6d-3914-45a3-a93e-e012ae9946d7"},"vehicle_type_id":"4","last_reported":1701951235,"current_range_meters":22000,"station_id":"ce4bh312rcd13ifvqdk0","pricing_plan_id":"free"},{"bike_id":"f2d499b8-6e62-451e-820f-5edacdec98ee","system_id":"levelo_inurba_marseille","lat":43.316825,"lon":5.412324,"is_reserved":false,"is_disabled":false,"rental_uris":{"android":"levelo://app?vid=f2d499b8-6e62-451e-820f-5edacdec98ee","ios":"levelo://app?vid=f2d499b8-6e62-451e-820f-5edacdec98ee"},"vehicle_type_id":"4","last_reported":1701951235,"current_range_meters":13600,"station_id":"","pricing_plan_id":"free"},{"bike_id":"61638d80-5a61-46cb-8fa5-ac52f7e008ce","system_id":"levelo_inurba_marseille","lat":43.284462,"lon":5.392121,"is_reserved":false,"is_disabled":false,"rental_uris":{"android":"levelo://app?vid=61638d80-5a61-46cb-8fa5-ac52f7e008ce","ios":"levelo://app?vid=61638d80-5a61-46cb-8fa5-ac52f7e008ce"},"vehicle_type_id":"4","last_reported":1701951235,"current_range_meters":5600,"station_id":"ce4bhoh2rcd13ifvqh5g","pricing_plan_id":"free"},{"bike_id":"026ee380-d5c1-45db-8847-4a0942b4671d","system_id":"levelo_inurba_marseille","lat":43.32539,"lon":5.414354,"is_reserved":false,"is_disabled":false,"rental_uris":{"android":"levelo://app?vid=026ee380-d5c1-45db-8847-4a0942b4671d","ios":"levelo://app?vid=026ee380-d5c1-45db-8847-4a0942b4671d"},"vehicle_type_id":"4","last_reported":1701951235,"current_range_meters":0,"station_id":"ce4bhq12rcd13ifvqhhg","pricing_plan_id":"free"},{"bike_id":"6ff4dc07-5e7f-43c2-9062-c43f8ff5329e","system_id":"levelo_inurba_marseille","lat":43.292571,"lon":5.409107,"is_reserved":false,"is_disabled":false,"rental_uris":{"android":"levelo://app?vid=6ff4dc07-5e7f-43c2-9062-c43f8ff5329e","ios":"levelo://app?vid=6ff4dc07-5e7f-43c2-9062-c43f8ff5329e"},"vehicle_type_id":"4","last_reported":1701951235,"current_range_meters":5600,"station_id":"ce4bh192rcd13ifvqdc0","pricing_plan_id":"free"},{"bike_id":"a6c3c522-51b6-4487-b146-158254682cdc","system_id":"levelo_inurba_marseille","lat":43.273613,"lon":5.362705,"is_reserved":false,"is_disabled":false,"rental_uris":{"android":"levelo://app?vid=a6c3c522-51b6-4487-b146-158254682cdc","ios":"levelo://app?vid=a6c3c522-51b6-4487-b146-158254682cdc"},"vehicle_type_id":"4","last_reported":1701951235,"current_range_meters":21600,"station_id":"ce4bhbh2rcd13ifvqeo0","pricing_plan_id":"free"},{"bike_id":"d9a5df45-8bee-4017-81ac-7035eb0874d2","system_id":"levelo_inurba_marseille","lat":43.340804,"lon":5.410219,"is_reserved":false,"is_disabled":false,"rental_uris":{"android":"levelo://app?vid=d9a5df45-8bee-4017-81ac-7035eb0874d2","ios":"levelo://app?vid=d9a5df45-8bee-4017-81ac-7035eb0874d2"},"vehicle_type_id":"4","last_reported":1701951235,"current_range_meters":24400,"station_id":"ce4bhqh2rcd13ifvqhlg","pricing_plan_id":"free"},{"bike_id":"11b2e0c5-092e-464c-b4a7-0f59de41f213","system_id":"levelo_inurba_marseille","lat":43.340804,"lon":5.410219,"is_reserved":false,"is_disabled":false,"rental_uris":{"android":"levelo://app?vid=11b2e0c5-092e-464c-b4a7-0f59de41f213","ios":"levelo://app?vid=11b2e0c5-092e-464c-b4a7-0f59de41f213"},"vehicle_type_id":"4","last_reported":1701951235,"current_range_meters":26800,"station_id":"ce4bhqh2rcd13ifvqhlg","pricing_plan_id":"free"},{"bike_id":"fc452a7a-a221-40ab-bc47-a38b73e93524","system_id":"levelo_inurba_marseille","lat":43.30422,"lon":5.42543,"is_reserved":false,"is_disabled":false,"rental_uris":{"android":"levelo://app?vid=fc452a7a-a221-40ab-bc47-a38b73e93524","ios":"levelo://app?vid=fc452a7a-a221-40ab-bc47-a38b73e93524"},"vehicle_type_id":"4","last_reported":1701951235,"current_range_meters":0,"station_id":"ce4bhoh2rcd13ifvqh6g","pricing_plan_id":"free"},{"bike_id":"dd96a520-871a-4bf6-8463-a37285139ea6","system_id":"levelo_inurba_marseille","lat":43.30413,"lon":5.42545,"is_reserved":false,"is_disabled":false,"rental_uris":{"android":"levelo://app?vid=dd96a520-871a-4bf6-8463-a37285139ea6","ios":"levelo://app?vid=dd96a520-871a-4bf6-8463-a37285139ea6"},"vehicle_type_id":"4","last_reported":1701951235,"current_range_meters":5200,"station_id":"","pricing_plan_id":"free"},{"bike_id":"43ef42de-4670-4ab5-b91c-d702ce98c02b","system_id":"levelo_inurba_marseille","lat":43.30414,"lon":5.42546,"is_reserved":false,"is_disabled":false,"rental_uris":{"android":"levelo://app?vid=43ef42de-4670-4ab5-b91c-d702ce98c02b","ios":"levelo://app?vid=43ef42de-4670-4ab5-b91c-d702ce98c02b"},"vehicle_type_id":"4","last_reported":1701951235,"current_range_meters":26800,"station_id":"ce4bhoh2rcd13ifvqh6g","pricing_plan_id":"free"},{"bike_id":"0a4ea9f2-6012-4143-8546-a714104ca4b3","system_id":"levelo_inurba_marseille","lat":43.295511,"lon":5.422926,"is_reserved":false,"is_disabled":false,"rental_uris":{"android":"levelo://app?vid=0a4ea9f2-6012-4143-8546-a714104ca4b3","ios":"levelo://app?vid=0a4ea9f2-6012-4143-8546-a714104ca4b3"},"vehicle_type_id":"4","last_reported":1701951235,"current_range_meters":23200,"station_id":"ce4bhph2rcd13ifvqhdg","pricing_plan_id":"free"},{"bike_id":"e0756567-7870-49b5-9af8-73e51703da33","system_id":"levelo_inurba_marseille","lat":43.295523,"lon":5.422926,"is_reserved":false,"is_disabled":false,"rental_uris":{"android":"levelo://app?vid=e0756567-7870-49b5-9af8-73e51703da33","ios":"levelo://app?vid=e0756567-7870-49b5-9af8-73e51703da33"},"vehicle_type_id":"4","last_reported":1701951235,"current_range_meters":29200,"station_id":"ce4bhph2rcd13ifvqhdg","pricing_plan_id":"free"},{"bike_id":"77e2df1b-d75a-48fe-a6ad-744dfbe91f1d","system_id":"levelo_inurba_marseille","lat":43.27214,"lon":5.3925,"is_reserved":false,"is_disabled":false,"rental_uris":{"android":"levelo://app?vid=77e2df1b-d75a-48fe-a6ad-744dfbe91f1d","ios":"levelo://app?vid=77e2df1b-d75a-48fe-a6ad-744dfbe91f1d"},"vehicle_type_id":"4","last_reported":1701951235,"current_range_meters":9600,"station_id":"","pricing_plan_id":"free"},{"bike_id":"9f2a4857-e3a4-4434-b9b1-d09e728e9a2d","system_id":"levelo_inurba_marseille","lat":43.278128,"lon":5.407195,"is_reserved":false,"is_disabled":false,"rental_uris":{"android":"levelo://app?vid=9f2a4857-e3a4-4434-b9b1-d09e728e9a2d","ios":"levelo://app?vid=9f2a4857-e3a4-4434-b9b1-d09e728e9a2d"},"vehicle_type_id":"4","last_reported":1701951235,"current_range_meters":17200,"station_id":"ce4bhnh2rcd13ifvqgtg","pricing_plan_id":"free"},{"bike_id":"8a8bc4d6-0029-4fbf-9728-a692a0316877","system_id":"levelo_inurba_marseille","lat":43.27021,"lon":5.39287,"is_reserved":false,"is_disabled":false,"rental_uris":{"android":"levelo://app?vid=8a8bc4d6-0029-4fbf-9728-a692a0316877","ios":"levelo://app?vid=8a8bc4d6-0029-4fbf-9728-a692a0316877"},"vehicle_type_id":"4","last_reported":1701951235,"current_range_meters":4000,"station_id":"","pricing_plan_id":"free"},{"bike_id":"5c62f0fe-2a68-4f0e-8c5e-1c3be35b64ff","system_id":"levelo_inurba_marseille","lat":43.29298,"lon":5.42847,"is_reserved":false,"is_disabled":false,"rental_uris":{"android":"levelo://app?vid=5c62f0fe-2a68-4f0e-8c5e-1c3be35b64ff","ios":"levelo://app?vid=5c62f0fe-2a68-4f0e-8c5e-1c3be35b64ff"},"vehicle_type_id":"4","last_reported":1701951235,"current_range_meters":15600,"station_id":"","pricing_plan_id":"free"},{"bike_id":"4cbd5661-7644-4659-924c-41d08447a4dc","system_id":"levelo_inurba_marseille","lat":43.267966,"lon":5.393976,"is_reserved":false,"is_disabled":false,"rental_uris":{"android":"levelo://app?vid=4cbd5661-7644-4659-924c-41d08447a4dc","ios":"levelo://app?vid=4cbd5661-7644-4659-924c-41d08447a4dc"},"vehicle_type_id":"4","last_reported":1701951235,"current_range_meters":15200,"station_id":"ce4bhh12rcd13ifvqfg0","pricing_plan_id":"free"},{"bike_id":"23e34a5d-e8ca-4024-a06a-fb86ee304ac8","system_id":"levelo_inurba_marseille","lat":43.308051,"lon":5.43527,"is_reserved":false,"is_disabled":false,"rental_uris":{"android":"levelo://app?vid=23e34a5d-e8ca-4024-a06a-fb86ee304ac8","ios":"levelo://app?vid=23e34a5d-e8ca-4024-a06a-fb86ee304ac8"},"vehicle_type_id":"4","last_reported":1701951235,"current_range_meters":12000,"station_id":"ce4bhph2rcd13ifvqheg","pricing_plan_id":"free"},{"bike_id":"4565acaf-76b0-4894-b845-ea0d80a01992","system_id":"levelo_inurba_marseille","lat":43.26949,"lon":5.40262,"is_reserved":false,"is_disabled":false,"rental_uris":{"android":"levelo://app?vid=4565acaf-76b0-4894-b845-ea0d80a01992","ios":"levelo://app?vid=4565acaf-76b0-4894-b845-ea0d80a01992"},"vehicle_type_id":"4","last_reported":1701951235,"current_range_meters":21200,"station_id":"cjm6bp8fraef2m0cb0m0","pricing_plan_id":"free"},{"bike_id":"65b3cf68-eca2-4d7b-b18d-87daafe89a02","system_id":"levelo_inurba_marseille","lat":43.261782,"lon":5.374515,"is_reserved":false,"is_disabled":false,"rental_uris":{"android":"levelo://app?vid=65b3cf68-eca2-4d7b-b18d-87daafe89a02","ios":"levelo://app?vid=65b3cf68-eca2-4d7b-b18d-87daafe89a02"},"vehicle_type_id":"4","last_reported":1701951235,"current_range_meters":26400,"station_id":"ce4bhgp2rcd13ifvqfc0","pricing_plan_id":"free"},{"bike_id":"f508e610-2234-45fa-bf3d-0c43055269f2","system_id":"levelo_inurba_marseille","lat":43.261853,"lon":5.374423,"is_reserved":false,"is_disabled":false,"rental_uris":{"android":"levelo://app?vid=f508e610-2234-45fa-bf3d-0c43055269f2","ios":"levelo://app?vid=f508e610-2234-45fa-bf3d-0c43055269f2"},"vehicle_type_id":"4","last_reported":1701951235,"current_range_meters":27600,"station_id":"ce4bhgp2rcd13ifvqfc0","pricing_plan_id":"free"},{"bike_id":"2203d641-9dc5-40c2-aeca-36841da35b05","system_id":"levelo_inurba_marseille","lat":43.267959,"lon":5.402687,"is_reserved":false,"is_disabled":false,"rental_uris":{"android":"levelo://app?vid=2203d641-9dc5-40c2-aeca-36841da35b05","ios":"levelo://app?vid=2203d641-9dc5-40c2-aeca-36841da35b05"},"vehicle_type_id":"4","last_reported":1701951235,"current_range_meters":10400,"station_id":"ce501612rcd8frsf0b60","pricing_plan_id":"free"},{"bike_id":"4f68f183-a711-4386-a731-e8ea8e2f115e","system_id":"levelo_inurba_marseille","lat":43.298768,"lon":5.43643,"is_reserved":false,"is_disabled":false,"rental_uris":{"android":"levelo://app?vid=4f68f183-a711-4386-a731-e8ea8e2f115e","ios":"levelo://app?vid=4f68f183-a711-4386-a731-e8ea8e2f115e"},"vehicle_type_id":"4","last_reported":1701951235,"current_range_meters":27200,"station_id":"ce4bhpp2rcd13ifvqhfg","pricing_plan_id":"free"},{"bike_id":"15516f19-6688-4602-81b1-7032ebea46f1","system_id":"levelo_inurba_marseille","lat":43.298768,"lon":5.43643,"is_reserved":false,"is_disabled":false,"rental_uris":{"android":"levelo://app?vid=15516f19-6688-4602-81b1-7032ebea46f1","ios":"levelo://app?vid=15516f19-6688-4602-81b1-7032ebea46f1"},"vehicle_type_id":"4","last_reported":1701951235,"current_range_meters":2800,"station_id":"ce4bhpp2rcd13ifvqhfg","pricing_plan_id":"free"},{"bike_id":"83e2018e-7127-4415-8bbf-2e347a9c6750","system_id":"levelo_inurba_marseille","lat":43.298942,"lon":5.436632,"is_reserved":false,"is_disabled":false,"rental_uris":{"android":"levelo://app?vid=83e2018e-7127-4415-8bbf-2e347a9c6750","ios":"levelo://app?vid=83e2018e-7127-4415-8bbf-2e347a9c6750"},"vehicle_type_id":"4","last_reported":1701951235,"current_range_meters":8400,"station_id":"ce4bhpp2rcd13ifvqhfg","pricing_plan_id":"free"},{"bike_id":"8c066ef0-8e33-4692-81e9-53a96288cf19","system_id":"levelo_inurba_marseille","lat":43.298768,"lon":5.43643,"is_reserved":false,"is_disabled":false,"rental_uris":{"android":"levelo://app?vid=8c066ef0-8e33-4692-81e9-53a96288cf19","ios":"levelo://app?vid=8c066ef0-8e33-4692-81e9-53a96288cf19"},"vehicle_type_id":"4","last_reported":1701951235,"current_range_meters":31600,"station_id":"ce4bhpp2rcd13ifvqhfg","pricing_plan_id":"free"},{"bike_id":"35906b42-b8dd-45bb-a0c4-70da75ea1faf","system_id":"levelo_inurba_marseille","lat":43.281548,"lon":5.42643,"is_reserved":false,"is_disabled":false,"rental_uris":{"android":"levelo://app?vid=35906b42-b8dd-45bb-a0c4-70da75ea1faf","ios":"levelo://app?vid=35906b42-b8dd-45bb-a0c4-70da75ea1faf"},"vehicle_type_id":"4","last_reported":1701951235,"current_range_meters":29200,"station_id":"ce4bhnh2rcd13ifvqgug","pricing_plan_id":"free"},{"bike_id":"2e558143-51e3-4d87-8093-37a7d6123ea4","system_id":"levelo_inurba_marseille","lat":43.2607,"lon":5.393983,"is_reserved":false,"is_disabled":false,"rental_uris":{"android":"levelo://app?vid=2e558143-51e3-4d87-8093-37a7d6123ea4","ios":"levelo://app?vid=2e558143-51e3-4d87-8093-37a7d6123ea4"},"vehicle_type_id":"4","last_reported":1701951235,"current_range_meters":25200,"station_id":"ce4bhh92rcd13ifvqfj0","pricing_plan_id":"free"},{"bike_id":"fd9eb56d-2758-4980-be1d-d4c693476164","system_id":"levelo_inurba_marseille","lat":43.254947,"lon":5.376454,"is_reserved":false,"is_disabled":false,"rental_uris":{"android":"levelo://app?vid=fd9eb56d-2758-4980-be1d-d4c693476164","ios":"levelo://app?vid=fd9eb56d-2758-4980-be1d-d4c693476164"},"vehicle_type_id":"4","last_reported":1701951235,"current_range_meters":20800,"station_id":"ce4bhh12rcd13ifvqff0","pricing_plan_id":"free"},{"bike_id":"26d9fe17-f698-496d-ac0e-1861992ef9d5","system_id":"levelo_inurba_marseille","lat":43.258658,"lon":5.398935,"is_reserved":false,"is_disabled":false,"rental_uris":{"android":"levelo://app?vid=26d9fe17-f698-496d-ac0e-1861992ef9d5","ios":"levelo://app?vid=26d9fe17-f698-496d-ac0e-1861992ef9d5"},"vehicle_type_id":"4","last_reported":1701951235,"current_range_meters":3600,"station_id":"ce4bhl92rcd13ifvqghg","pricing_plan_id":"free"},{"bike_id":"f956ec09-5500-495b-8e75-dd9d6965e0f2","system_id":"levelo_inurba_marseille","lat":43.250966,"lon":5.395186,"is_reserved":false,"is_disabled":false,"rental_uris":{"android":"levelo://app?vid=f956ec09-5500-495b-8e75-dd9d6965e0f2","ios":"levelo://app?vid=f956ec09-5500-495b-8e75-dd9d6965e0f2"},"vehicle_type_id":"4","last_reported":1701951235,"current_range_meters":18000,"station_id":"ce4bhm12rcd13ifvqgkg","pricing_plan_id":"free"},{"bike_id":"b7123a1f-3bd3-49c8-8217-c1d1bf86b6f8","system_id":"levelo_inurba_marseille","lat":43.245473,"lon":5.37328,"is_reserved":false,"is_disabled":false,"rental_uris":{"android":"levelo://app?vid=b7123a1f-3bd3-49c8-8217-c1d1bf86b6f8","ios":"levelo://app?vid=b7123a1f-3bd3-49c8-8217-c1d1bf86b6f8"},"vehicle_type_id":"4","last_reported":1701951235,"current_range_meters":0,"station_id":"","pricing_plan_id":"free"},{"bike_id":"276ac2f2-b97e-47b0-a7b2-d9f7f0d78f98","system_id":"levelo_inurba_marseille","lat":43.246467,"lon":5.388984,"is_reserved":false,"is_disabled":false,"rental_uris":{"android":"levelo://app?vid=276ac2f2-b97e-47b0-a7b2-d9f7f0d78f98","ios":"levelo://app?vid=276ac2f2-b97e-47b0-a7b2-d9f7f0d78f98"},"vehicle_type_id":"4","last_reported":1701951235,"current_range_meters":18400,"station_id":"ce4bhg12rcd13ifvqf60","pricing_plan_id":"free"},{"bike_id":"3f7c36a4-060e-4b8b-99a2-ae8abb9ae965","system_id":"levelo_inurba_marseille","lat":43.243884,"lon":5.370736,"is_reserved":false,"is_disabled":false,"rental_uris":{"android":"levelo://app?vid=3f7c36a4-060e-4b8b-99a2-ae8abb9ae965","ios":"levelo://app?vid=3f7c36a4-060e-4b8b-99a2-ae8abb9ae965"},"vehicle_type_id":"4","last_reported":1701951235,"current_range_meters":22400,"station_id":"ce4bhhh2rcd13ifvqfk0","pricing_plan_id":"free"},{"bike_id":"1a721afc-6506-4d8b-a81f-72932a2c93d4","system_id":"levelo_inurba_marseille","lat":43.245581,"lon":5.395069,"is_reserved":false,"is_disabled":false,"rental_uris":{"android":"levelo://app?vid=1a721afc-6506-4d8b-a81f-72932a2c93d4","ios":"levelo://app?vid=1a721afc-6506-4d8b-a81f-72932a2c93d4"},"vehicle_type_id":"4","last_reported":1701951235,"current_range_meters":25600,"station_id":"ce4bhlp2rcd13ifvqgjg","pricing_plan_id":"free"},{"bike_id":"a37f1f93-b2e5-4e8d-80a1-d0d56ff41bf6","system_id":"levelo_inurba_marseille","lat":43.241782,"lon":5.397261,"is_reserved":false,"is_disabled":false,"rental_uris":{"android":"levelo://app?vid=a37f1f93-b2e5-4e8d-80a1-d0d56ff41bf6","ios":"levelo://app?vid=a37f1f93-b2e5-4e8d-80a1-d0d56ff41bf6"},"vehicle_type_id":"4","last_reported":1701951235,"current_range_meters":10800,"station_id":"ce4bhn12rcd13ifvqgpg","pricing_plan_id":"free"},{"bike_id":"1ca24ffe-df28-4588-ad0a-09f3bd5098e7","system_id":"levelo_inurba_marseille","lat":43.241782,"lon":5.397261,"is_reserved":false,"is_disabled":false,"rental_uris":{"android":"levelo://app?vid=1ca24ffe-df28-4588-ad0a-09f3bd5098e7","ios":"levelo://app?vid=1ca24ffe-df28-4588-ad0a-09f3bd5098e7"},"vehicle_type_id":"4","last_reported":1701951235,"current_range_meters":23200,"station_id":"ce4bhn12rcd13ifvqgpg","pricing_plan_id":"free"},{"bike_id":"dafb76d3-48a3-4e10-8abe-6207ac6827bf","system_id":"levelo_inurba_marseille","lat":43.231562,"lon":5.436933,"is_reserved":false,"is_disabled":false,"rental_uris":{"android":"levelo://app?vid=dafb76d3-48a3-4e10-8abe-6207ac6827bf","ios":"levelo://app?vid=dafb76d3-48a3-4e10-8abe-6207ac6827bf"},"vehicle_type_id":"4","last_reported":1701951235,"current_range_meters":12400,"station_id":"ce4bhmp2rcd13ifvqgog","pricing_plan_id":"free"},{"bike_id":"b9d744bc-aef7-4aa6-b329-f06ddd152e7f","system_id":"levelo_inurba_marseille","lat":43.231562,"lon":5.436933,"is_reserved":false,"is_disabled":false,"rental_uris":{"android":"levelo://app?vid=b9d744bc-aef7-4aa6-b329-f06ddd152e7f","ios":"levelo://app?vid=b9d744bc-aef7-4aa6-b329-f06ddd152e7f"},"vehicle_type_id":"4","last_reported":1701951235,"current_range_meters":10800,"station_id":"ce4bhmp2rcd13ifvqgog","pricing_plan_id":"free"},{"bike_id":"ebbb1f26-1216-4b9d-ac47-aa159ee3f051","system_id":"levelo_inurba_marseille","lat":43.231562,"lon":5.436933,"is_reserved":false,"is_disabled":false,"rental_uris":{"android":"levelo://app?vid=ebbb1f26-1216-4b9d-ac47-aa159ee3f051","ios":"levelo://app?vid=ebbb1f26-1216-4b9d-ac47-aa159ee3f051"},"vehicle_type_id":"4","last_reported":1701951235,"current_range_meters":3600,"station_id":"ce4bhmp2rcd13ifvqgog","pricing_plan_id":"free"},{"bike_id":"7a322856-79ba-4174-90e9-188e9c210a06","system_id":"levelo_inurba_marseille","lat":43.231562,"lon":5.436933,"is_reserved":false,"is_disabled":false,"rental_uris":{"android":"levelo://app?vid=7a322856-79ba-4174-90e9-188e9c210a06","ios":"levelo://app?vid=7a322856-79ba-4174-90e9-188e9c210a06"},"vehicle_type_id":"4","last_reported":1701951235,"current_range_meters":16000,"station_id":"ce4bhmp2rcd13ifvqgog","pricing_plan_id":"free"},{"bike_id":"f2a13acd-23e0-4753-890d-e38186f79475","system_id":"levelo_inurba_marseille","lat":43.231562,"lon":5.436933,"is_reserved":false,"is_disabled":false,"rental_uris":{"android":"levelo://app?vid=f2a13acd-23e0-4753-890d-e38186f79475","ios":"levelo://app?vid=f2a13acd-23e0-4753-890d-e38186f79475"},"vehicle_type_id":"4","last_reported":1701951235,"current_range_meters":20000,"station_id":"ce4bhmp2rcd13ifvqgog","pricing_plan_id":"free"},{"bike_id":"e1251306-c052-40e5-b5f2-27796c9c4ad8","system_id":"levelo_inurba_marseille","lat":43.231562,"lon":5.436933,"is_reserved":false,"is_disabled":false,"rental_uris":{"android":"levelo://app?vid=e1251306-c052-40e5-b5f2-27796c9c4ad8","ios":"levelo://app?vid=e1251306-c052-40e5-b5f2-27796c9c4ad8"},"vehicle_type_id":"4","last_reported":1701951235,"current_range_meters":2400,"station_id":"ce4bhmp2rcd13ifvqgog","pricing_plan_id":"free"},{"bike_id":"96614ef2-cec9-4e17-bb2c-aff188332efc","system_id":"levelo_inurba_marseille","lat":43.231562,"lon":5.436933,"is_reserved":false,"is_disabled":false,"rental_uris":{"android":"levelo://app?vid=96614ef2-cec9-4e17-bb2c-aff188332efc","ios":"levelo://app?vid=96614ef2-cec9-4e17-bb2c-aff188332efc"},"vehicle_type_id":"4","last_reported":1701951235,"current_range_meters":28800,"station_id":"ce4bhmp2rcd13ifvqgog","pricing_plan_id":"free"},{"bike_id":"64d7e3a8-78e1-4b86-897c-e8c197f98a5a","system_id":"levelo_inurba_marseille","lat":43.231562,"lon":5.436933,"is_reserved":false,"is_disabled":false,"rental_uris":{"android":"levelo://app?vid=64d7e3a8-78e1-4b86-897c-e8c197f98a5a","ios":"levelo://app?vid=64d7e3a8-78e1-4b86-897c-e8c197f98a5a"},"vehicle_type_id":"4","last_reported":1701951235,"current_range_meters":14000,"station_id":"ce4bhmp2rcd13ifvqgog","pricing_plan_id":"free"},{"bike_id":"32b30606-14b9-41e6-a49f-da3543c8206c","system_id":"levelo_inurba_marseille","lat":43.231562,"lon":5.436933,"is_reserved":false,"is_disabled":false,"rental_uris":{"android":"levelo://app?vid=32b30606-14b9-41e6-a49f-da3543c8206c","ios":"levelo://app?vid=32b30606-14b9-41e6-a49f-da3543c8206c"},"vehicle_type_id":"4","last_reported":1701951235,"current_range_meters":30800,"station_id":"ce4bhmp2rcd13ifvqgog","pricing_plan_id":"free"},{"bike_id":"8e108615-2715-45ef-8f2d-511cdf7276bc","system_id":"levelo_inurba_marseille","lat":43.2315,"lon":5.43715,"is_reserved":false,"is_disabled":false,"rental_uris":{"android":"levelo://app?vid=8e108615-2715-45ef-8f2d-511cdf7276bc","ios":"levelo://app?vid=8e108615-2715-45ef-8f2d-511cdf7276bc"},"vehicle_type_id":"4","last_reported":1701951235,"current_range_meters":8400,"station_id":"ce4bhmp2rcd13ifvqgog","pricing_plan_id":"free"},{"bike_id":"26aa31e9-78f8-402e-9844-92fcde0d8e9e","system_id":"levelo_inurba_marseille","lat":43.231562,"lon":5.436933,"is_reserved":false,"is_disabled":false,"rental_uris":{"android":"levelo://app?vid=26aa31e9-78f8-402e-9844-92fcde0d8e9e","ios":"levelo://app?vid=26aa31e9-78f8-402e-9844-92fcde0d8e9e"},"vehicle_type_id":"4","last_reported":1701951235,"current_range_meters":5200,"station_id":"ce4bhmp2rcd13ifvqgog","pricing_plan_id":"free"},{"bike_id":"c4d763e0-a870-4439-9182-df46647c88f5","system_id":"levelo_inurba_marseille","lat":43.23151,"lon":5.43719,"is_reserved":false,"is_disabled":false,"rental_uris":{"android":"levelo://app?vid=c4d763e0-a870-4439-9182-df46647c88f5","ios":"levelo://app?vid=c4d763e0-a870-4439-9182-df46647c88f5"},"vehicle_type_id":"4","last_reported":1701951235,"current_range_meters":10000,"station_id":"ce4bhmp2rcd13ifvqgog","pricing_plan_id":"free"},{"bike_id":"41e229a8-b68d-42af-ba6b-b6cd94dad415","system_id":"levelo_inurba_marseille","lat":43.23151,"lon":5.4372,"is_reserved":false,"is_disabled":false,"rental_uris":{"android":"levelo://app?vid=41e229a8-b68d-42af-ba6b-b6cd94dad415","ios":"levelo://app?vid=41e229a8-b68d-42af-ba6b-b6cd94dad415"},"vehicle_type_id":"4","last_reported":1701951235,"current_range_meters":15200,"station_id":"ce4bhmp2rcd13ifvqgog","pricing_plan_id":"free"},{"bike_id":"167bdd97-62db-414a-9aaa-885881545e21","system_id":"levelo_inurba_marseille","lat":43.231562,"lon":5.436933,"is_reserved":false,"is_disabled":false,"rental_uris":{"android":"levelo://app?vid=167bdd97-62db-414a-9aaa-885881545e21","ios":"levelo://app?vid=167bdd97-62db-414a-9aaa-885881545e21"},"vehicle_type_id":"4","last_reported":1701951235,"current_range_meters":11200,"station_id":"ce4bhmp2rcd13ifvqgog","pricing_plan_id":"free"},{"bike_id":"4ccba871-beb4-4c6d-a451-b9020fb73037","system_id":"levelo_inurba_marseille","lat":43.231562,"lon":5.436933,"is_reserved":false,"is_disabled":false,"rental_uris":{"android":"levelo://app?vid=4ccba871-beb4-4c6d-a451-b9020fb73037","ios":"levelo://app?vid=4ccba871-beb4-4c6d-a451-b9020fb73037"},"vehicle_type_id":"4","last_reported":1701951235,"current_range_meters":17600,"station_id":"ce4bhmp2rcd13ifvqgog","pricing_plan_id":"free"},{"bike_id":"ebb8e937-193f-4764-86cc-14f6a3f49c69","system_id":"levelo_inurba_marseille","lat":43.231562,"lon":5.436933,"is_reserved":false,"is_disabled":false,"rental_uris":{"android":"levelo://app?vid=ebb8e937-193f-4764-86cc-14f6a3f49c69","ios":"levelo://app?vid=ebb8e937-193f-4764-86cc-14f6a3f49c69"},"vehicle_type_id":"4","last_reported":1701951235,"current_range_meters":11600,"station_id":"ce4bhmp2rcd13ifvqgog","pricing_plan_id":"free"},{"bike_id":"fcd5f4bd-6a9a-4e01-afb4-af3429f1f986","system_id":"levelo_inurba_marseille","lat":43.231562,"lon":5.436933,"is_reserved":false,"is_disabled":false,"rental_uris":{"android":"levelo://app?vid=fcd5f4bd-6a9a-4e01-afb4-af3429f1f986","ios":"levelo://app?vid=fcd5f4bd-6a9a-4e01-afb4-af3429f1f986"},"vehicle_type_id":"4","last_reported":1701951235,"current_range_meters":9600,"station_id":"ce4bhmp2rcd13ifvqgog","pricing_plan_id":"free"},{"bike_id":"149734cf-0231-46c5-b4e5-ccd25f43cea6","system_id":"levelo_inurba_marseille","lat":43.231562,"lon":5.436933,"is_reserved":false,"is_disabled":false,"rental_uris":{"android":"levelo://app?vid=149734cf-0231-46c5-b4e5-ccd25f43cea6","ios":"levelo://app?vid=149734cf-0231-46c5-b4e5-ccd25f43cea6"},"vehicle_type_id":"4","last_reported":1701951235,"current_range_meters":3600,"station_id":"ce4bhmp2rcd13ifvqgog","pricing_plan_id":"free"},{"bike_id":"0388cfcc-aee4-4b56-aaf5-4a4cb85d6319","system_id":"levelo_inurba_marseille","lat":43.231562,"lon":5.436933,"is_reserved":false,"is_disabled":false,"rental_uris":{"android":"levelo://app?vid=0388cfcc-aee4-4b56-aaf5-4a4cb85d6319","ios":"levelo://app?vid=0388cfcc-aee4-4b56-aaf5-4a4cb85d6319"},"vehicle_type_id":"4","last_reported":1701951235,"current_range_meters":19600,"station_id":"ce4bhmp2rcd13ifvqgog","pricing_plan_id":"free"},{"bike_id":"6044dcff-6eb4-461c-91be-600815014433","system_id":"levelo_inurba_marseille","lat":43.231562,"lon":5.436933,"is_reserved":false,"is_disabled":false,"rental_uris":{"android":"levelo://app?vid=6044dcff-6eb4-461c-91be-600815014433","ios":"levelo://app?vid=6044dcff-6eb4-461c-91be-600815014433"},"vehicle_type_id":"4","last_reported":1701951235,"current_range_meters":30400,"station_id":"ce4bhmp2rcd13ifvqgog","pricing_plan_id":"free"}]}}