{"last_updated":1753092779,"ttl":60,"version":"2.2","data":{"bikes":[{"bike_id":"53b742a7-31ae-4272-9bba-7740339e2a2f","system_id":"levelo_inurba_marseille","lat":43.33747,"lon":5.37463,"is_reserved":false,"is_disabled":false,"rental_uris":{"android":"levelo://app?vid=53b742a7-31ae-4272-9bba-7740339e2a2f","ios":"levelo://app?vid=53b742a7-31ae-4272-9bba-7740339e2a2f"},"vehicle_type_id":"1","last_reported":1753092779,"current_range_meters":6800,"station_id":"","pricing_plan_id":"cebpf4jnsgd1na2vs0mg"},{"bike_id":"55aa679c-ef7c-4be1-9335-f946e851cf8c","system_id":"levelo_inurba_marseille","lat":43.2536,"lon":5.37606,"is_reserved":false,"is_disabled":true,"rental_uris":{"android":"levelo://app?vid=55aa679c-ef7c-4be1-9335-f946e851cf8c","ios":"levelo://app?vid=55aa679c-ef7c-4be1-9335-f946e851cf8c"},"vehicle_type_id":"4","last_reported":1753092779,"current_range_meters":2800,"station_id":"","pricing_plan_id":"cebpf4jnsgd1na2vs0mg"},{"bike_id":"bb1cd7a1-464c-4c8c-b894-6306d52075e4","system_id":"levelo_inurba_marseille","lat":43.34989,"lon":5.35069,"is_reserved":false,"is_disabled":false,"rental_uris":{"android":"levelo://app?vid=bb1cd7a1-464c-4c8c-b894-6306d52075e4","ios":"levelo://app?vid=bb1cd7a1-464c-4c8c-b894-6306d52075e4"},"vehicle_type_id":"4","last_reported":1753092779,"current_range_meters":2800,"station_id":"","pricing_plan_id":"cebpf4jnsgd1na2vs0mg"},{"bike_id":"2d5426b7-c5ef-4761-9a4a-28e19dac621a","system_id":"levelo_inurba_marseille","lat":43.304119,"lon":5.412786,"is_reserved":false,"is_disabled":true,"rental_uris":{"android":"levelo://app?vid=2d5426b7-c5ef-4761-9a4a-28e19dac621a","ios":"levelo://app?vid=2d5426b7-c5ef-4761-9a4a-28e19dac621a"},"vehicle_type_id":"4","last_reported":1753092779,"current_range_meters":2800,"station_id":"ce4bhop2rcd13ifvqh8g","pricing_plan_id":"cebpf4jnsgd1na2vs0mg"},{"bike_id":"415ff839-3eb5-42b6-8141-99c745448c01","system_id":"levelo_inurba_marseille","lat":43.26568,"lon":5.3868,"is_reserved":false,"is_disabled":false,"rental_uris":{"android":"levelo://app?vid=415ff839-3eb5-42b6-8141-99c745448c01","ios":"levelo://app?vid=415ff839-3eb5-42b6-8141-99c745448c01"},"vehicle_type_id":"4","last_reported":1753092779,"current_range_meters":2800,"station_id":"","pricing_plan_id":"cebpf4jnsgd1na2vs0mg"},{"bike_id":"433415c1-acea-4306-b3ad-c55437db8988","system_id":"levelo_inurba_marseille","lat":43.29509,"lon":5.38197,"is_reserved":false,"is_disabled":false,"rental_uris":{"android":"levelo://app?vid=433415c1-acea-4306-b3ad-c55437db8988","ios":"levelo://app?vid=433415c1-acea-4306-b3ad-c55437db8988"},"vehicle_type_id":"4","last_reported":1753092779,"current_range_meters":3200,"station_id":"","pricing_plan_id":"cebpf4jnsgd1na2vs0mg"},{"bike_id":"06fcaf41-a3b3-4096-a515-28545e82af83","system_id":"levelo_inurba_marseille","lat":43.226951,"lon":5.348094,"is_reserved":false,"is_disabled":false,"rental_uris":{"android":"levelo://app?vid=06fcaf41-a3b3-4096-a515-28545e82af83","ios":"levelo://app?vid=06fcaf41-a3b3-4096-a515-28545e82af83"},"vehicle_type_id":"4","last_reported":1753092779,"current_range_meters":3200,"station_id":"st_cvj5dfep6f1abm77gieg","pricing_plan_id":"cebpf4jnsgd1na2vs0mg"},{"bike_id":"737457b3-6802-4c56-a9db-305d419702da","system_id":"levelo_inurba_marseille","lat":43.23196,"lon":5.35553,"is_reserved":false,"is_disabled":false,"rental_uris":{"android":"levelo://app?vid=737457b3-6802-4c56-a9db-305d419702da","ios":"levelo://app?vid=737457b3-6802-4c56-a9db-305d419702da"},"vehicle_type_id":"4","last_reported":1753092779,"current_range_meters":3200,"station_id":"ce4bhu92rcd13ifvqi70","pricing_plan_id":"cebpf4jnsgd1na2vs0mg"},{"bike_id":"ac141403-2eff-454e-8bd1-3d400d40ed2b","system_id":"levelo_inurba_marseille","lat":43.331129,"lon":5.400041,"is_reserved":false,"is_disabled":false,"rental_uris":{"android":"levelo://app?vid=ac141403-2eff-454e-8bd1-3d400d40ed2b","ios":"levelo://app?vid=ac141403-2eff-454e-8bd1-3d400d40ed2b"},"vehicle_type_id":"4","last_reported":1753092779,"current_range_meters":4400,"station_id":"","pricing_plan_id":"cebpf4jnsgd1na2vs0mg"},{"bike_id":"192c0fa5-c826-4847-bdd0-11edb7180ff9","system_id":"levelo_inurba_marseille","lat":43.30654,"lon":5.40082,"is_reserved":false,"is_disabled":true,"rental_uris":{"android":"levelo://app?vid=192c0fa5-c826-4847-bdd0-11edb7180ff9","ios":"levelo://app?vid=192c0fa5-c826-4847-bdd0-11edb7180ff9"},"vehicle_type_id":"4","last_reported":1753092779,"current_range_meters":4400,"station_id":"ce4bh112rcd13ifvqda0","pricing_plan_id":"cebpf4jnsgd1na2vs0mg"},{"bike_id":"751f97f2-14f5-4e36-86e6-1d3a3bc8c6ab","system_id":"levelo_inurba_marseille","lat":43.29308,"lon":5.37159,"is_reserved":false,"is_disabled":false,"rental_uris":{"android":"levelo://app?vid=751f97f2-14f5-4e36-86e6-1d3a3bc8c6ab","ios":"levelo://app?vid=751f97f2-14f5-4e36-86e6-1d3a3bc8c6ab"},"vehicle_type_id":"4","last_reported":1753092779,"current_range_meters":6400,"station_id":"ce4bgh92rcd13ifvqb40","pricing_plan_id":"cebpf4jnsgd1na2vs0mg"},{"bike_id":"0fd02cf6-67fb-4589-807f-241dd50b7e1a","system_id":"levelo_inurba_marseille","lat":43.29915,"lon":5.43677,"is_reserved":false,"is_disabled":true,"rental_uris":{"android":"levelo://app?vid=0fd02cf6-67fb-4589-807f-241dd50b7e1a","ios":"levelo://app?vid=0fd02cf6-67fb-4589-807f-241dd50b7e1a"},"vehicle_type_id":"4","last_reported":1753092779,"current_range_meters":6400,"station_id":"ce4bhpp2rcd13ifvqhfg","pricing_plan_id":"cebpf4jnsgd1na2vs0mg"},{"bike_id":"11a43a3e-2d75-4df3-ba59-43e1875d5f3e","system_id":"levelo_inurba_marseille","lat":43.241737,"lon":5.363935,"is_reserved":false,"is_disabled":false,"rental_uris":{"android":"levelo://app?vid=11a43a3e-2d75-4df3-ba59-43e1875d5f3e","ios":"levelo://app?vid=11a43a3e-2d75-4df3-ba59-43e1875d5f3e"},"vehicle_type_id":"4","last_reported":1753092779,"current_range_meters":6400,"station_id":"cpo36qri1sfpv3e86is0","pricing_plan_id":"cebpf4jnsgd1na2vs0mg"},{"bike_id":"0be3b91f-407e-46f7-aafe-92e99442e855","system_id":"levelo_inurba_marseille","lat":43.24802,"lon":5.37455,"is_reserved":false,"is_disabled":false,"rental_uris":{"android":"levelo://app?vid=0be3b91f-407e-46f7-aafe-92e99442e855","ios":"levelo://app?vid=0be3b91f-407e-46f7-aafe-92e99442e855"},"vehicle_type_id":"4","last_reported":1753092779,"current_range_meters":7200,"station_id":"ce4bhgh2rcd13ifvqfb0","pricing_plan_id":"cebpf4jnsgd1na2vs0mg"},{"bike_id":"aeb0e794-8c10-4890-8b0a-61f56f3fe522","system_id":"levelo_inurba_marseille","lat":43.308967,"lon":5.396353,"is_reserved":false,"is_disabled":false,"rental_uris":{"android":"levelo://app?vid=aeb0e794-8c10-4890-8b0a-61f56f3fe522","ios":"levelo://app?vid=aeb0e794-8c10-4890-8b0a-61f56f3fe522"},"vehicle_type_id":"4","last_reported":1753092779,"current_range_meters":7200,"station_id":"ce4bh012rcd13ifvqcv0","pricing_plan_id":"cebpf4jnsgd1na2vs0mg"},{"bike_id":"ed415a14-b4b4-4caf-8a06-7fd1c907bac5","system_id":"levelo_inurba_marseille","lat":43.21517,"lon":5.34644,"is_reserved":false,"is_disabled":false,"rental_uris":{"android":"levelo://app?vid=ed415a14-b4b4-4caf-8a06-7fd1c907bac5","ios":"levelo://app?vid=ed415a14-b4b4-4caf-8a06-7fd1c907bac5"},"vehicle_type_id":"4","last_reported":1753092779,"current_range_meters":7200,"station_id":"","pricing_plan_id":"cebpf4jnsgd1na2vs0mg"},{"bike_id":"81190bdb-f124-491e-ae71-a6ad1f3c1c58","system_id":"levelo_inurba_marseille","lat":43.24393,"lon":5.37054,"is_reserved":false,"is_disabled":false,"rental_uris":{"android":"levelo://app?vid=81190bdb-f124-491e-ae71-a6ad1f3c1c58","ios":"levelo://app?vid=81190bdb-f124-491e-ae71-a6ad1f3c1c58"},"vehicle_type_id":"4","last_reported":1753092779,"current_range_meters":7200,"station_id":"ce4bhhh2rcd13ifvqfk0","pricing_plan_id":"cebpf4jnsgd1na2vs0mg"},{"bike_id":"793e387b-3d17-4d7f-80e2-2632dc4c4506","system_id":"levelo_inurba_marseille","lat":43.24167,"lon":5.39719,"is_reserved":false,"is_disabled":true,"rental_uris":{"android":"levelo://app?vid=793e387b-3d17-4d7f-80e2-2632dc4c4506","ios":"levelo://app?vid=793e387b-3d17-4d7f-80e2-2632dc4c4506"},"vehicle_type_id":"4","last_reported":1753092779,"current_range_meters":8000,"station_id":"ce4bhn12rcd13ifvqgpg","pricing_plan_id":"cebpf4jnsgd1na2vs0mg"},{"bike_id":"a6de290b-5c15-427b-bc37-8301607e1735","system_id":"levelo_inurba_marseille","lat":43.337444,"lon":5.374475,"is_reserved":false,"is_disabled":false,"rental_uris":{"android":"levelo://app?vid=a6de290b-5c15-427b-bc37-8301607e1735","ios":"levelo://app?vid=a6de290b-5c15-427b-bc37-8301607e1735"},"vehicle_type_id":"4","last_reported":1753092779,"current_range_meters":8000,"station_id":"","pricing_plan_id":"cebpf4jnsgd1na2vs0mg"},{"bike_id":"27eff7ae-72a6-4a81-a488-3014071d5e47","system_id":"levelo_inurba_marseille","lat":43.25584,"lon":5.38232,"is_reserved":false,"is_disabled":false,"rental_uris":{"android":"levelo://app?vid=27eff7ae-72a6-4a81-a488-3014071d5e47","ios":"levelo://app?vid=27eff7ae-72a6-4a81-a488-3014071d5e47"},"vehicle_type_id":"4","last_reported":1753092779,"current_range_meters":8000,"station_id":"ce4bhih2rcd13ifvqfs0","pricing_plan_id":"cebpf4jnsgd1na2vs0mg"},{"bike_id":"6834b706-a618-40f6-8722-8e5e5439ff2c","system_id":"levelo_inurba_marseille","lat":43.217494,"lon":5.34598,"is_reserved":false,"is_disabled":false,"rental_uris":{"android":"levelo://app?vid=6834b706-a618-40f6-8722-8e5e5439ff2c","ios":"levelo://app?vid=6834b706-a618-40f6-8722-8e5e5439ff2c"},"vehicle_type_id":"4","last_reported":1753092779,"current_range_meters":8400,"station_id":"st_cvj6r9ubvosntc0bgbag","pricing_plan_id":"cebpf4jnsgd1na2vs0mg"},{"bike_id":"f18952d9-de72-4b00-ac50-ca46d1bc16b9","system_id":"levelo_inurba_marseille","lat":43.21186,"lon":5.3509,"is_reserved":false,"is_disabled":false,"rental_uris":{"android":"levelo://app?vid=f18952d9-de72-4b00-ac50-ca46d1bc16b9","ios":"levelo://app?vid=f18952d9-de72-4b00-ac50-ca46d1bc16b9"},"vehicle_type_id":"4","last_reported":1753092779,"current_range_meters":8400,"station_id":"st_cvj6sg6p6f1abm77japg","pricing_plan_id":"cebpf4jnsgd1na2vs0mg"},{"bike_id":"ec56498c-7315-46d2-8779-4f1d12c61dba","system_id":"levelo_inurba_marseille","lat":43.26737,"lon":5.37802,"is_reserved":false,"is_disabled":false,"rental_uris":{"android":"levelo://app?vid=ec56498c-7315-46d2-8779-4f1d12c61dba","ios":"levelo://app?vid=ec56498c-7315-46d2-8779-4f1d12c61dba"},"vehicle_type_id":"4","last_reported":1753092779,"current_range_meters":8800,"station_id":"","pricing_plan_id":"cebpf4jnsgd1na2vs0mg"},{"bike_id":"e4b35d68-ab9d-4d91-b883-4d6572ae325e","system_id":"levelo_inurba_marseille","lat":43.2797,"lon":5.38748,"is_reserved":false,"is_disabled":false,"rental_uris":{"android":"levelo://app?vid=e4b35d68-ab9d-4d91-b883-4d6572ae325e","ios":"levelo://app?vid=e4b35d68-ab9d-4d91-b883-4d6572ae325e"},"vehicle_type_id":"4","last_reported":1753092779,"current_range_meters":8800,"station_id":"ce4bhg12rcd13ifvqf80","pricing_plan_id":"cebpf4jnsgd1na2vs0mg"},{"bike_id":"5e006c04-c51e-4fb9-95a2-ffcd80f7f0a7","system_id":"levelo_inurba_marseille","lat":43.24666,"lon":5.38162,"is_reserved":false,"is_disabled":false,"rental_uris":{"android":"levelo://app?vid=5e006c04-c51e-4fb9-95a2-ffcd80f7f0a7","ios":"levelo://app?vid=5e006c04-c51e-4fb9-95a2-ffcd80f7f0a7"},"vehicle_type_id":"4","last_reported":1753092779,"current_range_meters":9200,"station_id":"ce4bhih2rcd13ifvqfr0","pricing_plan_id":"cebpf4jnsgd1na2vs0mg"},{"bike_id":"9036d315-4723-4cdd-9f68-856fe767f9c3","system_id":"levelo_inurba_marseille","lat":43.33166,"lon":5.38158,"is_reserved":false,"is_disabled":false,"rental_uris":{"android":"levelo://app?vid=9036d315-4723-4cdd-9f68-856fe767f9c3","ios":"levelo://app?vid=9036d315-4723-4cdd-9f68-856fe767f9c3"},"vehicle_type_id":"4","last_reported":1753092779,"current_range_meters":9200,"station_id":"","pricing_plan_id":"cebpf4jnsgd1na2vs0mg"},{"bike_id":"6cc0785c-f91e-4848-acc3-c064dfd4bdf7","system_id":"levelo_inurba_marseille","lat":43.27619,"lon":5.36108,"is_reserved":false,"is_disabled":false,"rental_uris":{"android":"levelo://app?vid=6cc0785c-f91e-4848-acc3-c064dfd4bdf7","ios":"levelo://app?vid=6cc0785c-f91e-4848-acc3-c064dfd4bdf7"},"vehicle_type_id":"4","last_reported":1753092779,"current_range_meters":9200,"station_id":"ce4bgj92rcd13ifvqbe0","pricing_plan_id":"cebpf4jnsgd1na2vs0mg"},{"bike_id":"47801713-f458-4eb8-b6bd-ca32b09d4d87","system_id":"levelo_inurba_marseille","lat":43.30262,"lon":5.37724,"is_reserved":false,"is_disabled":false,"rental_uris":{"android":"levelo://app?vid=47801713-f458-4eb8-b6bd-ca32b09d4d87","ios":"levelo://app?vid=47801713-f458-4eb8-b6bd-ca32b09d4d87"},"vehicle_type_id":"4","last_reported":1753092779,"current_range_meters":9200,"station_id":"ce4bguh2rcd13ifvqcj0","pricing_plan_id":"cebpf4jnsgd1na2vs0mg"},{"bike_id":"63b0b856-af33-4970-b22e-c07117f2395e","system_id":"levelo_inurba_marseille","lat":43.21211,"lon":5.35087,"is_reserved":false,"is_disabled":false,"rental_uris":{"android":"levelo://app?vid=63b0b856-af33-4970-b22e-c07117f2395e","ios":"levelo://app?vid=63b0b856-af33-4970-b22e-c07117f2395e"},"vehicle_type_id":"4","last_reported":1753092779,"current_range_meters":9600,"station_id":"st_cvj6sg6p6f1abm77japg","pricing_plan_id":"cebpf4jnsgd1na2vs0mg"},{"bike_id":"b6bc223e-0ea6-4154-9022-eff88ae7e4a5","system_id":"levelo_inurba_marseille","lat":43.27373,"lon":5.36265,"is_reserved":false,"is_disabled":false,"rental_uris":{"android":"levelo://app?vid=b6bc223e-0ea6-4154-9022-eff88ae7e4a5","ios":"levelo://app?vid=b6bc223e-0ea6-4154-9022-eff88ae7e4a5"},"vehicle_type_id":"4","last_reported":1753092779,"current_range_meters":9600,"station_id":"ce4bhbh2rcd13ifvqeo0","pricing_plan_id":"cebpf4jnsgd1na2vs0mg"},{"bike_id":"52a09432-883f-465b-b54f-746e87888ccf","system_id":"levelo_inurba_marseille","lat":43.32478,"lon":5.36587,"is_reserved":false,"is_disabled":false,"rental_uris":{"android":"levelo://app?vid=52a09432-883f-465b-b54f-746e87888ccf","ios":"levelo://app?vid=52a09432-883f-465b-b54f-746e87888ccf"},"vehicle_type_id":"4","last_reported":1753092779,"current_range_meters":10000,"station_id":"ce4bhs12rcd13ifvqhvg","pricing_plan_id":"cebpf4jnsgd1na2vs0mg"},{"bike_id":"b9d2f6b1-2316-4e08-a5d8-0d15d3bb3c6d","system_id":"levelo_inurba_marseille","lat":43.27433,"lon":5.38774,"is_reserved":false,"is_disabled":true,"rental_uris":{"android":"levelo://app?vid=b9d2f6b1-2316-4e08-a5d8-0d15d3bb3c6d","ios":"levelo://app?vid=b9d2f6b1-2316-4e08-a5d8-0d15d3bb3c6d"},"vehicle_type_id":"4","last_reported":1753092779,"current_range_meters":10000,"station_id":"","pricing_plan_id":"cebpf4jnsgd1na2vs0mg"},{"bike_id":"cfd7c1d9-7bcd-4971-afe4-64d706646a62","system_id":"levelo_inurba_marseille","lat":43.32368,"lon":5.36763,"is_reserved":false,"is_disabled":false,"rental_uris":{"android":"levelo://app?vid=cfd7c1d9-7bcd-4971-afe4-64d706646a62","ios":"levelo://app?vid=cfd7c1d9-7bcd-4971-afe4-64d706646a62"},"vehicle_type_id":"4","last_reported":1753092779,"current_range_meters":10000,"station_id":"ce4bhsh2rcd13ifvqi2g","pricing_plan_id":"cebpf4jnsgd1na2vs0mg"},{"bike_id":"d73f155c-efdb-4286-b5c7-5cca8c6dda7e","system_id":"levelo_inurba_marseille","lat":43.30623,"lon":5.3735,"is_reserved":false,"is_disabled":false,"rental_uris":{"android":"levelo://app?vid=d73f155c-efdb-4286-b5c7-5cca8c6dda7e","ios":"levelo://app?vid=d73f155c-efdb-4286-b5c7-5cca8c6dda7e"},"vehicle_type_id":"4","last_reported":1753092779,"current_range_meters":10800,"station_id":"","pricing_plan_id":"cebpf4jnsgd1na2vs0mg"},{"bike_id":"696c5e5f-ee49-4cdd-b0d3-ceab6c87d298","system_id":"levelo_inurba_marseille","lat":43.32115,"lon":5.36816,"is_reserved":false,"is_disabled":false,"rental_uris":{"android":"levelo://app?vid=696c5e5f-ee49-4cdd-b0d3-ceab6c87d298","ios":"levelo://app?vid=696c5e5f-ee49-4cdd-b0d3-ceab6c87d298"},"vehicle_type_id":"4","last_reported":1753092779,"current_range_meters":10800,"station_id":"ce4bhrh2rcd13ifvqhug","pricing_plan_id":"cebpf4jnsgd1na2vs0mg"},{"bike_id":"0f07c0e6-8028-4fab-9691-a2c5085cf8ec","system_id":"levelo_inurba_marseille","lat":43.32367,"lon":5.38887,"is_reserved":false,"is_disabled":false,"rental_uris":{"android":"levelo://app?vid=0f07c0e6-8028-4fab-9691-a2c5085cf8ec","ios":"levelo://app?vid=0f07c0e6-8028-4fab-9691-a2c5085cf8ec"},"vehicle_type_id":"4","last_reported":1753092779,"current_range_meters":10800,"station_id":"ce4bhqp2rcd13ifvqhog","pricing_plan_id":"cebpf4jnsgd1na2vs0mg"},{"bike_id":"8b70e333-db95-4dad-9f25-3f58617e52f2","system_id":"levelo_inurba_marseille","lat":43.29903,"lon":5.43672,"is_reserved":false,"is_disabled":false,"rental_uris":{"android":"levelo://app?vid=8b70e333-db95-4dad-9f25-3f58617e52f2","ios":"levelo://app?vid=8b70e333-db95-4dad-9f25-3f58617e52f2"},"vehicle_type_id":"4","last_reported":1753092779,"current_range_meters":10800,"station_id":"ce4bhpp2rcd13ifvqhfg","pricing_plan_id":"cebpf4jnsgd1na2vs0mg"},{"bike_id":"dee6628b-f370-478a-a4db-32c84542aee7","system_id":"levelo_inurba_marseille","lat":43.332796,"lon":5.390139,"is_reserved":false,"is_disabled":false,"rental_uris":{"android":"levelo://app?vid=dee6628b-f370-478a-a4db-32c84542aee7","ios":"levelo://app?vid=dee6628b-f370-478a-a4db-32c84542aee7"},"vehicle_type_id":"4","last_reported":1753092779,"current_range_meters":10800,"station_id":"","pricing_plan_id":"cebpf4jnsgd1na2vs0mg"},{"bike_id":"55d146d3-02f0-4b29-8693-515fe6a59e05","system_id":"levelo_inurba_marseille","lat":43.21198,"lon":5.3507,"is_reserved":false,"is_disabled":false,"rental_uris":{"android":"levelo://app?vid=55d146d3-02f0-4b29-8693-515fe6a59e05","ios":"levelo://app?vid=55d146d3-02f0-4b29-8693-515fe6a59e05"},"vehicle_type_id":"4","last_reported":1753092779,"current_range_meters":11200,"station_id":"st_cvj6sg6p6f1abm77japg","pricing_plan_id":"cebpf4jnsgd1na2vs0mg"},{"bike_id":"7f8f005e-3847-4fc7-815d-00dc0957d971","system_id":"levelo_inurba_marseille","lat":43.29262,"lon":5.3762,"is_reserved":false,"is_disabled":false,"rental_uris":{"android":"levelo://app?vid=7f8f005e-3847-4fc7-815d-00dc0957d971","ios":"levelo://app?vid=7f8f005e-3847-4fc7-815d-00dc0957d971"},"vehicle_type_id":"4","last_reported":1753092779,"current_range_meters":11200,"station_id":"ce4bgi12rcd13ifvqb80","pricing_plan_id":"cebpf4jnsgd1na2vs0mg"},{"bike_id":"37d8cb1b-1988-4390-9e4c-4eca73c82c19","system_id":"levelo_inurba_marseille","lat":43.26196,"lon":5.37446,"is_reserved":false,"is_disabled":true,"rental_uris":{"android":"levelo://app?vid=37d8cb1b-1988-4390-9e4c-4eca73c82c19","ios":"levelo://app?vid=37d8cb1b-1988-4390-9e4c-4eca73c82c19"},"vehicle_type_id":"4","last_reported":1753092779,"current_range_meters":11200,"station_id":"ce4bhgp2rcd13ifvqfc0","pricing_plan_id":"cebpf4jnsgd1na2vs0mg"},{"bike_id":"eb240428-00e7-472b-91f5-4bf4c52fb633","system_id":"levelo_inurba_marseille","lat":43.26222,"lon":5.37954,"is_reserved":false,"is_disabled":false,"rental_uris":{"android":"levelo://app?vid=eb240428-00e7-472b-91f5-4bf4c52fb633","ios":"levelo://app?vid=eb240428-00e7-472b-91f5-4bf4c52fb633"},"vehicle_type_id":"4","last_reported":1753092779,"current_range_meters":11600,"station_id":"ce4bhjp2rcd13ifvqg90","pricing_plan_id":"cebpf4jnsgd1na2vs0mg"},{"bike_id":"45e3d02a-f98f-447d-b117-607fe0f2f395","system_id":"levelo_inurba_marseille","lat":43.29277,"lon":5.36844,"is_reserved":false,"is_disabled":false,"rental_uris":{"android":"levelo://app?vid=45e3d02a-f98f-447d-b117-607fe0f2f395","ios":"levelo://app?vid=45e3d02a-f98f-447d-b117-607fe0f2f395"},"vehicle_type_id":"4","last_reported":1753092779,"current_range_meters":11600,"station_id":"ce4bhbp2rcd13ifvqesg","pricing_plan_id":"cebpf4jnsgd1na2vs0mg"},{"bike_id":"53cb4f43-b1af-4efe-9f40-e0338804f4d4","system_id":"levelo_inurba_marseille","lat":43.31284,"lon":5.39044,"is_reserved":false,"is_disabled":false,"rental_uris":{"android":"levelo://app?vid=53cb4f43-b1af-4efe-9f40-e0338804f4d4","ios":"levelo://app?vid=53cb4f43-b1af-4efe-9f40-e0338804f4d4"},"vehicle_type_id":"4","last_reported":1753092779,"current_range_meters":11600,"station_id":"","pricing_plan_id":"cebpf4jnsgd1na2vs0mg"},{"bike_id":"c3414a35-1c78-4bad-a79f-4bc8d26c1e55","system_id":"levelo_inurba_marseille","lat":43.25,"lon":5.38936,"is_reserved":false,"is_disabled":false,"rental_uris":{"android":"levelo://app?vid=c3414a35-1c78-4bad-a79f-4bc8d26c1e55","ios":"levelo://app?vid=c3414a35-1c78-4bad-a79f-4bc8d26c1e55"},"vehicle_type_id":"4","last_reported":1753092779,"current_range_meters":11600,"station_id":"ce4bhgp2rcd13ifvqfd0","pricing_plan_id":"cebpf4jnsgd1na2vs0mg"},{"bike_id":"89954574-8c17-4192-a9ff-7a3c7f4c8faa","system_id":"levelo_inurba_marseille","lat":43.27997,"lon":5.40023,"is_reserved":false,"is_disabled":false,"rental_uris":{"android":"levelo://app?vid=89954574-8c17-4192-a9ff-7a3c7f4c8faa","ios":"levelo://app?vid=89954574-8c17-4192-a9ff-7a3c7f4c8faa"},"vehicle_type_id":"4","last_reported":1753092779,"current_range_meters":11600,"station_id":"ce4bho92rcd13ifvqh4g","pricing_plan_id":"cebpf4jnsgd1na2vs0mg"},{"bike_id":"736c363b-3641-43dd-b890-bd43d8fd5283","system_id":"levelo_inurba_marseille","lat":43.21656,"lon":5.34631,"is_reserved":false,"is_disabled":false,"rental_uris":{"android":"levelo://app?vid=736c363b-3641-43dd-b890-bd43d8fd5283","ios":"levelo://app?vid=736c363b-3641-43dd-b890-bd43d8fd5283"},"vehicle_type_id":"4","last_reported":1753092779,"current_range_meters":12000,"station_id":"","pricing_plan_id":"cebpf4jnsgd1na2vs0mg"},{"bike_id":"341eec4e-ddcf-4f75-95c6-ecd84ef432ec","system_id":"levelo_inurba_marseille","lat":43.22934,"lon":5.35378,"is_reserved":false,"is_disabled":false,"rental_uris":{"android":"levelo://app?vid=341eec4e-ddcf-4f75-95c6-ecd84ef432ec","ios":"levelo://app?vid=341eec4e-ddcf-4f75-95c6-ecd84ef432ec"},"vehicle_type_id":"4","last_reported":1753092779,"current_range_meters":12000,"station_id":"cpo3532slgdg3j2ikp40","pricing_plan_id":"cebpf4jnsgd1na2vs0mg"},{"bike_id":"0b55c746-5a1d-4c2e-a8b5-dc3659c3d86e","system_id":"levelo_inurba_marseille","lat":43.30159,"lon":5.38089,"is_reserved":false,"is_disabled":false,"rental_uris":{"android":"levelo://app?vid=0b55c746-5a1d-4c2e-a8b5-dc3659c3d86e","ios":"levelo://app?vid=0b55c746-5a1d-4c2e-a8b5-dc3659c3d86e"},"vehicle_type_id":"4","last_reported":1753092779,"current_range_meters":12000,"station_id":"ce4bgjp2rcd13ifvqbh0","pricing_plan_id":"cebpf4jnsgd1na2vs0mg"},{"bike_id":"0cb2c80a-7457-4a4a-ad92-f0361b5225d6","system_id":"levelo_inurba_marseille","lat":43.24413,"lon":5.37413,"is_reserved":false,"is_disabled":false,"rental_uris":{"android":"levelo://app?vid=0cb2c80a-7457-4a4a-ad92-f0361b5225d6","ios":"levelo://app?vid=0cb2c80a-7457-4a4a-ad92-f0361b5225d6"},"vehicle_type_id":"4","last_reported":1753092779,"current_range_meters":12000,"station_id":"","pricing_plan_id":"cebpf4jnsgd1na2vs0mg"},{"bike_id":"4e5823ac-9313-4e20-81da-720a18c2dac7","system_id":"levelo_inurba_marseille","lat":43.321141,"lon":5.367686,"is_reserved":false,"is_disabled":false,"rental_uris":{"android":"levelo://app?vid=4e5823ac-9313-4e20-81da-720a18c2dac7","ios":"levelo://app?vid=4e5823ac-9313-4e20-81da-720a18c2dac7"},"vehicle_type_id":"4","last_reported":1753092779,"current_range_meters":12000,"station_id":"ce4bhrh2rcd13ifvqhug","pricing_plan_id":"cebpf4jnsgd1na2vs0mg"},{"bike_id":"b29e2d14-59cb-4e3a-a7d7-249c735e0321","system_id":"levelo_inurba_marseille","lat":43.24172,"lon":5.3641,"is_reserved":false,"is_disabled":false,"rental_uris":{"android":"levelo://app?vid=b29e2d14-59cb-4e3a-a7d7-249c735e0321","ios":"levelo://app?vid=b29e2d14-59cb-4e3a-a7d7-249c735e0321"},"vehicle_type_id":"4","last_reported":1753092779,"current_range_meters":12400,"station_id":"cpo36qri1sfpv3e86is0","pricing_plan_id":"cebpf4jnsgd1na2vs0mg"},{"bike_id":"4c8283f7-9214-4f90-b93f-b371d5ff3abb","system_id":"levelo_inurba_marseille","lat":43.21209,"lon":5.35071,"is_reserved":false,"is_disabled":false,"rental_uris":{"android":"levelo://app?vid=4c8283f7-9214-4f90-b93f-b371d5ff3abb","ios":"levelo://app?vid=4c8283f7-9214-4f90-b93f-b371d5ff3abb"},"vehicle_type_id":"4","last_reported":1753092779,"current_range_meters":12400,"station_id":"st_cvj6sg6p6f1abm77japg","pricing_plan_id":"cebpf4jnsgd1na2vs0mg"},{"bike_id":"021a6def-3a41-4cab-88f2-7a29e5fd01ad","system_id":"levelo_inurba_marseille","lat":43.31696,"lon":5.4047,"is_reserved":false,"is_disabled":false,"rental_uris":{"android":"levelo://app?vid=021a6def-3a41-4cab-88f2-7a29e5fd01ad","ios":"levelo://app?vid=021a6def-3a41-4cab-88f2-7a29e5fd01ad"},"vehicle_type_id":"4","last_reported":1753092779,"current_range_meters":12400,"station_id":"ce4bh012rcd13ifvqd00","pricing_plan_id":"cebpf4jnsgd1na2vs0mg"},{"bike_id":"43e703c6-9907-49a0-ac06-2809026f4383","system_id":"levelo_inurba_marseille","lat":43.225022,"lon":5.347875,"is_reserved":false,"is_disabled":false,"rental_uris":{"android":"levelo://app?vid=43e703c6-9907-49a0-ac06-2809026f4383","ios":"levelo://app?vid=43e703c6-9907-49a0-ac06-2809026f4383"},"vehicle_type_id":"4","last_reported":1753092779,"current_range_meters":12400,"station_id":"st_cvj5dfep6f1abm77gieg","pricing_plan_id":"cebpf4jnsgd1na2vs0mg"},{"bike_id":"33efb4f9-d86e-41cf-a043-b91b3b78de43","system_id":"levelo_inurba_marseille","lat":43.27618,"lon":5.36118,"is_reserved":false,"is_disabled":false,"rental_uris":{"android":"levelo://app?vid=33efb4f9-d86e-41cf-a043-b91b3b78de43","ios":"levelo://app?vid=33efb4f9-d86e-41cf-a043-b91b3b78de43"},"vehicle_type_id":"4","last_reported":1753092779,"current_range_meters":12800,"station_id":"ce4bgj92rcd13ifvqbe0","pricing_plan_id":"cebpf4jnsgd1na2vs0mg"},{"bike_id":"61544ea3-a0b6-4fb1-9f76-fa48ec8fc6a3","system_id":"levelo_inurba_marseille","lat":43.302781,"lon":5.376996,"is_reserved":false,"is_disabled":false,"rental_uris":{"android":"levelo://app?vid=61544ea3-a0b6-4fb1-9f76-fa48ec8fc6a3","ios":"levelo://app?vid=61544ea3-a0b6-4fb1-9f76-fa48ec8fc6a3"},"vehicle_type_id":"4","last_reported":1753092779,"current_range_meters":12800,"station_id":"ce4bguh2rcd13ifvqcj0","pricing_plan_id":"cebpf4jnsgd1na2vs0mg"},{"bike_id":"c8b20505-5292-4f3c-ac3b-9f4b657aea72","system_id":"levelo_inurba_marseille","lat":43.284036,"lon":5.375055,"is_reserved":false,"is_disabled":false,"rental_uris":{"android":"levelo://app?vid=c8b20505-5292-4f3c-ac3b-9f4b657aea72","ios":"levelo://app?vid=c8b20505-5292-4f3c-ac3b-9f4b657aea72"},"vehicle_type_id":"4","last_reported":1753092779,"current_range_meters":12800,"station_id":"","pricing_plan_id":"cebpf4jnsgd1na2vs0mg"},{"bike_id":"7230cb4d-8cd2-4957-9d99-c27265ab6ce1","system_id":"levelo_inurba_marseille","lat":43.29299,"lon":5.37168,"is_reserved":false,"is_disabled":false,"rental_uris":{"android":"levelo://app?vid=7230cb4d-8cd2-4957-9d99-c27265ab6ce1","ios":"levelo://app?vid=7230cb4d-8cd2-4957-9d99-c27265ab6ce1"},"vehicle_type_id":"4","last_reported":1753092779,"current_range_meters":12800,"station_id":"","pricing_plan_id":"cebpf4jnsgd1na2vs0mg"},{"bike_id":"4e2c33bb-8340-474b-9fa3-47ce35fb07e0","system_id":"levelo_inurba_marseille","lat":43.2962,"lon":5.37168,"is_reserved":false,"is_disabled":false,"rental_uris":{"android":"levelo://app?vid=4e2c33bb-8340-474b-9fa3-47ce35fb07e0","ios":"levelo://app?vid=4e2c33bb-8340-474b-9fa3-47ce35fb07e0"},"vehicle_type_id":"4","last_reported":1753092779,"current_range_meters":13600,"station_id":"ce4bgnh2rcd13ifvqc0g","pricing_plan_id":"cebpf4jnsgd1na2vs0mg"},{"bike_id":"aeb05647-629d-47d6-9467-0ae46677fad2","system_id":"levelo_inurba_marseille","lat":43.24654,"lon":5.3817,"is_reserved":false,"is_disabled":false,"rental_uris":{"android":"levelo://app?vid=aeb05647-629d-47d6-9467-0ae46677fad2","ios":"levelo://app?vid=aeb05647-629d-47d6-9467-0ae46677fad2"},"vehicle_type_id":"4","last_reported":1753092779,"current_range_meters":13600,"station_id":"ce4bhih2rcd13ifvqfr0","pricing_plan_id":"cebpf4jnsgd1na2vs0mg"},{"bike_id":"7f1d66c5-d833-4e02-b9b6-4d8e03e8956b","system_id":"levelo_inurba_marseille","lat":43.25823,"lon":5.39435,"is_reserved":false,"is_disabled":false,"rental_uris":{"android":"levelo://app?vid=7f1d66c5-d833-4e02-b9b6-4d8e03e8956b","ios":"levelo://app?vid=7f1d66c5-d833-4e02-b9b6-4d8e03e8956b"},"vehicle_type_id":"4","last_reported":1753092779,"current_range_meters":13600,"station_id":"ce4bhip2rcd13ifvqft0","pricing_plan_id":"cebpf4jnsgd1na2vs0mg"},{"bike_id":"23303f98-3b50-4c0d-8df6-2f0a1ae62117","system_id":"levelo_inurba_marseille","lat":43.30147,"lon":5.38075,"is_reserved":false,"is_disabled":false,"rental_uris":{"android":"levelo://app?vid=23303f98-3b50-4c0d-8df6-2f0a1ae62117","ios":"levelo://app?vid=23303f98-3b50-4c0d-8df6-2f0a1ae62117"},"vehicle_type_id":"4","last_reported":1753092779,"current_range_meters":14000,"station_id":"ce4bgjp2rcd13ifvqbh0","pricing_plan_id":"cebpf4jnsgd1na2vs0mg"},{"bike_id":"3a8a7d57-e6ee-4774-8004-16c6e9b32acb","system_id":"levelo_inurba_marseille","lat":43.263094,"lon":5.4046,"is_reserved":false,"is_disabled":false,"rental_uris":{"android":"levelo://app?vid=3a8a7d57-e6ee-4774-8004-16c6e9b32acb","ios":"levelo://app?vid=3a8a7d57-e6ee-4774-8004-16c6e9b32acb"},"vehicle_type_id":"4","last_reported":1753092779,"current_range_meters":14000,"station_id":"ce4bhk92rcd13ifvqgc0","pricing_plan_id":"cebpf4jnsgd1na2vs0mg"},{"bike_id":"01ef6f38-0cb9-4831-9c9a-0f76f326e484","system_id":"levelo_inurba_marseille","lat":43.29003,"lon":5.35616,"is_reserved":false,"is_disabled":false,"rental_uris":{"android":"levelo://app?vid=01ef6f38-0cb9-4831-9c9a-0f76f326e484","ios":"levelo://app?vid=01ef6f38-0cb9-4831-9c9a-0f76f326e484"},"vehicle_type_id":"4","last_reported":1753092779,"current_range_meters":14000,"station_id":"ce4bhb92rcd13ifvqen0","pricing_plan_id":"cebpf4jnsgd1na2vs0mg"},{"bike_id":"3d36c590-bfb3-4f3d-a821-3b0275041fa7","system_id":"levelo_inurba_marseille","lat":43.304224,"lon":5.413018,"is_reserved":false,"is_disabled":false,"rental_uris":{"android":"levelo://app?vid=3d36c590-bfb3-4f3d-a821-3b0275041fa7","ios":"levelo://app?vid=3d36c590-bfb3-4f3d-a821-3b0275041fa7"},"vehicle_type_id":"4","last_reported":1753092779,"current_range_meters":14000,"station_id":"ce4bhop2rcd13ifvqh8g","pricing_plan_id":"cebpf4jnsgd1na2vs0mg"},{"bike_id":"d2a9ef2a-3ecf-454e-ac8d-c81b3a196753","system_id":"levelo_inurba_marseille","lat":43.28623,"lon":5.3822,"is_reserved":false,"is_disabled":false,"rental_uris":{"android":"levelo://app?vid=d2a9ef2a-3ecf-454e-ac8d-c81b3a196753","ios":"levelo://app?vid=d2a9ef2a-3ecf-454e-ac8d-c81b3a196753"},"vehicle_type_id":"4","last_reported":1753092779,"current_range_meters":14000,"station_id":"","pricing_plan_id":"cebpf4jnsgd1na2vs0mg"},{"bike_id":"c3108234-85f0-454a-b0a6-60fa8653d492","system_id":"levelo_inurba_marseille","lat":43.270723,"lon":5.4227,"is_reserved":false,"is_disabled":false,"rental_uris":{"android":"levelo://app?vid=c3108234-85f0-454a-b0a6-60fa8653d492","ios":"levelo://app?vid=c3108234-85f0-454a-b0a6-60fa8653d492"},"vehicle_type_id":"4","last_reported":1753092779,"current_range_meters":14000,"station_id":"ce4bhk92rcd13ifvqgb0","pricing_plan_id":"cebpf4jnsgd1na2vs0mg"},{"bike_id":"52fc553f-1e8c-4701-a604-31e90c76b1d4","system_id":"levelo_inurba_marseille","lat":43.31492,"lon":5.37276,"is_reserved":false,"is_disabled":false,"rental_uris":{"android":"levelo://app?vid=52fc553f-1e8c-4701-a604-31e90c76b1d4","ios":"levelo://app?vid=52fc553f-1e8c-4701-a604-31e90c76b1d4"},"vehicle_type_id":"4","last_reported":1753092779,"current_range_meters":14400,"station_id":"ce4bgt12rcd13ifvqcd0","pricing_plan_id":"cebpf4jnsgd1na2vs0mg"},{"bike_id":"4f5a4cb8-34e9-402d-97fa-986ec5e74bb1","system_id":"levelo_inurba_marseille","lat":43.2623,"lon":5.40451,"is_reserved":false,"is_disabled":false,"rental_uris":{"android":"levelo://app?vid=4f5a4cb8-34e9-402d-97fa-986ec5e74bb1","ios":"levelo://app?vid=4f5a4cb8-34e9-402d-97fa-986ec5e74bb1"},"vehicle_type_id":"4","last_reported":1753092779,"current_range_meters":14800,"station_id":"ce4bhmh2rcd13ifvqgmg","pricing_plan_id":"cebpf4jnsgd1na2vs0mg"},{"bike_id":"a814ed38-077a-47fb-8ea7-b282574023a6","system_id":"levelo_inurba_marseille","lat":43.31123,"lon":5.37767,"is_reserved":false,"is_disabled":false,"rental_uris":{"android":"levelo://app?vid=a814ed38-077a-47fb-8ea7-b282574023a6","ios":"levelo://app?vid=a814ed38-077a-47fb-8ea7-b282574023a6"},"vehicle_type_id":"4","last_reported":1753092779,"current_range_meters":15200,"station_id":"ce4bgt92rcd13ifvqcg0","pricing_plan_id":"cebpf4jnsgd1na2vs0mg"},{"bike_id":"ac49738a-4d4f-43d3-9c67-46980e61ae95","system_id":"levelo_inurba_marseille","lat":43.317261,"lon":5.376672,"is_reserved":false,"is_disabled":false,"rental_uris":{"android":"levelo://app?vid=ac49738a-4d4f-43d3-9c67-46980e61ae95","ios":"levelo://app?vid=ac49738a-4d4f-43d3-9c67-46980e61ae95"},"vehicle_type_id":"4","last_reported":1753092779,"current_range_meters":15200,"station_id":"","pricing_plan_id":"cebpf4jnsgd1na2vs0mg"},{"bike_id":"5a42e90a-94ef-4a1b-b43d-3c279f1b53e1","system_id":"levelo_inurba_marseille","lat":43.23187,"lon":5.35574,"is_reserved":false,"is_disabled":false,"rental_uris":{"android":"levelo://app?vid=5a42e90a-94ef-4a1b-b43d-3c279f1b53e1","ios":"levelo://app?vid=5a42e90a-94ef-4a1b-b43d-3c279f1b53e1"},"vehicle_type_id":"4","last_reported":1753092779,"current_range_meters":15200,"station_id":"ce4bhu92rcd13ifvqi70","pricing_plan_id":"cebpf4jnsgd1na2vs0mg"},{"bike_id":"8ec3987c-4e5e-4f67-aba7-96e36709e826","system_id":"levelo_inurba_marseille","lat":43.32737,"lon":5.409083,"is_reserved":false,"is_disabled":false,"rental_uris":{"android":"levelo://app?vid=8ec3987c-4e5e-4f67-aba7-96e36709e826","ios":"levelo://app?vid=8ec3987c-4e5e-4f67-aba7-96e36709e826"},"vehicle_type_id":"4","last_reported":1753092779,"current_range_meters":15200,"station_id":"","pricing_plan_id":"cebpf4jnsgd1na2vs0mg"},{"bike_id":"19665075-1169-45a7-af41-9f1c346d2c17","system_id":"levelo_inurba_marseille","lat":43.23956,"lon":5.3663,"is_reserved":false,"is_disabled":false,"rental_uris":{"android":"levelo://app?vid=19665075-1169-45a7-af41-9f1c346d2c17","ios":"levelo://app?vid=19665075-1169-45a7-af41-9f1c346d2c17"},"vehicle_type_id":"4","last_reported":1753092779,"current_range_meters":16000,"station_id":"ce4bhi12rcd13ifvqfp0","pricing_plan_id":"cebpf4jnsgd1na2vs0mg"},{"bike_id":"b7e0d1c7-c592-40ed-8a46-5c539fa1d393","system_id":"levelo_inurba_marseille","lat":43.301342,"lon":5.398634,"is_reserved":false,"is_disabled":false,"rental_uris":{"android":"levelo://app?vid=b7e0d1c7-c592-40ed-8a46-5c539fa1d393","ios":"levelo://app?vid=b7e0d1c7-c592-40ed-8a46-5c539fa1d393"},"vehicle_type_id":"4","last_reported":1753092779,"current_range_meters":16000,"station_id":"ce4bh0h2rcd13ifvqd40","pricing_plan_id":"cebpf4jnsgd1na2vs0mg"},{"bike_id":"3117258b-a0b2-4038-960e-7505313a6719","system_id":"levelo_inurba_marseille","lat":43.32103,"lon":5.36767,"is_reserved":false,"is_disabled":false,"rental_uris":{"android":"levelo://app?vid=3117258b-a0b2-4038-960e-7505313a6719","ios":"levelo://app?vid=3117258b-a0b2-4038-960e-7505313a6719"},"vehicle_type_id":"4","last_reported":1753092779,"current_range_meters":16000,"station_id":"ce4bhrh2rcd13ifvqhug","pricing_plan_id":"cebpf4jnsgd1na2vs0mg"},{"bike_id":"c695f162-6b42-40d7-8780-ed224e75f8e8","system_id":"levelo_inurba_marseille","lat":43.22804,"lon":5.34969,"is_reserved":false,"is_disabled":false,"rental_uris":{"android":"levelo://app?vid=c695f162-6b42-40d7-8780-ed224e75f8e8","ios":"levelo://app?vid=c695f162-6b42-40d7-8780-ed224e75f8e8"},"vehicle_type_id":"4","last_reported":1753092779,"current_range_meters":16000,"station_id":"","pricing_plan_id":"cebpf4jnsgd1na2vs0mg"},{"bike_id":"ef5bec01-1508-4f8d-9a81-91129dfbdd34","system_id":"levelo_inurba_marseille","lat":43.25111,"lon":5.40341,"is_reserved":false,"is_disabled":false,"rental_uris":{"android":"levelo://app?vid=ef5bec01-1508-4f8d-9a81-91129dfbdd34","ios":"levelo://app?vid=ef5bec01-1508-4f8d-9a81-91129dfbdd34"},"vehicle_type_id":"4","last_reported":1753092779,"current_range_meters":16000,"station_id":"ce4bhlh2rcd13ifvqgig","pricing_plan_id":"cebpf4jnsgd1na2vs0mg"},{"bike_id":"02bda465-5730-4d42-a0d1-5ffc89217a3f","system_id":"levelo_inurba_marseille","lat":43.28258,"lon":5.35066,"is_reserved":false,"is_disabled":false,"rental_uris":{"android":"levelo://app?vid=02bda465-5730-4d42-a0d1-5ffc89217a3f","ios":"levelo://app?vid=02bda465-5730-4d42-a0d1-5ffc89217a3f"},"vehicle_type_id":"4","last_reported":1753092779,"current_range_meters":16000,"station_id":"","pricing_plan_id":"cebpf4jnsgd1na2vs0mg"},{"bike_id":"5e3127c7-d90d-4fe6-818c-339875c4612e","system_id":"levelo_inurba_marseille","lat":43.30602,"lon":5.39359,"is_reserved":false,"is_disabled":false,"rental_uris":{"android":"levelo://app?vid=5e3127c7-d90d-4fe6-818c-339875c4612e","ios":"levelo://app?vid=5e3127c7-d90d-4fe6-818c-339875c4612e"},"vehicle_type_id":"4","last_reported":1753092779,"current_range_meters":16000,"station_id":"ce4bh0p2rcd13ifvqd80","pricing_plan_id":"cebpf4jnsgd1na2vs0mg"},{"bike_id":"2d30d441-a8a6-4647-ba0b-520cd1de5324","system_id":"levelo_inurba_marseille","lat":43.301474,"lon":5.38099,"is_reserved":false,"is_disabled":false,"rental_uris":{"android":"levelo://app?vid=2d30d441-a8a6-4647-ba0b-520cd1de5324","ios":"levelo://app?vid=2d30d441-a8a6-4647-ba0b-520cd1de5324"},"vehicle_type_id":"4","last_reported":1753092779,"current_range_meters":16400,"station_id":"ce4bgjp2rcd13ifvqbh0","pricing_plan_id":"cebpf4jnsgd1na2vs0mg"},{"bike_id":"6216b029-c389-4c50-a955-1332f3141f59","system_id":"levelo_inurba_marseille","lat":43.240704,"lon":5.377619,"is_reserved":false,"is_disabled":false,"rental_uris":{"android":"levelo://app?vid=6216b029-c389-4c50-a955-1332f3141f59","ios":"levelo://app?vid=6216b029-c389-4c50-a955-1332f3141f59"},"vehicle_type_id":"4","last_reported":1753092779,"current_range_meters":16400,"station_id":"ce4bhnp2rcd13ifvqgvg","pricing_plan_id":"cebpf4jnsgd1na2vs0mg"},{"bike_id":"68ad25bf-3ce4-4219-aae6-b4b4ca3df214","system_id":"levelo_inurba_marseille","lat":43.22501,"lon":5.3479,"is_reserved":false,"is_disabled":false,"rental_uris":{"android":"levelo://app?vid=68ad25bf-3ce4-4219-aae6-b4b4ca3df214","ios":"levelo://app?vid=68ad25bf-3ce4-4219-aae6-b4b4ca3df214"},"vehicle_type_id":"4","last_reported":1753092779,"current_range_meters":16400,"station_id":"st_cvj5dfep6f1abm77gieg","pricing_plan_id":"cebpf4jnsgd1na2vs0mg"},{"bike_id":"a90ebd33-c537-4456-bde8-056c87112fe8","system_id":"levelo_inurba_marseille","lat":43.305407,"lon":5.365455,"is_reserved":false,"is_disabled":false,"rental_uris":{"android":"levelo://app?vid=a90ebd33-c537-4456-bde8-056c87112fe8","ios":"levelo://app?vid=a90ebd33-c537-4456-bde8-056c87112fe8"},"vehicle_type_id":"4","last_reported":1753092779,"current_range_meters":16400,"station_id":"ce4bgs12rcd13ifvqcag","pricing_plan_id":"cebpf4jnsgd1na2vs0mg"},{"bike_id":"ecdfd721-9355-47ec-bb72-adc3ee5af59a","system_id":"levelo_inurba_marseille","lat":43.27187,"lon":5.41005,"is_reserved":false,"is_disabled":false,"rental_uris":{"android":"levelo://app?vid=ecdfd721-9355-47ec-bb72-adc3ee5af59a","ios":"levelo://app?vid=ecdfd721-9355-47ec-bb72-adc3ee5af59a"},"vehicle_type_id":"4","last_reported":1753092779,"current_range_meters":16400,"station_id":"ce4bhl12rcd13ifvqgf0","pricing_plan_id":"cebpf4jnsgd1na2vs0mg"},{"bike_id":"42c6daca-a04f-4385-b335-d79919ebfbf3","system_id":"levelo_inurba_marseille","lat":43.32484,"lon":5.365922,"is_reserved":false,"is_disabled":false,"rental_uris":{"android":"levelo://app?vid=42c6daca-a04f-4385-b335-d79919ebfbf3","ios":"levelo://app?vid=42c6daca-a04f-4385-b335-d79919ebfbf3"},"vehicle_type_id":"4","last_reported":1753092779,"current_range_meters":16400,"station_id":"ce4bhs12rcd13ifvqhvg","pricing_plan_id":"cebpf4jnsgd1na2vs0mg"},{"bike_id":"1c22819b-ef69-41c3-af80-068c7a58af48","system_id":"levelo_inurba_marseille","lat":43.321058,"lon":5.367685,"is_reserved":false,"is_disabled":false,"rental_uris":{"android":"levelo://app?vid=1c22819b-ef69-41c3-af80-068c7a58af48","ios":"levelo://app?vid=1c22819b-ef69-41c3-af80-068c7a58af48"},"vehicle_type_id":"4","last_reported":1753092779,"current_range_meters":16400,"station_id":"ce4bhrh2rcd13ifvqhug","pricing_plan_id":"cebpf4jnsgd1na2vs0mg"},{"bike_id":"fbcf15b5-b1ac-4835-b36a-c71d02d5f180","system_id":"levelo_inurba_marseille","lat":43.30801,"lon":5.43506,"is_reserved":false,"is_disabled":false,"rental_uris":{"android":"levelo://app?vid=fbcf15b5-b1ac-4835-b36a-c71d02d5f180","ios":"levelo://app?vid=fbcf15b5-b1ac-4835-b36a-c71d02d5f180"},"vehicle_type_id":"4","last_reported":1753092779,"current_range_meters":16400,"station_id":"ce4bhph2rcd13ifvqheg","pricing_plan_id":"cebpf4jnsgd1na2vs0mg"},{"bike_id":"50d16da1-39af-48c8-9080-8fc1a2184959","system_id":"levelo_inurba_marseille","lat":43.21194,"lon":5.35068,"is_reserved":false,"is_disabled":false,"rental_uris":{"android":"levelo://app?vid=50d16da1-39af-48c8-9080-8fc1a2184959","ios":"levelo://app?vid=50d16da1-39af-48c8-9080-8fc1a2184959"},"vehicle_type_id":"4","last_reported":1753092779,"current_range_meters":16400,"station_id":"st_cvj6sg6p6f1abm77japg","pricing_plan_id":"cebpf4jnsgd1na2vs0mg"},{"bike_id":"c3901ec0-1229-4631-bcf1-238232393337","system_id":"levelo_inurba_marseille","lat":43.29677,"lon":5.37286,"is_reserved":false,"is_disabled":false,"rental_uris":{"android":"levelo://app?vid=c3901ec0-1229-4631-bcf1-238232393337","ios":"levelo://app?vid=c3901ec0-1229-4631-bcf1-238232393337"},"vehicle_type_id":"4","last_reported":1753092779,"current_range_meters":16400,"station_id":"ce4bgk12rcd13ifvqbj0","pricing_plan_id":"cebpf4jnsgd1na2vs0mg"},{"bike_id":"fb5a6e32-c682-4cda-adaf-444f40df4093","system_id":"levelo_inurba_marseille","lat":43.30546,"lon":5.36707,"is_reserved":false,"is_disabled":false,"rental_uris":{"android":"levelo://app?vid=fb5a6e32-c682-4cda-adaf-444f40df4093","ios":"levelo://app?vid=fb5a6e32-c682-4cda-adaf-444f40df4093"},"vehicle_type_id":"4","last_reported":1753092779,"current_range_meters":16400,"station_id":"ce4bgrp2rcd13ifvqc9g","pricing_plan_id":"cebpf4jnsgd1na2vs0mg"},{"bike_id":"d778a561-0abe-4676-9dca-d85a214615cb","system_id":"levelo_inurba_marseille","lat":43.337743,"lon":5.374289,"is_reserved":false,"is_disabled":false,"rental_uris":{"android":"levelo://app?vid=d778a561-0abe-4676-9dca-d85a214615cb","ios":"levelo://app?vid=d778a561-0abe-4676-9dca-d85a214615cb"},"vehicle_type_id":"4","last_reported":1753092779,"current_range_meters":16800,"station_id":"","pricing_plan_id":"cebpf4jnsgd1na2vs0mg"},{"bike_id":"c4ddf749-008b-4a14-af16-f3a13a431402","system_id":"levelo_inurba_marseille","lat":43.21193,"lon":5.35095,"is_reserved":false,"is_disabled":false,"rental_uris":{"android":"levelo://app?vid=c4ddf749-008b-4a14-af16-f3a13a431402","ios":"levelo://app?vid=c4ddf749-008b-4a14-af16-f3a13a431402"},"vehicle_type_id":"4","last_reported":1753092779,"current_range_meters":16800,"station_id":"st_cvj6sg6p6f1abm77japg","pricing_plan_id":"cebpf4jnsgd1na2vs0mg"},{"bike_id":"1d5aee7d-e6a6-410e-a6d4-4539731cae9a","system_id":"levelo_inurba_marseille","lat":43.27942,"lon":5.41044,"is_reserved":false,"is_disabled":false,"rental_uris":{"android":"levelo://app?vid=1d5aee7d-e6a6-410e-a6d4-4539731cae9a","ios":"levelo://app?vid=1d5aee7d-e6a6-410e-a6d4-4539731cae9a"},"vehicle_type_id":"4","last_reported":1753092779,"current_range_meters":16800,"station_id":"ce4bhnp2rcd13ifvqh0g","pricing_plan_id":"cebpf4jnsgd1na2vs0mg"},{"bike_id":"c39c1585-07d1-4c0f-acd2-da12155a30e0","system_id":"levelo_inurba_marseille","lat":43.28656,"lon":5.36348,"is_reserved":false,"is_disabled":false,"rental_uris":{"android":"levelo://app?vid=c39c1585-07d1-4c0f-acd2-da12155a30e0","ios":"levelo://app?vid=c39c1585-07d1-4c0f-acd2-da12155a30e0"},"vehicle_type_id":"4","last_reported":1753092779,"current_range_meters":16800,"station_id":"ce4bhah2rcd13ifvqej0","pricing_plan_id":"cebpf4jnsgd1na2vs0mg"},{"bike_id":"936178eb-2dff-400d-881d-11a377338631","system_id":"levelo_inurba_marseille","lat":43.31323,"lon":5.39693,"is_reserved":false,"is_disabled":false,"rental_uris":{"android":"levelo://app?vid=936178eb-2dff-400d-881d-11a377338631","ios":"levelo://app?vid=936178eb-2dff-400d-881d-11a377338631"},"vehicle_type_id":"4","last_reported":1753092779,"current_range_meters":16800,"station_id":"ce4bgvp2rcd13ifvqcu0","pricing_plan_id":"cebpf4jnsgd1na2vs0mg"},{"bike_id":"93ff17a7-39f0-49d6-84b3-03bfeb514693","system_id":"levelo_inurba_marseille","lat":43.2587,"lon":5.39892,"is_reserved":false,"is_disabled":false,"rental_uris":{"android":"levelo://app?vid=93ff17a7-39f0-49d6-84b3-03bfeb514693","ios":"levelo://app?vid=93ff17a7-39f0-49d6-84b3-03bfeb514693"},"vehicle_type_id":"4","last_reported":1753092779,"current_range_meters":16400,"station_id":"ce4bhl92rcd13ifvqghg","pricing_plan_id":"cebpf4jnsgd1na2vs0mg"},{"bike_id":"8423e589-47bf-47a8-b90f-452fc938c46b","system_id":"levelo_inurba_marseille","lat":43.323553,"lon":5.367484,"is_reserved":false,"is_disabled":false,"rental_uris":{"android":"levelo://app?vid=8423e589-47bf-47a8-b90f-452fc938c46b","ios":"levelo://app?vid=8423e589-47bf-47a8-b90f-452fc938c46b"},"vehicle_type_id":"4","last_reported":1753092779,"current_range_meters":16800,"station_id":"ce4bhsh2rcd13ifvqi2g","pricing_plan_id":"cebpf4jnsgd1na2vs0mg"},{"bike_id":"a6ddaf9e-cb4e-4ebe-9418-e0c82166cf41","system_id":"levelo_inurba_marseille","lat":43.305344,"lon":5.366998,"is_reserved":false,"is_disabled":false,"rental_uris":{"android":"levelo://app?vid=a6ddaf9e-cb4e-4ebe-9418-e0c82166cf41","ios":"levelo://app?vid=a6ddaf9e-cb4e-4ebe-9418-e0c82166cf41"},"vehicle_type_id":"4","last_reported":1753092779,"current_range_meters":17200,"station_id":"ce4bgrp2rcd13ifvqc9g","pricing_plan_id":"cebpf4jnsgd1na2vs0mg"},{"bike_id":"85b008dd-0f9f-4205-aa28-4f549082c3e6","system_id":"levelo_inurba_marseille","lat":43.21188,"lon":5.35083,"is_reserved":false,"is_disabled":false,"rental_uris":{"android":"levelo://app?vid=85b008dd-0f9f-4205-aa28-4f549082c3e6","ios":"levelo://app?vid=85b008dd-0f9f-4205-aa28-4f549082c3e6"},"vehicle_type_id":"4","last_reported":1753092779,"current_range_meters":17200,"station_id":"st_cvj6sg6p6f1abm77japg","pricing_plan_id":"cebpf4jnsgd1na2vs0mg"},{"bike_id":"4faa3c8e-9b5a-4d55-aebc-2e52610bf132","system_id":"levelo_inurba_marseille","lat":43.32643,"lon":5.42355,"is_reserved":false,"is_disabled":false,"rental_uris":{"android":"levelo://app?vid=4faa3c8e-9b5a-4d55-aebc-2e52610bf132","ios":"levelo://app?vid=4faa3c8e-9b5a-4d55-aebc-2e52610bf132"},"vehicle_type_id":"4","last_reported":1753092779,"current_range_meters":17200,"station_id":"","pricing_plan_id":"cebpf4jnsgd1na2vs0mg"},{"bike_id":"010e4226-315e-454e-9b06-0b24851b2f38","system_id":"levelo_inurba_marseille","lat":43.29963,"lon":5.38498,"is_reserved":false,"is_disabled":false,"rental_uris":{"android":"levelo://app?vid=010e4226-315e-454e-9b06-0b24851b2f38","ios":"levelo://app?vid=010e4226-315e-454e-9b06-0b24851b2f38"},"vehicle_type_id":"4","last_reported":1753092779,"current_range_meters":17200,"station_id":"ce4bgj92rcd13ifvqbd0","pricing_plan_id":"cebpf4jnsgd1na2vs0mg"},{"bike_id":"11896e7e-541b-43da-adf5-78ad222cf7a2","system_id":"levelo_inurba_marseille","lat":43.23194,"lon":5.35549,"is_reserved":false,"is_disabled":false,"rental_uris":{"android":"levelo://app?vid=11896e7e-541b-43da-adf5-78ad222cf7a2","ios":"levelo://app?vid=11896e7e-541b-43da-adf5-78ad222cf7a2"},"vehicle_type_id":"4","last_reported":1753092779,"current_range_meters":17200,"station_id":"ce4bhu92rcd13ifvqi70","pricing_plan_id":"cebpf4jnsgd1na2vs0mg"},{"bike_id":"70192f99-f1b3-4ab3-a4df-9f1b2d0930ed","system_id":"levelo_inurba_marseille","lat":43.2973,"lon":5.37727,"is_reserved":false,"is_disabled":false,"rental_uris":{"android":"levelo://app?vid=70192f99-f1b3-4ab3-a4df-9f1b2d0930ed","ios":"levelo://app?vid=70192f99-f1b3-4ab3-a4df-9f1b2d0930ed"},"vehicle_type_id":"4","last_reported":1753092779,"current_range_meters":17200,"station_id":"ce4bgkh2rcd13ifvqbl0","pricing_plan_id":"cebpf4jnsgd1na2vs0mg"},{"bike_id":"6ecd5a2b-6dae-44b3-a162-e5286af43d43","system_id":"levelo_inurba_marseille","lat":43.22535,"lon":5.34785,"is_reserved":false,"is_disabled":false,"rental_uris":{"android":"levelo://app?vid=6ecd5a2b-6dae-44b3-a162-e5286af43d43","ios":"levelo://app?vid=6ecd5a2b-6dae-44b3-a162-e5286af43d43"},"vehicle_type_id":"4","last_reported":1753092779,"current_range_meters":17200,"station_id":"st_cvj5dfep6f1abm77gieg","pricing_plan_id":"cebpf4jnsgd1na2vs0mg"},{"bike_id":"2d6095ea-f882-494d-a187-fa879408181e","system_id":"levelo_inurba_marseille","lat":43.2514,"lon":5.3735,"is_reserved":false,"is_disabled":false,"rental_uris":{"android":"levelo://app?vid=2d6095ea-f882-494d-a187-fa879408181e","ios":"levelo://app?vid=2d6095ea-f882-494d-a187-fa879408181e"},"vehicle_type_id":"4","last_reported":1753092779,"current_range_meters":17200,"station_id":"","pricing_plan_id":"cebpf4jnsgd1na2vs0mg"},{"bike_id":"c9695da4-3048-4cfc-83f0-62c3fac1ccbe","system_id":"levelo_inurba_marseille","lat":43.23068,"lon":5.35503,"is_reserved":false,"is_disabled":false,"rental_uris":{"android":"levelo://app?vid=c9695da4-3048-4cfc-83f0-62c3fac1ccbe","ios":"levelo://app?vid=c9695da4-3048-4cfc-83f0-62c3fac1ccbe"},"vehicle_type_id":"4","last_reported":1753092779,"current_range_meters":17600,"station_id":"cpo3342slgdg3j2ifvpg","pricing_plan_id":"cebpf4jnsgd1na2vs0mg"},{"bike_id":"4e3a9934-4f1f-44fc-83db-2f3d83ae9d8d","system_id":"levelo_inurba_marseille","lat":43.2835,"lon":5.41543,"is_reserved":false,"is_disabled":true,"rental_uris":{"android":"levelo://app?vid=4e3a9934-4f1f-44fc-83db-2f3d83ae9d8d","ios":"levelo://app?vid=4e3a9934-4f1f-44fc-83db-2f3d83ae9d8d"},"vehicle_type_id":"4","last_reported":1753092779,"current_range_meters":17600,"station_id":"","pricing_plan_id":"cebpf4jnsgd1na2vs0mg"},{"bike_id":"06b1efb9-0f43-4fa1-aa00-648f52cf9f09","system_id":"levelo_inurba_marseille","lat":43.31333,"lon":5.39686,"is_reserved":false,"is_disabled":false,"rental_uris":{"android":"levelo://app?vid=06b1efb9-0f43-4fa1-aa00-648f52cf9f09","ios":"levelo://app?vid=06b1efb9-0f43-4fa1-aa00-648f52cf9f09"},"vehicle_type_id":"4","last_reported":1753092779,"current_range_meters":17200,"station_id":"ce4bgvp2rcd13ifvqcu0","pricing_plan_id":"cebpf4jnsgd1na2vs0mg"},{"bike_id":"2186268c-4641-4ea0-b060-6ccef876f2aa","system_id":"levelo_inurba_marseille","lat":43.3124,"lon":5.36902,"is_reserved":false,"is_disabled":false,"rental_uris":{"android":"levelo://app?vid=2186268c-4641-4ea0-b060-6ccef876f2aa","ios":"levelo://app?vid=2186268c-4641-4ea0-b060-6ccef876f2aa"},"vehicle_type_id":"4","last_reported":1753092779,"current_range_meters":17600,"station_id":"ce4bgl92rcd13ifvqbq0","pricing_plan_id":"cebpf4jnsgd1na2vs0mg"},{"bike_id":"929a76e9-5a51-4805-92ff-8766bed33b72","system_id":"levelo_inurba_marseille","lat":43.30198,"lon":5.3663,"is_reserved":false,"is_disabled":false,"rental_uris":{"android":"levelo://app?vid=929a76e9-5a51-4805-92ff-8766bed33b72","ios":"levelo://app?vid=929a76e9-5a51-4805-92ff-8766bed33b72"},"vehicle_type_id":"4","last_reported":1753092779,"current_range_meters":17600,"station_id":"ce4bgrh2rcd13ifvqc8g","pricing_plan_id":"cebpf4jnsgd1na2vs0mg"},{"bike_id":"740b7423-7a27-4daa-9991-c3141fb84b3f","system_id":"levelo_inurba_marseille","lat":43.27174,"lon":5.41001,"is_reserved":false,"is_disabled":false,"rental_uris":{"android":"levelo://app?vid=740b7423-7a27-4daa-9991-c3141fb84b3f","ios":"levelo://app?vid=740b7423-7a27-4daa-9991-c3141fb84b3f"},"vehicle_type_id":"4","last_reported":1753092779,"current_range_meters":17600,"station_id":"ce4bhl12rcd13ifvqgf0","pricing_plan_id":"cebpf4jnsgd1na2vs0mg"},{"bike_id":"f9fa6adf-4c45-461b-846c-0a62eab0542b","system_id":"levelo_inurba_marseille","lat":43.29375,"lon":5.37869,"is_reserved":false,"is_disabled":false,"rental_uris":{"android":"levelo://app?vid=f9fa6adf-4c45-461b-846c-0a62eab0542b","ios":"levelo://app?vid=f9fa6adf-4c45-461b-846c-0a62eab0542b"},"vehicle_type_id":"4","last_reported":1753092779,"current_range_meters":17600,"station_id":"ce4bgjh2rcd13ifvqbf0","pricing_plan_id":"cebpf4jnsgd1na2vs0mg"},{"bike_id":"cf9c41eb-f80c-493b-b928-bdee1491bffb","system_id":"levelo_inurba_marseille","lat":43.31516,"lon":5.37263,"is_reserved":false,"is_disabled":false,"rental_uris":{"android":"levelo://app?vid=cf9c41eb-f80c-493b-b928-bdee1491bffb","ios":"levelo://app?vid=cf9c41eb-f80c-493b-b928-bdee1491bffb"},"vehicle_type_id":"4","last_reported":1753092779,"current_range_meters":17600,"station_id":"ce4bgt12rcd13ifvqcd0","pricing_plan_id":"cebpf4jnsgd1na2vs0mg"},{"bike_id":"0b8d83ca-82f8-4ff4-86db-8f9101fcc108","system_id":"levelo_inurba_marseille","lat":43.29731,"lon":5.38016,"is_reserved":false,"is_disabled":false,"rental_uris":{"android":"levelo://app?vid=0b8d83ca-82f8-4ff4-86db-8f9101fcc108","ios":"levelo://app?vid=0b8d83ca-82f8-4ff4-86db-8f9101fcc108"},"vehicle_type_id":"4","last_reported":1753092779,"current_range_meters":17600,"station_id":"ce4bgip2rcd13ifvqbb0","pricing_plan_id":"cebpf4jnsgd1na2vs0mg"},{"bike_id":"ccb3a2c1-5335-4346-b5bb-08cb08061e0e","system_id":"levelo_inurba_marseille","lat":43.297777,"lon":5.381044,"is_reserved":false,"is_disabled":true,"rental_uris":{"android":"levelo://app?vid=ccb3a2c1-5335-4346-b5bb-08cb08061e0e","ios":"levelo://app?vid=ccb3a2c1-5335-4346-b5bb-08cb08061e0e"},"vehicle_type_id":"4","last_reported":1753092779,"current_range_meters":17600,"station_id":"ce4bgip2rcd13ifvqbb0","pricing_plan_id":"cebpf4jnsgd1na2vs0mg"},{"bike_id":"654c71a8-a635-4849-bc39-2ecd647d8f8a","system_id":"levelo_inurba_marseille","lat":43.284099,"lon":5.374926,"is_reserved":false,"is_disabled":false,"rental_uris":{"android":"levelo://app?vid=654c71a8-a635-4849-bc39-2ecd647d8f8a","ios":"levelo://app?vid=654c71a8-a635-4849-bc39-2ecd647d8f8a"},"vehicle_type_id":"4","last_reported":1753092779,"current_range_meters":18000,"station_id":"ce4bh412rcd13ifvqds0","pricing_plan_id":"cebpf4jnsgd1na2vs0mg"},{"bike_id":"ca7438cd-5aeb-4534-8652-b1f5c7df6140","system_id":"levelo_inurba_marseille","lat":43.303215,"lon":5.369028,"is_reserved":false,"is_disabled":false,"rental_uris":{"android":"levelo://app?vid=ca7438cd-5aeb-4534-8652-b1f5c7df6140","ios":"levelo://app?vid=ca7438cd-5aeb-4534-8652-b1f5c7df6140"},"vehicle_type_id":"4","last_reported":1753092779,"current_range_meters":18000,"station_id":"ce4bgqh2rcd13ifvqc5g","pricing_plan_id":"cebpf4jnsgd1na2vs0mg"},{"bike_id":"298d7476-28c7-4c61-8302-df95a7d5d3d6","system_id":"levelo_inurba_marseille","lat":43.22502,"lon":5.34781,"is_reserved":false,"is_disabled":false,"rental_uris":{"android":"levelo://app?vid=298d7476-28c7-4c61-8302-df95a7d5d3d6","ios":"levelo://app?vid=298d7476-28c7-4c61-8302-df95a7d5d3d6"},"vehicle_type_id":"4","last_reported":1753092779,"current_range_meters":18000,"station_id":"st_cvj5dfep6f1abm77gieg","pricing_plan_id":"cebpf4jnsgd1na2vs0mg"},{"bike_id":"b6191c96-af83-462f-a3cc-e4778a781fff","system_id":"levelo_inurba_marseille","lat":43.21194,"lon":5.35058,"is_reserved":false,"is_disabled":false,"rental_uris":{"android":"levelo://app?vid=b6191c96-af83-462f-a3cc-e4778a781fff","ios":"levelo://app?vid=b6191c96-af83-462f-a3cc-e4778a781fff"},"vehicle_type_id":"4","last_reported":1753092779,"current_range_meters":18000,"station_id":"st_cvj6sg6p6f1abm77japg","pricing_plan_id":"cebpf4jnsgd1na2vs0mg"},{"bike_id":"383b9b1c-f5ef-4dd0-80b8-e2514dc6b601","system_id":"levelo_inurba_marseille","lat":43.27989,"lon":5.40012,"is_reserved":false,"is_disabled":false,"rental_uris":{"android":"levelo://app?vid=383b9b1c-f5ef-4dd0-80b8-e2514dc6b601","ios":"levelo://app?vid=383b9b1c-f5ef-4dd0-80b8-e2514dc6b601"},"vehicle_type_id":"4","last_reported":1753092779,"current_range_meters":18000,"station_id":"","pricing_plan_id":"cebpf4jnsgd1na2vs0mg"},{"bike_id":"f394e9da-c4ef-4d75-9a78-8694ae8e001b","system_id":"levelo_inurba_marseille","lat":43.24174,"lon":5.39753,"is_reserved":false,"is_disabled":false,"rental_uris":{"android":"levelo://app?vid=f394e9da-c4ef-4d75-9a78-8694ae8e001b","ios":"levelo://app?vid=f394e9da-c4ef-4d75-9a78-8694ae8e001b"},"vehicle_type_id":"4","last_reported":1753092779,"current_range_meters":18000,"station_id":"ce4bhn12rcd13ifvqgpg","pricing_plan_id":"cebpf4jnsgd1na2vs0mg"},{"bike_id":"a5d420c1-6f63-4560-9fe2-e08db2c4fecb","system_id":"levelo_inurba_marseille","lat":43.21197,"lon":5.35063,"is_reserved":false,"is_disabled":false,"rental_uris":{"android":"levelo://app?vid=a5d420c1-6f63-4560-9fe2-e08db2c4fecb","ios":"levelo://app?vid=a5d420c1-6f63-4560-9fe2-e08db2c4fecb"},"vehicle_type_id":"4","last_reported":1753092779,"current_range_meters":18000,"station_id":"st_cvj6sg6p6f1abm77japg","pricing_plan_id":"cebpf4jnsgd1na2vs0mg"},{"bike_id":"91faf937-6768-4101-98da-411036d125c4","system_id":"levelo_inurba_marseille","lat":43.22975,"lon":5.3536,"is_reserved":false,"is_disabled":false,"rental_uris":{"android":"levelo://app?vid=91faf937-6768-4101-98da-411036d125c4","ios":"levelo://app?vid=91faf937-6768-4101-98da-411036d125c4"},"vehicle_type_id":"4","last_reported":1753092779,"current_range_meters":18000,"station_id":"cpo3532slgdg3j2ikp40","pricing_plan_id":"cebpf4jnsgd1na2vs0mg"},{"bike_id":"427915a8-458f-4c0c-bd3d-23446d0e6c0a","system_id":"levelo_inurba_marseille","lat":43.2797,"lon":5.38776,"is_reserved":false,"is_disabled":false,"rental_uris":{"android":"levelo://app?vid=427915a8-458f-4c0c-bd3d-23446d0e6c0a","ios":"levelo://app?vid=427915a8-458f-4c0c-bd3d-23446d0e6c0a"},"vehicle_type_id":"4","last_reported":1753092779,"current_range_meters":18000,"station_id":"ce4bhg12rcd13ifvqf80","pricing_plan_id":"cebpf4jnsgd1na2vs0mg"},{"bike_id":"1ef2503f-ea41-4c4a-a986-942aff558f83","system_id":"levelo_inurba_marseille","lat":43.31739,"lon":5.40548,"is_reserved":false,"is_disabled":false,"rental_uris":{"android":"levelo://app?vid=1ef2503f-ea41-4c4a-a986-942aff558f83","ios":"levelo://app?vid=1ef2503f-ea41-4c4a-a986-942aff558f83"},"vehicle_type_id":"4","last_reported":1753092779,"current_range_meters":18000,"station_id":"","pricing_plan_id":"cebpf4jnsgd1na2vs0mg"},{"bike_id":"2c97e1fe-7458-4f1a-9817-f18804020eea","system_id":"levelo_inurba_marseille","lat":43.26934,"lon":5.38926,"is_reserved":false,"is_disabled":false,"rental_uris":{"android":"levelo://app?vid=2c97e1fe-7458-4f1a-9817-f18804020eea","ios":"levelo://app?vid=2c97e1fe-7458-4f1a-9817-f18804020eea"},"vehicle_type_id":"4","last_reported":1753092779,"current_range_meters":18000,"station_id":"ce4bhhh2rcd13ifvqfl0","pricing_plan_id":"cebpf4jnsgd1na2vs0mg"},{"bike_id":"b84deac4-be99-4696-9c69-b6b79f3a15ed","system_id":"levelo_inurba_marseille","lat":43.3015,"lon":5.38071,"is_reserved":false,"is_disabled":false,"rental_uris":{"android":"levelo://app?vid=b84deac4-be99-4696-9c69-b6b79f3a15ed","ios":"levelo://app?vid=b84deac4-be99-4696-9c69-b6b79f3a15ed"},"vehicle_type_id":"4","last_reported":1753092779,"current_range_meters":17600,"station_id":"ce4bgjp2rcd13ifvqbh0","pricing_plan_id":"cebpf4jnsgd1na2vs0mg"},{"bike_id":"4d2fb385-600a-460f-817d-c81c8838ad28","system_id":"levelo_inurba_marseille","lat":43.32375,"lon":5.36789,"is_reserved":false,"is_disabled":false,"rental_uris":{"android":"levelo://app?vid=4d2fb385-600a-460f-817d-c81c8838ad28","ios":"levelo://app?vid=4d2fb385-600a-460f-817d-c81c8838ad28"},"vehicle_type_id":"4","last_reported":1753092779,"current_range_meters":18800,"station_id":"ce4bhsh2rcd13ifvqi2g","pricing_plan_id":"cebpf4jnsgd1na2vs0mg"},{"bike_id":"2f2f580c-ef7a-43a4-b01c-d27d729d3be1","system_id":"levelo_inurba_marseille","lat":43.29309,"lon":5.3714,"is_reserved":false,"is_disabled":false,"rental_uris":{"android":"levelo://app?vid=2f2f580c-ef7a-43a4-b01c-d27d729d3be1","ios":"levelo://app?vid=2f2f580c-ef7a-43a4-b01c-d27d729d3be1"},"vehicle_type_id":"4","last_reported":1753092779,"current_range_meters":18000,"station_id":"ce4bgh92rcd13ifvqb40","pricing_plan_id":"cebpf4jnsgd1na2vs0mg"},{"bike_id":"8775308d-a91e-4abc-aa83-a4e1580af611","system_id":"levelo_inurba_marseille","lat":43.26231,"lon":5.40457,"is_reserved":false,"is_disabled":false,"rental_uris":{"android":"levelo://app?vid=8775308d-a91e-4abc-aa83-a4e1580af611","ios":"levelo://app?vid=8775308d-a91e-4abc-aa83-a4e1580af611"},"vehicle_type_id":"4","last_reported":1753092779,"current_range_meters":18800,"station_id":"ce4bhmh2rcd13ifvqgmg","pricing_plan_id":"cebpf4jnsgd1na2vs0mg"},{"bike_id":"c565f3da-388a-443e-b841-7d114c3eb960","system_id":"levelo_inurba_marseille","lat":43.24656,"lon":5.38167,"is_reserved":false,"is_disabled":false,"rental_uris":{"android":"levelo://app?vid=c565f3da-388a-443e-b841-7d114c3eb960","ios":"levelo://app?vid=c565f3da-388a-443e-b841-7d114c3eb960"},"vehicle_type_id":"4","last_reported":1753092779,"current_range_meters":18800,"station_id":"ce4bhih2rcd13ifvqfr0","pricing_plan_id":"cebpf4jnsgd1na2vs0mg"},{"bike_id":"263d4ced-6e04-4169-ac4b-7fa733c92fa6","system_id":"levelo_inurba_marseille","lat":43.32358,"lon":5.36774,"is_reserved":false,"is_disabled":false,"rental_uris":{"android":"levelo://app?vid=263d4ced-6e04-4169-ac4b-7fa733c92fa6","ios":"levelo://app?vid=263d4ced-6e04-4169-ac4b-7fa733c92fa6"},"vehicle_type_id":"4","last_reported":1753092779,"current_range_meters":18800,"station_id":"ce4bhsh2rcd13ifvqi2g","pricing_plan_id":"cebpf4jnsgd1na2vs0mg"},{"bike_id":"8375284e-2691-413a-83ad-f0707c45735e","system_id":"levelo_inurba_marseille","lat":43.2418,"lon":5.39735,"is_reserved":false,"is_disabled":false,"rental_uris":{"android":"levelo://app?vid=8375284e-2691-413a-83ad-f0707c45735e","ios":"levelo://app?vid=8375284e-2691-413a-83ad-f0707c45735e"},"vehicle_type_id":"4","last_reported":1753092779,"current_range_meters":18800,"station_id":"ce4bhn12rcd13ifvqgpg","pricing_plan_id":"cebpf4jnsgd1na2vs0mg"},{"bike_id":"8a9f8dc4-f073-4b8f-81d6-71fc4302315f","system_id":"levelo_inurba_marseille","lat":43.28438,"lon":5.40177,"is_reserved":false,"is_disabled":false,"rental_uris":{"android":"levelo://app?vid=8a9f8dc4-f073-4b8f-81d6-71fc4302315f","ios":"levelo://app?vid=8a9f8dc4-f073-4b8f-81d6-71fc4302315f"},"vehicle_type_id":"4","last_reported":1753092779,"current_range_meters":19200,"station_id":"","pricing_plan_id":"cebpf4jnsgd1na2vs0mg"},{"bike_id":"5d969bc6-fed5-4d58-8941-4b302b560607","system_id":"levelo_inurba_marseille","lat":43.28485,"lon":5.38536,"is_reserved":false,"is_disabled":false,"rental_uris":{"android":"levelo://app?vid=5d969bc6-fed5-4d58-8941-4b302b560607","ios":"levelo://app?vid=5d969bc6-fed5-4d58-8941-4b302b560607"},"vehicle_type_id":"4","last_reported":1753092779,"current_range_meters":19200,"station_id":"","pricing_plan_id":"cebpf4jnsgd1na2vs0mg"},{"bike_id":"2975a10e-052a-4ed4-8afb-b52549159b49","system_id":"levelo_inurba_marseille","lat":43.32869,"lon":5.38803,"is_reserved":false,"is_disabled":false,"rental_uris":{"android":"levelo://app?vid=2975a10e-052a-4ed4-8afb-b52549159b49","ios":"levelo://app?vid=2975a10e-052a-4ed4-8afb-b52549159b49"},"vehicle_type_id":"4","last_reported":1753092779,"current_range_meters":19200,"station_id":"","pricing_plan_id":"cebpf4jnsgd1na2vs0mg"},{"bike_id":"270a17cb-d400-4dcf-b95e-31f2bfe3b52d","system_id":"levelo_inurba_marseille","lat":43.2293,"lon":5.35373,"is_reserved":false,"is_disabled":false,"rental_uris":{"android":"levelo://app?vid=270a17cb-d400-4dcf-b95e-31f2bfe3b52d","ios":"levelo://app?vid=270a17cb-d400-4dcf-b95e-31f2bfe3b52d"},"vehicle_type_id":"4","last_reported":1753092779,"current_range_meters":19200,"station_id":"cpo3532slgdg3j2ikp40","pricing_plan_id":"cebpf4jnsgd1na2vs0mg"},{"bike_id":"58cbfa7e-c704-4866-ba9b-204648f1391a","system_id":"levelo_inurba_marseille","lat":43.299579,"lon":5.380973,"is_reserved":false,"is_disabled":true,"rental_uris":{"android":"levelo://app?vid=58cbfa7e-c704-4866-ba9b-204648f1391a","ios":"levelo://app?vid=58cbfa7e-c704-4866-ba9b-204648f1391a"},"vehicle_type_id":"4","last_reported":1753092779,"current_range_meters":19200,"station_id":"","pricing_plan_id":"cebpf4jnsgd1na2vs0mg"},{"bike_id":"24e36d41-7b22-4aee-a080-9b8b0a61c14b","system_id":"levelo_inurba_marseille","lat":43.30542,"lon":5.38426,"is_reserved":false,"is_disabled":false,"rental_uris":{"android":"levelo://app?vid=24e36d41-7b22-4aee-a080-9b8b0a61c14b","ios":"levelo://app?vid=24e36d41-7b22-4aee-a080-9b8b0a61c14b"},"vehicle_type_id":"4","last_reported":1753092779,"current_range_meters":19200,"station_id":"ce4bgg92rcd13ifvqb30","pricing_plan_id":"cebpf4jnsgd1na2vs0mg"},{"bike_id":"668bfa40-7ae0-42dd-a6b6-6631a40f0c0f","system_id":"levelo_inurba_marseille","lat":43.3312,"lon":5.3864,"is_reserved":false,"is_disabled":false,"rental_uris":{"android":"levelo://app?vid=668bfa40-7ae0-42dd-a6b6-6631a40f0c0f","ios":"levelo://app?vid=668bfa40-7ae0-42dd-a6b6-6631a40f0c0f"},"vehicle_type_id":"4","last_reported":1753092779,"current_range_meters":19200,"station_id":"","pricing_plan_id":"cebpf4jnsgd1na2vs0mg"},{"bike_id":"0cf1db65-1b50-4d6f-a119-e80c9fe8f3c4","system_id":"levelo_inurba_marseille","lat":43.30554,"lon":5.36541,"is_reserved":false,"is_disabled":false,"rental_uris":{"android":"levelo://app?vid=0cf1db65-1b50-4d6f-a119-e80c9fe8f3c4","ios":"levelo://app?vid=0cf1db65-1b50-4d6f-a119-e80c9fe8f3c4"},"vehicle_type_id":"4","last_reported":1753092779,"current_range_meters":19200,"station_id":"ce4bgs12rcd13ifvqcag","pricing_plan_id":"cebpf4jnsgd1na2vs0mg"},{"bike_id":"fe732a6c-bff8-47cc-932a-3c976c2c7a76","system_id":"levelo_inurba_marseille","lat":43.280363,"lon":5.369555,"is_reserved":false,"is_disabled":true,"rental_uris":{"android":"levelo://app?vid=fe732a6c-bff8-47cc-932a-3c976c2c7a76","ios":"levelo://app?vid=fe732a6c-bff8-47cc-932a-3c976c2c7a76"},"vehicle_type_id":"4","last_reported":1753092779,"current_range_meters":19600,"station_id":"","pricing_plan_id":"cebpf4jnsgd1na2vs0mg"},{"bike_id":"d2229c93-297f-41f1-8cb1-b4545e35da58","system_id":"levelo_inurba_marseille","lat":43.30904,"lon":5.37223,"is_reserved":false,"is_disabled":false,"rental_uris":{"android":"levelo://app?vid=d2229c93-297f-41f1-8cb1-b4545e35da58","ios":"levelo://app?vid=d2229c93-297f-41f1-8cb1-b4545e35da58"},"vehicle_type_id":"4","last_reported":1753092779,"current_range_meters":19600,"station_id":"ce4bguh2rcd13ifvqckg","pricing_plan_id":"cebpf4jnsgd1na2vs0mg"},{"bike_id":"13adf853-6ca7-4ebd-8c9f-f4512dd3a322","system_id":"levelo_inurba_marseille","lat":43.3328,"lon":5.399,"is_reserved":false,"is_disabled":false,"rental_uris":{"android":"levelo://app?vid=13adf853-6ca7-4ebd-8c9f-f4512dd3a322","ios":"levelo://app?vid=13adf853-6ca7-4ebd-8c9f-f4512dd3a322"},"vehicle_type_id":"4","last_reported":1753092779,"current_range_meters":19600,"station_id":"","pricing_plan_id":"cebpf4jnsgd1na2vs0mg"},{"bike_id":"b67ca3f0-e632-4b9e-ad2f-ba95e62966cd","system_id":"levelo_inurba_marseille","lat":43.32106,"lon":5.36864,"is_reserved":false,"is_disabled":false,"rental_uris":{"android":"levelo://app?vid=b67ca3f0-e632-4b9e-ad2f-ba95e62966cd","ios":"levelo://app?vid=b67ca3f0-e632-4b9e-ad2f-ba95e62966cd"},"vehicle_type_id":"4","last_reported":1753092779,"current_range_meters":19600,"station_id":"ce4bhrh2rcd13ifvqhug","pricing_plan_id":"cebpf4jnsgd1na2vs0mg"},{"bike_id":"f00edc13-f36f-48e1-91ef-9c20dba77eb5","system_id":"levelo_inurba_marseille","lat":43.337588,"lon":5.374346,"is_reserved":false,"is_disabled":false,"rental_uris":{"android":"levelo://app?vid=f00edc13-f36f-48e1-91ef-9c20dba77eb5","ios":"levelo://app?vid=f00edc13-f36f-48e1-91ef-9c20dba77eb5"},"vehicle_type_id":"4","last_reported":1753092779,"current_range_meters":19600,"station_id":"","pricing_plan_id":"cebpf4jnsgd1na2vs0mg"},{"bike_id":"7c2d1fcc-642d-4b3e-b123-58c7a5afe87a","system_id":"levelo_inurba_marseille","lat":43.32383,"lon":5.38931,"is_reserved":false,"is_disabled":false,"rental_uris":{"android":"levelo://app?vid=7c2d1fcc-642d-4b3e-b123-58c7a5afe87a","ios":"levelo://app?vid=7c2d1fcc-642d-4b3e-b123-58c7a5afe87a"},"vehicle_type_id":"4","last_reported":1753092779,"current_range_meters":19600,"station_id":"ce4bhqp2rcd13ifvqhog","pricing_plan_id":"cebpf4jnsgd1na2vs0mg"},{"bike_id":"e77da9ef-8155-42a4-a49c-30e2b59818cc","system_id":"levelo_inurba_marseille","lat":43.337444,"lon":5.374475,"is_reserved":false,"is_disabled":false,"rental_uris":{"android":"levelo://app?vid=e77da9ef-8155-42a4-a49c-30e2b59818cc","ios":"levelo://app?vid=e77da9ef-8155-42a4-a49c-30e2b59818cc"},"vehicle_type_id":"4","last_reported":1753092779,"current_range_meters":19600,"station_id":"","pricing_plan_id":"cebpf4jnsgd1na2vs0mg"},{"bike_id":"5140bb8e-c44f-4d3a-995a-3be3ee966f00","system_id":"levelo_inurba_marseille","lat":43.28418,"lon":5.37516,"is_reserved":false,"is_disabled":false,"rental_uris":{"android":"levelo://app?vid=5140bb8e-c44f-4d3a-995a-3be3ee966f00","ios":"levelo://app?vid=5140bb8e-c44f-4d3a-995a-3be3ee966f00"},"vehicle_type_id":"4","last_reported":1753092779,"current_range_meters":20000,"station_id":"ce4bh412rcd13ifvqds0","pricing_plan_id":"cebpf4jnsgd1na2vs0mg"},{"bike_id":"76ce6848-b3ec-411d-826e-fe6f5f277e84","system_id":"levelo_inurba_marseille","lat":43.29039,"lon":5.39977,"is_reserved":false,"is_disabled":true,"rental_uris":{"android":"levelo://app?vid=76ce6848-b3ec-411d-826e-fe6f5f277e84","ios":"levelo://app?vid=76ce6848-b3ec-411d-826e-fe6f5f277e84"},"vehicle_type_id":"4","last_reported":1753092779,"current_range_meters":20000,"station_id":"","pricing_plan_id":"cebpf4jnsgd1na2vs0mg"},{"bike_id":"0252eab3-c3f3-4486-b893-58cb3f957c57","system_id":"levelo_inurba_marseille","lat":43.3172,"lon":5.38511,"is_reserved":false,"is_disabled":false,"rental_uris":{"android":"levelo://app?vid=0252eab3-c3f3-4486-b893-58cb3f957c57","ios":"levelo://app?vid=0252eab3-c3f3-4486-b893-58cb3f957c57"},"vehicle_type_id":"4","last_reported":1753092779,"current_range_meters":20000,"station_id":"","pricing_plan_id":"cebpf4jnsgd1na2vs0mg"},{"bike_id":"63ebbb23-7975-446c-b9c3-3cb1d4771bd9","system_id":"levelo_inurba_marseille","lat":43.25105,"lon":5.40328,"is_reserved":false,"is_disabled":false,"rental_uris":{"android":"levelo://app?vid=63ebbb23-7975-446c-b9c3-3cb1d4771bd9","ios":"levelo://app?vid=63ebbb23-7975-446c-b9c3-3cb1d4771bd9"},"vehicle_type_id":"4","last_reported":1753092779,"current_range_meters":19600,"station_id":"ce4bhlh2rcd13ifvqgig","pricing_plan_id":"cebpf4jnsgd1na2vs0mg"},{"bike_id":"56c849d0-2fd7-4663-bd40-4459368ce979","system_id":"levelo_inurba_marseille","lat":43.31224,"lon":5.36858,"is_reserved":false,"is_disabled":false,"rental_uris":{"android":"levelo://app?vid=56c849d0-2fd7-4663-bd40-4459368ce979","ios":"levelo://app?vid=56c849d0-2fd7-4663-bd40-4459368ce979"},"vehicle_type_id":"4","last_reported":1753092779,"current_range_meters":20000,"station_id":"ce4bgl92rcd13ifvqbq0","pricing_plan_id":"cebpf4jnsgd1na2vs0mg"},{"bike_id":"b4c1aa2a-e931-4ce6-8816-30ad77bdd520","system_id":"levelo_inurba_marseille","lat":43.241448,"lon":5.363743,"is_reserved":false,"is_disabled":false,"rental_uris":{"android":"levelo://app?vid=b4c1aa2a-e931-4ce6-8816-30ad77bdd520","ios":"levelo://app?vid=b4c1aa2a-e931-4ce6-8816-30ad77bdd520"},"vehicle_type_id":"4","last_reported":1753092779,"current_range_meters":20000,"station_id":"","pricing_plan_id":"cebpf4jnsgd1na2vs0mg"},{"bike_id":"d73c1d0f-157a-4015-9621-7ab7ab5c293c","system_id":"levelo_inurba_marseille","lat":43.27832,"lon":5.3921,"is_reserved":false,"is_disabled":false,"rental_uris":{"android":"levelo://app?vid=d73c1d0f-157a-4015-9621-7ab7ab5c293c","ios":"levelo://app?vid=d73c1d0f-157a-4015-9621-7ab7ab5c293c"},"vehicle_type_id":"4","last_reported":1753092779,"current_range_meters":20000,"station_id":"ce4bhjp2rcd13ifvqga0","pricing_plan_id":"cebpf4jnsgd1na2vs0mg"},{"bike_id":"3e228364-47ff-4e34-a333-936b328ef3ca","system_id":"levelo_inurba_marseille","lat":43.29621,"lon":5.3774,"is_reserved":false,"is_disabled":false,"rental_uris":{"android":"levelo://app?vid=3e228364-47ff-4e34-a333-936b328ef3ca","ios":"levelo://app?vid=3e228364-47ff-4e34-a333-936b328ef3ca"},"vehicle_type_id":"4","last_reported":1753092779,"current_range_meters":20000,"station_id":"ce4bgi92rcd13ifvqb90","pricing_plan_id":"cebpf4jnsgd1na2vs0mg"},{"bike_id":"5e4577d0-6bc3-49c3-849d-1eb7e6dfe630","system_id":"levelo_inurba_marseille","lat":43.26558,"lon":5.39021,"is_reserved":false,"is_disabled":false,"rental_uris":{"android":"levelo://app?vid=5e4577d0-6bc3-49c3-849d-1eb7e6dfe630","ios":"levelo://app?vid=5e4577d0-6bc3-49c3-849d-1eb7e6dfe630"},"vehicle_type_id":"4","last_reported":1753092779,"current_range_meters":20000,"station_id":"ce4bhe12rcd13ifvqf30","pricing_plan_id":"cebpf4jnsgd1na2vs0mg"},{"bike_id":"f2ae3914-afd9-4ae9-b087-b6a8c5753948","system_id":"levelo_inurba_marseille","lat":43.323632,"lon":5.367388,"is_reserved":false,"is_disabled":false,"rental_uris":{"android":"levelo://app?vid=f2ae3914-afd9-4ae9-b087-b6a8c5753948","ios":"levelo://app?vid=f2ae3914-afd9-4ae9-b087-b6a8c5753948"},"vehicle_type_id":"4","last_reported":1753092779,"current_range_meters":20000,"station_id":"ce4bhsh2rcd13ifvqi2g","pricing_plan_id":"cebpf4jnsgd1na2vs0mg"},{"bike_id":"a8425362-197a-4dc6-a73b-d17d37743a9c","system_id":"levelo_inurba_marseille","lat":43.21759,"lon":5.34617,"is_reserved":false,"is_disabled":false,"rental_uris":{"android":"levelo://app?vid=a8425362-197a-4dc6-a73b-d17d37743a9c","ios":"levelo://app?vid=a8425362-197a-4dc6-a73b-d17d37743a9c"},"vehicle_type_id":"4","last_reported":1753092779,"current_range_meters":20000,"station_id":"st_cvj6r9ubvosntc0bgbag","pricing_plan_id":"cebpf4jnsgd1na2vs0mg"},{"bike_id":"ee09eda1-e075-4f4d-9c5f-ac6a4aa881c4","system_id":"levelo_inurba_marseille","lat":43.278195,"lon":5.407193,"is_reserved":false,"is_disabled":false,"rental_uris":{"android":"levelo://app?vid=ee09eda1-e075-4f4d-9c5f-ac6a4aa881c4","ios":"levelo://app?vid=ee09eda1-e075-4f4d-9c5f-ac6a4aa881c4"},"vehicle_type_id":"4","last_reported":1753092779,"current_range_meters":20400,"station_id":"ce4bhnh2rcd13ifvqgtg","pricing_plan_id":"cebpf4jnsgd1na2vs0mg"},{"bike_id":"6c93957c-439a-4d9a-81df-092bf8c0d567","system_id":"levelo_inurba_marseille","lat":43.304273,"lon":5.412705,"is_reserved":false,"is_disabled":false,"rental_uris":{"android":"levelo://app?vid=6c93957c-439a-4d9a-81df-092bf8c0d567","ios":"levelo://app?vid=6c93957c-439a-4d9a-81df-092bf8c0d567"},"vehicle_type_id":"4","last_reported":1753092779,"current_range_meters":20400,"station_id":"ce4bhop2rcd13ifvqh8g","pricing_plan_id":"cebpf4jnsgd1na2vs0mg"},{"bike_id":"534098fe-a2b0-45be-a076-83fc2f5e28f9","system_id":"levelo_inurba_marseille","lat":43.32072,"lon":5.36887,"is_reserved":false,"is_disabled":false,"rental_uris":{"android":"levelo://app?vid=534098fe-a2b0-45be-a076-83fc2f5e28f9","ios":"levelo://app?vid=534098fe-a2b0-45be-a076-83fc2f5e28f9"},"vehicle_type_id":"4","last_reported":1753092779,"current_range_meters":20400,"station_id":"ce4bhrh2rcd13ifvqhug","pricing_plan_id":"cebpf4jnsgd1na2vs0mg"},{"bike_id":"663bf1a8-976c-41bf-8093-27f59581b328","system_id":"levelo_inurba_marseille","lat":43.3089,"lon":5.39655,"is_reserved":false,"is_disabled":false,"rental_uris":{"android":"levelo://app?vid=663bf1a8-976c-41bf-8093-27f59581b328","ios":"levelo://app?vid=663bf1a8-976c-41bf-8093-27f59581b328"},"vehicle_type_id":"4","last_reported":1753092779,"current_range_meters":19600,"station_id":"ce4bh012rcd13ifvqcv0","pricing_plan_id":"cebpf4jnsgd1na2vs0mg"},{"bike_id":"e371b02c-6be8-41a0-80db-3b45d29259be","system_id":"levelo_inurba_marseille","lat":43.24668,"lon":5.38166,"is_reserved":false,"is_disabled":false,"rental_uris":{"android":"levelo://app?vid=e371b02c-6be8-41a0-80db-3b45d29259be","ios":"levelo://app?vid=e371b02c-6be8-41a0-80db-3b45d29259be"},"vehicle_type_id":"4","last_reported":1753092779,"current_range_meters":20400,"station_id":"ce4bhih2rcd13ifvqfr0","pricing_plan_id":"cebpf4jnsgd1na2vs0mg"},{"bike_id":"7d97e456-45c1-4597-8a3a-25e0fbee520a","system_id":"levelo_inurba_marseille","lat":43.29058,"lon":5.3717,"is_reserved":false,"is_disabled":false,"rental_uris":{"android":"levelo://app?vid=7d97e456-45c1-4597-8a3a-25e0fbee520a","ios":"levelo://app?vid=7d97e456-45c1-4597-8a3a-25e0fbee520a"},"vehicle_type_id":"4","last_reported":1753092779,"current_range_meters":20400,"station_id":"ce4bgh92rcd13ifvqb40","pricing_plan_id":"cebpf4jnsgd1na2vs0mg"},{"bike_id":"51dbd4b0-a033-403d-8cc9-2cd58c64a018","system_id":"levelo_inurba_marseille","lat":43.2721,"lon":5.3918,"is_reserved":false,"is_disabled":false,"rental_uris":{"android":"levelo://app?vid=51dbd4b0-a033-403d-8cc9-2cd58c64a018","ios":"levelo://app?vid=51dbd4b0-a033-403d-8cc9-2cd58c64a018"},"vehicle_type_id":"4","last_reported":1753092779,"current_range_meters":20000,"station_id":"ce4bhhp2rcd13ifvqfm0","pricing_plan_id":"cebpf4jnsgd1na2vs0mg"},{"bike_id":"de5426ba-ae67-47a4-bece-c11c7065cd1e","system_id":"levelo_inurba_marseille","lat":43.211874,"lon":5.350811,"is_reserved":false,"is_disabled":false,"rental_uris":{"android":"levelo://app?vid=de5426ba-ae67-47a4-bece-c11c7065cd1e","ios":"levelo://app?vid=de5426ba-ae67-47a4-bece-c11c7065cd1e"},"vehicle_type_id":"4","last_reported":1753092779,"current_range_meters":20400,"station_id":"st_cvj6sg6p6f1abm77japg","pricing_plan_id":"cebpf4jnsgd1na2vs0mg"},{"bike_id":"51931bf6-1eb4-445c-8f29-98888cfaefc7","system_id":"levelo_inurba_marseille","lat":43.29402,"lon":5.39862,"is_reserved":false,"is_disabled":false,"rental_uris":{"android":"levelo://app?vid=51931bf6-1eb4-445c-8f29-98888cfaefc7","ios":"levelo://app?vid=51931bf6-1eb4-445c-8f29-98888cfaefc7"},"vehicle_type_id":"4","last_reported":1753092779,"current_range_meters":20800,"station_id":"","pricing_plan_id":"cebpf4jnsgd1na2vs0mg"},{"bike_id":"6db579c2-caeb-4b29-bb94-d1803cf5a4f2","system_id":"levelo_inurba_marseille","lat":43.337444,"lon":5.374475,"is_reserved":false,"is_disabled":false,"rental_uris":{"android":"levelo://app?vid=6db579c2-caeb-4b29-bb94-d1803cf5a4f2","ios":"levelo://app?vid=6db579c2-caeb-4b29-bb94-d1803cf5a4f2"},"vehicle_type_id":"4","last_reported":1753092779,"current_range_meters":20800,"station_id":"","pricing_plan_id":"cebpf4jnsgd1na2vs0mg"},{"bike_id":"5153e984-1abc-4d5b-91ef-21249865a3e6","system_id":"levelo_inurba_marseille","lat":43.21192,"lon":5.3506,"is_reserved":false,"is_disabled":false,"rental_uris":{"android":"levelo://app?vid=5153e984-1abc-4d5b-91ef-21249865a3e6","ios":"levelo://app?vid=5153e984-1abc-4d5b-91ef-21249865a3e6"},"vehicle_type_id":"4","last_reported":1753092779,"current_range_meters":20800,"station_id":"st_cvj6sg6p6f1abm77japg","pricing_plan_id":"cebpf4jnsgd1na2vs0mg"},{"bike_id":"201f3062-fb91-435d-8d11-2fc3a620191f","system_id":"levelo_inurba_marseille","lat":43.31589,"lon":5.39003,"is_reserved":false,"is_disabled":false,"rental_uris":{"android":"levelo://app?vid=201f3062-fb91-435d-8d11-2fc3a620191f","ios":"levelo://app?vid=201f3062-fb91-435d-8d11-2fc3a620191f"},"vehicle_type_id":"4","last_reported":1753092779,"current_range_meters":20800,"station_id":"","pricing_plan_id":"cebpf4jnsgd1na2vs0mg"},{"bike_id":"ab67d62d-583f-4f74-976b-3e9f5750f312","system_id":"levelo_inurba_marseille","lat":43.29705,"lon":5.36594,"is_reserved":false,"is_disabled":false,"rental_uris":{"android":"levelo://app?vid=ab67d62d-583f-4f74-976b-3e9f5750f312","ios":"levelo://app?vid=ab67d62d-583f-4f74-976b-3e9f5750f312"},"vehicle_type_id":"4","last_reported":1753092779,"current_range_meters":20800,"station_id":"ce4bgn12rcd13ifvqbt0","pricing_plan_id":"cebpf4jnsgd1na2vs0mg"},{"bike_id":"55fe5456-5f78-44e0-9423-82298263904d","system_id":"levelo_inurba_marseille","lat":43.29093,"lon":5.3813,"is_reserved":false,"is_disabled":false,"rental_uris":{"android":"levelo://app?vid=55fe5456-5f78-44e0-9423-82298263904d","ios":"levelo://app?vid=55fe5456-5f78-44e0-9423-82298263904d"},"vehicle_type_id":"4","last_reported":1753092779,"current_range_meters":20400,"station_id":"ce4bh512rcd13ifvqe2g","pricing_plan_id":"cebpf4jnsgd1na2vs0mg"},{"bike_id":"86162b67-9bb9-4cf4-bc50-2e57c91c5b08","system_id":"levelo_inurba_marseille","lat":43.27413,"lon":5.39416,"is_reserved":false,"is_disabled":false,"rental_uris":{"android":"levelo://app?vid=86162b67-9bb9-4cf4-bc50-2e57c91c5b08","ios":"levelo://app?vid=86162b67-9bb9-4cf4-bc50-2e57c91c5b08"},"vehicle_type_id":"4","last_reported":1753092779,"current_range_meters":20800,"station_id":"ce4bhgp2rcd13ifvqfe0","pricing_plan_id":"cebpf4jnsgd1na2vs0mg"},{"bike_id":"dda96cde-9f78-4371-a72f-1d24145c396a","system_id":"levelo_inurba_marseille","lat":43.21194,"lon":5.35078,"is_reserved":false,"is_disabled":false,"rental_uris":{"android":"levelo://app?vid=dda96cde-9f78-4371-a72f-1d24145c396a","ios":"levelo://app?vid=dda96cde-9f78-4371-a72f-1d24145c396a"},"vehicle_type_id":"4","last_reported":1753092779,"current_range_meters":21600,"station_id":"st_cvj6sg6p6f1abm77japg","pricing_plan_id":"cebpf4jnsgd1na2vs0mg"},{"bike_id":"c10ad133-aa85-461d-a4c4-2e3f0783aa23","system_id":"levelo_inurba_marseille","lat":43.24552,"lon":5.3953,"is_reserved":false,"is_disabled":true,"rental_uris":{"android":"levelo://app?vid=c10ad133-aa85-461d-a4c4-2e3f0783aa23","ios":"levelo://app?vid=c10ad133-aa85-461d-a4c4-2e3f0783aa23"},"vehicle_type_id":"4","last_reported":1753092779,"current_range_meters":21600,"station_id":"ce4bhlp2rcd13ifvqgjg","pricing_plan_id":"cebpf4jnsgd1na2vs0mg"},{"bike_id":"e1821983-402d-4a49-a51f-17090930a3e9","system_id":"levelo_inurba_marseille","lat":43.21194,"lon":5.35072,"is_reserved":false,"is_disabled":false,"rental_uris":{"android":"levelo://app?vid=e1821983-402d-4a49-a51f-17090930a3e9","ios":"levelo://app?vid=e1821983-402d-4a49-a51f-17090930a3e9"},"vehicle_type_id":"4","last_reported":1753092779,"current_range_meters":21600,"station_id":"st_cvj6sg6p6f1abm77japg","pricing_plan_id":"cebpf4jnsgd1na2vs0mg"},{"bike_id":"bf389733-537f-48c7-94ff-fbc7815dcc9b","system_id":"levelo_inurba_marseille","lat":43.305368,"lon":5.365128,"is_reserved":false,"is_disabled":false,"rental_uris":{"android":"levelo://app?vid=bf389733-537f-48c7-94ff-fbc7815dcc9b","ios":"levelo://app?vid=bf389733-537f-48c7-94ff-fbc7815dcc9b"},"vehicle_type_id":"4","last_reported":1753092779,"current_range_meters":21600,"station_id":"ce4bgs12rcd13ifvqcag","pricing_plan_id":"cebpf4jnsgd1na2vs0mg"},{"bike_id":"43289c39-b43b-4745-8781-6d56ee0c5b1f","system_id":"levelo_inurba_marseille","lat":43.31197,"lon":5.36801,"is_reserved":false,"is_disabled":false,"rental_uris":{"android":"levelo://app?vid=43289c39-b43b-4745-8781-6d56ee0c5b1f","ios":"levelo://app?vid=43289c39-b43b-4745-8781-6d56ee0c5b1f"},"vehicle_type_id":"4","last_reported":1753092779,"current_range_meters":21600,"station_id":"","pricing_plan_id":"cebpf4jnsgd1na2vs0mg"},{"bike_id":"75ec06c9-faae-4fcc-b242-a14e1b77604d","system_id":"levelo_inurba_marseille","lat":43.27168,"lon":5.40996,"is_reserved":false,"is_disabled":false,"rental_uris":{"android":"levelo://app?vid=75ec06c9-faae-4fcc-b242-a14e1b77604d","ios":"levelo://app?vid=75ec06c9-faae-4fcc-b242-a14e1b77604d"},"vehicle_type_id":"4","last_reported":1753092779,"current_range_meters":22000,"station_id":"ce4bhl12rcd13ifvqgf0","pricing_plan_id":"cebpf4jnsgd1na2vs0mg"},{"bike_id":"891ebb35-1a90-4828-86a0-7622238fe05c","system_id":"levelo_inurba_marseille","lat":43.29022,"lon":5.38137,"is_reserved":false,"is_disabled":false,"rental_uris":{"android":"levelo://app?vid=891ebb35-1a90-4828-86a0-7622238fe05c","ios":"levelo://app?vid=891ebb35-1a90-4828-86a0-7622238fe05c"},"vehicle_type_id":"4","last_reported":1753092779,"current_range_meters":22000,"station_id":"ce4bh4p2rcd13ifvqe1g","pricing_plan_id":"cebpf4jnsgd1na2vs0mg"},{"bike_id":"3700fdf7-6752-4ebc-916f-d514055b512f","system_id":"levelo_inurba_marseille","lat":43.29771,"lon":5.38126,"is_reserved":false,"is_disabled":false,"rental_uris":{"android":"levelo://app?vid=3700fdf7-6752-4ebc-916f-d514055b512f","ios":"levelo://app?vid=3700fdf7-6752-4ebc-916f-d514055b512f"},"vehicle_type_id":"4","last_reported":1753092779,"current_range_meters":22000,"station_id":"ce4bgip2rcd13ifvqbb0","pricing_plan_id":"cebpf4jnsgd1na2vs0mg"},{"bike_id":"aa300bb4-247d-477d-8bc1-77828548a2ac","system_id":"levelo_inurba_marseille","lat":43.30918,"lon":5.37214,"is_reserved":false,"is_disabled":false,"rental_uris":{"android":"levelo://app?vid=aa300bb4-247d-477d-8bc1-77828548a2ac","ios":"levelo://app?vid=aa300bb4-247d-477d-8bc1-77828548a2ac"},"vehicle_type_id":"4","last_reported":1753092779,"current_range_meters":22000,"station_id":"ce4bguh2rcd13ifvqckg","pricing_plan_id":"cebpf4jnsgd1na2vs0mg"},{"bike_id":"81f88721-00d0-431c-83bf-446e11578408","system_id":"levelo_inurba_marseille","lat":43.22501,"lon":5.34794,"is_reserved":false,"is_disabled":false,"rental_uris":{"android":"levelo://app?vid=81f88721-00d0-431c-83bf-446e11578408","ios":"levelo://app?vid=81f88721-00d0-431c-83bf-446e11578408"},"vehicle_type_id":"4","last_reported":1753092779,"current_range_meters":22400,"station_id":"st_cvj5dfep6f1abm77gieg","pricing_plan_id":"cebpf4jnsgd1na2vs0mg"},{"bike_id":"2251f7ce-61cd-4bc7-a5fd-77d576caa1e8","system_id":"levelo_inurba_marseille","lat":43.30179,"lon":5.38078,"is_reserved":false,"is_disabled":false,"rental_uris":{"android":"levelo://app?vid=2251f7ce-61cd-4bc7-a5fd-77d576caa1e8","ios":"levelo://app?vid=2251f7ce-61cd-4bc7-a5fd-77d576caa1e8"},"vehicle_type_id":"4","last_reported":1753092779,"current_range_meters":22000,"station_id":"ce4bgjp2rcd13ifvqbh0","pricing_plan_id":"cebpf4jnsgd1na2vs0mg"},{"bike_id":"01bc6391-b5f6-4327-bf49-b442439da127","system_id":"levelo_inurba_marseille","lat":43.24665,"lon":5.38165,"is_reserved":false,"is_disabled":false,"rental_uris":{"android":"levelo://app?vid=01bc6391-b5f6-4327-bf49-b442439da127","ios":"levelo://app?vid=01bc6391-b5f6-4327-bf49-b442439da127"},"vehicle_type_id":"4","last_reported":1753092779,"current_range_meters":22400,"station_id":"ce4bhih2rcd13ifvqfr0","pricing_plan_id":"cebpf4jnsgd1na2vs0mg"},{"bike_id":"69bc51f8-a7fe-4ea9-a95e-46aa06773691","system_id":"levelo_inurba_marseille","lat":43.2121,"lon":5.35054,"is_reserved":false,"is_disabled":false,"rental_uris":{"android":"levelo://app?vid=69bc51f8-a7fe-4ea9-a95e-46aa06773691","ios":"levelo://app?vid=69bc51f8-a7fe-4ea9-a95e-46aa06773691"},"vehicle_type_id":"4","last_reported":1753092779,"current_range_meters":22400,"station_id":"st_cvj6sg6p6f1abm77japg","pricing_plan_id":"cebpf4jnsgd1na2vs0mg"},{"bike_id":"7a3e8286-d23a-436c-a229-6ffa0c627ba2","system_id":"levelo_inurba_marseille","lat":43.21186,"lon":5.35069,"is_reserved":false,"is_disabled":false,"rental_uris":{"android":"levelo://app?vid=7a3e8286-d23a-436c-a229-6ffa0c627ba2","ios":"levelo://app?vid=7a3e8286-d23a-436c-a229-6ffa0c627ba2"},"vehicle_type_id":"4","last_reported":1753092779,"current_range_meters":22400,"station_id":"st_cvj6sg6p6f1abm77japg","pricing_plan_id":"cebpf4jnsgd1na2vs0mg"},{"bike_id":"6eac293b-8366-4ea6-98e5-b20ca0f547e7","system_id":"levelo_inurba_marseille","lat":43.30148,"lon":5.39882,"is_reserved":false,"is_disabled":false,"rental_uris":{"android":"levelo://app?vid=6eac293b-8366-4ea6-98e5-b20ca0f547e7","ios":"levelo://app?vid=6eac293b-8366-4ea6-98e5-b20ca0f547e7"},"vehicle_type_id":"4","last_reported":1753092779,"current_range_meters":22000,"station_id":"ce4bh0h2rcd13ifvqd40","pricing_plan_id":"cebpf4jnsgd1na2vs0mg"},{"bike_id":"a18bb49d-1f4a-4a1f-8713-0ccce8962909","system_id":"levelo_inurba_marseille","lat":43.25781,"lon":5.41119,"is_reserved":false,"is_disabled":false,"rental_uris":{"android":"levelo://app?vid=a18bb49d-1f4a-4a1f-8713-0ccce8962909","ios":"levelo://app?vid=a18bb49d-1f4a-4a1f-8713-0ccce8962909"},"vehicle_type_id":"4","last_reported":1753092779,"current_range_meters":22800,"station_id":"ce4bhkp2rcd13ifvqgd0","pricing_plan_id":"cebpf4jnsgd1na2vs0mg"},{"bike_id":"3876af6e-a868-4aa6-afbb-deb3bffdb10a","system_id":"levelo_inurba_marseille","lat":43.22933,"lon":5.35396,"is_reserved":false,"is_disabled":false,"rental_uris":{"android":"levelo://app?vid=3876af6e-a868-4aa6-afbb-deb3bffdb10a","ios":"levelo://app?vid=3876af6e-a868-4aa6-afbb-deb3bffdb10a"},"vehicle_type_id":"4","last_reported":1753092779,"current_range_meters":22800,"station_id":"cpo3532slgdg3j2ikp40","pricing_plan_id":"cebpf4jnsgd1na2vs0mg"},{"bike_id":"e80f062d-07e0-4564-b2a0-f9c94e191f16","system_id":"levelo_inurba_marseille","lat":43.261931,"lon":5.374644,"is_reserved":false,"is_disabled":false,"rental_uris":{"android":"levelo://app?vid=e80f062d-07e0-4564-b2a0-f9c94e191f16","ios":"levelo://app?vid=e80f062d-07e0-4564-b2a0-f9c94e191f16"},"vehicle_type_id":"4","last_reported":1753092779,"current_range_meters":22800,"station_id":"ce4bhgp2rcd13ifvqfc0","pricing_plan_id":"cebpf4jnsgd1na2vs0mg"},{"bike_id":"c09f08b4-087a-49cd-9dae-f24e654d3c30","system_id":"levelo_inurba_marseille","lat":43.337444,"lon":5.374475,"is_reserved":false,"is_disabled":false,"rental_uris":{"android":"levelo://app?vid=c09f08b4-087a-49cd-9dae-f24e654d3c30","ios":"levelo://app?vid=c09f08b4-087a-49cd-9dae-f24e654d3c30"},"vehicle_type_id":"4","last_reported":1753092779,"current_range_meters":22800,"station_id":"ce4bh0h2rcd13ifvqd40","pricing_plan_id":"cebpf4jnsgd1na2vs0mg"},{"bike_id":"09ce1f37-5b07-45c4-a76c-7ba0d0176051","system_id":"levelo_inurba_marseille","lat":43.32367,"lon":5.36766,"is_reserved":false,"is_disabled":false,"rental_uris":{"android":"levelo://app?vid=09ce1f37-5b07-45c4-a76c-7ba0d0176051","ios":"levelo://app?vid=09ce1f37-5b07-45c4-a76c-7ba0d0176051"},"vehicle_type_id":"4","last_reported":1753092779,"current_range_meters":22800,"station_id":"ce4bhsh2rcd13ifvqi2g","pricing_plan_id":"cebpf4jnsgd1na2vs0mg"},{"bike_id":"112c519a-75f9-465e-a3be-d35e91feb119","system_id":"levelo_inurba_marseille","lat":43.225,"lon":5.347884,"is_reserved":false,"is_disabled":false,"rental_uris":{"android":"levelo://app?vid=112c519a-75f9-465e-a3be-d35e91feb119","ios":"levelo://app?vid=112c519a-75f9-465e-a3be-d35e91feb119"},"vehicle_type_id":"4","last_reported":1753092779,"current_range_meters":22800,"station_id":"st_cvj5dfep6f1abm77gieg","pricing_plan_id":"cebpf4jnsgd1na2vs0mg"},{"bike_id":"875c6470-4bd1-429a-b8f9-04be22eb75f1","system_id":"levelo_inurba_marseille","lat":43.2315,"lon":5.43713,"is_reserved":false,"is_disabled":true,"rental_uris":{"android":"levelo://app?vid=875c6470-4bd1-429a-b8f9-04be22eb75f1","ios":"levelo://app?vid=875c6470-4bd1-429a-b8f9-04be22eb75f1"},"vehicle_type_id":"4","last_reported":1753092779,"current_range_meters":22800,"station_id":"ce4bhmp2rcd13ifvqgog","pricing_plan_id":"cebpf4jnsgd1na2vs0mg"},{"bike_id":"d1996426-d9d8-41f6-ad09-83aa4b68a6d6","system_id":"levelo_inurba_marseille","lat":43.25727,"lon":5.41131,"is_reserved":false,"is_disabled":false,"rental_uris":{"android":"levelo://app?vid=d1996426-d9d8-41f6-ad09-83aa4b68a6d6","ios":"levelo://app?vid=d1996426-d9d8-41f6-ad09-83aa4b68a6d6"},"vehicle_type_id":"4","last_reported":1753092779,"current_range_meters":22800,"station_id":"ce4bhkp2rcd13ifvqgd0","pricing_plan_id":"cebpf4jnsgd1na2vs0mg"},{"bike_id":"b1d5754d-fa7b-4fb2-ae2d-5068d9c31d45","system_id":"levelo_inurba_marseille","lat":43.33672,"lon":5.39208,"is_reserved":false,"is_disabled":false,"rental_uris":{"android":"levelo://app?vid=b1d5754d-fa7b-4fb2-ae2d-5068d9c31d45","ios":"levelo://app?vid=b1d5754d-fa7b-4fb2-ae2d-5068d9c31d45"},"vehicle_type_id":"4","last_reported":1753092779,"current_range_meters":23200,"station_id":"","pricing_plan_id":"cebpf4jnsgd1na2vs0mg"},{"bike_id":"2f813dc2-0a1b-4de4-a4b8-dce7afb0880a","system_id":"levelo_inurba_marseille","lat":43.29802,"lon":5.38093,"is_reserved":false,"is_disabled":false,"rental_uris":{"android":"levelo://app?vid=2f813dc2-0a1b-4de4-a4b8-dce7afb0880a","ios":"levelo://app?vid=2f813dc2-0a1b-4de4-a4b8-dce7afb0880a"},"vehicle_type_id":"4","last_reported":1753092779,"current_range_meters":23200,"station_id":"ce4bgip2rcd13ifvqbb0","pricing_plan_id":"cebpf4jnsgd1na2vs0mg"},{"bike_id":"76c09f80-c836-48c2-8ee6-93c747adbaa1","system_id":"levelo_inurba_marseille","lat":43.320975,"lon":5.367736,"is_reserved":false,"is_disabled":false,"rental_uris":{"android":"levelo://app?vid=76c09f80-c836-48c2-8ee6-93c747adbaa1","ios":"levelo://app?vid=76c09f80-c836-48c2-8ee6-93c747adbaa1"},"vehicle_type_id":"4","last_reported":1753092779,"current_range_meters":23200,"station_id":"ce4bhrh2rcd13ifvqhug","pricing_plan_id":"cebpf4jnsgd1na2vs0mg"},{"bike_id":"76eeea32-2ee3-47ac-8968-6f1d6354c18e","system_id":"levelo_inurba_marseille","lat":43.27984,"lon":5.38744,"is_reserved":false,"is_disabled":false,"rental_uris":{"android":"levelo://app?vid=76eeea32-2ee3-47ac-8968-6f1d6354c18e","ios":"levelo://app?vid=76eeea32-2ee3-47ac-8968-6f1d6354c18e"},"vehicle_type_id":"4","last_reported":1753092779,"current_range_meters":23200,"station_id":"ce4bhg12rcd13ifvqf80","pricing_plan_id":"cebpf4jnsgd1na2vs0mg"},{"bike_id":"771103cf-3428-4a21-a9b7-40a2829d5489","system_id":"levelo_inurba_marseille","lat":43.30949,"lon":5.39044,"is_reserved":false,"is_disabled":false,"rental_uris":{"android":"levelo://app?vid=771103cf-3428-4a21-a9b7-40a2829d5489","ios":"levelo://app?vid=771103cf-3428-4a21-a9b7-40a2829d5489"},"vehicle_type_id":"4","last_reported":1753092779,"current_range_meters":23200,"station_id":"ce4bgup2rcd13ifvqco0","pricing_plan_id":"cebpf4jnsgd1na2vs0mg"},{"bike_id":"cc5e6e8e-2aa2-4ce8-8ae8-1d7d381346d3","system_id":"levelo_inurba_marseille","lat":43.23185,"lon":5.39993,"is_reserved":false,"is_disabled":false,"rental_uris":{"android":"levelo://app?vid=cc5e6e8e-2aa2-4ce8-8ae8-1d7d381346d3","ios":"levelo://app?vid=cc5e6e8e-2aa2-4ce8-8ae8-1d7d381346d3"},"vehicle_type_id":"4","last_reported":1753092779,"current_range_meters":23200,"station_id":"ce4bhn12rcd13ifvqgqg","pricing_plan_id":"cebpf4jnsgd1na2vs0mg"},{"bike_id":"b71fe8c0-cc08-4b1b-b0aa-1d393743be47","system_id":"levelo_inurba_marseille","lat":43.31164,"lon":5.3873,"is_reserved":false,"is_disabled":false,"rental_uris":{"android":"levelo://app?vid=b71fe8c0-cc08-4b1b-b0aa-1d393743be47","ios":"levelo://app?vid=b71fe8c0-cc08-4b1b-b0aa-1d393743be47"},"vehicle_type_id":"4","last_reported":1753092779,"current_range_meters":22800,"station_id":"ce4bgv12rcd13ifvqcp0","pricing_plan_id":"cebpf4jnsgd1na2vs0mg"},{"bike_id":"8a39c155-1d46-4f92-a9c0-989e7bea464a","system_id":"levelo_inurba_marseille","lat":43.298069,"lon":5.381014,"is_reserved":false,"is_disabled":true,"rental_uris":{"android":"levelo://app?vid=8a39c155-1d46-4f92-a9c0-989e7bea464a","ios":"levelo://app?vid=8a39c155-1d46-4f92-a9c0-989e7bea464a"},"vehicle_type_id":"4","last_reported":1753092779,"current_range_meters":23200,"station_id":"ce4bgh92rcd13ifvqb50","pricing_plan_id":"cebpf4jnsgd1na2vs0mg"},{"bike_id":"fe32e36f-42f3-45cb-b9a0-7a075e1fb279","system_id":"levelo_inurba_marseille","lat":43.231879,"lon":5.355539,"is_reserved":false,"is_disabled":false,"rental_uris":{"android":"levelo://app?vid=fe32e36f-42f3-45cb-b9a0-7a075e1fb279","ios":"levelo://app?vid=fe32e36f-42f3-45cb-b9a0-7a075e1fb279"},"vehicle_type_id":"4","last_reported":1753092779,"current_range_meters":23200,"station_id":"ce4bhu92rcd13ifvqi70","pricing_plan_id":"cebpf4jnsgd1na2vs0mg"},{"bike_id":"6d23e765-24be-402c-b4de-ff24cb318e32","system_id":"levelo_inurba_marseille","lat":43.22916,"lon":5.35403,"is_reserved":false,"is_disabled":false,"rental_uris":{"android":"levelo://app?vid=6d23e765-24be-402c-b4de-ff24cb318e32","ios":"levelo://app?vid=6d23e765-24be-402c-b4de-ff24cb318e32"},"vehicle_type_id":"4","last_reported":1753092779,"current_range_meters":24000,"station_id":"cpo3532slgdg3j2ikp40","pricing_plan_id":"cebpf4jnsgd1na2vs0mg"},{"bike_id":"27beb1f4-425b-4e82-8c87-af2f76e7465a","system_id":"levelo_inurba_marseille","lat":43.2669,"lon":5.38257,"is_reserved":false,"is_disabled":false,"rental_uris":{"android":"levelo://app?vid=27beb1f4-425b-4e82-8c87-af2f76e7465a","ios":"levelo://app?vid=27beb1f4-425b-4e82-8c87-af2f76e7465a"},"vehicle_type_id":"4","last_reported":1753092779,"current_range_meters":24000,"station_id":"ce4bhg92rcd13ifvqf90","pricing_plan_id":"cebpf4jnsgd1na2vs0mg"},{"bike_id":"7fba89db-6428-409e-a75a-ee576d86d8e4","system_id":"levelo_inurba_marseille","lat":43.22949,"lon":5.35363,"is_reserved":false,"is_disabled":false,"rental_uris":{"android":"levelo://app?vid=7fba89db-6428-409e-a75a-ee576d86d8e4","ios":"levelo://app?vid=7fba89db-6428-409e-a75a-ee576d86d8e4"},"vehicle_type_id":"4","last_reported":1753092779,"current_range_meters":24000,"station_id":"cpo3532slgdg3j2ikp40","pricing_plan_id":"cebpf4jnsgd1na2vs0mg"},{"bike_id":"b0814be2-3228-42a3-8f14-9e3ad3e47b21","system_id":"levelo_inurba_marseille","lat":43.2501,"lon":5.38913,"is_reserved":false,"is_disabled":true,"rental_uris":{"android":"levelo://app?vid=b0814be2-3228-42a3-8f14-9e3ad3e47b21","ios":"levelo://app?vid=b0814be2-3228-42a3-8f14-9e3ad3e47b21"},"vehicle_type_id":"4","last_reported":1753092779,"current_range_meters":24000,"station_id":"ce4bhgp2rcd13ifvqfd0","pricing_plan_id":"cebpf4jnsgd1na2vs0mg"},{"bike_id":"9f03e7e5-fa08-4916-98ce-331a9d2e529e","system_id":"levelo_inurba_marseille","lat":43.270817,"lon":5.422592,"is_reserved":false,"is_disabled":true,"rental_uris":{"android":"levelo://app?vid=9f03e7e5-fa08-4916-98ce-331a9d2e529e","ios":"levelo://app?vid=9f03e7e5-fa08-4916-98ce-331a9d2e529e"},"vehicle_type_id":"4","last_reported":1753092779,"current_range_meters":24000,"station_id":"ce4bhk92rcd13ifvqgb0","pricing_plan_id":"cebpf4jnsgd1na2vs0mg"},{"bike_id":"5cd570b3-5ede-4c04-957b-bd2e249463fd","system_id":"levelo_inurba_marseille","lat":43.21206,"lon":5.35063,"is_reserved":false,"is_disabled":false,"rental_uris":{"android":"levelo://app?vid=5cd570b3-5ede-4c04-957b-bd2e249463fd","ios":"levelo://app?vid=5cd570b3-5ede-4c04-957b-bd2e249463fd"},"vehicle_type_id":"4","last_reported":1753092779,"current_range_meters":24000,"station_id":"st_cvj6sg6p6f1abm77japg","pricing_plan_id":"cebpf4jnsgd1na2vs0mg"},{"bike_id":"c8f79a67-642f-4e9a-8d05-68a245cbc107","system_id":"levelo_inurba_marseille","lat":43.30956,"lon":5.39042,"is_reserved":false,"is_disabled":false,"rental_uris":{"android":"levelo://app?vid=c8f79a67-642f-4e9a-8d05-68a245cbc107","ios":"levelo://app?vid=c8f79a67-642f-4e9a-8d05-68a245cbc107"},"vehicle_type_id":"4","last_reported":1753092779,"current_range_meters":24000,"station_id":"ce4bgup2rcd13ifvqco0","pricing_plan_id":"cebpf4jnsgd1na2vs0mg"},{"bike_id":"bc26a62a-9aeb-4ef0-8344-19057eac2c1e","system_id":"levelo_inurba_marseille","lat":43.23175,"lon":5.43664,"is_reserved":false,"is_disabled":false,"rental_uris":{"android":"levelo://app?vid=bc26a62a-9aeb-4ef0-8344-19057eac2c1e","ios":"levelo://app?vid=bc26a62a-9aeb-4ef0-8344-19057eac2c1e"},"vehicle_type_id":"4","last_reported":1753092779,"current_range_meters":24000,"station_id":"ce4bhmp2rcd13ifvqgog","pricing_plan_id":"cebpf4jnsgd1na2vs0mg"},{"bike_id":"6f0e0802-dc20-45c0-b94d-c8dfa2002e99","system_id":"levelo_inurba_marseille","lat":43.30948,"lon":5.39054,"is_reserved":false,"is_disabled":false,"rental_uris":{"android":"levelo://app?vid=6f0e0802-dc20-45c0-b94d-c8dfa2002e99","ios":"levelo://app?vid=6f0e0802-dc20-45c0-b94d-c8dfa2002e99"},"vehicle_type_id":"4","last_reported":1753092779,"current_range_meters":24000,"station_id":"ce4bgup2rcd13ifvqco0","pricing_plan_id":"cebpf4jnsgd1na2vs0mg"},{"bike_id":"cf6ff7ac-8f10-411d-9bd2-146885e51150","system_id":"levelo_inurba_marseille","lat":43.29931,"lon":5.37477,"is_reserved":false,"is_disabled":false,"rental_uris":{"android":"levelo://app?vid=cf6ff7ac-8f10-411d-9bd2-146885e51150","ios":"levelo://app?vid=cf6ff7ac-8f10-411d-9bd2-146885e51150"},"vehicle_type_id":"4","last_reported":1753092779,"current_range_meters":24000,"station_id":"ce4bgjh2rcd13ifvqbg0","pricing_plan_id":"cebpf4jnsgd1na2vs0mg"},{"bike_id":"36eba5a4-9b08-422a-b567-1eb84614c11d","system_id":"levelo_inurba_marseille","lat":43.29716,"lon":5.37699,"is_reserved":false,"is_disabled":false,"rental_uris":{"android":"levelo://app?vid=36eba5a4-9b08-422a-b567-1eb84614c11d","ios":"levelo://app?vid=36eba5a4-9b08-422a-b567-1eb84614c11d"},"vehicle_type_id":"4","last_reported":1753092779,"current_range_meters":24000,"station_id":"ce4bgkh2rcd13ifvqbl0","pricing_plan_id":"cebpf4jnsgd1na2vs0mg"},{"bike_id":"1a06dd92-604a-4d17-b714-0bf7313bcd26","system_id":"levelo_inurba_marseille","lat":43.26198,"lon":5.374592,"is_reserved":false,"is_disabled":false,"rental_uris":{"android":"levelo://app?vid=1a06dd92-604a-4d17-b714-0bf7313bcd26","ios":"levelo://app?vid=1a06dd92-604a-4d17-b714-0bf7313bcd26"},"vehicle_type_id":"4","last_reported":1753092779,"current_range_meters":24000,"station_id":"ce4bhgp2rcd13ifvqfc0","pricing_plan_id":"cebpf4jnsgd1na2vs0mg"},