{"last_updated":1730826527,"ttl":60,"version":"2.2","data":{"bikes":[{"bike_id":"2f303e9d-7400-40a4-a59c-f412d183bbe2","system_id":"levelo_inurba_marseille","lat":43.323277,"lon":5.386921,"is_reserved":false,"is_disabled":false,"rental_uris":{"android":"levelo://app?vid=2f303e9d-7400-40a4-a59c-f412d183bbe2","ios":"levelo://app?vid=2f303e9d-7400-40a4-a59c-f412d183bbe2"},"vehicle_type_id":"4","last_reported":1730826527,"current_range_meters":4000,"station_id":"","pricing_plan_id":"cebpf4jnsgd1na2vs0mg"},{"bike_id":"96475c42-8205-4138-a9ea-2e7ace57bf64","system_id":"levelo_inurba_marseille","lat":43.31687,"lon":5.40482,"is_reserved":false,"is_disabled":false,"rental_uris":{"android":"levelo://app?vid=96475c42-8205-4138-a9ea-2e7ace57bf64","ios":"levelo://app?vid=96475c42-8205-4138-a9ea-2e7ace57bf64"},"vehicle_type_id":"4","last_reported":1730826527,"current_range_meters":34000,"station_id":"ce4bh012rcd13ifvqd00","pricing_plan_id":"cebpf4jnsgd1na2vs0mg"},{"bike_id":"e983a3a2-b468-48ef-a374-a54128068ac7","system_id":"levelo_inurba_marseille","lat":43.33023,"lon":5.3904,"is_reserved":false,"is_disabled":false,"rental_uris":{"android":"levelo://app?vid=e983a3a2-b468-48ef-a374-a54128068ac7","ios":"levelo://app?vid=e983a3a2-b468-48ef-a374-a54128068ac7"},"vehicle_type_id":"4","last_reported":1730826527,"current_range_meters":28800,"station_id":"ce4bhr92rcd13ifvqhrg","pricing_plan_id":"cebpf4jnsgd1na2vs0mg"},{"bike_id":"b564df92-2505-47ed-837e-f41cd5b8d8f4","system_id":"levelo_inurba_marseille","lat":43.25086,"lon":5.39529,"is_reserved":false,"is_disabled":false,"rental_uris":{"android":"levelo://app?vid=b564df92-2505-47ed-837e-f41cd5b8d8f4","ios":"levelo://app?vid=b564df92-2505-47ed-837e-f41cd5b8d8f4"},"vehicle_type_id":"4","last_reported":1730826527,"current_range_meters":25200,"station_id":"ce4bhm12rcd13ifvqgkg","pricing_plan_id":"cebpf4jnsgd1na2vs0mg"},{"bike_id":"db99a483-1f05-414b-9132-d1b270beb911","system_id":"levelo_inurba_marseille","lat":43.28258,"lon":5.35063,"is_reserved":false,"is_disabled":false,"rental_uris":{"android":"levelo://app?vid=db99a483-1f05-414b-9132-d1b270beb911","ios":"levelo://app?vid=db99a483-1f05-414b-9132-d1b270beb911"},"vehicle_type_id":"4","last_reported":1730826527,"current_range_meters":18000,"station_id":"ce4bhbp2rcd13ifvqerg","pricing_plan_id":"cebpf4jnsgd1na2vs0mg"},{"bike_id":"4ad70402-0a95-461d-8914-ff676e83cd03","system_id":"levelo_inurba_marseille","lat":43.29037,"lon":5.38648,"is_reserved":false,"is_disabled":false,"rental_uris":{"android":"levelo://app?vid=4ad70402-0a95-461d-8914-ff676e83cd03","ios":"levelo://app?vid=4ad70402-0a95-461d-8914-ff676e83cd03"},"vehicle_type_id":"4","last_reported":1730826527,"current_range_meters":3600,"station_id":"ce4bh4p2rcd13ifvqe0g","pricing_plan_id":"cebpf4jnsgd1na2vs0mg"},{"bike_id":"2f421261-a528-4395-8a49-c894b9963f0b","system_id":"levelo_inurba_marseille","lat":43.30142,"lon":5.39883,"is_reserved":false,"is_disabled":false,"rental_uris":{"android":"levelo://app?vid=2f421261-a528-4395-8a49-c894b9963f0b","ios":"levelo://app?vid=2f421261-a528-4395-8a49-c894b9963f0b"},"vehicle_type_id":"4","last_reported":1730826527,"current_range_meters":26000,"station_id":"ce4bh0h2rcd13ifvqd40","pricing_plan_id":"cebpf4jnsgd1na2vs0mg"},{"bike_id":"e53e0c8f-093d-425b-a4c8-f6d42ad2377a","system_id":"levelo_inurba_marseille","lat":43.27909,"lon":5.38014,"is_reserved":false,"is_disabled":false,"rental_uris":{"android":"levelo://app?vid=e53e0c8f-093d-425b-a4c8-f6d42ad2377a","ios":"levelo://app?vid=e53e0c8f-093d-425b-a4c8-f6d42ad2377a"},"vehicle_type_id":"4","last_reported":1730826527,"current_range_meters":9200,"station_id":"ce4bhf92rcd13ifvqf50","pricing_plan_id":"cebpf4jnsgd1na2vs0mg"},{"bike_id":"acdd1ef2-6451-4487-8148-6ed0341a7bab","system_id":"levelo_inurba_marseille","lat":43.29098,"lon":5.38149,"is_reserved":false,"is_disabled":false,"rental_uris":{"android":"levelo://app?vid=acdd1ef2-6451-4487-8148-6ed0341a7bab","ios":"levelo://app?vid=acdd1ef2-6451-4487-8148-6ed0341a7bab"},"vehicle_type_id":"4","last_reported":1730826527,"current_range_meters":4400,"station_id":"ce4bh512rcd13ifvqe2g","pricing_plan_id":"cebpf4jnsgd1na2vs0mg"},{"bike_id":"d3a9c566-aaf0-49ca-96b9-9e28e507d0d0","system_id":"levelo_inurba_marseille","lat":43.30154,"lon":5.38094,"is_reserved":false,"is_disabled":false,"rental_uris":{"android":"levelo://app?vid=d3a9c566-aaf0-49ca-96b9-9e28e507d0d0","ios":"levelo://app?vid=d3a9c566-aaf0-49ca-96b9-9e28e507d0d0"},"vehicle_type_id":"4","last_reported":1730826527,"current_range_meters":35600,"station_id":"ce4bgjp2rcd13ifvqbh0","pricing_plan_id":"cebpf4jnsgd1na2vs0mg"},{"bike_id":"fad94354-c786-416f-8f02-372cce8e30f4","system_id":"levelo_inurba_marseille","lat":43.31516,"lon":5.38041,"is_reserved":false,"is_disabled":false,"rental_uris":{"android":"levelo://app?vid=fad94354-c786-416f-8f02-372cce8e30f4","ios":"levelo://app?vid=fad94354-c786-416f-8f02-372cce8e30f4"},"vehicle_type_id":"4","last_reported":1730826527,"current_range_meters":32000,"station_id":"ce4bhsp2rcd13ifvqi50","pricing_plan_id":"cebpf4jnsgd1na2vs0mg"},{"bike_id":"adf5fcc6-b56f-409f-987d-382a70ff2f09","system_id":"levelo_inurba_marseille","lat":43.292301,"lon":5.364838,"is_reserved":false,"is_disabled":false,"rental_uris":{"android":"levelo://app?vid=adf5fcc6-b56f-409f-987d-382a70ff2f09","ios":"levelo://app?vid=adf5fcc6-b56f-409f-987d-382a70ff2f09"},"vehicle_type_id":"4","last_reported":1730826527,"current_range_meters":34000,"station_id":"","pricing_plan_id":"cebpf4jnsgd1na2vs0mg"},{"bike_id":"af09d799-a9df-41c4-b436-c13d61a733ed","system_id":"levelo_inurba_marseille","lat":43.29883,"lon":5.39736,"is_reserved":false,"is_disabled":false,"rental_uris":{"android":"levelo://app?vid=af09d799-a9df-41c4-b436-c13d61a733ed","ios":"levelo://app?vid=af09d799-a9df-41c4-b436-c13d61a733ed"},"vehicle_type_id":"4","last_reported":1730826527,"current_range_meters":39200,"station_id":"ce4bh0h2rcd13ifvqd50","pricing_plan_id":"cebpf4jnsgd1na2vs0mg"},{"bike_id":"c9f0102c-af19-4a34-bc58-9a5db056974a","system_id":"levelo_inurba_marseille","lat":43.30128,"lon":5.39867,"is_reserved":false,"is_disabled":false,"rental_uris":{"android":"levelo://app?vid=c9f0102c-af19-4a34-bc58-9a5db056974a","ios":"levelo://app?vid=c9f0102c-af19-4a34-bc58-9a5db056974a"},"vehicle_type_id":"4","last_reported":1730826527,"current_range_meters":4000,"station_id":"ce4bh0h2rcd13ifvqd40","pricing_plan_id":"cebpf4jnsgd1na2vs0mg"},{"bike_id":"4147bbfb-4b14-4aca-b782-8ec6c0473609","system_id":"levelo_inurba_marseille","lat":43.23597,"lon":5.40341,"is_reserved":false,"is_disabled":false,"rental_uris":{"android":"levelo://app?vid=4147bbfb-4b14-4aca-b782-8ec6c0473609","ios":"levelo://app?vid=4147bbfb-4b14-4aca-b782-8ec6c0473609"},"vehicle_type_id":"4","last_reported":1730826527,"current_range_meters":8400,"station_id":"","pricing_plan_id":"cebpf4jnsgd1na2vs0mg"},{"bike_id":"61b1d401-af50-4cbd-b2fd-e7a8a571fda4","system_id":"levelo_inurba_marseille","lat":43.31073,"lon":5.38351,"is_reserved":false,"is_disabled":false,"rental_uris":{"android":"levelo://app?vid=61b1d401-af50-4cbd-b2fd-e7a8a571fda4","ios":"levelo://app?vid=61b1d401-af50-4cbd-b2fd-e7a8a571fda4"},"vehicle_type_id":"4","last_reported":1730826527,"current_range_meters":27600,"station_id":"ce4bgv92rcd13ifvqcr0","pricing_plan_id":"cebpf4jnsgd1na2vs0mg"},{"bike_id":"995614c1-6b9e-4ccc-b150-40127e658471","system_id":"levelo_inurba_marseille","lat":43.3171,"lon":5.4371,"is_reserved":false,"is_disabled":false,"rental_uris":{"android":"levelo://app?vid=995614c1-6b9e-4ccc-b150-40127e658471","ios":"levelo://app?vid=995614c1-6b9e-4ccc-b150-40127e658471"},"vehicle_type_id":"4","last_reported":1730826527,"current_range_meters":16000,"station_id":"ce4bhp92rcd13ifvqhcg","pricing_plan_id":"cebpf4jnsgd1na2vs0mg"},{"bike_id":"8c0bbca6-c0ca-4c99-a4a5-0733643af477","system_id":"levelo_inurba_marseille","lat":43.2903,"lon":5.38646,"is_reserved":false,"is_disabled":false,"rental_uris":{"android":"levelo://app?vid=8c0bbca6-c0ca-4c99-a4a5-0733643af477","ios":"levelo://app?vid=8c0bbca6-c0ca-4c99-a4a5-0733643af477"},"vehicle_type_id":"4","last_reported":1730826527,"current_range_meters":8400,"station_id":"ce4bh4p2rcd13ifvqe0g","pricing_plan_id":"cebpf4jnsgd1na2vs0mg"},{"bike_id":"990246da-4caf-4fed-8596-7a019505d30e","system_id":"levelo_inurba_marseille","lat":43.26945,"lon":5.40249,"is_reserved":false,"is_disabled":false,"rental_uris":{"android":"levelo://app?vid=990246da-4caf-4fed-8596-7a019505d30e","ios":"levelo://app?vid=990246da-4caf-4fed-8596-7a019505d30e"},"vehicle_type_id":"4","last_reported":1730826527,"current_range_meters":18000,"station_id":"cjm6bp8fraef2m0cb0m0","pricing_plan_id":"cebpf4jnsgd1na2vs0mg"},{"bike_id":"35d46972-faca-4525-a2d2-3f928f24f16c","system_id":"levelo_inurba_marseille","lat":43.24172,"lon":5.36406,"is_reserved":false,"is_disabled":false,"rental_uris":{"android":"levelo://app?vid=35d46972-faca-4525-a2d2-3f928f24f16c","ios":"levelo://app?vid=35d46972-faca-4525-a2d2-3f928f24f16c"},"vehicle_type_id":"4","last_reported":1730826527,"current_range_meters":36800,"station_id":"cpo36qri1sfpv3e86is0","pricing_plan_id":"cebpf4jnsgd1na2vs0mg"},{"bike_id":"2931a0ba-0848-4037-9777-9c5841dcd38b","system_id":"levelo_inurba_marseille","lat":43.300934,"lon":5.380714,"is_reserved":false,"is_disabled":false,"rental_uris":{"android":"levelo://app?vid=2931a0ba-0848-4037-9777-9c5841dcd38b","ios":"levelo://app?vid=2931a0ba-0848-4037-9777-9c5841dcd38b"},"vehicle_type_id":"4","last_reported":1730826527,"current_range_meters":15200,"station_id":"ce4bgjp2rcd13ifvqbh0","pricing_plan_id":"cebpf4jnsgd1na2vs0mg"},{"bike_id":"ed035a9b-82fb-41ce-9856-361d0833d5e6","system_id":"levelo_inurba_marseille","lat":43.29554,"lon":5.42298,"is_reserved":false,"is_disabled":false,"rental_uris":{"android":"levelo://app?vid=ed035a9b-82fb-41ce-9856-361d0833d5e6","ios":"levelo://app?vid=ed035a9b-82fb-41ce-9856-361d0833d5e6"},"vehicle_type_id":"4","last_reported":1730826527,"current_range_meters":2000,"station_id":"ce4bhph2rcd13ifvqhdg","pricing_plan_id":"cebpf4jnsgd1na2vs0mg"},{"bike_id":"7021e8bb-c072-4c45-b1a1-aef6b0f34d2a","system_id":"levelo_inurba_marseille","lat":43.2847,"lon":5.35879,"is_reserved":false,"is_disabled":false,"rental_uris":{"android":"levelo://app?vid=7021e8bb-c072-4c45-b1a1-aef6b0f34d2a","ios":"levelo://app?vid=7021e8bb-c072-4c45-b1a1-aef6b0f34d2a"},"vehicle_type_id":"4","last_reported":1730826527,"current_range_meters":6800,"station_id":"ce4bhah2rcd13ifvqei0","pricing_plan_id":"cebpf4jnsgd1na2vs0mg"},{"bike_id":"85a2f78d-0831-4bf5-b210-4d241b44d063","system_id":"levelo_inurba_marseille","lat":43.29628,"lon":5.40598,"is_reserved":false,"is_disabled":false,"rental_uris":{"android":"levelo://app?vid=85a2f78d-0831-4bf5-b210-4d241b44d063","ios":"levelo://app?vid=85a2f78d-0831-4bf5-b210-4d241b44d063"},"vehicle_type_id":"4","last_reported":1730826527,"current_range_meters":24800,"station_id":"ce4bh0h2rcd13ifvqd60","pricing_plan_id":"cebpf4jnsgd1na2vs0mg"},{"bike_id":"def4cf42-d848-408f-8501-e8dcc6931884","system_id":"levelo_inurba_marseille","lat":43.26561,"lon":5.3901,"is_reserved":false,"is_disabled":false,"rental_uris":{"android":"levelo://app?vid=def4cf42-d848-408f-8501-e8dcc6931884","ios":"levelo://app?vid=def4cf42-d848-408f-8501-e8dcc6931884"},"vehicle_type_id":"4","last_reported":1730826527,"current_range_meters":8800,"station_id":"ce4bhe12rcd13ifvqf30","pricing_plan_id":"cebpf4jnsgd1na2vs0mg"},{"bike_id":"fa50ea38-a1f7-4582-9a62-bfb55bd2e4dc","system_id":"levelo_inurba_marseille","lat":43.28029,"lon":5.36956,"is_reserved":false,"is_disabled":false,"rental_uris":{"android":"levelo://app?vid=fa50ea38-a1f7-4582-9a62-bfb55bd2e4dc","ios":"levelo://app?vid=fa50ea38-a1f7-4582-9a62-bfb55bd2e4dc"},"vehicle_type_id":"4","last_reported":1730826527,"current_range_meters":24800,"station_id":"ce4bha12rcd13ifvqef0","pricing_plan_id":"cebpf4jnsgd1na2vs0mg"},{"bike_id":"b7714781-d668-438d-8d4e-7166167a7e37","system_id":"levelo_inurba_marseille","lat":43.23182,"lon":5.39981,"is_reserved":false,"is_disabled":false,"rental_uris":{"android":"levelo://app?vid=b7714781-d668-438d-8d4e-7166167a7e37","ios":"levelo://app?vid=b7714781-d668-438d-8d4e-7166167a7e37"},"vehicle_type_id":"4","last_reported":1730826527,"current_range_meters":25600,"station_id":"ce4bhn12rcd13ifvqgqg","pricing_plan_id":"cebpf4jnsgd1na2vs0mg"},{"bike_id":"83ca39d4-1d08-4d64-a9fd-ebc44ca566ed","system_id":"levelo_inurba_marseille","lat":43.28693,"lon":5.37391,"is_reserved":false,"is_disabled":false,"rental_uris":{"android":"levelo://app?vid=83ca39d4-1d08-4d64-a9fd-ebc44ca566ed","ios":"levelo://app?vid=83ca39d4-1d08-4d64-a9fd-ebc44ca566ed"},"vehicle_type_id":"4","last_reported":1730826527,"current_range_meters":22400,"station_id":"ce4bh3p2rcd13ifvqdq0","pricing_plan_id":"cebpf4jnsgd1na2vs0mg"},{"bike_id":"77531e8e-26bc-4458-aabc-79f3eab64c3c","system_id":"levelo_inurba_marseille","lat":43.32336,"lon":5.40626,"is_reserved":false,"is_disabled":false,"rental_uris":{"android":"levelo://app?vid=77531e8e-26bc-4458-aabc-79f3eab64c3c","ios":"levelo://app?vid=77531e8e-26bc-4458-aabc-79f3eab64c3c"},"vehicle_type_id":"4","last_reported":1730826527,"current_range_meters":36800,"station_id":"ce4bhq92rcd13ifvqhjg","pricing_plan_id":"cebpf4jnsgd1na2vs0mg"},{"bike_id":"30eb9235-2b25-441f-aa71-5f4c675a078c","system_id":"levelo_inurba_marseille","lat":43.247139,"lon":5.389436,"is_reserved":false,"is_disabled":false,"rental_uris":{"android":"levelo://app?vid=30eb9235-2b25-441f-aa71-5f4c675a078c","ios":"levelo://app?vid=30eb9235-2b25-441f-aa71-5f4c675a078c"},"vehicle_type_id":"4","last_reported":1730826527,"current_range_meters":12000,"station_id":"ce4bhg12rcd13ifvqf60","pricing_plan_id":"cebpf4jnsgd1na2vs0mg"},{"bike_id":"ebffee7c-cae5-47c5-9bdb-6d314ad8c91e","system_id":"levelo_inurba_marseille","lat":43.33017,"lon":5.39042,"is_reserved":false,"is_disabled":false,"rental_uris":{"android":"levelo://app?vid=ebffee7c-cae5-47c5-9bdb-6d314ad8c91e","ios":"levelo://app?vid=ebffee7c-cae5-47c5-9bdb-6d314ad8c91e"},"vehicle_type_id":"4","last_reported":1730826527,"current_range_meters":14400,"station_id":"ce4bhr92rcd13ifvqhrg","pricing_plan_id":"cebpf4jnsgd1na2vs0mg"},{"bike_id":"16351528-a3c4-4239-b9da-90471fc37e61","system_id":"levelo_inurba_marseille","lat":43.28483,"lon":5.38545,"is_reserved":false,"is_disabled":false,"rental_uris":{"android":"levelo://app?vid=16351528-a3c4-4239-b9da-90471fc37e61","ios":"levelo://app?vid=16351528-a3c4-4239-b9da-90471fc37e61"},"vehicle_type_id":"4","last_reported":1730826527,"current_range_meters":33200,"station_id":"ce4bh8p2rcd13ifvqeb0","pricing_plan_id":"cebpf4jnsgd1na2vs0mg"},{"bike_id":"0fb9819f-f5ed-4bc1-9006-4b1ad7d9b36e","system_id":"levelo_inurba_marseille","lat":43.32485,"lon":5.36583,"is_reserved":false,"is_disabled":false,"rental_uris":{"android":"levelo://app?vid=0fb9819f-f5ed-4bc1-9006-4b1ad7d9b36e","ios":"levelo://app?vid=0fb9819f-f5ed-4bc1-9006-4b1ad7d9b36e"},"vehicle_type_id":"4","last_reported":1730826527,"current_range_meters":12000,"station_id":"ce4bhs12rcd13ifvqhvg","pricing_plan_id":"cebpf4jnsgd1na2vs0mg"},{"bike_id":"42163e3e-5009-401f-a1ce-f09eb7e2a510","system_id":"levelo_inurba_marseille","lat":43.31323,"lon":5.39699,"is_reserved":false,"is_disabled":false,"rental_uris":{"android":"levelo://app?vid=42163e3e-5009-401f-a1ce-f09eb7e2a510","ios":"levelo://app?vid=42163e3e-5009-401f-a1ce-f09eb7e2a510"},"vehicle_type_id":"4","last_reported":1730826527,"current_range_meters":39200,"station_id":"ce4bgvp2rcd13ifvqcu0","pricing_plan_id":"cebpf4jnsgd1na2vs0mg"},{"bike_id":"df47f081-8cb3-4255-bac1-feff1f9e7521","system_id":"levelo_inurba_marseille","lat":43.2791,"lon":5.39574,"is_reserved":false,"is_disabled":false,"rental_uris":{"android":"levelo://app?vid=df47f081-8cb3-4255-bac1-feff1f9e7521","ios":"levelo://app?vid=df47f081-8cb3-4255-bac1-feff1f9e7521"},"vehicle_type_id":"4","last_reported":1730826527,"current_range_meters":33200,"station_id":"ce4bhf92rcd13ifvqf40","pricing_plan_id":"cebpf4jnsgd1na2vs0mg"},{"bike_id":"975c9234-f477-4849-a4e3-e3d7d0b25fab","system_id":"levelo_inurba_marseille","lat":43.31322,"lon":5.39693,"is_reserved":false,"is_disabled":false,"rental_uris":{"android":"levelo://app?vid=975c9234-f477-4849-a4e3-e3d7d0b25fab","ios":"levelo://app?vid=975c9234-f477-4849-a4e3-e3d7d0b25fab"},"vehicle_type_id":"4","last_reported":1730826527,"current_range_meters":34800,"station_id":"ce4bgvp2rcd13ifvqcu0","pricing_plan_id":"cebpf4jnsgd1na2vs0mg"},{"bike_id":"21f8d305-fc8f-4873-ab2b-280cfbabd9c4","system_id":"levelo_inurba_marseille","lat":43.29875,"lon":5.38913,"is_reserved":false,"is_disabled":false,"rental_uris":{"android":"levelo://app?vid=21f8d305-fc8f-4873-ab2b-280cfbabd9c4","ios":"levelo://app?vid=21f8d305-fc8f-4873-ab2b-280cfbabd9c4"},"vehicle_type_id":"4","last_reported":1730826527,"current_range_meters":28000,"station_id":"ce4bh392rcd13ifvqdl0","pricing_plan_id":"cebpf4jnsgd1na2vs0mg"},{"bike_id":"22140794-7d8a-4420-ae04-d308a60711ec","system_id":"levelo_inurba_marseille","lat":43.30909,"lon":5.37183,"is_reserved":false,"is_disabled":false,"rental_uris":{"android":"levelo://app?vid=22140794-7d8a-4420-ae04-d308a60711ec","ios":"levelo://app?vid=22140794-7d8a-4420-ae04-d308a60711ec"},"vehicle_type_id":"4","last_reported":1730826527,"current_range_meters":38000,"station_id":"ce4bguh2rcd13ifvqckg","pricing_plan_id":"cebpf4jnsgd1na2vs0mg"},{"bike_id":"7a56966d-44a5-4e28-b3b7-6a816fe39d14","system_id":"levelo_inurba_marseille","lat":43.30412,"lon":5.41299,"is_reserved":false,"is_disabled":false,"rental_uris":{"android":"levelo://app?vid=7a56966d-44a5-4e28-b3b7-6a816fe39d14","ios":"levelo://app?vid=7a56966d-44a5-4e28-b3b7-6a816fe39d14"},"vehicle_type_id":"4","last_reported":1730826527,"current_range_meters":30800,"station_id":"ce4bhop2rcd13ifvqh8g","pricing_plan_id":"cebpf4jnsgd1na2vs0mg"},{"bike_id":"8b376bf7-86fa-4589-9980-26f962b825b9","system_id":"levelo_inurba_marseille","lat":43.28462,"lon":5.35892,"is_reserved":false,"is_disabled":false,"rental_uris":{"android":"levelo://app?vid=8b376bf7-86fa-4589-9980-26f962b825b9","ios":"levelo://app?vid=8b376bf7-86fa-4589-9980-26f962b825b9"},"vehicle_type_id":"4","last_reported":1730826527,"current_range_meters":38800,"station_id":"ce4bhah2rcd13ifvqei0","pricing_plan_id":"cebpf4jnsgd1na2vs0mg"},{"bike_id":"b9f49a4a-4f9e-4ec8-822c-62bd6c8cf186","system_id":"levelo_inurba_marseille","lat":43.31711,"lon":5.43711,"is_reserved":false,"is_disabled":false,"rental_uris":{"android":"levelo://app?vid=b9f49a4a-4f9e-4ec8-822c-62bd6c8cf186","ios":"levelo://app?vid=b9f49a4a-4f9e-4ec8-822c-62bd6c8cf186"},"vehicle_type_id":"4","last_reported":1730826527,"current_range_meters":18000,"station_id":"ce4bhp92rcd13ifvqhcg","pricing_plan_id":"cebpf4jnsgd1na2vs0mg"},{"bike_id":"741d2691-66c1-4f95-8d58-b1864605c1f6","system_id":"levelo_inurba_marseille","lat":43.28455,"lon":5.35897,"is_reserved":false,"is_disabled":false,"rental_uris":{"android":"levelo://app?vid=741d2691-66c1-4f95-8d58-b1864605c1f6","ios":"levelo://app?vid=741d2691-66c1-4f95-8d58-b1864605c1f6"},"vehicle_type_id":"4","last_reported":1730826527,"current_range_meters":17600,"station_id":"ce4bhah2rcd13ifvqei0","pricing_plan_id":"cebpf4jnsgd1na2vs0mg"},{"bike_id":"a1325eae-448f-464f-8735-fffdbd380ad5","system_id":"levelo_inurba_marseille","lat":43.29279,"lon":5.4012,"is_reserved":false,"is_disabled":false,"rental_uris":{"android":"levelo://app?vid=a1325eae-448f-464f-8735-fffdbd380ad5","ios":"levelo://app?vid=a1325eae-448f-464f-8735-fffdbd380ad5"},"vehicle_type_id":"4","last_reported":1730826527,"current_range_meters":2800,"station_id":"ce4bh312rcd13ifvqdk0","pricing_plan_id":"cebpf4jnsgd1na2vs0mg"},{"bike_id":"82f827fd-ad14-4156-8a0b-d26ca7d50ddd","system_id":"levelo_inurba_marseille","lat":43.31222,"lon":5.36872,"is_reserved":false,"is_disabled":false,"rental_uris":{"android":"levelo://app?vid=82f827fd-ad14-4156-8a0b-d26ca7d50ddd","ios":"levelo://app?vid=82f827fd-ad14-4156-8a0b-d26ca7d50ddd"},"vehicle_type_id":"4","last_reported":1730826527,"current_range_meters":17600,"station_id":"ce4bgl92rcd13ifvqbq0","pricing_plan_id":"cebpf4jnsgd1na2vs0mg"},{"bike_id":"ba0bbb3b-8b10-41ab-8a01-e3c96d053017","system_id":"levelo_inurba_marseille","lat":43.27973,"lon":5.38741,"is_reserved":false,"is_disabled":false,"rental_uris":{"android":"levelo://app?vid=ba0bbb3b-8b10-41ab-8a01-e3c96d053017","ios":"levelo://app?vid=ba0bbb3b-8b10-41ab-8a01-e3c96d053017"},"vehicle_type_id":"4","last_reported":1730826527,"current_range_meters":5600,"station_id":"ce4bhg12rcd13ifvqf80","pricing_plan_id":"cebpf4jnsgd1na2vs0mg"},{"bike_id":"6b1b1cf8-f718-40e9-906f-5b0058ba781e","system_id":"levelo_inurba_marseille","lat":43.274325,"lon":5.394185,"is_reserved":false,"is_disabled":false,"rental_uris":{"android":"levelo://app?vid=6b1b1cf8-f718-40e9-906f-5b0058ba781e","ios":"levelo://app?vid=6b1b1cf8-f718-40e9-906f-5b0058ba781e"},"vehicle_type_id":"4","last_reported":1730826527,"current_range_meters":25600,"station_id":"ce4bhdp2rcd13ifvqf20","pricing_plan_id":"cebpf4jnsgd1na2vs0mg"},{"bike_id":"6c244e6d-20d0-40a7-ac38-f6026cc20387","system_id":"levelo_inurba_marseille","lat":43.30328,"lon":5.40445,"is_reserved":false,"is_disabled":false,"rental_uris":{"android":"levelo://app?vid=6c244e6d-20d0-40a7-ac38-f6026cc20387","ios":"levelo://app?vid=6c244e6d-20d0-40a7-ac38-f6026cc20387"},"vehicle_type_id":"4","last_reported":1730826527,"current_range_meters":38800,"station_id":"ce4bh012rcd13ifvqd10","pricing_plan_id":"cebpf4jnsgd1na2vs0mg"},{"bike_id":"2a66d292-0f05-4501-9785-041371bfcbdd","system_id":"levelo_inurba_marseille","lat":43.27825,"lon":5.40722,"is_reserved":false,"is_disabled":false,"rental_uris":{"android":"levelo://app?vid=2a66d292-0f05-4501-9785-041371bfcbdd","ios":"levelo://app?vid=2a66d292-0f05-4501-9785-041371bfcbdd"},"vehicle_type_id":"4","last_reported":1730826527,"current_range_meters":17600,"station_id":"ce4bhnh2rcd13ifvqgtg","pricing_plan_id":"cebpf4jnsgd1na2vs0mg"},{"bike_id":"6edcb5d2-dbf0-49f4-9f8b-5d93ccae943e","system_id":"levelo_inurba_marseille","lat":43.27911,"lon":5.38016,"is_reserved":false,"is_disabled":false,"rental_uris":{"android":"levelo://app?vid=6edcb5d2-dbf0-49f4-9f8b-5d93ccae943e","ios":"levelo://app?vid=6edcb5d2-dbf0-49f4-9f8b-5d93ccae943e"},"vehicle_type_id":"4","last_reported":1730826527,"current_range_meters":28000,"station_id":"ce4bhf92rcd13ifvqf50","pricing_plan_id":"cebpf4jnsgd1na2vs0mg"},{"bike_id":"f07c40a6-bf16-45e5-9e21-b7bd7af461dc","system_id":"levelo_inurba_marseille","lat":43.29191,"lon":5.38752,"is_reserved":false,"is_disabled":false,"rental_uris":{"android":"levelo://app?vid=f07c40a6-bf16-45e5-9e21-b7bd7af461dc","ios":"levelo://app?vid=f07c40a6-bf16-45e5-9e21-b7bd7af461dc"},"vehicle_type_id":"4","last_reported":1730826527,"current_range_meters":24800,"station_id":"ce4bh2h2rcd13ifvqdh0","pricing_plan_id":"cebpf4jnsgd1na2vs0mg"},{"bike_id":"6025b22c-cc70-4829-8bb8-d8ee07a71061","system_id":"levelo_inurba_marseille","lat":43.28612,"lon":5.35102,"is_reserved":false,"is_disabled":false,"rental_uris":{"android":"levelo://app?vid=6025b22c-cc70-4829-8bb8-d8ee07a71061","ios":"levelo://app?vid=6025b22c-cc70-4829-8bb8-d8ee07a71061"},"vehicle_type_id":"4","last_reported":1730826527,"current_range_meters":32800,"station_id":"ce4bhch2rcd13ifvqeug","pricing_plan_id":"cebpf4jnsgd1na2vs0mg"},{"bike_id":"806a0625-e053-4e74-8d31-e8aa7357c19f","system_id":"levelo_inurba_marseille","lat":43.292786,"lon":5.401216,"is_reserved":false,"is_disabled":false,"rental_uris":{"android":"levelo://app?vid=806a0625-e053-4e74-8d31-e8aa7357c19f","ios":"levelo://app?vid=806a0625-e053-4e74-8d31-e8aa7357c19f"},"vehicle_type_id":"4","last_reported":1730826527,"current_range_meters":22000,"station_id":"ce4bh312rcd13ifvqdk0","pricing_plan_id":"cebpf4jnsgd1na2vs0mg"},{"bike_id":"518eee34-1c9b-4af0-85dd-5719e675bd42","system_id":"levelo_inurba_marseille","lat":43.2655,"lon":5.37285,"is_reserved":false,"is_disabled":false,"rental_uris":{"android":"levelo://app?vid=518eee34-1c9b-4af0-85dd-5719e675bd42","ios":"levelo://app?vid=518eee34-1c9b-4af0-85dd-5719e675bd42"},"vehicle_type_id":"4","last_reported":1730826527,"current_range_meters":24400,"station_id":"ce4bhg12rcd13ifvqf70","pricing_plan_id":"cebpf4jnsgd1na2vs0mg"},{"bike_id":"1f9427b0-5fa1-48cb-9b31-8a0b0ffec652","system_id":"levelo_inurba_marseille","lat":43.29193,"lon":5.39312,"is_reserved":false,"is_disabled":false,"rental_uris":{"android":"levelo://app?vid=1f9427b0-5fa1-48cb-9b31-8a0b0ffec652","ios":"levelo://app?vid=1f9427b0-5fa1-48cb-9b31-8a0b0ffec652"},"vehicle_type_id":"4","last_reported":1730826527,"current_range_meters":13600,"station_id":"ce4bh192rcd13ifvqdd0","pricing_plan_id":"cebpf4jnsgd1na2vs0mg"},{"bike_id":"00db643c-5868-4206-be55-7a08f1b86e96","system_id":"levelo_inurba_marseille","lat":43.23185,"lon":5.3998,"is_reserved":false,"is_disabled":false,"rental_uris":{"android":"levelo://app?vid=00db643c-5868-4206-be55-7a08f1b86e96","ios":"levelo://app?vid=00db643c-5868-4206-be55-7a08f1b86e96"},"vehicle_type_id":"4","last_reported":1730826527,"current_range_meters":18800,"station_id":"ce4bhn12rcd13ifvqgqg","pricing_plan_id":"cebpf4jnsgd1na2vs0mg"},{"bike_id":"c238a23c-b959-4ba2-8a66-f2d8ab674380","system_id":"levelo_inurba_marseille","lat":43.30865,"lon":5.37796,"is_reserved":false,"is_disabled":false,"rental_uris":{"android":"levelo://app?vid=c238a23c-b959-4ba2-8a66-f2d8ab674380","ios":"levelo://app?vid=c238a23c-b959-4ba2-8a66-f2d8ab674380"},"vehicle_type_id":"4","last_reported":1730826527,"current_range_meters":19200,"station_id":"","pricing_plan_id":"cebpf4jnsgd1na2vs0mg"},{"bike_id":"bec1d97f-c881-4622-bc23-a9c29f951304","system_id":"levelo_inurba_marseille","lat":43.30647,"lon":5.37317,"is_reserved":false,"is_disabled":false,"rental_uris":{"android":"levelo://app?vid=bec1d97f-c881-4622-bc23-a9c29f951304","ios":"levelo://app?vid=bec1d97f-c881-4622-bc23-a9c29f951304"},"vehicle_type_id":"4","last_reported":1730826527,"current_range_meters":14000,"station_id":"ce4bgn12rcd13ifvqbt0","pricing_plan_id":"cebpf4jnsgd1na2vs0mg"},{"bike_id":"e74b0513-8f19-4c89-8727-21b131bf70dc","system_id":"levelo_inurba_marseille","lat":43.29424,"lon":5.38628,"is_reserved":false,"is_disabled":false,"rental_uris":{"android":"levelo://app?vid=e74b0513-8f19-4c89-8727-21b131bf70dc","ios":"levelo://app?vid=e74b0513-8f19-4c89-8727-21b131bf70dc"},"vehicle_type_id":"4","last_reported":1730826527,"current_range_meters":34800,"station_id":"ce4bh2h2rcd13ifvqdh0","pricing_plan_id":"cebpf4jnsgd1na2vs0mg"},{"bike_id":"fd133990-2027-4415-9562-27fa75a43a41","system_id":"levelo_inurba_marseille","lat":43.29549,"lon":5.42295,"is_reserved":false,"is_disabled":false,"rental_uris":{"android":"levelo://app?vid=fd133990-2027-4415-9562-27fa75a43a41","ios":"levelo://app?vid=fd133990-2027-4415-9562-27fa75a43a41"},"vehicle_type_id":"4","last_reported":1730826527,"current_range_meters":9600,"station_id":"ce4bhph2rcd13ifvqhdg","pricing_plan_id":"cebpf4jnsgd1na2vs0mg"},{"bike_id":"bc76748b-4d6c-45c5-8234-a9e814951cf2","system_id":"levelo_inurba_marseille","lat":43.27379,"lon":5.36258,"is_reserved":false,"is_disabled":false,"rental_uris":{"android":"levelo://app?vid=bc76748b-4d6c-45c5-8234-a9e814951cf2","ios":"levelo://app?vid=bc76748b-4d6c-45c5-8234-a9e814951cf2"},"vehicle_type_id":"4","last_reported":1730826527,"current_range_meters":4800,"station_id":"ce4bhbh2rcd13ifvqeo0","pricing_plan_id":"cebpf4jnsgd1na2vs0mg"},{"bike_id":"759e2173-3e1c-41e3-9e75-010bb65e8cc7","system_id":"levelo_inurba_marseille","lat":43.2694,"lon":5.40252,"is_reserved":false,"is_disabled":false,"rental_uris":{"android":"levelo://app?vid=759e2173-3e1c-41e3-9e75-010bb65e8cc7","ios":"levelo://app?vid=759e2173-3e1c-41e3-9e75-010bb65e8cc7"},"vehicle_type_id":"4","last_reported":1730826527,"current_range_meters":19600,"station_id":"cjm6bp8fraef2m0cb0m0","pricing_plan_id":"cebpf4jnsgd1na2vs0mg"},{"bike_id":"2424d53c-0c47-41be-88bf-53466ee1cee2","system_id":"levelo_inurba_marseille","lat":43.30897,"lon":5.36837,"is_reserved":false,"is_disabled":false,"rental_uris":{"android":"levelo://app?vid=2424d53c-0c47-41be-88bf-53466ee1cee2","ios":"levelo://app?vid=2424d53c-0c47-41be-88bf-53466ee1cee2"},"vehicle_type_id":"4","last_reported":1730826527,"current_range_meters":18800,"station_id":"ce4bgn92rcd13ifvqbvg","pricing_plan_id":"cebpf4jnsgd1na2vs0mg"},{"bike_id":"fae43f21-f123-43b0-963d-ec97365e4dc2","system_id":"levelo_inurba_marseille","lat":43.26925,"lon":5.38927,"is_reserved":false,"is_disabled":false,"rental_uris":{"android":"levelo://app?vid=fae43f21-f123-43b0-963d-ec97365e4dc2","ios":"levelo://app?vid=fae43f21-f123-43b0-963d-ec97365e4dc2"},"vehicle_type_id":"4","last_reported":1730826527,"current_range_meters":22000,"station_id":"ce4bhhh2rcd13ifvqfl0","pricing_plan_id":"cebpf4jnsgd1na2vs0mg"},{"bike_id":"2dd40e8a-347a-4069-9f04-901c41b0a3c7","system_id":"levelo_inurba_marseille","lat":43.32104,"lon":5.36777,"is_reserved":false,"is_disabled":false,"rental_uris":{"android":"levelo://app?vid=2dd40e8a-347a-4069-9f04-901c41b0a3c7","ios":"levelo://app?vid=2dd40e8a-347a-4069-9f04-901c41b0a3c7"},"vehicle_type_id":"4","last_reported":1730826527,"current_range_meters":36400,"station_id":"ce4bhrh2rcd13ifvqhug","pricing_plan_id":"cebpf4jnsgd1na2vs0mg"},{"bike_id":"3c5ac311-90c7-4d2b-b377-c2b12c17ace3","system_id":"levelo_inurba_marseille","lat":43.32109,"lon":5.36774,"is_reserved":false,"is_disabled":false,"rental_uris":{"android":"levelo://app?vid=3c5ac311-90c7-4d2b-b377-c2b12c17ace3","ios":"levelo://app?vid=3c5ac311-90c7-4d2b-b377-c2b12c17ace3"},"vehicle_type_id":"4","last_reported":1730826527,"current_range_meters":13600,"station_id":"ce4bhrh2rcd13ifvqhug","pricing_plan_id":"cebpf4jnsgd1na2vs0mg"},{"bike_id":"38526b2a-8697-4aef-a174-e0c1be19b7a7","system_id":"levelo_inurba_marseille","lat":43.28845,"lon":5.35881,"is_reserved":false,"is_disabled":false,"rental_uris":{"android":"levelo://app?vid=38526b2a-8697-4aef-a174-e0c1be19b7a7","ios":"levelo://app?vid=38526b2a-8697-4aef-a174-e0c1be19b7a7"},"vehicle_type_id":"4","last_reported":1730826527,"current_range_meters":16400,"station_id":"ce4bhb12rcd13ifvqem0","pricing_plan_id":"cebpf4jnsgd1na2vs0mg"},{"bike_id":"67dab935-1b71-438c-83ee-d4f8ffbef4c9","system_id":"levelo_inurba_marseille","lat":43.32486,"lon":5.36553,"is_reserved":false,"is_disabled":false,"rental_uris":{"android":"levelo://app?vid=67dab935-1b71-438c-83ee-d4f8ffbef4c9","ios":"levelo://app?vid=67dab935-1b71-438c-83ee-d4f8ffbef4c9"},"vehicle_type_id":"4","last_reported":1730826527,"current_range_meters":22400,"station_id":"ce4bhs12rcd13ifvqhvg","pricing_plan_id":"cebpf4jnsgd1na2vs0mg"},{"bike_id":"ba616ae8-0777-4f78-bc3a-9ece8300f41a","system_id":"levelo_inurba_marseille","lat":43.27174,"lon":5.40995,"is_reserved":false,"is_disabled":false,"rental_uris":{"android":"levelo://app?vid=ba616ae8-0777-4f78-bc3a-9ece8300f41a","ios":"levelo://app?vid=ba616ae8-0777-4f78-bc3a-9ece8300f41a"},"vehicle_type_id":"4","last_reported":1730826527,"current_range_meters":28400,"station_id":"ce4bhl12rcd13ifvqgf0","pricing_plan_id":"cebpf4jnsgd1na2vs0mg"},{"bike_id":"7d3e028c-1d05-4ade-8a1f-088116164dab","system_id":"levelo_inurba_marseille","lat":43.31682,"lon":5.40473,"is_reserved":false,"is_disabled":false,"rental_uris":{"android":"levelo://app?vid=7d3e028c-1d05-4ade-8a1f-088116164dab","ios":"levelo://app?vid=7d3e028c-1d05-4ade-8a1f-088116164dab"},"vehicle_type_id":"4","last_reported":1730826527,"current_range_meters":2000,"station_id":"ce4bh012rcd13ifvqd00","pricing_plan_id":"cebpf4jnsgd1na2vs0mg"},{"bike_id":"64034af2-67ea-4876-bcba-e9667f90eda7","system_id":"levelo_inurba_marseille","lat":43.33726,"lon":5.39193,"is_reserved":false,"is_disabled":false,"rental_uris":{"android":"levelo://app?vid=64034af2-67ea-4876-bcba-e9667f90eda7","ios":"levelo://app?vid=64034af2-67ea-4876-bcba-e9667f90eda7"},"vehicle_type_id":"4","last_reported":1730826527,"current_range_meters":38800,"station_id":"ce4bhr92rcd13ifvqhsg","pricing_plan_id":"cebpf4jnsgd1na2vs0mg"},{"bike_id":"ff70a7f2-4343-4299-9192-f173a0de7b1f","system_id":"levelo_inurba_marseille","lat":43.29885,"lon":5.38908,"is_reserved":false,"is_disabled":false,"rental_uris":{"android":"levelo://app?vid=ff70a7f2-4343-4299-9192-f173a0de7b1f","ios":"levelo://app?vid=ff70a7f2-4343-4299-9192-f173a0de7b1f"},"vehicle_type_id":"4","last_reported":1730826527,"current_range_meters":27200,"station_id":"ce4bh392rcd13ifvqdl0","pricing_plan_id":"cebpf4jnsgd1na2vs0mg"},{"bike_id":"480300ca-c2ee-40b4-9c1d-21ad95f47bb6","system_id":"levelo_inurba_marseille","lat":43.292633,"lon":5.384411,"is_reserved":false,"is_disabled":false,"rental_uris":{"android":"levelo://app?vid=480300ca-c2ee-40b4-9c1d-21ad95f47bb6","ios":"levelo://app?vid=480300ca-c2ee-40b4-9c1d-21ad95f47bb6"},"vehicle_type_id":"4","last_reported":1730826527,"current_range_meters":10000,"station_id":"ce4bh192rcd13ifvqdd0","pricing_plan_id":"cebpf4jnsgd1na2vs0mg"},{"bike_id":"77f0f942-cc19-4114-9693-f96851c5cf8b","system_id":"levelo_inurba_marseille","lat":43.31068,"lon":5.38346,"is_reserved":false,"is_disabled":false,"rental_uris":{"android":"levelo://app?vid=77f0f942-cc19-4114-9693-f96851c5cf8b","ios":"levelo://app?vid=77f0f942-cc19-4114-9693-f96851c5cf8b"},"vehicle_type_id":"4","last_reported":1730826527,"current_range_meters":16400,"station_id":"ce4bgv92rcd13ifvqcr0","pricing_plan_id":"cebpf4jnsgd1na2vs0mg"},{"bike_id":"5a8009a0-4417-4f5f-9d0e-a53f98edca92","system_id":"levelo_inurba_marseille","lat":43.29038,"lon":5.37565,"is_reserved":false,"is_disabled":false,"rental_uris":{"android":"levelo://app?vid=5a8009a0-4417-4f5f-9d0e-a53f98edca92","ios":"levelo://app?vid=5a8009a0-4417-4f5f-9d0e-a53f98edca92"},"vehicle_type_id":"4","last_reported":1730826527,"current_range_meters":31200,"station_id":"ce4bh692rcd13ifvqe90","pricing_plan_id":"cebpf4jnsgd1na2vs0mg"},{"bike_id":"22f830bf-04ce-4e8e-810d-e95b062642c5","system_id":"levelo_inurba_marseille","lat":43.30413,"lon":5.41292,"is_reserved":false,"is_disabled":false,"rental_uris":{"android":"levelo://app?vid=22f830bf-04ce-4e8e-810d-e95b062642c5","ios":"levelo://app?vid=22f830bf-04ce-4e8e-810d-e95b062642c5"},"vehicle_type_id":"4","last_reported":1730826527,"current_range_meters":11200,"station_id":"ce4bhop2rcd13ifvqh8g","pricing_plan_id":"cebpf4jnsgd1na2vs0mg"},{"bike_id":"5c4ed64c-1550-4ce4-bb6d-e3e01d1a079a","system_id":"levelo_inurba_marseille","lat":43.279234,"lon":5.39579,"is_reserved":false,"is_disabled":false,"rental_uris":{"android":"levelo://app?vid=5c4ed64c-1550-4ce4-bb6d-e3e01d1a079a","ios":"levelo://app?vid=5c4ed64c-1550-4ce4-bb6d-e3e01d1a079a"},"vehicle_type_id":"4","last_reported":1730826527,"current_range_meters":22000,"station_id":"ce4bhf92rcd13ifvqf40","pricing_plan_id":"cebpf4jnsgd1na2vs0mg"},{"bike_id":"c7cd3b70-8c5e-4e8a-aeac-edce3119a8fb","system_id":"levelo_inurba_marseille","lat":43.28946,"lon":5.36644,"is_reserved":false,"is_disabled":false,"rental_uris":{"android":"levelo://app?vid=c7cd3b70-8c5e-4e8a-aeac-edce3119a8fb","ios":"levelo://app?vid=c7cd3b70-8c5e-4e8a-aeac-edce3119a8fb"},"vehicle_type_id":"4","last_reported":1730826527,"current_range_meters":9600,"station_id":"ce4bhap2rcd13ifvqek0","pricing_plan_id":"cebpf4jnsgd1na2vs0mg"},{"bike_id":"115faa9b-d432-4765-b4c8-112a3cb07d60","system_id":"levelo_inurba_marseille","lat":43.31012,"lon":5.420204,"is_reserved":false,"is_disabled":false,"rental_uris":{"android":"levelo://app?vid=115faa9b-d432-4765-b4c8-112a3cb07d60","ios":"levelo://app?vid=115faa9b-d432-4765-b4c8-112a3cb07d60"},"vehicle_type_id":"4","last_reported":1730826527,"current_range_meters":3600,"station_id":"","pricing_plan_id":"cebpf4jnsgd1na2vs0mg"},{"bike_id":"9a6d497c-9e3b-4d45-888e-9e1cb36f9e4b","system_id":"levelo_inurba_marseille","lat":43.28035,"lon":5.36953,"is_reserved":false,"is_disabled":false,"rental_uris":{"android":"levelo://app?vid=9a6d497c-9e3b-4d45-888e-9e1cb36f9e4b","ios":"levelo://app?vid=9a6d497c-9e3b-4d45-888e-9e1cb36f9e4b"},"vehicle_type_id":"4","last_reported":1730826527,"current_range_meters":4000,"station_id":"ce4bha12rcd13ifvqef0","pricing_plan_id":"cebpf4jnsgd1na2vs0mg"},{"bike_id":"3f632d5b-a9fb-42b2-8a3f-9536a407d0dc","system_id":"levelo_inurba_marseille","lat":43.2315,"lon":5.43709,"is_reserved":false,"is_disabled":false,"rental_uris":{"android":"levelo://app?vid=3f632d5b-a9fb-42b2-8a3f-9536a407d0dc","ios":"levelo://app?vid=3f632d5b-a9fb-42b2-8a3f-9536a407d0dc"},"vehicle_type_id":"4","last_reported":1730826527,"current_range_meters":27200,"station_id":"ce4bhmp2rcd13ifvqgog","pricing_plan_id":"cebpf4jnsgd1na2vs0mg"},{"bike_id":"c2026cf3-b682-4010-a868-6936c554f8ed","system_id":"levelo_inurba_marseille","lat":43.30436,"lon":5.38893,"is_reserved":false,"is_disabled":false,"rental_uris":{"android":"levelo://app?vid=c2026cf3-b682-4010-a868-6936c554f8ed","ios":"levelo://app?vid=c2026cf3-b682-4010-a868-6936c554f8ed"},"vehicle_type_id":"4","last_reported":1730826527,"current_range_meters":36800,"station_id":"ce4bgk12rcd13ifvqbi0","pricing_plan_id":"cebpf4jnsgd1na2vs0mg"},{"bike_id":"6bd09a90-c196-4b03-b1ac-05253fd4075e","system_id":"levelo_inurba_marseille","lat":43.29259,"lon":5.40908,"is_reserved":false,"is_disabled":false,"rental_uris":{"android":"levelo://app?vid=6bd09a90-c196-4b03-b1ac-05253fd4075e","ios":"levelo://app?vid=6bd09a90-c196-4b03-b1ac-05253fd4075e"},"vehicle_type_id":"4","last_reported":1730826527,"current_range_meters":38000,"station_id":"ce4bh192rcd13ifvqdc0","pricing_plan_id":"cebpf4jnsgd1na2vs0mg"},{"bike_id":"15ced0ce-6164-466d-96d9-a9a6d6e8fec1","system_id":"levelo_inurba_marseille","lat":43.26216,"lon":5.37446,"is_reserved":false,"is_disabled":false,"rental_uris":{"android":"levelo://app?vid=15ced0ce-6164-466d-96d9-a9a6d6e8fec1","ios":"levelo://app?vid=15ced0ce-6164-466d-96d9-a9a6d6e8fec1"},"vehicle_type_id":"4","last_reported":1730826527,"current_range_meters":28400,"station_id":"ce4bhgp2rcd13ifvqfc0","pricing_plan_id":"cebpf4jnsgd1na2vs0mg"},{"bike_id":"e053da95-5ca0-4dde-9b93-742a6474b885","system_id":"levelo_inurba_marseille","lat":43.26591,"lon":5.390027,"is_reserved":false,"is_disabled":false,"rental_uris":{"android":"levelo://app?vid=e053da95-5ca0-4dde-9b93-742a6474b885","ios":"levelo://app?vid=e053da95-5ca0-4dde-9b93-742a6474b885"},"vehicle_type_id":"4","last_reported":1730826527,"current_range_meters":32000,"station_id":"ce4bhe12rcd13ifvqf30","pricing_plan_id":"cebpf4jnsgd1na2vs0mg"},{"bike_id":"c8e44e12-42ed-4575-8f4a-3e0634530372","system_id":"levelo_inurba_marseille","lat":43.28464,"lon":5.35894,"is_reserved":false,"is_disabled":false,"rental_uris":{"android":"levelo://app?vid=c8e44e12-42ed-4575-8f4a-3e0634530372","ios":"levelo://app?vid=c8e44e12-42ed-4575-8f4a-3e0634530372"},"vehicle_type_id":"4","last_reported":1730826527,"current_range_meters":14000,"station_id":"ce4bhah2rcd13ifvqei0","pricing_plan_id":"cebpf4jnsgd1na2vs0mg"},{"bike_id":"990c4cc6-4f2c-4a0b-bf77-1f6a3f106100","system_id":"levelo_inurba_marseille","lat":43.33024,"lon":5.39042,"is_reserved":false,"is_disabled":false,"rental_uris":{"android":"levelo://app?vid=990c4cc6-4f2c-4a0b-bf77-1f6a3f106100","ios":"levelo://app?vid=990c4cc6-4f2c-4a0b-bf77-1f6a3f106100"},"vehicle_type_id":"4","last_reported":1730826527,"current_range_meters":11600,"station_id":"ce4bhr92rcd13ifvqhrg","pricing_plan_id":"cebpf4jnsgd1na2vs0mg"},{"bike_id":"0a3c1a6b-eadc-4e53-adb5-ce60bbc39060","system_id":"levelo_inurba_marseille","lat":43.33023,"lon":5.39039,"is_reserved":false,"is_disabled":false,"rental_uris":{"android":"levelo://app?vid=0a3c1a6b-eadc-4e53-adb5-ce60bbc39060","ios":"levelo://app?vid=0a3c1a6b-eadc-4e53-adb5-ce60bbc39060"},"vehicle_type_id":"4","last_reported":1730826527,"current_range_meters":38800,"station_id":"ce4bhr92rcd13ifvqhrg","pricing_plan_id":"cebpf4jnsgd1na2vs0mg"},{"bike_id":"4e5b844c-7b9a-4d72-b44c-dc3b7736deec","system_id":"levelo_inurba_marseille","lat":43.27172,"lon":5.40996,"is_reserved":false,"is_disabled":false,"rental_uris":{"android":"levelo://app?vid=4e5b844c-7b9a-4d72-b44c-dc3b7736deec","ios":"levelo://app?vid=4e5b844c-7b9a-4d72-b44c-dc3b7736deec"},"vehicle_type_id":"4","last_reported":1730826527,"current_range_meters":17200,"station_id":"ce4bhl12rcd13ifvqgf0","pricing_plan_id":"cebpf4jnsgd1na2vs0mg"},{"bike_id":"382cf05d-fc9a-4ebb-8bf2-64026cd9a29f","system_id":"levelo_inurba_marseille","lat":43.33761,"lon":5.37443,"is_reserved":false,"is_disabled":false,"rental_uris":{"android":"levelo://app?vid=382cf05d-fc9a-4ebb-8bf2-64026cd9a29f","ios":"levelo://app?vid=382cf05d-fc9a-4ebb-8bf2-64026cd9a29f"},"vehicle_type_id":"4","last_reported":1730826527,"current_range_meters":38400,"station_id":"","pricing_plan_id":"cebpf4jnsgd1na2vs0mg"},{"bike_id":"73a4260e-d953-4846-856d-24862a037800","system_id":"levelo_inurba_marseille","lat":43.28062,"lon":5.36649,"is_reserved":false,"is_disabled":false,"rental_uris":{"android":"levelo://app?vid=73a4260e-d953-4846-856d-24862a037800","ios":"levelo://app?vid=73a4260e-d953-4846-856d-24862a037800"},"vehicle_type_id":"4","last_reported":1730826527,"current_range_meters":27200,"station_id":"","pricing_plan_id":"cebpf4jnsgd1na2vs0mg"},{"bike_id":"700da783-d95e-4462-8ae1-c07e45430811","system_id":"levelo_inurba_marseille","lat":43.2742,"lon":5.3942,"is_reserved":false,"is_disabled":false,"rental_uris":{"android":"levelo://app?vid=700da783-d95e-4462-8ae1-c07e45430811","ios":"levelo://app?vid=700da783-d95e-4462-8ae1-c07e45430811"},"vehicle_type_id":"4","last_reported":1730826527,"current_range_meters":19600,"station_id":"ce4bhdp2rcd13ifvqf20","pricing_plan_id":"cebpf4jnsgd1na2vs0mg"},{"bike_id":"58356918-d18c-462f-b3c8-7a3bfed27eea","system_id":"levelo_inurba_marseille","lat":43.29201,"lon":5.39331,"is_reserved":false,"is_disabled":false,"rental_uris":{"android":"levelo://app?vid=58356918-d18c-462f-b3c8-7a3bfed27eea","ios":"levelo://app?vid=58356918-d18c-462f-b3c8-7a3bfed27eea"},"vehicle_type_id":"4","last_reported":1730826527,"current_range_meters":8000,"station_id":"ce4bh192rcd13ifvqdd0","pricing_plan_id":"cebpf4jnsgd1na2vs0mg"},{"bike_id":"671ee801-ed83-4222-b723-723fea4dce62","system_id":"levelo_inurba_marseille","lat":43.27859,"lon":5.40708,"is_reserved":false,"is_disabled":false,"rental_uris":{"android":"levelo://app?vid=671ee801-ed83-4222-b723-723fea4dce62","ios":"levelo://app?vid=671ee801-ed83-4222-b723-723fea4dce62"},"vehicle_type_id":"4","last_reported":1730826527,"current_range_meters":34800,"station_id":"ce4bhnh2rcd13ifvqgtg","pricing_plan_id":"cebpf4jnsgd1na2vs0mg"},{"bike_id":"465c01c3-73c5-4472-ae53-7df0a73388c4","system_id":"levelo_inurba_marseille","lat":43.24666,"lon":5.38155,"is_reserved":false,"is_disabled":false,"rental_uris":{"android":"levelo://app?vid=465c01c3-73c5-4472-ae53-7df0a73388c4","ios":"levelo://app?vid=465c01c3-73c5-4472-ae53-7df0a73388c4"},"vehicle_type_id":"4","last_reported":1730826527,"current_range_meters":25600,"station_id":"ce4bhih2rcd13ifvqfr0","pricing_plan_id":"cebpf4jnsgd1na2vs0mg"},{"bike_id":"4d1fc32b-ab8a-4762-825b-86cf6dca96a4","system_id":"levelo_inurba_marseille","lat":43.28104,"lon":5.37845,"is_reserved":false,"is_disabled":false,"rental_uris":{"android":"levelo://app?vid=4d1fc32b-ab8a-4762-825b-86cf6dca96a4","ios":"levelo://app?vid=4d1fc32b-ab8a-4762-825b-86cf6dca96a4"},"vehicle_type_id":"4","last_reported":1730826527,"current_range_meters":6000,"station_id":"ce4bha12rcd13ifvqee0","pricing_plan_id":"cebpf4jnsgd1na2vs0mg"},{"bike_id":"f8432d9c-1eef-45f4-a51a-54e7eb8027ab","system_id":"levelo_inurba_marseille","lat":43.28367,"lon":5.38099,"is_reserved":false,"is_disabled":false,"rental_uris":{"android":"levelo://app?vid=f8432d9c-1eef-45f4-a51a-54e7eb8027ab","ios":"levelo://app?vid=f8432d9c-1eef-45f4-a51a-54e7eb8027ab"},"vehicle_type_id":"4","last_reported":1730826527,"current_range_meters":30800,"station_id":"ce4bh412rcd13ifvqdr0","pricing_plan_id":"cebpf4jnsgd1na2vs0mg"},{"bike_id":"da21fb69-0bbf-4932-bb3c-59444a81963c","system_id":"levelo_inurba_marseille","lat":43.295807,"lon":5.375207,"is_reserved":false,"is_disabled":false,"rental_uris":{"android":"levelo://app?vid=da21fb69-0bbf-4932-bb3c-59444a81963c","ios":"levelo://app?vid=da21fb69-0bbf-4932-bb3c-59444a81963c"},"vehicle_type_id":"4","last_reported":1730826527,"current_range_meters":16400,"station_id":"ce4bgh92rcd13ifvqb50","pricing_plan_id":"cebpf4jnsgd1na2vs0mg"},{"bike_id":"c29c9b8a-d546-4309-9f80-0ee4e346994e","system_id":"levelo_inurba_marseille","lat":43.26566,"lon":5.37278,"is_reserved":false,"is_disabled":false,"rental_uris":{"android":"levelo://app?vid=c29c9b8a-d546-4309-9f80-0ee4e346994e","ios":"levelo://app?vid=c29c9b8a-d546-4309-9f80-0ee4e346994e"},"vehicle_type_id":"4","last_reported":1730826527,"current_range_meters":21600,"station_id":"ce4bhg12rcd13ifvqf70","pricing_plan_id":"cebpf4jnsgd1na2vs0mg"},{"bike_id":"4be43c42-41c2-4287-8d1b-e3ab82ff2c6a","system_id":"levelo_inurba_marseille","lat":43.30628,"lon":5.39343,"is_reserved":false,"is_disabled":false,"rental_uris":{"android":"levelo://app?vid=4be43c42-41c2-4287-8d1b-e3ab82ff2c6a","ios":"levelo://app?vid=4be43c42-41c2-4287-8d1b-e3ab82ff2c6a"},"vehicle_type_id":"4","last_reported":1730826527,"current_range_meters":38800,"station_id":"ce4bh0p2rcd13ifvqd80","pricing_plan_id":"cebpf4jnsgd1na2vs0mg"},{"bike_id":"fac798d2-c9b9-4d2d-b78c-c2735922f57f","system_id":"levelo_inurba_marseille","lat":43.28354,"lon":5.38108,"is_reserved":false,"is_disabled":false,"rental_uris":{"android":"levelo://app?vid=fac798d2-c9b9-4d2d-b78c-c2735922f57f","ios":"levelo://app?vid=fac798d2-c9b9-4d2d-b78c-c2735922f57f"},"vehicle_type_id":"4","last_reported":1730826527,"current_range_meters":34000,"station_id":"ce4bh412rcd13ifvqdr0","pricing_plan_id":"cebpf4jnsgd1na2vs0mg"},{"bike_id":"0537e1fd-7932-48b0-9c90-79bf083597b8","system_id":"levelo_inurba_marseille","lat":43.254965,"lon":5.376456,"is_reserved":false,"is_disabled":false,"rental_uris":{"android":"levelo://app?vid=0537e1fd-7932-48b0-9c90-79bf083597b8","ios":"levelo://app?vid=0537e1fd-7932-48b0-9c90-79bf083597b8"},"vehicle_type_id":"4","last_reported":1730826527,"current_range_meters":13600,"station_id":"ce4bgh92rcd13ifvqb40","pricing_plan_id":"cebpf4jnsgd1na2vs0mg"},{"bike_id":"9048ebe6-0239-470a-af7d-c5634530ba1b","system_id":"levelo_inurba_marseille","lat":43.33024,"lon":5.39042,"is_reserved":false,"is_disabled":false,"rental_uris":{"android":"levelo://app?vid=9048ebe6-0239-470a-af7d-c5634530ba1b","ios":"levelo://app?vid=9048ebe6-0239-470a-af7d-c5634530ba1b"},"vehicle_type_id":"4","last_reported":1730826527,"current_range_meters":24800,"station_id":"ce4bhr92rcd13ifvqhrg","pricing_plan_id":"cebpf4jnsgd1na2vs0mg"},{"bike_id":"1d27b3a1-f13e-4920-8c40-27faf2c97a48","system_id":"levelo_inurba_marseille","lat":43.23196,"lon":5.35554,"is_reserved":false,"is_disabled":false,"rental_uris":{"android":"levelo://app?vid=1d27b3a1-f13e-4920-8c40-27faf2c97a48","ios":"levelo://app?vid=1d27b3a1-f13e-4920-8c40-27faf2c97a48"},"vehicle_type_id":"4","last_reported":1730826527,"current_range_meters":38800,"station_id":"ce4bhu92rcd13ifvqi70","pricing_plan_id":"cebpf4jnsgd1na2vs0mg"},{"bike_id":"6c767f8c-582c-430d-9274-2b2ff8334a3e","system_id":"levelo_inurba_marseille","lat":43.29198,"lon":5.39325,"is_reserved":false,"is_disabled":false,"rental_uris":{"android":"levelo://app?vid=6c767f8c-582c-430d-9274-2b2ff8334a3e","ios":"levelo://app?vid=6c767f8c-582c-430d-9274-2b2ff8334a3e"},"vehicle_type_id":"4","last_reported":1730826527,"current_range_meters":5600,"station_id":"ce4bh192rcd13ifvqdd0","pricing_plan_id":"cebpf4jnsgd1na2vs0mg"},{"bike_id":"0e6adf64-635e-40e8-93e1-b384407d876d","system_id":"levelo_inurba_marseille","lat":43.29557,"lon":5.42293,"is_reserved":false,"is_disabled":false,"rental_uris":{"android":"levelo://app?vid=0e6adf64-635e-40e8-93e1-b384407d876d","ios":"levelo://app?vid=0e6adf64-635e-40e8-93e1-b384407d876d"},"vehicle_type_id":"4","last_reported":1730826527,"current_range_meters":32800,"station_id":"ce4bhph2rcd13ifvqhdg","pricing_plan_id":"cebpf4jnsgd1na2vs0mg"},{"bike_id":"494949d0-4f2a-4f16-b927-060feb36efdd","system_id":"levelo_inurba_marseille","lat":43.24801,"lon":5.3746,"is_reserved":false,"is_disabled":false,"rental_uris":{"android":"levelo://app?vid=494949d0-4f2a-4f16-b927-060feb36efdd","ios":"levelo://app?vid=494949d0-4f2a-4f16-b927-060feb36efdd"},"vehicle_type_id":"4","last_reported":1730826527,"current_range_meters":3200,"station_id":"ce4bhgh2rcd13ifvqfb0","pricing_plan_id":"cebpf4jnsgd1na2vs0mg"},{"bike_id":"dda0ab10-f2a2-45f5-9271-e032dbc6687a","system_id":"levelo_inurba_marseille","lat":43.30782,"lon":5.37658,"is_reserved":false,"is_disabled":false,"rental_uris":{"android":"levelo://app?vid=dda0ab10-f2a2-45f5-9271-e032dbc6687a","ios":"levelo://app?vid=dda0ab10-f2a2-45f5-9271-e032dbc6687a"},"vehicle_type_id":"4","last_reported":1730826527,"current_range_meters":6800,"station_id":"","pricing_plan_id":"cebpf4jnsgd1na2vs0mg"},{"bike_id":"e7874ce2-f692-46c5-87b4-56890b100158","system_id":"levelo_inurba_marseille","lat":43.23064,"lon":5.35496,"is_reserved":false,"is_disabled":false,"rental_uris":{"android":"levelo://app?vid=e7874ce2-f692-46c5-87b4-56890b100158","ios":"levelo://app?vid=e7874ce2-f692-46c5-87b4-56890b100158"},"vehicle_type_id":"4","last_reported":1730826527,"current_range_meters":38800,"station_id":"cpo3342slgdg3j2ifvpg","pricing_plan_id":"cebpf4jnsgd1na2vs0mg"},{"bike_id":"a61582a0-f5fd-4931-9d23-e25f445ada3a","system_id":"levelo_inurba_marseille","lat":43.29444,"lon":5.39757,"is_reserved":false,"is_disabled":false,"rental_uris":{"android":"levelo://app?vid=a61582a0-f5fd-4931-9d23-e25f445ada3a","ios":"levelo://app?vid=a61582a0-f5fd-4931-9d23-e25f445ada3a"},"vehicle_type_id":"4","last_reported":1730826527,"current_range_meters":8000,"station_id":"ce4bh3h2rcd13ifvqdo0","pricing_plan_id":"cebpf4jnsgd1na2vs0mg"},{"bike_id":"0d79cfac-1455-4ce3-b614-8215c08bef78","system_id":"levelo_inurba_marseille","lat":43.30241,"lon":5.40074,"is_reserved":false,"is_disabled":false,"rental_uris":{"android":"levelo://app?vid=0d79cfac-1455-4ce3-b614-8215c08bef78","ios":"levelo://app?vid=0d79cfac-1455-4ce3-b614-8215c08bef78"},"vehicle_type_id":"4","last_reported":1730826527,"current_range_meters":39200,"station_id":"ce4bgvh2rcd13ifvqcs0","pricing_plan_id":"cebpf4jnsgd1na2vs0mg"},{"bike_id":"e21cc1fd-480f-4bf8-b56b-54973921d952","system_id":"levelo_inurba_marseille","lat":43.25116,"lon":5.40324,"is_reserved":false,"is_disabled":false,"rental_uris":{"android":"levelo://app?vid=e21cc1fd-480f-4bf8-b56b-54973921d952","ios":"levelo://app?vid=e21cc1fd-480f-4bf8-b56b-54973921d952"},"vehicle_type_id":"4","last_reported":1730826527,"current_range_meters":33200,"station_id":"ce4bhlh2rcd13ifvqgig","pricing_plan_id":"cebpf4jnsgd1na2vs0mg"},{"bike_id":"7f57b11d-7136-4d82-8215-596b4ed89d40","system_id":"levelo_inurba_marseille","lat":43.24562,"lon":5.39533,"is_reserved":false,"is_disabled":false,"rental_uris":{"android":"levelo://app?vid=7f57b11d-7136-4d82-8215-596b4ed89d40","ios":"levelo://app?vid=7f57b11d-7136-4d82-8215-596b4ed89d40"},"vehicle_type_id":"4","last_reported":1730826527,"current_range_meters":14800,"station_id":"ce4bhlp2rcd13ifvqgjg","pricing_plan_id":"cebpf4jnsgd1na2vs0mg"},{"bike_id":"39730605-1028-444a-b16c-600e4b1a37fe","system_id":"levelo_inurba_marseille","lat":43.32478,"lon":5.365709,"is_reserved":false,"is_disabled":false,"rental_uris":{"android":"levelo://app?vid=39730605-1028-444a-b16c-600e4b1a37fe","ios":"levelo://app?vid=39730605-1028-444a-b16c-600e4b1a37fe"},"vehicle_type_id":"4","last_reported":1730826527,"current_range_meters":30000,"station_id":"ce4bguh2rcd13ifvqckg","pricing_plan_id":"cebpf4jnsgd1na2vs0mg"},{"bike_id":"eab47ed5-f83a-4939-80d1-ff052743bdd1","system_id":"levelo_inurba_marseille","lat":43.32112,"lon":5.36778,"is_reserved":false,"is_disabled":false,"rental_uris":{"android":"levelo://app?vid=eab47ed5-f83a-4939-80d1-ff052743bdd1","ios":"levelo://app?vid=eab47ed5-f83a-4939-80d1-ff052743bdd1"},"vehicle_type_id":"4","last_reported":1730826527,"current_range_meters":30000,"station_id":"ce4bhrh2rcd13ifvqhug","pricing_plan_id":"cebpf4jnsgd1na2vs0mg"},{"bike_id":"fe37c29a-d3d5-4efb-9d29-91b6193c4271","system_id":"levelo_inurba_marseille","lat":43.29259,"lon":5.40912,"is_reserved":false,"is_disabled":false,"rental_uris":{"android":"levelo://app?vid=fe37c29a-d3d5-4efb-9d29-91b6193c4271","ios":"levelo://app?vid=fe37c29a-d3d5-4efb-9d29-91b6193c4271"},"vehicle_type_id":"4","last_reported":1730826527,"current_range_meters":8400,"station_id":"ce4bh192rcd13ifvqdc0","pricing_plan_id":"cebpf4jnsgd1na2vs0mg"},{"bike_id":"2fac616e-c10f-4b93-9777-09eb2ba8f7e5","system_id":"levelo_inurba_marseille","lat":43.324782,"lon":5.365686,"is_reserved":false,"is_disabled":false,"rental_uris":{"android":"levelo://app?vid=2fac616e-c10f-4b93-9777-09eb2ba8f7e5","ios":"levelo://app?vid=2fac616e-c10f-4b93-9777-09eb2ba8f7e5"},"vehicle_type_id":"4","last_reported":1730826527,"current_range_meters":38800,"station_id":"ce4bhs12rcd13ifvqhvg","pricing_plan_id":"cebpf4jnsgd1na2vs0mg"},{"bike_id":"37166a25-9a52-45c0-913f-ed19cf4ec6da","system_id":"levelo_inurba_marseille","lat":43.29527,"lon":5.39044,"is_reserved":false,"is_disabled":false,"rental_uris":{"android":"levelo://app?vid=37166a25-9a52-45c0-913f-ed19cf4ec6da","ios":"levelo://app?vid=37166a25-9a52-45c0-913f-ed19cf4ec6da"},"vehicle_type_id":"4","last_reported":1730826527,"current_range_meters":10800,"station_id":"ce4bh3p2rcd13ifvqdp0","pricing_plan_id":"cebpf4jnsgd1na2vs0mg"},{"bike_id":"68beed5d-08fd-4405-9a57-5a72af0d6ed4","system_id":"levelo_inurba_marseille","lat":43.29535,"lon":5.39418,"is_reserved":false,"is_disabled":false,"rental_uris":{"android":"levelo://app?vid=68beed5d-08fd-4405-9a57-5a72af0d6ed4","ios":"levelo://app?vid=68beed5d-08fd-4405-9a57-5a72af0d6ed4"},"vehicle_type_id":"4","last_reported":1730826527,"current_range_meters":28800,"station_id":"ce4bh292rcd13ifvqdf0","pricing_plan_id":"cebpf4jnsgd1na2vs0mg"},{"bike_id":"8d9a949e-6957-47e5-88b7-ae41b48f4577","system_id":"levelo_inurba_marseille","lat":43.30323,"lon":5.40447,"is_reserved":false,"is_disabled":false,"rental_uris":{"android":"levelo://app?vid=8d9a949e-6957-47e5-88b7-ae41b48f4577","ios":"levelo://app?vid=8d9a949e-6957-47e5-88b7-ae41b48f4577"},"vehicle_type_id":"4","last_reported":1730826527,"current_range_meters":38800,"station_id":"ce4bh012rcd13ifvqd10","pricing_plan_id":"cebpf4jnsgd1na2vs0mg"},{"bike_id":"2d169b9d-983f-4f06-a164-81f0ea0b163d","system_id":"levelo_inurba_marseille","lat":43.294176,"lon":5.386225,"is_reserved":false,"is_disabled":false,"rental_uris":{"android":"levelo://app?vid=2d169b9d-983f-4f06-a164-81f0ea0b163d","ios":"levelo://app?vid=2d169b9d-983f-4f06-a164-81f0ea0b163d"},"vehicle_type_id":"4","last_reported":1730826527,"current_range_meters":18800,"station_id":"ce4bh2h2rcd13ifvqdh0","pricing_plan_id":"cebpf4jnsgd1na2vs0mg"},{"bike_id":"0f6d12a9-175f-47aa-8f4c-feb57a1064a3","system_id":"levelo_inurba_marseille","lat":43.25577,"lon":5.3824,"is_reserved":false,"is_disabled":false,"rental_uris":{"android":"levelo://app?vid=0f6d12a9-175f-47aa-8f4c-feb57a1064a3","ios":"levelo://app?vid=0f6d12a9-175f-47aa-8f4c-feb57a1064a3"},"vehicle_type_id":"4","last_reported":1730826527,"current_range_meters":20400,"station_id":"ce4bhih2rcd13ifvqfs0","pricing_plan_id":"cebpf4jnsgd1na2vs0mg"},{"bike_id":"1a283da2-27e2-4a40-97c5-e3e1653c0ade","system_id":"levelo_inurba_marseille","lat":43.27068,"lon":5.42286,"is_reserved":false,"is_disabled":false,"rental_uris":{"android":"levelo://app?vid=1a283da2-27e2-4a40-97c5-e3e1653c0ade","ios":"levelo://app?vid=1a283da2-27e2-4a40-97c5-e3e1653c0ade"},"vehicle_type_id":"4","last_reported":1730826527,"current_range_meters":8400,"station_id":"ce4bhk92rcd13ifvqgb0","pricing_plan_id":"cebpf4jnsgd1na2vs0mg"},{"bike_id":"98cef258-eb9e-4ec9-9913-db8f1dbd9527","system_id":"levelo_inurba_marseille","lat":43.31323,"lon":5.39694,"is_reserved":false,"is_disabled":false,"rental_uris":{"android":"levelo://app?vid=98cef258-eb9e-4ec9-9913-db8f1dbd9527","ios":"levelo://app?vid=98cef258-eb9e-4ec9-9913-db8f1dbd9527"},"vehicle_type_id":"4","last_reported":1730826527,"current_range_meters":9200,"station_id":"ce4bgvp2rcd13ifvqcu0","pricing_plan_id":"cebpf4jnsgd1na2vs0mg"},{"bike_id":"485719bd-1ae8-4711-921a-2f7d50d1cf8d","system_id":"levelo_inurba_marseille","lat":43.26198,"lon":5.3793,"is_reserved":false,"is_disabled":false,"rental_uris":{"android":"levelo://app?vid=485719bd-1ae8-4711-921a-2f7d50d1cf8d","ios":"levelo://app?vid=485719bd-1ae8-4711-921a-2f7d50d1cf8d"},"vehicle_type_id":"4","last_reported":1730826527,"current_range_meters":11600,"station_id":"ce4bhjp2rcd13ifvqg90","pricing_plan_id":"cebpf4jnsgd1na2vs0mg"},{"bike_id":"88338970-6fd3-491d-b31a-a93eacb1e7c2","system_id":"levelo_inurba_marseille","lat":43.30654,"lon":5.40095,"is_reserved":false,"is_disabled":false,"rental_uris":{"android":"levelo://app?vid=88338970-6fd3-491d-b31a-a93eacb1e7c2","ios":"levelo://app?vid=88338970-6fd3-491d-b31a-a93eacb1e7c2"},"vehicle_type_id":"4","last_reported":1730826527,"current_range_meters":38800,"station_id":"ce4bh112rcd13ifvqda0","pricing_plan_id":"cebpf4jnsgd1na2vs0mg"},{"bike_id":"fbe3f7e4-d7c4-444d-9f29-57814bee6bc7","system_id":"levelo_inurba_marseille","lat":43.28616,"lon":5.35106,"is_reserved":false,"is_disabled":false,"rental_uris":{"android":"levelo://app?vid=fbe3f7e4-d7c4-444d-9f29-57814bee6bc7","ios":"levelo://app?vid=fbe3f7e4-d7c4-444d-9f29-57814bee6bc7"},"vehicle_type_id":"4","last_reported":1730826527,"current_range_meters":7200,"station_id":"ce4bhch2rcd13ifvqeug","pricing_plan_id":"cebpf4jnsgd1na2vs0mg"},{"bike_id":"93a83a5c-0d3d-43a2-be24-e99a92c3575d","system_id":"levelo_inurba_marseille","lat":43.30844,"lon":5.37104,"is_reserved":false,"is_disabled":false,"rental_uris":{"android":"levelo://app?vid=93a83a5c-0d3d-43a2-be24-e99a92c3575d","ios":"levelo://app?vid=93a83a5c-0d3d-43a2-be24-e99a92c3575d"},"vehicle_type_id":"4","last_reported":1730826527,"current_range_meters":12000,"station_id":"ce4bguh2rcd13ifvqckg","pricing_plan_id":"cebpf4jnsgd1na2vs0mg"},{"bike_id":"58169cb4-18d9-4eec-8222-246e0d4f50cf","system_id":"levelo_inurba_marseille","lat":43.29265,"lon":5.40909,"is_reserved":false,"is_disabled":false,"rental_uris":{"android":"levelo://app?vid=58169cb4-18d9-4eec-8222-246e0d4f50cf","ios":"levelo://app?vid=58169cb4-18d9-4eec-8222-246e0d4f50cf"},"vehicle_type_id":"4","last_reported":1730826527,"current_range_meters":6400,"station_id":"ce4bh192rcd13ifvqdc0","pricing_plan_id":"cebpf4jnsgd1na2vs0mg"},{"bike_id":"61fdf647-d58a-4fbd-bfc7-2b1b808d286c","system_id":"levelo_inurba_marseille","lat":43.33021,"lon":5.39045,"is_reserved":false,"is_disabled":false,"rental_uris":{"android":"levelo://app?vid=61fdf647-d58a-4fbd-bfc7-2b1b808d286c","ios":"levelo://app?vid=61fdf647-d58a-4fbd-bfc7-2b1b808d286c"},"vehicle_type_id":"4","last_reported":1730826527,"current_range_meters":20800,"station_id":"ce4bhr92rcd13ifvqhrg","pricing_plan_id":"cebpf4jnsgd1na2vs0mg"},{"bike_id":"04575049-e232-448b-97cc-f84df2aa6e6a","system_id":"levelo_inurba_marseille","lat":43.3248,"lon":5.36568,"is_reserved":false,"is_disabled":false,"rental_uris":{"android":"levelo://app?vid=04575049-e232-448b-97cc-f84df2aa6e6a","ios":"levelo://app?vid=04575049-e232-448b-97cc-f84df2aa6e6a"},"vehicle_type_id":"4","last_reported":1730826527,"current_range_meters":39200,"station_id":"ce4bhs12rcd13ifvqhvg","pricing_plan_id":"cebpf4jnsgd1na2vs0mg"},{"bike_id":"fbcdc7b2-b30c-480b-8f1c-b0fd37e951db","system_id":"levelo_inurba_marseille","lat":43.24643,"lon":5.389442,"is_reserved":false,"is_disabled":false,"rental_uris":{"android":"levelo://app?vid=fbcdc7b2-b30c-480b-8f1c-b0fd37e951db","ios":"levelo://app?vid=fbcdc7b2-b30c-480b-8f1c-b0fd37e951db"},"vehicle_type_id":"4","last_reported":1730826527,"current_range_meters":38800,"station_id":"ce4bhg12rcd13ifvqf60","pricing_plan_id":"cebpf4jnsgd1na2vs0mg"},{"bike_id":"9e0583b8-b6f3-4cc3-b5fc-5ab1a220e9e3","system_id":"levelo_inurba_marseille","lat":43.28907,"lon":5.38196,"is_reserved":false,"is_disabled":false,"rental_uris":{"android":"levelo://app?vid=9e0583b8-b6f3-4cc3-b5fc-5ab1a220e9e3","ios":"levelo://app?vid=9e0583b8-b6f3-4cc3-b5fc-5ab1a220e9e3"},"vehicle_type_id":"4","last_reported":1730826527,"current_range_meters":9200,"station_id":"","pricing_plan_id":"cebpf4jnsgd1na2vs0mg"},{"bike_id":"59248bab-b536-4ecf-90d1-797eee80ce8e","system_id":"levelo_inurba_marseille","lat":43.30324,"lon":5.40446,"is_reserved":false,"is_disabled":false,"rental_uris":{"android":"levelo://app?vid=59248bab-b536-4ecf-90d1-797eee80ce8e","ios":"levelo://app?vid=59248bab-b536-4ecf-90d1-797eee80ce8e"},"vehicle_type_id":"4","last_reported":1730826527,"current_range_meters":25200,"station_id":"ce4bh012rcd13ifvqd10","pricing_plan_id":"cebpf4jnsgd1na2vs0mg"},{"bike_id":"5ea5f83f-38fe-476b-80eb-759b9353063c","system_id":"levelo_inurba_marseille","lat":43.29436,"lon":5.39769,"is_reserved":false,"is_disabled":false,"rental_uris":{"android":"levelo://app?vid=5ea5f83f-38fe-476b-80eb-759b9353063c","ios":"levelo://app?vid=5ea5f83f-38fe-476b-80eb-759b9353063c"},"vehicle_type_id":"4","last_reported":1730826527,"current_range_meters":7200,"station_id":"ce4bh3h2rcd13ifvqdo0","pricing_plan_id":"cebpf4jnsgd1na2vs0mg"},{"bike_id":"ae0b390c-a9c9-4b2a-8f82-406c4e21cdcd","system_id":"levelo_inurba_marseille","lat":43.29736,"lon":5.35951,"is_reserved":false,"is_disabled":false,"rental_uris":{"android":"levelo://app?vid=ae0b390c-a9c9-4b2a-8f82-406c4e21cdcd","ios":"levelo://app?vid=ae0b390c-a9c9-4b2a-8f82-406c4e21cdcd"},"vehicle_type_id":"4","last_reported":1730826527,"current_range_meters":17600,"station_id":"","pricing_plan_id":"cebpf4jnsgd1na2vs0mg"},{"bike_id":"cc3b3361-8551-4590-805c-6e768eac2770","system_id":"levelo_inurba_marseille","lat":43.3266,"lon":5.4099,"is_reserved":false,"is_disabled":false,"rental_uris":{"android":"levelo://app?vid=cc3b3361-8551-4590-805c-6e768eac2770","ios":"levelo://app?vid=cc3b3361-8551-4590-805c-6e768eac2770"},"vehicle_type_id":"4","last_reported":1730826527,"current_range_meters":4800,"station_id":"ce4bhpp2rcd13ifvqhgg","pricing_plan_id":"cebpf4jnsgd1na2vs0mg"},{"bike_id":"d74360a7-cce2-4782-982b-e9593aa5d07d","system_id":"levelo_inurba_marseille","lat":43.3133,"lon":5.39699,"is_reserved":false,"is_disabled":false,"rental_uris":{"android":"levelo://app?vid=d74360a7-cce2-4782-982b-e9593aa5d07d","ios":"levelo://app?vid=d74360a7-cce2-4782-982b-e9593aa5d07d"},"vehicle_type_id":"4","last_reported":1730826527,"current_range_meters":36400,"station_id":"ce4bgvp2rcd13ifvqcu0","pricing_plan_id":"cebpf4jnsgd1na2vs0mg"},{"bike_id":"ee3dd233-0660-4e6d-9713-86e3cd8ee2a1","system_id":"levelo_inurba_marseille","lat":43.33021,"lon":5.3904,"is_reserved":false,"is_disabled":false,"rental_uris":{"android":"levelo://app?vid=ee3dd233-0660-4e6d-9713-86e3cd8ee2a1","ios":"levelo://app?vid=ee3dd233-0660-4e6d-9713-86e3cd8ee2a1"},"vehicle_type_id":"4","last_reported":1730826527,"current_range_meters":4400,"station_id":"ce4bhr92rcd13ifvqhrg","pricing_plan_id":"cebpf4jnsgd1na2vs0mg"},{"bike_id":"4fd336fb-ec63-4d09-84d4-45cf143f4508","system_id":"levelo_inurba_marseille","lat":43.3133,"lon":5.39699,"is_reserved":false,"is_disabled":false,"rental_uris":{"android":"levelo://app?vid=4fd336fb-ec63-4d09-84d4-45cf143f4508","ios":"levelo://app?vid=4fd336fb-ec63-4d09-84d4-45cf143f4508"},"vehicle_type_id":"4","last_reported":1730826527,"current_range_meters":38000,"station_id":"ce4bgvp2rcd13ifvqcu0","pricing_plan_id":"cebpf4jnsgd1na2vs0mg"},{"bike_id":"84ca1dbe-c34b-4974-b956-025f0d47e444","system_id":"levelo_inurba_marseille","lat":43.28608,"lon":5.37063,"is_reserved":false,"is_disabled":false,"rental_uris":{"android":"levelo://app?vid=84ca1dbe-c34b-4974-b956-025f0d47e444","ios":"levelo://app?vid=84ca1dbe-c34b-4974-b956-025f0d47e444"},"vehicle_type_id":"4","last_reported":1730826527,"current_range_meters":28400,"station_id":"ce4bht12rcd13ifvqi60","pricing_plan_id":"cebpf4jnsgd1na2vs0mg"},{"bike_id":"a026851c-3a4f-4a22-88dc-142ec7c28a20","system_id":"levelo_inurba_marseille","lat":43.31499,"lon":5.373093,"is_reserved":false,"is_disabled":false,"rental_uris":{"android":"levelo://app?vid=a026851c-3a4f-4a22-88dc-142ec7c28a20","ios":"levelo://app?vid=a026851c-3a4f-4a22-88dc-142ec7c28a20"},"vehicle_type_id":"4","last_reported":1730826527,"current_range_meters":24400,"station_id":"ce4bhs12rcd13ifvqhvg","pricing_plan_id":"cebpf4jnsgd1na2vs0mg"},{"bike_id":"f649428b-98b1-435f-ba5e-682e5b3a98c9","system_id":"levelo_inurba_marseille","lat":43.30326,"lon":5.40433,"is_reserved":false,"is_disabled":false,"rental_uris":{"android":"levelo://app?vid=f649428b-98b1-435f-ba5e-682e5b3a98c9","ios":"levelo://app?vid=f649428b-98b1-435f-ba5e-682e5b3a98c9"},"vehicle_type_id":"4","last_reported":1730826527,"current_range_meters":21600,"station_id":"ce4bh012rcd13ifvqd10","pricing_plan_id":"cebpf4jnsgd1na2vs0mg"},{"bike_id":"b961c364-69f9-4b3b-a2e6-fc6563170e45","system_id":"levelo_inurba_marseille","lat":43.32486,"lon":5.36574,"is_reserved":false,"is_disabled":false,"rental_uris":{"android":"levelo://app?vid=b961c364-69f9-4b3b-a2e6-fc6563170e45","ios":"levelo://app?vid=b961c364-69f9-4b3b-a2e6-fc6563170e45"},"vehicle_type_id":"4","last_reported":1730826527,"current_range_meters":39200,"station_id":"ce4bhs12rcd13ifvqhvg","pricing_plan_id":"cebpf4jnsgd1na2vs0mg"},{"bike_id":"fb3dfc3d-c52f-4831-a711-d169d8978519","system_id":"levelo_inurba_marseille","lat":43.2861,"lon":5.3707,"is_reserved":false,"is_disabled":false,"rental_uris":{"android":"levelo://app?vid=fb3dfc3d-c52f-4831-a711-d169d8978519","ios":"levelo://app?vid=fb3dfc3d-c52f-4831-a711-d169d8978519"},"vehicle_type_id":"4","last_reported":1730826527,"current_range_meters":16000,"station_id":"ce4bht12rcd13ifvqi60","pricing_plan_id":"cebpf4jnsgd1na2vs0mg"},{"bike_id":"f0d898a9-2af2-44e9-b4ea-4fd182084c06","system_id":"levelo_inurba_marseille","lat":43.30606,"lon":5.3724,"is_reserved":false,"is_disabled":false,"rental_uris":{"android":"levelo://app?vid=f0d898a9-2af2-44e9-b4ea-4fd182084c06","ios":"levelo://app?vid=f0d898a9-2af2-44e9-b4ea-4fd182084c06"},"vehicle_type_id":"4","last_reported":1730826527,"current_range_meters":16000,"station_id":"ce4bgqh2rcd13ifvqc4g","pricing_plan_id":"cebpf4jnsgd1na2vs0mg"},{"bike_id":"20adb70f-a73a-4b0d-8148-3fe9fdf08539","system_id":"levelo_inurba_marseille","lat":43.31172,"lon":5.37878,"is_reserved":false,"is_disabled":false,"rental_uris":{"android":"levelo://app?vid=20adb70f-a73a-4b0d-8148-3fe9fdf08539","ios":"levelo://app?vid=20adb70f-a73a-4b0d-8148-3fe9fdf08539"},"vehicle_type_id":"4","last_reported":1730826527,"current_range_meters":26800,"station_id":"ce4bgt92rcd13ifvqcg0","pricing_plan_id":"cebpf4jnsgd1na2vs0mg"},{"bike_id":"1a8c5844-8cbe-4fd1-a7f4-7b0efe210728","system_id":"levelo_inurba_marseille","lat":43.29174,"lon":5.42703,"is_reserved":false,"is_disabled":false,"rental_uris":{"android":"levelo://app?vid=1a8c5844-8cbe-4fd1-a7f4-7b0efe210728","ios":"levelo://app?vid=1a8c5844-8cbe-4fd1-a7f4-7b0efe210728"},"vehicle_type_id":"4","last_reported":1730826527,"current_range_meters":17200,"station_id":"","pricing_plan_id":"cebpf4jnsgd1na2vs0mg"},{"bike_id":"2e41e1d1-9f39-4de3-a8ab-442c9ccfa97e","system_id":"levelo_inurba_marseille","lat":43.30213,"lon":5.39471,"is_reserved":false,"is_disabled":false,"rental_uris":{"android":"levelo://app?vid=2e41e1d1-9f39-4de3-a8ab-442c9ccfa97e","ios":"levelo://app?vid=2e41e1d1-9f39-4de3-a8ab-442c9ccfa97e"},"vehicle_type_id":"4","last_reported":1730826527,"current_range_meters":38800,"station_id":"ce4bh0p2rcd13ifvqd70","pricing_plan_id":"cebpf4jnsgd1na2vs0mg"},{"bike_id":"c60f8895-2a47-484a-9090-e144dd78fee2","system_id":"levelo_inurba_marseille","lat":43.297791,"lon":5.371966,"is_reserved":false,"is_disabled":false,"rental_uris":{"android":"levelo://app?vid=c60f8895-2a47-484a-9090-e144dd78fee2","ios":"levelo://app?vid=c60f8895-2a47-484a-9090-e144dd78fee2"},"vehicle_type_id":"4","last_reported":1730826527,"current_range_meters":35600,"station_id":"ce4bgop2rcd13ifvqc1g","pricing_plan_id":"cebpf4jnsgd1na2vs0mg"},{"bike_id":"8ff88794-cacf-4a53-9e45-df7b08a65929","system_id":"levelo_inurba_marseille","lat":43.31327,"lon":5.39703,"is_reserved":false,"is_disabled":false,"rental_uris":{"android":"levelo://app?vid=8ff88794-cacf-4a53-9e45-df7b08a65929","ios":"levelo://app?vid=8ff88794-cacf-4a53-9e45-df7b08a65929"},"vehicle_type_id":"4","last_reported":1730826527,"current_range_meters":38400,"station_id":"ce4bgvp2rcd13ifvqcu0","pricing_plan_id":"cebpf4jnsgd1na2vs0mg"},{"bike_id":"117a9406-128e-4323-b245-b2932b759e2b","system_id":"levelo_inurba_marseille","lat":43.33028,"lon":5.39042,"is_reserved":false,"is_disabled":false,"rental_uris":{"android":"levelo://app?vid=117a9406-128e-4323-b245-b2932b759e2b","ios":"levelo://app?vid=117a9406-128e-4323-b245-b2932b759e2b"},"vehicle_type_id":"4","last_reported":1730826527,"current_range_meters":6400,"station_id":"ce4bhr92rcd13ifvqhrg","pricing_plan_id":"cebpf4jnsgd1na2vs0mg"},{"bike_id":"33a97d41-f299-4ea9-bbb2-14953ad877f9","system_id":"levelo_inurba_marseille","lat":43.31324,"lon":5.39689,"is_reserved":false,"is_disabled":false,"rental_uris":{"android":"levelo://app?vid=33a97d41-f299-4ea9-bbb2-14953ad877f9","ios":"levelo://app?vid=33a97d41-f299-4ea9-bbb2-14953ad877f9"},"vehicle_type_id":"4","last_reported":1730826527,"current_range_meters":20400,"station_id":"ce4bgvp2rcd13ifvqcu0","pricing_plan_id":"cebpf4jnsgd1na2vs0mg"},{"bike_id":"9c449e31-ea52-446a-93f3-926681246c7c","system_id":"levelo_inurba_marseille","lat":43.26936,"lon":5.40258,"is_reserved":false,"is_disabled":false,"rental_uris":{"android":"levelo://app?vid=9c449e31-ea52-446a-93f3-926681246c7c","ios":"levelo://app?vid=9c449e31-ea52-446a-93f3-926681246c7c"},"vehicle_type_id":"4","last_reported":1730826527,"current_range_meters":20800,"station_id":"cjm6bp8fraef2m0cb0m0","pricing_plan_id":"cebpf4jnsgd1na2vs0mg"},{"bike_id":"0ed3d448-bbe0-4af3-b056-bc1b0f50c6f1","system_id":"levelo_inurba_marseille","lat":43.28458,"lon":5.35897,"is_reserved":false,"is_disabled":false,"rental_uris":{"android":"levelo://app?vid=0ed3d448-bbe0-4af3-b056-bc1b0f50c6f1","ios":"levelo://app?vid=0ed3d448-bbe0-4af3-b056-bc1b0f50c6f1"},"vehicle_type_id":"4","last_reported":1730826527,"current_range_meters":26000,"station_id":"ce4bhah2rcd13ifvqei0","pricing_plan_id":"cebpf4jnsgd1na2vs0mg"},{"bike_id":"92cde17f-a67b-418c-937a-fff3a85741b9","system_id":"levelo_inurba_marseille","lat":43.30593,"lon":5.39366,"is_reserved":false,"is_disabled":false,"rental_uris":{"android":"levelo://app?vid=92cde17f-a67b-418c-937a-fff3a85741b9","ios":"levelo://app?vid=92cde17f-a67b-418c-937a-fff3a85741b9"},"vehicle_type_id":"4","last_reported":1730826527,"current_range_meters":30400,"station_id":"ce4bh0p2rcd13ifvqd80","pricing_plan_id":"cebpf4jnsgd1na2vs0mg"},{"bike_id":"eab4f647-24e7-4ddc-b26b-22c7156f042e","system_id":"levelo_inurba_marseille","lat":43.25124,"lon":5.40322,"is_reserved":false,"is_disabled":false,"rental_uris":{"android":"levelo://app?vid=eab4f647-24e7-4ddc-b26b-22c7156f042e","ios":"levelo://app?vid=eab4f647-24e7-4ddc-b26b-22c7156f042e"},"vehicle_type_id":"4","last_reported":1730826527,"current_range_meters":9200,"station_id":"ce4bhlh2rcd13ifvqgig","pricing_plan_id":"cebpf4jnsgd1na2vs0mg"},{"bike_id":"c810c94f-77d1-445b-94e8-072cb5e727ba","system_id":"levelo_inurba_marseille","lat":43.2558,"lon":5.38235,"is_reserved":false,"is_disabled":false,"rental_uris":{"android":"levelo://app?vid=c810c94f-77d1-445b-94e8-072cb5e727ba","ios":"levelo://app?vid=c810c94f-77d1-445b-94e8-072cb5e727ba"},"vehicle_type_id":"4","last_reported":1730826527,"current_range_meters":12400,"station_id":"ce4bhih2rcd13ifvqfs0","pricing_plan_id":"cebpf4jnsgd1na2vs0mg"},{"bike_id":"3c87543e-5c0c-485b-b392-c37fe1b359b7","system_id":"levelo_inurba_marseille","lat":43.27205,"lon":5.39185,"is_reserved":false,"is_disabled":false,"rental_uris":{"android":"levelo://app?vid=3c87543e-5c0c-485b-b392-c37fe1b359b7","ios":"levelo://app?vid=3c87543e-5c0c-485b-b392-c37fe1b359b7"},"vehicle_type_id":"4","last_reported":1730826527,"current_range_meters":14400,"station_id":"ce4bhhp2rcd13ifvqfm0","pricing_plan_id":"cebpf4jnsgd1na2vs0mg"},{"bike_id":"6b3e9c27-d216-4dd1-821f-8fef3ddccc5e","system_id":"levelo_inurba_marseille","lat":43.31327,"lon":5.39697,"is_reserved":false,"is_disabled":false,"rental_uris":{"android":"levelo://app?vid=6b3e9c27-d216-4dd1-821f-8fef3ddccc5e","ios":"levelo://app?vid=6b3e9c27-d216-4dd1-821f-8fef3ddccc5e"},"vehicle_type_id":"4","last_reported":1730826527,"current_range_meters":37600,"station_id":"ce4bgvp2rcd13ifvqcu0","pricing_plan_id":"cebpf4jnsgd1na2vs0mg"},{"bike_id":"58edfb35-e387-427f-8d09-567620a121c7","system_id":"levelo_inurba_marseille","lat":43.29258,"lon":5.40926,"is_reserved":false,"is_disabled":false,"rental_uris":{"android":"levelo://app?vid=58edfb35-e387-427f-8d09-567620a121c7","ios":"levelo://app?vid=58edfb35-e387-427f-8d09-567620a121c7"},"vehicle_type_id":"4","last_reported":1730826527,"current_range_meters":39200,"station_id":"ce4bh192rcd13ifvqdc0","pricing_plan_id":"cebpf4jnsgd1na2vs0mg"},{"bike_id":"37776e54-66f4-4c8d-9350-86bf0971ce7c","system_id":"levelo_inurba_marseille","lat":43.29532,"lon":5.38542,"is_reserved":false,"is_disabled":false,"rental_uris":{"android":"levelo://app?vid=37776e54-66f4-4c8d-9350-86bf0971ce7c","ios":"levelo://app?vid=37776e54-66f4-4c8d-9350-86bf0971ce7c"},"vehicle_type_id":"4","last_reported":1730826527,"current_range_meters":25600,"station_id":"ce4bgih2rcd13ifvqba0","pricing_plan_id":"cebpf4jnsgd1na2vs0mg"},{"bike_id":"8a307f99-c289-4399-aca1-346631e3d4a4","system_id":"levelo_inurba_marseille","lat":43.27852,"lon":5.40989,"is_reserved":false,"is_disabled":false,"rental_uris":{"android":"levelo://app?vid=8a307f99-c289-4399-aca1-346631e3d4a4","ios":"levelo://app?vid=8a307f99-c289-4399-aca1-346631e3d4a4"},"vehicle_type_id":"4","last_reported":1730826527,"current_range_meters":4400,"station_id":"ce4bhnp2rcd13ifvqh0g","pricing_plan_id":"cebpf4jnsgd1na2vs0mg"},{"bike_id":"fad21b98-4cf4-4eed-b682-c861c72dffc1","system_id":"levelo_inurba_marseille","lat":43.26786,"lon":5.39415,"is_reserved":false,"is_disabled":false,"rental_uris":{"android":"levelo://app?vid=fad21b98-4cf4-4eed-b682-c861c72dffc1","ios":"levelo://app?vid=fad21b98-4cf4-4eed-b682-c861c72dffc1"},"vehicle_type_id":"4","last_reported":1730826527,"current_range_meters":32800,"station_id":"ce4bhg12rcd13ifvqf60","pricing_plan_id":"cebpf4jnsgd1na2vs0mg"},{"bike_id":"b5830c1f-0836-43b2-bad3-8dc10ae8eb7c","system_id":"levelo_inurba_marseille","lat":43.3376,"lon":5.37458,"is_reserved":false,"is_disabled":false,"rental_uris":{"android":"levelo://app?vid=b5830c1f-0836-43b2-bad3-8dc10ae8eb7c","ios":"levelo://app?vid=b5830c1f-0836-43b2-bad3-8dc10ae8eb7c"},"vehicle_type_id":"4","last_reported":1730826527,"current_range_meters":38000,"station_id":"","pricing_plan_id":"cebpf4jnsgd1na2vs0mg"},{"bike_id":"45c362a8-95c8-4225-ae99-6ed2b27bc1e8","system_id":"levelo_inurba_marseille","lat":43.26552,"lon":5.37288,"is_reserved":false,"is_disabled":false,"rental_uris":{"android":"levelo://app?vid=45c362a8-95c8-4225-ae99-6ed2b27bc1e8","ios":"levelo://app?vid=45c362a8-95c8-4225-ae99-6ed2b27bc1e8"},"vehicle_type_id":"4","last_reported":1730826527,"current_range_meters":33200,"station_id":"ce4bhg12rcd13ifvqf70","pricing_plan_id":"cebpf4jnsgd1na2vs0mg"},{"bike_id":"321e434c-d7d6-44d4-8d83-3391eaa2db1c","system_id":"levelo_inurba_marseille","lat":43.21252,"lon":5.3537,"is_reserved":false,"is_disabled":false,"rental_uris":{"android":"levelo://app?vid=321e434c-d7d6-44d4-8d83-3391eaa2db1c","ios":"levelo://app?vid=321e434c-d7d6-44d4-8d83-3391eaa2db1c"},"vehicle_type_id":"4","last_reported":1730826527,"current_range_meters":16400,"station_id":"","pricing_plan_id":"cebpf4jnsgd1na2vs0mg"},{"bike_id":"edaf3fed-381a-45a2-bf46-249ba0f78090","system_id":"levelo_inurba_marseille","lat":43.29966,"lon":5.38497,"is_reserved":false,"is_disabled":false,"rental_uris":{"android":"levelo://app?vid=edaf3fed-381a-45a2-bf46-249ba0f78090","ios":"levelo://app?vid=edaf3fed-381a-45a2-bf46-249ba0f78090"},"vehicle_type_id":"4","last_reported":1730826527,"current_range_meters":7200,"station_id":"ce4bgj92rcd13ifvqbd0","pricing_plan_id":"cebpf4jnsgd1na2vs0mg"},{"bike_id":"106ecb85-b008-4043-bb39-19a90b8e3719","system_id":"levelo_inurba_marseille","lat":43.28036,"lon":5.36952,"is_reserved":false,"is_disabled":false,"rental_uris":{"android":"levelo://app?vid=106ecb85-b008-4043-bb39-19a90b8e3719","ios":"levelo://app?vid=106ecb85-b008-4043-bb39-19a90b8e3719"},"vehicle_type_id":"4","last_reported":1730826527,"current_range_meters":38000,"station_id":"ce4bha12rcd13ifvqef0","pricing_plan_id":"cebpf4jnsgd1na2vs0mg"},{"bike_id":"c13837f7-5ca1-4411-8ccd-b05e33b8baf5","system_id":"levelo_inurba_marseille","lat":43.28152,"lon":5.42645,"is_reserved":false,"is_disabled":false,"rental_uris":{"android":"levelo://app?vid=c13837f7-5ca1-4411-8ccd-b05e33b8baf5","ios":"levelo://app?vid=c13837f7-5ca1-4411-8ccd-b05e33b8baf5"},"vehicle_type_id":"4","last_reported":1730826527,"current_range_meters":8800,"station_id":"ce4bhnh2rcd13ifvqgug","pricing_plan_id":"cebpf4jnsgd1na2vs0mg"},{"bike_id":"f8725d88-0995-4912-927d-a6d1e60172c6","system_id":"levelo_inurba_marseille","lat":43.3015,"lon":5.38089,"is_reserved":false,"is_disabled":false,"rental_uris":{"android":"levelo://app?vid=f8725d88-0995-4912-927d-a6d1e60172c6","ios":"levelo://app?vid=f8725d88-0995-4912-927d-a6d1e60172c6"},"vehicle_type_id":"4","last_reported":1730826527,"current_range_meters":17200,"station_id":"ce4bgjp2rcd13ifvqbh0","pricing_plan_id":"cebpf4jnsgd1na2vs0mg"},{"bike_id":"65ea5d9a-a4d1-4cc1-a157-a27a15d303b4","system_id":"levelo_inurba_marseille","lat":43.33761,"lon":5.37451,"is_reserved":false,"is_disabled":false,"rental_uris":{"android":"levelo://app?vid=65ea5d9a-a4d1-4cc1-a157-a27a15d303b4","ios":"levelo://app?vid=65ea5d9a-a4d1-4cc1-a157-a27a15d303b4"},"vehicle_type_id":"4","last_reported":1730826527,"current_range_meters":38800,"station_id":"","pricing_plan_id":"cebpf4jnsgd1na2vs0mg"},{"bike_id":"c136cff0-dafb-428e-8ff0-fa4f96c6c36f","system_id":"levelo_inurba_marseille","lat":43.28438,"lon":5.39196,"is_reserved":false,"is_disabled":false,"rental_uris":{"android":"levelo://app?vid=c136cff0-dafb-428e-8ff0-fa4f96c6c36f","ios":"levelo://app?vid=c136cff0-dafb-428e-8ff0-fa4f96c6c36f"},"vehicle_type_id":"4","last_reported":1730826527,"current_range_meters":22800,"station_id":"ce4bhoh2rcd13ifvqh5g","pricing_plan_id":"cebpf4jnsgd1na2vs0mg"},{"bike_id":"33c32440-9fcd-4ca4-b3f0-310aed4b3c9c","system_id":"levelo_inurba_marseille","lat":43.239598,"lon":5.366266,"is_reserved":false,"is_disabled":false,"rental_uris":{"android":"levelo://app?vid=33c32440-9fcd-4ca4-b3f0-310aed4b3c9c","ios":"levelo://app?vid=33c32440-9fcd-4ca4-b3f0-310aed4b3c9c"},"vehicle_type_id":"4","last_reported":1730826527,"current_range_meters":28800,"station_id":"ce4bhi12rcd13ifvqfp0","pricing_plan_id":"cebpf4jnsgd1na2vs0mg"},{"bike_id":"59b3a5cd-b2f3-4490-b353-d848c5db73db","system_id":"levelo_inurba_marseille","lat":43.2743,"lon":5.39426,"is_reserved":false,"is_disabled":false,"rental_uris":{"android":"levelo://app?vid=59b3a5cd-b2f3-4490-b353-d848c5db73db","ios":"levelo://app?vid=59b3a5cd-b2f3-4490-b353-d848c5db73db"},"vehicle_type_id":"4","last_reported":1730826527,"current_range_meters":20800,"station_id":"ce4bhdp2rcd13ifvqf20","pricing_plan_id":"cebpf4jnsgd1na2vs0mg"},{"bike_id":"b9ca464e-b323-466e-82cf-a4cf4ca2fe6a","system_id":"levelo_inurba_marseille","lat":43.29445,"lon":5.39751,"is_reserved":false,"is_disabled":false,"rental_uris":{"android":"levelo://app?vid=b9ca464e-b323-466e-82cf-a4cf4ca2fe6a","ios":"levelo://app?vid=b9ca464e-b323-466e-82cf-a4cf4ca2fe6a"},"vehicle_type_id":"4","last_reported":1730826527,"current_range_meters":35600,"station_id":"ce4bh3h2rcd13ifvqdo0","pricing_plan_id":"cebpf4jnsgd1na2vs0mg"},{"bike_id":"3a801cbb-1e2e-46c3-bc85-0c5198b9902c","system_id":"levelo_inurba_marseille","lat":43.26529,"lon":5.38842,"is_reserved":false,"is_disabled":false,"rental_uris":{"android":"levelo://app?vid=3a801cbb-1e2e-46c3-bc85-0c5198b9902c","ios":"levelo://app?vid=3a801cbb-1e2e-46c3-bc85-0c5198b9902c"},"vehicle_type_id":"4","last_reported":1730826527,"current_range_meters":19200,"station_id":"","pricing_plan_id":"cebpf4jnsgd1na2vs0mg"},{"bike_id":"f20cfecf-a992-4464-a384-bad778375481","system_id":"levelo_inurba_marseille","lat":43.29521,"lon":5.44242,"is_reserved":false,"is_disabled":false,"rental_uris":{"android":"levelo://app?vid=f20cfecf-a992-4464-a384-bad778375481","ios":"levelo://app?vid=f20cfecf-a992-4464-a384-bad778375481"},"vehicle_type_id":"4","last_reported":1730826527,"current_range_meters":6400,"station_id":"","pricing_plan_id":"cebpf4jnsgd1na2vs0mg"},{"bike_id":"c265bc04-96ea-4ff9-8123-c92d90db6178","system_id":"levelo_inurba_marseille","lat":43.291095,"lon":5.380862,"is_reserved":false,"is_disabled":false,"rental_uris":{"android":"levelo://app?vid=c265bc04-96ea-4ff9-8123-c92d90db6178","ios":"levelo://app?vid=c265bc04-96ea-4ff9-8123-c92d90db6178"},"vehicle_type_id":"4","last_reported":1730826527,"current_range_meters":28400,"station_id":"ce4bh512rcd13ifvqe2g","pricing_plan_id":"cebpf4jnsgd1na2vs0mg"},{"bike_id":"7eca4df7-ef89-413c-ae96-2c3de0200a94","system_id":"levelo_inurba_marseille","lat":43.29572,"lon":5.39965,"is_reserved":false,"is_disabled":false,"rental_uris":{"android":"levelo://app?vid=7eca4df7-ef89-413c-ae96-2c3de0200a94","ios":"levelo://app?vid=7eca4df7-ef89-413c-ae96-2c3de0200a94"},"vehicle_type_id":"4","last_reported":1730826527,"current_range_meters":8800,"station_id":"ce4bh312rcd13ifvqdj0","pricing_plan_id":"cebpf4jnsgd1na2vs0mg"},{"bike_id":"9f172e4c-4aea-404a-ade1-4b1a47fba32a","system_id":"levelo_inurba_marseille","lat":43.29714,"lon":5.37697,"is_reserved":false,"is_disabled":false,"rental_uris":{"android":"levelo://app?vid=9f172e4c-4aea-404a-ade1-4b1a47fba32a","ios":"levelo://app?vid=9f172e4c-4aea-404a-ade1-4b1a47fba32a"},"vehicle_type_id":"4","last_reported":1730826527,"current_range_meters":33200,"station_id":"ce4bgkh2rcd13ifvqbl0","pricing_plan_id":"cebpf4jnsgd1na2vs0mg"},{"bike_id":"0ad4d9f0-5cfb-456e-98d1-4eb95ab7d61c","system_id":"levelo_inurba_marseille","lat":43.31724,"lon":5.37778,"is_reserved":false,"is_disabled":false,"rental_uris":{"android":"levelo://app?vid=0ad4d9f0-5cfb-456e-98d1-4eb95ab7d61c","ios":"levelo://app?vid=0ad4d9f0-5cfb-456e-98d1-4eb95ab7d61c"},"vehicle_type_id":"4","last_reported":1730826527,"current_range_meters":14400,"station_id":"ce4bgth2rcd13ifvqch0","pricing_plan_id":"cebpf4jnsgd1na2vs0mg"},{"bike_id":"94b9ed54-ada9-4ce4-8aa2-f5bcb45573d9","system_id":"levelo_inurba_marseille","lat":43.28455,"lon":5.35884,"is_reserved":false,"is_disabled":false,"rental_uris":{"android":"levelo://app?vid=94b9ed54-ada9-4ce4-8aa2-f5bcb45573d9","ios":"levelo://app?vid=94b9ed54-ada9-4ce4-8aa2-f5bcb45573d9"},"vehicle_type_id":"4","last_reported":1730826527,"current_range_meters":30000,"station_id":"ce4bhah2rcd13ifvqei0","pricing_plan_id":"cebpf4jnsgd1na2vs0mg"},{"bike_id":"46133b46-9688-4c8b-bd9b-cca99a1d93ab","system_id":"levelo_inurba_marseille","lat":43.31995,"lon":5.38172,"is_reserved":false,"is_disabled":false,"rental_uris":{"android":"levelo://app?vid=46133b46-9688-4c8b-bd9b-cca99a1d93ab","ios":"levelo://app?vid=46133b46-9688-4c8b-bd9b-cca99a1d93ab"},"vehicle_type_id":"4","last_reported":1730826527,"current_range_meters":9600,"station_id":"ce4bhr12rcd13ifvqhpg","pricing_plan_id":"cebpf4jnsgd1na2vs0mg"},{"bike_id":"f6ac1b57-434f-4fcb-a5b0-8863ab745a5f","system_id":"levelo_inurba_marseille","lat":43.30328,"lon":5.40433,"is_reserved":false,"is_disabled":false,"rental_uris":{"android":"levelo://app?vid=f6ac1b57-434f-4fcb-a5b0-8863ab745a5f","ios":"levelo://app?vid=f6ac1b57-434f-4fcb-a5b0-8863ab745a5f"},"vehicle_type_id":"4","last_reported":1730826527,"current_range_meters":34000,"station_id":"ce4bh012rcd13ifvqd10","pricing_plan_id":"cebpf4jnsgd1na2vs0mg"},{"bike_id":"e99b3486-b61a-46e6-b6c1-c2cb9529d17f","system_id":"levelo_inurba_marseille","lat":43.28941,"lon":5.36643,"is_reserved":false,"is_disabled":false,"rental_uris":{"android":"levelo://app?vid=e99b3486-b61a-46e6-b6c1-c2cb9529d17f","ios":"levelo://app?vid=e99b3486-b61a-46e6-b6c1-c2cb9529d17f"},"vehicle_type_id":"4","last_reported":1730826527,"current_range_meters":14400,"station_id":"ce4bhap2rcd13ifvqek0","pricing_plan_id":"cebpf4jnsgd1na2vs0mg"},{"bike_id":"6459c60d-773e-42b0-af99-64df0695d9f8","system_id":"levelo_inurba_marseille","lat":43.26788,"lon":5.39415,"is_reserved":false,"is_disabled":false,"rental_uris":{"android":"levelo://app?vid=6459c60d-773e-42b0-af99-64df0695d9f8","ios":"levelo://app?vid=6459c60d-773e-42b0-af99-64df0695d9f8"},"vehicle_type_id":"4","last_reported":1730826527,"current_range_meters":8400,"station_id":"ce4bhh12rcd13ifvqfg0","pricing_plan_id":"cebpf4jnsgd1na2vs0mg"},{"bike_id":"a3996c49-a18f-4ab7-a104-87f5f03fdfb2","system_id":"levelo_inurba_marseille","lat":43.29557,"lon":5.42292,"is_reserved":false,"is_disabled":false,"rental_uris":{"android":"levelo://app?vid=a3996c49-a18f-4ab7-a104-87f5f03fdfb2","ios":"levelo://app?vid=a3996c49-a18f-4ab7-a104-87f5f03fdfb2"},"vehicle_type_id":"4","last_reported":1730826527,"current_range_meters":14400,"station_id":"ce4bhph2rcd13ifvqhdg","pricing_plan_id":"cebpf4jnsgd1na2vs0mg"},{"bike_id":"e1220e18-c9f7-456d-ad9d-670be370908e","system_id":"levelo_inurba_marseille","lat":43.28462,"lon":5.35891,"is_reserved":false,"is_disabled":false,"rental_uris":{"android":"levelo://app?vid=e1220e18-c9f7-456d-ad9d-670be370908e","ios":"levelo://app?vid=e1220e18-c9f7-456d-ad9d-670be370908e"},"vehicle_type_id":"4","last_reported":1730826527,"current_range_meters":34000,"station_id":"ce4bhah2rcd13ifvqei0","pricing_plan_id":"cebpf4jnsgd1na2vs0mg"},{"bike_id":"c6f76162-70fd-4fab-8cf3-25f6b8558215","system_id":"levelo_inurba_marseille","lat":43.337166,"lon":5.391796,"is_reserved":false,"is_disabled":false,"rental_uris":{"android":"levelo://app?vid=c6f76162-70fd-4fab-8cf3-25f6b8558215","ios":"levelo://app?vid=c6f76162-70fd-4fab-8cf3-25f6b8558215"},"vehicle_type_id":"4","last_reported":1730826527,"current_range_meters":39200,"station_id":"ce4bhr92rcd13ifvqhsg","pricing_plan_id":"cebpf4jnsgd1na2vs0mg"},{"bike_id":"19271204-e8c3-453e-bbf8-be0534e02953","system_id":"levelo_inurba_marseille","lat":43.24663,"lon":5.38164,"is_reserved":false,"is_disabled":false,"rental_uris":{"android":"levelo://app?vid=19271204-e8c3-453e-bbf8-be0534e02953","ios":"levelo://app?vid=19271204-e8c3-453e-bbf8-be0534e02953"},"vehicle_type_id":"4","last_reported":1730826527,"current_range_meters":6800,"station_id":"ce4bhih2rcd13ifvqfr0","pricing_plan_id":"cebpf4jnsgd1na2vs0mg"},{"bike_id":"5b62b78d-aa14-4586-8775-89daefe25f63","system_id":"levelo_inurba_marseille","lat":43.29253,"lon":5.40908,"is_reserved":false,"is_disabled":false,"rental_uris":{"android":"levelo://app?vid=5b62b78d-aa14-4586-8775-89daefe25f63","ios":"levelo://app?vid=5b62b78d-aa14-4586-8775-89daefe25f63"},"vehicle_type_id":"4","last_reported":1730826527,"current_range_meters":8400,"station_id":"ce4bh192rcd13ifvqdc0","pricing_plan_id":"cebpf4jnsgd1na2vs0mg"},{"bike_id":"8823d36a-0b1c-48a3-bb52-c811801e183f","system_id":"levelo_inurba_marseille","lat":43.3117,"lon":5.38719,"is_reserved":false,"is_disabled":false,"rental_uris":{"android":"levelo://app?vid=8823d36a-0b1c-48a3-bb52-c811801e183f","ios":"levelo://app?vid=8823d36a-0b1c-48a3-bb52-c811801e183f"},"vehicle_type_id":"4","last_reported":1730826527,"current_range_meters":38800,"station_id":"ce4bgv12rcd13ifvqcp0","pricing_plan_id":"cebpf4jnsgd1na2vs0mg"},{"bike_id":"92115dcf-cd62-4229-8422-f94f15d5ce6e","system_id":"levelo_inurba_marseille","lat":43.25111,"lon":5.4032,"is_reserved":false,"is_disabled":false,"rental_uris":{"android":"levelo://app?vid=92115dcf-cd62-4229-8422-f94f15d5ce6e","ios":"levelo://app?vid=92115dcf-cd62-4229-8422-f94f15d5ce6e"},"vehicle_type_id":"4","last_reported":1730826527,"current_range_meters":25600,"station_id":"ce4bhlh2rcd13ifvqgig","pricing_plan_id":"cebpf4jnsgd1na2vs0mg"},{"bike_id":"d6550fcd-6ff9-434c-b6c8-d98de1a6c4e5","system_id":"levelo_inurba_marseille","lat":43.23178,"lon":5.39985,"is_reserved":false,"is_disabled":false,"rental_uris":{"android":"levelo://app?vid=d6550fcd-6ff9-434c-b6c8-d98de1a6c4e5","ios":"levelo://app?vid=d6550fcd-6ff9-434c-b6c8-d98de1a6c4e5"},"vehicle_type_id":"4","last_reported":1730826527,"current_range_meters":4000,"station_id":"ce4bhn12rcd13ifvqgqg","pricing_plan_id":"cebpf4jnsgd1na2vs0mg"},{"bike_id":"b88c2c1f-ea56-4c77-90d9-e2cc04d9917d","system_id":"levelo_inurba_marseille","lat":43.27992,"lon":5.40008,"is_reserved":false,"is_disabled":false,"rental_uris":{"android":"levelo://app?vid=b88c2c1f-ea56-4c77-90d9-e2cc04d9917d","ios":"levelo://app?vid=b88c2c1f-ea56-4c77-90d9-e2cc04d9917d"},"vehicle_type_id":"4","last_reported":1730826527,"current_range_meters":16000,"station_id":"ce4bho92rcd13ifvqh4g","pricing_plan_id":"cebpf4jnsgd1na2vs0mg"},{"bike_id":"09a26775-38ad-4e82-8f1c-a856bae39dda","system_id":"levelo_inurba_marseille","lat":43.30441,"lon":5.38895,"is_reserved":false,"is_disabled":false,"rental_uris":{"android":"levelo://app?vid=09a26775-38ad-4e82-8f1c-a856bae39dda","ios":"levelo://app?vid=09a26775-38ad-4e82-8f1c-a856bae39dda"},"vehicle_type_id":"4","last_reported":1730826527,"current_range_meters":39200,"station_id":"ce4bgk12rcd13ifvqbi0","pricing_plan_id":"cebpf4jnsgd1na2vs0mg"},{"bike_id":"2e0ef105-bb98-4736-8372-72c4c50acf2b","system_id":"levelo_inurba_marseille","lat":43.31406,"lon":5.37455,"is_reserved":false,"is_disabled":false,"rental_uris":{"android":"levelo://app?vid=2e0ef105-bb98-4736-8372-72c4c50acf2b","ios":"levelo://app?vid=2e0ef105-bb98-4736-8372-72c4c50acf2b"},"vehicle_type_id":"4","last_reported":1730826527,"current_range_meters":22800,"station_id":"","pricing_plan_id":"cebpf4jnsgd1na2vs0mg"},{"bike_id":"653402d2-dda3-47ef-b8cc-2aac20ac688a","system_id":"levelo_inurba_marseille","lat":43.30602,"lon":5.39365,"is_reserved":false,"is_disabled":false,"rental_uris":{"android":"levelo://app?vid=653402d2-dda3-47ef-b8cc-2aac20ac688a","ios":"levelo://app?vid=653402d2-dda3-47ef-b8cc-2aac20ac688a"},"vehicle_type_id":"4","last_reported":1730826527,"current_range_meters":38800,"station_id":"ce4bh0p2rcd13ifvqd80","pricing_plan_id":"cebpf4jnsgd1na2vs0mg"},{"bike_id":"9c940971-cfdc-46d7-a32e-e45b891f44cd","system_id":"levelo_inurba_marseille","lat":43.32286,"lon":5.3827,"is_reserved":false,"is_disabled":false,"rental_uris":{"android":"levelo://app?vid=9c940971-cfdc-46d7-a32e-e45b891f44cd","ios":"levelo://app?vid=9c940971-cfdc-46d7-a32e-e45b891f44cd"},"vehicle_type_id":"4","last_reported":1730826527,"current_range_meters":35200,"station_id":"ce4bhr12rcd13ifvqhqg","pricing_plan_id":"cebpf4jnsgd1na2vs0mg"},{"bike_id":"2cb178c7-10ea-4997-92d4-ccfe4a1080b1","system_id":"levelo_inurba_marseille","lat":43.3089,"lon":5.37199,"is_reserved":false,"is_disabled":false,"rental_uris":{"android":"levelo://app?vid=2cb178c7-10ea-4997-92d4-ccfe4a1080b1","ios":"levelo://app?vid=2cb178c7-10ea-4997-92d4-ccfe4a1080b1"},"vehicle_type_id":"4","last_reported":1730826527,"current_range_meters":38800,"station_id":"ce4bguh2rcd13ifvqckg","pricing_plan_id":"cebpf4jnsgd1na2vs0mg"},{"bike_id":"e234dc2e-9be1-4f2a-920a-d51ff79b8e9c","system_id":"levelo_inurba_marseille","lat":43.29965,"lon":5.37172,"is_reserved":false,"is_disabled":false,"rental_uris":{"android":"levelo://app?vid=e234dc2e-9be1-4f2a-920a-d51ff79b8e9c","ios":"levelo://app?vid=e234dc2e-9be1-4f2a-920a-d51ff79b8e9c"},"vehicle_type_id":"4","last_reported":1730826527,"current_range_meters":16400,"station_id":"ce4bgr92rcd13ifvqc7g","pricing_plan_id":"cebpf4jnsgd1na2vs0mg"},{"bike_id":"d31405e1-f7f9-48e2-b1ef-e0a3e22bffc1","system_id":"levelo_inurba_marseille","lat":43.31365,"lon":5.38491,"is_reserved":false,"is_disabled":false,"rental_uris":{"android":"levelo://app?vid=d31405e1-f7f9-48e2-b1ef-e0a3e22bffc1","ios":"levelo://app?vid=d31405e1-f7f9-48e2-b1ef-e0a3e22bffc1"},"vehicle_type_id":"4","last_reported":1730826527,"current_range_meters":27600,"station_id":"ce4bgt92rcd13ifvqcf0","pricing_plan_id":"cebpf4jnsgd1na2vs0mg"},{"bike_id":"dd947e53-1a1b-421f-9b66-40a3ff010fb0","system_id":"levelo_inurba_marseille","lat":43.24806,"lon":5.37459,"is_reserved":false,"is_disabled":false,"rental_uris":{"android":"levelo://app?vid=dd947e53-1a1b-421f-9b66-40a3ff010fb0","ios":"levelo://app?vid=dd947e53-1a1b-421f-9b66-40a3ff010fb0"},"vehicle_type_id":"4","last_reported":1730826527,"current_range_meters":30800,"station_id":"ce4bhgh2rcd13ifvqfb0","pricing_plan_id":"cebpf4jnsgd1na2vs0mg"},{"bike_id":"4d2b4cd9-1f64-4081-a146-6e3eca6d5f21","system_id":"levelo_inurba_marseille","lat":43.28366,"lon":5.38638,"is_reserved":false,"is_disabled":false,"rental_uris":{"android":"levelo://app?vid=4d2b4cd9-1f64-4081-a146-6e3eca6d5f21","ios":"levelo://app?vid=4d2b4cd9-1f64-4081-a146-6e3eca6d5f21"},"vehicle_type_id":"4","last_reported":1730826527,"current_range_meters":8400,"station_id":"ce4bh492rcd13ifvqdvg","pricing_plan_id":"cebpf4jnsgd1na2vs0mg"},{"bike_id":"da09435f-ae2b-4d5c-b5de-f8b9211d10c6","system_id":"levelo_inurba_marseille","lat":43.26945,"lon":5.40251,"is_reserved":false,"is_disabled":false,"rental_uris":{"android":"levelo://app?vid=da09435f-ae2b-4d5c-b5de-f8b9211d10c6","ios":"levelo://app?vid=da09435f-ae2b-4d5c-b5de-f8b9211d10c6"},"vehicle_type_id":"4","last_reported":1730826527,"current_range_meters":9200,"station_id":"cjm6bp8fraef2m0cb0m0","pricing_plan_id":"cebpf4jnsgd1na2vs0mg"},{"bike_id":"2ae9abc6-f447-403b-88d4-9fc0db97a89f","system_id":"levelo_inurba_marseille","lat":43.30134,"lon":5.3986,"is_reserved":false,"is_disabled":false,"rental_uris":{"android":"levelo://app?vid=2ae9abc6-f447-403b-88d4-9fc0db97a89f","ios":"levelo://app?vid=2ae9abc6-f447-403b-88d4-9fc0db97a89f"},"vehicle_type_id":"4","last_reported":1730826527,"current_range_meters":26000,"station_id":"ce4bh0h2rcd13ifvqd40","pricing_plan_id":"cebpf4jnsgd1na2vs0mg"},{"bike_id":"597dcc02-f782-4eec-be0e-211754b3730b","system_id":"levelo_inurba_marseille","lat":43.31726,"lon":5.42395,"is_reserved":false,"is_disabled":false,"rental_uris":{"android":"levelo://app?vid=597dcc02-f782-4eec-be0e-211754b3730b","ios":"levelo://app?vid=597dcc02-f782-4eec-be0e-211754b3730b"},"vehicle_type_id":"4","last_reported":1730826527,"current_range_meters":24400,"station_id":"ce4bhp92rcd13ifvqhbg","pricing_plan_id":"cebpf4jnsgd1na2vs0mg"},{"bike_id":"ebf7a454-fb10-49c5-ac10-528a40b474d9","system_id":"levelo_inurba_marseille","lat":43.30554,"lon":5.36554,"is_reserved":false,"is_disabled":false,"rental_uris":{"android":"levelo://app?vid=ebf7a454-fb10-49c5-ac10-528a40b474d9","ios":"levelo://app?vid=ebf7a454-fb10-49c5-ac10-528a40b474d9"},"vehicle_type_id":"4","last_reported":1730826527,"current_range_meters":39200,"station_id":"ce4bgs12rcd13ifvqcag","pricing_plan_id":"cebpf4jnsgd1na2vs0mg"},{"bike_id":"99fb42c6-bc56-4e85-8f30-512c3c2f5974","system_id":"levelo_inurba_marseille","lat":43.25084,"lon":5.39517,"is_reserved":false,"is_disabled":false,"rental_uris":{"android":"levelo://app?vid=99fb42c6-bc56-4e85-8f30-512c3c2f5974","ios":"levelo://app?vid=99fb42c6-bc56-4e85-8f30-512c3c2f5974"},"vehicle_type_id":"4","last_reported":1730826527,"current_range_meters":40000,"station_id":"ce4bhm12rcd13ifvqgkg","pricing_plan_id":"cebpf4jnsgd1na2vs0mg"},{"bike_id":"6c12ca7e-c5f1-40d3-85d1-729a26a9f5b7","system_id":"levelo_inurba_marseille","lat":43.30351,"lon":5.41881,"is_reserved":false,"is_disabled":false,"rental_uris":{"android":"levelo://app?vid=6c12ca7e-c5f1-40d3-85d1-729a26a9f5b7","ios":"levelo://app?vid=6c12ca7e-c5f1-40d3-85d1-729a26a9f5b7"},"vehicle_type_id":"4","last_reported":1730826527,"current_range_meters":23200,"station_id":"ce4bhop2rcd13ifvqh7g","pricing_plan_id":"cebpf4jnsgd1na2vs0mg"},{"bike_id":"da801b57-1823-456c-9429-9e9705a8e240","system_id":"levelo_inurba_marseille","lat":43.23191,"lon":5.35553,"is_reserved":false,"is_disabled":false,"rental_uris":{"android":"levelo://app?vid=da801b57-1823-456c-9429-9e9705a8e240","ios":"levelo://app?vid=da801b57-1823-456c-9429-9e9705a8e240"},"vehicle_type_id":"4","last_reported":1730826527,"current_range_meters":36800,"station_id":"ce4bhu92rcd13ifvqi70","pricing_plan_id":"cebpf4jnsgd1na2vs0mg"},{"bike_id":"b8137df2-116d-440a-8516-fe728fef3e63","system_id":"levelo_inurba_marseille","lat":43.29912,"lon":5.37476,"is_reserved":false,"is_disabled":false,"rental_uris":{"android":"levelo://app?vid=b8137df2-116d-440a-8516-fe728fef3e63","ios":"levelo://app?vid=b8137df2-116d-440a-8516-fe728fef3e63"},"vehicle_type_id":"4","last_reported":1730826527,"current_range_meters":28400,"station_id":"ce4bgjh2rcd13ifvqbg0","pricing_plan_id":"cebpf4jnsgd1na2vs0mg"},{"bike_id":"a52b6ba3-a265-4ada-90ea-d4708e5c5045","system_id":"levelo_inurba_marseille","lat":43.31487,"lon":5.37308,"is_reserved":false,"is_disabled":false,"rental_uris":{"android":"levelo://app?vid=a52b6ba3-a265-4ada-90ea-d4708e5c5045","ios":"levelo://app?vid=a52b6ba3-a265-4ada-90ea-d4708e5c5045"},"vehicle_type_id":"4","last_reported":1730826527,"current_range_meters":26000,"station_id":"ce4bgt12rcd13ifvqcd0","pricing_plan_id":"cebpf4jnsgd1na2vs0mg"},{"bike_id":"c93bb6d9-5f22-47ca-8075-b0183d4facd4","system_id":"levelo_inurba_marseille","lat":43.28463,"lon":5.35887,"is_reserved":false,"is_disabled":false,"rental_uris":{"android":"levelo://app?vid=c93bb6d9-5f22-47ca-8075-b0183d4facd4","ios":"levelo://app?vid=c93bb6d9-5f22-47ca-8075-b0183d4facd4"},"vehicle_type_id":"4","last_reported":1730826527,"current_range_meters":30800,"station_id":"ce4bhah2rcd13ifvqei0","pricing_plan_id":"cebpf4jnsgd1na2vs0mg"},{"bike_id":"87dc9b34-6387-41e8-abcb-e2ef35f841bd","system_id":"levelo_inurba_marseille","lat":43.2871,"lon":5.39991,"is_reserved":false,"is_disabled":false,"rental_uris":{"android":"levelo://app?vid=87dc9b34-6387-41e8-abcb-e2ef35f841bd","ios":"levelo://app?vid=87dc9b34-6387-41e8-abcb-e2ef35f841bd"},"vehicle_type_id":"4","last_reported":1730826527,"current_range_meters":26000,"station_id":"ce4bho92rcd13ifvqh3g","pricing_plan_id":"cebpf4jnsgd1na2vs0mg"},{"bike_id":"6dc6ec83-d28d-4d6b-b1ac-b584f36d3bd7","system_id":"levelo_inurba_marseille","lat":43.3376,"lon":5.37437,"is_reserved":false,"is_disabled":false,"rental_uris":{"android":"levelo://app?vid=6dc6ec83-d28d-4d6b-b1ac-b584f36d3bd7","ios":"levelo://app?vid=6dc6ec83-d28d-4d6b-b1ac-b584f36d3bd7"},"vehicle_type_id":"4","last_reported":1730826527,"current_range_meters":36000,"station_id":"","pricing_plan_id":"cebpf4jnsgd1na2vs0mg"},{"bike_id":"f9c0cede-ce12-4dc4-a31f-811e736abafa","system_id":"levelo_inurba_marseille","lat":43.23176,"lon":5.39983,"is_reserved":false,"is_disabled":false,"rental_uris":{"android":"levelo://app?vid=f9c0cede-ce12-4dc4-a31f-811e736abafa","ios":"levelo://app?vid=f9c0cede-ce12-4dc4-a31f-811e736abafa"},"vehicle_type_id":"4","last_reported":1730826527,"current_range_meters":39200,"station_id":"ce4bhn12rcd13ifvqgqg","pricing_plan_id":"cebpf4jnsgd1na2vs0mg"},{"bike_id":"7d5d771e-65e0-4dac-9fc0-2bd513e9a840","system_id":"levelo_inurba_marseille","lat":43.33024,"lon":5.39041,"is_reserved":false,"is_disabled":false,"rental_uris":{"android":"levelo://app?vid=7d5d771e-65e0-4dac-9fc0-2bd513e9a840","ios":"levelo://app?vid=7d5d771e-65e0-4dac-9fc0-2bd513e9a840"},"vehicle_type_id":"4","last_reported":1730826527,"current_range_meters":26000,"station_id":"ce4bhr92rcd13ifvqhrg","pricing_plan_id":"cebpf4jnsgd1na2vs0mg"},{"bike_id":"420dae0f-26d7-4bcc-86be-9fcfe1be52c5","system_id":"levelo_inurba_marseille","lat":43.32368,"lon":5.38887,"is_reserved":false,"is_disabled":false,"rental_uris":{"android":"levelo://app?vid=420dae0f-26d7-4bcc-86be-9fcfe1be52c5","ios":"levelo://app?vid=420dae0f-26d7-4bcc-86be-9fcfe1be52c5"},"vehicle_type_id":"4","last_reported":1730826527,"current_range_meters":12800,"station_id":"ce4bhqp2rcd13ifvqhog","pricing_plan_id":"cebpf4jnsgd1na2vs0mg"},