{"last_updated":1679318261,"ttl":30,"version":"2.2","data":{"bikes":[{"bike_id":"7c13c9f2-64ad-472b-b75e-9f27da4a5035","system_id":"levelo_inurba_marseille","lat":43.312239,"lon":5.368562,"is_reserved":false,"is_disabled":false,"rental_uris":{"android":"levelo://app?vid=7c13c9f2-64ad-472b-b75e-9f27da4a5035","ios":"levelo://app?vid=7c13c9f2-64ad-472b-b75e-9f27da4a5035"},"vehicle_type_id":"4","last_reported":1679318261,"current_range_meters":31600,"station_id":"ce4bgl92rcd13ifvqbq0","pricing_plan_id":"free"},{"bike_id":"5559ab0d-59b4-474c-a727-28b18b1b02d4","system_id":"levelo_inurba_marseille","lat":43.312239,"lon":5.368562,"is_reserved":false,"is_disabled":false,"rental_uris":{"android":"levelo://app?vid=5559ab0d-59b4-474c-a727-28b18b1b02d4","ios":"levelo://app?vid=5559ab0d-59b4-474c-a727-28b18b1b02d4"},"vehicle_type_id":"4","last_reported":1679318261,"current_range_meters":30000,"station_id":"ce4bgl92rcd13ifvqbq0","pricing_plan_id":"free"},{"bike_id":"5da93ce4-534c-4024-b322-c534187368bb","system_id":"levelo_inurba_marseille","lat":43.312239,"lon":5.368562,"is_reserved":false,"is_disabled":false,"rental_uris":{"android":"levelo://app?vid=5da93ce4-534c-4024-b322-c534187368bb","ios":"levelo://app?vid=5da93ce4-534c-4024-b322-c534187368bb"},"vehicle_type_id":"4","last_reported":1679318261,"current_range_meters":18400,"station_id":"ce4bgl92rcd13ifvqbq0","pricing_plan_id":"free"},{"bike_id":"7fe44374-7639-47ec-a56f-70e11cf070b5","system_id":"levelo_inurba_marseille","lat":43.312239,"lon":5.368562,"is_reserved":false,"is_disabled":false,"rental_uris":{"android":"levelo://app?vid=7fe44374-7639-47ec-a56f-70e11cf070b5","ios":"levelo://app?vid=7fe44374-7639-47ec-a56f-70e11cf070b5"},"vehicle_type_id":"4","last_reported":1679318261,"current_range_meters":15600,"station_id":"ce4bgl92rcd13ifvqbq0","pricing_plan_id":"free"},{"bike_id":"37b2d190-56d9-4cea-9367-ce5d1117ab4b","system_id":"levelo_inurba_marseille","lat":43.312239,"lon":5.368562,"is_reserved":false,"is_disabled":false,"rental_uris":{"android":"levelo://app?vid=37b2d190-56d9-4cea-9367-ce5d1117ab4b","ios":"levelo://app?vid=37b2d190-56d9-4cea-9367-ce5d1117ab4b"},"vehicle_type_id":"4","last_reported":1679318261,"current_range_meters":24000,"station_id":"ce4bgl92rcd13ifvqbq0","pricing_plan_id":"free"},{"bike_id":"9e3db56e-5bc5-45ed-88d3-3c0b0b888acc","system_id":"levelo_inurba_marseille","lat":43.312239,"lon":5.368562,"is_reserved":false,"is_disabled":false,"rental_uris":{"android":"levelo://app?vid=9e3db56e-5bc5-45ed-88d3-3c0b0b888acc","ios":"levelo://app?vid=9e3db56e-5bc5-45ed-88d3-3c0b0b888acc"},"vehicle_type_id":"4","last_reported":1679318261,"current_range_meters":24000,"station_id":"ce4bgl92rcd13ifvqbq0","pricing_plan_id":"free"},{"bike_id":"09bd2f8b-9cc1-41ea-b82a-723eb3ff53ff","system_id":"levelo_inurba_marseille","lat":43.312239,"lon":5.368562,"is_reserved":false,"is_disabled":false,"rental_uris":{"android":"levelo://app?vid=09bd2f8b-9cc1-41ea-b82a-723eb3ff53ff","ios":"levelo://app?vid=09bd2f8b-9cc1-41ea-b82a-723eb3ff53ff"},"vehicle_type_id":"4","last_reported":1679318261,"current_range_meters":13200,"station_id":"ce4bgl92rcd13ifvqbq0","pricing_plan_id":"free"},{"bike_id":"3be054e8-9d94-4aae-82fc-48a671309e3c","system_id":"levelo_inurba_marseille","lat":43.309103,"lon":5.368473,"is_reserved":false,"is_disabled":false,"rental_uris":{"android":"levelo://app?vid=3be054e8-9d94-4aae-82fc-48a671309e3c","ios":"levelo://app?vid=3be054e8-9d94-4aae-82fc-48a671309e3c"},"vehicle_type_id":"4","last_reported":1679318261,"current_range_meters":11600,"station_id":"ce4bgn92rcd13ifvqbvg","pricing_plan_id":"free"},{"bike_id":"8a4d3a82-4014-4cae-8858-de13d9ac8bfd","system_id":"levelo_inurba_marseille","lat":43.314811,"lon":5.373103,"is_reserved":false,"is_disabled":false,"rental_uris":{"android":"levelo://app?vid=8a4d3a82-4014-4cae-8858-de13d9ac8bfd","ios":"levelo://app?vid=8a4d3a82-4014-4cae-8858-de13d9ac8bfd"},"vehicle_type_id":"4","last_reported":1679318261,"current_range_meters":2800,"station_id":"ce4bgt12rcd13ifvqcd0","pricing_plan_id":"free"},{"bike_id":"9d77e6f0-1996-4bef-ad02-af72c2de37f9","system_id":"levelo_inurba_marseille","lat":43.314811,"lon":5.373103,"is_reserved":false,"is_disabled":false,"rental_uris":{"android":"levelo://app?vid=9d77e6f0-1996-4bef-ad02-af72c2de37f9","ios":"levelo://app?vid=9d77e6f0-1996-4bef-ad02-af72c2de37f9"},"vehicle_type_id":"4","last_reported":1679318261,"current_range_meters":21200,"station_id":"ce4bgt12rcd13ifvqcd0","pricing_plan_id":"free"},{"bike_id":"399d400b-d6fe-4aa5-b823-b1f16b55720c","system_id":"levelo_inurba_marseille","lat":43.314811,"lon":5.373103,"is_reserved":false,"is_disabled":false,"rental_uris":{"android":"levelo://app?vid=399d400b-d6fe-4aa5-b823-b1f16b55720c","ios":"levelo://app?vid=399d400b-d6fe-4aa5-b823-b1f16b55720c"},"vehicle_type_id":"4","last_reported":1679318261,"current_range_meters":30000,"station_id":"ce4bgt12rcd13ifvqcd0","pricing_plan_id":"free"},{"bike_id":"8ecb2c79-b2dd-4f12-a756-2af9c4dd32d0","system_id":"levelo_inurba_marseille","lat":43.314811,"lon":5.373103,"is_reserved":false,"is_disabled":false,"rental_uris":{"android":"levelo://app?vid=8ecb2c79-b2dd-4f12-a756-2af9c4dd32d0","ios":"levelo://app?vid=8ecb2c79-b2dd-4f12-a756-2af9c4dd32d0"},"vehicle_type_id":"4","last_reported":1679318261,"current_range_meters":28800,"station_id":"ce4bgt12rcd13ifvqcd0","pricing_plan_id":"free"},{"bike_id":"506d9f34-9c1d-4fbe-9bfa-979466ee59ed","system_id":"levelo_inurba_marseille","lat":43.314811,"lon":5.373103,"is_reserved":false,"is_disabled":false,"rental_uris":{"android":"levelo://app?vid=506d9f34-9c1d-4fbe-9bfa-979466ee59ed","ios":"levelo://app?vid=506d9f34-9c1d-4fbe-9bfa-979466ee59ed"},"vehicle_type_id":"4","last_reported":1679318261,"current_range_meters":5600,"station_id":"ce4bgt12rcd13ifvqcd0","pricing_plan_id":"free"},{"bike_id":"f0397a28-d717-48f5-8bb1-ed3e708103da","system_id":"levelo_inurba_marseille","lat":43.314811,"lon":5.373103,"is_reserved":false,"is_disabled":false,"rental_uris":{"android":"levelo://app?vid=f0397a28-d717-48f5-8bb1-ed3e708103da","ios":"levelo://app?vid=f0397a28-d717-48f5-8bb1-ed3e708103da"},"vehicle_type_id":"4","last_reported":1679318261,"current_range_meters":22000,"station_id":"ce4bgt12rcd13ifvqcd0","pricing_plan_id":"free"},{"bike_id":"6fbe6825-be38-49a9-ab4f-eb50d48221d9","system_id":"levelo_inurba_marseille","lat":43.314811,"lon":5.373103,"is_reserved":false,"is_disabled":false,"rental_uris":{"android":"levelo://app?vid=6fbe6825-be38-49a9-ab4f-eb50d48221d9","ios":"levelo://app?vid=6fbe6825-be38-49a9-ab4f-eb50d48221d9"},"vehicle_type_id":"4","last_reported":1679318261,"current_range_meters":26000,"station_id":"ce4bgt12rcd13ifvqcd0","pricing_plan_id":"free"},{"bike_id":"dfc02f30-4edd-4cc8-b0d0-0b27440d92eb","system_id":"levelo_inurba_marseille","lat":43.305989,"lon":5.37225,"is_reserved":false,"is_disabled":false,"rental_uris":{"android":"levelo://app?vid=dfc02f30-4edd-4cc8-b0d0-0b27440d92eb","ios":"levelo://app?vid=dfc02f30-4edd-4cc8-b0d0-0b27440d92eb"},"vehicle_type_id":"4","last_reported":1679318261,"current_range_meters":16000,"station_id":"ce4bgqh2rcd13ifvqc4g","pricing_plan_id":"free"},{"bike_id":"21d11e0b-a0ae-4c2b-b580-54eb21ea23ca","system_id":"levelo_inurba_marseille","lat":43.305989,"lon":5.37225,"is_reserved":false,"is_disabled":false,"rental_uris":{"android":"levelo://app?vid=21d11e0b-a0ae-4c2b-b580-54eb21ea23ca","ios":"levelo://app?vid=21d11e0b-a0ae-4c2b-b580-54eb21ea23ca"},"vehicle_type_id":"4","last_reported":1679318261,"current_range_meters":22800,"station_id":"ce4bgqh2rcd13ifvqc4g","pricing_plan_id":"free"},{"bike_id":"4733a617-6492-4762-84a4-b6c7e41d51a4","system_id":"levelo_inurba_marseille","lat":43.30531,"lon":5.37594,"is_reserved":false,"is_disabled":false,"rental_uris":{"android":"levelo://app?vid=4733a617-6492-4762-84a4-b6c7e41d51a4","ios":"levelo://app?vid=4733a617-6492-4762-84a4-b6c7e41d51a4"},"vehicle_type_id":"4","last_reported":1679318261,"current_range_meters":400,"station_id":"","pricing_plan_id":"free"},{"bike_id":"f7991876-0cda-4527-b60c-d862f98ccb38","system_id":"levelo_inurba_marseille","lat":43.308012,"lon":5.381511,"is_reserved":false,"is_disabled":false,"rental_uris":{"android":"levelo://app?vid=f7991876-0cda-4527-b60c-d862f98ccb38","ios":"levelo://app?vid=f7991876-0cda-4527-b60c-d862f98ccb38"},"vehicle_type_id":"4","last_reported":1679318261,"current_range_meters":28400,"station_id":"ce4bgt12rcd13ifvqce0","pricing_plan_id":"free"},{"bike_id":"8650bbb3-d40d-46a6-a44a-94dab694ffa1","system_id":"levelo_inurba_marseille","lat":43.301939,"lon":5.366286,"is_reserved":false,"is_disabled":false,"rental_uris":{"android":"levelo://app?vid=8650bbb3-d40d-46a6-a44a-94dab694ffa1","ios":"levelo://app?vid=8650bbb3-d40d-46a6-a44a-94dab694ffa1"},"vehicle_type_id":"4","last_reported":1679318261,"current_range_meters":0,"station_id":"ce4bgrh2rcd13ifvqc8g","pricing_plan_id":"free"},{"bike_id":"5257b789-a59c-42ac-8e9e-d59dc467d8ef","system_id":"levelo_inurba_marseille","lat":43.301939,"lon":5.366286,"is_reserved":false,"is_disabled":false,"rental_uris":{"android":"levelo://app?vid=5257b789-a59c-42ac-8e9e-d59dc467d8ef","ios":"levelo://app?vid=5257b789-a59c-42ac-8e9e-d59dc467d8ef"},"vehicle_type_id":"4","last_reported":1679318261,"current_range_meters":4800,"station_id":"ce4bgrh2rcd13ifvqc8g","pricing_plan_id":"free"},{"bike_id":"55c4e500-6ea7-43e1-ae89-956c9d7549f2","system_id":"levelo_inurba_marseille","lat":43.301939,"lon":5.366286,"is_reserved":false,"is_disabled":false,"rental_uris":{"android":"levelo://app?vid=55c4e500-6ea7-43e1-ae89-956c9d7549f2","ios":"levelo://app?vid=55c4e500-6ea7-43e1-ae89-956c9d7549f2"},"vehicle_type_id":"4","last_reported":1679318261,"current_range_meters":2800,"station_id":"ce4bgrh2rcd13ifvqc8g","pricing_plan_id":"free"},{"bike_id":"9b606dd0-e961-4e25-ab4a-1a2f890b5527","system_id":"levelo_inurba_marseille","lat":43.301939,"lon":5.366286,"is_reserved":false,"is_disabled":false,"rental_uris":{"android":"levelo://app?vid=9b606dd0-e961-4e25-ab4a-1a2f890b5527","ios":"levelo://app?vid=9b606dd0-e961-4e25-ab4a-1a2f890b5527"},"vehicle_type_id":"4","last_reported":1679318261,"current_range_meters":28000,"station_id":"ce4bgrh2rcd13ifvqc8g","pricing_plan_id":"free"},{"bike_id":"2faabc4e-5835-43e0-ab05-9f5510ab14c3","system_id":"levelo_inurba_marseille","lat":43.301939,"lon":5.366286,"is_reserved":false,"is_disabled":false,"rental_uris":{"android":"levelo://app?vid=2faabc4e-5835-43e0-ab05-9f5510ab14c3","ios":"levelo://app?vid=2faabc4e-5835-43e0-ab05-9f5510ab14c3"},"vehicle_type_id":"4","last_reported":1679318261,"current_range_meters":30400,"station_id":"ce4bgrh2rcd13ifvqc8g","pricing_plan_id":"free"},{"bike_id":"5a8eb0ff-5082-41a1-8e20-222e7e1def05","system_id":"levelo_inurba_marseille","lat":43.301939,"lon":5.366286,"is_reserved":false,"is_disabled":false,"rental_uris":{"android":"levelo://app?vid=5a8eb0ff-5082-41a1-8e20-222e7e1def05","ios":"levelo://app?vid=5a8eb0ff-5082-41a1-8e20-222e7e1def05"},"vehicle_type_id":"4","last_reported":1679318261,"current_range_meters":20400,"station_id":"ce4bgrh2rcd13ifvqc8g","pricing_plan_id":"free"},{"bike_id":"452b2672-b362-4d38-9696-ddda64ec1212","system_id":"levelo_inurba_marseille","lat":43.301939,"lon":5.366286,"is_reserved":false,"is_disabled":false,"rental_uris":{"android":"levelo://app?vid=452b2672-b362-4d38-9696-ddda64ec1212","ios":"levelo://app?vid=452b2672-b362-4d38-9696-ddda64ec1212"},"vehicle_type_id":"4","last_reported":1679318261,"current_range_meters":31600,"station_id":"ce4bgrh2rcd13ifvqc8g","pricing_plan_id":"free"},{"bike_id":"fe4b7fed-8b18-47be-90d3-2c4944b53c47","system_id":"levelo_inurba_marseille","lat":43.30184,"lon":5.36608,"is_reserved":false,"is_disabled":false,"rental_uris":{"android":"levelo://app?vid=fe4b7fed-8b18-47be-90d3-2c4944b53c47","ios":"levelo://app?vid=fe4b7fed-8b18-47be-90d3-2c4944b53c47"},"vehicle_type_id":"4","last_reported":1679318261,"current_range_meters":10400,"station_id":"","pricing_plan_id":"free"},{"bike_id":"67183db7-2bec-4d18-b19e-72c423a0a554","system_id":"levelo_inurba_marseille","lat":43.301939,"lon":5.366286,"is_reserved":false,"is_disabled":false,"rental_uris":{"android":"levelo://app?vid=67183db7-2bec-4d18-b19e-72c423a0a554","ios":"levelo://app?vid=67183db7-2bec-4d18-b19e-72c423a0a554"},"vehicle_type_id":"4","last_reported":1679318261,"current_range_meters":6400,"station_id":"ce4bgrh2rcd13ifvqc8g","pricing_plan_id":"free"},{"bike_id":"e14749ae-54c5-421d-9428-95aa7c47174c","system_id":"levelo_inurba_marseille","lat":43.301939,"lon":5.366286,"is_reserved":false,"is_disabled":false,"rental_uris":{"android":"levelo://app?vid=e14749ae-54c5-421d-9428-95aa7c47174c","ios":"levelo://app?vid=e14749ae-54c5-421d-9428-95aa7c47174c"},"vehicle_type_id":"4","last_reported":1679318261,"current_range_meters":13600,"station_id":"ce4bgrh2rcd13ifvqc8g","pricing_plan_id":"free"},{"bike_id":"cc294ecc-f66a-464f-845a-7196843fa42d","system_id":"levelo_inurba_marseille","lat":43.301939,"lon":5.366286,"is_reserved":false,"is_disabled":false,"rental_uris":{"android":"levelo://app?vid=cc294ecc-f66a-464f-845a-7196843fa42d","ios":"levelo://app?vid=cc294ecc-f66a-464f-845a-7196843fa42d"},"vehicle_type_id":"4","last_reported":1679318261,"current_range_meters":30400,"station_id":"ce4bgrh2rcd13ifvqc8g","pricing_plan_id":"free"},{"bike_id":"93ee53f2-7708-4594-a74f-96e7c397ad8b","system_id":"levelo_inurba_marseille","lat":43.308012,"lon":5.381511,"is_reserved":false,"is_disabled":false,"rental_uris":{"android":"levelo://app?vid=93ee53f2-7708-4594-a74f-96e7c397ad8b","ios":"levelo://app?vid=93ee53f2-7708-4594-a74f-96e7c397ad8b"},"vehicle_type_id":"4","last_reported":1679318261,"current_range_meters":9200,"station_id":"ce4bgt12rcd13ifvqce0","pricing_plan_id":"free"},{"bike_id":"e16b2a41-b17f-40f8-bded-a4cd277bb81e","system_id":"levelo_inurba_marseille","lat":43.308012,"lon":5.381511,"is_reserved":false,"is_disabled":false,"rental_uris":{"android":"levelo://app?vid=e16b2a41-b17f-40f8-bded-a4cd277bb81e","ios":"levelo://app?vid=e16b2a41-b17f-40f8-bded-a4cd277bb81e"},"vehicle_type_id":"4","last_reported":1679318261,"current_range_meters":30000,"station_id":"ce4bgt12rcd13ifvqce0","pricing_plan_id":"free"},{"bike_id":"e1aa59df-6f08-40e5-aae7-89291b011d18","system_id":"levelo_inurba_marseille","lat":43.308012,"lon":5.381511,"is_reserved":false,"is_disabled":false,"rental_uris":{"android":"levelo://app?vid=e1aa59df-6f08-40e5-aae7-89291b011d18","ios":"levelo://app?vid=e1aa59df-6f08-40e5-aae7-89291b011d18"},"vehicle_type_id":"4","last_reported":1679318261,"current_range_meters":26800,"station_id":"ce4bgt12rcd13ifvqce0","pricing_plan_id":"free"},{"bike_id":"dd6ed595-a635-48bb-89ab-38a8f6b70c84","system_id":"levelo_inurba_marseille","lat":43.308012,"lon":5.381511,"is_reserved":false,"is_disabled":false,"rental_uris":{"android":"levelo://app?vid=dd6ed595-a635-48bb-89ab-38a8f6b70c84","ios":"levelo://app?vid=dd6ed595-a635-48bb-89ab-38a8f6b70c84"},"vehicle_type_id":"4","last_reported":1679318261,"current_range_meters":28400,"station_id":"ce4bgt12rcd13ifvqce0","pricing_plan_id":"free"},{"bike_id":"6bab4b00-458b-4ead-a2dd-756d73f7acc6","system_id":"levelo_inurba_marseille","lat":43.308012,"lon":5.381511,"is_reserved":false,"is_disabled":false,"rental_uris":{"android":"levelo://app?vid=6bab4b00-458b-4ead-a2dd-756d73f7acc6","ios":"levelo://app?vid=6bab4b00-458b-4ead-a2dd-756d73f7acc6"},"vehicle_type_id":"4","last_reported":1679318261,"current_range_meters":6400,"station_id":"ce4bgt12rcd13ifvqce0","pricing_plan_id":"free"},{"bike_id":"53cfe51a-02d9-4116-b347-03707756fd30","system_id":"levelo_inurba_marseille","lat":43.304606,"lon":5.379026,"is_reserved":false,"is_disabled":false,"rental_uris":{"android":"levelo://app?vid=53cfe51a-02d9-4116-b347-03707756fd30","ios":"levelo://app?vid=53cfe51a-02d9-4116-b347-03707756fd30"},"vehicle_type_id":"4","last_reported":1679318261,"current_range_meters":9600,"station_id":"ce4bgup2rcd13ifvqcn0","pricing_plan_id":"free"},{"bike_id":"411f0b3b-a2f7-42d6-9291-314799b547bf","system_id":"levelo_inurba_marseille","lat":43.30132,"lon":5.37429,"is_reserved":false,"is_disabled":false,"rental_uris":{"android":"levelo://app?vid=411f0b3b-a2f7-42d6-9291-314799b547bf","ios":"levelo://app?vid=411f0b3b-a2f7-42d6-9291-314799b547bf"},"vehicle_type_id":"4","last_reported":1679318261,"current_range_meters":24800,"station_id":"","pricing_plan_id":"free"},{"bike_id":"3ebba03b-f95a-416d-9132-63633ce2eba4","system_id":"levelo_inurba_marseille","lat":43.299094,"lon":5.365415,"is_reserved":false,"is_disabled":false,"rental_uris":{"android":"levelo://app?vid=3ebba03b-f95a-416d-9132-63633ce2eba4","ios":"levelo://app?vid=3ebba03b-f95a-416d-9132-63633ce2eba4"},"vehicle_type_id":"4","last_reported":1679318261,"current_range_meters":11200,"station_id":"ce4bgm92rcd13ifvqbr0","pricing_plan_id":"free"},{"bike_id":"4f539ebc-439d-4f33-84af-077bdc7feaef","system_id":"levelo_inurba_marseille","lat":43.299094,"lon":5.365415,"is_reserved":false,"is_disabled":false,"rental_uris":{"android":"levelo://app?vid=4f539ebc-439d-4f33-84af-077bdc7feaef","ios":"levelo://app?vid=4f539ebc-439d-4f33-84af-077bdc7feaef"},"vehicle_type_id":"4","last_reported":1679318261,"current_range_meters":14800,"station_id":"ce4bgm92rcd13ifvqbr0","pricing_plan_id":"free"},{"bike_id":"8237ac09-25ff-4093-b74b-20e1442d126a","system_id":"levelo_inurba_marseille","lat":43.299094,"lon":5.365415,"is_reserved":false,"is_disabled":false,"rental_uris":{"android":"levelo://app?vid=8237ac09-25ff-4093-b74b-20e1442d126a","ios":"levelo://app?vid=8237ac09-25ff-4093-b74b-20e1442d126a"},"vehicle_type_id":"4","last_reported":1679318261,"current_range_meters":3200,"station_id":"ce4bgm92rcd13ifvqbr0","pricing_plan_id":"free"},{"bike_id":"5281e4e3-28a0-4d76-bfad-a8e24857c48f","system_id":"levelo_inurba_marseille","lat":43.306496,"lon":5.383338,"is_reserved":false,"is_disabled":false,"rental_uris":{"android":"levelo://app?vid=5281e4e3-28a0-4d76-bfad-a8e24857c48f","ios":"levelo://app?vid=5281e4e3-28a0-4d76-bfad-a8e24857c48f"},"vehicle_type_id":"4","last_reported":1679318261,"current_range_meters":0,"station_id":"","pricing_plan_id":"free"},{"bike_id":"068d06a9-27d9-4165-9cf1-d6c272c55d63","system_id":"levelo_inurba_marseille","lat":43.30591,"lon":5.383423,"is_reserved":false,"is_disabled":false,"rental_uris":{"android":"levelo://app?vid=068d06a9-27d9-4165-9cf1-d6c272c55d63","ios":"levelo://app?vid=068d06a9-27d9-4165-9cf1-d6c272c55d63"},"vehicle_type_id":"4","last_reported":1679318261,"current_range_meters":2400,"station_id":"","pricing_plan_id":"free"},{"bike_id":"01ffe7dd-532b-4f21-bec2-d405fecda320","system_id":"levelo_inurba_marseille","lat":43.325715,"lon":5.37453,"is_reserved":false,"is_disabled":false,"rental_uris":{"android":"levelo://app?vid=01ffe7dd-532b-4f21-bec2-d405fecda320","ios":"levelo://app?vid=01ffe7dd-532b-4f21-bec2-d405fecda320"},"vehicle_type_id":"4","last_reported":1679318261,"current_range_meters":12800,"station_id":"","pricing_plan_id":"free"},{"bike_id":"59a0dbac-e9d9-48cd-a17e-e929ed1b90ef","system_id":"levelo_inurba_marseille","lat":43.298433,"lon":5.362774,"is_reserved":false,"is_disabled":false,"rental_uris":{"android":"levelo://app?vid=59a0dbac-e9d9-48cd-a17e-e929ed1b90ef","ios":"levelo://app?vid=59a0dbac-e9d9-48cd-a17e-e929ed1b90ef"},"vehicle_type_id":"4","last_reported":1679318261,"current_range_meters":4000,"station_id":"ce4bgpp2rcd13ifvqc3g","pricing_plan_id":"free"},{"bike_id":"411f0bf5-cb09-4cd6-a88b-20105b709349","system_id":"levelo_inurba_marseille","lat":43.29847,"lon":5.36287,"is_reserved":false,"is_disabled":false,"rental_uris":{"android":"levelo://app?vid=411f0bf5-cb09-4cd6-a88b-20105b709349","ios":"levelo://app?vid=411f0bf5-cb09-4cd6-a88b-20105b709349"},"vehicle_type_id":"4","last_reported":1679318261,"current_range_meters":24800,"station_id":"ce4bgpp2rcd13ifvqc3g","pricing_plan_id":"free"},{"bike_id":"1eba7ffe-7068-4ee1-91f8-81f535fc6da2","system_id":"levelo_inurba_marseille","lat":43.305364,"lon":5.384119,"is_reserved":false,"is_disabled":false,"rental_uris":{"android":"levelo://app?vid=1eba7ffe-7068-4ee1-91f8-81f535fc6da2","ios":"levelo://app?vid=1eba7ffe-7068-4ee1-91f8-81f535fc6da2"},"vehicle_type_id":"4","last_reported":1679318261,"current_range_meters":23600,"station_id":"ce4bgg92rcd13ifvqb30","pricing_plan_id":"free"},{"bike_id":"9593d194-7da3-4eae-a931-1c53871352bb","system_id":"levelo_inurba_marseille","lat":43.305364,"lon":5.384119,"is_reserved":false,"is_disabled":false,"rental_uris":{"android":"levelo://app?vid=9593d194-7da3-4eae-a931-1c53871352bb","ios":"levelo://app?vid=9593d194-7da3-4eae-a931-1c53871352bb"},"vehicle_type_id":"4","last_reported":1679318261,"current_range_meters":6400,"station_id":"ce4bgg92rcd13ifvqb30","pricing_plan_id":"free"},{"bike_id":"1a35c959-6e44-4fde-970c-3fd02618257b","system_id":"levelo_inurba_marseille","lat":43.305364,"lon":5.384119,"is_reserved":false,"is_disabled":false,"rental_uris":{"android":"levelo://app?vid=1a35c959-6e44-4fde-970c-3fd02618257b","ios":"levelo://app?vid=1a35c959-6e44-4fde-970c-3fd02618257b"},"vehicle_type_id":"4","last_reported":1679318261,"current_range_meters":29600,"station_id":"ce4bgg92rcd13ifvqb30","pricing_plan_id":"free"},{"bike_id":"3a1bda86-630b-45ed-9275-59e32c7a9729","system_id":"levelo_inurba_marseille","lat":43.305364,"lon":5.384119,"is_reserved":false,"is_disabled":false,"rental_uris":{"android":"levelo://app?vid=3a1bda86-630b-45ed-9275-59e32c7a9729","ios":"levelo://app?vid=3a1bda86-630b-45ed-9275-59e32c7a9729"},"vehicle_type_id":"4","last_reported":1679318261,"current_range_meters":26000,"station_id":"ce4bgg92rcd13ifvqb30","pricing_plan_id":"free"},{"bike_id":"e1df1a7d-064a-47e4-94e2-18c41e5aa0af","system_id":"levelo_inurba_marseille","lat":43.298433,"lon":5.362774,"is_reserved":false,"is_disabled":false,"rental_uris":{"android":"levelo://app?vid=e1df1a7d-064a-47e4-94e2-18c41e5aa0af","ios":"levelo://app?vid=e1df1a7d-064a-47e4-94e2-18c41e5aa0af"},"vehicle_type_id":"4","last_reported":1679318261,"current_range_meters":14800,"station_id":"ce4bgpp2rcd13ifvqc3g","pricing_plan_id":"free"},{"bike_id":"f305b560-d16a-4612-8100-5dcb87352813","system_id":"levelo_inurba_marseille","lat":43.2984,"lon":5.36267,"is_reserved":false,"is_disabled":false,"rental_uris":{"android":"levelo://app?vid=f305b560-d16a-4612-8100-5dcb87352813","ios":"levelo://app?vid=f305b560-d16a-4612-8100-5dcb87352813"},"vehicle_type_id":"4","last_reported":1679318261,"current_range_meters":20800,"station_id":"ce4bgpp2rcd13ifvqc3g","pricing_plan_id":"free"},{"bike_id":"16dd0495-bf4d-4315-99dc-7685d59c6a88","system_id":"levelo_inurba_marseille","lat":43.305364,"lon":5.384119,"is_reserved":false,"is_disabled":false,"rental_uris":{"android":"levelo://app?vid=16dd0495-bf4d-4315-99dc-7685d59c6a88","ios":"levelo://app?vid=16dd0495-bf4d-4315-99dc-7685d59c6a88"},"vehicle_type_id":"4","last_reported":1679318261,"current_range_meters":4800,"station_id":"ce4bgg92rcd13ifvqb30","pricing_plan_id":"free"},{"bike_id":"af68a0ed-c580-4056-aa10-9bba597b82db","system_id":"levelo_inurba_marseille","lat":43.29786,"lon":5.371,"is_reserved":false,"is_disabled":false,"rental_uris":{"android":"levelo://app?vid=af68a0ed-c580-4056-aa10-9bba597b82db","ios":"levelo://app?vid=af68a0ed-c580-4056-aa10-9bba597b82db"},"vehicle_type_id":"4","last_reported":1679318261,"current_range_meters":17600,"station_id":"ce4bgop2rcd13ifvqc1g","pricing_plan_id":"free"},{"bike_id":"2deb6e12-4399-424b-b1bc-9e1d63e62fd6","system_id":"levelo_inurba_marseille","lat":43.298667,"lon":5.375759,"is_reserved":false,"is_disabled":false,"rental_uris":{"android":"levelo://app?vid=2deb6e12-4399-424b-b1bc-9e1d63e62fd6","ios":"levelo://app?vid=2deb6e12-4399-424b-b1bc-9e1d63e62fd6"},"vehicle_type_id":"4","last_reported":1679318261,"current_range_meters":18000,"station_id":"","pricing_plan_id":"free"},{"bike_id":"a46c9a94-2276-45ed-ad88-071530af8440","system_id":"levelo_inurba_marseille","lat":43.328371,"lon":5.366909,"is_reserved":false,"is_disabled":false,"rental_uris":{"android":"levelo://app?vid=a46c9a94-2276-45ed-ad88-071530af8440","ios":"levelo://app?vid=a46c9a94-2276-45ed-ad88-071530af8440"},"vehicle_type_id":"4","last_reported":1679318261,"current_range_meters":10800,"station_id":"ce4bhs92rcd13ifvqi0g","pricing_plan_id":"free"},{"bike_id":"cfe77983-961c-4241-b1d8-87255f6ef36b","system_id":"levelo_inurba_marseille","lat":43.31529,"lon":5.38859,"is_reserved":false,"is_disabled":false,"rental_uris":{"android":"levelo://app?vid=cfe77983-961c-4241-b1d8-87255f6ef36b","ios":"levelo://app?vid=cfe77983-961c-4241-b1d8-87255f6ef36b"},"vehicle_type_id":"4","last_reported":1679318261,"current_range_meters":12800,"station_id":"","pricing_plan_id":"free"},{"bike_id":"0d5ca59e-2de2-47c8-bef1-444a7db56972","system_id":"levelo_inurba_marseille","lat":43.29573,"lon":5.367355,"is_reserved":false,"is_disabled":false,"rental_uris":{"android":"levelo://app?vid=0d5ca59e-2de2-47c8-bef1-444a7db56972","ios":"levelo://app?vid=0d5ca59e-2de2-47c8-bef1-444a7db56972"},"vehicle_type_id":"4","last_reported":1679318261,"current_range_meters":29200,"station_id":"ce4bgph2rcd13ifvqc2g","pricing_plan_id":"free"},{"bike_id":"1142edc5-2b0f-4dda-b032-37d2d0fd11e2","system_id":"levelo_inurba_marseille","lat":43.309589,"lon":5.390258,"is_reserved":false,"is_disabled":false,"rental_uris":{"android":"levelo://app?vid=1142edc5-2b0f-4dda-b032-37d2d0fd11e2","ios":"levelo://app?vid=1142edc5-2b0f-4dda-b032-37d2d0fd11e2"},"vehicle_type_id":"4","last_reported":1679318261,"current_range_meters":19600,"station_id":"ce4bgup2rcd13ifvqco0","pricing_plan_id":"free"},{"bike_id":"6a040a2b-5389-4a2d-9e13-5a39ecab61f9","system_id":"levelo_inurba_marseille","lat":43.296921,"lon":5.376579,"is_reserved":false,"is_disabled":false,"rental_uris":{"android":"levelo://app?vid=6a040a2b-5389-4a2d-9e13-5a39ecab61f9","ios":"levelo://app?vid=6a040a2b-5389-4a2d-9e13-5a39ecab61f9"},"vehicle_type_id":"4","last_reported":1679318261,"current_range_meters":26400,"station_id":"ce4bgkh2rcd13ifvqbl0","pricing_plan_id":"free"},{"bike_id":"98e123ab-cc18-4f05-a631-1dc62d1c6be9","system_id":"levelo_inurba_marseille","lat":43.309589,"lon":5.390258,"is_reserved":false,"is_disabled":false,"rental_uris":{"android":"levelo://app?vid=98e123ab-cc18-4f05-a631-1dc62d1c6be9","ios":"levelo://app?vid=98e123ab-cc18-4f05-a631-1dc62d1c6be9"},"vehicle_type_id":"4","last_reported":1679318261,"current_range_meters":21600,"station_id":"ce4bgup2rcd13ifvqco0","pricing_plan_id":"free"},{"bike_id":"6eab526f-03e4-4808-af62-b5b472c33e8b","system_id":"levelo_inurba_marseille","lat":43.309589,"lon":5.390258,"is_reserved":false,"is_disabled":false,"rental_uris":{"android":"levelo://app?vid=6eab526f-03e4-4808-af62-b5b472c33e8b","ios":"levelo://app?vid=6eab526f-03e4-4808-af62-b5b472c33e8b"},"vehicle_type_id":"4","last_reported":1679318261,"current_range_meters":23200,"station_id":"ce4bgup2rcd13ifvqco0","pricing_plan_id":"free"},{"bike_id":"e119b009-c2e9-4236-aea6-b4d406dd5872","system_id":"levelo_inurba_marseille","lat":43.309589,"lon":5.390258,"is_reserved":false,"is_disabled":false,"rental_uris":{"android":"levelo://app?vid=e119b009-c2e9-4236-aea6-b4d406dd5872","ios":"levelo://app?vid=e119b009-c2e9-4236-aea6-b4d406dd5872"},"vehicle_type_id":"4","last_reported":1679318261,"current_range_meters":29600,"station_id":"ce4bgup2rcd13ifvqco0","pricing_plan_id":"free"},{"bike_id":"bbf75540-f644-4aac-b334-d86966df730f","system_id":"levelo_inurba_marseille","lat":43.297025,"lon":5.37705,"is_reserved":false,"is_disabled":false,"rental_uris":{"android":"levelo://app?vid=bbf75540-f644-4aac-b334-d86966df730f","ios":"levelo://app?vid=bbf75540-f644-4aac-b334-d86966df730f"},"vehicle_type_id":"4","last_reported":1679318261,"current_range_meters":29200,"station_id":"","pricing_plan_id":"free"},{"bike_id":"83f7fd38-dcc9-42eb-9a67-e155bf6eef8f","system_id":"levelo_inurba_marseille","lat":43.30964,"lon":5.39057,"is_reserved":false,"is_disabled":false,"rental_uris":{"android":"levelo://app?vid=83f7fd38-dcc9-42eb-9a67-e155bf6eef8f","ios":"levelo://app?vid=83f7fd38-dcc9-42eb-9a67-e155bf6eef8f"},"vehicle_type_id":"4","last_reported":1679318261,"current_range_meters":14800,"station_id":"ce4bgup2rcd13ifvqco0","pricing_plan_id":"free"},{"bike_id":"a98d847e-4b13-4c44-b618-cc3e5b93e061","system_id":"levelo_inurba_marseille","lat":43.317557,"lon":5.390173,"is_reserved":false,"is_disabled":false,"rental_uris":{"android":"levelo://app?vid=a98d847e-4b13-4c44-b618-cc3e5b93e061","ios":"levelo://app?vid=a98d847e-4b13-4c44-b618-cc3e5b93e061"},"vehicle_type_id":"4","last_reported":1679318261,"current_range_meters":18400,"station_id":"ce4bhqp2rcd13ifvqhng","pricing_plan_id":"free"},{"bike_id":"537df185-56b3-4048-8ab9-adc1f92efbc3","system_id":"levelo_inurba_marseille","lat":43.323337,"lon":5.38658,"is_reserved":false,"is_disabled":false,"rental_uris":{"android":"levelo://app?vid=537df185-56b3-4048-8ab9-adc1f92efbc3","ios":"levelo://app?vid=537df185-56b3-4048-8ab9-adc1f92efbc3"},"vehicle_type_id":"4","last_reported":1679318261,"current_range_meters":7600,"station_id":"","pricing_plan_id":"free"},{"bike_id":"ac255662-3a57-4d4d-993a-21bcc9bc0463","system_id":"levelo_inurba_marseille","lat":43.29789,"lon":5.38088,"is_reserved":false,"is_disabled":false,"rental_uris":{"android":"levelo://app?vid=ac255662-3a57-4d4d-993a-21bcc9bc0463","ios":"levelo://app?vid=ac255662-3a57-4d4d-993a-21bcc9bc0463"},"vehicle_type_id":"4","last_reported":1679318261,"current_range_meters":18400,"station_id":"","pricing_plan_id":"free"},{"bike_id":"97e64b56-b866-4c2e-8557-427e2d1d9d9a","system_id":"levelo_inurba_marseille","lat":43.30435,"lon":5.38886,"is_reserved":false,"is_disabled":false,"rental_uris":{"android":"levelo://app?vid=97e64b56-b866-4c2e-8557-427e2d1d9d9a","ios":"levelo://app?vid=97e64b56-b866-4c2e-8557-427e2d1d9d9a"},"vehicle_type_id":"4","last_reported":1679318261,"current_range_meters":4400,"station_id":"","pricing_plan_id":"free"},{"bike_id":"3a5199d7-3d11-4017-903f-773623451266","system_id":"levelo_inurba_marseille","lat":43.304278,"lon":5.388868,"is_reserved":false,"is_disabled":false,"rental_uris":{"android":"levelo://app?vid=3a5199d7-3d11-4017-903f-773623451266","ios":"levelo://app?vid=3a5199d7-3d11-4017-903f-773623451266"},"vehicle_type_id":"4","last_reported":1679318261,"current_range_meters":2800,"station_id":"ce4bgk12rcd13ifvqbi0","pricing_plan_id":"free"},{"bike_id":"2d4e6737-ee7d-46e9-a020-dd0f11858a19","system_id":"levelo_inurba_marseille","lat":43.296277,"lon":5.377108,"is_reserved":false,"is_disabled":false,"rental_uris":{"android":"levelo://app?vid=2d4e6737-ee7d-46e9-a020-dd0f11858a19","ios":"levelo://app?vid=2d4e6737-ee7d-46e9-a020-dd0f11858a19"},"vehicle_type_id":"4","last_reported":1679318261,"current_range_meters":0,"station_id":"ce4bgi92rcd13ifvqb90","pricing_plan_id":"free"},{"bike_id":"e08ef7e0-c587-4eaa-938b-a19556caaefc","system_id":"levelo_inurba_marseille","lat":43.304278,"lon":5.388868,"is_reserved":false,"is_disabled":false,"rental_uris":{"android":"levelo://app?vid=e08ef7e0-c587-4eaa-938b-a19556caaefc","ios":"levelo://app?vid=e08ef7e0-c587-4eaa-938b-a19556caaefc"},"vehicle_type_id":"4","last_reported":1679318261,"current_range_meters":2000,"station_id":"ce4bgk12rcd13ifvqbi0","pricing_plan_id":"free"},{"bike_id":"30c039d7-c36b-4ee7-ab9e-134a570821b2","system_id":"levelo_inurba_marseille","lat":43.299707,"lon":5.384859,"is_reserved":false,"is_disabled":false,"rental_uris":{"android":"levelo://app?vid=30c039d7-c36b-4ee7-ab9e-134a570821b2","ios":"levelo://app?vid=30c039d7-c36b-4ee7-ab9e-134a570821b2"},"vehicle_type_id":"4","last_reported":1679318261,"current_range_meters":31200,"station_id":"ce4bgj92rcd13ifvqbd0","pricing_plan_id":"free"},{"bike_id":"2f0304ae-96ee-4603-98d8-8e5986a2d941","system_id":"levelo_inurba_marseille","lat":43.32363,"lon":5.388835,"is_reserved":false,"is_disabled":false,"rental_uris":{"android":"levelo://app?vid=2f0304ae-96ee-4603-98d8-8e5986a2d941","ios":"levelo://app?vid=2f0304ae-96ee-4603-98d8-8e5986a2d941"},"vehicle_type_id":"4","last_reported":1679318261,"current_range_meters":18400,"station_id":"","pricing_plan_id":"free"},{"bike_id":"35b28b1f-3504-4ca9-b2f8-4430b47d84ac","system_id":"levelo_inurba_marseille","lat":43.323628,"lon":5.388881,"is_reserved":false,"is_disabled":false,"rental_uris":{"android":"levelo://app?vid=35b28b1f-3504-4ca9-b2f8-4430b47d84ac","ios":"levelo://app?vid=35b28b1f-3504-4ca9-b2f8-4430b47d84ac"},"vehicle_type_id":"4","last_reported":1679318261,"current_range_meters":0,"station_id":"ce4bhqp2rcd13ifvqhog","pricing_plan_id":"free"},{"bike_id":"da6b908f-ce6d-4a91-830d-2a13d5af3762","system_id":"levelo_inurba_marseille","lat":43.293249,"lon":5.371578,"is_reserved":false,"is_disabled":false,"rental_uris":{"android":"levelo://app?vid=da6b908f-ce6d-4a91-830d-2a13d5af3762","ios":"levelo://app?vid=da6b908f-ce6d-4a91-830d-2a13d5af3762"},"vehicle_type_id":"4","last_reported":1679318261,"current_range_meters":0,"station_id":"ce4bgh92rcd13ifvqb40","pricing_plan_id":"free"},{"bike_id":"a38ed7de-537c-4738-8516-1e1968604782","system_id":"levelo_inurba_marseille","lat":43.30589,"lon":5.39344,"is_reserved":false,"is_disabled":false,"rental_uris":{"android":"levelo://app?vid=a38ed7de-537c-4738-8516-1e1968604782","ios":"levelo://app?vid=a38ed7de-537c-4738-8516-1e1968604782"},"vehicle_type_id":"4","last_reported":1679318261,"current_range_meters":22400,"station_id":"","pricing_plan_id":"free"},{"bike_id":"d3fefc1f-a68c-4c35-8e91-322ed4be7d2e","system_id":"levelo_inurba_marseille","lat":43.305994,"lon":5.393687,"is_reserved":false,"is_disabled":false,"rental_uris":{"android":"levelo://app?vid=d3fefc1f-a68c-4c35-8e91-322ed4be7d2e","ios":"levelo://app?vid=d3fefc1f-a68c-4c35-8e91-322ed4be7d2e"},"vehicle_type_id":"4","last_reported":1679318261,"current_range_meters":22400,"station_id":"ce4bh0p2rcd13ifvqd80","pricing_plan_id":"free"},{"bike_id":"a09d97fa-6924-4b48-947d-10fd473e4c5b","system_id":"levelo_inurba_marseille","lat":43.305994,"lon":5.393687,"is_reserved":false,"is_disabled":false,"rental_uris":{"android":"levelo://app?vid=a09d97fa-6924-4b48-947d-10fd473e4c5b","ios":"levelo://app?vid=a09d97fa-6924-4b48-947d-10fd473e4c5b"},"vehicle_type_id":"4","last_reported":1679318261,"current_range_meters":27600,"station_id":"ce4bh0p2rcd13ifvqd80","pricing_plan_id":"free"},{"bike_id":"4f7809e9-f032-4305-b95b-2070774e1fb5","system_id":"levelo_inurba_marseille","lat":43.305994,"lon":5.393687,"is_reserved":false,"is_disabled":false,"rental_uris":{"android":"levelo://app?vid=4f7809e9-f032-4305-b95b-2070774e1fb5","ios":"levelo://app?vid=4f7809e9-f032-4305-b95b-2070774e1fb5"},"vehicle_type_id":"4","last_reported":1679318261,"current_range_meters":18400,"station_id":"ce4bh0p2rcd13ifvqd80","pricing_plan_id":"free"},{"bike_id":"48ff3b2d-7d88-4efa-9be7-1bf62386b621","system_id":"levelo_inurba_marseille","lat":43.305994,"lon":5.393687,"is_reserved":false,"is_disabled":false,"rental_uris":{"android":"levelo://app?vid=48ff3b2d-7d88-4efa-9be7-1bf62386b621","ios":"levelo://app?vid=48ff3b2d-7d88-4efa-9be7-1bf62386b621"},"vehicle_type_id":"4","last_reported":1679318261,"current_range_meters":23200,"station_id":"ce4bh0p2rcd13ifvqd80","pricing_plan_id":"free"},{"bike_id":"d3f26f5c-b2ad-4b44-a6db-aed422fea219","system_id":"levelo_inurba_marseille","lat":43.29366,"lon":5.3784,"is_reserved":false,"is_disabled":false,"rental_uris":{"android":"levelo://app?vid=d3f26f5c-b2ad-4b44-a6db-aed422fea219","ios":"levelo://app?vid=d3f26f5c-b2ad-4b44-a6db-aed422fea219"},"vehicle_type_id":"4","last_reported":1679318261,"current_range_meters":16400,"station_id":"","pricing_plan_id":"free"},{"bike_id":"fab064d1-1eb9-4247-8133-f5eb84a8daa6","system_id":"levelo_inurba_marseille","lat":43.2936,"lon":5.37835,"is_reserved":false,"is_disabled":false,"rental_uris":{"android":"levelo://app?vid=fab064d1-1eb9-4247-8133-f5eb84a8daa6","ios":"levelo://app?vid=fab064d1-1eb9-4247-8133-f5eb84a8daa6"},"vehicle_type_id":"4","last_reported":1679318261,"current_range_meters":25200,"station_id":"ce4bgjh2rcd13ifvqbf0","pricing_plan_id":"free"},{"bike_id":"66c63f96-ed06-4172-9668-caedd12c7ae7","system_id":"levelo_inurba_marseille","lat":43.292311,"lon":5.360731,"is_reserved":false,"is_disabled":false,"rental_uris":{"android":"levelo://app?vid=66c63f96-ed06-4172-9668-caedd12c7ae7","ios":"levelo://app?vid=66c63f96-ed06-4172-9668-caedd12c7ae7"},"vehicle_type_id":"4","last_reported":1679318261,"current_range_meters":30400,"station_id":"ce4bhbh2rcd13ifvqeqg","pricing_plan_id":"free"},{"bike_id":"c1190db0-4f31-4c85-894c-eea4213f7dc3","system_id":"levelo_inurba_marseille","lat":43.293009,"lon":5.374584,"is_reserved":false,"is_disabled":false,"rental_uris":{"android":"levelo://app?vid=c1190db0-4f31-4c85-894c-eea4213f7dc3","ios":"levelo://app?vid=c1190db0-4f31-4c85-894c-eea4213f7dc3"},"vehicle_type_id":"4","last_reported":1679318261,"current_range_meters":16400,"station_id":"ce4bgi12rcd13ifvqb70","pricing_plan_id":"free"},{"bike_id":"886ae296-a92d-488a-b97e-3b5bd4386e12","system_id":"levelo_inurba_marseille","lat":43.293009,"lon":5.374584,"is_reserved":false,"is_disabled":false,"rental_uris":{"android":"levelo://app?vid=886ae296-a92d-488a-b97e-3b5bd4386e12","ios":"levelo://app?vid=886ae296-a92d-488a-b97e-3b5bd4386e12"},"vehicle_type_id":"4","last_reported":1679318261,"current_range_meters":11600,"station_id":"ce4bgi12rcd13ifvqb70","pricing_plan_id":"free"},{"bike_id":"f72329fc-3d9f-4fbd-a5a7-c92688abaa11","system_id":"levelo_inurba_marseille","lat":43.291671,"lon":5.371575,"is_reserved":false,"is_disabled":false,"rental_uris":{"android":"levelo://app?vid=f72329fc-3d9f-4fbd-a5a7-c92688abaa11","ios":"levelo://app?vid=f72329fc-3d9f-4fbd-a5a7-c92688abaa11"},"vehicle_type_id":"4","last_reported":1679318261,"current_range_meters":24000,"station_id":"ce4bha92rcd13ifvqeh0","pricing_plan_id":"free"},{"bike_id":"6f816835-8bdf-461a-8615-892d5f9ad857","system_id":"levelo_inurba_marseille","lat":43.291671,"lon":5.371575,"is_reserved":false,"is_disabled":false,"rental_uris":{"android":"levelo://app?vid=6f816835-8bdf-461a-8615-892d5f9ad857","ios":"levelo://app?vid=6f816835-8bdf-461a-8615-892d5f9ad857"},"vehicle_type_id":"4","last_reported":1679318261,"current_range_meters":29600,"station_id":"ce4bha92rcd13ifvqeh0","pricing_plan_id":"free"},{"bike_id":"75e3bd95-8cdb-4828-8a69-aea26aa784d4","system_id":"levelo_inurba_marseille","lat":43.313291,"lon":5.396838,"is_reserved":false,"is_disabled":false,"rental_uris":{"android":"levelo://app?vid=75e3bd95-8cdb-4828-8a69-aea26aa784d4","ios":"levelo://app?vid=75e3bd95-8cdb-4828-8a69-aea26aa784d4"},"vehicle_type_id":"4","last_reported":1679318261,"current_range_meters":13600,"station_id":"ce4bgvp2rcd13ifvqcu0","pricing_plan_id":"free"},{"bike_id":"18bbb74e-e6b4-4456-ac41-15e7eee3ff68","system_id":"levelo_inurba_marseille","lat":43.319253,"lon":5.39563,"is_reserved":false,"is_disabled":false,"rental_uris":{"android":"levelo://app?vid=18bbb74e-e6b4-4456-ac41-15e7eee3ff68","ios":"levelo://app?vid=18bbb74e-e6b4-4456-ac41-15e7eee3ff68"},"vehicle_type_id":"4","last_reported":1679318261,"current_range_meters":17200,"station_id":"","pricing_plan_id":"free"},{"bike_id":"b184ead5-fd1e-47cf-8947-c7e1ba4a4db1","system_id":"levelo_inurba_marseille","lat":43.290745,"lon":5.371888,"is_reserved":false,"is_disabled":false,"rental_uris":{"android":"levelo://app?vid=b184ead5-fd1e-47cf-8947-c7e1ba4a4db1","ios":"levelo://app?vid=b184ead5-fd1e-47cf-8947-c7e1ba4a4db1"},"vehicle_type_id":"4","last_reported":1679318261,"current_range_meters":19200,"station_id":"ce4bh5p2rcd13ifvqe4g","pricing_plan_id":"free"},{"bike_id":"6d462b1f-1e7f-4f6f-89bf-b575755a7b83","system_id":"levelo_inurba_marseille","lat":43.290624,"lon":5.359245,"is_reserved":false,"is_disabled":false,"rental_uris":{"android":"levelo://app?vid=6d462b1f-1e7f-4f6f-89bf-b575755a7b83","ios":"levelo://app?vid=6d462b1f-1e7f-4f6f-89bf-b575755a7b83"},"vehicle_type_id":"4","last_reported":1679318261,"current_range_meters":29600,"station_id":"ce4bha92rcd13ifvqeg0","pricing_plan_id":"free"},{"bike_id":"7cc659cb-928f-4732-8a21-5ff1a733281e","system_id":"levelo_inurba_marseille","lat":43.290624,"lon":5.359245,"is_reserved":false,"is_disabled":false,"rental_uris":{"android":"levelo://app?vid=7cc659cb-928f-4732-8a21-5ff1a733281e","ios":"levelo://app?vid=7cc659cb-928f-4732-8a21-5ff1a733281e"},"vehicle_type_id":"4","last_reported":1679318261,"current_range_meters":31200,"station_id":"ce4bha92rcd13ifvqeg0","pricing_plan_id":"free"},{"bike_id":"5eb2143e-e8f5-41e1-aa42-cba982fe1d92","system_id":"levelo_inurba_marseille","lat":43.290624,"lon":5.359245,"is_reserved":false,"is_disabled":false,"rental_uris":{"android":"levelo://app?vid=5eb2143e-e8f5-41e1-aa42-cba982fe1d92","ios":"levelo://app?vid=5eb2143e-e8f5-41e1-aa42-cba982fe1d92"},"vehicle_type_id":"4","last_reported":1679318261,"current_range_meters":29600,"station_id":"ce4bha92rcd13ifvqeg0","pricing_plan_id":"free"},{"bike_id":"ad883447-6f0b-4641-9abf-7e7bf4d8b963","system_id":"levelo_inurba_marseille","lat":43.290624,"lon":5.359245,"is_reserved":false,"is_disabled":false,"rental_uris":{"android":"levelo://app?vid=ad883447-6f0b-4641-9abf-7e7bf4d8b963","ios":"levelo://app?vid=ad883447-6f0b-4641-9abf-7e7bf4d8b963"},"vehicle_type_id":"4","last_reported":1679318261,"current_range_meters":30000,"station_id":"ce4bha92rcd13ifvqeg0","pricing_plan_id":"free"},{"bike_id":"d961e348-54a9-48cc-af9b-5518b2a239fb","system_id":"levelo_inurba_marseille","lat":43.290624,"lon":5.359245,"is_reserved":false,"is_disabled":false,"rental_uris":{"android":"levelo://app?vid=d961e348-54a9-48cc-af9b-5518b2a239fb","ios":"levelo://app?vid=d961e348-54a9-48cc-af9b-5518b2a239fb"},"vehicle_type_id":"4","last_reported":1679318261,"current_range_meters":24800,"station_id":"ce4bha92rcd13ifvqeg0","pricing_plan_id":"free"},{"bike_id":"044cbffb-8084-4072-9dd4-db247c8ee7be","system_id":"levelo_inurba_marseille","lat":43.290624,"lon":5.359245,"is_reserved":false,"is_disabled":false,"rental_uris":{"android":"levelo://app?vid=044cbffb-8084-4072-9dd4-db247c8ee7be","ios":"levelo://app?vid=044cbffb-8084-4072-9dd4-db247c8ee7be"},"vehicle_type_id":"4","last_reported":1679318261,"current_range_meters":29600,"station_id":"ce4bha92rcd13ifvqeg0","pricing_plan_id":"free"},{"bike_id":"c3ae6ed3-b127-4539-8513-6470afe7abe9","system_id":"levelo_inurba_marseille","lat":43.290624,"lon":5.359245,"is_reserved":false,"is_disabled":false,"rental_uris":{"android":"levelo://app?vid=c3ae6ed3-b127-4539-8513-6470afe7abe9","ios":"levelo://app?vid=c3ae6ed3-b127-4539-8513-6470afe7abe9"},"vehicle_type_id":"4","last_reported":1679318261,"current_range_meters":28800,"station_id":"ce4bha92rcd13ifvqeg0","pricing_plan_id":"free"},{"bike_id":"fb40bc79-0e79-4c3c-95eb-433174e742e0","system_id":"levelo_inurba_marseille","lat":43.290624,"lon":5.359245,"is_reserved":false,"is_disabled":false,"rental_uris":{"android":"levelo://app?vid=fb40bc79-0e79-4c3c-95eb-433174e742e0","ios":"levelo://app?vid=fb40bc79-0e79-4c3c-95eb-433174e742e0"},"vehicle_type_id":"4","last_reported":1679318261,"current_range_meters":30000,"station_id":"ce4bha92rcd13ifvqeg0","pricing_plan_id":"free"},{"bike_id":"eb9d1918-e504-4ee1-afc9-1655908e8986","system_id":"levelo_inurba_marseille","lat":43.290624,"lon":5.359245,"is_reserved":false,"is_disabled":false,"rental_uris":{"android":"levelo://app?vid=eb9d1918-e504-4ee1-afc9-1655908e8986","ios":"levelo://app?vid=eb9d1918-e504-4ee1-afc9-1655908e8986"},"vehicle_type_id":"4","last_reported":1679318261,"current_range_meters":29200,"station_id":"ce4bha92rcd13ifvqeg0","pricing_plan_id":"free"},{"bike_id":"8966c57e-3819-49d1-9d13-aef7644bf587","system_id":"levelo_inurba_marseille","lat":43.290624,"lon":5.359245,"is_reserved":false,"is_disabled":false,"rental_uris":{"android":"levelo://app?vid=8966c57e-3819-49d1-9d13-aef7644bf587","ios":"levelo://app?vid=8966c57e-3819-49d1-9d13-aef7644bf587"},"vehicle_type_id":"4","last_reported":1679318261,"current_range_meters":30400,"station_id":"ce4bha92rcd13ifvqeg0","pricing_plan_id":"free"},{"bike_id":"d924b657-5f2b-4ffa-b074-f06ed2623210","system_id":"levelo_inurba_marseille","lat":43.290624,"lon":5.359245,"is_reserved":false,"is_disabled":false,"rental_uris":{"android":"levelo://app?vid=d924b657-5f2b-4ffa-b074-f06ed2623210","ios":"levelo://app?vid=d924b657-5f2b-4ffa-b074-f06ed2623210"},"vehicle_type_id":"4","last_reported":1679318261,"current_range_meters":30000,"station_id":"ce4bha92rcd13ifvqeg0","pricing_plan_id":"free"},{"bike_id":"2bcc4d33-fcbf-408a-96d3-51e8a29f51b1","system_id":"levelo_inurba_marseille","lat":43.290723,"lon":5.357363,"is_reserved":false,"is_disabled":false,"rental_uris":{"android":"levelo://app?vid=2bcc4d33-fcbf-408a-96d3-51e8a29f51b1","ios":"levelo://app?vid=2bcc4d33-fcbf-408a-96d3-51e8a29f51b1"},"vehicle_type_id":"4","last_reported":1679318261,"current_range_meters":18000,"station_id":"","pricing_plan_id":"free"},{"bike_id":"15fbe713-19b9-4e04-b24a-735fb1a30012","system_id":"levelo_inurba_marseille","lat":43.290327,"lon":5.375711,"is_reserved":false,"is_disabled":false,"rental_uris":{"android":"levelo://app?vid=15fbe713-19b9-4e04-b24a-735fb1a30012","ios":"levelo://app?vid=15fbe713-19b9-4e04-b24a-735fb1a30012"},"vehicle_type_id":"4","last_reported":1679318261,"current_range_meters":22800,"station_id":"ce4bh692rcd13ifvqe90","pricing_plan_id":"free"},{"bike_id":"c901d30d-263c-4741-953a-ba5b48a5b906","system_id":"levelo_inurba_marseille","lat":43.289184,"lon":5.366408,"is_reserved":false,"is_disabled":false,"rental_uris":{"android":"levelo://app?vid=c901d30d-263c-4741-953a-ba5b48a5b906","ios":"levelo://app?vid=c901d30d-263c-4741-953a-ba5b48a5b906"},"vehicle_type_id":"4","last_reported":1679318261,"current_range_meters":17600,"station_id":"ce4bhap2rcd13ifvqek0","pricing_plan_id":"free"},{"bike_id":"0a2d5be5-82c4-4bf0-984c-b4ecade097db","system_id":"levelo_inurba_marseille","lat":43.289184,"lon":5.366408,"is_reserved":false,"is_disabled":false,"rental_uris":{"android":"levelo://app?vid=0a2d5be5-82c4-4bf0-984c-b4ecade097db","ios":"levelo://app?vid=0a2d5be5-82c4-4bf0-984c-b4ecade097db"},"vehicle_type_id":"4","last_reported":1679318261,"current_range_meters":21600,"station_id":"ce4bhap2rcd13ifvqek0","pricing_plan_id":"free"},{"bike_id":"c74ea19b-153b-49cc-bba2-e8d2f1341e01","system_id":"levelo_inurba_marseille","lat":43.289184,"lon":5.366408,"is_reserved":false,"is_disabled":false,"rental_uris":{"android":"levelo://app?vid=c74ea19b-153b-49cc-bba2-e8d2f1341e01","ios":"levelo://app?vid=c74ea19b-153b-49cc-bba2-e8d2f1341e01"},"vehicle_type_id":"4","last_reported":1679318261,"current_range_meters":24000,"station_id":"ce4bhap2rcd13ifvqek0","pricing_plan_id":"free"},{"bike_id":"8c8bcd23-c949-4138-9127-d4b5521e606c","system_id":"levelo_inurba_marseille","lat":43.29267,"lon":5.384355,"is_reserved":false,"is_disabled":false,"rental_uris":{"android":"levelo://app?vid=8c8bcd23-c949-4138-9127-d4b5521e606c","ios":"levelo://app?vid=8c8bcd23-c949-4138-9127-d4b5521e606c"},"vehicle_type_id":"4","last_reported":1679318261,"current_range_meters":0,"station_id":"","pricing_plan_id":"free"},{"bike_id":"8dce5b57-16ad-4c15-b7b6-02b4607fb4a0","system_id":"levelo_inurba_marseille","lat":43.30427,"lon":5.39741,"is_reserved":false,"is_disabled":false,"rental_uris":{"android":"levelo://app?vid=8dce5b57-16ad-4c15-b7b6-02b4607fb4a0","ios":"levelo://app?vid=8dce5b57-16ad-4c15-b7b6-02b4607fb4a0"},"vehicle_type_id":"4","last_reported":1679318261,"current_range_meters":30000,"station_id":"ce4bh092rcd13ifvqd20","pricing_plan_id":"free"},{"bike_id":"d3b52294-dae8-482f-871a-c8677e94a2c1","system_id":"levelo_inurba_marseille","lat":43.292644,"lon":5.384257,"is_reserved":false,"is_disabled":false,"rental_uris":{"android":"levelo://app?vid=d3b52294-dae8-482f-871a-c8677e94a2c1","ios":"levelo://app?vid=d3b52294-dae8-482f-871a-c8677e94a2c1"},"vehicle_type_id":"4","last_reported":1679318261,"current_range_meters":24400,"station_id":"ce4bh692rcd13ifvqea0","pricing_plan_id":"free"},{"bike_id":"917cbeec-d2fa-4857-9e9f-5227654e2c22","system_id":"levelo_inurba_marseille","lat":43.304274,"lon":5.397513,"is_reserved":false,"is_disabled":false,"rental_uris":{"android":"levelo://app?vid=917cbeec-d2fa-4857-9e9f-5227654e2c22","ios":"levelo://app?vid=917cbeec-d2fa-4857-9e9f-5227654e2c22"},"vehicle_type_id":"4","last_reported":1679318261,"current_range_meters":31200,"station_id":"ce4bh092rcd13ifvqd20","pricing_plan_id":"free"},{"bike_id":"1a236e1b-7110-4132-bb45-296dc6b3358c","system_id":"levelo_inurba_marseille","lat":43.294162,"lon":5.386292,"is_reserved":false,"is_disabled":false,"rental_uris":{"android":"levelo://app?vid=1a236e1b-7110-4132-bb45-296dc6b3358c","ios":"levelo://app?vid=1a236e1b-7110-4132-bb45-296dc6b3358c"},"vehicle_type_id":"4","last_reported":1679318261,"current_range_meters":17600,"station_id":"ce4bh2h2rcd13ifvqdh0","pricing_plan_id":"free"},{"bike_id":"fbbe09c2-3734-4daa-a851-e1bb4d1e6b39","system_id":"levelo_inurba_marseille","lat":43.33048,"lon":5.3891,"is_reserved":false,"is_disabled":false,"rental_uris":{"android":"levelo://app?vid=fbbe09c2-3734-4daa-a851-e1bb4d1e6b39","ios":"levelo://app?vid=fbbe09c2-3734-4daa-a851-e1bb4d1e6b39"},"vehicle_type_id":"4","last_reported":1679318261,"current_range_meters":0,"station_id":"ce4bhr92rcd13ifvqhrg","pricing_plan_id":"free"},{"bike_id":"482e8a2b-a5d7-4280-b303-aefc974c1d2e","system_id":"levelo_inurba_marseille","lat":43.290104,"lon":5.356111,"is_reserved":false,"is_disabled":false,"rental_uris":{"android":"levelo://app?vid=482e8a2b-a5d7-4280-b303-aefc974c1d2e","ios":"levelo://app?vid=482e8a2b-a5d7-4280-b303-aefc974c1d2e"},"vehicle_type_id":"4","last_reported":1679318261,"current_range_meters":27200,"station_id":"ce4bhb92rcd13ifvqen0","pricing_plan_id":"free"},{"bike_id":"6470f977-c488-4a07-872e-89a12a83ea98","system_id":"levelo_inurba_marseille","lat":43.29097,"lon":5.38134,"is_reserved":false,"is_disabled":false,"rental_uris":{"android":"levelo://app?vid=6470f977-c488-4a07-872e-89a12a83ea98","ios":"levelo://app?vid=6470f977-c488-4a07-872e-89a12a83ea98"},"vehicle_type_id":"4","last_reported":1679318261,"current_range_meters":26400,"station_id":"ce4bh512rcd13ifvqe2g","pricing_plan_id":"free"},{"bike_id":"1703ad40-d970-4edd-8d7e-063c9c8ce83f","system_id":"levelo_inurba_marseille","lat":43.29098,"lon":5.381482,"is_reserved":false,"is_disabled":false,"rental_uris":{"android":"levelo://app?vid=1703ad40-d970-4edd-8d7e-063c9c8ce83f","ios":"levelo://app?vid=1703ad40-d970-4edd-8d7e-063c9c8ce83f"},"vehicle_type_id":"4","last_reported":1679318261,"current_range_meters":21600,"station_id":"ce4bh512rcd13ifvqe2g","pricing_plan_id":"free"},{"bike_id":"92469aab-691b-4e7b-a032-edcf8abeb440","system_id":"levelo_inurba_marseille","lat":43.290932,"lon":5.381528,"is_reserved":false,"is_disabled":false,"rental_uris":{"android":"levelo://app?vid=92469aab-691b-4e7b-a032-edcf8abeb440","ios":"levelo://app?vid=92469aab-691b-4e7b-a032-edcf8abeb440"},"vehicle_type_id":"4","last_reported":1679318261,"current_range_meters":19200,"station_id":"","pricing_plan_id":"free"},{"bike_id":"6c5a31c3-914d-4b16-b44d-aaf1eaffe470","system_id":"levelo_inurba_marseille","lat":43.289743,"lon":5.378304,"is_reserved":false,"is_disabled":false,"rental_uris":{"android":"levelo://app?vid=6c5a31c3-914d-4b16-b44d-aaf1eaffe470","ios":"levelo://app?vid=6c5a31c3-914d-4b16-b44d-aaf1eaffe470"},"vehicle_type_id":"4","last_reported":1679318261,"current_range_meters":800,"station_id":"ce4bh9p2rcd13ifvqed0","pricing_plan_id":"free"},{"bike_id":"3a9853e7-bcab-4c73-bae9-8004f2a3aa92","system_id":"levelo_inurba_marseille","lat":43.28976,"lon":5.37836,"is_reserved":false,"is_disabled":false,"rental_uris":{"android":"levelo://app?vid=3a9853e7-bcab-4c73-bae9-8004f2a3aa92","ios":"levelo://app?vid=3a9853e7-bcab-4c73-bae9-8004f2a3aa92"},"vehicle_type_id":"4","last_reported":1679318261,"current_range_meters":5600,"station_id":"ce4bh9p2rcd13ifvqed0","pricing_plan_id":"free"},{"bike_id":"52c808c7-8c7d-4d3f-842c-56a547b8c107","system_id":"levelo_inurba_marseille","lat":43.28972,"lon":5.37834,"is_reserved":false,"is_disabled":false,"rental_uris":{"android":"levelo://app?vid=52c808c7-8c7d-4d3f-842c-56a547b8c107","ios":"levelo://app?vid=52c808c7-8c7d-4d3f-842c-56a547b8c107"},"vehicle_type_id":"4","last_reported":1679318261,"current_range_meters":10000,"station_id":"","pricing_plan_id":"free"},{"bike_id":"9e225460-c100-4dc0-be1c-c980bf06c924","system_id":"levelo_inurba_marseille","lat":43.289743,"lon":5.378304,"is_reserved":false,"is_disabled":false,"rental_uris":{"android":"levelo://app?vid=9e225460-c100-4dc0-be1c-c980bf06c924","ios":"levelo://app?vid=9e225460-c100-4dc0-be1c-c980bf06c924"},"vehicle_type_id":"4","last_reported":1679318261,"current_range_meters":28000,"station_id":"ce4bh9p2rcd13ifvqed0","pricing_plan_id":"free"},{"bike_id":"69435f12-50a5-4e63-9551-e72243c8d2e8","system_id":"levelo_inurba_marseille","lat":43.295169,"lon":5.390426,"is_reserved":false,"is_disabled":false,"rental_uris":{"android":"levelo://app?vid=69435f12-50a5-4e63-9551-e72243c8d2e8","ios":"levelo://app?vid=69435f12-50a5-4e63-9551-e72243c8d2e8"},"vehicle_type_id":"4","last_reported":1679318261,"current_range_meters":22000,"station_id":"ce4bh3p2rcd13ifvqdp0","pricing_plan_id":"free"},{"bike_id":"ab048cb1-cb4a-4a87-b0a0-e726c3b10962","system_id":"levelo_inurba_marseille","lat":43.28856,"lon":5.358371,"is_reserved":false,"is_disabled":false,"rental_uris":{"android":"levelo://app?vid=ab048cb1-cb4a-4a87-b0a0-e726c3b10962","ios":"levelo://app?vid=ab048cb1-cb4a-4a87-b0a0-e726c3b10962"},"vehicle_type_id":"4","last_reported":1679318261,"current_range_meters":25200,"station_id":"ce4bhb12rcd13ifvqem0","pricing_plan_id":"free"},{"bike_id":"de87a95e-6987-4194-8c3d-15012b01f38e","system_id":"levelo_inurba_marseille","lat":43.28856,"lon":5.358371,"is_reserved":false,"is_disabled":false,"rental_uris":{"android":"levelo://app?vid=de87a95e-6987-4194-8c3d-15012b01f38e","ios":"levelo://app?vid=de87a95e-6987-4194-8c3d-15012b01f38e"},"vehicle_type_id":"4","last_reported":1679318261,"current_range_meters":23600,"station_id":"ce4bhb12rcd13ifvqem0","pricing_plan_id":"free"},{"bike_id":"74428909-01bd-4c85-a619-48a15a04d919","system_id":"levelo_inurba_marseille","lat":43.30653,"lon":5.40096,"is_reserved":false,"is_disabled":false,"rental_uris":{"android":"levelo://app?vid=74428909-01bd-4c85-a619-48a15a04d919","ios":"levelo://app?vid=74428909-01bd-4c85-a619-48a15a04d919"},"vehicle_type_id":"4","last_reported":1679318261,"current_range_meters":20800,"station_id":"","pricing_plan_id":"free"},{"bike_id":"71d2295a-1ea0-4dbc-827f-1fdb95d72c22","system_id":"levelo_inurba_marseille","lat":43.301117,"lon":5.398795,"is_reserved":false,"is_disabled":false,"rental_uris":{"android":"levelo://app?vid=71d2295a-1ea0-4dbc-827f-1fdb95d72c22","ios":"levelo://app?vid=71d2295a-1ea0-4dbc-827f-1fdb95d72c22"},"vehicle_type_id":"4","last_reported":1679318261,"current_range_meters":28400,"station_id":"ce4bh0h2rcd13ifvqd40","pricing_plan_id":"free"},{"bike_id":"9adb00a5-297d-463f-aa91-2a332e4b4364","system_id":"levelo_inurba_marseille","lat":43.28661,"lon":5.36361,"is_reserved":false,"is_disabled":false,"rental_uris":{"android":"levelo://app?vid=9adb00a5-297d-463f-aa91-2a332e4b4364","ios":"levelo://app?vid=9adb00a5-297d-463f-aa91-2a332e4b4364"},"vehicle_type_id":"4","last_reported":1679318261,"current_range_meters":10400,"station_id":"","pricing_plan_id":"free"},{"bike_id":"7770beea-ef2b-4c84-88fa-364d335204b6","system_id":"levelo_inurba_marseille","lat":43.29528,"lon":5.39399,"is_reserved":false,"is_disabled":false,"rental_uris":{"android":"levelo://app?vid=7770beea-ef2b-4c84-88fa-364d335204b6","ios":"levelo://app?vid=7770beea-ef2b-4c84-88fa-364d335204b6"},"vehicle_type_id":"4","last_reported":1679318261,"current_range_meters":10400,"station_id":"ce4bh212rcd13ifvqde0","pricing_plan_id":"free"},{"bike_id":"28af0e1b-a42d-425a-baae-ddf97107a68c","system_id":"levelo_inurba_marseille","lat":43.302759,"lon":5.400793,"is_reserved":false,"is_disabled":false,"rental_uris":{"android":"levelo://app?vid=28af0e1b-a42d-425a-baae-ddf97107a68c","ios":"levelo://app?vid=28af0e1b-a42d-425a-baae-ddf97107a68c"},"vehicle_type_id":"4","last_reported":1679318261,"current_range_meters":7600,"station_id":"ce4bgvh2rcd13ifvqcs0","pricing_plan_id":"free"},{"bike_id":"d339255b-5e20-453d-9ddf-29e699692d51","system_id":"levelo_inurba_marseille","lat":43.302759,"lon":5.400793,"is_reserved":false,"is_disabled":false,"rental_uris":{"android":"levelo://app?vid=d339255b-5e20-453d-9ddf-29e699692d51","ios":"levelo://app?vid=d339255b-5e20-453d-9ddf-29e699692d51"},"vehicle_type_id":"4","last_reported":1679318261,"current_range_meters":22400,"station_id":"ce4bgvh2rcd13ifvqcs0","pricing_plan_id":"free"},{"bike_id":"46b3f5c2-7868-4e54-920e-73c9bd4a18c2","system_id":"levelo_inurba_marseille","lat":43.286039,"lon":5.370679,"is_reserved":false,"is_disabled":false,"rental_uris":{"android":"levelo://app?vid=46b3f5c2-7868-4e54-920e-73c9bd4a18c2","ios":"levelo://app?vid=46b3f5c2-7868-4e54-920e-73c9bd4a18c2"},"vehicle_type_id":"4","last_reported":1679318261,"current_range_meters":25600,"station_id":"ce4bht12rcd13ifvqi60","pricing_plan_id":"free"},{"bike_id":"451e675e-b18b-4590-9270-dfc86f4dd89a","system_id":"levelo_inurba_marseille","lat":43.286135,"lon":5.370657,"is_reserved":false,"is_disabled":false,"rental_uris":{"android":"levelo://app?vid=451e675e-b18b-4590-9270-dfc86f4dd89a","ios":"levelo://app?vid=451e675e-b18b-4590-9270-dfc86f4dd89a"},"vehicle_type_id":"4","last_reported":1679318261,"current_range_meters":16000,"station_id":"","pricing_plan_id":"free"},{"bike_id":"b3f29ed6-7cdf-4afb-bed5-9bf3633ee038","system_id":"levelo_inurba_marseille","lat":43.286039,"lon":5.370679,"is_reserved":false,"is_disabled":false,"rental_uris":{"android":"levelo://app?vid=b3f29ed6-7cdf-4afb-bed5-9bf3633ee038","ios":"levelo://app?vid=b3f29ed6-7cdf-4afb-bed5-9bf3633ee038"},"vehicle_type_id":"4","last_reported":1679318261,"current_range_meters":18800,"station_id":"ce4bht12rcd13ifvqi60","pricing_plan_id":"free"},{"bike_id":"d9a3a043-149f-4d4a-bbb7-517fc0fd2fdd","system_id":"levelo_inurba_marseille","lat":43.28725,"lon":5.3794,"is_reserved":false,"is_disabled":false,"rental_uris":{"android":"levelo://app?vid=d9a3a043-149f-4d4a-bbb7-517fc0fd2fdd","ios":"levelo://app?vid=d9a3a043-149f-4d4a-bbb7-517fc0fd2fdd"},"vehicle_type_id":"4","last_reported":1679318261,"current_range_meters":24400,"station_id":"","pricing_plan_id":"free"},{"bike_id":"6903439b-33d0-4f72-9c2e-1c97ab194042","system_id":"levelo_inurba_marseille","lat":43.28723,"lon":5.37934,"is_reserved":false,"is_disabled":false,"rental_uris":{"android":"levelo://app?vid=6903439b-33d0-4f72-9c2e-1c97ab194042","ios":"levelo://app?vid=6903439b-33d0-4f72-9c2e-1c97ab194042"},"vehicle_type_id":"4","last_reported":1679318261,"current_range_meters":26400,"station_id":"ce4bh9p2rcd13ifvqec0","pricing_plan_id":"free"},{"bike_id":"ccfe4e5b-7863-4b7a-b129-146e30b19a12","system_id":"levelo_inurba_marseille","lat":43.28721,"lon":5.37941,"is_reserved":false,"is_disabled":false,"rental_uris":{"android":"levelo://app?vid=ccfe4e5b-7863-4b7a-b129-146e30b19a12","ios":"levelo://app?vid=ccfe4e5b-7863-4b7a-b129-146e30b19a12"},"vehicle_type_id":"4","last_reported":1679318261,"current_range_meters":0,"station_id":"","pricing_plan_id":"free"},{"bike_id":"317b4c6a-e1e8-46e3-86fa-e710e3491e84","system_id":"levelo_inurba_marseille","lat":43.287184,"lon":5.37937,"is_reserved":false,"is_disabled":false,"rental_uris":{"android":"levelo://app?vid=317b4c6a-e1e8-46e3-86fa-e710e3491e84","ios":"levelo://app?vid=317b4c6a-e1e8-46e3-86fa-e710e3491e84"},"vehicle_type_id":"4","last_reported":1679318261,"current_range_meters":5600,"station_id":"ce4bh9p2rcd13ifvqec0","pricing_plan_id":"free"},{"bike_id":"81bd4728-220f-4261-bd98-44acb794726a","system_id":"levelo_inurba_marseille","lat":43.316517,"lon":5.404375,"is_reserved":false,"is_disabled":false,"rental_uris":{"android":"levelo://app?vid=81bd4728-220f-4261-bd98-44acb794726a","ios":"levelo://app?vid=81bd4728-220f-4261-bd98-44acb794726a"},"vehicle_type_id":"4","last_reported":1679318261,"current_range_meters":31600,"station_id":"ce4bh012rcd13ifvqd00","pricing_plan_id":"free"},{"bike_id":"bd9b1221-b608-42aa-aab1-3df0620253c3","system_id":"levelo_inurba_marseille","lat":43.30032,"lon":5.40104,"is_reserved":false,"is_disabled":false,"rental_uris":{"android":"levelo://app?vid=bd9b1221-b608-42aa-aab1-3df0620253c3","ios":"levelo://app?vid=bd9b1221-b608-42aa-aab1-3df0620253c3"},"vehicle_type_id":"4","last_reported":1679318261,"current_range_meters":24800,"station_id":"ce4bhnp2rcd13ifvqgvg","pricing_plan_id":"free"},{"bike_id":"bfcd5a2f-f5b6-4498-be66-66ca7d6e6b56","system_id":"levelo_inurba_marseille","lat":43.290624,"lon":5.359245,"is_reserved":false,"is_disabled":false,"rental_uris":{"android":"levelo://app?vid=bfcd5a2f-f5b6-4498-be66-66ca7d6e6b56","ios":"levelo://app?vid=bfcd5a2f-f5b6-4498-be66-66ca7d6e6b56"},"vehicle_type_id":"4","last_reported":1679318261,"current_range_meters":24800,"station_id":"ce4bha92rcd13ifvqeg0","pricing_plan_id":"free"},{"bike_id":"61d58311-5ef7-4531-b5d1-a1100bd52ab1","system_id":"levelo_inurba_marseille","lat":43.284534,"lon":5.358662,"is_reserved":false,"is_disabled":false,"rental_uris":{"android":"levelo://app?vid=61d58311-5ef7-4531-b5d1-a1100bd52ab1","ios":"levelo://app?vid=61d58311-5ef7-4531-b5d1-a1100bd52ab1"},"vehicle_type_id":"4","last_reported":1679318261,"current_range_meters":25600,"station_id":"ce4bhah2rcd13ifvqei0","pricing_plan_id":"free"},{"bike_id":"f8ca9633-d2a9-48af-9d73-ee55feda1183","system_id":"levelo_inurba_marseille","lat":43.33717,"lon":5.391857,"is_reserved":false,"is_disabled":false,"rental_uris":{"android":"levelo://app?vid=f8ca9633-d2a9-48af-9d73-ee55feda1183","ios":"levelo://app?vid=f8ca9633-d2a9-48af-9d73-ee55feda1183"},"vehicle_type_id":"4","last_reported":1679318261,"current_range_meters":31600,"station_id":"ce4bhr92rcd13ifvqhsg","pricing_plan_id":"free"},{"bike_id":"c5c91f1f-febb-4c40-9e13-d02d589014dc","system_id":"levelo_inurba_marseille","lat":43.32331,"lon":5.40614,"is_reserved":false,"is_disabled":false,"rental_uris":{"android":"levelo://app?vid=c5c91f1f-febb-4c40-9e13-d02d589014dc","ios":"levelo://app?vid=c5c91f1f-febb-4c40-9e13-d02d589014dc"},"vehicle_type_id":"4","last_reported":1679318261,"current_range_meters":13600,"station_id":"","pricing_plan_id":"free"},{"bike_id":"ab95abd0-ab94-45a7-a9de-8dc78c09b36d","system_id":"levelo_inurba_marseille","lat":43.283325,"lon":5.37814,"is_reserved":false,"is_disabled":false,"rental_uris":{"android":"levelo://app?vid=ab95abd0-ab94-45a7-a9de-8dc78c09b36d","ios":"levelo://app?vid=ab95abd0-ab94-45a7-a9de-8dc78c09b36d"},"vehicle_type_id":"4","last_reported":1679318261,"current_range_meters":20400,"station_id":"","pricing_plan_id":"free"},{"bike_id":"97cffd95-6516-4005-9eda-b0a70ec2420a","system_id":"levelo_inurba_marseille","lat":43.284787,"lon":5.384116,"is_reserved":false,"is_disabled":false,"rental_uris":{"android":"levelo://app?vid=97cffd95-6516-4005-9eda-b0a70ec2420a","ios":"levelo://app?vid=97cffd95-6516-4005-9eda-b0a70ec2420a"},"vehicle_type_id":"4","last_reported":1679318261,"current_range_meters":800,"station_id":"ce4bh512rcd13ifvqe3g","pricing_plan_id":"free"},{"bike_id":"73c6a296-684a-4215-b562-e9c95a0f10db","system_id":"levelo_inurba_marseille","lat":43.284793,"lon":5.384113,"is_reserved":false,"is_disabled":false,"rental_uris":{"android":"levelo://app?vid=73c6a296-684a-4215-b562-e9c95a0f10db","ios":"levelo://app?vid=73c6a296-684a-4215-b562-e9c95a0f10db"},"vehicle_type_id":"4","last_reported":1679318261,"current_range_meters":21200,"station_id":"ce4bh512rcd13ifvqe3g","pricing_plan_id":"free"},{"bike_id":"07087f8f-59a4-408d-88d4-73c01bd4125c","system_id":"levelo_inurba_marseille","lat":43.284793,"lon":5.384113,"is_reserved":false,"is_disabled":false,"rental_uris":{"android":"levelo://app?vid=07087f8f-59a4-408d-88d4-73c01bd4125c","ios":"levelo://app?vid=07087f8f-59a4-408d-88d4-73c01bd4125c"},"vehicle_type_id":"4","last_reported":1679318261,"current_range_meters":17200,"station_id":"ce4bh512rcd13ifvqe3g","pricing_plan_id":"free"},{"bike_id":"bb265a64-0bd4-4fdc-8aa4-6c7cad540605","system_id":"levelo_inurba_marseille","lat":43.284793,"lon":5.384113,"is_reserved":false,"is_disabled":false,"rental_uris":{"android":"levelo://app?vid=bb265a64-0bd4-4fdc-8aa4-6c7cad540605","ios":"levelo://app?vid=bb265a64-0bd4-4fdc-8aa4-6c7cad540605"},"vehicle_type_id":"4","last_reported":1679318261,"current_range_meters":30400,"station_id":"ce4bh512rcd13ifvqe3g","pricing_plan_id":"free"},{"bike_id":"634660c4-3c4a-4af1-bfa3-7e0fb2e793ba","system_id":"levelo_inurba_marseille","lat":43.288501,"lon":5.393087,"is_reserved":false,"is_disabled":false,"rental_uris":{"android":"levelo://app?vid=634660c4-3c4a-4af1-bfa3-7e0fb2e793ba","ios":"levelo://app?vid=634660c4-3c4a-4af1-bfa3-7e0fb2e793ba"},"vehicle_type_id":"4","last_reported":1679318261,"current_range_meters":24000,"station_id":"ce4bh2p2rcd13ifvqdi0","pricing_plan_id":"free"},{"bike_id":"bec10515-fa3e-457d-8c61-a3d79b8c276d","system_id":"levelo_inurba_marseille","lat":43.323767,"lon":5.406648,"is_reserved":false,"is_disabled":false,"rental_uris":{"android":"levelo://app?vid=bec10515-fa3e-457d-8c61-a3d79b8c276d","ios":"levelo://app?vid=bec10515-fa3e-457d-8c61-a3d79b8c276d"},"vehicle_type_id":"4","last_reported":1679318261,"current_range_meters":18400,"station_id":"","pricing_plan_id":"free"},{"bike_id":"dfc0ef01-1d46-45cc-bcb4-da27837be7dc","system_id":"levelo_inurba_marseille","lat":43.284217,"lon":5.349697,"is_reserved":false,"is_disabled":false,"rental_uris":{"android":"levelo://app?vid=dfc0ef01-1d46-45cc-bcb4-da27837be7dc","ios":"levelo://app?vid=dfc0ef01-1d46-45cc-bcb4-da27837be7dc"},"vehicle_type_id":"4","last_reported":1679318261,"current_range_meters":10400,"station_id":"ce4bhbh2rcd13ifvqepg","pricing_plan_id":"free"},{"bike_id":"b6c53ea8-fb13-464f-845d-51a8146f160f","system_id":"levelo_inurba_marseille","lat":43.289363,"lon":5.396322,"is_reserved":false,"is_disabled":false,"rental_uris":{"android":"levelo://app?vid=b6c53ea8-fb13-464f-845d-51a8146f160f","ios":"levelo://app?vid=b6c53ea8-fb13-464f-845d-51a8146f160f"},"vehicle_type_id":"4","last_reported":1679318261,"current_range_meters":12000,"station_id":"ce4bh3h2rcd13ifvqdn0","pricing_plan_id":"free"},{"bike_id":"54dd4d59-b511-4225-9664-c09adc13fb0e","system_id":"levelo_inurba_marseille","lat":43.289363,"lon":5.396322,"is_reserved":false,"is_disabled":false,"rental_uris":{"android":"levelo://app?vid=54dd4d59-b511-4225-9664-c09adc13fb0e","ios":"levelo://app?vid=54dd4d59-b511-4225-9664-c09adc13fb0e"},"vehicle_type_id":"4","last_reported":1679318261,"current_range_meters":15600,"station_id":"ce4bh3h2rcd13ifvqdn0","pricing_plan_id":"free"},{"bike_id":"e9721447-8d12-4f6b-89a1-8fcb0e68557e","system_id":"levelo_inurba_marseille","lat":43.29282,"lon":5.40124,"is_reserved":false,"is_disabled":false,"rental_uris":{"android":"levelo://app?vid=e9721447-8d12-4f6b-89a1-8fcb0e68557e","ios":"levelo://app?vid=e9721447-8d12-4f6b-89a1-8fcb0e68557e"},"vehicle_type_id":"4","last_reported":1679318261,"current_range_meters":31600,"station_id":"","pricing_plan_id":"free"},{"bike_id":"4f37a183-7972-4771-8e7e-1e9dd3829415","system_id":"levelo_inurba_marseille","lat":43.29269,"lon":5.40112,"is_reserved":false,"is_disabled":false,"rental_uris":{"android":"levelo://app?vid=4f37a183-7972-4771-8e7e-1e9dd3829415","ios":"levelo://app?vid=4f37a183-7972-4771-8e7e-1e9dd3829415"},"vehicle_type_id":"4","last_reported":1679318261,"current_range_meters":28000,"station_id":"ce4bh312rcd13ifvqdk0","pricing_plan_id":"free"},{"bike_id":"e8f1a511-9879-46a5-8dc9-54d8aae25f9a","system_id":"levelo_inurba_marseille","lat":43.282744,"lon":5.350533,"is_reserved":false,"is_disabled":false,"rental_uris":{"android":"levelo://app?vid=e8f1a511-9879-46a5-8dc9-54d8aae25f9a","ios":"levelo://app?vid=e8f1a511-9879-46a5-8dc9-54d8aae25f9a"},"vehicle_type_id":"4","last_reported":1679318261,"current_range_meters":15200,"station_id":"ce4bhbp2rcd13ifvqerg","pricing_plan_id":"free"},{"bike_id":"c29556a4-708d-4903-ac35-e279fcfebd9d","system_id":"levelo_inurba_marseille","lat":43.28273,"lon":5.35065,"is_reserved":false,"is_disabled":false,"rental_uris":{"android":"levelo://app?vid=c29556a4-708d-4903-ac35-e279fcfebd9d","ios":"levelo://app?vid=c29556a4-708d-4903-ac35-e279fcfebd9d"},"vehicle_type_id":"4","last_reported":1679318261,"current_range_meters":4800,"station_id":"ce4bhbp2rcd13ifvqerg","pricing_plan_id":"free"},{"bike_id":"241b7246-ad6d-4b18-a500-4d32c97f51e8","system_id":"levelo_inurba_marseille","lat":43.28272,"lon":5.35062,"is_reserved":false,"is_disabled":false,"rental_uris":{"android":"levelo://app?vid=241b7246-ad6d-4b18-a500-4d32c97f51e8","ios":"levelo://app?vid=241b7246-ad6d-4b18-a500-4d32c97f51e8"},"vehicle_type_id":"4","last_reported":1679318261,"current_range_meters":25200,"station_id":"ce4bhbp2rcd13ifvqerg","pricing_plan_id":"free"},{"bike_id":"10c04972-653a-4a6f-ac5d-d4899ea3e2c3","system_id":"levelo_inurba_marseille","lat":43.2827,"lon":5.35067,"is_reserved":false,"is_disabled":false,"rental_uris":{"android":"levelo://app?vid=10c04972-653a-4a6f-ac5d-d4899ea3e2c3","ios":"levelo://app?vid=10c04972-653a-4a6f-ac5d-d4899ea3e2c3"},"vehicle_type_id":"4","last_reported":1679318261,"current_range_meters":16800,"station_id":"","pricing_plan_id":"free"},{"bike_id":"2c9029ce-7df4-47af-ad1e-9952b8393d11","system_id":"levelo_inurba_marseille","lat":43.2827,"lon":5.35067,"is_reserved":false,"is_disabled":false,"rental_uris":{"android":"levelo://app?vid=2c9029ce-7df4-47af-ad1e-9952b8393d11","ios":"levelo://app?vid=2c9029ce-7df4-47af-ad1e-9952b8393d11"},"vehicle_type_id":"4","last_reported":1679318261,"current_range_meters":8000,"station_id":"ce4bhbp2rcd13ifvqerg","pricing_plan_id":"free"},{"bike_id":"6d959ec2-0570-4310-81a9-5329733c3641","system_id":"levelo_inurba_marseille","lat":43.282754,"lon":5.350519,"is_reserved":false,"is_disabled":false,"rental_uris":{"android":"levelo://app?vid=6d959ec2-0570-4310-81a9-5329733c3641","ios":"levelo://app?vid=6d959ec2-0570-4310-81a9-5329733c3641"},"vehicle_type_id":"4","last_reported":1679318261,"current_range_meters":25600,"station_id":"ce4bhbp2rcd13ifvqerg","pricing_plan_id":"free"},{"bike_id":"cc45e1f0-a57e-42fa-93c4-cf52644e5fe9","system_id":"levelo_inurba_marseille","lat":43.2827,"lon":5.350653,"is_reserved":false,"is_disabled":false,"rental_uris":{"android":"levelo://app?vid=cc45e1f0-a57e-42fa-93c4-cf52644e5fe9","ios":"levelo://app?vid=cc45e1f0-a57e-42fa-93c4-cf52644e5fe9"},"vehicle_type_id":"4","last_reported":1679318261,"current_range_meters":19600,"station_id":"","pricing_plan_id":"free"},{"bike_id":"30ebed3b-e0b0-4764-a127-efee1f02d422","system_id":"levelo_inurba_marseille","lat":43.28273,"lon":5.35054,"is_reserved":false,"is_disabled":false,"rental_uris":{"android":"levelo://app?vid=30ebed3b-e0b0-4764-a127-efee1f02d422","ios":"levelo://app?vid=30ebed3b-e0b0-4764-a127-efee1f02d422"},"vehicle_type_id":"4","last_reported":1679318261,"current_range_meters":25200,"station_id":"ce4bhbp2rcd13ifvqerg","pricing_plan_id":"free"},{"bike_id":"2278af3c-b2bc-40b0-ba9c-c3d40182b99d","system_id":"levelo_inurba_marseille","lat":43.282754,"lon":5.350519,"is_reserved":false,"is_disabled":false,"rental_uris":{"android":"levelo://app?vid=2278af3c-b2bc-40b0-ba9c-c3d40182b99d","ios":"levelo://app?vid=2278af3c-b2bc-40b0-ba9c-c3d40182b99d"},"vehicle_type_id":"4","last_reported":1679318261,"current_range_meters":6800,"station_id":"ce4bhbp2rcd13ifvqerg","pricing_plan_id":"free"},{"bike_id":"232df315-a80a-4849-9a58-e069b3cb283e","system_id":"levelo_inurba_marseille","lat":43.28268,"lon":5.35067,"is_reserved":false,"is_disabled":false,"rental_uris":{"android":"levelo://app?vid=232df315-a80a-4849-9a58-e069b3cb283e","ios":"levelo://app?vid=232df315-a80a-4849-9a58-e069b3cb283e"},"vehicle_type_id":"4","last_reported":1679318261,"current_range_meters":9200,"station_id":"","pricing_plan_id":"free"},{"bike_id":"5100fcea-3f5e-49ac-9ae3-de500b9dfec3","system_id":"levelo_inurba_marseille","lat":43.282706,"lon":5.350566,"is_reserved":false,"is_disabled":false,"rental_uris":{"android":"levelo://app?vid=5100fcea-3f5e-49ac-9ae3-de500b9dfec3","ios":"levelo://app?vid=5100fcea-3f5e-49ac-9ae3-de500b9dfec3"},"vehicle_type_id":"4","last_reported":1679318261,"current_range_meters":14400,"station_id":"ce4bhbp2rcd13ifvqerg","pricing_plan_id":"free"},{"bike_id":"196779fa-af8c-4b5b-b6aa-620501b63190","system_id":"levelo_inurba_marseille","lat":43.28266,"lon":5.35056,"is_reserved":false,"is_disabled":false,"rental_uris":{"android":"levelo://app?vid=196779fa-af8c-4b5b-b6aa-620501b63190","ios":"levelo://app?vid=196779fa-af8c-4b5b-b6aa-620501b63190"},"vehicle_type_id":"4","last_reported":1679318261,"current_range_meters":21200,"station_id":"ce4bhbp2rcd13ifvqerg","pricing_plan_id":"free"},{"bike_id":"e3fa6ef5-bc54-459f-90b3-73b7d639cff2","system_id":"levelo_inurba_marseille","lat":43.283575,"lon":5.386315,"is_reserved":false,"is_disabled":false,"rental_uris":{"android":"levelo://app?vid=e3fa6ef5-bc54-459f-90b3-73b7d639cff2","ios":"levelo://app?vid=e3fa6ef5-bc54-459f-90b3-73b7d639cff2"},"vehicle_type_id":"4","last_reported":1679318261,"current_range_meters":15600,"station_id":"ce4bh492rcd13ifvqdvg","pricing_plan_id":"free"},{"bike_id":"29edc1a4-723b-4f12-8da7-a096c0698df1","system_id":"levelo_inurba_marseille","lat":43.280384,"lon":5.369418,"is_reserved":false,"is_disabled":false,"rental_uris":{"android":"levelo://app?vid=29edc1a4-723b-4f12-8da7-a096c0698df1","ios":"levelo://app?vid=29edc1a4-723b-4f12-8da7-a096c0698df1"},"vehicle_type_id":"4","last_reported":1679318261,"current_range_meters":12800,"station_id":"","pricing_plan_id":"free"},{"bike_id":"de160046-ad6d-43e6-b752-06622b362b3a","system_id":"levelo_inurba_marseille","lat":43.280367,"lon":5.369462,"is_reserved":false,"is_disabled":false,"rental_uris":{"android":"levelo://app?vid=de160046-ad6d-43e6-b752-06622b362b3a","ios":"levelo://app?vid=de160046-ad6d-43e6-b752-06622b362b3a"},"vehicle_type_id":"4","last_reported":1679318261,"current_range_meters":28800,"station_id":"","pricing_plan_id":"free"},{"bike_id":"00b5e0da-4dcf-4289-b3de-8e6c24907c1a","system_id":"levelo_inurba_marseille","lat":43.290412,"lon":5.399633,"is_reserved":false,"is_disabled":false,"rental_uris":{"android":"levelo://app?vid=00b5e0da-4dcf-4289-b3de-8e6c24907c1a","ios":"levelo://app?vid=00b5e0da-4dcf-4289-b3de-8e6c24907c1a"},"vehicle_type_id":"4","last_reported":1679318261,"current_range_meters":10000,"station_id":"ce4bh392rcd13ifvqdm0","pricing_plan_id":"free"},{"bike_id":"0ef88fca-2e32-4270-b4b2-fb20624f0b84","system_id":"levelo_inurba_marseille","lat":43.290412,"lon":5.399633,"is_reserved":false,"is_disabled":false,"rental_uris":{"android":"levelo://app?vid=0ef88fca-2e32-4270-b4b2-fb20624f0b84","ios":"levelo://app?vid=0ef88fca-2e32-4270-b4b2-fb20624f0b84"},"vehicle_type_id":"4","last_reported":1679318261,"current_range_meters":19600,"station_id":"ce4bh392rcd13ifvqdm0","pricing_plan_id":"free"},{"bike_id":"8a703ef4-372d-4736-9d47-8cd53a0121ee","system_id":"levelo_inurba_marseille","lat":43.290412,"lon":5.399633,"is_reserved":false,"is_disabled":false,"rental_uris":{"android":"levelo://app?vid=8a703ef4-372d-4736-9d47-8cd53a0121ee","ios":"levelo://app?vid=8a703ef4-372d-4736-9d47-8cd53a0121ee"},"vehicle_type_id":"4","last_reported":1679318261,"current_range_meters":31200,"station_id":"ce4bh392rcd13ifvqdm0","pricing_plan_id":"free"},{"bike_id":"558ac67a-5d49-4955-acd3-9605d0e22cf9","system_id":"levelo_inurba_marseille","lat":43.290423,"lon":5.399627,"is_reserved":false,"is_disabled":false,"rental_uris":{"android":"levelo://app?vid=558ac67a-5d49-4955-acd3-9605d0e22cf9","ios":"levelo://app?vid=558ac67a-5d49-4955-acd3-9605d0e22cf9"},"vehicle_type_id":"4","last_reported":1679318261,"current_range_meters":14800,"station_id":"","pricing_plan_id":"free"},{"bike_id":"5c29609d-9a8c-44a4-a6cf-0f8edc82158d","system_id":"levelo_inurba_marseille","lat":43.29039,"lon":5.399637,"is_reserved":false,"is_disabled":false,"rental_uris":{"android":"levelo://app?vid=5c29609d-9a8c-44a4-a6cf-0f8edc82158d","ios":"levelo://app?vid=5c29609d-9a8c-44a4-a6cf-0f8edc82158d"},"vehicle_type_id":"4","last_reported":1679318261,"current_range_meters":23600,"station_id":"ce4bh392rcd13ifvqdm0","pricing_plan_id":"free"},{"bike_id":"b7b7603e-a671-4d93-808f-6df330ce6693","system_id":"levelo_inurba_marseille","lat":43.29041,"lon":5.399634,"is_reserved":false,"is_disabled":false,"rental_uris":{"android":"levelo://app?vid=b7b7603e-a671-4d93-808f-6df330ce6693","ios":"levelo://app?vid=b7b7603e-a671-4d93-808f-6df330ce6693"},"vehicle_type_id":"4","last_reported":1679318261,"current_range_meters":22800,"station_id":"ce4bh392rcd13ifvqdm0","pricing_plan_id":"free"},{"bike_id":"71038550-6bcb-4e86-bb21-9cd9ce73829d","system_id":"levelo_inurba_marseille","lat":43.290412,"lon":5.399633,"is_reserved":false,"is_disabled":false,"rental_uris":{"android":"levelo://app?vid=71038550-6bcb-4e86-bb21-9cd9ce73829d","ios":"levelo://app?vid=71038550-6bcb-4e86-bb21-9cd9ce73829d"},"vehicle_type_id":"4","last_reported":1679318261,"current_range_meters":5200,"station_id":"ce4bh392rcd13ifvqdm0","pricing_plan_id":"free"},{"bike_id":"33d88ed1-2339-431f-9a62-7d5bb62071b5","system_id":"levelo_inurba_marseille","lat":43.281044,"lon":5.378308,"is_reserved":false,"is_disabled":false,"rental_uris":{"android":"levelo://app?vid=33d88ed1-2339-431f-9a62-7d5bb62071b5","ios":"levelo://app?vid=33d88ed1-2339-431f-9a62-7d5bb62071b5"},"vehicle_type_id":"4","last_reported":1679318261,"current_range_meters":25600,"station_id":"ce4bha12rcd13ifvqee0","pricing_plan_id":"free"},{"bike_id":"4d719c59-4332-474c-81de-046359c49b88","system_id":"levelo_inurba_marseille","lat":43.296263,"lon":5.40601,"is_reserved":false,"is_disabled":false,"rental_uris":{"android":"levelo://app?vid=4d719c59-4332-474c-81de-046359c49b88","ios":"levelo://app?vid=4d719c59-4332-474c-81de-046359c49b88"},"vehicle_type_id":"4","last_reported":1679318261,"current_range_meters":23200,"station_id":"ce4bh0h2rcd13ifvqd60","pricing_plan_id":"free"},{"bike_id":"aaafb9ec-10cc-4375-9252-4bace805ac93","system_id":"levelo_inurba_marseille","lat":43.32669,"lon":5.41012,"is_reserved":false,"is_disabled":false,"rental_uris":{"android":"levelo://app?vid=aaafb9ec-10cc-4375-9252-4bace805ac93","ios":"levelo://app?vid=aaafb9ec-10cc-4375-9252-4bace805ac93"},"vehicle_type_id":"4","last_reported":1679318261,"current_range_meters":0,"station_id":"","pricing_plan_id":"free"},{"bike_id":"eb2c466e-6860-4f25-8708-f9b534f86448","system_id":"levelo_inurba_marseille","lat":43.304188,"lon":5.412904,"is_reserved":false,"is_disabled":false,"rental_uris":{"android":"levelo://app?vid=eb2c466e-6860-4f25-8708-f9b534f86448","ios":"levelo://app?vid=eb2c466e-6860-4f25-8708-f9b534f86448"},"vehicle_type_id":"4","last_reported":1679318261,"current_range_meters":26400,"station_id":"ce4bhop2rcd13ifvqh8g","pricing_plan_id":"free"},{"bike_id":"45669c8b-4e6a-4988-ad34-7a8e8af2b06b","system_id":"levelo_inurba_marseille","lat":43.304188,"lon":5.412904,"is_reserved":false,"is_disabled":false,"rental_uris":{"android":"levelo://app?vid=45669c8b-4e6a-4988-ad34-7a8e8af2b06b","ios":"levelo://app?vid=45669c8b-4e6a-4988-ad34-7a8e8af2b06b"},"vehicle_type_id":"4","last_reported":1679318261,"current_range_meters":31600,"station_id":"ce4bhop2rcd13ifvqh8g","pricing_plan_id":"free"},{"bike_id":"4b681e5b-e8a9-45e3-a09c-c7e8e4189b71","system_id":"levelo_inurba_marseille","lat":43.304188,"lon":5.412904,"is_reserved":false,"is_disabled":false,"rental_uris":{"android":"levelo://app?vid=4b681e5b-e8a9-45e3-a09c-c7e8e4189b71","ios":"levelo://app?vid=4b681e5b-e8a9-45e3-a09c-c7e8e4189b71"},"vehicle_type_id":"4","last_reported":1679318261,"current_range_meters":25600,"station_id":"ce4bhop2rcd13ifvqh8g","pricing_plan_id":"free"},{"bike_id":"e196b111-0c59-494d-ab86-b6046ba26525","system_id":"levelo_inurba_marseille","lat":43.287154,"lon":5.399979,"is_reserved":false,"is_disabled":false,"rental_uris":{"android":"levelo://app?vid=e196b111-0c59-494d-ab86-b6046ba26525","ios":"levelo://app?vid=e196b111-0c59-494d-ab86-b6046ba26525"},"vehicle_type_id":"4","last_reported":1679318261,"current_range_meters":24000,"station_id":"ce4bho92rcd13ifvqh3g","pricing_plan_id":"free"},{"bike_id":"032e9004-3b2f-4a3d-bdfd-120e19c9b728","system_id":"levelo_inurba_marseille","lat":43.287154,"lon":5.399979,"is_reserved":false,"is_disabled":false,"rental_uris":{"android":"levelo://app?vid=032e9004-3b2f-4a3d-bdfd-120e19c9b728","ios":"levelo://app?vid=032e9004-3b2f-4a3d-bdfd-120e19c9b728"},"vehicle_type_id":"4","last_reported":1679318261,"current_range_meters":24000,"station_id":"ce4bho92rcd13ifvqh3g","pricing_plan_id":"free"},{"bike_id":"65f9f880-3a4c-44b1-a033-406a3b874189","system_id":"levelo_inurba_marseille","lat":43.279858,"lon":5.387311,"is_reserved":false,"is_disabled":false,"rental_uris":{"android":"levelo://app?vid=65f9f880-3a4c-44b1-a033-406a3b874189","ios":"levelo://app?vid=65f9f880-3a4c-44b1-a033-406a3b874189"},"vehicle_type_id":"4","last_reported":1679318261,"current_range_meters":30000,"station_id":"ce4bhg12rcd13ifvqf80","pricing_plan_id":"free"},{"bike_id":"c451b781-072a-4dab-8f7e-ea57471e0001","system_id":"levelo_inurba_marseille","lat":43.320045,"lon":5.415048,"is_reserved":false,"is_disabled":false,"rental_uris":{"android":"levelo://app?vid=c451b781-072a-4dab-8f7e-ea57471e0001","ios":"levelo://app?vid=c451b781-072a-4dab-8f7e-ea57471e0001"},"vehicle_type_id":"4","last_reported":1679318261,"current_range_meters":13600,"station_id":"ce4bhq92rcd13ifvqhkg","pricing_plan_id":"free"},{"bike_id":"517619cf-dd68-4a75-99e3-3f63d613891f","system_id":"levelo_inurba_marseille","lat":43.320045,"lon":5.415048,"is_reserved":false,"is_disabled":false,"rental_uris":{"android":"levelo://app?vid=517619cf-dd68-4a75-99e3-3f63d613891f","ios":"levelo://app?vid=517619cf-dd68-4a75-99e3-3f63d613891f"},"vehicle_type_id":"4","last_reported":1679318261,"current_range_meters":31600,"station_id":"ce4bhq92rcd13ifvqhkg","pricing_plan_id":"free"},{"bike_id":"597be7b9-a267-445b-a821-8f727c8df3a8","system_id":"levelo_inurba_marseille","lat":43.279742,"lon":5.38744,"is_reserved":false,"is_disabled":false,"rental_uris":{"android":"levelo://app?vid=597be7b9-a267-445b-a821-8f727c8df3a8","ios":"levelo://app?vid=597be7b9-a267-445b-a821-8f727c8df3a8"},"vehicle_type_id":"4","last_reported":1679318261,"current_range_meters":2000,"station_id":"ce4bhg12rcd13ifvqf80","pricing_plan_id":"free"},{"bike_id":"772aae8b-cc88-4a6a-a481-88d6d2a20715","system_id":"levelo_inurba_marseille","lat":43.279742,"lon":5.38744,"is_reserved":false,"is_disabled":false,"rental_uris":{"android":"levelo://app?vid=772aae8b-cc88-4a6a-a481-88d6d2a20715","ios":"levelo://app?vid=772aae8b-cc88-4a6a-a481-88d6d2a20715"},"vehicle_type_id":"4","last_reported":1679318261,"current_range_meters":18000,"station_id":"ce4bhg12rcd13ifvqf80","pricing_plan_id":"free"},{"bike_id":"fc66cd5c-c0c9-4995-858f-81ca3b7c30a3","system_id":"levelo_inurba_marseille","lat":43.279742,"lon":5.38744,"is_reserved":false,"is_disabled":false,"rental_uris":{"android":"levelo://app?vid=fc66cd5c-c0c9-4995-858f-81ca3b7c30a3","ios":"levelo://app?vid=fc66cd5c-c0c9-4995-858f-81ca3b7c30a3"},"vehicle_type_id":"4","last_reported":1679318261,"current_range_meters":24000,"station_id":"ce4bhg12rcd13ifvqf80","pricing_plan_id":"free"},{"bike_id":"738a4fa3-ada4-4ed7-a57f-9ce0019c8dfa","system_id":"levelo_inurba_marseille","lat":43.279742,"lon":5.38744,"is_reserved":false,"is_disabled":false,"rental_uris":{"android":"levelo://app?vid=738a4fa3-ada4-4ed7-a57f-9ce0019c8dfa","ios":"levelo://app?vid=738a4fa3-ada4-4ed7-a57f-9ce0019c8dfa"},"vehicle_type_id":"4","last_reported":1679318261,"current_range_meters":17600,"station_id":"ce4bhg12rcd13ifvqf80","pricing_plan_id":"free"},{"bike_id":"7ca39f22-a691-437e-a3a7-617e4f85ea51","system_id":"levelo_inurba_marseille","lat":43.279742,"lon":5.38744,"is_reserved":false,"is_disabled":false,"rental_uris":{"android":"levelo://app?vid=7ca39f22-a691-437e-a3a7-617e4f85ea51","ios":"levelo://app?vid=7ca39f22-a691-437e-a3a7-617e4f85ea51"},"vehicle_type_id":"4","last_reported":1679318261,"current_range_meters":11600,"station_id":"ce4bhg12rcd13ifvqf80","pricing_plan_id":"free"},{"bike_id":"28e12ac1-2465-4730-98a7-e2fec1d11010","system_id":"levelo_inurba_marseille","lat":43.279742,"lon":5.38744,"is_reserved":false,"is_disabled":false,"rental_uris":{"android":"levelo://app?vid=28e12ac1-2465-4730-98a7-e2fec1d11010","ios":"levelo://app?vid=28e12ac1-2465-4730-98a7-e2fec1d11010"},"vehicle_type_id":"4","last_reported":1679318261,"current_range_meters":26800,"station_id":"ce4bhg12rcd13ifvqf80","pricing_plan_id":"free"},{"bike_id":"679fd8f8-2235-438a-a9e9-ce3e34fe297a","system_id":"levelo_inurba_marseille","lat":43.324782,"lon":5.414318,"is_reserved":false,"is_disabled":false,"rental_uris":{"android":"levelo://app?vid=679fd8f8-2235-438a-a9e9-ce3e34fe297a","ios":"levelo://app?vid=679fd8f8-2235-438a-a9e9-ce3e34fe297a"},"vehicle_type_id":"4","last_reported":1679318261,"current_range_meters":400,"station_id":"","pricing_plan_id":"free"},{"bike_id":"33504442-ccb6-4292-a159-4f9cee552a38","system_id":"levelo_inurba_marseille","lat":43.292571,"lon":5.409107,"is_reserved":false,"is_disabled":false,"rental_uris":{"android":"levelo://app?vid=33504442-ccb6-4292-a159-4f9cee552a38","ios":"levelo://app?vid=33504442-ccb6-4292-a159-4f9cee552a38"},"vehicle_type_id":"4","last_reported":1679318261,"current_range_meters":7600,"station_id":"ce4bh192rcd13ifvqdc0","pricing_plan_id":"free"},{"bike_id":"8a9ce083-ae4a-4a8f-8e1c-018814d803bd","system_id":"levelo_inurba_marseille","lat":43.32541,"lon":5.41429,"is_reserved":false,"is_disabled":false,"rental_uris":{"android":"levelo://app?vid=8a9ce083-ae4a-4a8f-8e1c-018814d803bd","ios":"levelo://app?vid=8a9ce083-ae4a-4a8f-8e1c-018814d803bd"},"vehicle_type_id":"4","last_reported":1679318261,"current_range_meters":7200,"station_id":"","pricing_plan_id":"free"},{"bike_id":"d54b4cfa-38e5-4fcf-af58-ab6d79ea704c","system_id":"levelo_inurba_marseille","lat":43.325243,"lon":5.414326,"is_reserved":false,"is_disabled":false,"rental_uris":{"android":"levelo://app?vid=d54b4cfa-38e5-4fcf-af58-ab6d79ea704c","ios":"levelo://app?vid=d54b4cfa-38e5-4fcf-af58-ab6d79ea704c"},"vehicle_type_id":"4","last_reported":1679318261,"current_range_meters":4000,"station_id":"ce4bhq12rcd13ifvqhhg","pricing_plan_id":"free"},{"bike_id":"7a6809ff-b098-48bf-8bfb-df8d1a7f33ca","system_id":"levelo_inurba_marseille","lat":43.325243,"lon":5.414326,"is_reserved":false,"is_disabled":false,"rental_uris":{"android":"levelo://app?vid=7a6809ff-b098-48bf-8bfb-df8d1a7f33ca","ios":"levelo://app?vid=7a6809ff-b098-48bf-8bfb-df8d1a7f33ca"},"vehicle_type_id":"4","last_reported":1679318261,"current_range_meters":2000,"station_id":"ce4bhq12rcd13ifvqhhg","pricing_plan_id":"free"},{"bike_id":"788c7a88-b5d6-477d-a915-f109fe5528fd","system_id":"levelo_inurba_marseille","lat":43.273613,"lon":5.362705,"is_reserved":false,"is_disabled":false,"rental_uris":{"android":"levelo://app?vid=788c7a88-b5d6-477d-a915-f109fe5528fd","ios":"levelo://app?vid=788c7a88-b5d6-477d-a915-f109fe5528fd"},"vehicle_type_id":"4","last_reported":1679318261,"current_range_meters":22400,"station_id":"ce4bhbh2rcd13ifvqeo0","pricing_plan_id":"free"},{"bike_id":"93982b9e-a052-4323-9f34-97e2620434f7","system_id":"levelo_inurba_marseille","lat":43.273613,"lon":5.362705,"is_reserved":false,"is_disabled":false,"rental_uris":{"android":"levelo://app?vid=93982b9e-a052-4323-9f34-97e2620434f7","ios":"levelo://app?vid=93982b9e-a052-4323-9f34-97e2620434f7"},"vehicle_type_id":"4","last_reported":1679318261,"current_range_meters":8000,"station_id":"ce4bhbh2rcd13ifvqeo0","pricing_plan_id":"free"},{"bike_id":"4a8bcd9e-3ec5-4cbb-83a3-cab656a72487","system_id":"levelo_inurba_marseille","lat":43.273613,"lon":5.362705,"is_reserved":false,"is_disabled":false,"rental_uris":{"android":"levelo://app?vid=4a8bcd9e-3ec5-4cbb-83a3-cab656a72487","ios":"levelo://app?vid=4a8bcd9e-3ec5-4cbb-83a3-cab656a72487"},"vehicle_type_id":"4","last_reported":1679318261,"current_range_meters":22400,"station_id":"ce4bhbh2rcd13ifvqeo0","pricing_plan_id":"free"},{"bike_id":"d187eb9f-a891-42a4-99b0-fad2a85ac9e3","system_id":"levelo_inurba_marseille","lat":43.273613,"lon":5.362705,"is_reserved":false,"is_disabled":false,"rental_uris":{"android":"levelo://app?vid=d187eb9f-a891-42a4-99b0-fad2a85ac9e3","ios":"levelo://app?vid=d187eb9f-a891-42a4-99b0-fad2a85ac9e3"},"vehicle_type_id":"4","last_reported":1679318261,"current_range_meters":18400,"station_id":"ce4bhbh2rcd13ifvqeo0","pricing_plan_id":"free"},{"bike_id":"10802365-c619-45db-b0bc-19a7f3698f5e","system_id":"levelo_inurba_marseille","lat":43.336134,"lon":5.410341,"is_reserved":false,"is_disabled":false,"rental_uris":{"android":"levelo://app?vid=10802365-c619-45db-b0bc-19a7f3698f5e","ios":"levelo://app?vid=10802365-c619-45db-b0bc-19a7f3698f5e"},"vehicle_type_id":"4","last_reported":1679318261,"current_range_meters":5200,"station_id":"ce4bhqh2rcd13ifvqhmg","pricing_plan_id":"free"},{"bike_id":"be0877d6-a8a6-43b8-803c-23df651a0c4e","system_id":"levelo_inurba_marseille","lat":43.276769,"lon":5.388787,"is_reserved":false,"is_disabled":false,"rental_uris":{"android":"levelo://app?vid=be0877d6-a8a6-43b8-803c-23df651a0c4e","ios":"levelo://app?vid=be0877d6-a8a6-43b8-803c-23df651a0c4e"},"vehicle_type_id":"4","last_reported":1679318261,"current_range_meters":25600,"station_id":"ce4bhi12rcd13ifvqfo0","pricing_plan_id":"free"},{"bike_id":"9d1dbbe1-23c1-4880-a600-c3a2a7da1078","system_id":"levelo_inurba_marseille","lat":43.276769,"lon":5.388787,"is_reserved":false,"is_disabled":false,"rental_uris":{"android":"levelo://app?vid=9d1dbbe1-23c1-4880-a600-c3a2a7da1078","ios":"levelo://app?vid=9d1dbbe1-23c1-4880-a600-c3a2a7da1078"},"vehicle_type_id":"4","last_reported":1679318261,"current_range_meters":28400,"station_id":"ce4bhi12rcd13ifvqfo0","pricing_plan_id":"free"},{"bike_id":"722d4074-046d-4f55-8b06-6587f4dd3631","system_id":"levelo_inurba_marseille","lat":43.31728,"lon":5.42395,"is_reserved":false,"is_disabled":false,"rental_uris":{"android":"levelo://app?vid=722d4074-046d-4f55-8b06-6587f4dd3631","ios":"levelo://app?vid=722d4074-046d-4f55-8b06-6587f4dd3631"},"vehicle_type_id":"4","last_reported":1679318261,"current_range_meters":14000,"station_id":"","pricing_plan_id":"free"},{"bike_id":"95568952-c9cf-4078-8b22-e7c64b0068de","system_id":"levelo_inurba_marseille","lat":43.29556,"lon":5.4228,"is_reserved":false,"is_disabled":false,"rental_uris":{"android":"levelo://app?vid=95568952-c9cf-4078-8b22-e7c64b0068de","ios":"levelo://app?vid=95568952-c9cf-4078-8b22-e7c64b0068de"},"vehicle_type_id":"4","last_reported":1679318261,"current_range_meters":31600,"station_id":"","pricing_plan_id":"free"},{"bike_id":"2302e543-5559-49a1-97a6-ebeab36d0d39","system_id":"levelo_inurba_marseille","lat":43.29554,"lon":5.4228,"is_reserved":false,"is_disabled":false,"rental_uris":{"android":"levelo://app?vid=2302e543-5559-49a1-97a6-ebeab36d0d39","ios":"levelo://app?vid=2302e543-5559-49a1-97a6-ebeab36d0d39"},"vehicle_type_id":"4","last_reported":1679318261,"current_range_meters":14800,"station_id":"ce4bhph2rcd13ifvqhdg","pricing_plan_id":"free"},{"bike_id":"1156ef70-c206-489c-a963-957c9d9e2a4d","system_id":"levelo_inurba_marseille","lat":43.295511,"lon":5.422926,"is_reserved":false,"is_disabled":false,"rental_uris":{"android":"levelo://app?vid=1156ef70-c206-489c-a963-957c9d9e2a4d","ios":"levelo://app?vid=1156ef70-c206-489c-a963-957c9d9e2a4d"},"vehicle_type_id":"4","last_reported":1679318261,"current_range_meters":11600,"station_id":"ce4bhph2rcd13ifvqhdg","pricing_plan_id":"free"},{"bike_id":"9bffbd77-ba18-49f4-a8cf-4d24f1b7e1da","system_id":"levelo_inurba_marseille","lat":43.295511,"lon":5.422926,"is_reserved":false,"is_disabled":false,"rental_uris":{"android":"levelo://app?vid=9bffbd77-ba18-49f4-a8cf-4d24f1b7e1da","ios":"levelo://app?vid=9bffbd77-ba18-49f4-a8cf-4d24f1b7e1da"},"vehicle_type_id":"4","last_reported":1679318261,"current_range_meters":8400,"station_id":"ce4bhph2rcd13ifvqhdg","pricing_plan_id":"free"},{"bike_id":"cf9078e5-a655-4eb8-b017-e2821e6b3a50","system_id":"levelo_inurba_marseille","lat":43.29557,"lon":5.42291,"is_reserved":false,"is_disabled":false,"rental_uris":{"android":"levelo://app?vid=cf9078e5-a655-4eb8-b017-e2821e6b3a50","ios":"levelo://app?vid=cf9078e5-a655-4eb8-b017-e2821e6b3a50"},"vehicle_type_id":"4","last_reported":1679318261,"current_range_meters":13600,"station_id":"ce4bhph2rcd13ifvqhdg","pricing_plan_id":"free"},{"bike_id":"72fd52a6-7b03-4c7f-81d7-44e3b4d9b6c8","system_id":"levelo_inurba_marseille","lat":43.334987,"lon":5.4202,"is_reserved":false,"is_disabled":false,"rental_uris":{"android":"levelo://app?vid=72fd52a6-7b03-4c7f-81d7-44e3b4d9b6c8","ios":"levelo://app?vid=72fd52a6-7b03-4c7f-81d7-44e3b4d9b6c8"},"vehicle_type_id":"4","last_reported":1679318261,"current_range_meters":4400,"station_id":"","pricing_plan_id":"free"},{"bike_id":"784ec3e6-68c7-4edd-8dbd-e1a238e8e836","system_id":"levelo_inurba_marseille","lat":43.269467,"lon":5.386439,"is_reserved":false,"is_disabled":false,"rental_uris":{"android":"levelo://app?vid=784ec3e6-68c7-4edd-8dbd-e1a238e8e836","ios":"levelo://app?vid=784ec3e6-68c7-4edd-8dbd-e1a238e8e836"},"vehicle_type_id":"4","last_reported":1679318261,"current_range_meters":19200,"station_id":"ce4bhh92rcd13ifvqfh0","pricing_plan_id":"free"},{"bike_id":"11667af7-0965-4511-bd30-27460d6c56d0","system_id":"levelo_inurba_marseille","lat":43.269298,"lon":5.389198,"is_reserved":false,"is_disabled":false,"rental_uris":{"android":"levelo://app?vid=11667af7-0965-4511-bd30-27460d6c56d0","ios":"levelo://app?vid=11667af7-0965-4511-bd30-27460d6c56d0"},"vehicle_type_id":"4","last_reported":1679318261,"current_range_meters":28000,"station_id":"ce4bhhh2rcd13ifvqfl0","pricing_plan_id":"free"},{"bike_id":"2968cb7d-c419-4ad1-a113-87823a7ea2c2","system_id":"levelo_inurba_marseille","lat":43.337862,"lon":5.420977,"is_reserved":false,"is_disabled":false,"rental_uris":{"android":"levelo://app?vid=2968cb7d-c419-4ad1-a113-87823a7ea2c2","ios":"levelo://app?vid=2968cb7d-c419-4ad1-a113-87823a7ea2c2"},"vehicle_type_id":"4","last_reported":1679318261,"current_range_meters":800,"station_id":"","pricing_plan_id":"free"},{"bike_id":"fc2c0c6e-1194-4629-b44a-56c8ec4bb670","system_id":"levelo_inurba_marseille","lat":43.270108,"lon":5.39318,"is_reserved":false,"is_disabled":false,"rental_uris":{"android":"levelo://app?vid=fc2c0c6e-1194-4629-b44a-56c8ec4bb670","ios":"levelo://app?vid=fc2c0c6e-1194-4629-b44a-56c8ec4bb670"},"vehicle_type_id":"4","last_reported":1679318261,"current_range_meters":2800,"station_id":"","pricing_plan_id":"free"},{"bike_id":"1dea9289-a59f-464c-8b1b-6730b17e949b","system_id":"levelo_inurba_marseille","lat":43.26683,"lon":5.38278,"is_reserved":false,"is_disabled":false,"rental_uris":{"android":"levelo://app?vid=1dea9289-a59f-464c-8b1b-6730b17e949b","ios":"levelo://app?vid=1dea9289-a59f-464c-8b1b-6730b17e949b"},"vehicle_type_id":"4","last_reported":1679318261,"current_range_meters":24000,"station_id":"","pricing_plan_id":"free"},{"bike_id":"8026879e-1b4f-4c29-b983-2299a230fb45","system_id":"levelo_inurba_marseille","lat":43.26681,"lon":5.382694,"is_reserved":false,"is_disabled":false,"rental_uris":{"android":"levelo://app?vid=8026879e-1b4f-4c29-b983-2299a230fb45","ios":"levelo://app?vid=8026879e-1b4f-4c29-b983-2299a230fb45"},"vehicle_type_id":"4","last_reported":1679318261,"current_range_meters":0,"station_id":"ce4bhg92rcd13ifvqf90","pricing_plan_id":"free"},{"bike_id":"7a135028-83ab-429e-b03f-ba1fb1b95a49","system_id":"levelo_inurba_marseille","lat":43.26557,"lon":5.37286,"is_reserved":false,"is_disabled":false,"rental_uris":{"android":"levelo://app?vid=7a135028-83ab-429e-b03f-ba1fb1b95a49","ios":"levelo://app?vid=7a135028-83ab-429e-b03f-ba1fb1b95a49"},"vehicle_type_id":"4","last_reported":1679318261,"current_range_meters":29200,"station_id":"","pricing_plan_id":"free"},{"bike_id":"10324d62-12f6-46e3-92f9-5bca1f879a20","system_id":"levelo_inurba_marseille","lat":43.26806,"lon":5.39421,"is_reserved":false,"is_disabled":false,"rental_uris":{"android":"levelo://app?vid=10324d62-12f6-46e3-92f9-5bca1f879a20","ios":"levelo://app?vid=10324d62-12f6-46e3-92f9-5bca1f879a20"},"vehicle_type_id":"4","last_reported":1679318261,"current_range_meters":11600,"station_id":"","pricing_plan_id":"free"},{"bike_id":"27738ce0-cc21-4ead-8805-5683f1b34c4e","system_id":"levelo_inurba_marseille","lat":43.267966,"lon":5.393976,"is_reserved":false,"is_disabled":false,"rental_uris":{"android":"levelo://app?vid=27738ce0-cc21-4ead-8805-5683f1b34c4e","ios":"levelo://app?vid=27738ce0-cc21-4ead-8805-5683f1b34c4e"},"vehicle_type_id":"4","last_reported":1679318261,"current_range_meters":10800,"station_id":"ce4bhh12rcd13ifvqfg0","pricing_plan_id":"free"},{"bike_id":"840fb4b2-a995-42da-9ecf-ef9a487da437","system_id":"levelo_inurba_marseille","lat":43.267966,"lon":5.393976,"is_reserved":false,"is_disabled":false,"rental_uris":{"android":"levelo://app?vid=840fb4b2-a995-42da-9ecf-ef9a487da437","ios":"levelo://app?vid=840fb4b2-a995-42da-9ecf-ef9a487da437"},"vehicle_type_id":"4","last_reported":1679318261,"current_range_meters":8800,"station_id":"ce4bhh12rcd13ifvqfg0","pricing_plan_id":"free"},{"bike_id":"5b305dfe-4c29-4c54-9a13-534ed7fa054b","system_id":"levelo_inurba_marseille","lat":43.26782,"lon":5.39413,"is_reserved":false,"is_disabled":false,"rental_uris":{"android":"levelo://app?vid=5b305dfe-4c29-4c54-9a13-534ed7fa054b","ios":"levelo://app?vid=5b305dfe-4c29-4c54-9a13-534ed7fa054b"},"vehicle_type_id":"4","last_reported":1679318261,"current_range_meters":25200,"station_id":"","pricing_plan_id":"free"},{"bike_id":"b5b43ef2-0e00-4e05-8134-75fc54c6f0e1","system_id":"levelo_inurba_marseille","lat":43.267966,"lon":5.393976,"is_reserved":false,"is_disabled":false,"rental_uris":{"android":"levelo://app?vid=b5b43ef2-0e00-4e05-8134-75fc54c6f0e1","ios":"levelo://app?vid=b5b43ef2-0e00-4e05-8134-75fc54c6f0e1"},"vehicle_type_id":"4","last_reported":1679318261,"current_range_meters":800,"station_id":"ce4bhh12rcd13ifvqfg0","pricing_plan_id":"free"},{"bike_id":"6bf8501d-0e62-4de1-87be-fae2d01deee1","system_id":"levelo_inurba_marseille","lat":43.267627,"lon":5.394002,"is_reserved":false,"is_disabled":false,"rental_uris":{"android":"levelo://app?vid=6bf8501d-0e62-4de1-87be-fae2d01deee1","ios":"levelo://app?vid=6bf8501d-0e62-4de1-87be-fae2d01deee1"},"vehicle_type_id":"4","last_reported":1679318261,"current_range_meters":23200,"station_id":"ce4bhh12rcd13ifvqfg0","pricing_plan_id":"free"},{"bike_id":"1aa56ad3-8e37-41d9-a03c-1964af9c3f44","system_id":"levelo_inurba_marseille","lat":43.307998,"lon":5.435226,"is_reserved":false,"is_disabled":false,"rental_uris":{"android":"levelo://app?vid=1aa56ad3-8e37-41d9-a03c-1964af9c3f44","ios":"levelo://app?vid=1aa56ad3-8e37-41d9-a03c-1964af9c3f44"},"vehicle_type_id":"4","last_reported":1679318261,"current_range_meters":0,"station_id":"ce4bhph2rcd13ifvqheg","pricing_plan_id":"free"},{"bike_id":"39780d40-8e28-4fbb-a90d-772ca88e850b","system_id":"levelo_inurba_marseille","lat":43.265571,"lon":5.390032,"is_reserved":false,"is_disabled":false,"rental_uris":{"android":"levelo://app?vid=39780d40-8e28-4fbb-a90d-772ca88e850b","ios":"levelo://app?vid=39780d40-8e28-4fbb-a90d-772ca88e850b"},"vehicle_type_id":"4","last_reported":1679318261,"current_range_meters":6800,"station_id":"ce4bhe12rcd13ifvqf30","pricing_plan_id":"free"},{"bike_id":"d3559c17-4d9a-4ea8-8cce-3913f7f8459e","system_id":"levelo_inurba_marseille","lat":43.261782,"lon":5.374515,"is_reserved":false,"is_disabled":false,"rental_uris":{"android":"levelo://app?vid=d3559c17-4d9a-4ea8-8cce-3913f7f8459e","ios":"levelo://app?vid=d3559c17-4d9a-4ea8-8cce-3913f7f8459e"},"vehicle_type_id":"4","last_reported":1679318261,"current_range_meters":16400,"station_id":"ce4bhgp2rcd13ifvqfc0","pricing_plan_id":"free"},