{"last_updated":1742936920,"ttl":60,"version":"2.2","data":{"bikes":[{"bike_id":"be295973-b64b-4612-a980-85ed6abce5b1","system_id":"levelo_inurba_marseille","lat":43.30406,"lon":5.39755,"is_reserved":false,"is_disabled":true,"rental_uris":{"android":"levelo://app?vid=be295973-b64b-4612-a980-85ed6abce5b1","ios":"levelo://app?vid=be295973-b64b-4612-a980-85ed6abce5b1"},"vehicle_type_id":"4","last_reported":1742936920,"current_range_meters":2800,"station_id":"ce4bh092rcd13ifvqd20","pricing_plan_id":"cebpf4jnsgd1na2vs0mg"},{"bike_id":"c2cb2422-657f-4bf4-a502-f0ba8f91a1f0","system_id":"levelo_inurba_marseille","lat":43.2707,"lon":5.42278,"is_reserved":false,"is_disabled":false,"rental_uris":{"android":"levelo://app?vid=c2cb2422-657f-4bf4-a502-f0ba8f91a1f0","ios":"levelo://app?vid=c2cb2422-657f-4bf4-a502-f0ba8f91a1f0"},"vehicle_type_id":"4","last_reported":1742936920,"current_range_meters":2800,"station_id":"ce4bhk92rcd13ifvqgb0","pricing_plan_id":"cebpf4jnsgd1na2vs0mg"},{"bike_id":"afb66e16-6fd3-4b3f-8f83-899cc9d373a1","system_id":"levelo_inurba_marseille","lat":43.32342,"lon":5.40625,"is_reserved":false,"is_disabled":false,"rental_uris":{"android":"levelo://app?vid=afb66e16-6fd3-4b3f-8f83-899cc9d373a1","ios":"levelo://app?vid=afb66e16-6fd3-4b3f-8f83-899cc9d373a1"},"vehicle_type_id":"4","last_reported":1742936920,"current_range_meters":2800,"station_id":"ce4bhq92rcd13ifvqhjg","pricing_plan_id":"cebpf4jnsgd1na2vs0mg"},{"bike_id":"c674abf4-d5b2-45b5-99ee-1dd3f5179b2d","system_id":"levelo_inurba_marseille","lat":43.29683,"lon":5.36201,"is_reserved":false,"is_disabled":false,"rental_uris":{"android":"levelo://app?vid=c674abf4-d5b2-45b5-99ee-1dd3f5179b2d","ios":"levelo://app?vid=c674abf4-d5b2-45b5-99ee-1dd3f5179b2d"},"vehicle_type_id":"4","last_reported":1742936920,"current_range_meters":3200,"station_id":"","pricing_plan_id":"cebpf4jnsgd1na2vs0mg"},{"bike_id":"5fba68f7-1ab7-4f74-9d10-66ae16a91f70","system_id":"levelo_inurba_marseille","lat":43.28976,"lon":5.37835,"is_reserved":false,"is_disabled":false,"rental_uris":{"android":"levelo://app?vid=5fba68f7-1ab7-4f74-9d10-66ae16a91f70","ios":"levelo://app?vid=5fba68f7-1ab7-4f74-9d10-66ae16a91f70"},"vehicle_type_id":"4","last_reported":1742936920,"current_range_meters":2800,"station_id":"ce4bh9p2rcd13ifvqed0","pricing_plan_id":"cebpf4jnsgd1na2vs0mg"},{"bike_id":"0b03def2-dd62-47dc-9406-cbd1eb9dcad8","system_id":"levelo_inurba_marseille","lat":43.27382,"lon":5.36247,"is_reserved":false,"is_disabled":false,"rental_uris":{"android":"levelo://app?vid=0b03def2-dd62-47dc-9406-cbd1eb9dcad8","ios":"levelo://app?vid=0b03def2-dd62-47dc-9406-cbd1eb9dcad8"},"vehicle_type_id":"4","last_reported":1742936920,"current_range_meters":3200,"station_id":"ce4bhbh2rcd13ifvqeo0","pricing_plan_id":"cebpf4jnsgd1na2vs0mg"},{"bike_id":"4abd9883-4b93-4164-be3a-a308193cfa68","system_id":"levelo_inurba_marseille","lat":43.2598,"lon":5.41339,"is_reserved":false,"is_disabled":false,"rental_uris":{"android":"levelo://app?vid=4abd9883-4b93-4164-be3a-a308193cfa68","ios":"levelo://app?vid=4abd9883-4b93-4164-be3a-a308193cfa68"},"vehicle_type_id":"4","last_reported":1742936920,"current_range_meters":3200,"station_id":"","pricing_plan_id":"cebpf4jnsgd1na2vs0mg"},{"bike_id":"0570a9a6-b9f0-47d0-bdf1-df039b21914d","system_id":"levelo_inurba_marseille","lat":43.32365,"lon":5.38884,"is_reserved":false,"is_disabled":false,"rental_uris":{"android":"levelo://app?vid=0570a9a6-b9f0-47d0-bdf1-df039b21914d","ios":"levelo://app?vid=0570a9a6-b9f0-47d0-bdf1-df039b21914d"},"vehicle_type_id":"4","last_reported":1742936920,"current_range_meters":3200,"station_id":"ce4bhqp2rcd13ifvqhog","pricing_plan_id":"cebpf4jnsgd1na2vs0mg"},{"bike_id":"10ae1ac3-b460-4f57-82e4-851d6370442b","system_id":"levelo_inurba_marseille","lat":43.29259,"lon":5.37625,"is_reserved":false,"is_disabled":false,"rental_uris":{"android":"levelo://app?vid=10ae1ac3-b460-4f57-82e4-851d6370442b","ios":"levelo://app?vid=10ae1ac3-b460-4f57-82e4-851d6370442b"},"vehicle_type_id":"4","last_reported":1742936920,"current_range_meters":3600,"station_id":"ce4bgi12rcd13ifvqb80","pricing_plan_id":"cebpf4jnsgd1na2vs0mg"},{"bike_id":"62f6fdf7-10f4-4026-bac4-0f29404c6781","system_id":"levelo_inurba_marseille","lat":43.29019,"lon":5.38138,"is_reserved":false,"is_disabled":false,"rental_uris":{"android":"levelo://app?vid=62f6fdf7-10f4-4026-bac4-0f29404c6781","ios":"levelo://app?vid=62f6fdf7-10f4-4026-bac4-0f29404c6781"},"vehicle_type_id":"4","last_reported":1742936920,"current_range_meters":5600,"station_id":"ce4bh4p2rcd13ifvqe1g","pricing_plan_id":"cebpf4jnsgd1na2vs0mg"},{"bike_id":"e82df199-f20b-4fdc-89de-c8739f927754","system_id":"levelo_inurba_marseille","lat":43.26046,"lon":5.37546,"is_reserved":false,"is_disabled":false,"rental_uris":{"android":"levelo://app?vid=e82df199-f20b-4fdc-89de-c8739f927754","ios":"levelo://app?vid=e82df199-f20b-4fdc-89de-c8739f927754"},"vehicle_type_id":"4","last_reported":1742936920,"current_range_meters":4000,"station_id":"ce4bhgh2rcd13ifvqfa0","pricing_plan_id":"cebpf4jnsgd1na2vs0mg"},{"bike_id":"5c0afacc-e3d9-4363-8f10-2a19150221ac","system_id":"levelo_inurba_marseille","lat":43.29402,"lon":5.37418,"is_reserved":false,"is_disabled":false,"rental_uris":{"android":"levelo://app?vid=5c0afacc-e3d9-4363-8f10-2a19150221ac","ios":"levelo://app?vid=5c0afacc-e3d9-4363-8f10-2a19150221ac"},"vehicle_type_id":"4","last_reported":1742936920,"current_range_meters":4000,"station_id":"","pricing_plan_id":"cebpf4jnsgd1na2vs0mg"},{"bike_id":"16304736-951b-43c6-9b6f-cb10c646b318","system_id":"levelo_inurba_marseille","lat":43.259064,"lon":5.398712,"is_reserved":false,"is_disabled":false,"rental_uris":{"android":"levelo://app?vid=16304736-951b-43c6-9b6f-cb10c646b318","ios":"levelo://app?vid=16304736-951b-43c6-9b6f-cb10c646b318"},"vehicle_type_id":"4","last_reported":1742936920,"current_range_meters":4000,"station_id":"ce4bhl92rcd13ifvqghg","pricing_plan_id":"cebpf4jnsgd1na2vs0mg"},{"bike_id":"8e5dbd42-31f4-4aaf-b1f5-9d05d71e3c2c","system_id":"levelo_inurba_marseille","lat":43.30781,"lon":5.37649,"is_reserved":false,"is_disabled":false,"rental_uris":{"android":"levelo://app?vid=8e5dbd42-31f4-4aaf-b1f5-9d05d71e3c2c","ios":"levelo://app?vid=8e5dbd42-31f4-4aaf-b1f5-9d05d71e3c2c"},"vehicle_type_id":"4","last_reported":1742936920,"current_range_meters":4000,"station_id":"ce4bgv92rcd13ifvqcq0","pricing_plan_id":"cebpf4jnsgd1na2vs0mg"},{"bike_id":"bbeb21a4-d6fd-4cdf-9ab5-2e33dcbd6c52","system_id":"levelo_inurba_marseille","lat":43.29899,"lon":5.43647,"is_reserved":false,"is_disabled":false,"rental_uris":{"android":"levelo://app?vid=bbeb21a4-d6fd-4cdf-9ab5-2e33dcbd6c52","ios":"levelo://app?vid=bbeb21a4-d6fd-4cdf-9ab5-2e33dcbd6c52"},"vehicle_type_id":"4","last_reported":1742936920,"current_range_meters":4000,"station_id":"ce4bhpp2rcd13ifvqhfg","pricing_plan_id":"cebpf4jnsgd1na2vs0mg"},{"bike_id":"8637c886-d11d-4904-bfba-856b6aae2576","system_id":"levelo_inurba_marseille","lat":43.28042,"lon":5.36946,"is_reserved":false,"is_disabled":false,"rental_uris":{"android":"levelo://app?vid=8637c886-d11d-4904-bfba-856b6aae2576","ios":"levelo://app?vid=8637c886-d11d-4904-bfba-856b6aae2576"},"vehicle_type_id":"4","last_reported":1742936920,"current_range_meters":4000,"station_id":"ce4bha12rcd13ifvqef0","pricing_plan_id":"cebpf4jnsgd1na2vs0mg"},{"bike_id":"9ad081dd-accd-4dab-b252-44021c8f1b43","system_id":"levelo_inurba_marseille","lat":43.27366,"lon":5.36246,"is_reserved":false,"is_disabled":false,"rental_uris":{"android":"levelo://app?vid=9ad081dd-accd-4dab-b252-44021c8f1b43","ios":"levelo://app?vid=9ad081dd-accd-4dab-b252-44021c8f1b43"},"vehicle_type_id":"4","last_reported":1742936920,"current_range_meters":4000,"station_id":"ce4bhbh2rcd13ifvqeo0","pricing_plan_id":"cebpf4jnsgd1na2vs0mg"},{"bike_id":"0b7d369b-c761-4a4d-b15e-a76e160e4bc4","system_id":"levelo_inurba_marseille","lat":43.31754,"lon":5.3902,"is_reserved":false,"is_disabled":false,"rental_uris":{"android":"levelo://app?vid=0b7d369b-c761-4a4d-b15e-a76e160e4bc4","ios":"levelo://app?vid=0b7d369b-c761-4a4d-b15e-a76e160e4bc4"},"vehicle_type_id":"4","last_reported":1742936920,"current_range_meters":4000,"station_id":"ce4bhqp2rcd13ifvqhng","pricing_plan_id":"cebpf4jnsgd1na2vs0mg"},{"bike_id":"29cc2166-3cf9-407f-add8-f22c94db9540","system_id":"levelo_inurba_marseille","lat":43.27995,"lon":5.41675,"is_reserved":false,"is_disabled":false,"rental_uris":{"android":"levelo://app?vid=29cc2166-3cf9-407f-add8-f22c94db9540","ios":"levelo://app?vid=29cc2166-3cf9-407f-add8-f22c94db9540"},"vehicle_type_id":"4","last_reported":1742936920,"current_range_meters":4400,"station_id":"ce4bho12rcd13ifvqh1g","pricing_plan_id":"cebpf4jnsgd1na2vs0mg"},{"bike_id":"0212517b-194f-491e-81c5-5573a3ec47d4","system_id":"levelo_inurba_marseille","lat":43.30311,"lon":5.369,"is_reserved":false,"is_disabled":false,"rental_uris":{"android":"levelo://app?vid=0212517b-194f-491e-81c5-5573a3ec47d4","ios":"levelo://app?vid=0212517b-194f-491e-81c5-5573a3ec47d4"},"vehicle_type_id":"4","last_reported":1742936920,"current_range_meters":4400,"station_id":"ce4bgqh2rcd13ifvqc5g","pricing_plan_id":"cebpf4jnsgd1na2vs0mg"},{"bike_id":"c3d3e73f-d32c-401a-9e3f-4baac6c85ef1","system_id":"levelo_inurba_marseille","lat":43.30927,"lon":5.40149,"is_reserved":false,"is_disabled":false,"rental_uris":{"android":"levelo://app?vid=c3d3e73f-d32c-401a-9e3f-4baac6c85ef1","ios":"levelo://app?vid=c3d3e73f-d32c-401a-9e3f-4baac6c85ef1"},"vehicle_type_id":"4","last_reported":1742936920,"current_range_meters":4400,"station_id":"ce4bgvp2rcd13ifvqct0","pricing_plan_id":"cebpf4jnsgd1na2vs0mg"},{"bike_id":"f3b679c5-bf5b-4d5f-a4f4-40436534cfe1","system_id":"levelo_inurba_marseille","lat":43.30321,"lon":5.40438,"is_reserved":false,"is_disabled":false,"rental_uris":{"android":"levelo://app?vid=f3b679c5-bf5b-4d5f-a4f4-40436534cfe1","ios":"levelo://app?vid=f3b679c5-bf5b-4d5f-a4f4-40436534cfe1"},"vehicle_type_id":"4","last_reported":1742936920,"current_range_meters":4400,"station_id":"ce4bh012rcd13ifvqd10","pricing_plan_id":"cebpf4jnsgd1na2vs0mg"},{"bike_id":"a74cdeab-f896-49a2-9e69-1a408c582e96","system_id":"levelo_inurba_marseille","lat":43.27803,"lon":5.40719,"is_reserved":false,"is_disabled":false,"rental_uris":{"android":"levelo://app?vid=a74cdeab-f896-49a2-9e69-1a408c582e96","ios":"levelo://app?vid=a74cdeab-f896-49a2-9e69-1a408c582e96"},"vehicle_type_id":"4","last_reported":1742936920,"current_range_meters":4400,"station_id":"ce4bhnh2rcd13ifvqgtg","pricing_plan_id":"cebpf4jnsgd1na2vs0mg"},{"bike_id":"2b60b3d7-e174-42a3-8341-7a499ab055dc","system_id":"levelo_inurba_marseille","lat":43.30255,"lon":5.40056,"is_reserved":false,"is_disabled":false,"rental_uris":{"android":"levelo://app?vid=2b60b3d7-e174-42a3-8341-7a499ab055dc","ios":"levelo://app?vid=2b60b3d7-e174-42a3-8341-7a499ab055dc"},"vehicle_type_id":"4","last_reported":1742936920,"current_range_meters":4400,"station_id":"ce4bgvh2rcd13ifvqcs0","pricing_plan_id":"cebpf4jnsgd1na2vs0mg"},{"bike_id":"6fc91dcc-3611-4185-a50d-465701074511","system_id":"levelo_inurba_marseille","lat":43.28437,"lon":5.35896,"is_reserved":false,"is_disabled":false,"rental_uris":{"android":"levelo://app?vid=6fc91dcc-3611-4185-a50d-465701074511","ios":"levelo://app?vid=6fc91dcc-3611-4185-a50d-465701074511"},"vehicle_type_id":"4","last_reported":1742936920,"current_range_meters":4400,"station_id":"ce4bhah2rcd13ifvqei0","pricing_plan_id":"cebpf4jnsgd1na2vs0mg"},{"bike_id":"943904f8-2ace-4be5-a19f-887b0bd689e8","system_id":"levelo_inurba_marseille","lat":43.29895,"lon":5.4364,"is_reserved":false,"is_disabled":false,"rental_uris":{"android":"levelo://app?vid=943904f8-2ace-4be5-a19f-887b0bd689e8","ios":"levelo://app?vid=943904f8-2ace-4be5-a19f-887b0bd689e8"},"vehicle_type_id":"4","last_reported":1742936920,"current_range_meters":4400,"station_id":"ce4bhpp2rcd13ifvqhfg","pricing_plan_id":"cebpf4jnsgd1na2vs0mg"},{"bike_id":"65fa6932-ba8d-4ee7-a8b4-c9c3124c2009","system_id":"levelo_inurba_marseille","lat":43.29245,"lon":5.38436,"is_reserved":false,"is_disabled":false,"rental_uris":{"android":"levelo://app?vid=65fa6932-ba8d-4ee7-a8b4-c9c3124c2009","ios":"levelo://app?vid=65fa6932-ba8d-4ee7-a8b4-c9c3124c2009"},"vehicle_type_id":"4","last_reported":1742936920,"current_range_meters":3200,"station_id":"ce4bh692rcd13ifvqea0","pricing_plan_id":"cebpf4jnsgd1na2vs0mg"},{"bike_id":"135447b6-e836-48da-a6cd-5437942efdc9","system_id":"levelo_inurba_marseille","lat":43.30592,"lon":5.39355,"is_reserved":false,"is_disabled":false,"rental_uris":{"android":"levelo://app?vid=135447b6-e836-48da-a6cd-5437942efdc9","ios":"levelo://app?vid=135447b6-e836-48da-a6cd-5437942efdc9"},"vehicle_type_id":"4","last_reported":1742936920,"current_range_meters":4400,"station_id":"ce4bh0p2rcd13ifvqd80","pricing_plan_id":"cebpf4jnsgd1na2vs0mg"},{"bike_id":"daa724ce-4fa0-4b44-94d9-a797bd595134","system_id":"levelo_inurba_marseille","lat":43.27922,"lon":5.39595,"is_reserved":false,"is_disabled":false,"rental_uris":{"android":"levelo://app?vid=daa724ce-4fa0-4b44-94d9-a797bd595134","ios":"levelo://app?vid=daa724ce-4fa0-4b44-94d9-a797bd595134"},"vehicle_type_id":"4","last_reported":1742936920,"current_range_meters":4400,"station_id":"ce4bhf92rcd13ifvqf40","pricing_plan_id":"cebpf4jnsgd1na2vs0mg"},{"bike_id":"7ebc335d-69c5-44b4-9f83-ff55de192d9a","system_id":"levelo_inurba_marseille","lat":43.27978,"lon":5.38736,"is_reserved":false,"is_disabled":false,"rental_uris":{"android":"levelo://app?vid=7ebc335d-69c5-44b4-9f83-ff55de192d9a","ios":"levelo://app?vid=7ebc335d-69c5-44b4-9f83-ff55de192d9a"},"vehicle_type_id":"4","last_reported":1742936920,"current_range_meters":4400,"station_id":"ce4bhg12rcd13ifvqf80","pricing_plan_id":"cebpf4jnsgd1na2vs0mg"},{"bike_id":"d0fc48d1-f702-4d18-bf74-1be768574be4","system_id":"levelo_inurba_marseille","lat":43.30533,"lon":5.38436,"is_reserved":false,"is_disabled":false,"rental_uris":{"android":"levelo://app?vid=d0fc48d1-f702-4d18-bf74-1be768574be4","ios":"levelo://app?vid=d0fc48d1-f702-4d18-bf74-1be768574be4"},"vehicle_type_id":"4","last_reported":1742936920,"current_range_meters":4400,"station_id":"ce4bgg92rcd13ifvqb30","pricing_plan_id":"cebpf4jnsgd1na2vs0mg"},{"bike_id":"549a6bed-b9cb-4764-8a8f-b7eae4b36084","system_id":"levelo_inurba_marseille","lat":43.28154,"lon":5.42639,"is_reserved":false,"is_disabled":false,"rental_uris":{"android":"levelo://app?vid=549a6bed-b9cb-4764-8a8f-b7eae4b36084","ios":"levelo://app?vid=549a6bed-b9cb-4764-8a8f-b7eae4b36084"},"vehicle_type_id":"4","last_reported":1742936920,"current_range_meters":6400,"station_id":"ce4bhnh2rcd13ifvqgug","pricing_plan_id":"cebpf4jnsgd1na2vs0mg"},{"bike_id":"8a19094a-e355-4d2f-a1dd-00d6d9fe3221","system_id":"levelo_inurba_marseille","lat":43.25116,"lon":5.4032,"is_reserved":false,"is_disabled":false,"rental_uris":{"android":"levelo://app?vid=8a19094a-e355-4d2f-a1dd-00d6d9fe3221","ios":"levelo://app?vid=8a19094a-e355-4d2f-a1dd-00d6d9fe3221"},"vehicle_type_id":"4","last_reported":1742936920,"current_range_meters":4800,"station_id":"ce4bhlh2rcd13ifvqgig","pricing_plan_id":"cebpf4jnsgd1na2vs0mg"},{"bike_id":"86c24361-5fab-4dea-a92e-d7ecae070174","system_id":"levelo_inurba_marseille","lat":43.27994,"lon":5.41648,"is_reserved":false,"is_disabled":false,"rental_uris":{"android":"levelo://app?vid=86c24361-5fab-4dea-a92e-d7ecae070174","ios":"levelo://app?vid=86c24361-5fab-4dea-a92e-d7ecae070174"},"vehicle_type_id":"4","last_reported":1742936920,"current_range_meters":4800,"station_id":"ce4bho12rcd13ifvqh1g","pricing_plan_id":"cebpf4jnsgd1na2vs0mg"},{"bike_id":"0c61cb13-5a36-44b8-8dd0-2e66a36d323d","system_id":"levelo_inurba_marseille","lat":43.27578,"lon":5.38445,"is_reserved":false,"is_disabled":false,"rental_uris":{"android":"levelo://app?vid=0c61cb13-5a36-44b8-8dd0-2e66a36d323d","ios":"levelo://app?vid=0c61cb13-5a36-44b8-8dd0-2e66a36d323d"},"vehicle_type_id":"4","last_reported":1742936920,"current_range_meters":4800,"station_id":"ce4bhh92rcd13ifvqfi0","pricing_plan_id":"cebpf4jnsgd1na2vs0mg"},{"bike_id":"4b82f9a6-2f12-42e5-86cc-35d0acf12b8e","system_id":"levelo_inurba_marseille","lat":43.25111,"lon":5.39515,"is_reserved":false,"is_disabled":false,"rental_uris":{"android":"levelo://app?vid=4b82f9a6-2f12-42e5-86cc-35d0acf12b8e","ios":"levelo://app?vid=4b82f9a6-2f12-42e5-86cc-35d0acf12b8e"},"vehicle_type_id":"4","last_reported":1742936920,"current_range_meters":4800,"station_id":"ce4bhm12rcd13ifvqgkg","pricing_plan_id":"cebpf4jnsgd1na2vs0mg"},{"bike_id":"cf30ba2d-9dd5-4d8d-b3a7-9af496f3ef85","system_id":"levelo_inurba_marseille","lat":43.289226,"lon":5.381897,"is_reserved":false,"is_disabled":false,"rental_uris":{"android":"levelo://app?vid=cf30ba2d-9dd5-4d8d-b3a7-9af496f3ef85","ios":"levelo://app?vid=cf30ba2d-9dd5-4d8d-b3a7-9af496f3ef85"},"vehicle_type_id":"4","last_reported":1742936920,"current_range_meters":4800,"station_id":"ce4bh4p2rcd13ifvqe1g","pricing_plan_id":"cebpf4jnsgd1na2vs0mg"},{"bike_id":"9b3df4af-6091-4feb-b2d9-618f1a0a9915","system_id":"levelo_inurba_marseille","lat":43.23206,"lon":5.35562,"is_reserved":false,"is_disabled":false,"rental_uris":{"android":"levelo://app?vid=9b3df4af-6091-4feb-b2d9-618f1a0a9915","ios":"levelo://app?vid=9b3df4af-6091-4feb-b2d9-618f1a0a9915"},"vehicle_type_id":"4","last_reported":1742936920,"current_range_meters":4800,"station_id":"ce4bhu92rcd13ifvqi70","pricing_plan_id":"cebpf4jnsgd1na2vs0mg"},{"bike_id":"d5a95a71-bdcf-4c76-90bb-f92bfc4a3cc3","system_id":"levelo_inurba_marseille","lat":43.21877,"lon":5.41963,"is_reserved":false,"is_disabled":false,"rental_uris":{"android":"levelo://app?vid=d5a95a71-bdcf-4c76-90bb-f92bfc4a3cc3","ios":"levelo://app?vid=d5a95a71-bdcf-4c76-90bb-f92bfc4a3cc3"},"vehicle_type_id":"4","last_reported":1742936920,"current_range_meters":4800,"station_id":"","pricing_plan_id":"cebpf4jnsgd1na2vs0mg"},{"bike_id":"594ed5c7-8cfc-4121-9975-0bd679e31edc","system_id":"levelo_inurba_marseille","lat":43.24665,"lon":5.38165,"is_reserved":false,"is_disabled":false,"rental_uris":{"android":"levelo://app?vid=594ed5c7-8cfc-4121-9975-0bd679e31edc","ios":"levelo://app?vid=594ed5c7-8cfc-4121-9975-0bd679e31edc"},"vehicle_type_id":"4","last_reported":1742936920,"current_range_meters":4800,"station_id":"ce4bhih2rcd13ifvqfr0","pricing_plan_id":"cebpf4jnsgd1na2vs0mg"},{"bike_id":"5eb0e2f0-8111-4362-8b3d-f072323b11aa","system_id":"levelo_inurba_marseille","lat":43.28611,"lon":5.37065,"is_reserved":false,"is_disabled":false,"rental_uris":{"android":"levelo://app?vid=5eb0e2f0-8111-4362-8b3d-f072323b11aa","ios":"levelo://app?vid=5eb0e2f0-8111-4362-8b3d-f072323b11aa"},"vehicle_type_id":"4","last_reported":1742936920,"current_range_meters":5600,"station_id":"ce4bht12rcd13ifvqi60","pricing_plan_id":"cebpf4jnsgd1na2vs0mg"},{"bike_id":"ee8553ac-389d-40dc-8ff4-f6e1917ae579","system_id":"levelo_inurba_marseille","lat":43.27819,"lon":5.40705,"is_reserved":false,"is_disabled":false,"rental_uris":{"android":"levelo://app?vid=ee8553ac-389d-40dc-8ff4-f6e1917ae579","ios":"levelo://app?vid=ee8553ac-389d-40dc-8ff4-f6e1917ae579"},"vehicle_type_id":"4","last_reported":1742936920,"current_range_meters":5600,"station_id":"ce4bhnh2rcd13ifvqgtg","pricing_plan_id":"cebpf4jnsgd1na2vs0mg"},{"bike_id":"78855946-f1ec-4dd3-b1cb-78a4f8659240","system_id":"levelo_inurba_marseille","lat":43.29531,"lon":5.39044,"is_reserved":false,"is_disabled":true,"rental_uris":{"android":"levelo://app?vid=78855946-f1ec-4dd3-b1cb-78a4f8659240","ios":"levelo://app?vid=78855946-f1ec-4dd3-b1cb-78a4f8659240"},"vehicle_type_id":"4","last_reported":1742936920,"current_range_meters":5600,"station_id":"ce4bh3p2rcd13ifvqdp0","pricing_plan_id":"cebpf4jnsgd1na2vs0mg"},{"bike_id":"ea2e91af-00c8-4285-b373-c4927fc033a8","system_id":"levelo_inurba_marseille","lat":43.287,"lon":5.400123,"is_reserved":false,"is_disabled":false,"rental_uris":{"android":"levelo://app?vid=ea2e91af-00c8-4285-b373-c4927fc033a8","ios":"levelo://app?vid=ea2e91af-00c8-4285-b373-c4927fc033a8"},"vehicle_type_id":"4","last_reported":1742936920,"current_range_meters":5600,"station_id":"ce4bho92rcd13ifvqh3g","pricing_plan_id":"cebpf4jnsgd1na2vs0mg"},{"bike_id":"ef6cee3d-3329-426a-8654-0315e0d5f1cb","system_id":"levelo_inurba_marseille","lat":43.29059,"lon":5.35907,"is_reserved":false,"is_disabled":false,"rental_uris":{"android":"levelo://app?vid=ef6cee3d-3329-426a-8654-0315e0d5f1cb","ios":"levelo://app?vid=ef6cee3d-3329-426a-8654-0315e0d5f1cb"},"vehicle_type_id":"4","last_reported":1742936920,"current_range_meters":6000,"station_id":"ce4bha92rcd13ifvqeg0","pricing_plan_id":"cebpf4jnsgd1na2vs0mg"},{"bike_id":"69cae312-ca8c-4ddf-a945-cb9acdf08ab6","system_id":"levelo_inurba_marseille","lat":43.2845,"lon":5.39186,"is_reserved":false,"is_disabled":false,"rental_uris":{"android":"levelo://app?vid=69cae312-ca8c-4ddf-a945-cb9acdf08ab6","ios":"levelo://app?vid=69cae312-ca8c-4ddf-a945-cb9acdf08ab6"},"vehicle_type_id":"4","last_reported":1742936920,"current_range_meters":5600,"station_id":"ce4bhoh2rcd13ifvqh5g","pricing_plan_id":"cebpf4jnsgd1na2vs0mg"},{"bike_id":"310c85ad-a6d3-4c8a-b7f4-9a071849b953","system_id":"levelo_inurba_marseille","lat":43.29892,"lon":5.38906,"is_reserved":false,"is_disabled":false,"rental_uris":{"android":"levelo://app?vid=310c85ad-a6d3-4c8a-b7f4-9a071849b953","ios":"levelo://app?vid=310c85ad-a6d3-4c8a-b7f4-9a071849b953"},"vehicle_type_id":"4","last_reported":1742936920,"current_range_meters":5600,"station_id":"ce4bh392rcd13ifvqdl0","pricing_plan_id":"cebpf4jnsgd1na2vs0mg"},{"bike_id":"f8296cf1-f450-4c12-ac4c-8ca6f6704e98","system_id":"levelo_inurba_marseille","lat":43.31274,"lon":5.40168,"is_reserved":false,"is_disabled":false,"rental_uris":{"android":"levelo://app?vid=f8296cf1-f450-4c12-ac4c-8ca6f6704e98","ios":"levelo://app?vid=f8296cf1-f450-4c12-ac4c-8ca6f6704e98"},"vehicle_type_id":"4","last_reported":1742936920,"current_range_meters":5600,"station_id":"ce4bh092rcd13ifvqd30","pricing_plan_id":"cebpf4jnsgd1na2vs0mg"},{"bike_id":"0989ad09-6826-4b8f-b9c7-39b73ff6cfd7","system_id":"levelo_inurba_marseille","lat":43.29022,"lon":5.38647,"is_reserved":false,"is_disabled":false,"rental_uris":{"android":"levelo://app?vid=0989ad09-6826-4b8f-b9c7-39b73ff6cfd7","ios":"levelo://app?vid=0989ad09-6826-4b8f-b9c7-39b73ff6cfd7"},"vehicle_type_id":"4","last_reported":1742936920,"current_range_meters":5600,"station_id":"ce4bh4p2rcd13ifvqe0g","pricing_plan_id":"cebpf4jnsgd1na2vs0mg"},{"bike_id":"e0a912d8-d4d5-4057-af94-23e8f2946846","system_id":"levelo_inurba_marseille","lat":43.297771,"lon":5.381106,"is_reserved":false,"is_disabled":false,"rental_uris":{"android":"levelo://app?vid=e0a912d8-d4d5-4057-af94-23e8f2946846","ios":"levelo://app?vid=e0a912d8-d4d5-4057-af94-23e8f2946846"},"vehicle_type_id":"4","last_reported":1742936920,"current_range_meters":5600,"station_id":"ce4bgip2rcd13ifvqbb0","pricing_plan_id":"cebpf4jnsgd1na2vs0mg"},{"bike_id":"ecb42ffe-a31e-4210-9fcc-a29d223e03d4","system_id":"levelo_inurba_marseille","lat":43.23201,"lon":5.35557,"is_reserved":false,"is_disabled":false,"rental_uris":{"android":"levelo://app?vid=ecb42ffe-a31e-4210-9fcc-a29d223e03d4","ios":"levelo://app?vid=ecb42ffe-a31e-4210-9fcc-a29d223e03d4"},"vehicle_type_id":"4","last_reported":1742936920,"current_range_meters":6000,"station_id":"ce4bhu92rcd13ifvqi70","pricing_plan_id":"cebpf4jnsgd1na2vs0mg"},{"bike_id":"9b5b623a-575e-4f17-9735-3c5974fdf829","system_id":"levelo_inurba_marseille","lat":43.28853,"lon":5.35844,"is_reserved":false,"is_disabled":false,"rental_uris":{"android":"levelo://app?vid=9b5b623a-575e-4f17-9735-3c5974fdf829","ios":"levelo://app?vid=9b5b623a-575e-4f17-9735-3c5974fdf829"},"vehicle_type_id":"4","last_reported":1742936920,"current_range_meters":6000,"station_id":"ce4bhb12rcd13ifvqem0","pricing_plan_id":"cebpf4jnsgd1na2vs0mg"},{"bike_id":"1cdb5e5f-6bda-4e07-b645-0554ed59cc39","system_id":"levelo_inurba_marseille","lat":43.25836,"lon":5.39415,"is_reserved":false,"is_disabled":false,"rental_uris":{"android":"levelo://app?vid=1cdb5e5f-6bda-4e07-b645-0554ed59cc39","ios":"levelo://app?vid=1cdb5e5f-6bda-4e07-b645-0554ed59cc39"},"vehicle_type_id":"4","last_reported":1742936920,"current_range_meters":6000,"station_id":"ce4bhip2rcd13ifvqft0","pricing_plan_id":"cebpf4jnsgd1na2vs0mg"},{"bike_id":"3513a6f0-dbc9-4f37-8b52-79603521c288","system_id":"levelo_inurba_marseille","lat":43.23062,"lon":5.35501,"is_reserved":false,"is_disabled":false,"rental_uris":{"android":"levelo://app?vid=3513a6f0-dbc9-4f37-8b52-79603521c288","ios":"levelo://app?vid=3513a6f0-dbc9-4f37-8b52-79603521c288"},"vehicle_type_id":"4","last_reported":1742936920,"current_range_meters":6000,"station_id":"cpo3342slgdg3j2ifvpg","pricing_plan_id":"cebpf4jnsgd1na2vs0mg"},{"bike_id":"6c810f79-a7b9-455f-8030-25d16ce5fe94","system_id":"levelo_inurba_marseille","lat":43.29572,"lon":5.39989,"is_reserved":false,"is_disabled":false,"rental_uris":{"android":"levelo://app?vid=6c810f79-a7b9-455f-8030-25d16ce5fe94","ios":"levelo://app?vid=6c810f79-a7b9-455f-8030-25d16ce5fe94"},"vehicle_type_id":"4","last_reported":1742936920,"current_range_meters":0,"station_id":"ce4bh312rcd13ifvqdj0","pricing_plan_id":"cebpf4jnsgd1na2vs0mg"},{"bike_id":"492e069e-b7b3-4df9-97ff-6ff87c17328e","system_id":"levelo_inurba_marseille","lat":43.23177,"lon":5.3999,"is_reserved":false,"is_disabled":false,"rental_uris":{"android":"levelo://app?vid=492e069e-b7b3-4df9-97ff-6ff87c17328e","ios":"levelo://app?vid=492e069e-b7b3-4df9-97ff-6ff87c17328e"},"vehicle_type_id":"4","last_reported":1742936920,"current_range_meters":6000,"station_id":"ce4bhn12rcd13ifvqgqg","pricing_plan_id":"cebpf4jnsgd1na2vs0mg"},{"bike_id":"0799628e-ae5e-4352-9b49-dc5e016977f0","system_id":"levelo_inurba_marseille","lat":43.27559,"lon":5.38435,"is_reserved":false,"is_disabled":false,"rental_uris":{"android":"levelo://app?vid=0799628e-ae5e-4352-9b49-dc5e016977f0","ios":"levelo://app?vid=0799628e-ae5e-4352-9b49-dc5e016977f0"},"vehicle_type_id":"4","last_reported":1742936920,"current_range_meters":6400,"station_id":"ce4bhh92rcd13ifvqfi0","pricing_plan_id":"cebpf4jnsgd1na2vs0mg"},{"bike_id":"b4d81f4a-e136-4152-acb8-8f45bf463c05","system_id":"levelo_inurba_marseille","lat":43.309587,"lon":5.396287,"is_reserved":false,"is_disabled":false,"rental_uris":{"android":"levelo://app?vid=b4d81f4a-e136-4152-acb8-8f45bf463c05","ios":"levelo://app?vid=b4d81f4a-e136-4152-acb8-8f45bf463c05"},"vehicle_type_id":"4","last_reported":1742936920,"current_range_meters":6400,"station_id":"","pricing_plan_id":"cebpf4jnsgd1na2vs0mg"},{"bike_id":"a5516228-2c65-4ab1-8174-cbfa24336356","system_id":"levelo_inurba_marseille","lat":43.28167,"lon":5.42617,"is_reserved":false,"is_disabled":false,"rental_uris":{"android":"levelo://app?vid=a5516228-2c65-4ab1-8174-cbfa24336356","ios":"levelo://app?vid=a5516228-2c65-4ab1-8174-cbfa24336356"},"vehicle_type_id":"4","last_reported":1742936920,"current_range_meters":6400,"station_id":"ce4bhnh2rcd13ifvqgug","pricing_plan_id":"cebpf4jnsgd1na2vs0mg"},{"bike_id":"40c9879f-9142-4245-a7bc-60f5721fd202","system_id":"levelo_inurba_marseille","lat":43.25711,"lon":5.41128,"is_reserved":false,"is_disabled":false,"rental_uris":{"android":"levelo://app?vid=40c9879f-9142-4245-a7bc-60f5721fd202","ios":"levelo://app?vid=40c9879f-9142-4245-a7bc-60f5721fd202"},"vehicle_type_id":"4","last_reported":1742936920,"current_range_meters":6400,"station_id":"ce4bhkp2rcd13ifvqgd0","pricing_plan_id":"cebpf4jnsgd1na2vs0mg"},{"bike_id":"02c642d0-bab7-4205-b1fb-4419adeb4af1","system_id":"levelo_inurba_marseille","lat":43.29042,"lon":5.356,"is_reserved":false,"is_disabled":false,"rental_uris":{"android":"levelo://app?vid=02c642d0-bab7-4205-b1fb-4419adeb4af1","ios":"levelo://app?vid=02c642d0-bab7-4205-b1fb-4419adeb4af1"},"vehicle_type_id":"4","last_reported":1742936920,"current_range_meters":6400,"station_id":"","pricing_plan_id":"cebpf4jnsgd1na2vs0mg"},{"bike_id":"f04db20b-5bef-47d9-b3ae-2950313b2d7a","system_id":"levelo_inurba_marseille","lat":43.29845,"lon":5.36279,"is_reserved":false,"is_disabled":false,"rental_uris":{"android":"levelo://app?vid=f04db20b-5bef-47d9-b3ae-2950313b2d7a","ios":"levelo://app?vid=f04db20b-5bef-47d9-b3ae-2950313b2d7a"},"vehicle_type_id":"4","last_reported":1742936920,"current_range_meters":6400,"station_id":"ce4bgpp2rcd13ifvqc3g","pricing_plan_id":"cebpf4jnsgd1na2vs0mg"},{"bike_id":"98e6b643-9e79-4281-82fc-1dd90b5c1256","system_id":"levelo_inurba_marseille","lat":43.28682,"lon":5.38661,"is_reserved":false,"is_disabled":false,"rental_uris":{"android":"levelo://app?vid=98e6b643-9e79-4281-82fc-1dd90b5c1256","ios":"levelo://app?vid=98e6b643-9e79-4281-82fc-1dd90b5c1256"},"vehicle_type_id":"4","last_reported":1742936920,"current_range_meters":6800,"station_id":"ce4bh492rcd13ifvqdug","pricing_plan_id":"cebpf4jnsgd1na2vs0mg"},{"bike_id":"fbeeeef1-bfc7-4294-a0dd-3418d265d8e6","system_id":"levelo_inurba_marseille","lat":43.30092,"lon":5.39072,"is_reserved":false,"is_disabled":false,"rental_uris":{"android":"levelo://app?vid=fbeeeef1-bfc7-4294-a0dd-3418d265d8e6","ios":"levelo://app?vid=fbeeeef1-bfc7-4294-a0dd-3418d265d8e6"},"vehicle_type_id":"4","last_reported":1742936920,"current_range_meters":6800,"station_id":"ce4bh192rcd13ifvqdb0","pricing_plan_id":"cebpf4jnsgd1na2vs0mg"},{"bike_id":"66f69882-9bc0-4f69-af42-1e4faa3ed134","system_id":"levelo_inurba_marseille","lat":43.29909,"lon":5.43647,"is_reserved":false,"is_disabled":false,"rental_uris":{"android":"levelo://app?vid=66f69882-9bc0-4f69-af42-1e4faa3ed134","ios":"levelo://app?vid=66f69882-9bc0-4f69-af42-1e4faa3ed134"},"vehicle_type_id":"4","last_reported":1742936920,"current_range_meters":6800,"station_id":"ce4bhpp2rcd13ifvqhfg","pricing_plan_id":"cebpf4jnsgd1na2vs0mg"},{"bike_id":"5eb00e60-b5d9-4a65-9bba-344db36c1e04","system_id":"levelo_inurba_marseille","lat":43.25832,"lon":5.3941,"is_reserved":false,"is_disabled":false,"rental_uris":{"android":"levelo://app?vid=5eb00e60-b5d9-4a65-9bba-344db36c1e04","ios":"levelo://app?vid=5eb00e60-b5d9-4a65-9bba-344db36c1e04"},"vehicle_type_id":"4","last_reported":1742936920,"current_range_meters":6800,"station_id":"ce4bhip2rcd13ifvqft0","pricing_plan_id":"cebpf4jnsgd1na2vs0mg"},{"bike_id":"f831d07a-b749-41fb-8fc2-0a1f64ceb199","system_id":"levelo_inurba_marseille","lat":43.28458,"lon":5.3588,"is_reserved":false,"is_disabled":false,"rental_uris":{"android":"levelo://app?vid=f831d07a-b749-41fb-8fc2-0a1f64ceb199","ios":"levelo://app?vid=f831d07a-b749-41fb-8fc2-0a1f64ceb199"},"vehicle_type_id":"4","last_reported":1742936920,"current_range_meters":6800,"station_id":"ce4bhah2rcd13ifvqei0","pricing_plan_id":"cebpf4jnsgd1na2vs0mg"},{"bike_id":"e3e58b7d-a745-42d7-bf54-3a94925681f1","system_id":"levelo_inurba_marseille","lat":43.23203,"lon":5.3555,"is_reserved":false,"is_disabled":false,"rental_uris":{"android":"levelo://app?vid=e3e58b7d-a745-42d7-bf54-3a94925681f1","ios":"levelo://app?vid=e3e58b7d-a745-42d7-bf54-3a94925681f1"},"vehicle_type_id":"4","last_reported":1742936920,"current_range_meters":6800,"station_id":"ce4bhu92rcd13ifvqi70","pricing_plan_id":"cebpf4jnsgd1na2vs0mg"},{"bike_id":"d98963b0-d43f-4c38-8420-1b1a8af0785c","system_id":"levelo_inurba_marseille","lat":43.27423,"lon":5.39421,"is_reserved":false,"is_disabled":false,"rental_uris":{"android":"levelo://app?vid=d98963b0-d43f-4c38-8420-1b1a8af0785c","ios":"levelo://app?vid=d98963b0-d43f-4c38-8420-1b1a8af0785c"},"vehicle_type_id":"4","last_reported":1742936920,"current_range_meters":6800,"station_id":"ce4bhdp2rcd13ifvqf20","pricing_plan_id":"cebpf4jnsgd1na2vs0mg"},{"bike_id":"5adaf5b4-d9f7-4d57-a355-7701dec07eb6","system_id":"levelo_inurba_marseille","lat":43.29418,"lon":5.38625,"is_reserved":false,"is_disabled":false,"rental_uris":{"android":"levelo://app?vid=5adaf5b4-d9f7-4d57-a355-7701dec07eb6","ios":"levelo://app?vid=5adaf5b4-d9f7-4d57-a355-7701dec07eb6"},"vehicle_type_id":"4","last_reported":1742936920,"current_range_meters":6800,"station_id":"ce4bh2h2rcd13ifvqdh0","pricing_plan_id":"cebpf4jnsgd1na2vs0mg"},{"bike_id":"6ca4d0fe-e59c-4653-b8db-d24f83d6e038","system_id":"levelo_inurba_marseille","lat":43.3022,"lon":5.39474,"is_reserved":false,"is_disabled":false,"rental_uris":{"android":"levelo://app?vid=6ca4d0fe-e59c-4653-b8db-d24f83d6e038","ios":"levelo://app?vid=6ca4d0fe-e59c-4653-b8db-d24f83d6e038"},"vehicle_type_id":"4","last_reported":1742936920,"current_range_meters":6800,"station_id":"ce4bh0p2rcd13ifvqd70","pricing_plan_id":"cebpf4jnsgd1na2vs0mg"},{"bike_id":"bc5ee50c-0ee0-4b06-9aa0-2ff083787a62","system_id":"levelo_inurba_marseille","lat":43.3171,"lon":5.43693,"is_reserved":false,"is_disabled":false,"rental_uris":{"android":"levelo://app?vid=bc5ee50c-0ee0-4b06-9aa0-2ff083787a62","ios":"levelo://app?vid=bc5ee50c-0ee0-4b06-9aa0-2ff083787a62"},"vehicle_type_id":"4","last_reported":1742936920,"current_range_meters":6800,"station_id":"ce4bhp92rcd13ifvqhcg","pricing_plan_id":"cebpf4jnsgd1na2vs0mg"},{"bike_id":"bc9e59da-24a5-43b2-9344-e686036c5b53","system_id":"levelo_inurba_marseille","lat":43.260566,"lon":5.393956,"is_reserved":false,"is_disabled":false,"rental_uris":{"android":"levelo://app?vid=bc9e59da-24a5-43b2-9344-e686036c5b53","ios":"levelo://app?vid=bc9e59da-24a5-43b2-9344-e686036c5b53"},"vehicle_type_id":"4","last_reported":1742936920,"current_range_meters":6800,"station_id":"ce4bhh92rcd13ifvqfj0","pricing_plan_id":"cebpf4jnsgd1na2vs0mg"},{"bike_id":"232170bd-39f4-44b1-8888-d77bca3234b0","system_id":"levelo_inurba_marseille","lat":43.25836,"lon":5.39427,"is_reserved":false,"is_disabled":false,"rental_uris":{"android":"levelo://app?vid=232170bd-39f4-44b1-8888-d77bca3234b0","ios":"levelo://app?vid=232170bd-39f4-44b1-8888-d77bca3234b0"},"vehicle_type_id":"4","last_reported":1742936920,"current_range_meters":7200,"station_id":"ce4bhip2rcd13ifvqft0","pricing_plan_id":"cebpf4jnsgd1na2vs0mg"},{"bike_id":"ee6a44e0-6615-460c-b024-223364332e9e","system_id":"levelo_inurba_marseille","lat":43.293679,"lon":5.378369,"is_reserved":false,"is_disabled":false,"rental_uris":{"android":"levelo://app?vid=ee6a44e0-6615-460c-b024-223364332e9e","ios":"levelo://app?vid=ee6a44e0-6615-460c-b024-223364332e9e"},"vehicle_type_id":"4","last_reported":1742936920,"current_range_meters":7200,"station_id":"ce4bh392rcd13ifvqdl0","pricing_plan_id":"cebpf4jnsgd1na2vs0mg"},{"bike_id":"ddf6cb6f-e318-4ef7-9a4d-5581365f4cae","system_id":"levelo_inurba_marseille","lat":43.280369,"lon":5.369439,"is_reserved":false,"is_disabled":false,"rental_uris":{"android":"levelo://app?vid=ddf6cb6f-e318-4ef7-9a4d-5581365f4cae","ios":"levelo://app?vid=ddf6cb6f-e318-4ef7-9a4d-5581365f4cae"},"vehicle_type_id":"4","last_reported":1742936920,"current_range_meters":7200,"station_id":"ce4bha12rcd13ifvqef0","pricing_plan_id":"cebpf4jnsgd1na2vs0mg"},{"bike_id":"a0d4632a-7a87-4031-aeeb-061ca0feaca6","system_id":"levelo_inurba_marseille","lat":43.23958,"lon":5.36636,"is_reserved":false,"is_disabled":false,"rental_uris":{"android":"levelo://app?vid=a0d4632a-7a87-4031-aeeb-061ca0feaca6","ios":"levelo://app?vid=a0d4632a-7a87-4031-aeeb-061ca0feaca6"},"vehicle_type_id":"4","last_reported":1742936920,"current_range_meters":7200,"station_id":"ce4bhi12rcd13ifvqfp0","pricing_plan_id":"cebpf4jnsgd1na2vs0mg"},{"bike_id":"673c2d60-6c96-42e2-b410-16cdc3432a03","system_id":"levelo_inurba_marseille","lat":43.29971,"lon":5.37175,"is_reserved":false,"is_disabled":false,"rental_uris":{"android":"levelo://app?vid=673c2d60-6c96-42e2-b410-16cdc3432a03","ios":"levelo://app?vid=673c2d60-6c96-42e2-b410-16cdc3432a03"},"vehicle_type_id":"4","last_reported":1742936920,"current_range_meters":7200,"station_id":"ce4bgr92rcd13ifvqc7g","pricing_plan_id":"cebpf4jnsgd1na2vs0mg"},{"bike_id":"5ebe5120-74f7-4178-9974-c52090176f15","system_id":"levelo_inurba_marseille","lat":43.28133,"lon":5.42621,"is_reserved":false,"is_disabled":false,"rental_uris":{"android":"levelo://app?vid=5ebe5120-74f7-4178-9974-c52090176f15","ios":"levelo://app?vid=5ebe5120-74f7-4178-9974-c52090176f15"},"vehicle_type_id":"4","last_reported":1742936920,"current_range_meters":7200,"station_id":"ce4bhnh2rcd13ifvqgug","pricing_plan_id":"cebpf4jnsgd1na2vs0mg"},{"bike_id":"c28932a0-1d46-4fdf-8a30-865c10785be7","system_id":"levelo_inurba_marseille","lat":43.28407,"lon":5.37521,"is_reserved":false,"is_disabled":false,"rental_uris":{"android":"levelo://app?vid=c28932a0-1d46-4fdf-8a30-865c10785be7","ios":"levelo://app?vid=c28932a0-1d46-4fdf-8a30-865c10785be7"},"vehicle_type_id":"4","last_reported":1742936920,"current_range_meters":7200,"station_id":"ce4bh412rcd13ifvqds0","pricing_plan_id":"cebpf4jnsgd1na2vs0mg"},{"bike_id":"9e1900ad-e046-4f32-a94e-e5e6f986be4d","system_id":"levelo_inurba_marseille","lat":43.248191,"lon":5.37458,"is_reserved":false,"is_disabled":false,"rental_uris":{"android":"levelo://app?vid=9e1900ad-e046-4f32-a94e-e5e6f986be4d","ios":"levelo://app?vid=9e1900ad-e046-4f32-a94e-e5e6f986be4d"},"vehicle_type_id":"4","last_reported":1742936920,"current_range_meters":7200,"station_id":"ce4bhgh2rcd13ifvqfb0","pricing_plan_id":"cebpf4jnsgd1na2vs0mg"},{"bike_id":"ef43d9bd-e531-4a59-b8a9-fdc80b41fa34","system_id":"levelo_inurba_marseille","lat":43.31274,"lon":5.401738,"is_reserved":false,"is_disabled":true,"rental_uris":{"android":"levelo://app?vid=ef43d9bd-e531-4a59-b8a9-fdc80b41fa34","ios":"levelo://app?vid=ef43d9bd-e531-4a59-b8a9-fdc80b41fa34"},"vehicle_type_id":"4","last_reported":1742936920,"current_range_meters":7200,"station_id":"ce4bh092rcd13ifvqd30","pricing_plan_id":"cebpf4jnsgd1na2vs0mg"},{"bike_id":"956fc08e-5d98-46b2-bb5a-fa8747509ed6","system_id":"levelo_inurba_marseille","lat":43.31988,"lon":5.38147,"is_reserved":false,"is_disabled":false,"rental_uris":{"android":"levelo://app?vid=956fc08e-5d98-46b2-bb5a-fa8747509ed6","ios":"levelo://app?vid=956fc08e-5d98-46b2-bb5a-fa8747509ed6"},"vehicle_type_id":"4","last_reported":1742936920,"current_range_meters":7200,"station_id":"ce4bhr12rcd13ifvqhpg","pricing_plan_id":"cebpf4jnsgd1na2vs0mg"},{"bike_id":"eebd52e6-424b-4030-88df-298ba6052125","system_id":"levelo_inurba_marseille","lat":43.31379,"lon":5.38505,"is_reserved":false,"is_disabled":false,"rental_uris":{"android":"levelo://app?vid=eebd52e6-424b-4030-88df-298ba6052125","ios":"levelo://app?vid=eebd52e6-424b-4030-88df-298ba6052125"},"vehicle_type_id":"4","last_reported":1742936920,"current_range_meters":7200,"station_id":"ce4bgt92rcd13ifvqcf0","pricing_plan_id":"cebpf4jnsgd1na2vs0mg"},{"bike_id":"4e4b00f1-770b-4273-9841-0124a825615a","system_id":"levelo_inurba_marseille","lat":43.28095,"lon":5.37846,"is_reserved":false,"is_disabled":false,"rental_uris":{"android":"levelo://app?vid=4e4b00f1-770b-4273-9841-0124a825615a","ios":"levelo://app?vid=4e4b00f1-770b-4273-9841-0124a825615a"},"vehicle_type_id":"4","last_reported":1742936920,"current_range_meters":7200,"station_id":"ce4bha12rcd13ifvqee0","pricing_plan_id":"cebpf4jnsgd1na2vs0mg"},{"bike_id":"e06fd3a0-02a6-413f-81de-817b7da619bd","system_id":"levelo_inurba_marseille","lat":43.31279,"lon":5.40152,"is_reserved":false,"is_disabled":false,"rental_uris":{"android":"levelo://app?vid=e06fd3a0-02a6-413f-81de-817b7da619bd","ios":"levelo://app?vid=e06fd3a0-02a6-413f-81de-817b7da619bd"},"vehicle_type_id":"4","last_reported":1742936920,"current_range_meters":7200,"station_id":"ce4bh092rcd13ifvqd30","pricing_plan_id":"cebpf4jnsgd1na2vs0mg"},{"bike_id":"63e8dafc-3749-4a42-ab44-2e79325ba0f1","system_id":"levelo_inurba_marseille","lat":43.25078,"lon":5.39535,"is_reserved":false,"is_disabled":false,"rental_uris":{"android":"levelo://app?vid=63e8dafc-3749-4a42-ab44-2e79325ba0f1","ios":"levelo://app?vid=63e8dafc-3749-4a42-ab44-2e79325ba0f1"},"vehicle_type_id":"4","last_reported":1742936920,"current_range_meters":7200,"station_id":"ce4bhm12rcd13ifvqgkg","pricing_plan_id":"cebpf4jnsgd1na2vs0mg"},{"bike_id":"38e476a3-7fa7-42ff-bc10-2fcb40220abd","system_id":"levelo_inurba_marseille","lat":43.23203,"lon":5.35555,"is_reserved":false,"is_disabled":false,"rental_uris":{"android":"levelo://app?vid=38e476a3-7fa7-42ff-bc10-2fcb40220abd","ios":"levelo://app?vid=38e476a3-7fa7-42ff-bc10-2fcb40220abd"},"vehicle_type_id":"4","last_reported":1742936920,"current_range_meters":7200,"station_id":"ce4bhu92rcd13ifvqi70","pricing_plan_id":"cebpf4jnsgd1na2vs0mg"},{"bike_id":"c996a37b-9ff2-42fb-bd96-3404b8def9e4","system_id":"levelo_inurba_marseille","lat":43.29443,"lon":5.3975,"is_reserved":false,"is_disabled":false,"rental_uris":{"android":"levelo://app?vid=c996a37b-9ff2-42fb-bd96-3404b8def9e4","ios":"levelo://app?vid=c996a37b-9ff2-42fb-bd96-3404b8def9e4"},"vehicle_type_id":"4","last_reported":1742936920,"current_range_meters":7200,"station_id":"ce4bh3h2rcd13ifvqdo0","pricing_plan_id":"cebpf4jnsgd1na2vs0mg"},{"bike_id":"03aadb34-c1d1-46d5-985f-1ab48f3576f1","system_id":"levelo_inurba_marseille","lat":43.250027,"lon":5.389239,"is_reserved":false,"is_disabled":false,"rental_uris":{"android":"levelo://app?vid=03aadb34-c1d1-46d5-985f-1ab48f3576f1","ios":"levelo://app?vid=03aadb34-c1d1-46d5-985f-1ab48f3576f1"},"vehicle_type_id":"4","last_reported":1742936920,"current_range_meters":7200,"station_id":"ce4bhgp2rcd13ifvqfd0","pricing_plan_id":"cebpf4jnsgd1na2vs0mg"},{"bike_id":"2a00e69f-e8f0-4293-a71f-9f6c011d4f23","system_id":"levelo_inurba_marseille","lat":43.250175,"lon":5.38921,"is_reserved":false,"is_disabled":false,"rental_uris":{"android":"levelo://app?vid=2a00e69f-e8f0-4293-a71f-9f6c011d4f23","ios":"levelo://app?vid=2a00e69f-e8f0-4293-a71f-9f6c011d4f23"},"vehicle_type_id":"4","last_reported":1742936920,"current_range_meters":8000,"station_id":"ce4bhgp2rcd13ifvqfd0","pricing_plan_id":"cebpf4jnsgd1na2vs0mg"},{"bike_id":"497957ac-f634-47bb-825f-bbffb781347d","system_id":"levelo_inurba_marseille","lat":43.30885,"lon":5.39653,"is_reserved":false,"is_disabled":false,"rental_uris":{"android":"levelo://app?vid=497957ac-f634-47bb-825f-bbffb781347d","ios":"levelo://app?vid=497957ac-f634-47bb-825f-bbffb781347d"},"vehicle_type_id":"4","last_reported":1742936920,"current_range_meters":8000,"station_id":"ce4bh012rcd13ifvqcv0","pricing_plan_id":"cebpf4jnsgd1na2vs0mg"},{"bike_id":"c9578b47-9857-4396-852d-050cd99a85f0","system_id":"levelo_inurba_marseille","lat":43.2468,"lon":5.38168,"is_reserved":false,"is_disabled":false,"rental_uris":{"android":"levelo://app?vid=c9578b47-9857-4396-852d-050cd99a85f0","ios":"levelo://app?vid=c9578b47-9857-4396-852d-050cd99a85f0"},"vehicle_type_id":"4","last_reported":1742936920,"current_range_meters":8000,"station_id":"ce4bhih2rcd13ifvqfr0","pricing_plan_id":"cebpf4jnsgd1na2vs0mg"},{"bike_id":"15e3e5eb-d835-4728-a546-750b58ac5259","system_id":"levelo_inurba_marseille","lat":43.31766,"lon":5.38999,"is_reserved":false,"is_disabled":false,"rental_uris":{"android":"levelo://app?vid=15e3e5eb-d835-4728-a546-750b58ac5259","ios":"levelo://app?vid=15e3e5eb-d835-4728-a546-750b58ac5259"},"vehicle_type_id":"4","last_reported":1742936920,"current_range_meters":8000,"station_id":"ce4bhqp2rcd13ifvqhng","pricing_plan_id":"cebpf4jnsgd1na2vs0mg"},{"bike_id":"463a4df3-df32-4854-9380-c2e9927dee65","system_id":"levelo_inurba_marseille","lat":43.323631,"lon":5.388849,"is_reserved":false,"is_disabled":false,"rental_uris":{"android":"levelo://app?vid=463a4df3-df32-4854-9380-c2e9927dee65","ios":"levelo://app?vid=463a4df3-df32-4854-9380-c2e9927dee65"},"vehicle_type_id":"4","last_reported":1742936920,"current_range_meters":8000,"station_id":"ce4bhqp2rcd13ifvqhog","pricing_plan_id":"cebpf4jnsgd1na2vs0mg"},{"bike_id":"b7d700cc-e80e-461a-a5b3-d22a71e707a9","system_id":"levelo_inurba_marseille","lat":43.29438,"lon":5.38576,"is_reserved":false,"is_disabled":false,"rental_uris":{"android":"levelo://app?vid=b7d700cc-e80e-461a-a5b3-d22a71e707a9","ios":"levelo://app?vid=b7d700cc-e80e-461a-a5b3-d22a71e707a9"},"vehicle_type_id":"4","last_reported":1742936920,"current_range_meters":8000,"station_id":"ce4bh2h2rcd13ifvqdh0","pricing_plan_id":"cebpf4jnsgd1na2vs0mg"},{"bike_id":"16e3790f-41b6-400e-8d88-6751ca433300","system_id":"levelo_inurba_marseille","lat":43.24989,"lon":5.38943,"is_reserved":false,"is_disabled":false,"rental_uris":{"android":"levelo://app?vid=16e3790f-41b6-400e-8d88-6751ca433300","ios":"levelo://app?vid=16e3790f-41b6-400e-8d88-6751ca433300"},"vehicle_type_id":"4","last_reported":1742936920,"current_range_meters":8000,"station_id":"ce4bhgp2rcd13ifvqfd0","pricing_plan_id":"cebpf4jnsgd1na2vs0mg"},{"bike_id":"6c40bd81-af13-42e4-8827-fa8af6ebc8cc","system_id":"levelo_inurba_marseille","lat":43.24817,"lon":5.37442,"is_reserved":false,"is_disabled":false,"rental_uris":{"android":"levelo://app?vid=6c40bd81-af13-42e4-8827-fa8af6ebc8cc","ios":"levelo://app?vid=6c40bd81-af13-42e4-8827-fa8af6ebc8cc"},"vehicle_type_id":"4","last_reported":1742936920,"current_range_meters":8000,"station_id":"ce4bhgh2rcd13ifvqfb0","pricing_plan_id":"cebpf4jnsgd1na2vs0mg"},{"bike_id":"3a2d0c27-58a3-45f9-bf1c-f84d25cb8c4a","system_id":"levelo_inurba_marseille","lat":43.27909,"lon":5.38012,"is_reserved":false,"is_disabled":false,"rental_uris":{"android":"levelo://app?vid=3a2d0c27-58a3-45f9-bf1c-f84d25cb8c4a","ios":"levelo://app?vid=3a2d0c27-58a3-45f9-bf1c-f84d25cb8c4a"},"vehicle_type_id":"4","last_reported":1742936920,"current_range_meters":8000,"station_id":"ce4bhf92rcd13ifvqf50","pricing_plan_id":"cebpf4jnsgd1na2vs0mg"},{"bike_id":"c353c957-fbb8-408a-9097-46c8d6b68074","system_id":"levelo_inurba_marseille","lat":43.24218,"lon":5.39722,"is_reserved":false,"is_disabled":false,"rental_uris":{"android":"levelo://app?vid=c353c957-fbb8-408a-9097-46c8d6b68074","ios":"levelo://app?vid=c353c957-fbb8-408a-9097-46c8d6b68074"},"vehicle_type_id":"4","last_reported":1742936920,"current_range_meters":8000,"station_id":"ce4bhn12rcd13ifvqgpg","pricing_plan_id":"cebpf4jnsgd1na2vs0mg"},{"bike_id":"b139ad69-4570-465e-8346-ddb3ccb71509","system_id":"levelo_inurba_marseille","lat":43.29089,"lon":5.37126,"is_reserved":false,"is_disabled":false,"rental_uris":{"android":"levelo://app?vid=b139ad69-4570-465e-8346-ddb3ccb71509","ios":"levelo://app?vid=b139ad69-4570-465e-8346-ddb3ccb71509"},"vehicle_type_id":"4","last_reported":1742936920,"current_range_meters":8000,"station_id":"ce4bh5p2rcd13ifvqe4g","pricing_plan_id":"cebpf4jnsgd1na2vs0mg"},{"bike_id":"a57c03b7-4d8a-4199-a3fd-94a5b22d2de8","system_id":"levelo_inurba_marseille","lat":43.30146,"lon":5.38754,"is_reserved":false,"is_disabled":false,"rental_uris":{"android":"levelo://app?vid=a57c03b7-4d8a-4199-a3fd-94a5b22d2de8","ios":"levelo://app?vid=a57c03b7-4d8a-4199-a3fd-94a5b22d2de8"},"vehicle_type_id":"4","last_reported":1742936920,"current_range_meters":8000,"station_id":"ce4bghh2rcd13ifvqb60","pricing_plan_id":"cebpf4jnsgd1na2vs0mg"},{"bike_id":"126afac7-07b8-4363-b7f1-a74ecff6814f","system_id":"levelo_inurba_marseille","lat":43.27939,"lon":5.38726,"is_reserved":false,"is_disabled":false,"rental_uris":{"android":"levelo://app?vid=126afac7-07b8-4363-b7f1-a74ecff6814f","ios":"levelo://app?vid=126afac7-07b8-4363-b7f1-a74ecff6814f"},"vehicle_type_id":"4","last_reported":1742936920,"current_range_meters":8000,"station_id":"ce4bhg12rcd13ifvqf80","pricing_plan_id":"cebpf4jnsgd1na2vs0mg"},{"bike_id":"2a99ecb7-4bf0-4c00-89bb-11ff019b8a6d","system_id":"levelo_inurba_marseille","lat":43.22968,"lon":5.35374,"is_reserved":false,"is_disabled":false,"rental_uris":{"android":"levelo://app?vid=2a99ecb7-4bf0-4c00-89bb-11ff019b8a6d","ios":"levelo://app?vid=2a99ecb7-4bf0-4c00-89bb-11ff019b8a6d"},"vehicle_type_id":"4","last_reported":1742936920,"current_range_meters":8400,"station_id":"cpo3532slgdg3j2ikp40","pricing_plan_id":"cebpf4jnsgd1na2vs0mg"},{"bike_id":"e3f76d45-4904-44a7-aac2-e04832e991bb","system_id":"levelo_inurba_marseille","lat":43.29954,"lon":5.41325,"is_reserved":false,"is_disabled":true,"rental_uris":{"android":"levelo://app?vid=e3f76d45-4904-44a7-aac2-e04832e991bb","ios":"levelo://app?vid=e3f76d45-4904-44a7-aac2-e04832e991bb"},"vehicle_type_id":"4","last_reported":1742936920,"current_range_meters":8400,"station_id":"ce4bhp12rcd13ifvqh9g","pricing_plan_id":"cebpf4jnsgd1na2vs0mg"},{"bike_id":"1826a70b-7eb4-4fa4-a0ab-5bd418a194c7","system_id":"levelo_inurba_marseille","lat":43.32381,"lon":5.38885,"is_reserved":false,"is_disabled":false,"rental_uris":{"android":"levelo://app?vid=1826a70b-7eb4-4fa4-a0ab-5bd418a194c7","ios":"levelo://app?vid=1826a70b-7eb4-4fa4-a0ab-5bd418a194c7"},"vehicle_type_id":"4","last_reported":1742936920,"current_range_meters":8400,"station_id":"ce4bhqp2rcd13ifvqhog","pricing_plan_id":"cebpf4jnsgd1na2vs0mg"},{"bike_id":"1a3c5e1e-498d-4bf5-b5bd-2116c210ebf5","system_id":"levelo_inurba_marseille","lat":43.243935,"lon":5.370556,"is_reserved":false,"is_disabled":false,"rental_uris":{"android":"levelo://app?vid=1a3c5e1e-498d-4bf5-b5bd-2116c210ebf5","ios":"levelo://app?vid=1a3c5e1e-498d-4bf5-b5bd-2116c210ebf5"},"vehicle_type_id":"4","last_reported":1742936920,"current_range_meters":8400,"station_id":"ce4bhhh2rcd13ifvqfk0","pricing_plan_id":"cebpf4jnsgd1na2vs0mg"},{"bike_id":"05684a85-59b1-4c66-9ec5-6fb0b7ac9703","system_id":"levelo_inurba_marseille","lat":43.31073,"lon":5.38336,"is_reserved":false,"is_disabled":false,"rental_uris":{"android":"levelo://app?vid=05684a85-59b1-4c66-9ec5-6fb0b7ac9703","ios":"levelo://app?vid=05684a85-59b1-4c66-9ec5-6fb0b7ac9703"},"vehicle_type_id":"4","last_reported":1742936920,"current_range_meters":8400,"station_id":"ce4bgv92rcd13ifvqcr0","pricing_plan_id":"cebpf4jnsgd1na2vs0mg"},{"bike_id":"7ac4aaa5-bde4-42ab-9be4-702ba640014e","system_id":"levelo_inurba_marseille","lat":43.29033,"lon":5.39945,"is_reserved":false,"is_disabled":false,"rental_uris":{"android":"levelo://app?vid=7ac4aaa5-bde4-42ab-9be4-702ba640014e","ios":"levelo://app?vid=7ac4aaa5-bde4-42ab-9be4-702ba640014e"},"vehicle_type_id":"4","last_reported":1742936920,"current_range_meters":8400,"station_id":"ce4bh392rcd13ifvqdm0","pricing_plan_id":"cebpf4jnsgd1na2vs0mg"},{"bike_id":"8c54a374-20e2-4ef3-ab2d-9e60eb6f65a4","system_id":"levelo_inurba_marseille","lat":43.29541,"lon":5.38536,"is_reserved":false,"is_disabled":false,"rental_uris":{"android":"levelo://app?vid=8c54a374-20e2-4ef3-ab2d-9e60eb6f65a4","ios":"levelo://app?vid=8c54a374-20e2-4ef3-ab2d-9e60eb6f65a4"},"vehicle_type_id":"4","last_reported":1742936920,"current_range_meters":8400,"station_id":"ce4bgih2rcd13ifvqba0","pricing_plan_id":"cebpf4jnsgd1na2vs0mg"},{"bike_id":"737b3711-1b92-493c-8220-60bf91bb8d63","system_id":"levelo_inurba_marseille","lat":43.31336,"lon":5.37464,"is_reserved":false,"is_disabled":false,"rental_uris":{"android":"levelo://app?vid=737b3711-1b92-493c-8220-60bf91bb8d63","ios":"levelo://app?vid=737b3711-1b92-493c-8220-60bf91bb8d63"},"vehicle_type_id":"4","last_reported":1742936920,"current_range_meters":8400,"station_id":"","pricing_plan_id":"cebpf4jnsgd1na2vs0mg"},{"bike_id":"f231fce1-4e45-4e91-9f3a-d048500c7ded","system_id":"levelo_inurba_marseille","lat":43.30888,"lon":5.39639,"is_reserved":false,"is_disabled":false,"rental_uris":{"android":"levelo://app?vid=f231fce1-4e45-4e91-9f3a-d048500c7ded","ios":"levelo://app?vid=f231fce1-4e45-4e91-9f3a-d048500c7ded"},"vehicle_type_id":"4","last_reported":1742936920,"current_range_meters":8400,"station_id":"ce4bh012rcd13ifvqcv0","pricing_plan_id":"cebpf4jnsgd1na2vs0mg"},{"bike_id":"d0ce6a4c-8c1a-4117-b620-bb8816808dbc","system_id":"levelo_inurba_marseille","lat":43.23964,"lon":5.36644,"is_reserved":false,"is_disabled":false,"rental_uris":{"android":"levelo://app?vid=d0ce6a4c-8c1a-4117-b620-bb8816808dbc","ios":"levelo://app?vid=d0ce6a4c-8c1a-4117-b620-bb8816808dbc"},"vehicle_type_id":"4","last_reported":1742936920,"current_range_meters":8400,"station_id":"ce4bhi12rcd13ifvqfp0","pricing_plan_id":"cebpf4jnsgd1na2vs0mg"},{"bike_id":"cfe5bab0-958f-480d-a6a4-76e980432114","system_id":"levelo_inurba_marseille","lat":43.33021,"lon":5.39029,"is_reserved":false,"is_disabled":false,"rental_uris":{"android":"levelo://app?vid=cfe5bab0-958f-480d-a6a4-76e980432114","ios":"levelo://app?vid=cfe5bab0-958f-480d-a6a4-76e980432114"},"vehicle_type_id":"4","last_reported":1742936920,"current_range_meters":8400,"station_id":"ce4bhr92rcd13ifvqhrg","pricing_plan_id":"cebpf4jnsgd1na2vs0mg"},{"bike_id":"b6fd1ec3-47b2-486f-8b84-f71e2b87ecef","system_id":"levelo_inurba_marseille","lat":43.31086,"lon":5.42425,"is_reserved":false,"is_disabled":true,"rental_uris":{"android":"levelo://app?vid=b6fd1ec3-47b2-486f-8b84-f71e2b87ecef","ios":"levelo://app?vid=b6fd1ec3-47b2-486f-8b84-f71e2b87ecef"},"vehicle_type_id":"4","last_reported":1742936920,"current_range_meters":8400,"station_id":"ce4bhp92rcd13ifvqhag","pricing_plan_id":"cebpf4jnsgd1na2vs0mg"},{"bike_id":"8f208df7-81e0-45c5-bd98-a49c85a38fa2","system_id":"levelo_inurba_marseille","lat":43.3031,"lon":5.36901,"is_reserved":false,"is_disabled":false,"rental_uris":{"android":"levelo://app?vid=8f208df7-81e0-45c5-bd98-a49c85a38fa2","ios":"levelo://app?vid=8f208df7-81e0-45c5-bd98-a49c85a38fa2"},"vehicle_type_id":"4","last_reported":1742936920,"current_range_meters":8400,"station_id":"ce4bgqh2rcd13ifvqc5g","pricing_plan_id":"cebpf4jnsgd1na2vs0mg"},{"bike_id":"a4da66a0-8222-41b6-b7e9-87f6ed2f0427","system_id":"levelo_inurba_marseille","lat":43.284274,"lon":5.375277,"is_reserved":false,"is_disabled":false,"rental_uris":{"android":"levelo://app?vid=a4da66a0-8222-41b6-b7e9-87f6ed2f0427","ios":"levelo://app?vid=a4da66a0-8222-41b6-b7e9-87f6ed2f0427"},"vehicle_type_id":"4","last_reported":1742936920,"current_range_meters":8400,"station_id":"ce4bh412rcd13ifvqds0","pricing_plan_id":"cebpf4jnsgd1na2vs0mg"},{"bike_id":"baa5490f-75ed-4a89-b20d-d28fd6ff3a39","system_id":"levelo_inurba_marseille","lat":43.317182,"lon":5.437092,"is_reserved":false,"is_disabled":false,"rental_uris":{"android":"levelo://app?vid=baa5490f-75ed-4a89-b20d-d28fd6ff3a39","ios":"levelo://app?vid=baa5490f-75ed-4a89-b20d-d28fd6ff3a39"},"vehicle_type_id":"4","last_reported":1742936920,"current_range_meters":8400,"station_id":"ce4bhp92rcd13ifvqhcg","pricing_plan_id":"cebpf4jnsgd1na2vs0mg"},{"bike_id":"4c8c6174-794c-4225-aa51-8a7a304903b9","system_id":"levelo_inurba_marseille","lat":43.31745,"lon":5.39017,"is_reserved":false,"is_disabled":false,"rental_uris":{"android":"levelo://app?vid=4c8c6174-794c-4225-aa51-8a7a304903b9","ios":"levelo://app?vid=4c8c6174-794c-4225-aa51-8a7a304903b9"},"vehicle_type_id":"4","last_reported":1742936920,"current_range_meters":8800,"station_id":"ce4bhqp2rcd13ifvqhng","pricing_plan_id":"cebpf4jnsgd1na2vs0mg"},{"bike_id":"2f3e2a92-1301-4a27-8eaa-7b0ea525530e","system_id":"levelo_inurba_marseille","lat":43.31728,"lon":5.43699,"is_reserved":false,"is_disabled":false,"rental_uris":{"android":"levelo://app?vid=2f3e2a92-1301-4a27-8eaa-7b0ea525530e","ios":"levelo://app?vid=2f3e2a92-1301-4a27-8eaa-7b0ea525530e"},"vehicle_type_id":"4","last_reported":1742936920,"current_range_meters":8800,"station_id":"ce4bhp92rcd13ifvqhcg","pricing_plan_id":"cebpf4jnsgd1na2vs0mg"},{"bike_id":"4a3a945a-ccc1-4bbb-8b17-a05308574d00","system_id":"levelo_inurba_marseille","lat":43.31486,"lon":5.37308,"is_reserved":false,"is_disabled":false,"rental_uris":{"android":"levelo://app?vid=4a3a945a-ccc1-4bbb-8b17-a05308574d00","ios":"levelo://app?vid=4a3a945a-ccc1-4bbb-8b17-a05308574d00"},"vehicle_type_id":"4","last_reported":1742936920,"current_range_meters":8800,"station_id":"ce4bgt12rcd13ifvqcd0","pricing_plan_id":"cebpf4jnsgd1na2vs0mg"},{"bike_id":"ada4ba7b-2dc8-47ef-a5a8-9dc4e4bd1916","system_id":"levelo_inurba_marseille","lat":43.29789,"lon":5.37689,"is_reserved":false,"is_disabled":false,"rental_uris":{"android":"levelo://app?vid=ada4ba7b-2dc8-47ef-a5a8-9dc4e4bd1916","ios":"levelo://app?vid=ada4ba7b-2dc8-47ef-a5a8-9dc4e4bd1916"},"vehicle_type_id":"4","last_reported":1742936920,"current_range_meters":8800,"station_id":"","pricing_plan_id":"cebpf4jnsgd1na2vs0mg"},{"bike_id":"896d5863-1ac5-46eb-b4be-2c9a5b236c8f","system_id":"levelo_inurba_marseille","lat":43.284485,"lon":5.392115,"is_reserved":false,"is_disabled":false,"rental_uris":{"android":"levelo://app?vid=896d5863-1ac5-46eb-b4be-2c9a5b236c8f","ios":"levelo://app?vid=896d5863-1ac5-46eb-b4be-2c9a5b236c8f"},"vehicle_type_id":"4","last_reported":1742936920,"current_range_meters":8800,"station_id":"ce4bhoh2rcd13ifvqh5g","pricing_plan_id":"cebpf4jnsgd1na2vs0mg"},{"bike_id":"f16f0631-c911-4b43-a96a-f4ffed09becc","system_id":"levelo_inurba_marseille","lat":43.31721,"lon":5.37247,"is_reserved":false,"is_disabled":false,"rental_uris":{"android":"levelo://app?vid=f16f0631-c911-4b43-a96a-f4ffed09becc","ios":"levelo://app?vid=f16f0631-c911-4b43-a96a-f4ffed09becc"},"vehicle_type_id":"4","last_reported":1742936920,"current_range_meters":8800,"station_id":"","pricing_plan_id":"cebpf4jnsgd1na2vs0mg"},{"bike_id":"5c4ff4a0-721e-4676-8aa9-8212e6aee240","system_id":"levelo_inurba_marseille","lat":43.28442,"lon":5.3922,"is_reserved":false,"is_disabled":false,"rental_uris":{"android":"levelo://app?vid=5c4ff4a0-721e-4676-8aa9-8212e6aee240","ios":"levelo://app?vid=5c4ff4a0-721e-4676-8aa9-8212e6aee240"},"vehicle_type_id":"4","last_reported":1742936920,"current_range_meters":8800,"station_id":"ce4bhoh2rcd13ifvqh5g","pricing_plan_id":"cebpf4jnsgd1na2vs0mg"},{"bike_id":"36c7c977-d1e5-486f-8567-867c12126333","system_id":"levelo_inurba_marseille","lat":43.264492,"lon":5.373917,"is_reserved":false,"is_disabled":false,"rental_uris":{"android":"levelo://app?vid=36c7c977-d1e5-486f-8567-867c12126333","ios":"levelo://app?vid=36c7c977-d1e5-486f-8567-867c12126333"},"vehicle_type_id":"4","last_reported":1742936920,"current_range_meters":8800,"station_id":"ce4bhg12rcd13ifvqf60","pricing_plan_id":"cebpf4jnsgd1na2vs0mg"},{"bike_id":"350ac6df-f4ea-4328-82d3-2cee40539cc7","system_id":"levelo_inurba_marseille","lat":43.30136,"lon":5.38806,"is_reserved":false,"is_disabled":false,"rental_uris":{"android":"levelo://app?vid=350ac6df-f4ea-4328-82d3-2cee40539cc7","ios":"levelo://app?vid=350ac6df-f4ea-4328-82d3-2cee40539cc7"},"vehicle_type_id":"4","last_reported":1742936920,"current_range_meters":8800,"station_id":"ce4bghh2rcd13ifvqb60","pricing_plan_id":"cebpf4jnsgd1na2vs0mg"},{"bike_id":"e7fb0541-4ec4-4639-9364-0dcd87fd24a7","system_id":"levelo_inurba_marseille","lat":43.28352,"lon":5.38104,"is_reserved":false,"is_disabled":false,"rental_uris":{"android":"levelo://app?vid=e7fb0541-4ec4-4639-9364-0dcd87fd24a7","ios":"levelo://app?vid=e7fb0541-4ec4-4639-9364-0dcd87fd24a7"},"vehicle_type_id":"4","last_reported":1742936920,"current_range_meters":8800,"station_id":"ce4bh412rcd13ifvqdr0","pricing_plan_id":"cebpf4jnsgd1na2vs0mg"},{"bike_id":"f294d69a-8637-46e9-95b8-3d82151d6376","system_id":"levelo_inurba_marseille","lat":43.27971,"lon":5.41673,"is_reserved":false,"is_disabled":true,"rental_uris":{"android":"levelo://app?vid=f294d69a-8637-46e9-95b8-3d82151d6376","ios":"levelo://app?vid=f294d69a-8637-46e9-95b8-3d82151d6376"},"vehicle_type_id":"4","last_reported":1742936920,"current_range_meters":9200,"station_id":"ce4bho12rcd13ifvqh1g","pricing_plan_id":"cebpf4jnsgd1na2vs0mg"},{"bike_id":"1f7c0678-f79b-45df-b1c3-63ff540086d6","system_id":"levelo_inurba_marseille","lat":43.2997,"lon":5.38494,"is_reserved":false,"is_disabled":false,"rental_uris":{"android":"levelo://app?vid=1f7c0678-f79b-45df-b1c3-63ff540086d6","ios":"levelo://app?vid=1f7c0678-f79b-45df-b1c3-63ff540086d6"},"vehicle_type_id":"4","last_reported":1742936920,"current_range_meters":9200,"station_id":"ce4bgj92rcd13ifvqbd0","pricing_plan_id":"cebpf4jnsgd1na2vs0mg"},{"bike_id":"225cbe9d-4f8e-432e-b5e7-cd7e14da2d62","system_id":"levelo_inurba_marseille","lat":43.28178,"lon":5.4263,"is_reserved":false,"is_disabled":false,"rental_uris":{"android":"levelo://app?vid=225cbe9d-4f8e-432e-b5e7-cd7e14da2d62","ios":"levelo://app?vid=225cbe9d-4f8e-432e-b5e7-cd7e14da2d62"},"vehicle_type_id":"4","last_reported":1742936920,"current_range_meters":9200,"station_id":"ce4bhnh2rcd13ifvqgug","pricing_plan_id":"cebpf4jnsgd1na2vs0mg"},{"bike_id":"7436e867-6ed2-4fe4-ae91-b8ec41981178","system_id":"levelo_inurba_marseille","lat":43.28097,"lon":5.37834,"is_reserved":false,"is_disabled":false,"rental_uris":{"android":"levelo://app?vid=7436e867-6ed2-4fe4-ae91-b8ec41981178","ios":"levelo://app?vid=7436e867-6ed2-4fe4-ae91-b8ec41981178"},"vehicle_type_id":"4","last_reported":1742936920,"current_range_meters":9200,"station_id":"ce4bha12rcd13ifvqee0","pricing_plan_id":"cebpf4jnsgd1na2vs0mg"},{"bike_id":"3055e0f3-d235-4f86-aedd-61934f5924a5","system_id":"levelo_inurba_marseille","lat":43.29795,"lon":5.38116,"is_reserved":false,"is_disabled":false,"rental_uris":{"android":"levelo://app?vid=3055e0f3-d235-4f86-aedd-61934f5924a5","ios":"levelo://app?vid=3055e0f3-d235-4f86-aedd-61934f5924a5"},"vehicle_type_id":"4","last_reported":1742936920,"current_range_meters":9200,"station_id":"ce4bgip2rcd13ifvqbb0","pricing_plan_id":"cebpf4jnsgd1na2vs0mg"},{"bike_id":"5947461e-f1d9-4b8a-a16b-079c1e611686","system_id":"levelo_inurba_marseille","lat":43.28274,"lon":5.35082,"is_reserved":false,"is_disabled":true,"rental_uris":{"android":"levelo://app?vid=5947461e-f1d9-4b8a-a16b-079c1e611686","ios":"levelo://app?vid=5947461e-f1d9-4b8a-a16b-079c1e611686"},"vehicle_type_id":"4","last_reported":1742936920,"current_range_meters":9200,"station_id":"ce4bhbp2rcd13ifvqerg","pricing_plan_id":"cebpf4jnsgd1na2vs0mg"},{"bike_id":"74406c35-ee35-437d-be26-2d7711378046","system_id":"levelo_inurba_marseille","lat":43.32368,"lon":5.36751,"is_reserved":false,"is_disabled":false,"rental_uris":{"android":"levelo://app?vid=74406c35-ee35-437d-be26-2d7711378046","ios":"levelo://app?vid=74406c35-ee35-437d-be26-2d7711378046"},"vehicle_type_id":"4","last_reported":1742936920,"current_range_meters":9200,"station_id":"ce4bhsh2rcd13ifvqi2g","pricing_plan_id":"cebpf4jnsgd1na2vs0mg"},{"bike_id":"12ea318b-9840-4793-818f-0141dbdbdaa3","system_id":"levelo_inurba_marseille","lat":43.284,"lon":5.37514,"is_reserved":false,"is_disabled":false,"rental_uris":{"android":"levelo://app?vid=12ea318b-9840-4793-818f-0141dbdbdaa3","ios":"levelo://app?vid=12ea318b-9840-4793-818f-0141dbdbdaa3"},"vehicle_type_id":"4","last_reported":1742936920,"current_range_meters":9200,"station_id":"ce4bh412rcd13ifvqds0","pricing_plan_id":"cebpf4jnsgd1na2vs0mg"},{"bike_id":"f3371853-40bf-4a23-bed4-87c9715e98c9","system_id":"levelo_inurba_marseille","lat":43.26805,"lon":5.40257,"is_reserved":false,"is_disabled":false,"rental_uris":{"android":"levelo://app?vid=f3371853-40bf-4a23-bed4-87c9715e98c9","ios":"levelo://app?vid=f3371853-40bf-4a23-bed4-87c9715e98c9"},"vehicle_type_id":"4","last_reported":1742936920,"current_range_meters":9200,"station_id":"ce501612rcd8frsf0b60","pricing_plan_id":"cebpf4jnsgd1na2vs0mg"},{"bike_id":"f9c2d6f4-4513-4b26-a173-3b2adf92e672","system_id":"levelo_inurba_marseille","lat":43.30099,"lon":5.39081,"is_reserved":false,"is_disabled":false,"rental_uris":{"android":"levelo://app?vid=f9c2d6f4-4513-4b26-a173-3b2adf92e672","ios":"levelo://app?vid=f9c2d6f4-4513-4b26-a173-3b2adf92e672"},"vehicle_type_id":"4","last_reported":1742936920,"current_range_meters":9200,"station_id":"ce4bh192rcd13ifvqdb0","pricing_plan_id":"cebpf4jnsgd1na2vs0mg"},{"bike_id":"33000ac0-43c0-4af8-ae0a-bc3a619398fc","system_id":"levelo_inurba_marseille","lat":43.30134,"lon":5.3878,"is_reserved":false,"is_disabled":false,"rental_uris":{"android":"levelo://app?vid=33000ac0-43c0-4af8-ae0a-bc3a619398fc","ios":"levelo://app?vid=33000ac0-43c0-4af8-ae0a-bc3a619398fc"},"vehicle_type_id":"4","last_reported":1742936920,"current_range_meters":9200,"station_id":"ce4bghh2rcd13ifvqb60","pricing_plan_id":"cebpf4jnsgd1na2vs0mg"},{"bike_id":"30d2fbca-239f-49cd-b89b-17b0ba382ee0","system_id":"levelo_inurba_marseille","lat":43.24065,"lon":5.37747,"is_reserved":false,"is_disabled":false,"rental_uris":{"android":"levelo://app?vid=30d2fbca-239f-49cd-b89b-17b0ba382ee0","ios":"levelo://app?vid=30d2fbca-239f-49cd-b89b-17b0ba382ee0"},"vehicle_type_id":"4","last_reported":1742936920,"current_range_meters":9200,"station_id":"ce4bhnp2rcd13ifvqgvg","pricing_plan_id":"cebpf4jnsgd1na2vs0mg"},{"bike_id":"342f19f0-681f-4097-b14f-f905cbb3bfb3","system_id":"levelo_inurba_marseille","lat":43.27365,"lon":5.36227,"is_reserved":false,"is_disabled":false,"rental_uris":{"android":"levelo://app?vid=342f19f0-681f-4097-b14f-f905cbb3bfb3","ios":"levelo://app?vid=342f19f0-681f-4097-b14f-f905cbb3bfb3"},"vehicle_type_id":"4","last_reported":1742936920,"current_range_meters":9200,"station_id":"ce4bhbh2rcd13ifvqeo0","pricing_plan_id":"cebpf4jnsgd1na2vs0mg"},{"bike_id":"f63f5481-a6f7-4d46-af84-60ed21e786f8","system_id":"levelo_inurba_marseille","lat":43.28403,"lon":5.37519,"is_reserved":false,"is_disabled":false,"rental_uris":{"android":"levelo://app?vid=f63f5481-a6f7-4d46-af84-60ed21e786f8","ios":"levelo://app?vid=f63f5481-a6f7-4d46-af84-60ed21e786f8"},"vehicle_type_id":"4","last_reported":1742936920,"current_range_meters":9200,"station_id":"ce4bh412rcd13ifvqds0","pricing_plan_id":"cebpf4jnsgd1na2vs0mg"},{"bike_id":"1392a870-6300-4219-8b1a-6d76541db636","system_id":"levelo_inurba_marseille","lat":43.32338,"lon":5.40617,"is_reserved":false,"is_disabled":false,"rental_uris":{"android":"levelo://app?vid=1392a870-6300-4219-8b1a-6d76541db636","ios":"levelo://app?vid=1392a870-6300-4219-8b1a-6d76541db636"},"vehicle_type_id":"4","last_reported":1742936920,"current_range_meters":9200,"station_id":"ce4bhq92rcd13ifvqhjg","pricing_plan_id":"cebpf4jnsgd1na2vs0mg"},{"bike_id":"3a8fee7f-44c9-4a14-ac73-4aa4149d31df","system_id":"levelo_inurba_marseille","lat":43.28849,"lon":5.35848,"is_reserved":false,"is_disabled":false,"rental_uris":{"android":"levelo://app?vid=3a8fee7f-44c9-4a14-ac73-4aa4149d31df","ios":"levelo://app?vid=3a8fee7f-44c9-4a14-ac73-4aa4149d31df"},"vehicle_type_id":"4","last_reported":1742936920,"current_range_meters":9200,"station_id":"ce4bhb12rcd13ifvqem0","pricing_plan_id":"cebpf4jnsgd1na2vs0mg"},{"bike_id":"ea8964dc-1163-4402-ba1e-fb4e42d957e4","system_id":"levelo_inurba_marseille","lat":43.29005,"lon":5.35612,"is_reserved":false,"is_disabled":false,"rental_uris":{"android":"levelo://app?vid=ea8964dc-1163-4402-ba1e-fb4e42d957e4","ios":"levelo://app?vid=ea8964dc-1163-4402-ba1e-fb4e42d957e4"},"vehicle_type_id":"4","last_reported":1742936920,"current_range_meters":11600,"station_id":"ce4bhb92rcd13ifvqen0","pricing_plan_id":"cebpf4jnsgd1na2vs0mg"},{"bike_id":"89e75ed9-7f20-48f7-ad37-e0033e47c633","system_id":"levelo_inurba_marseille","lat":43.2467,"lon":5.38887,"is_reserved":false,"is_disabled":false,"rental_uris":{"android":"levelo://app?vid=89e75ed9-7f20-48f7-ad37-e0033e47c633","ios":"levelo://app?vid=89e75ed9-7f20-48f7-ad37-e0033e47c633"},"vehicle_type_id":"4","last_reported":1742936920,"current_range_meters":9200,"station_id":"ce4bhg12rcd13ifvqf60","pricing_plan_id":"cebpf4jnsgd1na2vs0mg"},{"bike_id":"2dc9dd28-3adf-463c-a910-459039d40689","system_id":"levelo_inurba_marseille","lat":43.29536,"lon":5.38516,"is_reserved":false,"is_disabled":false,"rental_uris":{"android":"levelo://app?vid=2dc9dd28-3adf-463c-a910-459039d40689","ios":"levelo://app?vid=2dc9dd28-3adf-463c-a910-459039d40689"},"vehicle_type_id":"4","last_reported":1742936920,"current_range_meters":9200,"station_id":"ce4bgih2rcd13ifvqba0","pricing_plan_id":"cebpf4jnsgd1na2vs0mg"},{"bike_id":"550b820f-7b93-4dc3-a36e-fc61e2a5d8a3","system_id":"levelo_inurba_marseille","lat":43.30308,"lon":5.36898,"is_reserved":false,"is_disabled":false,"rental_uris":{"android":"levelo://app?vid=550b820f-7b93-4dc3-a36e-fc61e2a5d8a3","ios":"levelo://app?vid=550b820f-7b93-4dc3-a36e-fc61e2a5d8a3"},"vehicle_type_id":"4","last_reported":1742936920,"current_range_meters":9200,"station_id":"ce4bgqh2rcd13ifvqc5g","pricing_plan_id":"cebpf4jnsgd1na2vs0mg"},{"bike_id":"2f9a6dc5-ae19-4297-afb4-e714cd376193","system_id":"levelo_inurba_marseille","lat":43.27948,"lon":5.41047,"is_reserved":false,"is_disabled":false,"rental_uris":{"android":"levelo://app?vid=2f9a6dc5-ae19-4297-afb4-e714cd376193","ios":"levelo://app?vid=2f9a6dc5-ae19-4297-afb4-e714cd376193"},"vehicle_type_id":"4","last_reported":1742936920,"current_range_meters":9600,"station_id":"ce4bhnp2rcd13ifvqh0g","pricing_plan_id":"cebpf4jnsgd1na2vs0mg"},{"bike_id":"e52b9a62-85cc-4127-8505-9c26b9db33f7","system_id":"levelo_inurba_marseille","lat":43.310858,"lon":5.424322,"is_reserved":false,"is_disabled":false,"rental_uris":{"android":"levelo://app?vid=e52b9a62-85cc-4127-8505-9c26b9db33f7","ios":"levelo://app?vid=e52b9a62-85cc-4127-8505-9c26b9db33f7"},"vehicle_type_id":"4","last_reported":1742936920,"current_range_meters":9600,"station_id":"ce4bhp92rcd13ifvqhag","pricing_plan_id":"cebpf4jnsgd1na2vs0mg"},{"bike_id":"5aeb641c-8c67-430e-bd09-77076d22412d","system_id":"levelo_inurba_marseille","lat":43.31058,"lon":5.37551,"is_reserved":false,"is_disabled":false,"rental_uris":{"android":"levelo://app?vid=5aeb641c-8c67-430e-bd09-77076d22412d","ios":"levelo://app?vid=5aeb641c-8c67-430e-bd09-77076d22412d"},"vehicle_type_id":"4","last_reported":1742936920,"current_range_meters":9600,"station_id":"","pricing_plan_id":"cebpf4jnsgd1na2vs0mg"},{"bike_id":"db9e5a17-b2c6-416c-bb73-fe7067a72569","system_id":"levelo_inurba_marseille","lat":43.29258,"lon":5.38444,"is_reserved":false,"is_disabled":false,"rental_uris":{"android":"levelo://app?vid=db9e5a17-b2c6-416c-bb73-fe7067a72569","ios":"levelo://app?vid=db9e5a17-b2c6-416c-bb73-fe7067a72569"},"vehicle_type_id":"4","last_reported":1742936920,"current_range_meters":9600,"station_id":"ce4bh692rcd13ifvqea0","pricing_plan_id":"cebpf4jnsgd1na2vs0mg"},{"bike_id":"6633349b-54ae-41b8-88d5-61ec5d012302","system_id":"levelo_inurba_marseille","lat":43.321237,"lon":5.36746,"is_reserved":false,"is_disabled":false,"rental_uris":{"android":"levelo://app?vid=6633349b-54ae-41b8-88d5-61ec5d012302","ios":"levelo://app?vid=6633349b-54ae-41b8-88d5-61ec5d012302"},"vehicle_type_id":"4","last_reported":1742936920,"current_range_meters":9600,"station_id":"ce4bhrh2rcd13ifvqhug","pricing_plan_id":"cebpf4jnsgd1na2vs0mg"},{"bike_id":"d0ee8d20-19be-4028-b608-7045ab34de7b","system_id":"levelo_inurba_marseille","lat":43.29022,"lon":5.38647,"is_reserved":false,"is_disabled":false,"rental_uris":{"android":"levelo://app?vid=d0ee8d20-19be-4028-b608-7045ab34de7b","ios":"levelo://app?vid=d0ee8d20-19be-4028-b608-7045ab34de7b"},"vehicle_type_id":"4","last_reported":1742936920,"current_range_meters":9600,"station_id":"ce4bh4p2rcd13ifvqe0g","pricing_plan_id":"cebpf4jnsgd1na2vs0mg"},{"bike_id":"8c5e09de-c9ee-4ecd-8bf7-a9da954099c1","system_id":"levelo_inurba_marseille","lat":43.279953,"lon":5.400107,"is_reserved":false,"is_disabled":false,"rental_uris":{"android":"levelo://app?vid=8c5e09de-c9ee-4ecd-8bf7-a9da954099c1","ios":"levelo://app?vid=8c5e09de-c9ee-4ecd-8bf7-a9da954099c1"},"vehicle_type_id":"4","last_reported":1742936920,"current_range_meters":9600,"station_id":"ce4bho92rcd13ifvqh4g","pricing_plan_id":"cebpf4jnsgd1na2vs0mg"},{"bike_id":"a8dd8374-f5f6-4866-8f7b-a6932a6872fb","system_id":"levelo_inurba_marseille","lat":43.30319,"lon":5.40439,"is_reserved":false,"is_disabled":false,"rental_uris":{"android":"levelo://app?vid=a8dd8374-f5f6-4866-8f7b-a6932a6872fb","ios":"levelo://app?vid=a8dd8374-f5f6-4866-8f7b-a6932a6872fb"},"vehicle_type_id":"4","last_reported":1742936920,"current_range_meters":9600,"station_id":"ce4bh012rcd13ifvqd10","pricing_plan_id":"cebpf4jnsgd1na2vs0mg"},{"bike_id":"28608dc9-a0fa-40f5-864a-a89d151a1db8","system_id":"levelo_inurba_marseille","lat":43.27564,"lon":5.38433,"is_reserved":false,"is_disabled":false,"rental_uris":{"android":"levelo://app?vid=28608dc9-a0fa-40f5-864a-a89d151a1db8","ios":"levelo://app?vid=28608dc9-a0fa-40f5-864a-a89d151a1db8"},"vehicle_type_id":"4","last_reported":1742936920,"current_range_meters":9600,"station_id":"ce4bhh92rcd13ifvqfi0","pricing_plan_id":"cebpf4jnsgd1na2vs0mg"},{"bike_id":"8583bcae-e817-4db7-ab92-448c595780ea","system_id":"levelo_inurba_marseille","lat":43.33013,"lon":5.39027,"is_reserved":false,"is_disabled":false,"rental_uris":{"android":"levelo://app?vid=8583bcae-e817-4db7-ab92-448c595780ea","ios":"levelo://app?vid=8583bcae-e817-4db7-ab92-448c595780ea"},"vehicle_type_id":"4","last_reported":1742936920,"current_range_meters":9600,"station_id":"ce4bhr92rcd13ifvqhrg","pricing_plan_id":"cebpf4jnsgd1na2vs0mg"},{"bike_id":"2ce1972f-7c19-4821-9ee1-2fe37db25ac0","system_id":"levelo_inurba_marseille","lat":43.24809,"lon":5.37456,"is_reserved":false,"is_disabled":false,"rental_uris":{"android":"levelo://app?vid=2ce1972f-7c19-4821-9ee1-2fe37db25ac0","ios":"levelo://app?vid=2ce1972f-7c19-4821-9ee1-2fe37db25ac0"},"vehicle_type_id":"4","last_reported":1742936920,"current_range_meters":10000,"station_id":"ce4bhgh2rcd13ifvqfb0","pricing_plan_id":"cebpf4jnsgd1na2vs0mg"},{"bike_id":"cf900379-d9d0-4b35-b0fe-99e66bc95159","system_id":"levelo_inurba_marseille","lat":43.291308,"lon":5.380618,"is_reserved":false,"is_disabled":false,"rental_uris":{"android":"levelo://app?vid=cf900379-d9d0-4b35-b0fe-99e66bc95159","ios":"levelo://app?vid=cf900379-d9d0-4b35-b0fe-99e66bc95159"},"vehicle_type_id":"4","last_reported":1742936920,"current_range_meters":10000,"station_id":"cki0cbj6b192h4jlfktg","pricing_plan_id":"cebpf4jnsgd1na2vs0mg"},{"bike_id":"5c44f39e-7a32-42ed-97fe-cd592a2d8038","system_id":"levelo_inurba_marseille","lat":43.28693,"lon":5.3741,"is_reserved":false,"is_disabled":false,"rental_uris":{"android":"levelo://app?vid=5c44f39e-7a32-42ed-97fe-cd592a2d8038","ios":"levelo://app?vid=5c44f39e-7a32-42ed-97fe-cd592a2d8038"},"vehicle_type_id":"4","last_reported":1742936920,"current_range_meters":10000,"station_id":"ce4bh3p2rcd13ifvqdq0","pricing_plan_id":"cebpf4jnsgd1na2vs0mg"},{"bike_id":"d90ec8d0-7a7b-476f-be89-13cef4eeaa2a","system_id":"levelo_inurba_marseille","lat":43.2845,"lon":5.35864,"is_reserved":false,"is_disabled":false,"rental_uris":{"android":"levelo://app?vid=d90ec8d0-7a7b-476f-be89-13cef4eeaa2a","ios":"levelo://app?vid=d90ec8d0-7a7b-476f-be89-13cef4eeaa2a"},"vehicle_type_id":"4","last_reported":1742936920,"current_range_meters":10000,"station_id":"ce4bhah2rcd13ifvqei0","pricing_plan_id":"cebpf4jnsgd1na2vs0mg"},{"bike_id":"d0d65fe2-c566-4a74-9659-9e90652dfdb4","system_id":"levelo_inurba_marseille","lat":43.30924,"lon":5.4015,"is_reserved":false,"is_disabled":false,"rental_uris":{"android":"levelo://app?vid=d0d65fe2-c566-4a74-9659-9e90652dfdb4","ios":"levelo://app?vid=d0d65fe2-c566-4a74-9659-9e90652dfdb4"},"vehicle_type_id":"4","last_reported":1742936920,"current_range_meters":10000,"station_id":"ce4bgvp2rcd13ifvqct0","pricing_plan_id":"cebpf4jnsgd1na2vs0mg"},{"bike_id":"34a65679-9fb1-4403-90b3-341e4c2e2050","system_id":"levelo_inurba_marseille","lat":43.28398,"lon":5.37538,"is_reserved":false,"is_disabled":false,"rental_uris":{"android":"levelo://app?vid=34a65679-9fb1-4403-90b3-341e4c2e2050","ios":"levelo://app?vid=34a65679-9fb1-4403-90b3-341e4c2e2050"},"vehicle_type_id":"4","last_reported":1742936920,"current_range_meters":10000,"station_id":"ce4bh412rcd13ifvqds0","pricing_plan_id":"cebpf4jnsgd1na2vs0mg"},{"bike_id":"bf897b90-1384-4a2f-ac27-95c9b1e77fd1","system_id":"levelo_inurba_marseille","lat":43.26795,"lon":5.40272,"is_reserved":false,"is_disabled":false,"rental_uris":{"android":"levelo://app?vid=bf897b90-1384-4a2f-ac27-95c9b1e77fd1","ios":"levelo://app?vid=bf897b90-1384-4a2f-ac27-95c9b1e77fd1"},"vehicle_type_id":"4","last_reported":1742936920,"current_range_meters":10000,"station_id":"ce501612rcd8frsf0b60","pricing_plan_id":"cebpf4jnsgd1na2vs0mg"},{"bike_id":"1e120c45-af79-403f-a9ee-e07197747cf6","system_id":"levelo_inurba_marseille","lat":43.292558,"lon":5.384308,"is_reserved":false,"is_disabled":false,"rental_uris":{"android":"levelo://app?vid=1e120c45-af79-403f-a9ee-e07197747cf6","ios":"levelo://app?vid=1e120c45-af79-403f-a9ee-e07197747cf6"},"vehicle_type_id":"4","last_reported":1742936920,"current_range_meters":10000,"station_id":"ce4bh692rcd13ifvqea0","pricing_plan_id":"cebpf4jnsgd1na2vs0mg"},{"bike_id":"5afadd01-05af-47f2-b106-8c57133c5065","system_id":"levelo_inurba_marseille","lat":43.299709,"lon":5.384934,"is_reserved":false,"is_disabled":true,"rental_uris":{"android":"levelo://app?vid=5afadd01-05af-47f2-b106-8c57133c5065","ios":"levelo://app?vid=5afadd01-05af-47f2-b106-8c57133c5065"},"vehicle_type_id":"4","last_reported":1742936920,"current_range_meters":10000,"station_id":"ce4bgj92rcd13ifvqbd0","pricing_plan_id":"cebpf4jnsgd1na2vs0mg"},{"bike_id":"2d4e687a-9c18-4086-9d00-f57175bd6e2a","system_id":"levelo_inurba_marseille","lat":43.323681,"lon":5.388864,"is_reserved":false,"is_disabled":false,"rental_uris":{"android":"levelo://app?vid=2d4e687a-9c18-4086-9d00-f57175bd6e2a","ios":"levelo://app?vid=2d4e687a-9c18-4086-9d00-f57175bd6e2a"},"vehicle_type_id":"4","last_reported":1742936920,"current_range_meters":10000,"station_id":"ce4bhqp2rcd13ifvqhog","pricing_plan_id":"cebpf4jnsgd1na2vs0mg"},{"bike_id":"59162473-4ee2-4943-a5f7-01b0c9e9bebf","system_id":"levelo_inurba_marseille","lat":43.29438,"lon":5.38615,"is_reserved":false,"is_disabled":false,"rental_uris":{"android":"levelo://app?vid=59162473-4ee2-4943-a5f7-01b0c9e9bebf","ios":"levelo://app?vid=59162473-4ee2-4943-a5f7-01b0c9e9bebf"},"vehicle_type_id":"4","last_reported":1742936920,"current_range_meters":10800,"station_id":"ce4bh2h2rcd13ifvqdh0","pricing_plan_id":"cebpf4jnsgd1na2vs0mg"},{"bike_id":"75869239-4097-422e-a978-9c6082dfa7dd","system_id":"levelo_inurba_marseille","lat":43.24666,"lon":5.38144,"is_reserved":false,"is_disabled":true,"rental_uris":{"android":"levelo://app?vid=75869239-4097-422e-a978-9c6082dfa7dd","ios":"levelo://app?vid=75869239-4097-422e-a978-9c6082dfa7dd"},"vehicle_type_id":"4","last_reported":1742936920,"current_range_meters":10800,"station_id":"ce4bhih2rcd13ifvqfr0","pricing_plan_id":"cebpf4jnsgd1na2vs0mg"},{"bike_id":"a86f77b5-4f60-4373-9e14-1c36c13ffed9","system_id":"levelo_inurba_marseille","lat":43.25869,"lon":5.39906,"is_reserved":false,"is_disabled":false,"rental_uris":{"android":"levelo://app?vid=a86f77b5-4f60-4373-9e14-1c36c13ffed9","ios":"levelo://app?vid=a86f77b5-4f60-4373-9e14-1c36c13ffed9"},"vehicle_type_id":"4","last_reported":1742936920,"current_range_meters":10800,"station_id":"ce4bhl92rcd13ifvqghg","pricing_plan_id":"cebpf4jnsgd1na2vs0mg"},{"bike_id":"db3a37d9-5fb5-4f3b-a188-d5b191baa933","system_id":"levelo_inurba_marseille","lat":43.3013,"lon":5.39875,"is_reserved":false,"is_disabled":false,"rental_uris":{"android":"levelo://app?vid=db3a37d9-5fb5-4f3b-a188-d5b191baa933","ios":"levelo://app?vid=db3a37d9-5fb5-4f3b-a188-d5b191baa933"},"vehicle_type_id":"4","last_reported":1742936920,"current_range_meters":10800,"station_id":"ce4bh0h2rcd13ifvqd40","pricing_plan_id":"cebpf4jnsgd1na2vs0mg"},{"bike_id":"8fb77201-a472-4e13-96d9-9a8cb04a70bd","system_id":"levelo_inurba_marseille","lat":43.27828,"lon":5.40698,"is_reserved":false,"is_disabled":false,"rental_uris":{"android":"levelo://app?vid=8fb77201-a472-4e13-96d9-9a8cb04a70bd","ios":"levelo://app?vid=8fb77201-a472-4e13-96d9-9a8cb04a70bd"},"vehicle_type_id":"4","last_reported":1742936920,"current_range_meters":10800,"station_id":"ce4bhnh2rcd13ifvqgtg","pricing_plan_id":"cebpf4jnsgd1na2vs0mg"},{"bike_id":"38351309-2dec-417c-a558-74c8bc991036","system_id":"levelo_inurba_marseille","lat":43.3082,"lon":5.40621,"is_reserved":false,"is_disabled":true,"rental_uris":{"android":"levelo://app?vid=38351309-2dec-417c-a558-74c8bc991036","ios":"levelo://app?vid=38351309-2dec-417c-a558-74c8bc991036"},"vehicle_type_id":"4","last_reported":1742936920,"current_range_meters":10800,"station_id":"","pricing_plan_id":"cebpf4jnsgd1na2vs0mg"},{"bike_id":"db980fb1-41f2-4e76-8169-c097d23619b5","system_id":"levelo_inurba_marseille","lat":43.29256,"lon":5.38443,"is_reserved":false,"is_disabled":false,"rental_uris":{"android":"levelo://app?vid=db980fb1-41f2-4e76-8169-c097d23619b5","ios":"levelo://app?vid=db980fb1-41f2-4e76-8169-c097d23619b5"},"vehicle_type_id":"4","last_reported":1742936920,"current_range_meters":10800,"station_id":"ce4bh692rcd13ifvqea0","pricing_plan_id":"cebpf4jnsgd1na2vs0mg"},{"bike_id":"ca04ffde-a7cd-493d-ba19-391db2b733b5","system_id":"levelo_inurba_marseille","lat":43.27945,"lon":5.41042,"is_reserved":false,"is_disabled":false,"rental_uris":{"android":"levelo://app?vid=ca04ffde-a7cd-493d-ba19-391db2b733b5","ios":"levelo://app?vid=ca04ffde-a7cd-493d-ba19-391db2b733b5"},"vehicle_type_id":"4","last_reported":1742936920,"current_range_meters":10800,"station_id":"ce4bhnp2rcd13ifvqh0g","pricing_plan_id":"cebpf4jnsgd1na2vs0mg"},{"bike_id":"04f5cf0b-110d-4f66-ad45-f8cf5dba930c","system_id":"levelo_inurba_marseille","lat":43.30885,"lon":5.39638,"is_reserved":false,"is_disabled":false,"rental_uris":{"android":"levelo://app?vid=04f5cf0b-110d-4f66-ad45-f8cf5dba930c","ios":"levelo://app?vid=04f5cf0b-110d-4f66-ad45-f8cf5dba930c"},"vehicle_type_id":"4","last_reported":1742936920,"current_range_meters":10800,"station_id":"ce4bh012rcd13ifvqcv0","pricing_plan_id":"cebpf4jnsgd1na2vs0mg"},{"bike_id":"fc2cc0a3-bfc1-483d-ac7a-d91e15d05d6c","system_id":"levelo_inurba_marseille","lat":43.25449,"lon":5.41277,"is_reserved":false,"is_disabled":false,"rental_uris":{"android":"levelo://app?vid=fc2cc0a3-bfc1-483d-ac7a-d91e15d05d6c","ios":"levelo://app?vid=fc2cc0a3-bfc1-483d-ac7a-d91e15d05d6c"},"vehicle_type_id":"4","last_reported":1742936920,"current_range_meters":10800,"station_id":"","pricing_plan_id":"cebpf4jnsgd1na2vs0mg"},{"bike_id":"5dcc5cbc-c146-4154-8f47-70a30536ebc8","system_id":"levelo_inurba_marseille","lat":43.28402,"lon":5.37526,"is_reserved":false,"is_disabled":false,"rental_uris":{"android":"levelo://app?vid=5dcc5cbc-c146-4154-8f47-70a30536ebc8","ios":"levelo://app?vid=5dcc5cbc-c146-4154-8f47-70a30536ebc8"},"vehicle_type_id":"4","last_reported":1742936920,"current_range_meters":10800,"station_id":"ce4bh412rcd13ifvqds0","pricing_plan_id":"cebpf4jnsgd1na2vs0mg"},{"bike_id":"122cccd4-5fdc-42dd-85c3-c7bd8aefb118","system_id":"levelo_inurba_marseille","lat":43.26228,"lon":5.40452,"is_reserved":false,"is_disabled":false,"rental_uris":{"android":"levelo://app?vid=122cccd4-5fdc-42dd-85c3-c7bd8aefb118","ios":"levelo://app?vid=122cccd4-5fdc-42dd-85c3-c7bd8aefb118"},"vehicle_type_id":"4","last_reported":1742936920,"current_range_meters":10800,"station_id":"ce4bhmh2rcd13ifvqgmg","pricing_plan_id":"cebpf4jnsgd1na2vs0mg"},{"bike_id":"5b3f4b73-8531-4181-9845-e7ccf15afa9d","system_id":"levelo_inurba_marseille","lat":43.287,"lon":5.39975,"is_reserved":false,"is_disabled":false,"rental_uris":{"android":"levelo://app?vid=5b3f4b73-8531-4181-9845-e7ccf15afa9d","ios":"levelo://app?vid=5b3f4b73-8531-4181-9845-e7ccf15afa9d"},"vehicle_type_id":"4","last_reported":1742936920,"current_range_meters":11200,"station_id":"ce4bho92rcd13ifvqh3g","pricing_plan_id":"cebpf4jnsgd1na2vs0mg"},{"bike_id":"1c8813d4-af01-431f-a8f3-798301f7d066","system_id":"levelo_inurba_marseille","lat":43.2906,"lon":5.35914,"is_reserved":false,"is_disabled":false,"rental_uris":{"android":"levelo://app?vid=1c8813d4-af01-431f-a8f3-798301f7d066","ios":"levelo://app?vid=1c8813d4-af01-431f-a8f3-798301f7d066"},"vehicle_type_id":"4","last_reported":1742936920,"current_range_meters":11200,"station_id":"ce4bha92rcd13ifvqeg0","pricing_plan_id":"cebpf4jnsgd1na2vs0mg"},{"bike_id":"f7c25d2a-76f7-4aa4-a31a-c4fb21f96f14","system_id":"levelo_inurba_marseille","lat":43.30772,"lon":5.37663,"is_reserved":false,"is_disabled":false,"rental_uris":{"android":"levelo://app?vid=f7c25d2a-76f7-4aa4-a31a-c4fb21f96f14","ios":"levelo://app?vid=f7c25d2a-76f7-4aa4-a31a-c4fb21f96f14"},"vehicle_type_id":"4","last_reported":1742936920,"current_range_meters":11200,"station_id":"ce4bgv92rcd13ifvqcq0","pricing_plan_id":"cebpf4jnsgd1na2vs0mg"},{"bike_id":"9cc6a70b-b713-45c9-aa10-cb0539355012","system_id":"levelo_inurba_marseille","lat":43.29907,"lon":5.37463,"is_reserved":false,"is_disabled":false,"rental_uris":{"android":"levelo://app?vid=9cc6a70b-b713-45c9-aa10-cb0539355012","ios":"levelo://app?vid=9cc6a70b-b713-45c9-aa10-cb0539355012"},"vehicle_type_id":"4","last_reported":1742936920,"current_range_meters":11200,"station_id":"ce4bgjh2rcd13ifvqbg0","pricing_plan_id":"cebpf4jnsgd1na2vs0mg"},{"bike_id":"1a621f36-1e80-4011-9a6d-4745ad6d23a5","system_id":"levelo_inurba_marseille","lat":43.31077,"lon":5.38342,"is_reserved":false,"is_disabled":false,"rental_uris":{"android":"levelo://app?vid=1a621f36-1e80-4011-9a6d-4745ad6d23a5","ios":"levelo://app?vid=1a621f36-1e80-4011-9a6d-4745ad6d23a5"},"vehicle_type_id":"4","last_reported":1742936920,"current_range_meters":11200,"station_id":"ce4bgv92rcd13ifvqcr0","pricing_plan_id":"cebpf4jnsgd1na2vs0mg"},{"bike_id":"6bd82c37-6406-4469-9def-05b97b777f5e","system_id":"levelo_inurba_marseille","lat":43.21857,"lon":5.42014,"is_reserved":false,"is_disabled":false,"rental_uris":{"android":"levelo://app?vid=6bd82c37-6406-4469-9def-05b97b777f5e","ios":"levelo://app?vid=6bd82c37-6406-4469-9def-05b97b777f5e"},"vehicle_type_id":"4","last_reported":1742936920,"current_range_meters":11200,"station_id":"","pricing_plan_id":"cebpf4jnsgd1na2vs0mg"},{"bike_id":"e4d66e59-4f1d-4844-97f7-5ea06b1cd6a8","system_id":"levelo_inurba_marseille","lat":43.29263,"lon":5.38434,"is_reserved":false,"is_disabled":false,"rental_uris":{"android":"levelo://app?vid=e4d66e59-4f1d-4844-97f7-5ea06b1cd6a8","ios":"levelo://app?vid=e4d66e59-4f1d-4844-97f7-5ea06b1cd6a8"},"vehicle_type_id":"4","last_reported":1742936920,"current_range_meters":11200,"station_id":"ce4bh692rcd13ifvqea0","pricing_plan_id":"cebpf4jnsgd1na2vs0mg"},{"bike_id":"c8f44224-6c44-414e-b3f3-d6bca18eed03","system_id":"levelo_inurba_marseille","lat":43.29875,"lon":5.38918,"is_reserved":false,"is_disabled":false,"rental_uris":{"android":"levelo://app?vid=c8f44224-6c44-414e-b3f3-d6bca18eed03","ios":"levelo://app?vid=c8f44224-6c44-414e-b3f3-d6bca18eed03"},"vehicle_type_id":"4","last_reported":1742936920,"current_range_meters":11200,"station_id":"ce4bh392rcd13ifvqdl0","pricing_plan_id":"cebpf4jnsgd1na2vs0mg"},{"bike_id":"3260d815-404e-46c1-8bc4-faeee564b080","system_id":"levelo_inurba_marseille","lat":43.30308,"lon":5.39207,"is_reserved":false,"is_disabled":false,"rental_uris":{"android":"levelo://app?vid=3260d815-404e-46c1-8bc4-faeee564b080","ios":"levelo://app?vid=3260d815-404e-46c1-8bc4-faeee564b080"},"vehicle_type_id":"4","last_reported":1742936920,"current_range_meters":11200,"station_id":"ce4bgkh2rcd13ifvqbk0","pricing_plan_id":"cebpf4jnsgd1na2vs0mg"},{"bike_id":"ab952469-2651-4342-98fd-8d0d40520a98","system_id":"levelo_inurba_marseille","lat":43.29882,"lon":5.39737,"is_reserved":false,"is_disabled":false,"rental_uris":{"android":"levelo://app?vid=ab952469-2651-4342-98fd-8d0d40520a98","ios":"levelo://app?vid=ab952469-2651-4342-98fd-8d0d40520a98"},"vehicle_type_id":"4","last_reported":1742936920,"current_range_meters":11600,"station_id":"ce4bh0h2rcd13ifvqd50","pricing_plan_id":"cebpf4jnsgd1na2vs0mg"},{"bike_id":"10de7768-924a-4558-9779-5aa45bd3d6cb","system_id":"levelo_inurba_marseille","lat":43.31715,"lon":5.43707,"is_reserved":false,"is_disabled":false,"rental_uris":{"android":"levelo://app?vid=10de7768-924a-4558-9779-5aa45bd3d6cb","ios":"levelo://app?vid=10de7768-924a-4558-9779-5aa45bd3d6cb"},"vehicle_type_id":"4","last_reported":1742936920,"current_range_meters":11600,"station_id":"ce4bhp92rcd13ifvqhcg","pricing_plan_id":"cebpf4jnsgd1na2vs0mg"},{"bike_id":"0c9cada4-2764-4013-a528-15089818cb84","system_id":"levelo_inurba_marseille","lat":43.27761,"lon":5.41175,"is_reserved":false,"is_disabled":false,"rental_uris":{"android":"levelo://app?vid=0c9cada4-2764-4013-a528-15089818cb84","ios":"levelo://app?vid=0c9cada4-2764-4013-a528-15089818cb84"},"vehicle_type_id":"4","last_reported":1742936920,"current_range_meters":11600,"station_id":"","pricing_plan_id":"cebpf4jnsgd1na2vs0mg"},{"bike_id":"65d0db47-e7e4-4921-a51c-8b764efb5387","system_id":"levelo_inurba_marseille","lat":43.29877,"lon":5.38916,"is_reserved":false,"is_disabled":false,"rental_uris":{"android":"levelo://app?vid=65d0db47-e7e4-4921-a51c-8b764efb5387","ios":"levelo://app?vid=65d0db47-e7e4-4921-a51c-8b764efb5387"},"vehicle_type_id":"4","last_reported":1742936920,"current_range_meters":11600,"station_id":"ce4bh392rcd13ifvqdl0","pricing_plan_id":"cebpf4jnsgd1na2vs0mg"},{"bike_id":"a4014c6f-398b-43e5-8c6e-cc804506e935","system_id":"levelo_inurba_marseille","lat":43.28405,"lon":5.37514,"is_reserved":false,"is_disabled":false,"rental_uris":{"android":"levelo://app?vid=a4014c6f-398b-43e5-8c6e-cc804506e935","ios":"levelo://app?vid=a4014c6f-398b-43e5-8c6e-cc804506e935"},"vehicle_type_id":"4","last_reported":1742936920,"current_range_meters":11600,"station_id":"ce4bh412rcd13ifvqds0","pricing_plan_id":"cebpf4jnsgd1na2vs0mg"},{"bike_id":"af3406ea-2d31-4d41-9256-276b7b610da4","system_id":"levelo_inurba_marseille","lat":43.29538,"lon":5.38534,"is_reserved":false,"is_disabled":false,"rental_uris":{"android":"levelo://app?vid=af3406ea-2d31-4d41-9256-276b7b610da4","ios":"levelo://app?vid=af3406ea-2d31-4d41-9256-276b7b610da4"},"vehicle_type_id":"4","last_reported":1742936920,"current_range_meters":11600,"station_id":"ce4bgih2rcd13ifvqba0","pricing_plan_id":"cebpf4jnsgd1na2vs0mg"},{"bike_id":"265267d8-1436-4daf-bdca-2c04d46b69b6","system_id":"levelo_inurba_marseille","lat":43.31481,"lon":5.37312,"is_reserved":false,"is_disabled":false,"rental_uris":{"android":"levelo://app?vid=265267d8-1436-4daf-bdca-2c04d46b69b6","ios":"levelo://app?vid=265267d8-1436-4daf-bdca-2c04d46b69b6"},"vehicle_type_id":"4","last_reported":1742936920,"current_range_meters":12400,"station_id":"ce4bgt12rcd13ifvqcd0","pricing_plan_id":"cebpf4jnsgd1na2vs0mg"},{"bike_id":"5653488a-e008-42f3-8972-82c6f9548cee","system_id":"levelo_inurba_marseille","lat":43.310815,"lon":5.424377,"is_reserved":false,"is_disabled":false,"rental_uris":{"android":"levelo://app?vid=5653488a-e008-42f3-8972-82c6f9548cee","ios":"levelo://app?vid=5653488a-e008-42f3-8972-82c6f9548cee"},"vehicle_type_id":"4","last_reported":1742936920,"current_range_meters":11600,"station_id":"ce4bhp92rcd13ifvqhag","pricing_plan_id":"cebpf4jnsgd1na2vs0mg"},{"bike_id":"2fac814a-43e0-4717-b417-c7b3d6c39782","system_id":"levelo_inurba_marseille","lat":43.32261,"lon":5.38332,"is_reserved":false,"is_disabled":false,"rental_uris":{"android":"levelo://app?vid=2fac814a-43e0-4717-b417-c7b3d6c39782","ios":"levelo://app?vid=2fac814a-43e0-4717-b417-c7b3d6c39782"},"vehicle_type_id":"4","last_reported":1742936920,"current_range_meters":11600,"station_id":"ce4bhr12rcd13ifvqhqg","pricing_plan_id":"cebpf4jnsgd1na2vs0mg"},{"bike_id":"d9723761-8e75-49b4-8ee8-6eb222dca3c3","system_id":"levelo_inurba_marseille","lat":43.29616,"lon":5.37157,"is_reserved":false,"is_disabled":false,"rental_uris":{"android":"levelo://app?vid=d9723761-8e75-49b4-8ee8-6eb222dca3c3","ios":"levelo://app?vid=d9723761-8e75-49b4-8ee8-6eb222dca3c3"},"vehicle_type_id":"4","last_reported":1742936920,"current_range_meters":12000,"station_id":"ce4bgnh2rcd13ifvqc0g","pricing_plan_id":"cebpf4jnsgd1na2vs0mg"},{"bike_id":"a131070a-e779-4800-86bd-eec8ea7cf525","system_id":"levelo_inurba_marseille","lat":43.281074,"lon":5.378342,"is_reserved":false,"is_disabled":false,"rental_uris":{"android":"levelo://app?vid=a131070a-e779-4800-86bd-eec8ea7cf525","ios":"levelo://app?vid=a131070a-e779-4800-86bd-eec8ea7cf525"},"vehicle_type_id":"4","last_reported":1742936920,"current_range_meters":12000,"station_id":"ce4bha12rcd13ifvqee0","pricing_plan_id":"cebpf4jnsgd1na2vs0mg"},{"bike_id":"6b8c4d0c-da52-4a00-84a6-dd13c2cf0d90","system_id":"levelo_inurba_marseille","lat":43.30131,"lon":5.3987,"is_reserved":false,"is_disabled":false,"rental_uris":{"android":"levelo://app?vid=6b8c4d0c-da52-4a00-84a6-dd13c2cf0d90","ios":"levelo://app?vid=6b8c4d0c-da52-4a00-84a6-dd13c2cf0d90"},"vehicle_type_id":"4","last_reported":1742936920,"current_range_meters":12000,"station_id":"ce4bh0h2rcd13ifvqd40","pricing_plan_id":"cebpf4jnsgd1na2vs0mg"},{"bike_id":"ece215a1-7135-4522-bc37-1e64be3b78e0","system_id":"levelo_inurba_marseille","lat":43.2679,"lon":5.39414,"is_reserved":false,"is_disabled":false,"rental_uris":{"android":"levelo://app?vid=ece215a1-7135-4522-bc37-1e64be3b78e0","ios":"levelo://app?vid=ece215a1-7135-4522-bc37-1e64be3b78e0"},"vehicle_type_id":"4","last_reported":1742936920,"current_range_meters":12000,"station_id":"ce4bhh12rcd13ifvqfg0","pricing_plan_id":"cebpf4jnsgd1na2vs0mg"},{"bike_id":"68a58c58-1d21-4816-87f8-62f18507cf20","system_id":"levelo_inurba_marseille","lat":43.24673,"lon":5.38145,"is_reserved":false,"is_disabled":false,"rental_uris":{"android":"levelo://app?vid=68a58c58-1d21-4816-87f8-62f18507cf20","ios":"levelo://app?vid=68a58c58-1d21-4816-87f8-62f18507cf20"},"vehicle_type_id":"4","last_reported":1742936920,"current_range_meters":12000,"station_id":"ce4bhih2rcd13ifvqfr0","pricing_plan_id":"cebpf4jnsgd1na2vs0mg"},{"bike_id":"d7b771dc-e602-44d2-81c0-91ffc1e0de91","system_id":"levelo_inurba_marseille","lat":43.31181,"lon":5.37102,"is_reserved":false,"is_disabled":false,"rental_uris":{"android":"levelo://app?vid=d7b771dc-e602-44d2-81c0-91ffc1e0de91","ios":"levelo://app?vid=d7b771dc-e602-44d2-81c0-91ffc1e0de91"},"vehicle_type_id":"4","last_reported":1742936920,"current_range_meters":12000,"station_id":"","pricing_plan_id":"cebpf4jnsgd1na2vs0mg"},{"bike_id":"587aae4b-c936-4f01-9bae-3433f36e964c","system_id":"levelo_inurba_marseille","lat":43.30884,"lon":5.39658,"is_reserved":false,"is_disabled":false,"rental_uris":{"android":"levelo://app?vid=587aae4b-c936-4f01-9bae-3433f36e964c","ios":"levelo://app?vid=587aae4b-c936-4f01-9bae-3433f36e964c"},"vehicle_type_id":"4","last_reported":1742936920,"current_range_meters":12000,"station_id":"ce4bh012rcd13ifvqcv0","pricing_plan_id":"cebpf4jnsgd1na2vs0mg"},{"bike_id":"54eba66e-0dc9-4fab-a9e6-e33c09196d8d","system_id":"levelo_inurba_marseille","lat":43.28145,"lon":5.42646,"is_reserved":false,"is_disabled":false,"rental_uris":{"android":"levelo://app?vid=54eba66e-0dc9-4fab-a9e6-e33c09196d8d","ios":"levelo://app?vid=54eba66e-0dc9-4fab-a9e6-e33c09196d8d"},"vehicle_type_id":"4","last_reported":1742936920,"current_range_meters":12000,"station_id":"ce4bhnh2rcd13ifvqgug","pricing_plan_id":"cebpf4jnsgd1na2vs0mg"},{"bike_id":"fa14eb3a-1fdb-4bc8-8092-af468e8ded60","system_id":"levelo_inurba_marseille","lat":43.28005,"lon":5.39999,"is_reserved":false,"is_disabled":false,"rental_uris":{"android":"levelo://app?vid=fa14eb3a-1fdb-4bc8-8092-af468e8ded60","ios":"levelo://app?vid=fa14eb3a-1fdb-4bc8-8092-af468e8ded60"},"vehicle_type_id":"4","last_reported":1742936920,"current_range_meters":12000,"station_id":"ce4bho92rcd13ifvqh4g","pricing_plan_id":"cebpf4jnsgd1na2vs0mg"},{"bike_id":"19b89665-83f2-4ac2-84ba-195b9ac8bcd1","system_id":"levelo_inurba_marseille","lat":43.2794,"lon":5.39565,"is_reserved":false,"is_disabled":false,"rental_uris":{"android":"levelo://app?vid=19b89665-83f2-4ac2-84ba-195b9ac8bcd1","ios":"levelo://app?vid=19b89665-83f2-4ac2-84ba-195b9ac8bcd1"},"vehicle_type_id":"4","last_reported":1742936920,"current_range_meters":12000,"station_id":"ce4bhf92rcd13ifvqf40","pricing_plan_id":"cebpf4jnsgd1na2vs0mg"},{"bike_id":"52c6224f-3ae9-4e50-a8b3-ffb0fb8908dc","system_id":"levelo_inurba_marseille","lat":43.29276,"lon":5.38451,"is_reserved":false,"is_disabled":false,"rental_uris":{"android":"levelo://app?vid=52c6224f-3ae9-4e50-a8b3-ffb0fb8908dc","ios":"levelo://app?vid=52c6224f-3ae9-4e50-a8b3-ffb0fb8908dc"},"vehicle_type_id":"4","last_reported":1742936920,"current_range_meters":12000,"station_id":"ce4bh692rcd13ifvqea0","pricing_plan_id":"cebpf4jnsgd1na2vs0mg"},{"bike_id":"1d8a3249-9200-4972-bc96-75314e87b237","system_id":"levelo_inurba_marseille","lat":43.30623,"lon":5.36753,"is_reserved":false,"is_disabled":false,"rental_uris":{"android":"levelo://app?vid=1d8a3249-9200-4972-bc96-75314e87b237","ios":"levelo://app?vid=1d8a3249-9200-4972-bc96-75314e87b237"},"vehicle_type_id":"4","last_reported":1742936920,"current_range_meters":12000,"station_id":"","pricing_plan_id":"cebpf4jnsgd1na2vs0mg"},{"bike_id":"c4b88c2e-98e3-4499-8e1f-4f4d33a56e5a","system_id":"levelo_inurba_marseille","lat":43.28421,"lon":5.34999,"is_reserved":false,"is_disabled":true,"rental_uris":{"android":"levelo://app?vid=c4b88c2e-98e3-4499-8e1f-4f4d33a56e5a","ios":"levelo://app?vid=c4b88c2e-98e3-4499-8e1f-4f4d33a56e5a"},"vehicle_type_id":"4","last_reported":1742936920,"current_range_meters":12000,"station_id":"ce4bhbh2rcd13ifvqepg","pricing_plan_id":"cebpf4jnsgd1na2vs0mg"},{"bike_id":"419e95d8-b511-4804-832e-48cb7b1519ff","system_id":"levelo_inurba_marseille","lat":43.27842,"lon":5.40712,"is_reserved":false,"is_disabled":false,"rental_uris":{"android":"levelo://app?vid=419e95d8-b511-4804-832e-48cb7b1519ff","ios":"levelo://app?vid=419e95d8-b511-4804-832e-48cb7b1519ff"},"vehicle_type_id":"4","last_reported":1742936920,"current_range_meters":12400,"station_id":"ce4bhnh2rcd13ifvqgtg","pricing_plan_id":"cebpf4jnsgd1na2vs0mg"},{"bike_id":"75d89ffb-0e98-4900-bbef-b5d8ed9bccc0","system_id":"levelo_inurba_marseille","lat":43.30906,"lon":5.39617,"is_reserved":false,"is_disabled":false,"rental_uris":{"android":"levelo://app?vid=75d89ffb-0e98-4900-bbef-b5d8ed9bccc0","ios":"levelo://app?vid=75d89ffb-0e98-4900-bbef-b5d8ed9bccc0"},"vehicle_type_id":"4","last_reported":1742936920,"current_range_meters":12400,"station_id":"ce4bh012rcd13ifvqcv0","pricing_plan_id":"cebpf4jnsgd1na2vs0mg"},{"bike_id":"f227af2b-8503-4f19-ae66-00f3342d1506","system_id":"levelo_inurba_marseille","lat":43.31079,"lon":5.42431,"is_reserved":false,"is_disabled":false,"rental_uris":{"android":"levelo://app?vid=f227af2b-8503-4f19-ae66-00f3342d1506","ios":"levelo://app?vid=f227af2b-8503-4f19-ae66-00f3342d1506"},"vehicle_type_id":"4","last_reported":1742936920,"current_range_meters":12400,"station_id":"ce4bhp92rcd13ifvqhag","pricing_plan_id":"cebpf4jnsgd1na2vs0mg"},{"bike_id":"87807891-619d-45ef-9bc3-f89425f9a8a8","system_id":"levelo_inurba_marseille","lat":43.27992,"lon":5.41655,"is_reserved":false,"is_disabled":true,"rental_uris":{"android":"levelo://app?vid=87807891-619d-45ef-9bc3-f89425f9a8a8","ios":"levelo://app?vid=87807891-619d-45ef-9bc3-f89425f9a8a8"},"vehicle_type_id":"4","last_reported":1742936920,"current_range_meters":12400,"station_id":"ce4bho12rcd13ifvqh1g","pricing_plan_id":"cebpf4jnsgd1na2vs0mg"},{"bike_id":"da43d894-069e-486e-a738-14255c3635ad","system_id":"levelo_inurba_marseille","lat":43.26063,"lon":5.3938,"is_reserved":false,"is_disabled":false,"rental_uris":{"android":"levelo://app?vid=da43d894-069e-486e-a738-14255c3635ad","ios":"levelo://app?vid=da43d894-069e-486e-a738-14255c3635ad"},"vehicle_type_id":"4","last_reported":1742936920,"current_range_meters":12400,"station_id":"ce4bhh92rcd13ifvqfj0","pricing_plan_id":"cebpf4jnsgd1na2vs0mg"},{"bike_id":"3ba44278-344f-4684-bf75-31df0ec23b7d","system_id":"levelo_inurba_marseille","lat":43.26036,"lon":5.375363,"is_reserved":false,"is_disabled":false,"rental_uris":{"android":"levelo://app?vid=3ba44278-344f-4684-bf75-31df0ec23b7d","ios":"levelo://app?vid=3ba44278-344f-4684-bf75-31df0ec23b7d"},"vehicle_type_id":"4","last_reported":1742936920,"current_range_meters":12400,"station_id":"ce4bhgh2rcd13ifvqfa0","pricing_plan_id":"cebpf4jnsgd1na2vs0mg"},{"bike_id":"7fdecdeb-36cb-4cf4-9c98-d803f5809435","system_id":"levelo_inurba_marseille","lat":43.261472,"lon":5.398632,"is_reserved":false,"is_disabled":false,"rental_uris":{"android":"levelo://app?vid=7fdecdeb-36cb-4cf4-9c98-d803f5809435","ios":"levelo://app?vid=7fdecdeb-36cb-4cf4-9c98-d803f5809435"},"vehicle_type_id":"4","last_reported":1742936920,"current_range_meters":12400,"station_id":"","pricing_plan_id":"cebpf4jnsgd1na2vs0mg"},{"bike_id":"ee28380f-2566-499f-8ab8-5a75cb1ed72f","system_id":"levelo_inurba_marseille","lat":43.288329,"lon":5.393258,"is_reserved":false,"is_disabled":false,"rental_uris":{"android":"levelo://app?vid=ee28380f-2566-499f-8ab8-5a75cb1ed72f","ios":"levelo://app?vid=ee28380f-2566-499f-8ab8-5a75cb1ed72f"},"vehicle_type_id":"4","last_reported":1742936920,"current_range_meters":12400,"station_id":"","pricing_plan_id":"cebpf4jnsgd1na2vs0mg"},{"bike_id":"1cbcda32-77d4-444a-a60a-b7e8ed92ba8a","system_id":"levelo_inurba_marseille","lat":43.305943,"lon":5.393591,"is_reserved":false,"is_disabled":false,"rental_uris":{"android":"levelo://app?vid=1cbcda32-77d4-444a-a60a-b7e8ed92ba8a","ios":"levelo://app?vid=1cbcda32-77d4-444a-a60a-b7e8ed92ba8a"},