{"last_updated":1751487086,"ttl":60,"version":"2.2","data":{"bikes":[{"bike_id":"3da29fb8-fc97-44c6-b9ac-31dd456b2fd4","system_id":"levelo_inurba_marseille","lat":43.33771,"lon":5.37424,"is_reserved":false,"is_disabled":true,"rental_uris":{"android":"levelo://app?vid=3da29fb8-fc97-44c6-b9ac-31dd456b2fd4","ios":"levelo://app?vid=3da29fb8-fc97-44c6-b9ac-31dd456b2fd4"},"vehicle_type_id":"4","last_reported":1751487086,"current_range_meters":0,"station_id":"","pricing_plan_id":"cebpf4jnsgd1na2vs0mg"},{"bike_id":"01861ad8-a8d7-4be6-816e-651927c87584","system_id":"levelo_inurba_marseille","lat":43.33751,"lon":5.37456,"is_reserved":false,"is_disabled":true,"rental_uris":{"android":"levelo://app?vid=01861ad8-a8d7-4be6-816e-651927c87584","ios":"levelo://app?vid=01861ad8-a8d7-4be6-816e-651927c87584"},"vehicle_type_id":"4","last_reported":1751487086,"current_range_meters":0,"station_id":"","pricing_plan_id":"cebpf4jnsgd1na2vs0mg"},{"bike_id":"371877a1-9494-4af8-8e6e-405e7c47ef43","system_id":"levelo_inurba_marseille","lat":43.29301,"lon":5.4071,"is_reserved":false,"is_disabled":true,"rental_uris":{"android":"levelo://app?vid=371877a1-9494-4af8-8e6e-405e7c47ef43","ios":"levelo://app?vid=371877a1-9494-4af8-8e6e-405e7c47ef43"},"vehicle_type_id":"4","last_reported":1751487086,"current_range_meters":0,"station_id":"","pricing_plan_id":"cebpf4jnsgd1na2vs0mg"},{"bike_id":"6e5b5a4d-1ee5-4068-9613-fb44ab4d8a9a","system_id":"levelo_inurba_marseille","lat":43.34856,"lon":5.34667,"is_reserved":false,"is_disabled":true,"rental_uris":{"android":"levelo://app?vid=6e5b5a4d-1ee5-4068-9613-fb44ab4d8a9a","ios":"levelo://app?vid=6e5b5a4d-1ee5-4068-9613-fb44ab4d8a9a"},"vehicle_type_id":"4","last_reported":1751487086,"current_range_meters":0,"station_id":"","pricing_plan_id":"cebpf4jnsgd1na2vs0mg"},{"bike_id":"b042fbc9-4b04-401c-85ac-8fadab1bf02a","system_id":"levelo_inurba_marseille","lat":43.32628,"lon":5.37502,"is_reserved":false,"is_disabled":true,"rental_uris":{"android":"levelo://app?vid=b042fbc9-4b04-401c-85ac-8fadab1bf02a","ios":"levelo://app?vid=b042fbc9-4b04-401c-85ac-8fadab1bf02a"},"vehicle_type_id":"4","last_reported":1751487086,"current_range_meters":0,"station_id":"","pricing_plan_id":"cebpf4jnsgd1na2vs0mg"},{"bike_id":"88ba2eb8-6abc-42f0-a2b7-fafab863863b","system_id":"levelo_inurba_marseille","lat":43.26107,"lon":5.37348,"is_reserved":false,"is_disabled":true,"rental_uris":{"android":"levelo://app?vid=88ba2eb8-6abc-42f0-a2b7-fafab863863b","ios":"levelo://app?vid=88ba2eb8-6abc-42f0-a2b7-fafab863863b"},"vehicle_type_id":"4","last_reported":1751487086,"current_range_meters":0,"station_id":"","pricing_plan_id":"cebpf4jnsgd1na2vs0mg"},{"bike_id":"1bb6721b-40e7-472f-a33f-8997c7b96ca3","system_id":"levelo_inurba_marseille","lat":43.292236,"lon":5.360683,"is_reserved":false,"is_disabled":true,"rental_uris":{"android":"levelo://app?vid=1bb6721b-40e7-472f-a33f-8997c7b96ca3","ios":"levelo://app?vid=1bb6721b-40e7-472f-a33f-8997c7b96ca3"},"vehicle_type_id":"4","last_reported":1751487086,"current_range_meters":0,"station_id":"ce4bhbh2rcd13ifvqeqg","pricing_plan_id":"cebpf4jnsgd1na2vs0mg"},{"bike_id":"c5cefea7-3d7e-4553-b71e-5d5278df52a0","system_id":"levelo_inurba_marseille","lat":43.30374,"lon":5.42485,"is_reserved":false,"is_disabled":true,"rental_uris":{"android":"levelo://app?vid=c5cefea7-3d7e-4553-b71e-5d5278df52a0","ios":"levelo://app?vid=c5cefea7-3d7e-4553-b71e-5d5278df52a0"},"vehicle_type_id":"4","last_reported":1751487086,"current_range_meters":0,"station_id":"ce4bhoh2rcd13ifvqh6g","pricing_plan_id":"cebpf4jnsgd1na2vs0mg"},{"bike_id":"be4771a0-f822-40f0-a95c-2aaca1d3fb3c","system_id":"levelo_inurba_marseille","lat":43.217571,"lon":5.346009,"is_reserved":false,"is_disabled":true,"rental_uris":{"android":"levelo://app?vid=be4771a0-f822-40f0-a95c-2aaca1d3fb3c","ios":"levelo://app?vid=be4771a0-f822-40f0-a95c-2aaca1d3fb3c"},"vehicle_type_id":"4","last_reported":1751487086,"current_range_meters":0,"station_id":"st_cvj6r9ubvosntc0bgbag","pricing_plan_id":"cebpf4jnsgd1na2vs0mg"},{"bike_id":"731d6acb-a95a-440d-b3e7-4f164867e281","system_id":"levelo_inurba_marseille","lat":43.31498,"lon":5.373,"is_reserved":false,"is_disabled":true,"rental_uris":{"android":"levelo://app?vid=731d6acb-a95a-440d-b3e7-4f164867e281","ios":"levelo://app?vid=731d6acb-a95a-440d-b3e7-4f164867e281"},"vehicle_type_id":"4","last_reported":1751487086,"current_range_meters":800,"station_id":"ce4bgt12rcd13ifvqcd0","pricing_plan_id":"cebpf4jnsgd1na2vs0mg"},{"bike_id":"0e4ff8a5-01fc-420e-b2bf-1235b899c13f","system_id":"levelo_inurba_marseille","lat":43.3064,"lon":5.37387,"is_reserved":false,"is_disabled":true,"rental_uris":{"android":"levelo://app?vid=0e4ff8a5-01fc-420e-b2bf-1235b899c13f","ios":"levelo://app?vid=0e4ff8a5-01fc-420e-b2bf-1235b899c13f"},"vehicle_type_id":"4","last_reported":1751487086,"current_range_meters":1200,"station_id":"","pricing_plan_id":"cebpf4jnsgd1na2vs0mg"},{"bike_id":"a3cc376c-e199-4b58-bc01-5afe6bb01a33","system_id":"levelo_inurba_marseille","lat":43.30194,"lon":5.36599,"is_reserved":false,"is_disabled":true,"rental_uris":{"android":"levelo://app?vid=a3cc376c-e199-4b58-bc01-5afe6bb01a33","ios":"levelo://app?vid=a3cc376c-e199-4b58-bc01-5afe6bb01a33"},"vehicle_type_id":"4","last_reported":1751487086,"current_range_meters":1200,"station_id":"ce4bgrh2rcd13ifvqc8g","pricing_plan_id":"cebpf4jnsgd1na2vs0mg"},{"bike_id":"0ec2fc6f-732b-47a9-8ad0-991153194114","system_id":"levelo_inurba_marseille","lat":43.31321,"lon":5.39707,"is_reserved":false,"is_disabled":true,"rental_uris":{"android":"levelo://app?vid=0ec2fc6f-732b-47a9-8ad0-991153194114","ios":"levelo://app?vid=0ec2fc6f-732b-47a9-8ad0-991153194114"},"vehicle_type_id":"4","last_reported":1751487086,"current_range_meters":1200,"station_id":"ce4bgvp2rcd13ifvqcu0","pricing_plan_id":"cebpf4jnsgd1na2vs0mg"},{"bike_id":"862213ca-5f47-4241-8182-96042f100968","system_id":"levelo_inurba_marseille","lat":43.26212,"lon":5.37437,"is_reserved":false,"is_disabled":true,"rental_uris":{"android":"levelo://app?vid=862213ca-5f47-4241-8182-96042f100968","ios":"levelo://app?vid=862213ca-5f47-4241-8182-96042f100968"},"vehicle_type_id":"4","last_reported":1751487086,"current_range_meters":1200,"station_id":"ce4bhgp2rcd13ifvqfc0","pricing_plan_id":"cebpf4jnsgd1na2vs0mg"},{"bike_id":"71a630b6-91c1-4f9c-a554-6477fa26b9d3","system_id":"levelo_inurba_marseille","lat":43.32363,"lon":5.38878,"is_reserved":false,"is_disabled":true,"rental_uris":{"android":"levelo://app?vid=71a630b6-91c1-4f9c-a554-6477fa26b9d3","ios":"levelo://app?vid=71a630b6-91c1-4f9c-a554-6477fa26b9d3"},"vehicle_type_id":"4","last_reported":1751487086,"current_range_meters":1200,"station_id":"ce4bhqp2rcd13ifvqhog","pricing_plan_id":"cebpf4jnsgd1na2vs0mg"},{"bike_id":"d275b1e5-19ba-4ae9-a73e-cc24c7bc337a","system_id":"levelo_inurba_marseille","lat":43.3043,"lon":5.38902,"is_reserved":false,"is_disabled":true,"rental_uris":{"android":"levelo://app?vid=d275b1e5-19ba-4ae9-a73e-cc24c7bc337a","ios":"levelo://app?vid=d275b1e5-19ba-4ae9-a73e-cc24c7bc337a"},"vehicle_type_id":"4","last_reported":1751487086,"current_range_meters":1600,"station_id":"ce4bgk12rcd13ifvqbi0","pricing_plan_id":"cebpf4jnsgd1na2vs0mg"},{"bike_id":"c7a72b6e-b308-4545-92a9-335949ff7b1d","system_id":"levelo_inurba_marseille","lat":43.30306,"lon":5.39215,"is_reserved":false,"is_disabled":true,"rental_uris":{"android":"levelo://app?vid=c7a72b6e-b308-4545-92a9-335949ff7b1d","ios":"levelo://app?vid=c7a72b6e-b308-4545-92a9-335949ff7b1d"},"vehicle_type_id":"4","last_reported":1751487086,"current_range_meters":1600,"station_id":"ce4bgkh2rcd13ifvqbk0","pricing_plan_id":"cebpf4jnsgd1na2vs0mg"},{"bike_id":"5f3d9b66-7853-47e8-92ac-0694ec9f363b","system_id":"levelo_inurba_marseille","lat":43.2991,"lon":5.38144,"is_reserved":false,"is_disabled":true,"rental_uris":{"android":"levelo://app?vid=5f3d9b66-7853-47e8-92ac-0694ec9f363b","ios":"levelo://app?vid=5f3d9b66-7853-47e8-92ac-0694ec9f363b"},"vehicle_type_id":"4","last_reported":1751487086,"current_range_meters":2000,"station_id":"ce4bgj12rcd13ifvqbc0","pricing_plan_id":"cebpf4jnsgd1na2vs0mg"},{"bike_id":"c9990859-ac6a-4ab7-9195-2f69f48ec2c5","system_id":"levelo_inurba_marseille","lat":43.316818,"lon":5.404669,"is_reserved":false,"is_disabled":true,"rental_uris":{"android":"levelo://app?vid=c9990859-ac6a-4ab7-9195-2f69f48ec2c5","ios":"levelo://app?vid=c9990859-ac6a-4ab7-9195-2f69f48ec2c5"},"vehicle_type_id":"4","last_reported":1751487086,"current_range_meters":2000,"station_id":"ce4bh012rcd13ifvqd00","pricing_plan_id":"cebpf4jnsgd1na2vs0mg"},{"bike_id":"c0ddabe6-539b-4aef-922e-ef84a6b4bcf0","system_id":"levelo_inurba_marseille","lat":43.26212,"lon":5.37439,"is_reserved":false,"is_disabled":true,"rental_uris":{"android":"levelo://app?vid=c0ddabe6-539b-4aef-922e-ef84a6b4bcf0","ios":"levelo://app?vid=c0ddabe6-539b-4aef-922e-ef84a6b4bcf0"},"vehicle_type_id":"4","last_reported":1751487086,"current_range_meters":2000,"station_id":"ce4bhgp2rcd13ifvqfc0","pricing_plan_id":"cebpf4jnsgd1na2vs0mg"},{"bike_id":"10be7a19-7bb3-4be8-8e03-f074498ccbe9","system_id":"levelo_inurba_marseille","lat":43.21736,"lon":5.34609,"is_reserved":false,"is_disabled":true,"rental_uris":{"android":"levelo://app?vid=10be7a19-7bb3-4be8-8e03-f074498ccbe9","ios":"levelo://app?vid=10be7a19-7bb3-4be8-8e03-f074498ccbe9"},"vehicle_type_id":"4","last_reported":1751487086,"current_range_meters":2000,"station_id":"st_cvj6r9ubvosntc0bgbag","pricing_plan_id":"cebpf4jnsgd1na2vs0mg"},{"bike_id":"ab54c3bf-ff37-489a-a72d-865dde199b4f","system_id":"levelo_inurba_marseille","lat":43.289246,"lon":5.383973,"is_reserved":false,"is_disabled":false,"rental_uris":{"android":"levelo://app?vid=ab54c3bf-ff37-489a-a72d-865dde199b4f","ios":"levelo://app?vid=ab54c3bf-ff37-489a-a72d-865dde199b4f"},"vehicle_type_id":"4","last_reported":1751487086,"current_range_meters":2800,"station_id":"ce4bh612rcd13ifvqe6g","pricing_plan_id":"cebpf4jnsgd1na2vs0mg"},{"bike_id":"59640eef-919b-4433-b425-1a136652b8ad","system_id":"levelo_inurba_marseille","lat":43.26213,"lon":5.37438,"is_reserved":false,"is_disabled":false,"rental_uris":{"android":"levelo://app?vid=59640eef-919b-4433-b425-1a136652b8ad","ios":"levelo://app?vid=59640eef-919b-4433-b425-1a136652b8ad"},"vehicle_type_id":"4","last_reported":1751487086,"current_range_meters":2800,"station_id":"ce4bhgp2rcd13ifvqfc0","pricing_plan_id":"cebpf4jnsgd1na2vs0mg"},{"bike_id":"55328e8e-857b-4e3f-82d1-081a077c07c7","system_id":"levelo_inurba_marseille","lat":43.316752,"lon":5.372959,"is_reserved":false,"is_disabled":false,"rental_uris":{"android":"levelo://app?vid=55328e8e-857b-4e3f-82d1-081a077c07c7","ios":"levelo://app?vid=55328e8e-857b-4e3f-82d1-081a077c07c7"},"vehicle_type_id":"4","last_reported":1751487086,"current_range_meters":3200,"station_id":"ce4bgt12rcd13ifvqcd0","pricing_plan_id":"cebpf4jnsgd1na2vs0mg"},{"bike_id":"8252b44a-d048-4379-9209-2efa2e627825","system_id":"levelo_inurba_marseille","lat":43.29233,"lon":5.40579,"is_reserved":false,"is_disabled":false,"rental_uris":{"android":"levelo://app?vid=8252b44a-d048-4379-9209-2efa2e627825","ios":"levelo://app?vid=8252b44a-d048-4379-9209-2efa2e627825"},"vehicle_type_id":"4","last_reported":1751487086,"current_range_meters":3600,"station_id":"","pricing_plan_id":"cebpf4jnsgd1na2vs0mg"},{"bike_id":"8e365e3c-559a-4ba6-a6c5-4c159e2434fc","system_id":"levelo_inurba_marseille","lat":43.217511,"lon":5.346054,"is_reserved":false,"is_disabled":false,"rental_uris":{"android":"levelo://app?vid=8e365e3c-559a-4ba6-a6c5-4c159e2434fc","ios":"levelo://app?vid=8e365e3c-559a-4ba6-a6c5-4c159e2434fc"},"vehicle_type_id":"4","last_reported":1751487086,"current_range_meters":3600,"station_id":"","pricing_plan_id":"cebpf4jnsgd1na2vs0mg"},{"bike_id":"6b02e04b-74e9-438e-9297-fa5b2710f9b3","system_id":"levelo_inurba_marseille","lat":43.27836,"lon":5.39189,"is_reserved":false,"is_disabled":false,"rental_uris":{"android":"levelo://app?vid=6b02e04b-74e9-438e-9297-fa5b2710f9b3","ios":"levelo://app?vid=6b02e04b-74e9-438e-9297-fa5b2710f9b3"},"vehicle_type_id":"4","last_reported":1751487086,"current_range_meters":3600,"station_id":"ce4bhjp2rcd13ifvqga0","pricing_plan_id":"cebpf4jnsgd1na2vs0mg"},{"bike_id":"82912d65-7a65-4ed5-906b-83665c20dea3","system_id":"levelo_inurba_marseille","lat":43.27912,"lon":5.39581,"is_reserved":false,"is_disabled":false,"rental_uris":{"android":"levelo://app?vid=82912d65-7a65-4ed5-906b-83665c20dea3","ios":"levelo://app?vid=82912d65-7a65-4ed5-906b-83665c20dea3"},"vehicle_type_id":"4","last_reported":1751487086,"current_range_meters":4400,"station_id":"ce4bhf92rcd13ifvqf40","pricing_plan_id":"cebpf4jnsgd1na2vs0mg"},{"bike_id":"2b6b4583-6bbf-456d-9d52-719722bca41e","system_id":"levelo_inurba_marseille","lat":43.23147,"lon":5.43722,"is_reserved":false,"is_disabled":false,"rental_uris":{"android":"levelo://app?vid=2b6b4583-6bbf-456d-9d52-719722bca41e","ios":"levelo://app?vid=2b6b4583-6bbf-456d-9d52-719722bca41e"},"vehicle_type_id":"4","last_reported":1751487086,"current_range_meters":4400,"station_id":"ce4bhmp2rcd13ifvqgog","pricing_plan_id":"cebpf4jnsgd1na2vs0mg"},{"bike_id":"79b23b6f-af4e-4534-bfc9-be6cf070052b","system_id":"levelo_inurba_marseille","lat":43.3055,"lon":5.38425,"is_reserved":false,"is_disabled":false,"rental_uris":{"android":"levelo://app?vid=79b23b6f-af4e-4534-bfc9-be6cf070052b","ios":"levelo://app?vid=79b23b6f-af4e-4534-bfc9-be6cf070052b"},"vehicle_type_id":"4","last_reported":1751487086,"current_range_meters":4800,"station_id":"ce4bgg92rcd13ifvqb30","pricing_plan_id":"cebpf4jnsgd1na2vs0mg"},{"bike_id":"27067321-28f8-41cd-b5ee-d1b06c146bef","system_id":"levelo_inurba_marseille","lat":43.29749,"lon":5.37709,"is_reserved":false,"is_disabled":false,"rental_uris":{"android":"levelo://app?vid=27067321-28f8-41cd-b5ee-d1b06c146bef","ios":"levelo://app?vid=27067321-28f8-41cd-b5ee-d1b06c146bef"},"vehicle_type_id":"4","last_reported":1751487086,"current_range_meters":5600,"station_id":"","pricing_plan_id":"cebpf4jnsgd1na2vs0mg"},{"bike_id":"7de7c2c8-df6b-43fa-b263-6c016dae4134","system_id":"levelo_inurba_marseille","lat":43.27819,"lon":5.41426,"is_reserved":false,"is_disabled":false,"rental_uris":{"android":"levelo://app?vid=7de7c2c8-df6b-43fa-b263-6c016dae4134","ios":"levelo://app?vid=7de7c2c8-df6b-43fa-b263-6c016dae4134"},"vehicle_type_id":"4","last_reported":1751487086,"current_range_meters":5600,"station_id":"","pricing_plan_id":"cebpf4jnsgd1na2vs0mg"},{"bike_id":"19e780ee-4189-4c0d-b3e5-378b3e35108f","system_id":"levelo_inurba_marseille","lat":43.27806,"lon":5.40704,"is_reserved":false,"is_disabled":false,"rental_uris":{"android":"levelo://app?vid=19e780ee-4189-4c0d-b3e5-378b3e35108f","ios":"levelo://app?vid=19e780ee-4189-4c0d-b3e5-378b3e35108f"},"vehicle_type_id":"4","last_reported":1751487086,"current_range_meters":5600,"station_id":"ce4bhnh2rcd13ifvqgtg","pricing_plan_id":"cebpf4jnsgd1na2vs0mg"},{"bike_id":"6381fed5-8a74-48cb-bdfc-e16a9a5ba26a","system_id":"levelo_inurba_marseille","lat":43.30789,"lon":5.37643,"is_reserved":false,"is_disabled":false,"rental_uris":{"android":"levelo://app?vid=6381fed5-8a74-48cb-bdfc-e16a9a5ba26a","ios":"levelo://app?vid=6381fed5-8a74-48cb-bdfc-e16a9a5ba26a"},"vehicle_type_id":"4","last_reported":1751487086,"current_range_meters":6400,"station_id":"ce4bgv92rcd13ifvqcq0","pricing_plan_id":"cebpf4jnsgd1na2vs0mg"},{"bike_id":"bcf8cd8f-da4c-4a2c-940d-3b642f86234d","system_id":"levelo_inurba_marseille","lat":43.31323,"lon":5.39688,"is_reserved":false,"is_disabled":false,"rental_uris":{"android":"levelo://app?vid=bcf8cd8f-da4c-4a2c-940d-3b642f86234d","ios":"levelo://app?vid=bcf8cd8f-da4c-4a2c-940d-3b642f86234d"},"vehicle_type_id":"4","last_reported":1751487086,"current_range_meters":6400,"station_id":"ce4bgvp2rcd13ifvqcu0","pricing_plan_id":"cebpf4jnsgd1na2vs0mg"},{"bike_id":"ad2d91ed-f0cd-44bf-ad54-0d77f7a7c7b4","system_id":"levelo_inurba_marseille","lat":43.26227,"lon":5.40446,"is_reserved":false,"is_disabled":false,"rental_uris":{"android":"levelo://app?vid=ad2d91ed-f0cd-44bf-ad54-0d77f7a7c7b4","ios":"levelo://app?vid=ad2d91ed-f0cd-44bf-ad54-0d77f7a7c7b4"},"vehicle_type_id":"4","last_reported":1751487086,"current_range_meters":6400,"station_id":"ce4bhmh2rcd13ifvqgmg","pricing_plan_id":"cebpf4jnsgd1na2vs0mg"},{"bike_id":"8d34a133-e66c-4d12-863c-02cdf1a89d12","system_id":"levelo_inurba_marseille","lat":43.286952,"lon":5.399834,"is_reserved":false,"is_disabled":false,"rental_uris":{"android":"levelo://app?vid=8d34a133-e66c-4d12-863c-02cdf1a89d12","ios":"levelo://app?vid=8d34a133-e66c-4d12-863c-02cdf1a89d12"},"vehicle_type_id":"4","last_reported":1751487086,"current_range_meters":6400,"station_id":"ce4bho92rcd13ifvqh3g","pricing_plan_id":"cebpf4jnsgd1na2vs0mg"},{"bike_id":"c2b72fe0-bae6-4c7b-ad48-9e771b203dc8","system_id":"levelo_inurba_marseille","lat":43.3135,"lon":5.38459,"is_reserved":false,"is_disabled":false,"rental_uris":{"android":"levelo://app?vid=c2b72fe0-bae6-4c7b-ad48-9e771b203dc8","ios":"levelo://app?vid=c2b72fe0-bae6-4c7b-ad48-9e771b203dc8"},"vehicle_type_id":"4","last_reported":1751487086,"current_range_meters":6800,"station_id":"ce4bgt92rcd13ifvqcf0","pricing_plan_id":"cebpf4jnsgd1na2vs0mg"},{"bike_id":"463aab4f-3ff6-4c7c-a1ea-0796d6ce8bfb","system_id":"levelo_inurba_marseille","lat":43.31357,"lon":5.38483,"is_reserved":false,"is_disabled":false,"rental_uris":{"android":"levelo://app?vid=463aab4f-3ff6-4c7c-a1ea-0796d6ce8bfb","ios":"levelo://app?vid=463aab4f-3ff6-4c7c-a1ea-0796d6ce8bfb"},"vehicle_type_id":"4","last_reported":1751487086,"current_range_meters":6800,"station_id":"ce4bgt92rcd13ifvqcf0","pricing_plan_id":"cebpf4jnsgd1na2vs0mg"},{"bike_id":"8dd003c6-f6e4-441e-80e4-5b0d2aa3fa82","system_id":"levelo_inurba_marseille","lat":43.29197,"lon":5.39329,"is_reserved":false,"is_disabled":false,"rental_uris":{"android":"levelo://app?vid=8dd003c6-f6e4-441e-80e4-5b0d2aa3fa82","ios":"levelo://app?vid=8dd003c6-f6e4-441e-80e4-5b0d2aa3fa82"},"vehicle_type_id":"4","last_reported":1751487086,"current_range_meters":6800,"station_id":"ce4bh192rcd13ifvqdd0","pricing_plan_id":"cebpf4jnsgd1na2vs0mg"},{"bike_id":"00a3b5cd-abd2-41d9-b435-347417039d29","system_id":"levelo_inurba_marseille","lat":43.25867,"lon":5.39898,"is_reserved":false,"is_disabled":false,"rental_uris":{"android":"levelo://app?vid=00a3b5cd-abd2-41d9-b435-347417039d29","ios":"levelo://app?vid=00a3b5cd-abd2-41d9-b435-347417039d29"},"vehicle_type_id":"4","last_reported":1751487086,"current_range_meters":7200,"station_id":"ce4bhl92rcd13ifvqghg","pricing_plan_id":"cebpf4jnsgd1na2vs0mg"},{"bike_id":"23264f8a-39a7-4e3f-ac27-2ad64e2afce3","system_id":"levelo_inurba_marseille","lat":43.28155,"lon":5.42638,"is_reserved":false,"is_disabled":false,"rental_uris":{"android":"levelo://app?vid=23264f8a-39a7-4e3f-ac27-2ad64e2afce3","ios":"levelo://app?vid=23264f8a-39a7-4e3f-ac27-2ad64e2afce3"},"vehicle_type_id":"4","last_reported":1751487086,"current_range_meters":7200,"station_id":"ce4bhnh2rcd13ifvqgug","pricing_plan_id":"cebpf4jnsgd1na2vs0mg"},{"bike_id":"f6ba764e-5e7c-4bca-b5f6-1fdbb83fc7a4","system_id":"levelo_inurba_marseille","lat":43.29296,"lon":5.37461,"is_reserved":false,"is_disabled":false,"rental_uris":{"android":"levelo://app?vid=f6ba764e-5e7c-4bca-b5f6-1fdbb83fc7a4","ios":"levelo://app?vid=f6ba764e-5e7c-4bca-b5f6-1fdbb83fc7a4"},"vehicle_type_id":"4","last_reported":1751487086,"current_range_meters":8000,"station_id":"ce4bgi12rcd13ifvqb70","pricing_plan_id":"cebpf4jnsgd1na2vs0mg"},{"bike_id":"7c0c45d2-2b05-48ab-8bc0-4c2c28cccf9e","system_id":"levelo_inurba_marseille","lat":43.308843,"lon":5.396307,"is_reserved":false,"is_disabled":false,"rental_uris":{"android":"levelo://app?vid=7c0c45d2-2b05-48ab-8bc0-4c2c28cccf9e","ios":"levelo://app?vid=7c0c45d2-2b05-48ab-8bc0-4c2c28cccf9e"},"vehicle_type_id":"4","last_reported":1751487086,"current_range_meters":8000,"station_id":"ce4bh012rcd13ifvqcv0","pricing_plan_id":"cebpf4jnsgd1na2vs0mg"},{"bike_id":"030dd903-6713-4121-8339-17ece3d5a58e","system_id":"levelo_inurba_marseille","lat":43.21183,"lon":5.35062,"is_reserved":false,"is_disabled":false,"rental_uris":{"android":"levelo://app?vid=030dd903-6713-4121-8339-17ece3d5a58e","ios":"levelo://app?vid=030dd903-6713-4121-8339-17ece3d5a58e"},"vehicle_type_id":"4","last_reported":1751487086,"current_range_meters":8000,"station_id":"st_cvj6sg6p6f1abm77japg","pricing_plan_id":"cebpf4jnsgd1na2vs0mg"},{"bike_id":"101a302d-165e-4de2-a21e-e4d88ad3a3dc","system_id":"levelo_inurba_marseille","lat":43.30432,"lon":5.39741,"is_reserved":false,"is_disabled":false,"rental_uris":{"android":"levelo://app?vid=101a302d-165e-4de2-a21e-e4d88ad3a3dc","ios":"levelo://app?vid=101a302d-165e-4de2-a21e-e4d88ad3a3dc"},"vehicle_type_id":"4","last_reported":1751487086,"current_range_meters":8400,"station_id":"ce4bh092rcd13ifvqd20","pricing_plan_id":"cebpf4jnsgd1na2vs0mg"},{"bike_id":"84523df9-fd4d-4076-ac36-8e0d58ddb548","system_id":"levelo_inurba_marseille","lat":43.31711,"lon":5.43709,"is_reserved":false,"is_disabled":false,"rental_uris":{"android":"levelo://app?vid=84523df9-fd4d-4076-ac36-8e0d58ddb548","ios":"levelo://app?vid=84523df9-fd4d-4076-ac36-8e0d58ddb548"},"vehicle_type_id":"4","last_reported":1751487086,"current_range_meters":8400,"station_id":"ce4bhp92rcd13ifvqhcg","pricing_plan_id":"cebpf4jnsgd1na2vs0mg"},{"bike_id":"9610e57b-e24c-4c16-838c-092b893b30dc","system_id":"levelo_inurba_marseille","lat":43.21749,"lon":5.34596,"is_reserved":false,"is_disabled":false,"rental_uris":{"android":"levelo://app?vid=9610e57b-e24c-4c16-838c-092b893b30dc","ios":"levelo://app?vid=9610e57b-e24c-4c16-838c-092b893b30dc"},"vehicle_type_id":"4","last_reported":1751487086,"current_range_meters":8400,"station_id":"st_cvj6r9ubvosntc0bgbag","pricing_plan_id":"cebpf4jnsgd1na2vs0mg"},{"bike_id":"02e45300-3677-494b-87c1-cc9d2bbb0119","system_id":"levelo_inurba_marseille","lat":43.292662,"lon":5.384364,"is_reserved":false,"is_disabled":false,"rental_uris":{"android":"levelo://app?vid=02e45300-3677-494b-87c1-cc9d2bbb0119","ios":"levelo://app?vid=02e45300-3677-494b-87c1-cc9d2bbb0119"},"vehicle_type_id":"4","last_reported":1751487086,"current_range_meters":8800,"station_id":"ce4bh692rcd13ifvqea0","pricing_plan_id":"cebpf4jnsgd1na2vs0mg"},{"bike_id":"25b22127-64f8-48a7-b387-d9762f7b30f4","system_id":"levelo_inurba_marseille","lat":43.29262,"lon":5.3843,"is_reserved":false,"is_disabled":false,"rental_uris":{"android":"levelo://app?vid=25b22127-64f8-48a7-b387-d9762f7b30f4","ios":"levelo://app?vid=25b22127-64f8-48a7-b387-d9762f7b30f4"},"vehicle_type_id":"4","last_reported":1751487086,"current_range_meters":8800,"station_id":"ce4bh692rcd13ifvqea0","pricing_plan_id":"cebpf4jnsgd1na2vs0mg"},{"bike_id":"2d7998f7-8b89-4345-a080-80696804da80","system_id":"levelo_inurba_marseille","lat":43.30417,"lon":5.41282,"is_reserved":false,"is_disabled":false,"rental_uris":{"android":"levelo://app?vid=2d7998f7-8b89-4345-a080-80696804da80","ios":"levelo://app?vid=2d7998f7-8b89-4345-a080-80696804da80"},"vehicle_type_id":"4","last_reported":1751487086,"current_range_meters":8800,"station_id":"ce4bhop2rcd13ifvqh8g","pricing_plan_id":"cebpf4jnsgd1na2vs0mg"},{"bike_id":"d552dd0e-194e-41d1-892c-d0392ca5fa92","system_id":"levelo_inurba_marseille","lat":43.29264,"lon":5.38431,"is_reserved":false,"is_disabled":false,"rental_uris":{"android":"levelo://app?vid=d552dd0e-194e-41d1-892c-d0392ca5fa92","ios":"levelo://app?vid=d552dd0e-194e-41d1-892c-d0392ca5fa92"},"vehicle_type_id":"4","last_reported":1751487086,"current_range_meters":9200,"station_id":"ce4bh692rcd13ifvqea0","pricing_plan_id":"cebpf4jnsgd1na2vs0mg"},{"bike_id":"29b6a37a-9890-4a5e-8903-a13d8b4e27e5","system_id":"levelo_inurba_marseille","lat":43.24655,"lon":5.38172,"is_reserved":false,"is_disabled":false,"rental_uris":{"android":"levelo://app?vid=29b6a37a-9890-4a5e-8903-a13d8b4e27e5","ios":"levelo://app?vid=29b6a37a-9890-4a5e-8903-a13d8b4e27e5"},"vehicle_type_id":"4","last_reported":1751487086,"current_range_meters":9200,"station_id":"ce4bhih2rcd13ifvqfr0","pricing_plan_id":"cebpf4jnsgd1na2vs0mg"},{"bike_id":"37c760a7-93cb-4186-93e9-8c986461c0b3","system_id":"levelo_inurba_marseille","lat":43.32656,"lon":5.40995,"is_reserved":false,"is_disabled":false,"rental_uris":{"android":"levelo://app?vid=37c760a7-93cb-4186-93e9-8c986461c0b3","ios":"levelo://app?vid=37c760a7-93cb-4186-93e9-8c986461c0b3"},"vehicle_type_id":"4","last_reported":1751487086,"current_range_meters":9200,"station_id":"ce4bhpp2rcd13ifvqhgg","pricing_plan_id":"cebpf4jnsgd1na2vs0mg"},{"bike_id":"14109409-200f-4e1c-8ac9-a77f3999e48a","system_id":"levelo_inurba_marseille","lat":43.3414,"lon":5.409,"is_reserved":false,"is_disabled":false,"rental_uris":{"android":"levelo://app?vid=14109409-200f-4e1c-8ac9-a77f3999e48a","ios":"levelo://app?vid=14109409-200f-4e1c-8ac9-a77f3999e48a"},"vehicle_type_id":"4","last_reported":1751487086,"current_range_meters":9600,"station_id":"ce4bhqh2rcd13ifvqhlg","pricing_plan_id":"cebpf4jnsgd1na2vs0mg"},{"bike_id":"5d73aeae-c5d0-4f0a-8de8-937f8bf4c0a7","system_id":"levelo_inurba_marseille","lat":43.29791,"lon":5.39318,"is_reserved":false,"is_disabled":false,"rental_uris":{"android":"levelo://app?vid=5d73aeae-c5d0-4f0a-8de8-937f8bf4c0a7","ios":"levelo://app?vid=5d73aeae-c5d0-4f0a-8de8-937f8bf4c0a7"},"vehicle_type_id":"4","last_reported":1751487086,"current_range_meters":9600,"station_id":"chh1huq6cuj3fo74tm60","pricing_plan_id":"cebpf4jnsgd1na2vs0mg"},{"bike_id":"8ad00ccc-3ccb-493b-a2b4-49cd4dd94c33","system_id":"levelo_inurba_marseille","lat":43.21751,"lon":5.34499,"is_reserved":false,"is_disabled":false,"rental_uris":{"android":"levelo://app?vid=8ad00ccc-3ccb-493b-a2b4-49cd4dd94c33","ios":"levelo://app?vid=8ad00ccc-3ccb-493b-a2b4-49cd4dd94c33"},"vehicle_type_id":"4","last_reported":1751487086,"current_range_meters":10000,"station_id":"","pricing_plan_id":"cebpf4jnsgd1na2vs0mg"},{"bike_id":"8ae0fad5-958b-47e2-b7df-94ab733197e8","system_id":"levelo_inurba_marseille","lat":43.30892,"lon":5.39634,"is_reserved":false,"is_disabled":false,"rental_uris":{"android":"levelo://app?vid=8ae0fad5-958b-47e2-b7df-94ab733197e8","ios":"levelo://app?vid=8ae0fad5-958b-47e2-b7df-94ab733197e8"},"vehicle_type_id":"4","last_reported":1751487086,"current_range_meters":10000,"station_id":"ce4bh012rcd13ifvqcv0","pricing_plan_id":"cebpf4jnsgd1na2vs0mg"},{"bike_id":"da203ef7-c686-4192-a60a-c4a88943f4a7","system_id":"levelo_inurba_marseille","lat":43.2804,"lon":5.36949,"is_reserved":false,"is_disabled":false,"rental_uris":{"android":"levelo://app?vid=da203ef7-c686-4192-a60a-c4a88943f4a7","ios":"levelo://app?vid=da203ef7-c686-4192-a60a-c4a88943f4a7"},"vehicle_type_id":"4","last_reported":1751487086,"current_range_meters":10000,"station_id":"ce4bha12rcd13ifvqef0","pricing_plan_id":"cebpf4jnsgd1na2vs0mg"},{"bike_id":"57be8e4e-eaca-4c34-9b51-927e1cb83642","system_id":"levelo_inurba_marseille","lat":43.2767,"lon":5.38863,"is_reserved":false,"is_disabled":false,"rental_uris":{"android":"levelo://app?vid=57be8e4e-eaca-4c34-9b51-927e1cb83642","ios":"levelo://app?vid=57be8e4e-eaca-4c34-9b51-927e1cb83642"},"vehicle_type_id":"4","last_reported":1751487086,"current_range_meters":10000,"station_id":"ce4bhi12rcd13ifvqfo0","pricing_plan_id":"cebpf4jnsgd1na2vs0mg"},{"bike_id":"3dd47c2e-10e3-42f9-970c-f3f3c6d88672","system_id":"levelo_inurba_marseille","lat":43.2572,"lon":5.41113,"is_reserved":false,"is_disabled":false,"rental_uris":{"android":"levelo://app?vid=3dd47c2e-10e3-42f9-970c-f3f3c6d88672","ios":"levelo://app?vid=3dd47c2e-10e3-42f9-970c-f3f3c6d88672"},"vehicle_type_id":"4","last_reported":1751487086,"current_range_meters":10000,"station_id":"ce4bhkp2rcd13ifvqgd0","pricing_plan_id":"cebpf4jnsgd1na2vs0mg"},{"bike_id":"88f0d88a-1dec-4977-a19a-71293da7fba4","system_id":"levelo_inurba_marseille","lat":43.32371,"lon":5.36736,"is_reserved":false,"is_disabled":false,"rental_uris":{"android":"levelo://app?vid=88f0d88a-1dec-4977-a19a-71293da7fba4","ios":"levelo://app?vid=88f0d88a-1dec-4977-a19a-71293da7fba4"},"vehicle_type_id":"4","last_reported":1751487086,"current_range_meters":10000,"station_id":"ce4bhsh2rcd13ifvqi2g","pricing_plan_id":"cebpf4jnsgd1na2vs0mg"},{"bike_id":"4c0311f5-a6c2-4a0c-8cc6-25a325dfc50d","system_id":"levelo_inurba_marseille","lat":43.27376,"lon":5.36256,"is_reserved":false,"is_disabled":false,"rental_uris":{"android":"levelo://app?vid=4c0311f5-a6c2-4a0c-8cc6-25a325dfc50d","ios":"levelo://app?vid=4c0311f5-a6c2-4a0c-8cc6-25a325dfc50d"},"vehicle_type_id":"4","last_reported":1751487086,"current_range_meters":10800,"station_id":"ce4bhbh2rcd13ifvqeo0","pricing_plan_id":"cebpf4jnsgd1na2vs0mg"},{"bike_id":"c1a6a305-20f2-47ad-8271-b81efe3a34b4","system_id":"levelo_inurba_marseille","lat":43.29269,"lon":5.37623,"is_reserved":false,"is_disabled":false,"rental_uris":{"android":"levelo://app?vid=c1a6a305-20f2-47ad-8271-b81efe3a34b4","ios":"levelo://app?vid=c1a6a305-20f2-47ad-8271-b81efe3a34b4"},"vehicle_type_id":"4","last_reported":1751487086,"current_range_meters":11200,"station_id":"ce4bgi12rcd13ifvqb80","pricing_plan_id":"cebpf4jnsgd1na2vs0mg"},{"bike_id":"401dc569-de2e-4ffe-a717-d6f78a809107","system_id":"levelo_inurba_marseille","lat":43.29537,"lon":5.38546,"is_reserved":false,"is_disabled":false,"rental_uris":{"android":"levelo://app?vid=401dc569-de2e-4ffe-a717-d6f78a809107","ios":"levelo://app?vid=401dc569-de2e-4ffe-a717-d6f78a809107"},"vehicle_type_id":"4","last_reported":1751487086,"current_range_meters":11200,"station_id":"ce4bgih2rcd13ifvqba0","pricing_plan_id":"cebpf4jnsgd1na2vs0mg"},{"bike_id":"ff5d153f-eb7c-4b24-8415-3f8813aa8920","system_id":"levelo_inurba_marseille","lat":43.28426,"lon":5.34975,"is_reserved":false,"is_disabled":false,"rental_uris":{"android":"levelo://app?vid=ff5d153f-eb7c-4b24-8415-3f8813aa8920","ios":"levelo://app?vid=ff5d153f-eb7c-4b24-8415-3f8813aa8920"},"vehicle_type_id":"4","last_reported":1751487086,"current_range_meters":11600,"station_id":"ce4bhbh2rcd13ifvqepg","pricing_plan_id":"cebpf4jnsgd1na2vs0mg"},{"bike_id":"b28aa0a0-791c-4a08-9a16-c7bf6ea0ed5a","system_id":"levelo_inurba_marseille","lat":43.22503,"lon":5.34777,"is_reserved":false,"is_disabled":false,"rental_uris":{"android":"levelo://app?vid=b28aa0a0-791c-4a08-9a16-c7bf6ea0ed5a","ios":"levelo://app?vid=b28aa0a0-791c-4a08-9a16-c7bf6ea0ed5a"},"vehicle_type_id":"4","last_reported":1751487086,"current_range_meters":11600,"station_id":"st_cvj5dfep6f1abm77gieg","pricing_plan_id":"cebpf4jnsgd1na2vs0mg"},{"bike_id":"d16b9dec-c438-4000-91c8-6cda5b0545dc","system_id":"levelo_inurba_marseille","lat":43.24886,"lon":5.37519,"is_reserved":false,"is_disabled":false,"rental_uris":{"android":"levelo://app?vid=d16b9dec-c438-4000-91c8-6cda5b0545dc","ios":"levelo://app?vid=d16b9dec-c438-4000-91c8-6cda5b0545dc"},"vehicle_type_id":"4","last_reported":1751487086,"current_range_meters":12000,"station_id":"","pricing_plan_id":"cebpf4jnsgd1na2vs0mg"},{"bike_id":"35096aad-bcc5-45f8-b9af-bbf6239f4dd4","system_id":"levelo_inurba_marseille","lat":43.286628,"lon":5.386752,"is_reserved":false,"is_disabled":false,"rental_uris":{"android":"levelo://app?vid=35096aad-bcc5-45f8-b9af-bbf6239f4dd4","ios":"levelo://app?vid=35096aad-bcc5-45f8-b9af-bbf6239f4dd4"},"vehicle_type_id":"4","last_reported":1751487086,"current_range_meters":12000,"station_id":"ce4bh492rcd13ifvqdug","pricing_plan_id":"cebpf4jnsgd1na2vs0mg"},{"bike_id":"06bb1293-77e2-44a3-9e10-1607407328dc","system_id":"levelo_inurba_marseille","lat":43.28425,"lon":5.34981,"is_reserved":false,"is_disabled":false,"rental_uris":{"android":"levelo://app?vid=06bb1293-77e2-44a3-9e10-1607407328dc","ios":"levelo://app?vid=06bb1293-77e2-44a3-9e10-1607407328dc"},"vehicle_type_id":"4","last_reported":1751487086,"current_range_meters":12000,"station_id":"ce4bhbh2rcd13ifvqepg","pricing_plan_id":"cebpf4jnsgd1na2vs0mg"},{"bike_id":"c1b44335-2c20-4553-bd77-28e1455d1cb8","system_id":"levelo_inurba_marseille","lat":43.28626,"lon":5.35095,"is_reserved":false,"is_disabled":false,"rental_uris":{"android":"levelo://app?vid=c1b44335-2c20-4553-bd77-28e1455d1cb8","ios":"levelo://app?vid=c1b44335-2c20-4553-bd77-28e1455d1cb8"},"vehicle_type_id":"4","last_reported":1751487086,"current_range_meters":12000,"station_id":"ce4bhch2rcd13ifvqeug","pricing_plan_id":"cebpf4jnsgd1na2vs0mg"},{"bike_id":"c2cc3873-3136-4ba7-984d-6514f2a6bcc2","system_id":"levelo_inurba_marseille","lat":43.26692,"lon":5.3827,"is_reserved":false,"is_disabled":false,"rental_uris":{"android":"levelo://app?vid=c2cc3873-3136-4ba7-984d-6514f2a6bcc2","ios":"levelo://app?vid=c2cc3873-3136-4ba7-984d-6514f2a6bcc2"},"vehicle_type_id":"4","last_reported":1751487086,"current_range_meters":12000,"station_id":"ce4bhg92rcd13ifvqf90","pricing_plan_id":"cebpf4jnsgd1na2vs0mg"},{"bike_id":"bf00a211-3496-4df0-8e4e-99767047ca09","system_id":"levelo_inurba_marseille","lat":43.29977,"lon":5.37604,"is_reserved":false,"is_disabled":false,"rental_uris":{"android":"levelo://app?vid=bf00a211-3496-4df0-8e4e-99767047ca09","ios":"levelo://app?vid=bf00a211-3496-4df0-8e4e-99767047ca09"},"vehicle_type_id":"4","last_reported":1751487086,"current_range_meters":12400,"station_id":"","pricing_plan_id":"cebpf4jnsgd1na2vs0mg"},{"bike_id":"15685ff9-4ea7-4801-9755-adfa9b50a352","system_id":"levelo_inurba_marseille","lat":43.30437,"lon":5.38884,"is_reserved":false,"is_disabled":false,"rental_uris":{"android":"levelo://app?vid=15685ff9-4ea7-4801-9755-adfa9b50a352","ios":"levelo://app?vid=15685ff9-4ea7-4801-9755-adfa9b50a352"},"vehicle_type_id":"4","last_reported":1751487086,"current_range_meters":12400,"station_id":"ce4bgk12rcd13ifvqbi0","pricing_plan_id":"cebpf4jnsgd1na2vs0mg"},{"bike_id":"1fe51127-93da-48f3-9856-0b575cd6a365","system_id":"levelo_inurba_marseille","lat":43.2991,"lon":5.38136,"is_reserved":false,"is_disabled":false,"rental_uris":{"android":"levelo://app?vid=1fe51127-93da-48f3-9856-0b575cd6a365","ios":"levelo://app?vid=1fe51127-93da-48f3-9856-0b575cd6a365"},"vehicle_type_id":"4","last_reported":1751487086,"current_range_meters":12800,"station_id":"ce4bgj12rcd13ifvqbc0","pricing_plan_id":"cebpf4jnsgd1na2vs0mg"},{"bike_id":"88aee924-1a90-4297-b8d2-b65f7dc393be","system_id":"levelo_inurba_marseille","lat":43.29877,"lon":5.389,"is_reserved":false,"is_disabled":false,"rental_uris":{"android":"levelo://app?vid=88aee924-1a90-4297-b8d2-b65f7dc393be","ios":"levelo://app?vid=88aee924-1a90-4297-b8d2-b65f7dc393be"},"vehicle_type_id":"4","last_reported":1751487086,"current_range_meters":12800,"station_id":"ce4bh392rcd13ifvqdl0","pricing_plan_id":"cebpf4jnsgd1na2vs0mg"},{"bike_id":"72fb4be5-5f0a-49ff-aea8-42fe79c10ede","system_id":"levelo_inurba_marseille","lat":43.29264,"lon":5.38457,"is_reserved":false,"is_disabled":false,"rental_uris":{"android":"levelo://app?vid=72fb4be5-5f0a-49ff-aea8-42fe79c10ede","ios":"levelo://app?vid=72fb4be5-5f0a-49ff-aea8-42fe79c10ede"},"vehicle_type_id":"4","last_reported":1751487086,"current_range_meters":12800,"station_id":"ce4bh692rcd13ifvqea0","pricing_plan_id":"cebpf4jnsgd1na2vs0mg"},{"bike_id":"7e62b058-a7ed-4634-80f1-04d3de596de7","system_id":"levelo_inurba_marseille","lat":43.29859,"lon":5.3681,"is_reserved":false,"is_disabled":false,"rental_uris":{"android":"levelo://app?vid=7e62b058-a7ed-4634-80f1-04d3de596de7","ios":"levelo://app?vid=7e62b058-a7ed-4634-80f1-04d3de596de7"},"vehicle_type_id":"4","last_reported":1751487086,"current_range_meters":13600,"station_id":"","pricing_plan_id":"cebpf4jnsgd1na2vs0mg"},{"bike_id":"f208363d-553e-4be1-a56f-128e0218aac0","system_id":"levelo_inurba_marseille","lat":43.3014,"lon":5.37422,"is_reserved":false,"is_disabled":false,"rental_uris":{"android":"levelo://app?vid=f208363d-553e-4be1-a56f-128e0218aac0","ios":"levelo://app?vid=f208363d-553e-4be1-a56f-128e0218aac0"},"vehicle_type_id":"4","last_reported":1751487086,"current_range_meters":13600,"station_id":"ce4bgs92rcd13ifvqcc0","pricing_plan_id":"cebpf4jnsgd1na2vs0mg"},{"bike_id":"723ce655-3305-4456-bcf3-317a44e39960","system_id":"levelo_inurba_marseille","lat":43.30643,"lon":5.40101,"is_reserved":false,"is_disabled":false,"rental_uris":{"android":"levelo://app?vid=723ce655-3305-4456-bcf3-317a44e39960","ios":"levelo://app?vid=723ce655-3305-4456-bcf3-317a44e39960"},"vehicle_type_id":"4","last_reported":1751487086,"current_range_meters":13600,"station_id":"ce4bh112rcd13ifvqda0","pricing_plan_id":"cebpf4jnsgd1na2vs0mg"},{"bike_id":"c9402903-02a1-433a-ad02-b805e9f94a2d","system_id":"levelo_inurba_marseille","lat":43.285736,"lon":5.395023,"is_reserved":false,"is_disabled":false,"rental_uris":{"android":"levelo://app?vid=c9402903-02a1-433a-ad02-b805e9f94a2d","ios":"levelo://app?vid=c9402903-02a1-433a-ad02-b805e9f94a2d"},"vehicle_type_id":"4","last_reported":1751487086,"current_range_meters":13600,"station_id":"ce4bh292rcd13ifvqdg0","pricing_plan_id":"cebpf4jnsgd1na2vs0mg"},{"bike_id":"2bee22b8-28a2-47eb-b948-9fa1a407c433","system_id":"levelo_inurba_marseille","lat":43.29032,"lon":5.38646,"is_reserved":false,"is_disabled":false,"rental_uris":{"android":"levelo://app?vid=2bee22b8-28a2-47eb-b948-9fa1a407c433","ios":"levelo://app?vid=2bee22b8-28a2-47eb-b948-9fa1a407c433"},"vehicle_type_id":"4","last_reported":1751487086,"current_range_meters":13600,"station_id":"ce4bh4p2rcd13ifvqe0g","pricing_plan_id":"cebpf4jnsgd1na2vs0mg"},{"bike_id":"e5a88351-5624-4801-b5f4-8e57c9a97d32","system_id":"levelo_inurba_marseille","lat":43.25118,"lon":5.40315,"is_reserved":false,"is_disabled":false,"rental_uris":{"android":"levelo://app?vid=e5a88351-5624-4801-b5f4-8e57c9a97d32","ios":"levelo://app?vid=e5a88351-5624-4801-b5f4-8e57c9a97d32"},"vehicle_type_id":"4","last_reported":1751487086,"current_range_meters":13600,"station_id":"ce4bhlh2rcd13ifvqgig","pricing_plan_id":"cebpf4jnsgd1na2vs0mg"},{"bike_id":"6b9c1968-101a-4a44-8e87-e2c9a58c0f26","system_id":"levelo_inurba_marseille","lat":43.29531,"lon":5.37503,"is_reserved":false,"is_disabled":false,"rental_uris":{"android":"levelo://app?vid=6b9c1968-101a-4a44-8e87-e2c9a58c0f26","ios":"levelo://app?vid=6b9c1968-101a-4a44-8e87-e2c9a58c0f26"},"vehicle_type_id":"4","last_reported":1751487086,"current_range_meters":14000,"station_id":"ce4bgkp2rcd13ifvqbmg","pricing_plan_id":"cebpf4jnsgd1na2vs0mg"},{"bike_id":"17ad145c-f881-4017-969d-c8638a36a818","system_id":"levelo_inurba_marseille","lat":43.26545,"lon":5.38995,"is_reserved":false,"is_disabled":false,"rental_uris":{"android":"levelo://app?vid=17ad145c-f881-4017-969d-c8638a36a818","ios":"levelo://app?vid=17ad145c-f881-4017-969d-c8638a36a818"},"vehicle_type_id":"4","last_reported":1751487086,"current_range_meters":14000,"station_id":"ce4bhe12rcd13ifvqf30","pricing_plan_id":"cebpf4jnsgd1na2vs0mg"},{"bike_id":"56eb3fdf-ea87-4fcf-85df-3680fa66363e","system_id":"levelo_inurba_marseille","lat":43.22521,"lon":5.34765,"is_reserved":false,"is_disabled":false,"rental_uris":{"android":"levelo://app?vid=56eb3fdf-ea87-4fcf-85df-3680fa66363e","ios":"levelo://app?vid=56eb3fdf-ea87-4fcf-85df-3680fa66363e"},"vehicle_type_id":"4","last_reported":1751487086,"current_range_meters":14000,"station_id":"st_cvj5dfep6f1abm77gieg","pricing_plan_id":"cebpf4jnsgd1na2vs0mg"},{"bike_id":"b50da02d-1fb5-4383-a93d-332785610080","system_id":"levelo_inurba_marseille","lat":43.21747,"lon":5.34598,"is_reserved":false,"is_disabled":false,"rental_uris":{"android":"levelo://app?vid=b50da02d-1fb5-4383-a93d-332785610080","ios":"levelo://app?vid=b50da02d-1fb5-4383-a93d-332785610080"},"vehicle_type_id":"4","last_reported":1751487086,"current_range_meters":14000,"station_id":"st_cvj6r9ubvosntc0bgbag","pricing_plan_id":"cebpf4jnsgd1na2vs0mg"},{"bike_id":"bcfd0eda-b9ab-4bec-9ca3-3f2b86617415","system_id":"levelo_inurba_marseille","lat":43.21187,"lon":5.35071,"is_reserved":false,"is_disabled":false,"rental_uris":{"android":"levelo://app?vid=bcfd0eda-b9ab-4bec-9ca3-3f2b86617415","ios":"levelo://app?vid=bcfd0eda-b9ab-4bec-9ca3-3f2b86617415"},"vehicle_type_id":"4","last_reported":1751487086,"current_range_meters":14000,"station_id":"st_cvj6sg6p6f1abm77japg","pricing_plan_id":"cebpf4jnsgd1na2vs0mg"},{"bike_id":"b018e07a-7cdf-4f20-b9f0-a61f02c5ecef","system_id":"levelo_inurba_marseille","lat":43.21197,"lon":5.35054,"is_reserved":false,"is_disabled":false,"rental_uris":{"android":"levelo://app?vid=b018e07a-7cdf-4f20-b9f0-a61f02c5ecef","ios":"levelo://app?vid=b018e07a-7cdf-4f20-b9f0-a61f02c5ecef"},"vehicle_type_id":"4","last_reported":1751487086,"current_range_meters":14000,"station_id":"st_cvj6sg6p6f1abm77japg","pricing_plan_id":"cebpf4jnsgd1na2vs0mg"},{"bike_id":"95f53e51-3cdd-4516-ae2a-657e21ac0da8","system_id":"levelo_inurba_marseille","lat":43.30205,"lon":5.39465,"is_reserved":false,"is_disabled":false,"rental_uris":{"android":"levelo://app?vid=95f53e51-3cdd-4516-ae2a-657e21ac0da8","ios":"levelo://app?vid=95f53e51-3cdd-4516-ae2a-657e21ac0da8"},"vehicle_type_id":"4","last_reported":1751487086,"current_range_meters":14400,"station_id":"ce4bh0p2rcd13ifvqd70","pricing_plan_id":"cebpf4jnsgd1na2vs0mg"},{"bike_id":"0e9cdb55-c13c-4b14-9252-67d3f72e9e40","system_id":"levelo_inurba_marseille","lat":43.27384,"lon":5.36251,"is_reserved":false,"is_disabled":false,"rental_uris":{"android":"levelo://app?vid=0e9cdb55-c13c-4b14-9252-67d3f72e9e40","ios":"levelo://app?vid=0e9cdb55-c13c-4b14-9252-67d3f72e9e40"},"vehicle_type_id":"4","last_reported":1751487086,"current_range_meters":14400,"station_id":"ce4bhbh2rcd13ifvqeo0","pricing_plan_id":"cebpf4jnsgd1na2vs0mg"},{"bike_id":"16a8afe6-e43e-4d1b-a7bd-ed83d113735a","system_id":"levelo_inurba_marseille","lat":43.32436,"lon":5.41185,"is_reserved":false,"is_disabled":false,"rental_uris":{"android":"levelo://app?vid=16a8afe6-e43e-4d1b-a7bd-ed83d113735a","ios":"levelo://app?vid=16a8afe6-e43e-4d1b-a7bd-ed83d113735a"},"vehicle_type_id":"4","last_reported":1751487086,"current_range_meters":14800,"station_id":"","pricing_plan_id":"cebpf4jnsgd1na2vs0mg"},{"bike_id":"e26ba497-efc7-4420-b8c5-9fa5e27f2ce4","system_id":"levelo_inurba_marseille","lat":43.31353,"lon":5.37062,"is_reserved":false,"is_disabled":false,"rental_uris":{"android":"levelo://app?vid=e26ba497-efc7-4420-b8c5-9fa5e27f2ce4","ios":"levelo://app?vid=e26ba497-efc7-4420-b8c5-9fa5e27f2ce4"},"vehicle_type_id":"4","last_reported":1751487086,"current_range_meters":14800,"station_id":"","pricing_plan_id":"cebpf4jnsgd1na2vs0mg"},{"bike_id":"09722138-5d30-4643-a224-69bde8e82fb1","system_id":"levelo_inurba_marseille","lat":43.29532,"lon":5.38543,"is_reserved":false,"is_disabled":false,"rental_uris":{"android":"levelo://app?vid=09722138-5d30-4643-a224-69bde8e82fb1","ios":"levelo://app?vid=09722138-5d30-4643-a224-69bde8e82fb1"},"vehicle_type_id":"4","last_reported":1751487086,"current_range_meters":14800,"station_id":"ce4bgih2rcd13ifvqba0","pricing_plan_id":"cebpf4jnsgd1na2vs0mg"},{"bike_id":"6d6cfa0e-5605-47e2-9c01-1815d3da4ee6","system_id":"levelo_inurba_marseille","lat":43.29032,"lon":5.38638,"is_reserved":false,"is_disabled":false,"rental_uris":{"android":"levelo://app?vid=6d6cfa0e-5605-47e2-9c01-1815d3da4ee6","ios":"levelo://app?vid=6d6cfa0e-5605-47e2-9c01-1815d3da4ee6"},"vehicle_type_id":"4","last_reported":1751487086,"current_range_meters":14800,"station_id":"ce4bh4p2rcd13ifvqe0g","pricing_plan_id":"cebpf4jnsgd1na2vs0mg"},{"bike_id":"c5e094ee-7885-42b9-806d-7288db0f9ebc","system_id":"levelo_inurba_marseille","lat":43.27374,"lon":5.36261,"is_reserved":false,"is_disabled":false,"rental_uris":{"android":"levelo://app?vid=c5e094ee-7885-42b9-806d-7288db0f9ebc","ios":"levelo://app?vid=c5e094ee-7885-42b9-806d-7288db0f9ebc"},"vehicle_type_id":"4","last_reported":1751487086,"current_range_meters":14800,"station_id":"ce4bhbh2rcd13ifvqeo0","pricing_plan_id":"cebpf4jnsgd1na2vs0mg"},{"bike_id":"110be0f7-19b6-4419-935c-8afdb1f29359","system_id":"levelo_inurba_marseille","lat":43.21192,"lon":5.35112,"is_reserved":false,"is_disabled":false,"rental_uris":{"android":"levelo://app?vid=110be0f7-19b6-4419-935c-8afdb1f29359","ios":"levelo://app?vid=110be0f7-19b6-4419-935c-8afdb1f29359"},"vehicle_type_id":"4","last_reported":1751487086,"current_range_meters":14800,"station_id":"st_cvj6sg6p6f1abm77japg","pricing_plan_id":"cebpf4jnsgd1na2vs0mg"},{"bike_id":"959e6f20-8ed0-4d36-bc1d-3efb82d6190b","system_id":"levelo_inurba_marseille","lat":43.21213,"lon":5.35031,"is_reserved":false,"is_disabled":false,"rental_uris":{"android":"levelo://app?vid=959e6f20-8ed0-4d36-bc1d-3efb82d6190b","ios":"levelo://app?vid=959e6f20-8ed0-4d36-bc1d-3efb82d6190b"},"vehicle_type_id":"4","last_reported":1751487086,"current_range_meters":15200,"station_id":"","pricing_plan_id":"cebpf4jnsgd1na2vs0mg"},{"bike_id":"e5d196cc-331e-4d76-a0ae-18bd0684abc7","system_id":"levelo_inurba_marseille","lat":43.298431,"lon":5.362804,"is_reserved":false,"is_disabled":false,"rental_uris":{"android":"levelo://app?vid=e5d196cc-331e-4d76-a0ae-18bd0684abc7","ios":"levelo://app?vid=e5d196cc-331e-4d76-a0ae-18bd0684abc7"},"vehicle_type_id":"4","last_reported":1751487086,"current_range_meters":15200,"station_id":"","pricing_plan_id":"cebpf4jnsgd1na2vs0mg"},{"bike_id":"835bbd4f-027e-4fa8-9c7e-37e9a09c8dfb","system_id":"levelo_inurba_marseille","lat":43.29042,"lon":5.37558,"is_reserved":false,"is_disabled":false,"rental_uris":{"android":"levelo://app?vid=835bbd4f-027e-4fa8-9c7e-37e9a09c8dfb","ios":"levelo://app?vid=835bbd4f-027e-4fa8-9c7e-37e9a09c8dfb"},"vehicle_type_id":"4","last_reported":1751487086,"current_range_meters":15200,"station_id":"ce4bh692rcd13ifvqe90","pricing_plan_id":"cebpf4jnsgd1na2vs0mg"},{"bike_id":"a6c20200-b8ac-407c-953a-611c554d25f2","system_id":"levelo_inurba_marseille","lat":43.255,"lon":5.37651,"is_reserved":false,"is_disabled":false,"rental_uris":{"android":"levelo://app?vid=a6c20200-b8ac-407c-953a-611c554d25f2","ios":"levelo://app?vid=a6c20200-b8ac-407c-953a-611c554d25f2"},"vehicle_type_id":"4","last_reported":1751487086,"current_range_meters":15200,"station_id":"ce4bhh12rcd13ifvqff0","pricing_plan_id":"cebpf4jnsgd1na2vs0mg"},{"bike_id":"e36eeb04-35cc-4a52-97d7-6ba58bfe555b","system_id":"levelo_inurba_marseille","lat":43.29538,"lon":5.42265,"is_reserved":false,"is_disabled":false,"rental_uris":{"android":"levelo://app?vid=e36eeb04-35cc-4a52-97d7-6ba58bfe555b","ios":"levelo://app?vid=e36eeb04-35cc-4a52-97d7-6ba58bfe555b"},"vehicle_type_id":"4","last_reported":1751487086,"current_range_meters":15200,"station_id":"ce4bhph2rcd13ifvqhdg","pricing_plan_id":"cebpf4jnsgd1na2vs0mg"},{"bike_id":"0e030323-4386-4e72-9a0d-0f6a2ff539de","system_id":"levelo_inurba_marseille","lat":43.29622,"lon":5.40538,"is_reserved":false,"is_disabled":false,"rental_uris":{"android":"levelo://app?vid=0e030323-4386-4e72-9a0d-0f6a2ff539de","ios":"levelo://app?vid=0e030323-4386-4e72-9a0d-0f6a2ff539de"},"vehicle_type_id":"4","last_reported":1751487086,"current_range_meters":16000,"station_id":"","pricing_plan_id":"cebpf4jnsgd1na2vs0mg"},{"bike_id":"1184fcc2-d848-4874-a4be-78fe0985a881","system_id":"levelo_inurba_marseille","lat":43.29201,"lon":5.39345,"is_reserved":false,"is_disabled":false,"rental_uris":{"android":"levelo://app?vid=1184fcc2-d848-4874-a4be-78fe0985a881","ios":"levelo://app?vid=1184fcc2-d848-4874-a4be-78fe0985a881"},"vehicle_type_id":"4","last_reported":1751487086,"current_range_meters":16000,"station_id":"ce4bh192rcd13ifvqdd0","pricing_plan_id":"cebpf4jnsgd1na2vs0mg"},{"bike_id":"720e49db-7d34-4385-9a18-33d66e2c278b","system_id":"levelo_inurba_marseille","lat":43.27375,"lon":5.36255,"is_reserved":false,"is_disabled":false,"rental_uris":{"android":"levelo://app?vid=720e49db-7d34-4385-9a18-33d66e2c278b","ios":"levelo://app?vid=720e49db-7d34-4385-9a18-33d66e2c278b"},"vehicle_type_id":"4","last_reported":1751487086,"current_range_meters":16000,"station_id":"ce4bhbh2rcd13ifvqeo0","pricing_plan_id":"cebpf4jnsgd1na2vs0mg"},{"bike_id":"869af2a5-2f73-40fa-ac38-44599dc643e5","system_id":"levelo_inurba_marseille","lat":43.27171,"lon":5.40991,"is_reserved":false,"is_disabled":false,"rental_uris":{"android":"levelo://app?vid=869af2a5-2f73-40fa-ac38-44599dc643e5","ios":"levelo://app?vid=869af2a5-2f73-40fa-ac38-44599dc643e5"},"vehicle_type_id":"4","last_reported":1751487086,"current_range_meters":16000,"station_id":"ce4bhl12rcd13ifvqgf0","pricing_plan_id":"cebpf4jnsgd1na2vs0mg"},{"bike_id":"a27262c3-51bd-4a74-8eb2-5c2ed2e062c7","system_id":"levelo_inurba_marseille","lat":43.24159,"lon":5.36398,"is_reserved":false,"is_disabled":false,"rental_uris":{"android":"levelo://app?vid=a27262c3-51bd-4a74-8eb2-5c2ed2e062c7","ios":"levelo://app?vid=a27262c3-51bd-4a74-8eb2-5c2ed2e062c7"},"vehicle_type_id":"4","last_reported":1751487086,"current_range_meters":16000,"station_id":"cpo36qri1sfpv3e86is0","pricing_plan_id":"cebpf4jnsgd1na2vs0mg"},{"bike_id":"09a94feb-8911-4d3d-9f22-a7f611710ea1","system_id":"levelo_inurba_marseille","lat":43.21187,"lon":5.35071,"is_reserved":false,"is_disabled":false,"rental_uris":{"android":"levelo://app?vid=09a94feb-8911-4d3d-9f22-a7f611710ea1","ios":"levelo://app?vid=09a94feb-8911-4d3d-9f22-a7f611710ea1"},"vehicle_type_id":"4","last_reported":1751487086,"current_range_meters":16000,"station_id":"st_cvj6sg6p6f1abm77japg","pricing_plan_id":"cebpf4jnsgd1na2vs0mg"},{"bike_id":"63072e0c-9f69-4913-be48-96789ec98037","system_id":"levelo_inurba_marseille","lat":43.33411,"lon":5.40037,"is_reserved":false,"is_disabled":false,"rental_uris":{"android":"levelo://app?vid=63072e0c-9f69-4913-be48-96789ec98037","ios":"levelo://app?vid=63072e0c-9f69-4913-be48-96789ec98037"},"vehicle_type_id":"4","last_reported":1751487086,"current_range_meters":16400,"station_id":"","pricing_plan_id":"cebpf4jnsgd1na2vs0mg"},{"bike_id":"64bb485e-0856-48ce-befe-bde5a394f93d","system_id":"levelo_inurba_marseille","lat":43.27631,"lon":5.38863,"is_reserved":false,"is_disabled":false,"rental_uris":{"android":"levelo://app?vid=64bb485e-0856-48ce-befe-bde5a394f93d","ios":"levelo://app?vid=64bb485e-0856-48ce-befe-bde5a394f93d"},"vehicle_type_id":"4","last_reported":1751487086,"current_range_meters":16400,"station_id":"","pricing_plan_id":"cebpf4jnsgd1na2vs0mg"},{"bike_id":"b3976645-0464-4d51-b477-4aadae9448a5","system_id":"levelo_inurba_marseille","lat":43.316835,"lon":5.404735,"is_reserved":false,"is_disabled":false,"rental_uris":{"android":"levelo://app?vid=b3976645-0464-4d51-b477-4aadae9448a5","ios":"levelo://app?vid=b3976645-0464-4d51-b477-4aadae9448a5"},"vehicle_type_id":"4","last_reported":1751487086,"current_range_meters":16400,"station_id":"ce4bgih2rcd13ifvqba0","pricing_plan_id":"cebpf4jnsgd1na2vs0mg"},{"bike_id":"2ea773ef-38dc-4d08-98e1-94889e1bf05e","system_id":"levelo_inurba_marseille","lat":43.2862,"lon":5.35109,"is_reserved":false,"is_disabled":false,"rental_uris":{"android":"levelo://app?vid=2ea773ef-38dc-4d08-98e1-94889e1bf05e","ios":"levelo://app?vid=2ea773ef-38dc-4d08-98e1-94889e1bf05e"},"vehicle_type_id":"4","last_reported":1751487086,"current_range_meters":16400,"station_id":"ce4bhch2rcd13ifvqeug","pricing_plan_id":"cebpf4jnsgd1na2vs0mg"},{"bike_id":"5e9e8342-b66e-44b3-83fe-5ba005601b82","system_id":"levelo_inurba_marseille","lat":43.25496,"lon":5.37643,"is_reserved":false,"is_disabled":false,"rental_uris":{"android":"levelo://app?vid=5e9e8342-b66e-44b3-83fe-5ba005601b82","ios":"levelo://app?vid=5e9e8342-b66e-44b3-83fe-5ba005601b82"},"vehicle_type_id":"4","last_reported":1751487086,"current_range_meters":16400,"station_id":"ce4bhh12rcd13ifvqff0","pricing_plan_id":"cebpf4jnsgd1na2vs0mg"},{"bike_id":"5115d20a-93a5-4e5d-86e2-fc4d3f8cc44d","system_id":"levelo_inurba_marseille","lat":43.30419,"lon":5.41277,"is_reserved":false,"is_disabled":false,"rental_uris":{"android":"levelo://app?vid=5115d20a-93a5-4e5d-86e2-fc4d3f8cc44d","ios":"levelo://app?vid=5115d20a-93a5-4e5d-86e2-fc4d3f8cc44d"},"vehicle_type_id":"4","last_reported":1751487086,"current_range_meters":16400,"station_id":"ce4bhop2rcd13ifvqh8g","pricing_plan_id":"cebpf4jnsgd1na2vs0mg"},{"bike_id":"8bf0d992-d2a0-428e-940a-091ee9b7c2a4","system_id":"levelo_inurba_marseille","lat":43.21182,"lon":5.3508,"is_reserved":false,"is_disabled":false,"rental_uris":{"android":"levelo://app?vid=8bf0d992-d2a0-428e-940a-091ee9b7c2a4","ios":"levelo://app?vid=8bf0d992-d2a0-428e-940a-091ee9b7c2a4"},"vehicle_type_id":"4","last_reported":1751487086,"current_range_meters":16400,"station_id":"st_cvj6sg6p6f1abm77japg","pricing_plan_id":"cebpf4jnsgd1na2vs0mg"},{"bike_id":"c10a4283-320d-4e64-8d75-ff83e94026ba","system_id":"levelo_inurba_marseille","lat":43.211945,"lon":5.350694,"is_reserved":false,"is_disabled":false,"rental_uris":{"android":"levelo://app?vid=c10a4283-320d-4e64-8d75-ff83e94026ba","ios":"levelo://app?vid=c10a4283-320d-4e64-8d75-ff83e94026ba"},"vehicle_type_id":"4","last_reported":1751487086,"current_range_meters":16400,"station_id":"st_cvj6sg6p6f1abm77japg","pricing_plan_id":"cebpf4jnsgd1na2vs0mg"},{"bike_id":"8a74f5cd-9efa-4362-bea7-a32db4dcc85c","system_id":"levelo_inurba_marseille","lat":43.21193,"lon":5.35071,"is_reserved":false,"is_disabled":false,"rental_uris":{"android":"levelo://app?vid=8a74f5cd-9efa-4362-bea7-a32db4dcc85c","ios":"levelo://app?vid=8a74f5cd-9efa-4362-bea7-a32db4dcc85c"},"vehicle_type_id":"4","last_reported":1751487086,"current_range_meters":16400,"station_id":"st_cvj6sg6p6f1abm77japg","pricing_plan_id":"cebpf4jnsgd1na2vs0mg"},{"bike_id":"693d80d0-0bd0-4611-929b-8314957db991","system_id":"levelo_inurba_marseille","lat":43.21186,"lon":5.35071,"is_reserved":false,"is_disabled":false,"rental_uris":{"android":"levelo://app?vid=693d80d0-0bd0-4611-929b-8314957db991","ios":"levelo://app?vid=693d80d0-0bd0-4611-929b-8314957db991"},"vehicle_type_id":"4","last_reported":1751487086,"current_range_meters":16400,"station_id":"st_cvj6sg6p6f1abm77japg","pricing_plan_id":"cebpf4jnsgd1na2vs0mg"},{"bike_id":"6d2da863-a742-45db-855b-55a94467cfa4","system_id":"levelo_inurba_marseille","lat":43.32571,"lon":5.42733,"is_reserved":false,"is_disabled":false,"rental_uris":{"android":"levelo://app?vid=6d2da863-a742-45db-855b-55a94467cfa4","ios":"levelo://app?vid=6d2da863-a742-45db-855b-55a94467cfa4"},"vehicle_type_id":"4","last_reported":1751487086,"current_range_meters":16800,"station_id":"","pricing_plan_id":"cebpf4jnsgd1na2vs0mg"},{"bike_id":"a5e90395-61b3-4dd2-a1fa-19de53d24493","system_id":"levelo_inurba_marseille","lat":43.29851,"lon":5.36291,"is_reserved":false,"is_disabled":false,"rental_uris":{"android":"levelo://app?vid=a5e90395-61b3-4dd2-a1fa-19de53d24493","ios":"levelo://app?vid=a5e90395-61b3-4dd2-a1fa-19de53d24493"},"vehicle_type_id":"4","last_reported":1751487086,"current_range_meters":16800,"station_id":"ce4bgpp2rcd13ifvqc3g","pricing_plan_id":"cebpf4jnsgd1na2vs0mg"},{"bike_id":"e9d26c79-d78f-4002-bc79-c4aa63e66364","system_id":"levelo_inurba_marseille","lat":43.31178,"lon":5.38721,"is_reserved":false,"is_disabled":false,"rental_uris":{"android":"levelo://app?vid=e9d26c79-d78f-4002-bc79-c4aa63e66364","ios":"levelo://app?vid=e9d26c79-d78f-4002-bc79-c4aa63e66364"},"vehicle_type_id":"4","last_reported":1751487086,"current_range_meters":16800,"station_id":"ce4bgv12rcd13ifvqcp0","pricing_plan_id":"cebpf4jnsgd1na2vs0mg"},{"bike_id":"c7775b58-8137-45be-97de-1baf69497459","system_id":"levelo_inurba_marseille","lat":43.29262,"lon":5.38431,"is_reserved":false,"is_disabled":false,"rental_uris":{"android":"levelo://app?vid=c7775b58-8137-45be-97de-1baf69497459","ios":"levelo://app?vid=c7775b58-8137-45be-97de-1baf69497459"},"vehicle_type_id":"4","last_reported":1751487086,"current_range_meters":16800,"station_id":"ce4bh692rcd13ifvqea0","pricing_plan_id":"cebpf4jnsgd1na2vs0mg"},{"bike_id":"61b30b7c-d4ad-4abb-bce9-2485de616de6","system_id":"levelo_inurba_marseille","lat":43.33604,"lon":5.41037,"is_reserved":false,"is_disabled":false,"rental_uris":{"android":"levelo://app?vid=61b30b7c-d4ad-4abb-bce9-2485de616de6","ios":"levelo://app?vid=61b30b7c-d4ad-4abb-bce9-2485de616de6"},"vehicle_type_id":"4","last_reported":1751487086,"current_range_meters":16800,"station_id":"ce4bhqh2rcd13ifvqhmg","pricing_plan_id":"cebpf4jnsgd1na2vs0mg"},{"bike_id":"1fec5f32-8b87-4aea-b22d-0f614d28af36","system_id":"levelo_inurba_marseille","lat":43.276245,"lon":5.36114,"is_reserved":false,"is_disabled":false,"rental_uris":{"android":"levelo://app?vid=1fec5f32-8b87-4aea-b22d-0f614d28af36","ios":"levelo://app?vid=1fec5f32-8b87-4aea-b22d-0f614d28af36"},"vehicle_type_id":"4","last_reported":1751487086,"current_range_meters":17200,"station_id":"","pricing_plan_id":"cebpf4jnsgd1na2vs0mg"},{"bike_id":"1cf1266b-c748-4b73-aba7-951d8a7461b4","system_id":"levelo_inurba_marseille","lat":43.29934,"lon":5.37487,"is_reserved":false,"is_disabled":false,"rental_uris":{"android":"levelo://app?vid=1cf1266b-c748-4b73-aba7-951d8a7461b4","ios":"levelo://app?vid=1cf1266b-c748-4b73-aba7-951d8a7461b4"},"vehicle_type_id":"4","last_reported":1751487086,"current_range_meters":17200,"station_id":"ce4bgjh2rcd13ifvqbg0","pricing_plan_id":"cebpf4jnsgd1na2vs0mg"},{"bike_id":"f1acddb2-bdb2-48cc-a3c3-58e7e9f8eb26","system_id":"levelo_inurba_marseille","lat":43.30935,"lon":5.40143,"is_reserved":false,"is_disabled":false,"rental_uris":{"android":"levelo://app?vid=f1acddb2-bdb2-48cc-a3c3-58e7e9f8eb26","ios":"levelo://app?vid=f1acddb2-bdb2-48cc-a3c3-58e7e9f8eb26"},"vehicle_type_id":"4","last_reported":1751487086,"current_range_meters":17200,"station_id":"ce4bgvp2rcd13ifvqct0","pricing_plan_id":"cebpf4jnsgd1na2vs0mg"},{"bike_id":"ebf08d76-e867-4f95-b98a-3418742b10ba","system_id":"levelo_inurba_marseille","lat":43.30596,"lon":5.3936,"is_reserved":false,"is_disabled":false,"rental_uris":{"android":"levelo://app?vid=ebf08d76-e867-4f95-b98a-3418742b10ba","ios":"levelo://app?vid=ebf08d76-e867-4f95-b98a-3418742b10ba"},"vehicle_type_id":"4","last_reported":1751487086,"current_range_meters":17200,"station_id":"ce4bh0p2rcd13ifvqd80","pricing_plan_id":"cebpf4jnsgd1na2vs0mg"},{"bike_id":"5c7cbce3-998d-4314-bca1-3f3dbfa3f466","system_id":"levelo_inurba_marseille","lat":43.29269,"lon":5.38431,"is_reserved":false,"is_disabled":false,"rental_uris":{"android":"levelo://app?vid=5c7cbce3-998d-4314-bca1-3f3dbfa3f466","ios":"levelo://app?vid=5c7cbce3-998d-4314-bca1-3f3dbfa3f466"},"vehicle_type_id":"4","last_reported":1751487086,"current_range_meters":17200,"station_id":"ce4bh692rcd13ifvqea0","pricing_plan_id":"cebpf4jnsgd1na2vs0mg"},{"bike_id":"ff2eed52-76b4-4357-b31a-0d511595ff47","system_id":"levelo_inurba_marseille","lat":43.28429,"lon":5.34987,"is_reserved":false,"is_disabled":false,"rental_uris":{"android":"levelo://app?vid=ff2eed52-76b4-4357-b31a-0d511595ff47","ios":"levelo://app?vid=ff2eed52-76b4-4357-b31a-0d511595ff47"},"vehicle_type_id":"4","last_reported":1751487086,"current_range_meters":17200,"station_id":"ce4bhbh2rcd13ifvqepg","pricing_plan_id":"cebpf4jnsgd1na2vs0mg"},{"bike_id":"912d67f3-78e7-48fd-8929-37f0572cfee4","system_id":"levelo_inurba_marseille","lat":43.26366,"lon":5.37366,"is_reserved":false,"is_disabled":false,"rental_uris":{"android":"levelo://app?vid=912d67f3-78e7-48fd-8929-37f0572cfee4","ios":"levelo://app?vid=912d67f3-78e7-48fd-8929-37f0572cfee4"},"vehicle_type_id":"4","last_reported":1751487086,"current_range_meters":17600,"station_id":"","pricing_plan_id":"cebpf4jnsgd1na2vs0mg"},{"bike_id":"a588469b-12ca-41c6-8c6f-3f3bda5b7f15","system_id":"levelo_inurba_marseille","lat":43.31556,"lon":5.38368,"is_reserved":false,"is_disabled":false,"rental_uris":{"android":"levelo://app?vid=a588469b-12ca-41c6-8c6f-3f3bda5b7f15","ios":"levelo://app?vid=a588469b-12ca-41c6-8c6f-3f3bda5b7f15"},"vehicle_type_id":"4","last_reported":1751487086,"current_range_meters":17600,"station_id":"","pricing_plan_id":"cebpf4jnsgd1na2vs0mg"},{"bike_id":"a0cef316-ad95-4855-8f78-a31341a2b90e","system_id":"levelo_inurba_marseille","lat":43.31271,"lon":5.37751,"is_reserved":false,"is_disabled":false,"rental_uris":{"android":"levelo://app?vid=a0cef316-ad95-4855-8f78-a31341a2b90e","ios":"levelo://app?vid=a0cef316-ad95-4855-8f78-a31341a2b90e"},"vehicle_type_id":"4","last_reported":1751487086,"current_range_meters":17600,"station_id":"","pricing_plan_id":"cebpf4jnsgd1na2vs0mg"},{"bike_id":"7e257190-0528-492b-a4f3-d8760d86094c","system_id":"levelo_inurba_marseille","lat":43.29086,"lon":5.38131,"is_reserved":false,"is_disabled":false,"rental_uris":{"android":"levelo://app?vid=7e257190-0528-492b-a4f3-d8760d86094c","ios":"levelo://app?vid=7e257190-0528-492b-a4f3-d8760d86094c"},"vehicle_type_id":"4","last_reported":1751487086,"current_range_meters":17600,"station_id":"ce4bh512rcd13ifvqe2g","pricing_plan_id":"cebpf4jnsgd1na2vs0mg"},{"bike_id":"06c44e6d-18e0-4657-a2bc-c0dbf59aa190","system_id":"levelo_inurba_marseille","lat":43.29262,"lon":5.38452,"is_reserved":false,"is_disabled":false,"rental_uris":{"android":"levelo://app?vid=06c44e6d-18e0-4657-a2bc-c0dbf59aa190","ios":"levelo://app?vid=06c44e6d-18e0-4657-a2bc-c0dbf59aa190"},"vehicle_type_id":"4","last_reported":1751487086,"current_range_meters":17600,"station_id":"ce4bh692rcd13ifvqea0","pricing_plan_id":"cebpf4jnsgd1na2vs0mg"},{"bike_id":"8a7cccfb-23c6-4008-bbe4-2a7040cfb6bc","system_id":"levelo_inurba_marseille","lat":43.28487,"lon":5.38572,"is_reserved":false,"is_disabled":false,"rental_uris":{"android":"levelo://app?vid=8a7cccfb-23c6-4008-bbe4-2a7040cfb6bc","ios":"levelo://app?vid=8a7cccfb-23c6-4008-bbe4-2a7040cfb6bc"},"vehicle_type_id":"4","last_reported":1751487086,"current_range_meters":17600,"station_id":"ce4bh8p2rcd13ifvqeb0","pricing_plan_id":"cebpf4jnsgd1na2vs0mg"},{"bike_id":"68e309f4-b1e4-4f3a-b754-9a7df441dc33","system_id":"levelo_inurba_marseille","lat":43.28154,"lon":5.42631,"is_reserved":false,"is_disabled":false,"rental_uris":{"android":"levelo://app?vid=68e309f4-b1e4-4f3a-b754-9a7df441dc33","ios":"levelo://app?vid=68e309f4-b1e4-4f3a-b754-9a7df441dc33"},"vehicle_type_id":"4","last_reported":1751487086,"current_range_meters":17600,"station_id":"ce4bhnh2rcd13ifvqgug","pricing_plan_id":"cebpf4jnsgd1na2vs0mg"},{"bike_id":"0f590c2a-c81e-469d-a7d1-2741de3642a2","system_id":"levelo_inurba_marseille","lat":43.2119,"lon":5.35074,"is_reserved":false,"is_disabled":false,"rental_uris":{"android":"levelo://app?vid=0f590c2a-c81e-469d-a7d1-2741de3642a2","ios":"levelo://app?vid=0f590c2a-c81e-469d-a7d1-2741de3642a2"},"vehicle_type_id":"4","last_reported":1751487086,"current_range_meters":17600,"station_id":"st_cvj6sg6p6f1abm77japg","pricing_plan_id":"cebpf4jnsgd1na2vs0mg"},{"bike_id":"ba154a12-11bd-42a5-958a-5992f5d043d1","system_id":"levelo_inurba_marseille","lat":43.30493,"lon":5.37086,"is_reserved":false,"is_disabled":false,"rental_uris":{"android":"levelo://app?vid=ba154a12-11bd-42a5-958a-5992f5d043d1","ios":"levelo://app?vid=ba154a12-11bd-42a5-958a-5992f5d043d1"},"vehicle_type_id":"4","last_reported":1751487086,"current_range_meters":18000,"station_id":"","pricing_plan_id":"cebpf4jnsgd1na2vs0mg"},{"bike_id":"bb46c198-db0f-484b-8388-18f826d56d56","system_id":"levelo_inurba_marseille","lat":43.30125,"lon":5.38769,"is_reserved":false,"is_disabled":false,"rental_uris":{"android":"levelo://app?vid=bb46c198-db0f-484b-8388-18f826d56d56","ios":"levelo://app?vid=bb46c198-db0f-484b-8388-18f826d56d56"},"vehicle_type_id":"4","last_reported":1751487086,"current_range_meters":18000,"station_id":"ce4bghh2rcd13ifvqb60","pricing_plan_id":"cebpf4jnsgd1na2vs0mg"},{"bike_id":"08d242de-90b2-47e0-9e69-b2137eac22e0","system_id":"levelo_inurba_marseille","lat":43.29262,"lon":5.38441,"is_reserved":false,"is_disabled":false,"rental_uris":{"android":"levelo://app?vid=08d242de-90b2-47e0-9e69-b2137eac22e0","ios":"levelo://app?vid=08d242de-90b2-47e0-9e69-b2137eac22e0"},"vehicle_type_id":"4","last_reported":1751487086,"current_range_meters":18000,"station_id":"ce4bh692rcd13ifvqea0","pricing_plan_id":"cebpf4jnsgd1na2vs0mg"},{"bike_id":"493dd946-d5e5-4813-8837-7dd00ddd5646","system_id":"levelo_inurba_marseille","lat":43.29529,"lon":5.39017,"is_reserved":false,"is_disabled":false,"rental_uris":{"android":"levelo://app?vid=493dd946-d5e5-4813-8837-7dd00ddd5646","ios":"levelo://app?vid=493dd946-d5e5-4813-8837-7dd00ddd5646"},"vehicle_type_id":"4","last_reported":1751487086,"current_range_meters":18800,"station_id":"ce4bh3p2rcd13ifvqdp0","pricing_plan_id":"cebpf4jnsgd1na2vs0mg"},{"bike_id":"5eff832e-c78a-448d-99c0-d4ac89c64acc","system_id":"levelo_inurba_marseille","lat":43.28618,"lon":5.35075,"is_reserved":false,"is_disabled":false,"rental_uris":{"android":"levelo://app?vid=5eff832e-c78a-448d-99c0-d4ac89c64acc","ios":"levelo://app?vid=5eff832e-c78a-448d-99c0-d4ac89c64acc"},"vehicle_type_id":"4","last_reported":1751487086,"current_range_meters":18800,"station_id":"ce4bhch2rcd13ifvqeug","pricing_plan_id":"cebpf4jnsgd1na2vs0mg"},{"bike_id":"d7eb42dd-1291-458b-978f-486fe89680a6","system_id":"levelo_inurba_marseille","lat":43.248122,"lon":5.374549,"is_reserved":false,"is_disabled":false,"rental_uris":{"android":"levelo://app?vid=d7eb42dd-1291-458b-978f-486fe89680a6","ios":"levelo://app?vid=d7eb42dd-1291-458b-978f-486fe89680a6"},"vehicle_type_id":"4","last_reported":1751487086,"current_range_meters":18800,"station_id":"ce4bhgh2rcd13ifvqfb0","pricing_plan_id":"cebpf4jnsgd1na2vs0mg"},{"bike_id":"3d63bec8-5572-4df0-8971-da63a844af9b","system_id":"levelo_inurba_marseille","lat":43.26195,"lon":5.37924,"is_reserved":false,"is_disabled":false,"rental_uris":{"android":"levelo://app?vid=3d63bec8-5572-4df0-8971-da63a844af9b","ios":"levelo://app?vid=3d63bec8-5572-4df0-8971-da63a844af9b"},"vehicle_type_id":"4","last_reported":1751487086,"current_range_meters":18800,"station_id":"ce4bhjp2rcd13ifvqg90","pricing_plan_id":"cebpf4jnsgd1na2vs0mg"},{"bike_id":"704485df-bcef-44ee-ad21-df8b7f2879ec","system_id":"levelo_inurba_marseille","lat":43.27493,"lon":5.42444,"is_reserved":false,"is_disabled":false,"rental_uris":{"android":"levelo://app?vid=704485df-bcef-44ee-ad21-df8b7f2879ec","ios":"levelo://app?vid=704485df-bcef-44ee-ad21-df8b7f2879ec"},"vehicle_type_id":"4","last_reported":1751487086,"current_range_meters":18800,"station_id":"ce4bhn92rcd13ifvqgrg","pricing_plan_id":"cebpf4jnsgd1na2vs0mg"},{"bike_id":"48a8b866-9a64-4b58-8b3a-d988de0d4af0","system_id":"levelo_inurba_marseille","lat":43.24162,"lon":5.36416,"is_reserved":false,"is_disabled":false,"rental_uris":{"android":"levelo://app?vid=48a8b866-9a64-4b58-8b3a-d988de0d4af0","ios":"levelo://app?vid=48a8b866-9a64-4b58-8b3a-d988de0d4af0"},"vehicle_type_id":"4","last_reported":1751487086,"current_range_meters":18800,"station_id":"cpo36qri1sfpv3e86is0","pricing_plan_id":"cebpf4jnsgd1na2vs0mg"},{"bike_id":"37b84a38-055a-4a6e-a56a-8ff3d0c1b2ec","system_id":"levelo_inurba_marseille","lat":43.21193,"lon":5.35086,"is_reserved":false,"is_disabled":false,"rental_uris":{"android":"levelo://app?vid=37b84a38-055a-4a6e-a56a-8ff3d0c1b2ec","ios":"levelo://app?vid=37b84a38-055a-4a6e-a56a-8ff3d0c1b2ec"},"vehicle_type_id":"4","last_reported":1751487086,"current_range_meters":18800,"station_id":"st_cvj6sg6p6f1abm77japg","pricing_plan_id":"cebpf4jnsgd1na2vs0mg"},{"bike_id":"8becf1b9-b72c-4763-a062-bbd587ae45bf","system_id":"levelo_inurba_marseille","lat":43.31714,"lon":5.38156,"is_reserved":false,"is_disabled":false,"rental_uris":{"android":"levelo://app?vid=8becf1b9-b72c-4763-a062-bbd587ae45bf","ios":"levelo://app?vid=8becf1b9-b72c-4763-a062-bbd587ae45bf"},"vehicle_type_id":"4","last_reported":1751487086,"current_range_meters":19200,"station_id":"","pricing_plan_id":"cebpf4jnsgd1na2vs0mg"},{"bike_id":"f4c9f00c-58dc-4098-bbeb-24c5898c7620","system_id":"levelo_inurba_marseille","lat":43.29529,"lon":5.38545,"is_reserved":false,"is_disabled":false,"rental_uris":{"android":"levelo://app?vid=f4c9f00c-58dc-4098-bbeb-24c5898c7620","ios":"levelo://app?vid=f4c9f00c-58dc-4098-bbeb-24c5898c7620"},"vehicle_type_id":"4","last_reported":1751487086,"current_range_meters":19200,"station_id":"ce4bgih2rcd13ifvqba0","pricing_plan_id":"cebpf4jnsgd1na2vs0mg"},{"bike_id":"875f8eb6-0efa-4b75-bcdf-09af6d80b846","system_id":"levelo_inurba_marseille","lat":43.29534,"lon":5.38549,"is_reserved":false,"is_disabled":false,"rental_uris":{"android":"levelo://app?vid=875f8eb6-0efa-4b75-bcdf-09af6d80b846","ios":"levelo://app?vid=875f8eb6-0efa-4b75-bcdf-09af6d80b846"},"vehicle_type_id":"4","last_reported":1751487086,"current_range_meters":19200,"station_id":"ce4bgih2rcd13ifvqba0","pricing_plan_id":"cebpf4jnsgd1na2vs0mg"},{"bike_id":"6553f5ec-c04b-40f8-b8b4-cff0303628dd","system_id":"levelo_inurba_marseille","lat":43.28571,"lon":5.39498,"is_reserved":false,"is_disabled":false,"rental_uris":{"android":"levelo://app?vid=6553f5ec-c04b-40f8-b8b4-cff0303628dd","ios":"levelo://app?vid=6553f5ec-c04b-40f8-b8b4-cff0303628dd"},"vehicle_type_id":"4","last_reported":1751487086,"current_range_meters":19200,"station_id":"ce4bh292rcd13ifvqdg0","pricing_plan_id":"cebpf4jnsgd1na2vs0mg"},{"bike_id":"05959a81-7e2e-4c11-9804-4e888e53f1af","system_id":"levelo_inurba_marseille","lat":43.29885,"lon":5.38917,"is_reserved":false,"is_disabled":false,"rental_uris":{"android":"levelo://app?vid=05959a81-7e2e-4c11-9804-4e888e53f1af","ios":"levelo://app?vid=05959a81-7e2e-4c11-9804-4e888e53f1af"},"vehicle_type_id":"4","last_reported":1751487086,"current_range_meters":19200,"station_id":"ce4bh392rcd13ifvqdl0","pricing_plan_id":"cebpf4jnsgd1na2vs0mg"},{"bike_id":"21e2c51d-4563-4efd-afbf-0ddeff93c862","system_id":"levelo_inurba_marseille","lat":43.21743,"lon":5.34604,"is_reserved":false,"is_disabled":false,"rental_uris":{"android":"levelo://app?vid=21e2c51d-4563-4efd-afbf-0ddeff93c862","ios":"levelo://app?vid=21e2c51d-4563-4efd-afbf-0ddeff93c862"},"vehicle_type_id":"4","last_reported":1751487086,"current_range_meters":19200,"station_id":"st_cvj6r9ubvosntc0bgbag","pricing_plan_id":"cebpf4jnsgd1na2vs0mg"},{"bike_id":"cc8a6190-e2d1-4627-b8b5-96297a1ec964","system_id":"levelo_inurba_marseille","lat":43.29307,"lon":5.37452,"is_reserved":false,"is_disabled":false,"rental_uris":{"android":"levelo://app?vid=cc8a6190-e2d1-4627-b8b5-96297a1ec964","ios":"levelo://app?vid=cc8a6190-e2d1-4627-b8b5-96297a1ec964"},"vehicle_type_id":"4","last_reported":1751487086,"current_range_meters":19600,"station_id":"ce4bgi12rcd13ifvqb70","pricing_plan_id":"cebpf4jnsgd1na2vs0mg"},{"bike_id":"92ce571e-8bb4-4eab-9f9e-809fb7433bc6","system_id":"levelo_inurba_marseille","lat":43.273779,"lon":5.362524,"is_reserved":false,"is_disabled":false,"rental_uris":{"android":"levelo://app?vid=92ce571e-8bb4-4eab-9f9e-809fb7433bc6","ios":"levelo://app?vid=92ce571e-8bb4-4eab-9f9e-809fb7433bc6"},"vehicle_type_id":"4","last_reported":1751487086,"current_range_meters":19600,"station_id":"ce4bhbh2rcd13ifvqeo0","pricing_plan_id":"cebpf4jnsgd1na2vs0mg"},{"bike_id":"9c4f9a2d-b455-431d-a8b6-b8f482f5e447","system_id":"levelo_inurba_marseille","lat":43.25489,"lon":5.37645,"is_reserved":false,"is_disabled":false,"rental_uris":{"android":"levelo://app?vid=9c4f9a2d-b455-431d-a8b6-b8f482f5e447","ios":"levelo://app?vid=9c4f9a2d-b455-431d-a8b6-b8f482f5e447"},"vehicle_type_id":"4","last_reported":1751487086,"current_range_meters":19600,"station_id":"ce4bhh12rcd13ifvqff0","pricing_plan_id":"cebpf4jnsgd1na2vs0mg"},{"bike_id":"ff62e783-b8ae-4413-a593-01e658e0c9ae","system_id":"levelo_inurba_marseille","lat":43.32288,"lon":5.3828,"is_reserved":false,"is_disabled":false,"rental_uris":{"android":"levelo://app?vid=ff62e783-b8ae-4413-a593-01e658e0c9ae","ios":"levelo://app?vid=ff62e783-b8ae-4413-a593-01e658e0c9ae"},"vehicle_type_id":"4","last_reported":1751487086,"current_range_meters":19600,"station_id":"ce4bhr12rcd13ifvqhqg","pricing_plan_id":"cebpf4jnsgd1na2vs0mg"},{"bike_id":"a6715104-7492-4ec6-a996-23050baf8551","system_id":"levelo_inurba_marseille","lat":43.22495,"lon":5.34775,"is_reserved":false,"is_disabled":false,"rental_uris":{"android":"levelo://app?vid=a6715104-7492-4ec6-a996-23050baf8551","ios":"levelo://app?vid=a6715104-7492-4ec6-a996-23050baf8551"},"vehicle_type_id":"4","last_reported":1751487086,"current_range_meters":19600,"station_id":"st_cvj5dfep6f1abm77gieg","pricing_plan_id":"cebpf4jnsgd1na2vs0mg"},{"bike_id":"7e21e8f2-09c8-4cc5-8113-278ebd23888d","system_id":"levelo_inurba_marseille","lat":43.2118,"lon":5.35071,"is_reserved":false,"is_disabled":false,"rental_uris":{"android":"levelo://app?vid=7e21e8f2-09c8-4cc5-8113-278ebd23888d","ios":"levelo://app?vid=7e21e8f2-09c8-4cc5-8113-278ebd23888d"},"vehicle_type_id":"4","last_reported":1751487086,"current_range_meters":19600,"station_id":"st_cvj6sg6p6f1abm77japg","pricing_plan_id":"cebpf4jnsgd1na2vs0mg"},{"bike_id":"4d4995e7-0bba-4ac2-a238-afd84a5e99b5","system_id":"levelo_inurba_marseille","lat":43.304848,"lon":5.398345,"is_reserved":false,"is_disabled":false,"rental_uris":{"android":"levelo://app?vid=4d4995e7-0bba-4ac2-a238-afd84a5e99b5","ios":"levelo://app?vid=4d4995e7-0bba-4ac2-a238-afd84a5e99b5"},"vehicle_type_id":"4","last_reported":1751487086,"current_range_meters":20000,"station_id":"","pricing_plan_id":"cebpf4jnsgd1na2vs0mg"},{"bike_id":"50bb0fdb-2cc1-4d8d-af26-b7febba54985","system_id":"levelo_inurba_marseille","lat":43.274139,"lon":5.39007,"is_reserved":false,"is_disabled":false,"rental_uris":{"android":"levelo://app?vid=50bb0fdb-2cc1-4d8d-af26-b7febba54985","ios":"levelo://app?vid=50bb0fdb-2cc1-4d8d-af26-b7febba54985"},"vehicle_type_id":"4","last_reported":1751487086,"current_range_meters":20000,"station_id":"","pricing_plan_id":"cebpf4jnsgd1na2vs0mg"},{"bike_id":"5491d943-2bf4-43ea-bd37-eb264149b262","system_id":"levelo_inurba_marseille","lat":43.284888,"lon":5.384172,"is_reserved":false,"is_disabled":false,"rental_uris":{"android":"levelo://app?vid=5491d943-2bf4-43ea-bd37-eb264149b262","ios":"levelo://app?vid=5491d943-2bf4-43ea-bd37-eb264149b262"},"vehicle_type_id":"4","last_reported":1751487086,"current_range_meters":20000,"station_id":"ce4bh512rcd13ifvqe3g","pricing_plan_id":"cebpf4jnsgd1na2vs0mg"},{"bike_id":"3dc356e6-98e7-4332-9d76-7fb5ca548e76","system_id":"levelo_inurba_marseille","lat":43.24155,"lon":5.36409,"is_reserved":false,"is_disabled":false,"rental_uris":{"android":"levelo://app?vid=3dc356e6-98e7-4332-9d76-7fb5ca548e76","ios":"levelo://app?vid=3dc356e6-98e7-4332-9d76-7fb5ca548e76"},"vehicle_type_id":"4","last_reported":1751487086,"current_range_meters":20000,"station_id":"cpo36qri1sfpv3e86is0","pricing_plan_id":"cebpf4jnsgd1na2vs0mg"},{"bike_id":"b2ce53ca-166b-417e-9d70-9bee393f75bb","system_id":"levelo_inurba_marseille","lat":43.21213,"lon":5.35021,"is_reserved":false,"is_disabled":false,"rental_uris":{"android":"levelo://app?vid=b2ce53ca-166b-417e-9d70-9bee393f75bb","ios":"levelo://app?vid=b2ce53ca-166b-417e-9d70-9bee393f75bb"},"vehicle_type_id":"4","last_reported":1751487086,"current_range_meters":20400,"station_id":"","pricing_plan_id":"cebpf4jnsgd1na2vs0mg"},{"bike_id":"33c78580-051e-498c-9c1d-129cfa4d62be","system_id":"levelo_inurba_marseille","lat":43.28471,"lon":5.38418,"is_reserved":false,"is_disabled":false,"rental_uris":{"android":"levelo://app?vid=33c78580-051e-498c-9c1d-129cfa4d62be","ios":"levelo://app?vid=33c78580-051e-498c-9c1d-129cfa4d62be"},"vehicle_type_id":"4","last_reported":1751487086,"current_range_meters":20400,"station_id":"ce4bh512rcd13ifvqe3g","pricing_plan_id":"cebpf4jnsgd1na2vs0mg"},{"bike_id":"cc04118e-9312-4bf8-9106-d64e829afbaa","system_id":"levelo_inurba_marseille","lat":43.21201,"lon":5.35044,"is_reserved":false,"is_disabled":false,"rental_uris":{"android":"levelo://app?vid=cc04118e-9312-4bf8-9106-d64e829afbaa","ios":"levelo://app?vid=cc04118e-9312-4bf8-9106-d64e829afbaa"},"vehicle_type_id":"4","last_reported":1751487086,"current_range_meters":20400,"station_id":"st_cvj6sg6p6f1abm77japg","pricing_plan_id":"cebpf4jnsgd1na2vs0mg"},{"bike_id":"4d7fdc9a-2a05-4cb1-8988-e6e1a2eae090","system_id":"levelo_inurba_marseille","lat":43.29842,"lon":5.36276,"is_reserved":false,"is_disabled":false,"rental_uris":{"android":"levelo://app?vid=4d7fdc9a-2a05-4cb1-8988-e6e1a2eae090","ios":"levelo://app?vid=4d7fdc9a-2a05-4cb1-8988-e6e1a2eae090"},"vehicle_type_id":"4","last_reported":1751487086,"current_range_meters":20800,"station_id":"ce4bgpp2rcd13ifvqc3g","pricing_plan_id":"cebpf4jnsgd1na2vs0mg"},{"bike_id":"b0c6ce92-dfdd-4488-b5ae-fb920f1da942","system_id":"levelo_inurba_marseille","lat":43.30883,"lon":5.39622,"is_reserved":false,"is_disabled":false,"rental_uris":{"android":"levelo://app?vid=b0c6ce92-dfdd-4488-b5ae-fb920f1da942","ios":"levelo://app?vid=b0c6ce92-dfdd-4488-b5ae-fb920f1da942"},"vehicle_type_id":"4","last_reported":1751487086,"current_range_meters":20800,"station_id":"ce4bh012rcd13ifvqcv0","pricing_plan_id":"cebpf4jnsgd1na2vs0mg"},{"bike_id":"1c8ab180-05fd-405f-9922-b2b2c2d5142f","system_id":"levelo_inurba_marseille","lat":43.33764,"lon":5.38128,"is_reserved":false,"is_disabled":false,"rental_uris":{"android":"levelo://app?vid=1c8ab180-05fd-405f-9922-b2b2c2d5142f","ios":"levelo://app?vid=1c8ab180-05fd-405f-9922-b2b2c2d5142f"},"vehicle_type_id":"4","last_reported":1751487086,"current_range_meters":21600,"station_id":"","pricing_plan_id":"cebpf4jnsgd1na2vs0mg"},{"bike_id":"5704a90d-55a5-4b88-a27f-5f374423f13c","system_id":"levelo_inurba_marseille","lat":43.303,"lon":5.39206,"is_reserved":false,"is_disabled":false,"rental_uris":{"android":"levelo://app?vid=5704a90d-55a5-4b88-a27f-5f374423f13c","ios":"levelo://app?vid=5704a90d-55a5-4b88-a27f-5f374423f13c"},"vehicle_type_id":"4","last_reported":1751487086,"current_range_meters":21600,"station_id":"ce4bgkh2rcd13ifvqbk0","pricing_plan_id":"cebpf4jnsgd1na2vs0mg"},{"bike_id":"d570eb29-377d-492d-9c19-6effdcf10ca9","system_id":"levelo_inurba_marseille","lat":43.29576,"lon":5.3674,"is_reserved":false,"is_disabled":false,"rental_uris":{"android":"levelo://app?vid=d570eb29-377d-492d-9c19-6effdcf10ca9","ios":"levelo://app?vid=d570eb29-377d-492d-9c19-6effdcf10ca9"},"vehicle_type_id":"4","last_reported":1751487086,"current_range_meters":21600,"station_id":"ce4bgph2rcd13ifvqc2g","pricing_plan_id":"cebpf4jnsgd1na2vs0mg"},{"bike_id":"99ab0faa-1b0d-4196-ab49-0b45780bea12","system_id":"levelo_inurba_marseille","lat":43.29834,"lon":5.36266,"is_reserved":false,"is_disabled":false,"rental_uris":{"android":"levelo://app?vid=99ab0faa-1b0d-4196-ab49-0b45780bea12","ios":"levelo://app?vid=99ab0faa-1b0d-4196-ab49-0b45780bea12"},"vehicle_type_id":"4","last_reported":1751487086,"current_range_meters":21600,"station_id":"ce4bgpp2rcd13ifvqc3g","pricing_plan_id":"cebpf4jnsgd1na2vs0mg"},{"bike_id":"60ca93c6-42ca-49d5-93c2-bf6f7f77022d","system_id":"levelo_inurba_marseille","lat":43.29035,"lon":5.3864,"is_reserved":false,"is_disabled":false,"rental_uris":{"android":"levelo://app?vid=60ca93c6-42ca-49d5-93c2-bf6f7f77022d","ios":"levelo://app?vid=60ca93c6-42ca-49d5-93c2-bf6f7f77022d"},"vehicle_type_id":"4","last_reported":1751487086,"current_range_meters":21600,"station_id":"ce4bh4p2rcd13ifvqe0g","pricing_plan_id":"cebpf4jnsgd1na2vs0mg"},{"bike_id":"e5696bd6-3aca-4f08-8dc2-784d95ad23a2","system_id":"levelo_inurba_marseille","lat":43.2903,"lon":5.38134,"is_reserved":false,"is_disabled":false,"rental_uris":{"android":"levelo://app?vid=e5696bd6-3aca-4f08-8dc2-784d95ad23a2","ios":"levelo://app?vid=e5696bd6-3aca-4f08-8dc2-784d95ad23a2"},"vehicle_type_id":"4","last_reported":1751487086,"current_range_meters":21600,"station_id":"ce4bh4p2rcd13ifvqe1g","pricing_plan_id":"cebpf4jnsgd1na2vs0mg"},{"bike_id":"cb177508-d44b-4968-80ed-4f390980d236","system_id":"levelo_inurba_marseille","lat":43.28358,"lon":5.34999,"is_reserved":false,"is_disabled":false,"rental_uris":{"android":"levelo://app?vid=cb177508-d44b-4968-80ed-4f390980d236","ios":"levelo://app?vid=cb177508-d44b-4968-80ed-4f390980d236"},"vehicle_type_id":"4","last_reported":1751487086,"current_range_meters":22000,"station_id":"","pricing_plan_id":"cebpf4jnsgd1na2vs0mg"},{"bike_id":"99f418a8-2d74-4463-a203-6fba860753dc","system_id":"levelo_inurba_marseille","lat":43.29631,"lon":5.406,"is_reserved":false,"is_disabled":false,"rental_uris":{"android":"levelo://app?vid=99f418a8-2d74-4463-a203-6fba860753dc","ios":"levelo://app?vid=99f418a8-2d74-4463-a203-6fba860753dc"},"vehicle_type_id":"4","last_reported":1751487086,"current_range_meters":22000,"station_id":"ce4bh0h2rcd13ifvqd60","pricing_plan_id":"cebpf4jnsgd1na2vs0mg"},{"bike_id":"adf6c29f-27d7-4d4e-83f1-e3bd72a142e0","system_id":"levelo_inurba_marseille","lat":43.283491,"lon":5.381036,"is_reserved":false,"is_disabled":false,"rental_uris":{"android":"levelo://app?vid=adf6c29f-27d7-4d4e-83f1-e3bd72a142e0","ios":"levelo://app?vid=adf6c29f-27d7-4d4e-83f1-e3bd72a142e0"},"vehicle_type_id":"4","last_reported":1751487086,"current_range_meters":22000,"station_id":"ce4bh412rcd13ifvqdr0","pricing_plan_id":"cebpf4jnsgd1na2vs0mg"},{"bike_id":"cdc46c45-5897-47aa-ae8a-cfda39812064","system_id":"levelo_inurba_marseille","lat":43.23154,"lon":5.4371,"is_reserved":false,"is_disabled":false,"rental_uris":{"android":"levelo://app?vid=cdc46c45-5897-47aa-ae8a-cfda39812064","ios":"levelo://app?vid=cdc46c45-5897-47aa-ae8a-cfda39812064"},"vehicle_type_id":"4","last_reported":1751487086,"current_range_meters":22000,"station_id":"ce4bhmp2rcd13ifvqgog","pricing_plan_id":"cebpf4jnsgd1na2vs0mg"},{"bike_id":"3eabe1e2-f9f5-41cb-a4ed-73ca7f909c5c","system_id":"levelo_inurba_marseille","lat":43.21166,"lon":5.35002,"is_reserved":false,"is_disabled":false,"rental_uris":{"android":"levelo://app?vid=3eabe1e2-f9f5-41cb-a4ed-73ca7f909c5c","ios":"levelo://app?vid=3eabe1e2-f9f5-41cb-a4ed-73ca7f909c5c"},"vehicle_type_id":"4","last_reported":1751487086,"current_range_meters":22400,"station_id":"","pricing_plan_id":"cebpf4jnsgd1na2vs0mg"},{"bike_id":"58dffcea-c54b-48ff-afd0-ee4a472fee41","system_id":"levelo_inurba_marseille","lat":43.29535,"lon":5.38542,"is_reserved":false,"is_disabled":false,"rental_uris":{"android":"levelo://app?vid=58dffcea-c54b-48ff-afd0-ee4a472fee41","ios":"levelo://app?vid=58dffcea-c54b-48ff-afd0-ee4a472fee41"},"vehicle_type_id":"4","last_reported":1751487086,"current_range_meters":22400,"station_id":"","pricing_plan_id":"cebpf4jnsgd1na2vs0mg"},{"bike_id":"2d09d379-c271-440c-9595-04362f8cefbf","system_id":"levelo_inurba_marseille","lat":43.29507,"lon":5.38538,"is_reserved":false,"is_disabled":false,"rental_uris":{"android":"levelo://app?vid=2d09d379-c271-440c-9595-04362f8cefbf","ios":"levelo://app?vid=2d09d379-c271-440c-9595-04362f8cefbf"},"vehicle_type_id":"4","last_reported":1751487086,"current_range_meters":22400,"station_id":"ce4bgih2rcd13ifvqba0","pricing_plan_id":"cebpf4jnsgd1na2vs0mg"},{"bike_id":"9a8bdb25-0058-49c6-8c24-675a68b4a0e5","system_id":"levelo_inurba_marseille","lat":43.29427,"lon":5.38642,"is_reserved":false,"is_disabled":false,"rental_uris":{"android":"levelo://app?vid=9a8bdb25-0058-49c6-8c24-675a68b4a0e5","ios":"levelo://app?vid=9a8bdb25-0058-49c6-8c24-675a68b4a0e5"},"vehicle_type_id":"4","last_reported":1751487086,"current_range_meters":22400,"station_id":"ce4bh2h2rcd13ifvqdh0","pricing_plan_id":"cebpf4jnsgd1na2vs0mg"},{"bike_id":"0de6ed20-7e06-4168-bd3e-19518fff5f25","system_id":"levelo_inurba_marseille","lat":43.28852,"lon":5.39302,"is_reserved":false,"is_disabled":false,"rental_uris":{"android":"levelo://app?vid=0de6ed20-7e06-4168-bd3e-19518fff5f25","ios":"levelo://app?vid=0de6ed20-7e06-4168-bd3e-19518fff5f25"},"vehicle_type_id":"4","last_reported":1751487086,"current_range_meters":22400,"station_id":"ce4bh2p2rcd13ifvqdi0","pricing_plan_id":"cebpf4jnsgd1na2vs0mg"},{"bike_id":"92e7dbc7-6163-41c2-aae4-7c511edb5eae","system_id":"levelo_inurba_marseille","lat":43.2835,"lon":5.38103,"is_reserved":false,"is_disabled":false,"rental_uris":{"android":"levelo://app?vid=92e7dbc7-6163-41c2-aae4-7c511edb5eae","ios":"levelo://app?vid=92e7dbc7-6163-41c2-aae4-7c511edb5eae"},"vehicle_type_id":"4","last_reported":1751487086,"current_range_meters":22400,"station_id":"ce4bh412rcd13ifvqdr0","pricing_plan_id":"cebpf4jnsgd1na2vs0mg"},{"bike_id":"8686dbc0-0f14-47f5-97f3-b04265e38120","system_id":"levelo_inurba_marseille","lat":43.28697,"lon":5.39985,"is_reserved":false,"is_disabled":false,"rental_uris":{"android":"levelo://app?vid=8686dbc0-0f14-47f5-97f3-b04265e38120","ios":"levelo://app?vid=8686dbc0-0f14-47f5-97f3-b04265e38120"},"vehicle_type_id":"4","last_reported":1751487086,"current_range_meters":22400,"station_id":"ce4bho92rcd13ifvqh3g","pricing_plan_id":"cebpf4jnsgd1na2vs0mg"},{"bike_id":"32c0fc37-6823-41d0-9497-8d1eea24742c","system_id":"levelo_inurba_marseille","lat":43.24183,"lon":5.36383,"is_reserved":false,"is_disabled":false,"rental_uris":{"android":"levelo://app?vid=32c0fc37-6823-41d0-9497-8d1eea24742c","ios":"levelo://app?vid=32c0fc37-6823-41d0-9497-8d1eea24742c"},"vehicle_type_id":"4","last_reported":1751487086,"current_range_meters":22400,"station_id":"cpo36qri1sfpv3e86is0","pricing_plan_id":"cebpf4jnsgd1na2vs0mg"},{"bike_id":"0dbbfd7c-5e93-4301-aea8-6d89ce7ed33b","system_id":"levelo_inurba_marseille","lat":43.21752,"lon":5.34598,"is_reserved":false,"is_disabled":false,"rental_uris":{"android":"levelo://app?vid=0dbbfd7c-5e93-4301-aea8-6d89ce7ed33b","ios":"levelo://app?vid=0dbbfd7c-5e93-4301-aea8-6d89ce7ed33b"},"vehicle_type_id":"4","last_reported":1751487086,"current_range_meters":22400,"station_id":"st_cvj6r9ubvosntc0bgbag","pricing_plan_id":"cebpf4jnsgd1na2vs0mg"},{"bike_id":"5f1e5526-9ff8-4075-8194-48a897f058b4","system_id":"levelo_inurba_marseille","lat":43.21187,"lon":5.35047,"is_reserved":false,"is_disabled":false,"rental_uris":{"android":"levelo://app?vid=5f1e5526-9ff8-4075-8194-48a897f058b4","ios":"levelo://app?vid=5f1e5526-9ff8-4075-8194-48a897f058b4"},"vehicle_type_id":"4","last_reported":1751487086,"current_range_meters":22400,"station_id":"st_cvj6sg6p6f1abm77japg","pricing_plan_id":"cebpf4jnsgd1na2vs0mg"},{"bike_id":"50682204-b2e8-4903-b121-9e03c0fd6233","system_id":"levelo_inurba_marseille","lat":43.29847,"lon":5.36286,"is_reserved":false,"is_disabled":false,"rental_uris":{"android":"levelo://app?vid=50682204-b2e8-4903-b121-9e03c0fd6233","ios":"levelo://app?vid=50682204-b2e8-4903-b121-9e03c0fd6233"},"vehicle_type_id":"4","last_reported":1751487086,"current_range_meters":22800,"station_id":"ce4bgpp2rcd13ifvqc3g","pricing_plan_id":"cebpf4jnsgd1na2vs0mg"},{"bike_id":"dc72d82c-0d0a-4c3e-9b93-29acdee32393","system_id":"levelo_inurba_marseille","lat":43.30589,"lon":5.39354,"is_reserved":false,"is_disabled":false,"rental_uris":{"android":"levelo://app?vid=dc72d82c-0d0a-4c3e-9b93-29acdee32393","ios":"levelo://app?vid=dc72d82c-0d0a-4c3e-9b93-29acdee32393"},"vehicle_type_id":"4","last_reported":1751487086,"current_range_meters":22800,"station_id":"ce4bh0p2rcd13ifvqd80","pricing_plan_id":"cebpf4jnsgd1na2vs0mg"},{"bike_id":"5d68d85b-8026-4d23-949b-97656d60c906","system_id":"levelo_inurba_marseille","lat":43.24664,"lon":5.38164,"is_reserved":false,"is_disabled":false,"rental_uris":{"android":"levelo://app?vid=5d68d85b-8026-4d23-949b-97656d60c906","ios":"levelo://app?vid=5d68d85b-8026-4d23-949b-97656d60c906"},"vehicle_type_id":"4","last_reported":1751487086,"current_range_meters":22800,"station_id":"ce4bhih2rcd13ifvqfr0","pricing_plan_id":"cebpf4jnsgd1na2vs0mg"},{"bike_id":"d31cc174-cc95-4d44-a44a-849c899fcc24","system_id":"levelo_inurba_marseille","lat":43.29787,"lon":5.38105,"is_reserved":false,"is_disabled":false,"rental_uris":{"android":"levelo://app?vid=d31cc174-cc95-4d44-a44a-849c899fcc24","ios":"levelo://app?vid=d31cc174-cc95-4d44-a44a-849c899fcc24"},"vehicle_type_id":"4","last_reported":1751487086,"current_range_meters":23200,"station_id":"ce4bgip2rcd13ifvqbb0","pricing_plan_id":"cebpf4jnsgd1na2vs0mg"},{"bike_id":"1838b77e-dde8-44c1-810e-efbe23ac0c4d","system_id":"levelo_inurba_marseille","lat":43.29843,"lon":5.36267,"is_reserved":false,"is_disabled":false,"rental_uris":{"android":"levelo://app?vid=1838b77e-dde8-44c1-810e-efbe23ac0c4d","ios":"levelo://app?vid=1838b77e-dde8-44c1-810e-efbe23ac0c4d"},"vehicle_type_id":"4","last_reported":1751487086,"current_range_meters":23200,"station_id":"ce4bgpp2rcd13ifvqc3g","pricing_plan_id":"cebpf4jnsgd1na2vs0mg"},{"bike_id":"f31ebd10-bf67-49f9-aedf-6f5b0cd64f02","system_id":"levelo_inurba_marseille","lat":43.30648,"lon":5.40092,"is_reserved":false,"is_disabled":false,"rental_uris":{"android":"levelo://app?vid=f31ebd10-bf67-49f9-aedf-6f5b0cd64f02","ios":"levelo://app?vid=f31ebd10-bf67-49f9-aedf-6f5b0cd64f02"},"vehicle_type_id":"4","last_reported":1751487086,"current_range_meters":23200,"station_id":"ce4bh112rcd13ifvqda0","pricing_plan_id":"cebpf4jnsgd1na2vs0mg"},{"bike_id":"c96b4f38-47ca-48d2-9b36-4deef485fc48","system_id":"levelo_inurba_marseille","lat":43.288494,"lon":5.393075,"is_reserved":false,"is_disabled":false,"rental_uris":{"android":"levelo://app?vid=c96b4f38-47ca-48d2-9b36-4deef485fc48","ios":"levelo://app?vid=c96b4f38-47ca-48d2-9b36-4deef485fc48"},"vehicle_type_id":"4","last_reported":1751487086,"current_range_meters":23200,"station_id":"ce4bh2p2rcd13ifvqdi0","pricing_plan_id":"cebpf4jnsgd1na2vs0mg"},{"bike_id":"c5f2a33e-8f31-4de5-a5fc-eba65d71c133","system_id":"levelo_inurba_marseille","lat":43.29884,"lon":5.388997,"is_reserved":false,"is_disabled":false,"rental_uris":{"android":"levelo://app?vid=c5f2a33e-8f31-4de5-a5fc-eba65d71c133","ios":"levelo://app?vid=c5f2a33e-8f31-4de5-a5fc-eba65d71c133"},"vehicle_type_id":"4","last_reported":1751487086,"current_range_meters":23200,"station_id":"ce4bh392rcd13ifvqdl0","pricing_plan_id":"cebpf4jnsgd1na2vs0mg"},{"bike_id":"6c9c4b27-2924-4b8c-a1df-fca84ff50d5c","system_id":"levelo_inurba_marseille","lat":43.26568,"lon":5.39014,"is_reserved":false,"is_disabled":false,"rental_uris":{"android":"levelo://app?vid=6c9c4b27-2924-4b8c-a1df-fca84ff50d5c","ios":"levelo://app?vid=6c9c4b27-2924-4b8c-a1df-fca84ff50d5c"},"vehicle_type_id":"4","last_reported":1751487086,"current_range_meters":23200,"station_id":"ce4bhe12rcd13ifvqf30","pricing_plan_id":"cebpf4jnsgd1na2vs0mg"},{"bike_id":"2657ab1f-1ac2-49d7-8963-70934dace11a","system_id":"levelo_inurba_marseille","lat":43.24801,"lon":5.37456,"is_reserved":false,"is_disabled":false,"rental_uris":{"android":"levelo://app?vid=2657ab1f-1ac2-49d7-8963-70934dace11a","ios":"levelo://app?vid=2657ab1f-1ac2-49d7-8963-70934dace11a"},"vehicle_type_id":"4","last_reported":1751487086,"current_range_meters":23200,"station_id":"ce4bhgh2rcd13ifvqfb0","pricing_plan_id":"cebpf4jnsgd1na2vs0mg"},{"bike_id":"1080a608-b11b-48de-9ad8-dea44a95a012","system_id":"levelo_inurba_marseille","lat":43.23177,"lon":5.39986,"is_reserved":false,"is_disabled":false,"rental_uris":{"android":"levelo://app?vid=1080a608-b11b-48de-9ad8-dea44a95a012","ios":"levelo://app?vid=1080a608-b11b-48de-9ad8-dea44a95a012"},"vehicle_type_id":"4","last_reported":1751487086,"current_range_meters":23200,"station_id":"ce4bhn12rcd13ifvqgqg","pricing_plan_id":"cebpf4jnsgd1na2vs0mg"},{"bike_id":"c00f237b-7032-45f8-922d-ce9e23964476","system_id":"levelo_inurba_marseille","lat":43.29553,"lon":5.42295,"is_reserved":false,"is_disabled":false,"rental_uris":{"android":"levelo://app?vid=c00f237b-7032-45f8-922d-ce9e23964476","ios":"levelo://app?vid=c00f237b-7032-45f8-922d-ce9e23964476"},"vehicle_type_id":"4","last_reported":1751487086,"current_range_meters":23200,"station_id":"ce4bhph2rcd13ifvqhdg","pricing_plan_id":"cebpf4jnsgd1na2vs0mg"},{"bike_id":"ba926bfc-9632-4680-b0ed-32a040d6fb83","system_id":"levelo_inurba_marseille","lat":43.21212,"lon":5.35081,"is_reserved":false,"is_disabled":false,"rental_uris":{"android":"levelo://app?vid=ba926bfc-9632-4680-b0ed-32a040d6fb83","ios":"levelo://app?vid=ba926bfc-9632-4680-b0ed-32a040d6fb83"},"vehicle_type_id":"4","last_reported":1751487086,"current_range_meters":23200,"station_id":"st_cvj6sg6p6f1abm77japg","pricing_plan_id":"cebpf4jnsgd1na2vs0mg"},{"bike_id":"b13877a6-4825-4d82-b46b-67fa8ad66c5d","system_id":"levelo_inurba_marseille","lat":43.21185,"lon":5.35075,"is_reserved":false,"is_disabled":false,"rental_uris":{"android":"levelo://app?vid=b13877a6-4825-4d82-b46b-67fa8ad66c5d","ios":"levelo://app?vid=b13877a6-4825-4d82-b46b-67fa8ad66c5d"},"vehicle_type_id":"4","last_reported":1751487086,"current_range_meters":23200,"station_id":"st_cvj6sg6p6f1abm77japg","pricing_plan_id":"cebpf4jnsgd1na2vs0mg"},{"bike_id":"7712491c-e18b-4b09-bb79-30880b357c07","system_id":"levelo_inurba_marseille","lat":43.21197,"lon":5.35078,"is_reserved":false,"is_disabled":false,"rental_uris":{"android":"levelo://app?vid=7712491c-e18b-4b09-bb79-30880b357c07","ios":"levelo://app?vid=7712491c-e18b-4b09-bb79-30880b357c07"},"vehicle_type_id":"4","last_reported":1751487086,"current_range_meters":23200,"station_id":"st_cvj6sg6p6f1abm77japg","pricing_plan_id":"cebpf4jnsgd1na2vs0mg"},{"bike_id":"5650271f-6fda-44e7-ad44-a77913ff649a","system_id":"levelo_inurba_marseille","lat":43.29309,"lon":5.37161,"is_reserved":false,"is_disabled":false,"rental_uris":{"android":"levelo://app?vid=5650271f-6fda-44e7-ad44-a77913ff649a","ios":"levelo://app?vid=5650271f-6fda-44e7-ad44-a77913ff649a"},"vehicle_type_id":"4","last_reported":1751487086,"current_range_meters":24000,"station_id":"ce4bgh92rcd13ifvqb40","pricing_plan_id":"cebpf4jnsgd1na2vs0mg"},{"bike_id":"c6a7cd8d-2c86-4668-9d34-6347676ac304","system_id":"levelo_inurba_marseille","lat":43.31221,"lon":5.36859,"is_reserved":false,"is_disabled":false,"rental_uris":{"android":"levelo://app?vid=c6a7cd8d-2c86-4668-9d34-6347676ac304","ios":"levelo://app?vid=c6a7cd8d-2c86-4668-9d34-6347676ac304"},"vehicle_type_id":"4","last_reported":1751487086,"current_range_meters":24000,"station_id":"ce4bgl92rcd13ifvqbq0","pricing_plan_id":"cebpf4jnsgd1na2vs0mg"},{"bike_id":"e06c279e-c822-42a8-b23e-9f2f13d390af","system_id":"levelo_inurba_marseille","lat":43.30882,"lon":5.39637,"is_reserved":false,"is_disabled":false,"rental_uris":{"android":"levelo://app?vid=e06c279e-c822-42a8-b23e-9f2f13d390af","ios":"levelo://app?vid=e06c279e-c822-42a8-b23e-9f2f13d390af"},"vehicle_type_id":"4","last_reported":1751487086,"current_range_meters":24000,"station_id":"ce4bh012rcd13ifvqcv0","pricing_plan_id":"cebpf4jnsgd1na2vs0mg"},{"bike_id":"048251f0-c87e-4807-80b9-a120651212a2","system_id":"levelo_inurba_marseille","lat":43.29031,"lon":5.38644,"is_reserved":false,"is_disabled":false,"rental_uris":{"android":"levelo://app?vid=048251f0-c87e-4807-80b9-a120651212a2","ios":"levelo://app?vid=048251f0-c87e-4807-80b9-a120651212a2"},"vehicle_type_id":"4","last_reported":1751487086,"current_range_meters":24000,"station_id":"ce4bh4p2rcd13ifvqe0g","pricing_plan_id":"cebpf4jnsgd1na2vs0mg"},{"bike_id":"1749ac78-529b-4bef-82e0-e903b8673605","system_id":"levelo_inurba_marseille","lat":43.281503,"lon":5.426586,"is_reserved":false,"is_disabled":false,"rental_uris":{"android":"levelo://app?vid=1749ac78-529b-4bef-82e0-e903b8673605","ios":"levelo://app?vid=1749ac78-529b-4bef-82e0-e903b8673605"},"vehicle_type_id":"4","last_reported":1751487086,"current_range_meters":24000,"station_id":"ce4bhnh2rcd13ifvqgug","pricing_plan_id":"cebpf4jnsgd1na2vs0mg"},{"bike_id":"b3d7a6ac-4ad8-404e-91ae-53d96dbbd9fb","system_id":"levelo_inurba_marseille","lat":43.21181,"lon":5.35084,"is_reserved":false,"is_disabled":false,"rental_uris":{"android":"levelo://app?vid=b3d7a6ac-4ad8-404e-91ae-53d96dbbd9fb","ios":"levelo://app?vid=b3d7a6ac-4ad8-404e-91ae-53d96dbbd9fb"},"vehicle_type_id":"4","last_reported":1751487086,"current_range_meters":24000,"station_id":"st_cvj6sg6p6f1abm77japg","pricing_plan_id":"cebpf4jnsgd1na2vs0mg"},{"bike_id":"c9cd1ed4-febf-4f0f-8537-8f86861c9beb","system_id":"levelo_inurba_marseille","lat":43.211978,"lon":5.350799,"is_reserved":false,"is_disabled":false,"rental_uris":{"android":"levelo://app?vid=c9cd1ed4-febf-4f0f-8537-8f86861c9beb","ios":"levelo://app?vid=c9cd1ed4-febf-4f0f-8537-8f86861c9beb"},"vehicle_type_id":"4","last_reported":1751487086,"current_range_meters":24000,"station_id":"st_cvj6sg6p6f1abm77japg","pricing_plan_id":"cebpf4jnsgd1na2vs0mg"},{"bike_id":"4b8da722-ee9e-48a4-a5e5-3a8a10364708","system_id":"levelo_inurba_marseille","lat":43.31217,"lon":5.37826,"is_reserved":false,"is_disabled":false,"rental_uris":{"android":"levelo://app?vid=4b8da722-ee9e-48a4-a5e5-3a8a10364708","ios":"levelo://app?vid=4b8da722-ee9e-48a4-a5e5-3a8a10364708"},"vehicle_type_id":"4","last_reported":1751487086,"current_range_meters":24400,"station_id":"","pricing_plan_id":"cebpf4jnsgd1na2vs0mg"},{"bike_id":"99b8138d-cd34-4aa2-850f-5f628a35c384","system_id":"levelo_inurba_marseille","lat":43.29058,"lon":5.35556,"is_reserved":false,"is_disabled":false,"rental_uris":{"android":"levelo://app?vid=99b8138d-cd34-4aa2-850f-5f628a35c384","ios":"levelo://app?vid=99b8138d-cd34-4aa2-850f-5f628a35c384"},"vehicle_type_id":"4","last_reported":1751487086,"current_range_meters":24400,"station_id":"","pricing_plan_id":"cebpf4jnsgd1na2vs0mg"},{"bike_id":"ab82951c-2d86-4299-aa1f-8d2f5503ed2d","system_id":"levelo_inurba_marseille","lat":43.31075,"lon":5.38375,"is_reserved":false,"is_disabled":false,"rental_uris":{"android":"levelo://app?vid=ab82951c-2d86-4299-aa1f-8d2f5503ed2d","ios":"levelo://app?vid=ab82951c-2d86-4299-aa1f-8d2f5503ed2d"},"vehicle_type_id":"4","last_reported":1751487086,"current_range_meters":24400,"station_id":"ce4bgv92rcd13ifvqcr0","pricing_plan_id":"cebpf4jnsgd1na2vs0mg"},{"bike_id":"b771e656-571d-4261-a4f4-2ce68109897e","system_id":"levelo_inurba_marseille","lat":43.31328,"lon":5.3969,"is_reserved":false,"is_disabled":false,"rental_uris":{"android":"levelo://app?vid=b771e656-571d-4261-a4f4-2ce68109897e","ios":"levelo://app?vid=b771e656-571d-4261-a4f4-2ce68109897e"},"vehicle_type_id":"4","last_reported":1751487086,"current_range_meters":24400,"station_id":"ce4bgvp2rcd13ifvqcu0","pricing_plan_id":"cebpf4jnsgd1na2vs0mg"},{"bike_id":"fd72d859-9a60-49b7-84b2-96aff9081717","system_id":"levelo_inurba_marseille","lat":43.29513,"lon":5.39035,"is_reserved":false,"is_disabled":false,"rental_uris":{"android":"levelo://app?vid=fd72d859-9a60-49b7-84b2-96aff9081717","ios":"levelo://app?vid=fd72d859-9a60-49b7-84b2-96aff9081717"},"vehicle_type_id":"4","last_reported":1751487086,"current_range_meters":24400,"station_id":"ce4bh3p2rcd13ifvqdp0","pricing_plan_id":"cebpf4jnsgd1na2vs0mg"},{"bike_id":"a2c4051e-869a-4b7f-b3d2-ef32602a1507","system_id":"levelo_inurba_marseille","lat":43.28659,"lon":5.36359,"is_reserved":false,"is_disabled":false,"rental_uris":{"android":"levelo://app?vid=a2c4051e-869a-4b7f-b3d2-ef32602a1507","ios":"levelo://app?vid=a2c4051e-869a-4b7f-b3d2-ef32602a1507"},"vehicle_type_id":"4","last_reported":1751487086,"current_range_meters":24400,"station_id":"ce4bhah2rcd13ifvqej0","pricing_plan_id":"cebpf4jnsgd1na2vs0mg"},{"bike_id":"038a0979-2072-4189-8523-7fdfc3650d0d","system_id":"levelo_inurba_marseille","lat":43.23184,"lon":5.3998,"is_reserved":false,"is_disabled":false,"rental_uris":{"android":"levelo://app?vid=038a0979-2072-4189-8523-7fdfc3650d0d","ios":"levelo://app?vid=038a0979-2072-4189-8523-7fdfc3650d0d"},"vehicle_type_id":"4","last_reported":1751487086,"current_range_meters":24400,"station_id":"ce4bhn12rcd13ifvqgqg","pricing_plan_id":"cebpf4jnsgd1na2vs0mg"},{"bike_id":"4fb0c222-c05d-4c10-b145-5d4fa643bd53","system_id":"levelo_inurba_marseille","lat":43.24069,"lon":5.37764,"is_reserved":false,"is_disabled":false,"rental_uris":{"android":"levelo://app?vid=4fb0c222-c05d-4c10-b145-5d4fa643bd53","ios":"levelo://app?vid=4fb0c222-c05d-4c10-b145-5d4fa643bd53"},"vehicle_type_id":"4","last_reported":1751487086,"current_range_meters":24400,"station_id":"ce4bhnp2rcd13ifvqgvg","pricing_plan_id":"cebpf4jnsgd1na2vs0mg"},{"bike_id":"2d69ca3c-1e4b-4d9b-8b5d-4344e9cbafb5","system_id":"levelo_inurba_marseille","lat":43.21185,"lon":5.35073,"is_reserved":false,"is_disabled":false,"rental_uris":{"android":"levelo://app?vid=2d69ca3c-1e4b-4d9b-8b5d-4344e9cbafb5","ios":"levelo://app?vid=2d69ca3c-1e4b-4d9b-8b5d-4344e9cbafb5"},"vehicle_type_id":"4","last_reported":1751487086,"current_range_meters":24400,"station_id":"st_cvj6sg6p6f1abm77japg","pricing_plan_id":"cebpf4jnsgd1na2vs0mg"},{"bike_id":"25ddb26e-1b58-4795-bdd1-a00f16bd9521","system_id":"levelo_inurba_marseille","lat":43.28118,"lon":5.35167,"is_reserved":false,"is_disabled":false,"rental_uris":{"android":"levelo://app?vid=25ddb26e-1b58-4795-bdd1-a00f16bd9521","ios":"levelo://app?vid=25ddb26e-1b58-4795-bdd1-a00f16bd9521"},"vehicle_type_id":"4","last_reported":1751487086,"current_range_meters":24800,"station_id":"","pricing_plan_id":"cebpf4jnsgd1na2vs0mg"},