{"last_updated":1717855628,"ttl":30,"version":"2.2","data":{"bikes":[{"bike_id":"4ad6a6be-f0fa-40d2-8c5b-653b11503306","system_id":"levelo_inurba_marseille","lat":43.312239,"lon":5.368562,"is_reserved":false,"is_disabled":false,"rental_uris":{"android":"levelo://app?vid=4ad6a6be-f0fa-40d2-8c5b-653b11503306","ios":"levelo://app?vid=4ad6a6be-f0fa-40d2-8c5b-653b11503306"},"vehicle_type_id":"4","last_reported":1717855628,"current_range_meters":28000,"station_id":"ce4bgl92rcd13ifvqbq0","pricing_plan_id":"cebpf4jnsgd1na2vs0mg"},{"bike_id":"21dfcda1-ba01-4451-bf5a-e5d8c90816ca","system_id":"levelo_inurba_marseille","lat":43.312239,"lon":5.368562,"is_reserved":false,"is_disabled":false,"rental_uris":{"android":"levelo://app?vid=21dfcda1-ba01-4451-bf5a-e5d8c90816ca","ios":"levelo://app?vid=21dfcda1-ba01-4451-bf5a-e5d8c90816ca"},"vehicle_type_id":"4","last_reported":1717855628,"current_range_meters":16000,"station_id":"ce4bgl92rcd13ifvqbq0","pricing_plan_id":"cebpf4jnsgd1na2vs0mg"},{"bike_id":"717192eb-b8ad-4b32-8740-638892475e98","system_id":"levelo_inurba_marseille","lat":43.314811,"lon":5.373103,"is_reserved":false,"is_disabled":false,"rental_uris":{"android":"levelo://app?vid=717192eb-b8ad-4b32-8740-638892475e98","ios":"levelo://app?vid=717192eb-b8ad-4b32-8740-638892475e98"},"vehicle_type_id":"4","last_reported":1717855628,"current_range_meters":4000,"station_id":"ce4bgt12rcd13ifvqcd0","pricing_plan_id":"cebpf4jnsgd1na2vs0mg"},{"bike_id":"dc27acb9-1971-400b-8765-445cfa0232ea","system_id":"levelo_inurba_marseille","lat":43.314811,"lon":5.373103,"is_reserved":false,"is_disabled":false,"rental_uris":{"android":"levelo://app?vid=dc27acb9-1971-400b-8765-445cfa0232ea","ios":"levelo://app?vid=dc27acb9-1971-400b-8765-445cfa0232ea"},"vehicle_type_id":"4","last_reported":1717855628,"current_range_meters":4800,"station_id":"ce4bgt12rcd13ifvqcd0","pricing_plan_id":"cebpf4jnsgd1na2vs0mg"},{"bike_id":"d975a479-9b5c-43c9-b5bd-1bf0284ba595","system_id":"levelo_inurba_marseille","lat":43.314811,"lon":5.373103,"is_reserved":false,"is_disabled":false,"rental_uris":{"android":"levelo://app?vid=d975a479-9b5c-43c9-b5bd-1bf0284ba595","ios":"levelo://app?vid=d975a479-9b5c-43c9-b5bd-1bf0284ba595"},"vehicle_type_id":"4","last_reported":1717855628,"current_range_meters":9200,"station_id":"ce4bgt12rcd13ifvqcd0","pricing_plan_id":"cebpf4jnsgd1na2vs0mg"},{"bike_id":"dba46227-9bca-49fe-ac18-bb468f150f05","system_id":"levelo_inurba_marseille","lat":43.309034,"lon":5.371783,"is_reserved":false,"is_disabled":false,"rental_uris":{"android":"levelo://app?vid=dba46227-9bca-49fe-ac18-bb468f150f05","ios":"levelo://app?vid=dba46227-9bca-49fe-ac18-bb468f150f05"},"vehicle_type_id":"4","last_reported":1717855628,"current_range_meters":5200,"station_id":"ce4bguh2rcd13ifvqckg","pricing_plan_id":"cebpf4jnsgd1na2vs0mg"},{"bike_id":"4eb2b219-b25e-4b82-b8c4-4d42d85bf8a3","system_id":"levelo_inurba_marseille","lat":43.309039,"lon":5.371797,"is_reserved":false,"is_disabled":false,"rental_uris":{"android":"levelo://app?vid=4eb2b219-b25e-4b82-b8c4-4d42d85bf8a3","ios":"levelo://app?vid=4eb2b219-b25e-4b82-b8c4-4d42d85bf8a3"},"vehicle_type_id":"4","last_reported":1717855628,"current_range_meters":12000,"station_id":"ce4bguh2rcd13ifvqckg","pricing_plan_id":"cebpf4jnsgd1na2vs0mg"},{"bike_id":"5f2bac5e-0561-43b5-a1fd-5b8f1d6146f6","system_id":"levelo_inurba_marseille","lat":43.30923,"lon":5.37518,"is_reserved":false,"is_disabled":false,"rental_uris":{"android":"levelo://app?vid=5f2bac5e-0561-43b5-a1fd-5b8f1d6146f6","ios":"levelo://app?vid=5f2bac5e-0561-43b5-a1fd-5b8f1d6146f6"},"vehicle_type_id":"4","last_reported":1717855628,"current_range_meters":29200,"station_id":"","pricing_plan_id":"cebpf4jnsgd1na2vs0mg"},{"bike_id":"a64a3c23-0f78-4438-b007-3e1bcea2624b","system_id":"levelo_inurba_marseille","lat":43.30534,"lon":5.366007,"is_reserved":false,"is_disabled":false,"rental_uris":{"android":"levelo://app?vid=a64a3c23-0f78-4438-b007-3e1bcea2624b","ios":"levelo://app?vid=a64a3c23-0f78-4438-b007-3e1bcea2624b"},"vehicle_type_id":"4","last_reported":1717855628,"current_range_meters":0,"station_id":"ce4bgs12rcd13ifvqcag","pricing_plan_id":"cebpf4jnsgd1na2vs0mg"},{"bike_id":"6711a720-4be1-4766-9812-54d9f67bc267","system_id":"levelo_inurba_marseille","lat":43.31844,"lon":5.37356,"is_reserved":false,"is_disabled":false,"rental_uris":{"android":"levelo://app?vid=6711a720-4be1-4766-9812-54d9f67bc267","ios":"levelo://app?vid=6711a720-4be1-4766-9812-54d9f67bc267"},"vehicle_type_id":"4","last_reported":1717855628,"current_range_meters":11200,"station_id":"","pricing_plan_id":"cebpf4jnsgd1na2vs0mg"},{"bike_id":"6be29c73-1f04-488a-8d95-345be55f4045","system_id":"levelo_inurba_marseille","lat":43.305989,"lon":5.37225,"is_reserved":false,"is_disabled":false,"rental_uris":{"android":"levelo://app?vid=6be29c73-1f04-488a-8d95-345be55f4045","ios":"levelo://app?vid=6be29c73-1f04-488a-8d95-345be55f4045"},"vehicle_type_id":"4","last_reported":1717855628,"current_range_meters":31600,"station_id":"ce4bgqh2rcd13ifvqc4g","pricing_plan_id":"cebpf4jnsgd1na2vs0mg"},{"bike_id":"6346f381-fec9-4271-aa61-8d45a76bfe42","system_id":"levelo_inurba_marseille","lat":43.309914,"lon":5.376593,"is_reserved":false,"is_disabled":false,"rental_uris":{"android":"levelo://app?vid=6346f381-fec9-4271-aa61-8d45a76bfe42","ios":"levelo://app?vid=6346f381-fec9-4271-aa61-8d45a76bfe42"},"vehicle_type_id":"4","last_reported":1717855628,"current_range_meters":24400,"station_id":"","pricing_plan_id":"cebpf4jnsgd1na2vs0mg"},{"bike_id":"35595702-1e4c-4a5d-862c-4b3477250715","system_id":"levelo_inurba_marseille","lat":43.305989,"lon":5.37225,"is_reserved":false,"is_disabled":false,"rental_uris":{"android":"levelo://app?vid=35595702-1e4c-4a5d-862c-4b3477250715","ios":"levelo://app?vid=35595702-1e4c-4a5d-862c-4b3477250715"},"vehicle_type_id":"4","last_reported":1717855628,"current_range_meters":26800,"station_id":"ce4bgqh2rcd13ifvqc4g","pricing_plan_id":"cebpf4jnsgd1na2vs0mg"},{"bike_id":"9bf6009c-defc-4dd5-a82b-a827743ac7ba","system_id":"levelo_inurba_marseille","lat":43.305989,"lon":5.37225,"is_reserved":false,"is_disabled":false,"rental_uris":{"android":"levelo://app?vid=9bf6009c-defc-4dd5-a82b-a827743ac7ba","ios":"levelo://app?vid=9bf6009c-defc-4dd5-a82b-a827743ac7ba"},"vehicle_type_id":"4","last_reported":1717855628,"current_range_meters":25600,"station_id":"ce4bgqh2rcd13ifvqc4g","pricing_plan_id":"cebpf4jnsgd1na2vs0mg"},{"bike_id":"19ae0494-62aa-449f-971e-e23c30265ebf","system_id":"levelo_inurba_marseille","lat":43.305989,"lon":5.37225,"is_reserved":false,"is_disabled":false,"rental_uris":{"android":"levelo://app?vid=19ae0494-62aa-449f-971e-e23c30265ebf","ios":"levelo://app?vid=19ae0494-62aa-449f-971e-e23c30265ebf"},"vehicle_type_id":"4","last_reported":1717855628,"current_range_meters":12400,"station_id":"ce4bgqh2rcd13ifvqc4g","pricing_plan_id":"cebpf4jnsgd1na2vs0mg"},{"bike_id":"8fc5fb7c-97fa-45fb-be97-b2772ca89648","system_id":"levelo_inurba_marseille","lat":43.305989,"lon":5.37225,"is_reserved":false,"is_disabled":false,"rental_uris":{"android":"levelo://app?vid=8fc5fb7c-97fa-45fb-be97-b2772ca89648","ios":"levelo://app?vid=8fc5fb7c-97fa-45fb-be97-b2772ca89648"},"vehicle_type_id":"4","last_reported":1717855628,"current_range_meters":26400,"station_id":"ce4bgqh2rcd13ifvqc4g","pricing_plan_id":"cebpf4jnsgd1na2vs0mg"},{"bike_id":"a674ac1d-09a9-4a69-ad7c-2b3b59e30e6a","system_id":"levelo_inurba_marseille","lat":43.305989,"lon":5.37225,"is_reserved":false,"is_disabled":false,"rental_uris":{"android":"levelo://app?vid=a674ac1d-09a9-4a69-ad7c-2b3b59e30e6a","ios":"levelo://app?vid=a674ac1d-09a9-4a69-ad7c-2b3b59e30e6a"},"vehicle_type_id":"4","last_reported":1717855628,"current_range_meters":6800,"station_id":"ce4bgqh2rcd13ifvqc4g","pricing_plan_id":"cebpf4jnsgd1na2vs0mg"},{"bike_id":"76de0ddd-1ba5-4b52-b224-b92b7d166c44","system_id":"levelo_inurba_marseille","lat":43.305989,"lon":5.37225,"is_reserved":false,"is_disabled":false,"rental_uris":{"android":"levelo://app?vid=76de0ddd-1ba5-4b52-b224-b92b7d166c44","ios":"levelo://app?vid=76de0ddd-1ba5-4b52-b224-b92b7d166c44"},"vehicle_type_id":"4","last_reported":1717855628,"current_range_meters":5600,"station_id":"ce4bgqh2rcd13ifvqc4g","pricing_plan_id":"cebpf4jnsgd1na2vs0mg"},{"bike_id":"0d5e5c3d-3dbe-4e04-b4fc-7fd404b099e2","system_id":"levelo_inurba_marseille","lat":43.305989,"lon":5.37225,"is_reserved":false,"is_disabled":false,"rental_uris":{"android":"levelo://app?vid=0d5e5c3d-3dbe-4e04-b4fc-7fd404b099e2","ios":"levelo://app?vid=0d5e5c3d-3dbe-4e04-b4fc-7fd404b099e2"},"vehicle_type_id":"4","last_reported":1717855628,"current_range_meters":22800,"station_id":"ce4bgqh2rcd13ifvqc4g","pricing_plan_id":"cebpf4jnsgd1na2vs0mg"},{"bike_id":"00e4ffc5-8703-4b56-b49a-2f4d116aa123","system_id":"levelo_inurba_marseille","lat":43.305989,"lon":5.37225,"is_reserved":false,"is_disabled":false,"rental_uris":{"android":"levelo://app?vid=00e4ffc5-8703-4b56-b49a-2f4d116aa123","ios":"levelo://app?vid=00e4ffc5-8703-4b56-b49a-2f4d116aa123"},"vehicle_type_id":"4","last_reported":1717855628,"current_range_meters":30800,"station_id":"ce4bgqh2rcd13ifvqc4g","pricing_plan_id":"cebpf4jnsgd1na2vs0mg"},{"bike_id":"a529797e-0142-4415-bee7-9c2359256e08","system_id":"levelo_inurba_marseille","lat":43.3112,"lon":5.377692,"is_reserved":false,"is_disabled":false,"rental_uris":{"android":"levelo://app?vid=a529797e-0142-4415-bee7-9c2359256e08","ios":"levelo://app?vid=a529797e-0142-4415-bee7-9c2359256e08"},"vehicle_type_id":"4","last_reported":1717855628,"current_range_meters":0,"station_id":"ce4bgt92rcd13ifvqcg0","pricing_plan_id":"cebpf4jnsgd1na2vs0mg"},{"bike_id":"6d8ec002-afd8-4462-bdb8-6b90bbdf3ce7","system_id":"levelo_inurba_marseille","lat":43.307945,"lon":5.376487,"is_reserved":false,"is_disabled":false,"rental_uris":{"android":"levelo://app?vid=6d8ec002-afd8-4462-bdb8-6b90bbdf3ce7","ios":"levelo://app?vid=6d8ec002-afd8-4462-bdb8-6b90bbdf3ce7"},"vehicle_type_id":"4","last_reported":1717855628,"current_range_meters":26400,"station_id":"ce4bgv92rcd13ifvqcq0","pricing_plan_id":"cebpf4jnsgd1na2vs0mg"},{"bike_id":"0b288518-44e1-4ef5-b70f-a13fbc605393","system_id":"levelo_inurba_marseille","lat":43.307945,"lon":5.376487,"is_reserved":false,"is_disabled":false,"rental_uris":{"android":"levelo://app?vid=0b288518-44e1-4ef5-b70f-a13fbc605393","ios":"levelo://app?vid=0b288518-44e1-4ef5-b70f-a13fbc605393"},"vehicle_type_id":"4","last_reported":1717855628,"current_range_meters":13600,"station_id":"ce4bgv92rcd13ifvqcq0","pricing_plan_id":"cebpf4jnsgd1na2vs0mg"},{"bike_id":"ad5a47a0-9b08-4be4-8e62-52caf20cf018","system_id":"levelo_inurba_marseille","lat":43.307945,"lon":5.376487,"is_reserved":false,"is_disabled":false,"rental_uris":{"android":"levelo://app?vid=ad5a47a0-9b08-4be4-8e62-52caf20cf018","ios":"levelo://app?vid=ad5a47a0-9b08-4be4-8e62-52caf20cf018"},"vehicle_type_id":"4","last_reported":1717855628,"current_range_meters":18800,"station_id":"ce4bgv92rcd13ifvqcq0","pricing_plan_id":"cebpf4jnsgd1na2vs0mg"},{"bike_id":"e10f922c-16d4-482d-bd67-5cb8a09c7322","system_id":"levelo_inurba_marseille","lat":43.307945,"lon":5.376487,"is_reserved":false,"is_disabled":false,"rental_uris":{"android":"levelo://app?vid=e10f922c-16d4-482d-bd67-5cb8a09c7322","ios":"levelo://app?vid=e10f922c-16d4-482d-bd67-5cb8a09c7322"},"vehicle_type_id":"4","last_reported":1717855628,"current_range_meters":31200,"station_id":"ce4bgv92rcd13ifvqcq0","pricing_plan_id":"cebpf4jnsgd1na2vs0mg"},{"bike_id":"39fd4505-aabd-4b74-bae2-1ad65c10eaab","system_id":"levelo_inurba_marseille","lat":43.31086,"lon":5.37852,"is_reserved":false,"is_disabled":false,"rental_uris":{"android":"levelo://app?vid=39fd4505-aabd-4b74-bae2-1ad65c10eaab","ios":"levelo://app?vid=39fd4505-aabd-4b74-bae2-1ad65c10eaab"},"vehicle_type_id":"4","last_reported":1717855628,"current_range_meters":28400,"station_id":"","pricing_plan_id":"cebpf4jnsgd1na2vs0mg"},{"bike_id":"7a47f840-aac7-4e62-a63f-08d6726051c6","system_id":"levelo_inurba_marseille","lat":43.317075,"lon":5.377367,"is_reserved":false,"is_disabled":false,"rental_uris":{"android":"levelo://app?vid=7a47f840-aac7-4e62-a63f-08d6726051c6","ios":"levelo://app?vid=7a47f840-aac7-4e62-a63f-08d6726051c6"},"vehicle_type_id":"4","last_reported":1717855628,"current_range_meters":0,"station_id":"ce4bgth2rcd13ifvqch0","pricing_plan_id":"cebpf4jnsgd1na2vs0mg"},{"bike_id":"87e8b2f6-e495-4f23-9e14-8e9df689c8f1","system_id":"levelo_inurba_marseille","lat":43.303046,"lon":5.368981,"is_reserved":false,"is_disabled":false,"rental_uris":{"android":"levelo://app?vid=87e8b2f6-e495-4f23-9e14-8e9df689c8f1","ios":"levelo://app?vid=87e8b2f6-e495-4f23-9e14-8e9df689c8f1"},"vehicle_type_id":"4","last_reported":1717855628,"current_range_meters":7200,"station_id":"ce4bgqh2rcd13ifvqc5g","pricing_plan_id":"cebpf4jnsgd1na2vs0mg"},{"bike_id":"53295028-3f58-42d0-84d8-686ed73f20d0","system_id":"levelo_inurba_marseille","lat":43.31871,"lon":5.37829,"is_reserved":false,"is_disabled":false,"rental_uris":{"android":"levelo://app?vid=53295028-3f58-42d0-84d8-686ed73f20d0","ios":"levelo://app?vid=53295028-3f58-42d0-84d8-686ed73f20d0"},"vehicle_type_id":"4","last_reported":1717855628,"current_range_meters":8000,"station_id":"","pricing_plan_id":"cebpf4jnsgd1na2vs0mg"},{"bike_id":"b97e18a9-0671-4fca-bf8b-049a85b11ecb","system_id":"levelo_inurba_marseille","lat":43.305364,"lon":5.384119,"is_reserved":false,"is_disabled":false,"rental_uris":{"android":"levelo://app?vid=b97e18a9-0671-4fca-bf8b-049a85b11ecb","ios":"levelo://app?vid=b97e18a9-0671-4fca-bf8b-049a85b11ecb"},"vehicle_type_id":"4","last_reported":1717855628,"current_range_meters":9200,"station_id":"ce4bgg92rcd13ifvqb30","pricing_plan_id":"cebpf4jnsgd1na2vs0mg"},{"bike_id":"e9ee9476-6a3d-4e9f-a34b-d3a8d8d1953b","system_id":"levelo_inurba_marseille","lat":43.308012,"lon":5.381511,"is_reserved":false,"is_disabled":false,"rental_uris":{"android":"levelo://app?vid=e9ee9476-6a3d-4e9f-a34b-d3a8d8d1953b","ios":"levelo://app?vid=e9ee9476-6a3d-4e9f-a34b-d3a8d8d1953b"},"vehicle_type_id":"4","last_reported":1717855628,"current_range_meters":25200,"station_id":"ce4bgt12rcd13ifvqce0","pricing_plan_id":"cebpf4jnsgd1na2vs0mg"},{"bike_id":"79a6dd8c-076b-48e7-a686-38b1b9d9a2f3","system_id":"levelo_inurba_marseille","lat":43.304606,"lon":5.379026,"is_reserved":false,"is_disabled":false,"rental_uris":{"android":"levelo://app?vid=79a6dd8c-076b-48e7-a686-38b1b9d9a2f3","ios":"levelo://app?vid=79a6dd8c-076b-48e7-a686-38b1b9d9a2f3"},"vehicle_type_id":"4","last_reported":1717855628,"current_range_meters":27200,"station_id":"ce4bgup2rcd13ifvqcn0","pricing_plan_id":"cebpf4jnsgd1na2vs0mg"},{"bike_id":"41d1e68f-2289-4ebe-bc83-d65d75c4a2aa","system_id":"levelo_inurba_marseille","lat":43.304606,"lon":5.379026,"is_reserved":false,"is_disabled":false,"rental_uris":{"android":"levelo://app?vid=41d1e68f-2289-4ebe-bc83-d65d75c4a2aa","ios":"levelo://app?vid=41d1e68f-2289-4ebe-bc83-d65d75c4a2aa"},"vehicle_type_id":"4","last_reported":1717855628,"current_range_meters":22800,"station_id":"ce4bgup2rcd13ifvqcn0","pricing_plan_id":"cebpf4jnsgd1na2vs0mg"},{"bike_id":"b080d269-b8b2-45df-bc6b-fbc2d4ac6b0e","system_id":"levelo_inurba_marseille","lat":43.304606,"lon":5.379026,"is_reserved":false,"is_disabled":false,"rental_uris":{"android":"levelo://app?vid=b080d269-b8b2-45df-bc6b-fbc2d4ac6b0e","ios":"levelo://app?vid=b080d269-b8b2-45df-bc6b-fbc2d4ac6b0e"},"vehicle_type_id":"4","last_reported":1717855628,"current_range_meters":31200,"station_id":"ce4bgup2rcd13ifvqcn0","pricing_plan_id":"cebpf4jnsgd1na2vs0mg"},{"bike_id":"89b11b6a-4615-4aff-a67a-777a5fd99849","system_id":"levelo_inurba_marseille","lat":43.304606,"lon":5.379026,"is_reserved":false,"is_disabled":false,"rental_uris":{"android":"levelo://app?vid=89b11b6a-4615-4aff-a67a-777a5fd99849","ios":"levelo://app?vid=89b11b6a-4615-4aff-a67a-777a5fd99849"},"vehicle_type_id":"4","last_reported":1717855628,"current_range_meters":31200,"station_id":"ce4bgup2rcd13ifvqcn0","pricing_plan_id":"cebpf4jnsgd1na2vs0mg"},{"bike_id":"8e3f4339-7c3a-4ff0-8e10-ae8904793e13","system_id":"levelo_inurba_marseille","lat":43.304606,"lon":5.379026,"is_reserved":false,"is_disabled":false,"rental_uris":{"android":"levelo://app?vid=8e3f4339-7c3a-4ff0-8e10-ae8904793e13","ios":"levelo://app?vid=8e3f4339-7c3a-4ff0-8e10-ae8904793e13"},"vehicle_type_id":"4","last_reported":1717855628,"current_range_meters":31200,"station_id":"ce4bgup2rcd13ifvqcn0","pricing_plan_id":"cebpf4jnsgd1na2vs0mg"},{"bike_id":"01e19632-0d37-497d-a654-b0e9ae378918","system_id":"levelo_inurba_marseille","lat":43.304606,"lon":5.379026,"is_reserved":false,"is_disabled":false,"rental_uris":{"android":"levelo://app?vid=01e19632-0d37-497d-a654-b0e9ae378918","ios":"levelo://app?vid=01e19632-0d37-497d-a654-b0e9ae378918"},"vehicle_type_id":"4","last_reported":1717855628,"current_range_meters":2400,"station_id":"ce4bgup2rcd13ifvqcn0","pricing_plan_id":"cebpf4jnsgd1na2vs0mg"},{"bike_id":"6630eb6f-0c51-4b49-ae3e-0751d1f8be5c","system_id":"levelo_inurba_marseille","lat":43.304606,"lon":5.379026,"is_reserved":false,"is_disabled":false,"rental_uris":{"android":"levelo://app?vid=6630eb6f-0c51-4b49-ae3e-0751d1f8be5c","ios":"levelo://app?vid=6630eb6f-0c51-4b49-ae3e-0751d1f8be5c"},"vehicle_type_id":"4","last_reported":1717855628,"current_range_meters":31200,"station_id":"ce4bgup2rcd13ifvqcn0","pricing_plan_id":"cebpf4jnsgd1na2vs0mg"},{"bike_id":"96483652-fe3e-401f-acee-583a85dd25d1","system_id":"levelo_inurba_marseille","lat":43.324771,"lon":5.36557,"is_reserved":false,"is_disabled":false,"rental_uris":{"android":"levelo://app?vid=96483652-fe3e-401f-acee-583a85dd25d1","ios":"levelo://app?vid=96483652-fe3e-401f-acee-583a85dd25d1"},"vehicle_type_id":"4","last_reported":1717855628,"current_range_meters":800,"station_id":"ce4bhs12rcd13ifvqhvg","pricing_plan_id":"cebpf4jnsgd1na2vs0mg"},{"bike_id":"fada84f9-a656-4086-90bf-aa6171f2a0c9","system_id":"levelo_inurba_marseille","lat":43.324771,"lon":5.36557,"is_reserved":false,"is_disabled":false,"rental_uris":{"android":"levelo://app?vid=fada84f9-a656-4086-90bf-aa6171f2a0c9","ios":"levelo://app?vid=fada84f9-a656-4086-90bf-aa6171f2a0c9"},"vehicle_type_id":"4","last_reported":1717855628,"current_range_meters":9200,"station_id":"ce4bhs12rcd13ifvqhvg","pricing_plan_id":"cebpf4jnsgd1na2vs0mg"},{"bike_id":"70f929be-a26d-4043-9d75-1dec1b67e40a","system_id":"levelo_inurba_marseille","lat":43.304606,"lon":5.379026,"is_reserved":false,"is_disabled":false,"rental_uris":{"android":"levelo://app?vid=70f929be-a26d-4043-9d75-1dec1b67e40a","ios":"levelo://app?vid=70f929be-a26d-4043-9d75-1dec1b67e40a"},"vehicle_type_id":"4","last_reported":1717855628,"current_range_meters":15200,"station_id":"ce4bgup2rcd13ifvqcn0","pricing_plan_id":"cebpf4jnsgd1na2vs0mg"},{"bike_id":"a454c26a-82d2-43c5-9256-71987a94a541","system_id":"levelo_inurba_marseille","lat":43.324771,"lon":5.36557,"is_reserved":false,"is_disabled":false,"rental_uris":{"android":"levelo://app?vid=a454c26a-82d2-43c5-9256-71987a94a541","ios":"levelo://app?vid=a454c26a-82d2-43c5-9256-71987a94a541"},"vehicle_type_id":"4","last_reported":1717855628,"current_range_meters":0,"station_id":"ce4bhs12rcd13ifvqhvg","pricing_plan_id":"cebpf4jnsgd1na2vs0mg"},{"bike_id":"7d70bfcc-bda0-4a4e-acaf-617b1806d8ec","system_id":"levelo_inurba_marseille","lat":43.310804,"lon":5.38359,"is_reserved":false,"is_disabled":false,"rental_uris":{"android":"levelo://app?vid=7d70bfcc-bda0-4a4e-acaf-617b1806d8ec","ios":"levelo://app?vid=7d70bfcc-bda0-4a4e-acaf-617b1806d8ec"},"vehicle_type_id":"4","last_reported":1717855628,"current_range_meters":18800,"station_id":"ce4bgv92rcd13ifvqcr0","pricing_plan_id":"cebpf4jnsgd1na2vs0mg"},{"bike_id":"fbe7a1a6-d391-42f8-bec1-795c05f6d652","system_id":"levelo_inurba_marseille","lat":43.310804,"lon":5.38359,"is_reserved":false,"is_disabled":false,"rental_uris":{"android":"levelo://app?vid=fbe7a1a6-d391-42f8-bec1-795c05f6d652","ios":"levelo://app?vid=fbe7a1a6-d391-42f8-bec1-795c05f6d652"},"vehicle_type_id":"4","last_reported":1717855628,"current_range_meters":26000,"station_id":"ce4bgv92rcd13ifvqcr0","pricing_plan_id":"cebpf4jnsgd1na2vs0mg"},{"bike_id":"a2e95b13-029a-4b52-b539-7ff5ef2f1b0d","system_id":"levelo_inurba_marseille","lat":43.310804,"lon":5.38359,"is_reserved":false,"is_disabled":false,"rental_uris":{"android":"levelo://app?vid=a2e95b13-029a-4b52-b539-7ff5ef2f1b0d","ios":"levelo://app?vid=a2e95b13-029a-4b52-b539-7ff5ef2f1b0d"},"vehicle_type_id":"4","last_reported":1717855628,"current_range_meters":16800,"station_id":"ce4bgv92rcd13ifvqcr0","pricing_plan_id":"cebpf4jnsgd1na2vs0mg"},{"bike_id":"c88a6922-8e63-440f-80a1-f4312fcd3967","system_id":"levelo_inurba_marseille","lat":43.310804,"lon":5.38359,"is_reserved":false,"is_disabled":false,"rental_uris":{"android":"levelo://app?vid=c88a6922-8e63-440f-80a1-f4312fcd3967","ios":"levelo://app?vid=c88a6922-8e63-440f-80a1-f4312fcd3967"},"vehicle_type_id":"4","last_reported":1717855628,"current_range_meters":0,"station_id":"ce4bgv92rcd13ifvqcr0","pricing_plan_id":"cebpf4jnsgd1na2vs0mg"},{"bike_id":"6fb09b58-1f50-459a-a1da-d7113c9efdff","system_id":"levelo_inurba_marseille","lat":43.310701,"lon":5.38361,"is_reserved":false,"is_disabled":false,"rental_uris":{"android":"levelo://app?vid=6fb09b58-1f50-459a-a1da-d7113c9efdff","ios":"levelo://app?vid=6fb09b58-1f50-459a-a1da-d7113c9efdff"},"vehicle_type_id":"4","last_reported":1717855628,"current_range_meters":23600,"station_id":"","pricing_plan_id":"cebpf4jnsgd1na2vs0mg"},{"bike_id":"abe323fd-991a-4380-acfd-1bf72c19ec64","system_id":"levelo_inurba_marseille","lat":43.302784,"lon":5.377158,"is_reserved":false,"is_disabled":false,"rental_uris":{"android":"levelo://app?vid=abe323fd-991a-4380-acfd-1bf72c19ec64","ios":"levelo://app?vid=abe323fd-991a-4380-acfd-1bf72c19ec64"},"vehicle_type_id":"4","last_reported":1717855628,"current_range_meters":31200,"station_id":"ce4bguh2rcd13ifvqcj0","pricing_plan_id":"cebpf4jnsgd1na2vs0mg"},{"bike_id":"7049338e-6597-449a-9272-ed23a4dd6f9a","system_id":"levelo_inurba_marseille","lat":43.310804,"lon":5.38359,"is_reserved":false,"is_disabled":false,"rental_uris":{"android":"levelo://app?vid=7049338e-6597-449a-9272-ed23a4dd6f9a","ios":"levelo://app?vid=7049338e-6597-449a-9272-ed23a4dd6f9a"},"vehicle_type_id":"4","last_reported":1717855628,"current_range_meters":21200,"station_id":"ce4bgv92rcd13ifvqcr0","pricing_plan_id":"cebpf4jnsgd1na2vs0mg"},{"bike_id":"6f484980-c18f-49ab-a75e-d7f5a6b56354","system_id":"levelo_inurba_marseille","lat":43.30143,"lon":5.37413,"is_reserved":false,"is_disabled":false,"rental_uris":{"android":"levelo://app?vid=6f484980-c18f-49ab-a75e-d7f5a6b56354","ios":"levelo://app?vid=6f484980-c18f-49ab-a75e-d7f5a6b56354"},"vehicle_type_id":"4","last_reported":1717855628,"current_range_meters":19600,"station_id":"ce4bgs92rcd13ifvqcc0","pricing_plan_id":"cebpf4jnsgd1na2vs0mg"},{"bike_id":"61f38baa-db7f-4e87-9dc6-d740bb7f4d11","system_id":"levelo_inurba_marseille","lat":43.30143,"lon":5.37413,"is_reserved":false,"is_disabled":false,"rental_uris":{"android":"levelo://app?vid=61f38baa-db7f-4e87-9dc6-d740bb7f4d11","ios":"levelo://app?vid=61f38baa-db7f-4e87-9dc6-d740bb7f4d11"},"vehicle_type_id":"4","last_reported":1717855628,"current_range_meters":18800,"station_id":"ce4bgs92rcd13ifvqcc0","pricing_plan_id":"cebpf4jnsgd1na2vs0mg"},{"bike_id":"2d89a6c1-9f21-463c-bd76-e000bb4a8d39","system_id":"levelo_inurba_marseille","lat":43.301498,"lon":5.374328,"is_reserved":false,"is_disabled":false,"rental_uris":{"android":"levelo://app?vid=2d89a6c1-9f21-463c-bd76-e000bb4a8d39","ios":"levelo://app?vid=2d89a6c1-9f21-463c-bd76-e000bb4a8d39"},"vehicle_type_id":"4","last_reported":1717855628,"current_range_meters":23600,"station_id":"","pricing_plan_id":"cebpf4jnsgd1na2vs0mg"},{"bike_id":"d8f6fe29-f049-42eb-9cf3-3e474d1ad2f6","system_id":"levelo_inurba_marseille","lat":43.302784,"lon":5.377158,"is_reserved":false,"is_disabled":false,"rental_uris":{"android":"levelo://app?vid=d8f6fe29-f049-42eb-9cf3-3e474d1ad2f6","ios":"levelo://app?vid=d8f6fe29-f049-42eb-9cf3-3e474d1ad2f6"},"vehicle_type_id":"4","last_reported":1717855628,"current_range_meters":20400,"station_id":"ce4bguh2rcd13ifvqcj0","pricing_plan_id":"cebpf4jnsgd1na2vs0mg"},{"bike_id":"1de7fd35-d175-455a-a47b-c04308187008","system_id":"levelo_inurba_marseille","lat":43.31998,"lon":5.38149,"is_reserved":false,"is_disabled":false,"rental_uris":{"android":"levelo://app?vid=1de7fd35-d175-455a-a47b-c04308187008","ios":"levelo://app?vid=1de7fd35-d175-455a-a47b-c04308187008"},"vehicle_type_id":"4","last_reported":1717855628,"current_range_meters":26400,"station_id":"ce4bhr12rcd13ifvqhpg","pricing_plan_id":"cebpf4jnsgd1na2vs0mg"},{"bike_id":"699c1570-326e-425c-bcac-af01ccfc73c6","system_id":"levelo_inurba_marseille","lat":43.32,"lon":5.38149,"is_reserved":false,"is_disabled":false,"rental_uris":{"android":"levelo://app?vid=699c1570-326e-425c-bcac-af01ccfc73c6","ios":"levelo://app?vid=699c1570-326e-425c-bcac-af01ccfc73c6"},"vehicle_type_id":"4","last_reported":1717855628,"current_range_meters":4800,"station_id":"ce4bhr12rcd13ifvqhpg","pricing_plan_id":"cebpf4jnsgd1na2vs0mg"},{"bike_id":"08c7eeac-beb0-4921-ab9f-4e5e847d49f0","system_id":"levelo_inurba_marseille","lat":43.320017,"lon":5.381502,"is_reserved":false,"is_disabled":false,"rental_uris":{"android":"levelo://app?vid=08c7eeac-beb0-4921-ab9f-4e5e847d49f0","ios":"levelo://app?vid=08c7eeac-beb0-4921-ab9f-4e5e847d49f0"},"vehicle_type_id":"4","last_reported":1717855628,"current_range_meters":27200,"station_id":"ce4bhr12rcd13ifvqhpg","pricing_plan_id":"cebpf4jnsgd1na2vs0mg"},{"bike_id":"f69db902-c2cd-4398-a38d-a173f000b1e5","system_id":"levelo_inurba_marseille","lat":43.320008,"lon":5.381552,"is_reserved":false,"is_disabled":false,"rental_uris":{"android":"levelo://app?vid=f69db902-c2cd-4398-a38d-a173f000b1e5","ios":"levelo://app?vid=f69db902-c2cd-4398-a38d-a173f000b1e5"},"vehicle_type_id":"4","last_reported":1717855628,"current_range_meters":14000,"station_id":"ce4bhr12rcd13ifvqhpg","pricing_plan_id":"cebpf4jnsgd1na2vs0mg"},{"bike_id":"7e96ab81-f7ea-4c9a-ad49-360a9c576021","system_id":"levelo_inurba_marseille","lat":43.320018,"lon":5.381569,"is_reserved":false,"is_disabled":false,"rental_uris":{"android":"levelo://app?vid=7e96ab81-f7ea-4c9a-ad49-360a9c576021","ios":"levelo://app?vid=7e96ab81-f7ea-4c9a-ad49-360a9c576021"},"vehicle_type_id":"4","last_reported":1717855628,"current_range_meters":4800,"station_id":"ce4bhr12rcd13ifvqhpg","pricing_plan_id":"cebpf4jnsgd1na2vs0mg"},{"bike_id":"557e5bd0-70ab-433e-a3cd-a6f8a1a868bb","system_id":"levelo_inurba_marseille","lat":43.313571,"lon":5.384829,"is_reserved":false,"is_disabled":false,"rental_uris":{"android":"levelo://app?vid=557e5bd0-70ab-433e-a3cd-a6f8a1a868bb","ios":"levelo://app?vid=557e5bd0-70ab-433e-a3cd-a6f8a1a868bb"},"vehicle_type_id":"4","last_reported":1717855628,"current_range_meters":25600,"station_id":"ce4bgt92rcd13ifvqcf0","pricing_plan_id":"cebpf4jnsgd1na2vs0mg"},{"bike_id":"f669908d-093c-4c73-b266-149fda6ac4a4","system_id":"levelo_inurba_marseille","lat":43.313571,"lon":5.384829,"is_reserved":false,"is_disabled":false,"rental_uris":{"android":"levelo://app?vid=f669908d-093c-4c73-b266-149fda6ac4a4","ios":"levelo://app?vid=f669908d-093c-4c73-b266-149fda6ac4a4"},"vehicle_type_id":"4","last_reported":1717855628,"current_range_meters":30800,"station_id":"ce4bgt92rcd13ifvqcf0","pricing_plan_id":"cebpf4jnsgd1na2vs0mg"},{"bike_id":"83a5e73e-b0d0-4b41-b9a3-9231006f1413","system_id":"levelo_inurba_marseille","lat":43.299724,"lon":5.371829,"is_reserved":false,"is_disabled":false,"rental_uris":{"android":"levelo://app?vid=83a5e73e-b0d0-4b41-b9a3-9231006f1413","ios":"levelo://app?vid=83a5e73e-b0d0-4b41-b9a3-9231006f1413"},"vehicle_type_id":"4","last_reported":1717855628,"current_range_meters":30000,"station_id":"ce4bgr92rcd13ifvqc7g","pricing_plan_id":"cebpf4jnsgd1na2vs0mg"},{"bike_id":"7fc3fef2-5b34-4a5f-a634-15cca8f390b9","system_id":"levelo_inurba_marseille","lat":43.29988,"lon":5.37176,"is_reserved":false,"is_disabled":false,"rental_uris":{"android":"levelo://app?vid=7fc3fef2-5b34-4a5f-a634-15cca8f390b9","ios":"levelo://app?vid=7fc3fef2-5b34-4a5f-a634-15cca8f390b9"},"vehicle_type_id":"4","last_reported":1717855628,"current_range_meters":10400,"station_id":"ce4bgr92rcd13ifvqc7g","pricing_plan_id":"cebpf4jnsgd1na2vs0mg"},{"bike_id":"607d77b9-04f9-469c-882d-35f2c6cec9d0","system_id":"levelo_inurba_marseille","lat":43.29986,"lon":5.37179,"is_reserved":false,"is_disabled":false,"rental_uris":{"android":"levelo://app?vid=607d77b9-04f9-469c-882d-35f2c6cec9d0","ios":"levelo://app?vid=607d77b9-04f9-469c-882d-35f2c6cec9d0"},"vehicle_type_id":"4","last_reported":1717855628,"current_range_meters":28800,"station_id":"ce4bgr92rcd13ifvqc7g","pricing_plan_id":"cebpf4jnsgd1na2vs0mg"},{"bike_id":"30a4ceee-707c-46b5-80ce-709a9e1e2145","system_id":"levelo_inurba_marseille","lat":43.299724,"lon":5.371829,"is_reserved":false,"is_disabled":false,"rental_uris":{"android":"levelo://app?vid=30a4ceee-707c-46b5-80ce-709a9e1e2145","ios":"levelo://app?vid=30a4ceee-707c-46b5-80ce-709a9e1e2145"},"vehicle_type_id":"4","last_reported":1717855628,"current_range_meters":2000,"station_id":"ce4bgr92rcd13ifvqc7g","pricing_plan_id":"cebpf4jnsgd1na2vs0mg"},{"bike_id":"e966c5fc-532a-4aea-90f0-f8096967bbbb","system_id":"levelo_inurba_marseille","lat":43.299724,"lon":5.371829,"is_reserved":false,"is_disabled":false,"rental_uris":{"android":"levelo://app?vid=e966c5fc-532a-4aea-90f0-f8096967bbbb","ios":"levelo://app?vid=e966c5fc-532a-4aea-90f0-f8096967bbbb"},"vehicle_type_id":"4","last_reported":1717855628,"current_range_meters":31200,"station_id":"ce4bgr92rcd13ifvqc7g","pricing_plan_id":"cebpf4jnsgd1na2vs0mg"},{"bike_id":"2895f918-86e1-4356-b0ee-d0ab80b089f3","system_id":"levelo_inurba_marseille","lat":43.299724,"lon":5.371829,"is_reserved":false,"is_disabled":false,"rental_uris":{"android":"levelo://app?vid=2895f918-86e1-4356-b0ee-d0ab80b089f3","ios":"levelo://app?vid=2895f918-86e1-4356-b0ee-d0ab80b089f3"},"vehicle_type_id":"4","last_reported":1717855628,"current_range_meters":9600,"station_id":"ce4bgr92rcd13ifvqc7g","pricing_plan_id":"cebpf4jnsgd1na2vs0mg"},{"bike_id":"5c262159-edbd-4c01-be0a-60b50d72b27c","system_id":"levelo_inurba_marseille","lat":43.299724,"lon":5.371829,"is_reserved":false,"is_disabled":false,"rental_uris":{"android":"levelo://app?vid=5c262159-edbd-4c01-be0a-60b50d72b27c","ios":"levelo://app?vid=5c262159-edbd-4c01-be0a-60b50d72b27c"},"vehicle_type_id":"4","last_reported":1717855628,"current_range_meters":8000,"station_id":"ce4bgr92rcd13ifvqc7g","pricing_plan_id":"cebpf4jnsgd1na2vs0mg"},{"bike_id":"564c75a1-17e2-495e-a3f8-27988762f26a","system_id":"levelo_inurba_marseille","lat":43.299724,"lon":5.371829,"is_reserved":false,"is_disabled":false,"rental_uris":{"android":"levelo://app?vid=564c75a1-17e2-495e-a3f8-27988762f26a","ios":"levelo://app?vid=564c75a1-17e2-495e-a3f8-27988762f26a"},"vehicle_type_id":"4","last_reported":1717855628,"current_range_meters":4400,"station_id":"ce4bgr92rcd13ifvqc7g","pricing_plan_id":"cebpf4jnsgd1na2vs0mg"},{"bike_id":"5283e3d6-36db-4875-9f92-3f872473b307","system_id":"levelo_inurba_marseille","lat":43.299724,"lon":5.371829,"is_reserved":false,"is_disabled":false,"rental_uris":{"android":"levelo://app?vid=5283e3d6-36db-4875-9f92-3f872473b307","ios":"levelo://app?vid=5283e3d6-36db-4875-9f92-3f872473b307"},"vehicle_type_id":"4","last_reported":1717855628,"current_range_meters":27600,"station_id":"ce4bgr92rcd13ifvqc7g","pricing_plan_id":"cebpf4jnsgd1na2vs0mg"},{"bike_id":"3c9fe599-11ef-4904-ac9f-222bc966a693","system_id":"levelo_inurba_marseille","lat":43.305436,"lon":5.383735,"is_reserved":false,"is_disabled":false,"rental_uris":{"android":"levelo://app?vid=3c9fe599-11ef-4904-ac9f-222bc966a693","ios":"levelo://app?vid=3c9fe599-11ef-4904-ac9f-222bc966a693"},"vehicle_type_id":"4","last_reported":1717855628,"current_range_meters":4400,"station_id":"ce4bgg92rcd13ifvqb30","pricing_plan_id":"cebpf4jnsgd1na2vs0mg"},{"bike_id":"f8474e5b-b190-47fb-b1d6-c7affa783bc9","system_id":"levelo_inurba_marseille","lat":43.29849,"lon":5.36284,"is_reserved":false,"is_disabled":false,"rental_uris":{"android":"levelo://app?vid=f8474e5b-b190-47fb-b1d6-c7affa783bc9","ios":"levelo://app?vid=f8474e5b-b190-47fb-b1d6-c7affa783bc9"},"vehicle_type_id":"4","last_reported":1717855628,"current_range_meters":11200,"station_id":"ce4bgpp2rcd13ifvqc3g","pricing_plan_id":"cebpf4jnsgd1na2vs0mg"},{"bike_id":"47aebc15-cadd-4b42-81e1-ea324b94bdd3","system_id":"levelo_inurba_marseille","lat":43.298433,"lon":5.362774,"is_reserved":false,"is_disabled":false,"rental_uris":{"android":"levelo://app?vid=47aebc15-cadd-4b42-81e1-ea324b94bdd3","ios":"levelo://app?vid=47aebc15-cadd-4b42-81e1-ea324b94bdd3"},"vehicle_type_id":"4","last_reported":1717855628,"current_range_meters":26800,"station_id":"ce4bgpp2rcd13ifvqc3g","pricing_plan_id":"cebpf4jnsgd1na2vs0mg"},{"bike_id":"847747ed-90a1-4d87-ab74-53852624dbbc","system_id":"levelo_inurba_marseille","lat":43.29843,"lon":5.362767,"is_reserved":false,"is_disabled":false,"rental_uris":{"android":"levelo://app?vid=847747ed-90a1-4d87-ab74-53852624dbbc","ios":"levelo://app?vid=847747ed-90a1-4d87-ab74-53852624dbbc"},"vehicle_type_id":"4","last_reported":1717855628,"current_range_meters":0,"station_id":"ce4bgpp2rcd13ifvqc3g","pricing_plan_id":"cebpf4jnsgd1na2vs0mg"},{"bike_id":"c71b20cd-b9dd-4f67-9c68-f0db5ed03636","system_id":"levelo_inurba_marseille","lat":43.300698,"lon":5.378469,"is_reserved":false,"is_disabled":false,"rental_uris":{"android":"levelo://app?vid=c71b20cd-b9dd-4f67-9c68-f0db5ed03636","ios":"levelo://app?vid=c71b20cd-b9dd-4f67-9c68-f0db5ed03636"},"vehicle_type_id":"4","last_reported":1717855628,"current_range_meters":21200,"station_id":"","pricing_plan_id":"cebpf4jnsgd1na2vs0mg"},{"bike_id":"3a78096d-d5a6-4c07-adf0-47187d96bc33","system_id":"levelo_inurba_marseille","lat":43.311722,"lon":5.387247,"is_reserved":false,"is_disabled":false,"rental_uris":{"android":"levelo://app?vid=3a78096d-d5a6-4c07-adf0-47187d96bc33","ios":"levelo://app?vid=3a78096d-d5a6-4c07-adf0-47187d96bc33"},"vehicle_type_id":"4","last_reported":1717855628,"current_range_meters":17600,"station_id":"ce4bgv12rcd13ifvqcp0","pricing_plan_id":"cebpf4jnsgd1na2vs0mg"},{"bike_id":"fde4145b-8fc9-4711-b29e-b116b7d720c3","system_id":"levelo_inurba_marseille","lat":43.311722,"lon":5.387247,"is_reserved":false,"is_disabled":false,"rental_uris":{"android":"levelo://app?vid=fde4145b-8fc9-4711-b29e-b116b7d720c3","ios":"levelo://app?vid=fde4145b-8fc9-4711-b29e-b116b7d720c3"},"vehicle_type_id":"4","last_reported":1717855628,"current_range_meters":0,"station_id":"ce4bgv12rcd13ifvqcp0","pricing_plan_id":"cebpf4jnsgd1na2vs0mg"},{"bike_id":"c538320a-9532-400a-b7af-9be3375df4aa","system_id":"levelo_inurba_marseille","lat":43.311722,"lon":5.387247,"is_reserved":false,"is_disabled":false,"rental_uris":{"android":"levelo://app?vid=c538320a-9532-400a-b7af-9be3375df4aa","ios":"levelo://app?vid=c538320a-9532-400a-b7af-9be3375df4aa"},"vehicle_type_id":"4","last_reported":1717855628,"current_range_meters":30000,"station_id":"ce4bgv12rcd13ifvqcp0","pricing_plan_id":"cebpf4jnsgd1na2vs0mg"},{"bike_id":"8310cd58-fe37-46f2-b754-95a44588fa6f","system_id":"levelo_inurba_marseille","lat":43.311722,"lon":5.387247,"is_reserved":false,"is_disabled":false,"rental_uris":{"android":"levelo://app?vid=8310cd58-fe37-46f2-b754-95a44588fa6f","ios":"levelo://app?vid=8310cd58-fe37-46f2-b754-95a44588fa6f"},"vehicle_type_id":"4","last_reported":1717855628,"current_range_meters":13200,"station_id":"ce4bgv12rcd13ifvqcp0","pricing_plan_id":"cebpf4jnsgd1na2vs0mg"},{"bike_id":"1a3529f5-6e32-4579-8018-001d51650464","system_id":"levelo_inurba_marseille","lat":43.311722,"lon":5.387247,"is_reserved":false,"is_disabled":false,"rental_uris":{"android":"levelo://app?vid=1a3529f5-6e32-4579-8018-001d51650464","ios":"levelo://app?vid=1a3529f5-6e32-4579-8018-001d51650464"},"vehicle_type_id":"4","last_reported":1717855628,"current_range_meters":24400,"station_id":"ce4bgv12rcd13ifvqcp0","pricing_plan_id":"cebpf4jnsgd1na2vs0mg"},{"bike_id":"3f96b5b4-f71b-4d4a-83ea-5e1f02649ce7","system_id":"levelo_inurba_marseille","lat":43.311722,"lon":5.387247,"is_reserved":false,"is_disabled":false,"rental_uris":{"android":"levelo://app?vid=3f96b5b4-f71b-4d4a-83ea-5e1f02649ce7","ios":"levelo://app?vid=3f96b5b4-f71b-4d4a-83ea-5e1f02649ce7"},"vehicle_type_id":"4","last_reported":1717855628,"current_range_meters":19600,"station_id":"ce4bgv12rcd13ifvqcp0","pricing_plan_id":"cebpf4jnsgd1na2vs0mg"},{"bike_id":"40881477-7067-47fb-83e1-10198e563389","system_id":"levelo_inurba_marseille","lat":43.31178,"lon":5.38716,"is_reserved":false,"is_disabled":false,"rental_uris":{"android":"levelo://app?vid=40881477-7067-47fb-83e1-10198e563389","ios":"levelo://app?vid=40881477-7067-47fb-83e1-10198e563389"},"vehicle_type_id":"4","last_reported":1717855628,"current_range_meters":24400,"station_id":"ce4bgv12rcd13ifvqcp0","pricing_plan_id":"cebpf4jnsgd1na2vs0mg"},{"bike_id":"ca2944c7-8cca-4f83-b4b2-48f37bd45f55","system_id":"levelo_inurba_marseille","lat":43.311722,"lon":5.387247,"is_reserved":false,"is_disabled":false,"rental_uris":{"android":"levelo://app?vid=ca2944c7-8cca-4f83-b4b2-48f37bd45f55","ios":"levelo://app?vid=ca2944c7-8cca-4f83-b4b2-48f37bd45f55"},"vehicle_type_id":"4","last_reported":1717855628,"current_range_meters":10800,"station_id":"ce4bgv12rcd13ifvqcp0","pricing_plan_id":"cebpf4jnsgd1na2vs0mg"},{"bike_id":"4c04b16f-4c66-45a9-ae39-7272500068e4","system_id":"levelo_inurba_marseille","lat":43.311722,"lon":5.387247,"is_reserved":false,"is_disabled":false,"rental_uris":{"android":"levelo://app?vid=4c04b16f-4c66-45a9-ae39-7272500068e4","ios":"levelo://app?vid=4c04b16f-4c66-45a9-ae39-7272500068e4"},"vehicle_type_id":"4","last_reported":1717855628,"current_range_meters":22800,"station_id":"ce4bgv12rcd13ifvqcp0","pricing_plan_id":"cebpf4jnsgd1na2vs0mg"},{"bike_id":"1686af6e-1d2e-43de-a602-539e461fc3a4","system_id":"levelo_inurba_marseille","lat":43.311722,"lon":5.387247,"is_reserved":false,"is_disabled":false,"rental_uris":{"android":"levelo://app?vid=1686af6e-1d2e-43de-a602-539e461fc3a4","ios":"levelo://app?vid=1686af6e-1d2e-43de-a602-539e461fc3a4"},"vehicle_type_id":"4","last_reported":1717855628,"current_range_meters":30400,"station_id":"ce4bgv12rcd13ifvqcp0","pricing_plan_id":"cebpf4jnsgd1na2vs0mg"},{"bike_id":"0180e43b-0185-4294-b73a-ee10feb1af55","system_id":"levelo_inurba_marseille","lat":43.297794,"lon":5.370888,"is_reserved":false,"is_disabled":false,"rental_uris":{"android":"levelo://app?vid=0180e43b-0185-4294-b73a-ee10feb1af55","ios":"levelo://app?vid=0180e43b-0185-4294-b73a-ee10feb1af55"},"vehicle_type_id":"4","last_reported":1717855628,"current_range_meters":10400,"station_id":"ce4bgop2rcd13ifvqc1g","pricing_plan_id":"cebpf4jnsgd1na2vs0mg"},{"bike_id":"a546b4d8-ae23-4dd1-b232-395ed1a46703","system_id":"levelo_inurba_marseille","lat":43.322872,"lon":5.382756,"is_reserved":false,"is_disabled":false,"rental_uris":{"android":"levelo://app?vid=a546b4d8-ae23-4dd1-b232-395ed1a46703","ios":"levelo://app?vid=a546b4d8-ae23-4dd1-b232-395ed1a46703"},"vehicle_type_id":"4","last_reported":1717855628,"current_range_meters":11200,"station_id":"ce4bhr12rcd13ifvqhqg","pricing_plan_id":"cebpf4jnsgd1na2vs0mg"},{"bike_id":"b3999aff-636e-42d3-a03d-757c34b18a12","system_id":"levelo_inurba_marseille","lat":43.322872,"lon":5.382756,"is_reserved":false,"is_disabled":false,"rental_uris":{"android":"levelo://app?vid=b3999aff-636e-42d3-a03d-757c34b18a12","ios":"levelo://app?vid=b3999aff-636e-42d3-a03d-757c34b18a12"},"vehicle_type_id":"4","last_reported":1717855628,"current_range_meters":6800,"station_id":"ce4bhr12rcd13ifvqhqg","pricing_plan_id":"cebpf4jnsgd1na2vs0mg"},{"bike_id":"555565ff-e2d0-4a6a-a9a3-1ac28399606d","system_id":"levelo_inurba_marseille","lat":43.29628,"lon":5.37161,"is_reserved":false,"is_disabled":false,"rental_uris":{"android":"levelo://app?vid=555565ff-e2d0-4a6a-a9a3-1ac28399606d","ios":"levelo://app?vid=555565ff-e2d0-4a6a-a9a3-1ac28399606d"},"vehicle_type_id":"4","last_reported":1717855628,"current_range_meters":0,"station_id":"ce4bgnh2rcd13ifvqc0g","pricing_plan_id":"cebpf4jnsgd1na2vs0mg"},{"bike_id":"29ce6bcf-3cce-4d33-b6fc-6ff23c4ef01f","system_id":"levelo_inurba_marseille","lat":43.29573,"lon":5.367355,"is_reserved":false,"is_disabled":false,"rental_uris":{"android":"levelo://app?vid=29ce6bcf-3cce-4d33-b6fc-6ff23c4ef01f","ios":"levelo://app?vid=29ce6bcf-3cce-4d33-b6fc-6ff23c4ef01f"},"vehicle_type_id":"4","last_reported":1717855628,"current_range_meters":11200,"station_id":"ce4bgph2rcd13ifvqc2g","pricing_plan_id":"cebpf4jnsgd1na2vs0mg"},{"bike_id":"0630808b-b6d9-4138-8f3d-e0a6375eb3c1","system_id":"levelo_inurba_marseille","lat":43.32147,"lon":5.38685,"is_reserved":false,"is_disabled":false,"rental_uris":{"android":"levelo://app?vid=0630808b-b6d9-4138-8f3d-e0a6375eb3c1","ios":"levelo://app?vid=0630808b-b6d9-4138-8f3d-e0a6375eb3c1"},"vehicle_type_id":"4","last_reported":1717855628,"current_range_meters":2000,"station_id":"","pricing_plan_id":"cebpf4jnsgd1na2vs0mg"},{"bike_id":"2f6d78ca-0363-484c-8a74-8ae56a549f2b","system_id":"levelo_inurba_marseille","lat":43.296129,"lon":5.370777,"is_reserved":false,"is_disabled":false,"rental_uris":{"android":"levelo://app?vid=2f6d78ca-0363-484c-8a74-8ae56a549f2b","ios":"levelo://app?vid=2f6d78ca-0363-484c-8a74-8ae56a549f2b"},"vehicle_type_id":"4","last_reported":1717855628,"current_range_meters":19200,"station_id":"ce4bgnh2rcd13ifvqc0g","pricing_plan_id":"cebpf4jnsgd1na2vs0mg"},{"bike_id":"949f7fc6-1fa5-4806-9566-41ab1550f515","system_id":"levelo_inurba_marseille","lat":43.297114,"lon":5.37701,"is_reserved":false,"is_disabled":false,"rental_uris":{"android":"levelo://app?vid=949f7fc6-1fa5-4806-9566-41ab1550f515","ios":"levelo://app?vid=949f7fc6-1fa5-4806-9566-41ab1550f515"},"vehicle_type_id":"4","last_reported":1717855628,"current_range_meters":26000,"station_id":"ce4bgkh2rcd13ifvqbl0","pricing_plan_id":"cebpf4jnsgd1na2vs0mg"},{"bike_id":"ee65dd53-3da5-4cbf-88ae-b9d7071c271b","system_id":"levelo_inurba_marseille","lat":43.304274,"lon":5.388873,"is_reserved":false,"is_disabled":false,"rental_uris":{"android":"levelo://app?vid=ee65dd53-3da5-4cbf-88ae-b9d7071c271b","ios":"levelo://app?vid=ee65dd53-3da5-4cbf-88ae-b9d7071c271b"},"vehicle_type_id":"4","last_reported":1717855628,"current_range_meters":24400,"station_id":"ce4bgk12rcd13ifvqbi0","pricing_plan_id":"cebpf4jnsgd1na2vs0mg"},{"bike_id":"5ee8678f-cd1b-43fc-848d-39aa7d379350","system_id":"levelo_inurba_marseille","lat":43.298037,"lon":5.381066,"is_reserved":false,"is_disabled":false,"rental_uris":{"android":"levelo://app?vid=5ee8678f-cd1b-43fc-848d-39aa7d379350","ios":"levelo://app?vid=5ee8678f-cd1b-43fc-848d-39aa7d379350"},"vehicle_type_id":"4","last_reported":1717855628,"current_range_meters":0,"station_id":"ce4bgip2rcd13ifvqbb0","pricing_plan_id":"cebpf4jnsgd1na2vs0mg"},{"bike_id":"177704e7-5db2-4885-8e31-15017b66c716","system_id":"levelo_inurba_marseille","lat":43.295748,"lon":5.37522,"is_reserved":false,"is_disabled":false,"rental_uris":{"android":"levelo://app?vid=177704e7-5db2-4885-8e31-15017b66c716","ios":"levelo://app?vid=177704e7-5db2-4885-8e31-15017b66c716"},"vehicle_type_id":"4","last_reported":1717855628,"current_range_meters":8400,"station_id":"ce4bgh92rcd13ifvqb50","pricing_plan_id":"cebpf4jnsgd1na2vs0mg"},{"bike_id":"b07eda28-55b6-46f0-b955-cd249e4004bc","system_id":"levelo_inurba_marseille","lat":43.295567,"lon":5.375858,"is_reserved":false,"is_disabled":false,"rental_uris":{"android":"levelo://app?vid=b07eda28-55b6-46f0-b955-cd249e4004bc","ios":"levelo://app?vid=b07eda28-55b6-46f0-b955-cd249e4004bc"},"vehicle_type_id":"4","last_reported":1717855628,"current_range_meters":0,"station_id":"ce4bhbp2rcd13ifvqerg","pricing_plan_id":"cebpf4jnsgd1na2vs0mg"},{"bike_id":"d3978bb2-16c8-4830-ae19-eca3676f5fbe","system_id":"levelo_inurba_marseille","lat":43.299707,"lon":5.384859,"is_reserved":false,"is_disabled":false,"rental_uris":{"android":"levelo://app?vid=d3978bb2-16c8-4830-ae19-eca3676f5fbe","ios":"levelo://app?vid=d3978bb2-16c8-4830-ae19-eca3676f5fbe"},"vehicle_type_id":"4","last_reported":1717855628,"current_range_meters":28800,"station_id":"ce4bgj92rcd13ifvqbd0","pricing_plan_id":"cebpf4jnsgd1na2vs0mg"},{"bike_id":"6cb306e1-e6a0-4d00-b80b-3cdc4cc5ad76","system_id":"levelo_inurba_marseille","lat":43.299717,"lon":5.384845,"is_reserved":false,"is_disabled":false,"rental_uris":{"android":"levelo://app?vid=6cb306e1-e6a0-4d00-b80b-3cdc4cc5ad76","ios":"levelo://app?vid=6cb306e1-e6a0-4d00-b80b-3cdc4cc5ad76"},"vehicle_type_id":"4","last_reported":1717855628,"current_range_meters":7200,"station_id":"ce4bgj92rcd13ifvqbd0","pricing_plan_id":"cebpf4jnsgd1na2vs0mg"},{"bike_id":"7dfdb917-d721-4ab0-b825-050c09694fce","system_id":"levelo_inurba_marseille","lat":43.30002,"lon":5.38582,"is_reserved":false,"is_disabled":false,"rental_uris":{"android":"levelo://app?vid=7dfdb917-d721-4ab0-b825-050c09694fce","ios":"levelo://app?vid=7dfdb917-d721-4ab0-b825-050c09694fce"},"vehicle_type_id":"4","last_reported":1717855628,"current_range_meters":19200,"station_id":"","pricing_plan_id":"cebpf4jnsgd1na2vs0mg"},{"bike_id":"0f36e92d-4f23-474d-a784-0723b12d4bea","system_id":"levelo_inurba_marseille","lat":43.29602,"lon":5.381084,"is_reserved":false,"is_disabled":false,"rental_uris":{"android":"levelo://app?vid=0f36e92d-4f23-474d-a784-0723b12d4bea","ios":"levelo://app?vid=0f36e92d-4f23-474d-a784-0723b12d4bea"},"vehicle_type_id":"4","last_reported":1717855628,"current_range_meters":0,"station_id":"ce4bgl12rcd13ifvqbo0","pricing_plan_id":"cebpf4jnsgd1na2vs0mg"},{"bike_id":"741ede4b-524f-4804-b507-2f3f52f8eff1","system_id":"levelo_inurba_marseille","lat":43.296076,"lon":5.380963,"is_reserved":false,"is_disabled":false,"rental_uris":{"android":"levelo://app?vid=741ede4b-524f-4804-b507-2f3f52f8eff1","ios":"levelo://app?vid=741ede4b-524f-4804-b507-2f3f52f8eff1"},"vehicle_type_id":"4","last_reported":1717855628,"current_range_meters":0,"station_id":"ce4bgl12rcd13ifvqbo0","pricing_plan_id":"cebpf4jnsgd1na2vs0mg"},{"bike_id":"3416899b-089b-491b-8a53-4fd5dc0db07e","system_id":"levelo_inurba_marseille","lat":43.29598,"lon":5.38101,"is_reserved":false,"is_disabled":false,"rental_uris":{"android":"levelo://app?vid=3416899b-089b-491b-8a53-4fd5dc0db07e","ios":"levelo://app?vid=3416899b-089b-491b-8a53-4fd5dc0db07e"},"vehicle_type_id":"4","last_reported":1717855628,"current_range_meters":0,"station_id":"ce4bgl12rcd13ifvqbo0","pricing_plan_id":"cebpf4jnsgd1na2vs0mg"},{"bike_id":"c539881b-4719-4f3b-b03a-50cfd3742130","system_id":"levelo_inurba_marseille","lat":43.292749,"lon":5.368402,"is_reserved":false,"is_disabled":false,"rental_uris":{"android":"levelo://app?vid=c539881b-4719-4f3b-b03a-50cfd3742130","ios":"levelo://app?vid=c539881b-4719-4f3b-b03a-50cfd3742130"},"vehicle_type_id":"4","last_reported":1717855628,"current_range_meters":31200,"station_id":"ce4bhbp2rcd13ifvqesg","pricing_plan_id":"cebpf4jnsgd1na2vs0mg"},{"bike_id":"3348d169-b946-4a0b-9950-1282e27c2e6c","system_id":"levelo_inurba_marseille","lat":43.293009,"lon":5.374584,"is_reserved":false,"is_disabled":false,"rental_uris":{"android":"levelo://app?vid=3348d169-b946-4a0b-9950-1282e27c2e6c","ios":"levelo://app?vid=3348d169-b946-4a0b-9950-1282e27c2e6c"},"vehicle_type_id":"4","last_reported":1717855628,"current_range_meters":24800,"station_id":"ce4bgi12rcd13ifvqb70","pricing_plan_id":"cebpf4jnsgd1na2vs0mg"},{"bike_id":"6b26b2f9-4ace-4bc7-98fa-f1363059b5bf","system_id":"levelo_inurba_marseille","lat":43.30523,"lon":5.39345,"is_reserved":false,"is_disabled":false,"rental_uris":{"android":"levelo://app?vid=6b26b2f9-4ace-4bc7-98fa-f1363059b5bf","ios":"levelo://app?vid=6b26b2f9-4ace-4bc7-98fa-f1363059b5bf"},"vehicle_type_id":"4","last_reported":1717855628,"current_range_meters":0,"station_id":"","pricing_plan_id":"cebpf4jnsgd1na2vs0mg"},{"bike_id":"c52c21c8-3b76-460f-ae9a-96de4d801daa","system_id":"levelo_inurba_marseille","lat":43.29378,"lon":5.37855,"is_reserved":false,"is_disabled":false,"rental_uris":{"android":"levelo://app?vid=c52c21c8-3b76-460f-ae9a-96de4d801daa","ios":"levelo://app?vid=c52c21c8-3b76-460f-ae9a-96de4d801daa"},"vehicle_type_id":"4","last_reported":1717855628,"current_range_meters":31200,"station_id":"ce4bgjh2rcd13ifvqbf0","pricing_plan_id":"cebpf4jnsgd1na2vs0mg"},{"bike_id":"64376ff9-d553-4d60-aaa9-ddffc7909918","system_id":"levelo_inurba_marseille","lat":43.2936,"lon":5.37835,"is_reserved":false,"is_disabled":false,"rental_uris":{"android":"levelo://app?vid=64376ff9-d553-4d60-aaa9-ddffc7909918","ios":"levelo://app?vid=64376ff9-d553-4d60-aaa9-ddffc7909918"},"vehicle_type_id":"4","last_reported":1717855628,"current_range_meters":23200,"station_id":"ce4bgjh2rcd13ifvqbf0","pricing_plan_id":"cebpf4jnsgd1na2vs0mg"},{"bike_id":"b67ceade-2c82-4153-abbf-9ce14545f74f","system_id":"levelo_inurba_marseille","lat":43.2936,"lon":5.37835,"is_reserved":false,"is_disabled":false,"rental_uris":{"android":"levelo://app?vid=b67ceade-2c82-4153-abbf-9ce14545f74f","ios":"levelo://app?vid=b67ceade-2c82-4153-abbf-9ce14545f74f"},"vehicle_type_id":"4","last_reported":1717855628,"current_range_meters":24400,"station_id":"ce4bgjh2rcd13ifvqbf0","pricing_plan_id":"cebpf4jnsgd1na2vs0mg"},{"bike_id":"d8fe01b8-11f8-4155-8c6a-8e1924240611","system_id":"levelo_inurba_marseille","lat":43.2936,"lon":5.37835,"is_reserved":false,"is_disabled":false,"rental_uris":{"android":"levelo://app?vid=d8fe01b8-11f8-4155-8c6a-8e1924240611","ios":"levelo://app?vid=d8fe01b8-11f8-4155-8c6a-8e1924240611"},"vehicle_type_id":"4","last_reported":1717855628,"current_range_meters":10400,"station_id":"ce4bgjh2rcd13ifvqbf0","pricing_plan_id":"cebpf4jnsgd1na2vs0mg"},{"bike_id":"a992bd43-445f-4ac2-8c19-98858cd3ef45","system_id":"levelo_inurba_marseille","lat":43.293615,"lon":5.378398,"is_reserved":false,"is_disabled":false,"rental_uris":{"android":"levelo://app?vid=a992bd43-445f-4ac2-8c19-98858cd3ef45","ios":"levelo://app?vid=a992bd43-445f-4ac2-8c19-98858cd3ef45"},"vehicle_type_id":"4","last_reported":1717855628,"current_range_meters":22400,"station_id":"ce4bgjh2rcd13ifvqbf0","pricing_plan_id":"cebpf4jnsgd1na2vs0mg"},{"bike_id":"44fcc6d4-24a9-41f5-b442-4cd1ef2ce679","system_id":"levelo_inurba_marseille","lat":43.2936,"lon":5.37835,"is_reserved":false,"is_disabled":false,"rental_uris":{"android":"levelo://app?vid=44fcc6d4-24a9-41f5-b442-4cd1ef2ce679","ios":"levelo://app?vid=44fcc6d4-24a9-41f5-b442-4cd1ef2ce679"},"vehicle_type_id":"4","last_reported":1717855628,"current_range_meters":19600,"station_id":"ce4bgjh2rcd13ifvqbf0","pricing_plan_id":"cebpf4jnsgd1na2vs0mg"},{"bike_id":"3d084ce0-2385-4f05-a358-bc96d51092ed","system_id":"levelo_inurba_marseille","lat":43.30085,"lon":5.390856,"is_reserved":false,"is_disabled":false,"rental_uris":{"android":"levelo://app?vid=3d084ce0-2385-4f05-a358-bc96d51092ed","ios":"levelo://app?vid=3d084ce0-2385-4f05-a358-bc96d51092ed"},"vehicle_type_id":"4","last_reported":1717855628,"current_range_meters":14800,"station_id":"ce4bh192rcd13ifvqdb0","pricing_plan_id":"cebpf4jnsgd1na2vs0mg"},{"bike_id":"78b7715a-5eee-4aaa-9b4f-882ed7f2f142","system_id":"levelo_inurba_marseille","lat":43.292311,"lon":5.360731,"is_reserved":false,"is_disabled":false,"rental_uris":{"android":"levelo://app?vid=78b7715a-5eee-4aaa-9b4f-882ed7f2f142","ios":"levelo://app?vid=78b7715a-5eee-4aaa-9b4f-882ed7f2f142"},"vehicle_type_id":"4","last_reported":1717855628,"current_range_meters":2800,"station_id":"ce4bhbh2rcd13ifvqeqg","pricing_plan_id":"cebpf4jnsgd1na2vs0mg"},{"bike_id":"e0539dfe-98f9-41a2-81dd-15e05851e741","system_id":"levelo_inurba_marseille","lat":43.313291,"lon":5.396838,"is_reserved":false,"is_disabled":false,"rental_uris":{"android":"levelo://app?vid=e0539dfe-98f9-41a2-81dd-15e05851e741","ios":"levelo://app?vid=e0539dfe-98f9-41a2-81dd-15e05851e741"},"vehicle_type_id":"4","last_reported":1717855628,"current_range_meters":30000,"station_id":"ce4bgvp2rcd13ifvqcu0","pricing_plan_id":"cebpf4jnsgd1na2vs0mg"},{"bike_id":"7084f0c4-0357-41ed-9a42-5e4da922f271","system_id":"levelo_inurba_marseille","lat":43.29529,"lon":5.385581,"is_reserved":false,"is_disabled":false,"rental_uris":{"android":"levelo://app?vid=7084f0c4-0357-41ed-9a42-5e4da922f271","ios":"levelo://app?vid=7084f0c4-0357-41ed-9a42-5e4da922f271"},"vehicle_type_id":"4","last_reported":1717855628,"current_range_meters":10800,"station_id":"ce4bgih2rcd13ifvqba0","pricing_plan_id":"cebpf4jnsgd1na2vs0mg"},{"bike_id":"723c0f7f-db9a-4c89-b2dc-122ff0205af6","system_id":"levelo_inurba_marseille","lat":43.309038,"lon":5.396546,"is_reserved":false,"is_disabled":false,"rental_uris":{"android":"levelo://app?vid=723c0f7f-db9a-4c89-b2dc-122ff0205af6","ios":"levelo://app?vid=723c0f7f-db9a-4c89-b2dc-122ff0205af6"},"vehicle_type_id":"4","last_reported":1717855628,"current_range_meters":10800,"station_id":"ce4bh012rcd13ifvqcv0","pricing_plan_id":"cebpf4jnsgd1na2vs0mg"},{"bike_id":"fd6fbda8-46b8-4d1c-8c8f-9c943ab9f166","system_id":"levelo_inurba_marseille","lat":43.29529,"lon":5.385581,"is_reserved":false,"is_disabled":false,"rental_uris":{"android":"levelo://app?vid=fd6fbda8-46b8-4d1c-8c8f-9c943ab9f166","ios":"levelo://app?vid=fd6fbda8-46b8-4d1c-8c8f-9c943ab9f166"},"vehicle_type_id":"4","last_reported":1717855628,"current_range_meters":9200,"station_id":"ce4bgih2rcd13ifvqba0","pricing_plan_id":"cebpf4jnsgd1na2vs0mg"},{"bike_id":"9b9876b3-b2ff-4f9c-a217-2f637057e700","system_id":"levelo_inurba_marseille","lat":43.290779,"lon":5.371482,"is_reserved":false,"is_disabled":false,"rental_uris":{"android":"levelo://app?vid=9b9876b3-b2ff-4f9c-a217-2f637057e700","ios":"levelo://app?vid=9b9876b3-b2ff-4f9c-a217-2f637057e700"},"vehicle_type_id":"4","last_reported":1717855628,"current_range_meters":0,"station_id":"ce4bh5p2rcd13ifvqe4g","pricing_plan_id":"cebpf4jnsgd1na2vs0mg"},{"bike_id":"18ee4dd0-7102-4e88-8c2b-ac314ed5ddbc","system_id":"levelo_inurba_marseille","lat":43.302138,"lon":5.394588,"is_reserved":false,"is_disabled":false,"rental_uris":{"android":"levelo://app?vid=18ee4dd0-7102-4e88-8c2b-ac314ed5ddbc","ios":"levelo://app?vid=18ee4dd0-7102-4e88-8c2b-ac314ed5ddbc"},"vehicle_type_id":"4","last_reported":1717855628,"current_range_meters":0,"station_id":"ce4bh0p2rcd13ifvqd70","pricing_plan_id":"cebpf4jnsgd1na2vs0mg"},{"bike_id":"5d78bba4-45f4-41d1-a3a7-7235685e6a34","system_id":"levelo_inurba_marseille","lat":43.302008,"lon":5.394694,"is_reserved":false,"is_disabled":false,"rental_uris":{"android":"levelo://app?vid=5d78bba4-45f4-41d1-a3a7-7235685e6a34","ios":"levelo://app?vid=5d78bba4-45f4-41d1-a3a7-7235685e6a34"},"vehicle_type_id":"4","last_reported":1717855628,"current_range_meters":0,"station_id":"ce4bh0p2rcd13ifvqd70","pricing_plan_id":"cebpf4jnsgd1na2vs0mg"},{"bike_id":"8f21598e-6e96-43c9-b2b3-279db6a4462f","system_id":"levelo_inurba_marseille","lat":43.302008,"lon":5.394694,"is_reserved":false,"is_disabled":false,"rental_uris":{"android":"levelo://app?vid=8f21598e-6e96-43c9-b2b3-279db6a4462f","ios":"levelo://app?vid=8f21598e-6e96-43c9-b2b3-279db6a4462f"},"vehicle_type_id":"4","last_reported":1717855628,"current_range_meters":2000,"station_id":"ce4bh0p2rcd13ifvqd70","pricing_plan_id":"cebpf4jnsgd1na2vs0mg"},{"bike_id":"8a7977bf-9c3f-480a-8303-efa2c5bafaf0","system_id":"levelo_inurba_marseille","lat":43.302008,"lon":5.394694,"is_reserved":false,"is_disabled":false,"rental_uris":{"android":"levelo://app?vid=8a7977bf-9c3f-480a-8303-efa2c5bafaf0","ios":"levelo://app?vid=8a7977bf-9c3f-480a-8303-efa2c5bafaf0"},"vehicle_type_id":"4","last_reported":1717855628,"current_range_meters":20000,"station_id":"ce4bh0p2rcd13ifvqd70","pricing_plan_id":"cebpf4jnsgd1na2vs0mg"},{"bike_id":"a85eb75b-90fe-4bf1-994e-372c50b492fc","system_id":"levelo_inurba_marseille","lat":43.290418,"lon":5.359123,"is_reserved":false,"is_disabled":false,"rental_uris":{"android":"levelo://app?vid=a85eb75b-90fe-4bf1-994e-372c50b492fc","ios":"levelo://app?vid=a85eb75b-90fe-4bf1-994e-372c50b492fc"},"vehicle_type_id":"4","last_reported":1717855628,"current_range_meters":20800,"station_id":"ce4bha92rcd13ifvqeg0","pricing_plan_id":"cebpf4jnsgd1na2vs0mg"},{"bike_id":"42e5f47c-ede9-4b88-9f7a-23cc32f778a4","system_id":"levelo_inurba_marseille","lat":43.290327,"lon":5.375711,"is_reserved":false,"is_disabled":false,"rental_uris":{"android":"levelo://app?vid=42e5f47c-ede9-4b88-9f7a-23cc32f778a4","ios":"levelo://app?vid=42e5f47c-ede9-4b88-9f7a-23cc32f778a4"},"vehicle_type_id":"4","last_reported":1717855628,"current_range_meters":6000,"station_id":"ce4bh692rcd13ifvqe90","pricing_plan_id":"cebpf4jnsgd1na2vs0mg"},{"bike_id":"110d7110-0309-4489-8188-0be43e71e94e","system_id":"levelo_inurba_marseille","lat":43.290327,"lon":5.375711,"is_reserved":false,"is_disabled":false,"rental_uris":{"android":"levelo://app?vid=110d7110-0309-4489-8188-0be43e71e94e","ios":"levelo://app?vid=110d7110-0309-4489-8188-0be43e71e94e"},"vehicle_type_id":"4","last_reported":1717855628,"current_range_meters":31200,"station_id":"ce4bh692rcd13ifvqe90","pricing_plan_id":"cebpf4jnsgd1na2vs0mg"},{"bike_id":"0439964d-f801-4fce-98a8-9f0dccafa9f8","system_id":"levelo_inurba_marseille","lat":43.294153,"lon":5.386305,"is_reserved":false,"is_disabled":false,"rental_uris":{"android":"levelo://app?vid=0439964d-f801-4fce-98a8-9f0dccafa9f8","ios":"levelo://app?vid=0439964d-f801-4fce-98a8-9f0dccafa9f8"},"vehicle_type_id":"4","last_reported":1717855628,"current_range_meters":0,"station_id":"ce4bh2h2rcd13ifvqdh0","pricing_plan_id":"cebpf4jnsgd1na2vs0mg"},{"bike_id":"7bc19c88-ef00-40fe-a5fd-b9dcb3bf0943","system_id":"levelo_inurba_marseille","lat":43.305989,"lon":5.37225,"is_reserved":false,"is_disabled":false,"rental_uris":{"android":"levelo://app?vid=7bc19c88-ef00-40fe-a5fd-b9dcb3bf0943","ios":"levelo://app?vid=7bc19c88-ef00-40fe-a5fd-b9dcb3bf0943"},"vehicle_type_id":"4","last_reported":1717855628,"current_range_meters":8000,"station_id":"ce4bgqh2rcd13ifvqc4g","pricing_plan_id":"cebpf4jnsgd1na2vs0mg"},{"bike_id":"24f86360-5ca8-4a87-bfd9-f8b3153a84a1","system_id":"levelo_inurba_marseille","lat":43.290327,"lon":5.375711,"is_reserved":false,"is_disabled":false,"rental_uris":{"android":"levelo://app?vid=24f86360-5ca8-4a87-bfd9-f8b3153a84a1","ios":"levelo://app?vid=24f86360-5ca8-4a87-bfd9-f8b3153a84a1"},"vehicle_type_id":"4","last_reported":1717855628,"current_range_meters":27600,"station_id":"ce4bh692rcd13ifvqe90","pricing_plan_id":"cebpf4jnsgd1na2vs0mg"},{"bike_id":"e2147445-80d7-482e-bbe6-22001511e30f","system_id":"levelo_inurba_marseille","lat":43.29573,"lon":5.367355,"is_reserved":false,"is_disabled":false,"rental_uris":{"android":"levelo://app?vid=e2147445-80d7-482e-bbe6-22001511e30f","ios":"levelo://app?vid=e2147445-80d7-482e-bbe6-22001511e30f"},"vehicle_type_id":"4","last_reported":1717855628,"current_range_meters":0,"station_id":"ce4bgph2rcd13ifvqc2g","pricing_plan_id":"cebpf4jnsgd1na2vs0mg"},{"bike_id":"7ced4048-1bdd-4f77-bcf5-0fdcdb5d821c","system_id":"levelo_inurba_marseille","lat":43.29012,"lon":5.35603,"is_reserved":false,"is_disabled":false,"rental_uris":{"android":"levelo://app?vid=7ced4048-1bdd-4f77-bcf5-0fdcdb5d821c","ios":"levelo://app?vid=7ced4048-1bdd-4f77-bcf5-0fdcdb5d821c"},"vehicle_type_id":"4","last_reported":1717855628,"current_range_meters":2400,"station_id":"ce4bhb92rcd13ifvqen0","pricing_plan_id":"cebpf4jnsgd1na2vs0mg"},{"bike_id":"b5d25151-778f-42ba-8d9b-80a9afb9caed","system_id":"levelo_inurba_marseille","lat":43.290104,"lon":5.356111,"is_reserved":false,"is_disabled":false,"rental_uris":{"android":"levelo://app?vid=b5d25151-778f-42ba-8d9b-80a9afb9caed","ios":"levelo://app?vid=b5d25151-778f-42ba-8d9b-80a9afb9caed"},"vehicle_type_id":"4","last_reported":1717855628,"current_range_meters":11200,"station_id":"ce4bhb92rcd13ifvqen0","pricing_plan_id":"cebpf4jnsgd1na2vs0mg"},{"bike_id":"29dab197-dee7-46e9-9455-5fbdd64c173c","system_id":"levelo_inurba_marseille","lat":43.290104,"lon":5.356111,"is_reserved":false,"is_disabled":false,"rental_uris":{"android":"levelo://app?vid=29dab197-dee7-46e9-9455-5fbdd64c173c","ios":"levelo://app?vid=29dab197-dee7-46e9-9455-5fbdd64c173c"},"vehicle_type_id":"4","last_reported":1717855628,"current_range_meters":6800,"station_id":"ce4bhb92rcd13ifvqen0","pricing_plan_id":"cebpf4jnsgd1na2vs0mg"},{"bike_id":"e0ba537d-40b7-4a90-a660-a1f0cc7870fd","system_id":"levelo_inurba_marseille","lat":43.291038,"lon":5.381508,"is_reserved":false,"is_disabled":false,"rental_uris":{"android":"levelo://app?vid=e0ba537d-40b7-4a90-a660-a1f0cc7870fd","ios":"levelo://app?vid=e0ba537d-40b7-4a90-a660-a1f0cc7870fd"},"vehicle_type_id":"4","last_reported":1717855628,"current_range_meters":30800,"station_id":"ce4bh512rcd13ifvqe2g","pricing_plan_id":"cebpf4jnsgd1na2vs0mg"},{"bike_id":"8762e8f8-bab3-4a05-988d-c2087adbd10f","system_id":"levelo_inurba_marseille","lat":43.29788,"lon":5.39333,"is_reserved":false,"is_disabled":false,"rental_uris":{"android":"levelo://app?vid=8762e8f8-bab3-4a05-988d-c2087adbd10f","ios":"levelo://app?vid=8762e8f8-bab3-4a05-988d-c2087adbd10f"},"vehicle_type_id":"4","last_reported":1717855628,"current_range_meters":3200,"station_id":"chh1huq6cuj3fo74tm60","pricing_plan_id":"cebpf4jnsgd1na2vs0mg"},{"bike_id":"2a32eeef-3e04-4987-bf60-4474fa70c5c7","system_id":"levelo_inurba_marseille","lat":43.330224,"lon":5.390392,"is_reserved":false,"is_disabled":false,"rental_uris":{"android":"levelo://app?vid=2a32eeef-3e04-4987-bf60-4474fa70c5c7","ios":"levelo://app?vid=2a32eeef-3e04-4987-bf60-4474fa70c5c7"},"vehicle_type_id":"4","last_reported":1717855628,"current_range_meters":0,"station_id":"ce4bhr92rcd13ifvqhrg","pricing_plan_id":"cebpf4jnsgd1na2vs0mg"},{"bike_id":"802eb0c7-7593-4956-a214-f89540471b32","system_id":"levelo_inurba_marseille","lat":43.330442,"lon":5.389148,"is_reserved":false,"is_disabled":false,"rental_uris":{"android":"levelo://app?vid=802eb0c7-7593-4956-a214-f89540471b32","ios":"levelo://app?vid=802eb0c7-7593-4956-a214-f89540471b32"},"vehicle_type_id":"4","last_reported":1717855628,"current_range_meters":12400,"station_id":"ce4bhr92rcd13ifvqhrg","pricing_plan_id":"cebpf4jnsgd1na2vs0mg"},{"bike_id":"00e201ad-4a62-47c9-8765-831339719c05","system_id":"levelo_inurba_marseille","lat":43.330442,"lon":5.389148,"is_reserved":false,"is_disabled":false,"rental_uris":{"android":"levelo://app?vid=00e201ad-4a62-47c9-8765-831339719c05","ios":"levelo://app?vid=00e201ad-4a62-47c9-8765-831339719c05"},"vehicle_type_id":"4","last_reported":1717855628,"current_range_meters":10800,"station_id":"ce4bhr92rcd13ifvqhrg","pricing_plan_id":"cebpf4jnsgd1na2vs0mg"},{"bike_id":"10f052da-41c3-43e5-b96c-96043e84b34e","system_id":"levelo_inurba_marseille","lat":43.310624,"lon":5.400902,"is_reserved":false,"is_disabled":false,"rental_uris":{"android":"levelo://app?vid=10f052da-41c3-43e5-b96c-96043e84b34e","ios":"levelo://app?vid=10f052da-41c3-43e5-b96c-96043e84b34e"},"vehicle_type_id":"4","last_reported":1717855628,"current_range_meters":17200,"station_id":"","pricing_plan_id":"cebpf4jnsgd1na2vs0mg"},{"bike_id":"7d5fa8b1-c100-4db4-9135-a694912b1188","system_id":"levelo_inurba_marseille","lat":43.304296,"lon":5.397513,"is_reserved":false,"is_disabled":false,"rental_uris":{"android":"levelo://app?vid=7d5fa8b1-c100-4db4-9135-a694912b1188","ios":"levelo://app?vid=7d5fa8b1-c100-4db4-9135-a694912b1188"},"vehicle_type_id":"4","last_reported":1717855628,"current_range_meters":26000,"station_id":"ce4bh092rcd13ifvqd20","pricing_plan_id":"cebpf4jnsgd1na2vs0mg"},{"bike_id":"e7b6c860-0d57-4985-8d28-c1274aa449a5","system_id":"levelo_inurba_marseille","lat":43.28847,"lon":5.37473,"is_reserved":false,"is_disabled":false,"rental_uris":{"android":"levelo://app?vid=e7b6c860-0d57-4985-8d28-c1274aa449a5","ios":"levelo://app?vid=e7b6c860-0d57-4985-8d28-c1274aa449a5"},"vehicle_type_id":"4","last_reported":1717855628,"current_range_meters":23200,"station_id":"","pricing_plan_id":"cebpf4jnsgd1na2vs0mg"},{"bike_id":"f5d81ff7-7e0d-44d8-86e3-2548419d17b8","system_id":"levelo_inurba_marseille","lat":43.3373,"lon":5.37466,"is_reserved":false,"is_disabled":false,"rental_uris":{"android":"levelo://app?vid=f5d81ff7-7e0d-44d8-86e3-2548419d17b8","ios":"levelo://app?vid=f5d81ff7-7e0d-44d8-86e3-2548419d17b8"},"vehicle_type_id":"4","last_reported":1717855628,"current_range_meters":4800,"station_id":"","pricing_plan_id":"cebpf4jnsgd1na2vs0mg"},{"bike_id":"e6919e40-079e-4f5e-9d57-36855d0e5eae","system_id":"levelo_inurba_marseille","lat":43.286595,"lon":5.386795,"is_reserved":false,"is_disabled":false,"rental_uris":{"android":"levelo://app?vid=e6919e40-079e-4f5e-9d57-36855d0e5eae","ios":"levelo://app?vid=e6919e40-079e-4f5e-9d57-36855d0e5eae"},"vehicle_type_id":"4","last_reported":1717855628,"current_range_meters":0,"station_id":"ce4bh492rcd13ifvqdug","pricing_plan_id":"cebpf4jnsgd1na2vs0mg"},{"bike_id":"056f03f9-3b35-486c-8e83-1970c304aa04","system_id":"levelo_inurba_marseille","lat":43.2874,"lon":5.365283,"is_reserved":false,"is_disabled":false,"rental_uris":{"android":"levelo://app?vid=056f03f9-3b35-486c-8e83-1970c304aa04","ios":"levelo://app?vid=056f03f9-3b35-486c-8e83-1970c304aa04"},"vehicle_type_id":"4","last_reported":1717855628,"current_range_meters":18800,"station_id":"","pricing_plan_id":"cebpf4jnsgd1na2vs0mg"},{"bike_id":"e83408f6-f211-4c49-ba43-6eb43df05a51","system_id":"levelo_inurba_marseille","lat":43.33767,"lon":5.37374,"is_reserved":false,"is_disabled":false,"rental_uris":{"android":"levelo://app?vid=e83408f6-f211-4c49-ba43-6eb43df05a51","ios":"levelo://app?vid=e83408f6-f211-4c49-ba43-6eb43df05a51"},"vehicle_type_id":"4","last_reported":1717855628,"current_range_meters":5600,"station_id":"","pricing_plan_id":"cebpf4jnsgd1na2vs0mg"},{"bike_id":"527c8278-6351-4925-bce7-002d3ad83d8e","system_id":"levelo_inurba_marseille","lat":43.337574,"lon":5.374423,"is_reserved":false,"is_disabled":false,"rental_uris":{"android":"levelo://app?vid=527c8278-6351-4925-bce7-002d3ad83d8e","ios":"levelo://app?vid=527c8278-6351-4925-bce7-002d3ad83d8e"},"vehicle_type_id":"4","last_reported":1717855628,"current_range_meters":28000,"station_id":"","pricing_plan_id":"cebpf4jnsgd1na2vs0mg"},{"bike_id":"c4f698ec-64e9-4887-b0e3-1335dc62c252","system_id":"levelo_inurba_marseille","lat":43.337564,"lon":5.374545,"is_reserved":false,"is_disabled":false,"rental_uris":{"android":"levelo://app?vid=c4f698ec-64e9-4887-b0e3-1335dc62c252","ios":"levelo://app?vid=c4f698ec-64e9-4887-b0e3-1335dc62c252"},"vehicle_type_id":"4","last_reported":1717855628,"current_range_meters":15200,"station_id":"","pricing_plan_id":"cebpf4jnsgd1na2vs0mg"},{"bike_id":"10c53891-9146-44ae-9185-bf8cc571acaa","system_id":"levelo_inurba_marseille","lat":43.33762,"lon":5.3745,"is_reserved":false,"is_disabled":false,"rental_uris":{"android":"levelo://app?vid=10c53891-9146-44ae-9185-bf8cc571acaa","ios":"levelo://app?vid=10c53891-9146-44ae-9185-bf8cc571acaa"},"vehicle_type_id":"4","last_reported":1717855628,"current_range_meters":8000,"station_id":"","pricing_plan_id":"cebpf4jnsgd1na2vs0mg"},{"bike_id":"36166931-deca-4598-aa49-a7f0bc292f65","system_id":"levelo_inurba_marseille","lat":43.301117,"lon":5.398795,"is_reserved":false,"is_disabled":false,"rental_uris":{"android":"levelo://app?vid=36166931-deca-4598-aa49-a7f0bc292f65","ios":"levelo://app?vid=36166931-deca-4598-aa49-a7f0bc292f65"},"vehicle_type_id":"4","last_reported":1717855628,"current_range_meters":18800,"station_id":"ce4bh0h2rcd13ifvqd40","pricing_plan_id":"cebpf4jnsgd1na2vs0mg"},{"bike_id":"6d679425-45dc-4b0e-b21f-2ce1b5cb7ae7","system_id":"levelo_inurba_marseille","lat":43.28679,"lon":5.367591,"is_reserved":false,"is_disabled":false,"rental_uris":{"android":"levelo://app?vid=6d679425-45dc-4b0e-b21f-2ce1b5cb7ae7","ios":"levelo://app?vid=6d679425-45dc-4b0e-b21f-2ce1b5cb7ae7"},"vehicle_type_id":"4","last_reported":1717855628,"current_range_meters":2400,"station_id":"","pricing_plan_id":"cebpf4jnsgd1na2vs0mg"},{"bike_id":"16a5f470-afdf-49c9-abb5-7fd54b94d76d","system_id":"levelo_inurba_marseille","lat":43.298681,"lon":5.397225,"is_reserved":false,"is_disabled":false,"rental_uris":{"android":"levelo://app?vid=16a5f470-afdf-49c9-abb5-7fd54b94d76d","ios":"levelo://app?vid=16a5f470-afdf-49c9-abb5-7fd54b94d76d"},"vehicle_type_id":"4","last_reported":1717855628,"current_range_meters":23600,"station_id":"ce4bh0h2rcd13ifvqd50","pricing_plan_id":"cebpf4jnsgd1na2vs0mg"},{"bike_id":"3ec849f6-0ebb-4edd-bd8a-d18f16084153","system_id":"levelo_inurba_marseille","lat":43.286961,"lon":5.373785,"is_reserved":false,"is_disabled":false,"rental_uris":{"android":"levelo://app?vid=3ec849f6-0ebb-4edd-bd8a-d18f16084153","ios":"levelo://app?vid=3ec849f6-0ebb-4edd-bd8a-d18f16084153"},"vehicle_type_id":"4","last_reported":1717855628,"current_range_meters":26000,"station_id":"ce4bh3p2rcd13ifvqdq0","pricing_plan_id":"cebpf4jnsgd1na2vs0mg"},{"bike_id":"f1b07573-ad75-4fe7-b9d3-9c05abe646d1","system_id":"levelo_inurba_marseille","lat":43.286961,"lon":5.373785,"is_reserved":false,"is_disabled":false,"rental_uris":{"android":"levelo://app?vid=f1b07573-ad75-4fe7-b9d3-9c05abe646d1","ios":"levelo://app?vid=f1b07573-ad75-4fe7-b9d3-9c05abe646d1"},"vehicle_type_id":"4","last_reported":1717855628,"current_range_meters":9200,"station_id":"ce4bh3p2rcd13ifvqdq0","pricing_plan_id":"cebpf4jnsgd1na2vs0mg"},{"bike_id":"3a5de81c-66d3-4ee4-b894-838defcf8a7c","system_id":"levelo_inurba_marseille","lat":43.290336,"lon":5.386425,"is_reserved":false,"is_disabled":false,"rental_uris":{"android":"levelo://app?vid=3a5de81c-66d3-4ee4-b894-838defcf8a7c","ios":"levelo://app?vid=3a5de81c-66d3-4ee4-b894-838defcf8a7c"},"vehicle_type_id":"4","last_reported":1717855628,"current_range_meters":0,"station_id":"ce4bh4p2rcd13ifvqe0g","pricing_plan_id":"cebpf4jnsgd1na2vs0mg"},{"bike_id":"0151c17a-e771-41df-89b1-e97cdf073159","system_id":"levelo_inurba_marseille","lat":43.30265,"lon":5.40077,"is_reserved":false,"is_disabled":false,"rental_uris":{"android":"levelo://app?vid=0151c17a-e771-41df-89b1-e97cdf073159","ios":"levelo://app?vid=0151c17a-e771-41df-89b1-e97cdf073159"},"vehicle_type_id":"4","last_reported":1717855628,"current_range_meters":19600,"station_id":"ce4bgvh2rcd13ifvqcs0","pricing_plan_id":"cebpf4jnsgd1na2vs0mg"},{"bike_id":"bb001f54-fbc8-4ee5-87c6-e974b46efe4a","system_id":"levelo_inurba_marseille","lat":43.302759,"lon":5.400793,"is_reserved":false,"is_disabled":false,"rental_uris":{"android":"levelo://app?vid=bb001f54-fbc8-4ee5-87c6-e974b46efe4a","ios":"levelo://app?vid=bb001f54-fbc8-4ee5-87c6-e974b46efe4a"},"vehicle_type_id":"4","last_reported":1717855628,"current_range_meters":16400,"station_id":"ce4bgvh2rcd13ifvqcs0","pricing_plan_id":"cebpf4jnsgd1na2vs0mg"},{"bike_id":"3a8a5105-2d56-4fcb-bb41-379c22c4232d","system_id":"levelo_inurba_marseille","lat":43.286039,"lon":5.370681,"is_reserved":false,"is_disabled":false,"rental_uris":{"android":"levelo://app?vid=3a8a5105-2d56-4fcb-bb41-379c22c4232d","ios":"levelo://app?vid=3a8a5105-2d56-4fcb-bb41-379c22c4232d"},"vehicle_type_id":"4","last_reported":1717855628,"current_range_meters":14400,"station_id":"ce4bht12rcd13ifvqi60","pricing_plan_id":"cebpf4jnsgd1na2vs0mg"},{"bike_id":"e2795cee-a450-4cc6-be20-1cba534000c3","system_id":"levelo_inurba_marseille","lat":43.291994,"lon":5.392907,"is_reserved":false,"is_disabled":false,"rental_uris":{"android":"levelo://app?vid=e2795cee-a450-4cc6-be20-1cba534000c3","ios":"levelo://app?vid=e2795cee-a450-4cc6-be20-1cba534000c3"},"vehicle_type_id":"4","last_reported":1717855628,"current_range_meters":10000,"station_id":"ce4bh192rcd13ifvqdd0","pricing_plan_id":"cebpf4jnsgd1na2vs0mg"},{"bike_id":"2fffa75d-9f81-4051-9ca4-4c89bb636953","system_id":"levelo_inurba_marseille","lat":43.284538,"lon":5.358657,"is_reserved":false,"is_disabled":false,"rental_uris":{"android":"levelo://app?vid=2fffa75d-9f81-4051-9ca4-4c89bb636953","ios":"levelo://app?vid=2fffa75d-9f81-4051-9ca4-4c89bb636953"},"vehicle_type_id":"4","last_reported":1717855628,"current_range_meters":21600,"station_id":"ce4bhah2rcd13ifvqei0","pricing_plan_id":"cebpf4jnsgd1na2vs0mg"},{"bike_id":"51ade9bc-1ffa-4c44-a1ac-ab6251dcd3f1","system_id":"levelo_inurba_marseille","lat":43.285848,"lon":5.350787,"is_reserved":false,"is_disabled":false,"rental_uris":{"android":"levelo://app?vid=51ade9bc-1ffa-4c44-a1ac-ab6251dcd3f1","ios":"levelo://app?vid=51ade9bc-1ffa-4c44-a1ac-ab6251dcd3f1"},"vehicle_type_id":"4","last_reported":1717855628,"current_range_meters":11200,"station_id":"ce4bhch2rcd13ifvqeug","pricing_plan_id":"cebpf4jnsgd1na2vs0mg"},{"bike_id":"f6d2d360-4307-4ea5-a09a-aed30dd94790","system_id":"levelo_inurba_marseille","lat":43.285856,"lon":5.350771,"is_reserved":false,"is_disabled":false,"rental_uris":{"android":"levelo://app?vid=f6d2d360-4307-4ea5-a09a-aed30dd94790","ios":"levelo://app?vid=f6d2d360-4307-4ea5-a09a-aed30dd94790"},"vehicle_type_id":"4","last_reported":1717855628,"current_range_meters":17600,"station_id":"ce4bhch2rcd13ifvqeug","pricing_plan_id":"cebpf4jnsgd1na2vs0mg"},{"bike_id":"7256d1ee-b174-4b4d-9b4c-d767ed7cd991","system_id":"levelo_inurba_marseille","lat":43.2862,"lon":5.35102,"is_reserved":false,"is_disabled":false,"rental_uris":{"android":"levelo://app?vid=7256d1ee-b174-4b4d-9b4c-d767ed7cd991","ios":"levelo://app?vid=7256d1ee-b174-4b4d-9b4c-d767ed7cd991"},"vehicle_type_id":"4","last_reported":1717855628,"current_range_meters":6000,"station_id":"ce4bhch2rcd13ifvqeug","pricing_plan_id":"cebpf4jnsgd1na2vs0mg"},{"bike_id":"8464d6bc-4e55-4608-9cd1-53dc91d53226","system_id":"levelo_inurba_marseille","lat":43.285848,"lon":5.350787,"is_reserved":false,"is_disabled":false,"rental_uris":{"android":"levelo://app?vid=8464d6bc-4e55-4608-9cd1-53dc91d53226","ios":"levelo://app?vid=8464d6bc-4e55-4608-9cd1-53dc91d53226"},"vehicle_type_id":"4","last_reported":1717855628,"current_range_meters":3600,"station_id":"ce4bhch2rcd13ifvqeug","pricing_plan_id":"cebpf4jnsgd1na2vs0mg"},{"bike_id":"62273b29-9f63-43e2-8145-da366e3075af","system_id":"levelo_inurba_marseille","lat":43.285848,"lon":5.350787,"is_reserved":false,"is_disabled":false,"rental_uris":{"android":"levelo://app?vid=62273b29-9f63-43e2-8145-da366e3075af","ios":"levelo://app?vid=62273b29-9f63-43e2-8145-da366e3075af"},"vehicle_type_id":"4","last_reported":1717855628,"current_range_meters":23200,"station_id":"ce4bhch2rcd13ifvqeug","pricing_plan_id":"cebpf4jnsgd1na2vs0mg"},{"bike_id":"cf2c14d2-7edf-45f0-a521-011187686794","system_id":"levelo_inurba_marseille","lat":43.285856,"lon":5.350771,"is_reserved":false,"is_disabled":false,"rental_uris":{"android":"levelo://app?vid=cf2c14d2-7edf-45f0-a521-011187686794","ios":"levelo://app?vid=cf2c14d2-7edf-45f0-a521-011187686794"},"vehicle_type_id":"4","last_reported":1717855628,"current_range_meters":3600,"station_id":"ce4bhch2rcd13ifvqeug","pricing_plan_id":"cebpf4jnsgd1na2vs0mg"},{"bike_id":"21a8a738-3ec4-4826-98bd-3db6b4caeef2","system_id":"levelo_inurba_marseille","lat":43.285848,"lon":5.350787,"is_reserved":false,"is_disabled":false,"rental_uris":{"android":"levelo://app?vid=21a8a738-3ec4-4826-98bd-3db6b4caeef2","ios":"levelo://app?vid=21a8a738-3ec4-4826-98bd-3db6b4caeef2"},"vehicle_type_id":"4","last_reported":1717855628,"current_range_meters":0,"station_id":"ce4bhch2rcd13ifvqeug","pricing_plan_id":"cebpf4jnsgd1na2vs0mg"},{"bike_id":"cda5611d-70ab-4b19-8c89-be95c528443b","system_id":"levelo_inurba_marseille","lat":43.28614,"lon":5.35103,"is_reserved":false,"is_disabled":false,"rental_uris":{"android":"levelo://app?vid=cda5611d-70ab-4b19-8c89-be95c528443b","ios":"levelo://app?vid=cda5611d-70ab-4b19-8c89-be95c528443b"},"vehicle_type_id":"4","last_reported":1717855628,"current_range_meters":0,"station_id":"ce4bhch2rcd13ifvqeug","pricing_plan_id":"cebpf4jnsgd1na2vs0mg"},{"bike_id":"c49efe69-183e-46fc-b0df-24004e86d1c3","system_id":"levelo_inurba_marseille","lat":43.295713,"lon":5.399639,"is_reserved":false,"is_disabled":false,"rental_uris":{"android":"levelo://app?vid=c49efe69-183e-46fc-b0df-24004e86d1c3","ios":"levelo://app?vid=c49efe69-183e-46fc-b0df-24004e86d1c3"},"vehicle_type_id":"4","last_reported":1717855628,"current_range_meters":0,"station_id":"ce4bh312rcd13ifvqdj0","pricing_plan_id":"cebpf4jnsgd1na2vs0mg"},{"bike_id":"abf14a42-5160-486f-a563-fbc555c7ebdc","system_id":"levelo_inurba_marseille","lat":43.28409,"lon":5.37517,"is_reserved":false,"is_disabled":false,"rental_uris":{"android":"levelo://app?vid=abf14a42-5160-486f-a563-fbc555c7ebdc","ios":"levelo://app?vid=abf14a42-5160-486f-a563-fbc555c7ebdc"},"vehicle_type_id":"4","last_reported":1717855628,"current_range_meters":31200,"station_id":"ce4bh412rcd13ifvqds0","pricing_plan_id":"cebpf4jnsgd1na2vs0mg"},{"bike_id":"87f7ba54-928e-48e0-bdfe-dfacf00fb8c7","system_id":"levelo_inurba_marseille","lat":43.29055,"lon":5.394106,"is_reserved":false,"is_disabled":false,"rental_uris":{"android":"levelo://app?vid=87f7ba54-928e-48e0-bdfe-dfacf00fb8c7","ios":"levelo://app?vid=87f7ba54-928e-48e0-bdfe-dfacf00fb8c7"},"vehicle_type_id":"4","last_reported":1717855628,"current_range_meters":7200,"station_id":"","pricing_plan_id":"cebpf4jnsgd1na2vs0mg"},{"bike_id":"6eb29491-b2cc-418d-8406-21093600f517","system_id":"levelo_inurba_marseille","lat":43.319179,"lon":5.407725,"is_reserved":false,"is_disabled":false,"rental_uris":{"android":"levelo://app?vid=6eb29491-b2cc-418d-8406-21093600f517","ios":"levelo://app?vid=6eb29491-b2cc-418d-8406-21093600f517"},"vehicle_type_id":"4","last_reported":1717855628,"current_range_meters":25600,"station_id":"ce4bhq12rcd13ifvqhig","pricing_plan_id":"cebpf4jnsgd1na2vs0mg"},{"bike_id":"529c5641-e97d-410b-8d83-f9e5b86a8ccd","system_id":"levelo_inurba_marseille","lat":43.337168,"lon":5.391825,"is_reserved":false,"is_disabled":false,"rental_uris":{"android":"levelo://app?vid=529c5641-e97d-410b-8d83-f9e5b86a8ccd","ios":"levelo://app?vid=529c5641-e97d-410b-8d83-f9e5b86a8ccd"},"vehicle_type_id":"4","last_reported":1717855628,"current_range_meters":30000,"station_id":"ce4bhr92rcd13ifvqhsg","pricing_plan_id":"cebpf4jnsgd1na2vs0mg"},{"bike_id":"567adf52-9bb1-467c-bf84-7a17223b242d","system_id":"levelo_inurba_marseille","lat":43.284787,"lon":5.384116,"is_reserved":false,"is_disabled":false,"rental_uris":{"android":"levelo://app?vid=567adf52-9bb1-467c-bf84-7a17223b242d","ios":"levelo://app?vid=567adf52-9bb1-467c-bf84-7a17223b242d"},"vehicle_type_id":"4","last_reported":1717855628,"current_range_meters":19600,"station_id":"ce4bh512rcd13ifvqe3g","pricing_plan_id":"cebpf4jnsgd1na2vs0mg"},{"bike_id":"2ed6743e-9286-45cf-9439-12ba6546478d","system_id":"levelo_inurba_marseille","lat":43.28219,"lon":5.36989,"is_reserved":false,"is_disabled":false,"rental_uris":{"android":"levelo://app?vid=2ed6743e-9286-45cf-9439-12ba6546478d","ios":"levelo://app?vid=2ed6743e-9286-45cf-9439-12ba6546478d"},"vehicle_type_id":"4","last_reported":1717855628,"current_range_meters":13600,"station_id":"","pricing_plan_id":"cebpf4jnsgd1na2vs0mg"},{"bike_id":"d29b84d5-7b0d-473b-9b78-eea206a6a9a8","system_id":"levelo_inurba_marseille","lat":43.288497,"lon":5.393089,"is_reserved":false,"is_disabled":false,"rental_uris":{"android":"levelo://app?vid=d29b84d5-7b0d-473b-9b78-eea206a6a9a8","ios":"levelo://app?vid=d29b84d5-7b0d-473b-9b78-eea206a6a9a8"},"vehicle_type_id":"4","last_reported":1717855628,"current_range_meters":22000,"station_id":"ce4bh2p2rcd13ifvqdi0","pricing_plan_id":"cebpf4jnsgd1na2vs0mg"},{"bike_id":"e70b543e-f0f3-486a-a1d7-4ad4ade8d68a","system_id":"levelo_inurba_marseille","lat":43.288497,"lon":5.393089,"is_reserved":false,"is_disabled":false,"rental_uris":{"android":"levelo://app?vid=e70b543e-f0f3-486a-a1d7-4ad4ade8d68a","ios":"levelo://app?vid=e70b543e-f0f3-486a-a1d7-4ad4ade8d68a"},"vehicle_type_id":"4","last_reported":1717855628,"current_range_meters":10800,"station_id":"ce4bh2p2rcd13ifvqdi0","pricing_plan_id":"cebpf4jnsgd1na2vs0mg"},{"bike_id":"997d4b0f-7461-4a91-bda4-88d96173cd0b","system_id":"levelo_inurba_marseille","lat":43.283494,"lon":5.380945,"is_reserved":false,"is_disabled":false,"rental_uris":{"android":"levelo://app?vid=997d4b0f-7461-4a91-bda4-88d96173cd0b","ios":"levelo://app?vid=997d4b0f-7461-4a91-bda4-88d96173cd0b"},"vehicle_type_id":"4","last_reported":1717855628,"current_range_meters":18400,"station_id":"ce4bh412rcd13ifvqdr0","pricing_plan_id":"cebpf4jnsgd1na2vs0mg"},{"bike_id":"cfbead15-6cb5-42fa-979a-8ec5fae4e912","system_id":"levelo_inurba_marseille","lat":43.283498,"lon":5.380948,"is_reserved":false,"is_disabled":false,"rental_uris":{"android":"levelo://app?vid=cfbead15-6cb5-42fa-979a-8ec5fae4e912","ios":"levelo://app?vid=cfbead15-6cb5-42fa-979a-8ec5fae4e912"},"vehicle_type_id":"4","last_reported":1717855628,"current_range_meters":8000,"station_id":"ce4bh412rcd13ifvqdr0","pricing_plan_id":"cebpf4jnsgd1na2vs0mg"},{"bike_id":"688da858-7a11-4ccd-be69-9dba965121f7","system_id":"levelo_inurba_marseille","lat":43.284219,"lon":5.3497,"is_reserved":false,"is_disabled":false,"rental_uris":{"android":"levelo://app?vid=688da858-7a11-4ccd-be69-9dba965121f7","ios":"levelo://app?vid=688da858-7a11-4ccd-be69-9dba965121f7"},"vehicle_type_id":"4","last_reported":1717855628,"current_range_meters":22800,"station_id":"ce4bhbh2rcd13ifvqepg","pricing_plan_id":"cebpf4jnsgd1na2vs0mg"},{"bike_id":"a894f6cd-d5e9-45ac-b2e3-a93705b9662b","system_id":"levelo_inurba_marseille","lat":43.284219,"lon":5.3497,"is_reserved":false,"is_disabled":false,"rental_uris":{"android":"levelo://app?vid=a894f6cd-d5e9-45ac-b2e3-a93705b9662b","ios":"levelo://app?vid=a894f6cd-d5e9-45ac-b2e3-a93705b9662b"},"vehicle_type_id":"4","last_reported":1717855628,"current_range_meters":10000,"station_id":"ce4bhbh2rcd13ifvqepg","pricing_plan_id":"cebpf4jnsgd1na2vs0mg"},{"bike_id":"e07bb4ce-167f-4a0d-9278-e06f840e9407","system_id":"levelo_inurba_marseille","lat":43.284219,"lon":5.3497,"is_reserved":false,"is_disabled":false,"rental_uris":{"android":"levelo://app?vid=e07bb4ce-167f-4a0d-9278-e06f840e9407","ios":"levelo://app?vid=e07bb4ce-167f-4a0d-9278-e06f840e9407"},"vehicle_type_id":"4","last_reported":1717855628,"current_range_meters":25200,"station_id":"ce4bhbh2rcd13ifvqepg","pricing_plan_id":"cebpf4jnsgd1na2vs0mg"},{"bike_id":"267b203e-c6a5-47c2-9949-238370ac361c","system_id":"levelo_inurba_marseille","lat":43.284219,"lon":5.3497,"is_reserved":false,"is_disabled":false,"rental_uris":{"android":"levelo://app?vid=267b203e-c6a5-47c2-9949-238370ac361c","ios":"levelo://app?vid=267b203e-c6a5-47c2-9949-238370ac361c"},"vehicle_type_id":"4","last_reported":1717855628,"current_range_meters":24400,"station_id":"ce4bhbh2rcd13ifvqepg","pricing_plan_id":"cebpf4jnsgd1na2vs0mg"},{"bike_id":"3d9d17a1-56ec-472b-b038-1f5e88ac47ab","system_id":"levelo_inurba_marseille","lat":43.284298,"lon":5.349758,"is_reserved":false,"is_disabled":false,"rental_uris":{"android":"levelo://app?vid=3d9d17a1-56ec-472b-b038-1f5e88ac47ab","ios":"levelo://app?vid=3d9d17a1-56ec-472b-b038-1f5e88ac47ab"},"vehicle_type_id":"4","last_reported":1717855628,"current_range_meters":14000,"station_id":"","pricing_plan_id":"cebpf4jnsgd1na2vs0mg"},{"bike_id":"0c66a50c-6d28-4aa2-ba34-4b4e4c38fe72","system_id":"levelo_inurba_marseille","lat":43.28424,"lon":5.34989,"is_reserved":false,"is_disabled":false,"rental_uris":{"android":"levelo://app?vid=0c66a50c-6d28-4aa2-ba34-4b4e4c38fe72","ios":"levelo://app?vid=0c66a50c-6d28-4aa2-ba34-4b4e4c38fe72"},"vehicle_type_id":"4","last_reported":1717855628,"current_range_meters":11600,"station_id":"ce4bhbh2rcd13ifvqepg","pricing_plan_id":"cebpf4jnsgd1na2vs0mg"},{"bike_id":"15211dce-7cd1-4016-a425-101ffd864154","system_id":"levelo_inurba_marseille","lat":43.28428,"lon":5.34976,"is_reserved":false,"is_disabled":false,"rental_uris":{"android":"levelo://app?vid=15211dce-7cd1-4016-a425-101ffd864154","ios":"levelo://app?vid=15211dce-7cd1-4016-a425-101ffd864154"},"vehicle_type_id":"4","last_reported":1717855628,"current_range_meters":22400,"station_id":"ce4bhbh2rcd13ifvqepg","pricing_plan_id":"cebpf4jnsgd1na2vs0mg"},{"bike_id":"d71bfba3-8636-4381-bd5d-fccbb219b77f","system_id":"levelo_inurba_marseille","lat":43.284205,"lon":5.349988,"is_reserved":false,"is_disabled":false,"rental_uris":{"android":"levelo://app?vid=d71bfba3-8636-4381-bd5d-fccbb219b77f","ios":"levelo://app?vid=d71bfba3-8636-4381-bd5d-fccbb219b77f"},"vehicle_type_id":"4","last_reported":1717855628,"current_range_meters":15600,"station_id":"ce4bhbh2rcd13ifvqepg","pricing_plan_id":"cebpf4jnsgd1na2vs0mg"},{"bike_id":"3a9b39d1-d17e-49b1-8e06-7aea81fdc114","system_id":"levelo_inurba_marseille","lat":43.28426,"lon":5.34981,"is_reserved":false,"is_disabled":false,"rental_uris":{"android":"levelo://app?vid=3a9b39d1-d17e-49b1-8e06-7aea81fdc114","ios":"levelo://app?vid=3a9b39d1-d17e-49b1-8e06-7aea81fdc114"},"vehicle_type_id":"4","last_reported":1717855628,"current_range_meters":18400,"station_id":"ce4bhbh2rcd13ifvqepg","pricing_plan_id":"cebpf4jnsgd1na2vs0mg"},{"bike_id":"245595cb-e634-41e8-a92b-ed27eb2c75b5","system_id":"levelo_inurba_marseille","lat":43.284219,"lon":5.3497,"is_reserved":false,"is_disabled":false,"rental_uris":{"android":"levelo://app?vid=245595cb-e634-41e8-a92b-ed27eb2c75b5","ios":"levelo://app?vid=245595cb-e634-41e8-a92b-ed27eb2c75b5"},"vehicle_type_id":"4","last_reported":1717855628,"current_range_meters":10000,"station_id":"ce4bhbh2rcd13ifvqepg","pricing_plan_id":"cebpf4jnsgd1na2vs0mg"},{"bike_id":"3a6a5ad0-44b8-4adb-a44d-a177adc60fae","system_id":"levelo_inurba_marseille","lat":43.284219,"lon":5.3497,"is_reserved":false,"is_disabled":false,"rental_uris":{"android":"levelo://app?vid=3a6a5ad0-44b8-4adb-a44d-a177adc60fae","ios":"levelo://app?vid=3a6a5ad0-44b8-4adb-a44d-a177adc60fae"},"vehicle_type_id":"4","last_reported":1717855628,"current_range_meters":31200,"station_id":"ce4bhbh2rcd13ifvqepg","pricing_plan_id":"cebpf4jnsgd1na2vs0mg"},{"bike_id":"4db054d9-afa4-4d7d-aacc-4d8881d3df73","system_id":"levelo_inurba_marseille","lat":43.284219,"lon":5.3497,"is_reserved":false,"is_disabled":false,"rental_uris":{"android":"levelo://app?vid=4db054d9-afa4-4d7d-aacc-4d8881d3df73","ios":"levelo://app?vid=4db054d9-afa4-4d7d-aacc-4d8881d3df73"},"vehicle_type_id":"4","last_reported":1717855628,"current_range_meters":22400,"station_id":"ce4bhbh2rcd13ifvqepg","pricing_plan_id":"cebpf4jnsgd1na2vs0mg"},{"bike_id":"77ea21af-bff3-444e-817c-4ecbb47e7171","system_id":"levelo_inurba_marseille","lat":43.284214,"lon":5.349863,"is_reserved":false,"is_disabled":false,"rental_uris":{"android":"levelo://app?vid=77ea21af-bff3-444e-817c-4ecbb47e7171","ios":"levelo://app?vid=77ea21af-bff3-444e-817c-4ecbb47e7171"},"vehicle_type_id":"4","last_reported":1717855628,"current_range_meters":23600,"station_id":"ce4bhbh2rcd13ifvqepg","pricing_plan_id":"cebpf4jnsgd1na2vs0mg"},{"bike_id":"fb2f4f38-bc57-46f2-849d-64620b9f30e7","system_id":"levelo_inurba_marseille","lat":43.28422,"lon":5.34981,"is_reserved":false,"is_disabled":false,"rental_uris":{"android":"levelo://app?vid=fb2f4f38-bc57-46f2-849d-64620b9f30e7","ios":"levelo://app?vid=fb2f4f38-bc57-46f2-849d-64620b9f30e7"},"vehicle_type_id":"4","last_reported":1717855628,"current_range_meters":26000,"station_id":"ce4bhbh2rcd13ifvqepg","pricing_plan_id":"cebpf4jnsgd1na2vs0mg"},{"bike_id":"f5675463-93f1-44f0-a2d0-aad2d87b0afd","system_id":"levelo_inurba_marseille","lat":43.284214,"lon":5.349706,"is_reserved":false,"is_disabled":false,"rental_uris":{"android":"levelo://app?vid=f5675463-93f1-44f0-a2d0-aad2d87b0afd","ios":"levelo://app?vid=f5675463-93f1-44f0-a2d0-aad2d87b0afd"},"vehicle_type_id":"4","last_reported":1717855628,"current_range_meters":12400,"station_id":"ce4bhbh2rcd13ifvqepg","pricing_plan_id":"cebpf4jnsgd1na2vs0mg"},{"bike_id":"710347d0-c79c-4c26-9459-ce22e83453a1","system_id":"levelo_inurba_marseille","lat":43.28417,"lon":5.34996,"is_reserved":false,"is_disabled":false,"rental_uris":{"android":"levelo://app?vid=710347d0-c79c-4c26-9459-ce22e83453a1","ios":"levelo://app?vid=710347d0-c79c-4c26-9459-ce22e83453a1"},"vehicle_type_id":"4","last_reported":1717855628,"current_range_meters":15600,"station_id":"ce4bhbh2rcd13ifvqepg","pricing_plan_id":"cebpf4jnsgd1na2vs0mg"},{"bike_id":"8cf5add9-c4bd-4fe3-b125-e98b56e7881e","system_id":"levelo_inurba_marseille","lat":43.284219,"lon":5.3497,"is_reserved":false,"is_disabled":false,"rental_uris":{"android":"levelo://app?vid=8cf5add9-c4bd-4fe3-b125-e98b56e7881e","ios":"levelo://app?vid=8cf5add9-c4bd-4fe3-b125-e98b56e7881e"},"vehicle_type_id":"4","last_reported":1717855628,"current_range_meters":12400,"station_id":"ce4bhbh2rcd13ifvqepg","pricing_plan_id":"cebpf4jnsgd1na2vs0mg"},{"bike_id":"e6bc61cc-ff43-4a1d-9502-0b0a1136fc14","system_id":"levelo_inurba_marseille","lat":43.284219,"lon":5.3497,"is_reserved":false,"is_disabled":false,"rental_uris":{"android":"levelo://app?vid=e6bc61cc-ff43-4a1d-9502-0b0a1136fc14","ios":"levelo://app?vid=e6bc61cc-ff43-4a1d-9502-0b0a1136fc14"},"vehicle_type_id":"4","last_reported":1717855628,"current_range_meters":28400,"station_id":"ce4bhbh2rcd13ifvqepg","pricing_plan_id":"cebpf4jnsgd1na2vs0mg"},{"bike_id":"ef4f476e-beee-4b63-8542-2a0b27717ff3","system_id":"levelo_inurba_marseille","lat":43.284219,"lon":5.3497,"is_reserved":false,"is_disabled":false,"rental_uris":{"android":"levelo://app?vid=ef4f476e-beee-4b63-8542-2a0b27717ff3","ios":"levelo://app?vid=ef4f476e-beee-4b63-8542-2a0b27717ff3"},"vehicle_type_id":"4","last_reported":1717855628,"current_range_meters":20800,"station_id":"ce4bhbh2rcd13ifvqepg","pricing_plan_id":"cebpf4jnsgd1na2vs0mg"},{"bike_id":"4d6b4256-793c-4bf9-abd0-318cf3a05395","system_id":"levelo_inurba_marseille","lat":43.284214,"lon":5.349706,"is_reserved":false,"is_disabled":false,"rental_uris":{"android":"levelo://app?vid=4d6b4256-793c-4bf9-abd0-318cf3a05395","ios":"levelo://app?vid=4d6b4256-793c-4bf9-abd0-318cf3a05395"},"vehicle_type_id":"4","last_reported":1717855628,"current_range_meters":11200,"station_id":"ce4bhbh2rcd13ifvqepg","pricing_plan_id":"cebpf4jnsgd1na2vs0mg"},{"bike_id":"5b9bb61f-2f5d-493c-89c1-cc9460871de7","system_id":"levelo_inurba_marseille","lat":43.284219,"lon":5.3497,"is_reserved":false,"is_disabled":false,"rental_uris":{"android":"levelo://app?vid=5b9bb61f-2f5d-493c-89c1-cc9460871de7","ios":"levelo://app?vid=5b9bb61f-2f5d-493c-89c1-cc9460871de7"},"vehicle_type_id":"4","last_reported":1717855628,"current_range_meters":29200,"station_id":"ce4bhbh2rcd13ifvqepg","pricing_plan_id":"cebpf4jnsgd1na2vs0mg"},{"bike_id":"69057f6c-9aa5-489b-a0c4-4a7622d5cbda","system_id":"levelo_inurba_marseille","lat":43.28418,"lon":5.34989,"is_reserved":false,"is_disabled":false,"rental_uris":{"android":"levelo://app?vid=69057f6c-9aa5-489b-a0c4-4a7622d5cbda","ios":"levelo://app?vid=69057f6c-9aa5-489b-a0c4-4a7622d5cbda"},"vehicle_type_id":"4","last_reported":1717855628,"current_range_meters":28000,"station_id":"ce4bhbh2rcd13ifvqepg","pricing_plan_id":"cebpf4jnsgd1na2vs0mg"},{"bike_id":"680dbd46-43bf-4054-a455-cb961b7d0d42","system_id":"levelo_inurba_marseille","lat":43.28422,"lon":5.34976,"is_reserved":false,"is_disabled":false,"rental_uris":{"android":"levelo://app?vid=680dbd46-43bf-4054-a455-cb961b7d0d42","ios":"levelo://app?vid=680dbd46-43bf-4054-a455-cb961b7d0d42"},"vehicle_type_id":"4","last_reported":1717855628,"current_range_meters":7200,"station_id":"ce4bhbh2rcd13ifvqepg","pricing_plan_id":"cebpf4jnsgd1na2vs0mg"},{"bike_id":"3c50aa76-6646-4d96-b7bc-dcea745a1f38","system_id":"levelo_inurba_marseille","lat":43.28419,"lon":5.34985,"is_reserved":false,"is_disabled":false,"rental_uris":{"android":"levelo://app?vid=3c50aa76-6646-4d96-b7bc-dcea745a1f38","ios":"levelo://app?vid=3c50aa76-6646-4d96-b7bc-dcea745a1f38"},"vehicle_type_id":"4","last_reported":1717855628,"current_range_meters":25200,"station_id":"ce4bhbh2rcd13ifvqepg","pricing_plan_id":"cebpf4jnsgd1na2vs0mg"},{"bike_id":"4b9193a7-75e0-4f15-9bb5-cecb0257787b","system_id":"levelo_inurba_marseille","lat":43.28416,"lon":5.34994,"is_reserved":false,"is_disabled":false,"rental_uris":{"android":"levelo://app?vid=4b9193a7-75e0-4f15-9bb5-cecb0257787b","ios":"levelo://app?vid=4b9193a7-75e0-4f15-9bb5-cecb0257787b"},"vehicle_type_id":"4","last_reported":1717855628,"current_range_meters":12400,"station_id":"ce4bhbh2rcd13ifvqepg","pricing_plan_id":"cebpf4jnsgd1na2vs0mg"},{"bike_id":"76bb77ff-2290-47b7-a409-3c525aa7c6bd","system_id":"levelo_inurba_marseille","lat":43.284174,"lon":5.349896,"is_reserved":false,"is_disabled":false,"rental_uris":{"android":"levelo://app?vid=76bb77ff-2290-47b7-a409-3c525aa7c6bd","ios":"levelo://app?vid=76bb77ff-2290-47b7-a409-3c525aa7c6bd"},"vehicle_type_id":"4","last_reported":1717855628,"current_range_meters":30800,"station_id":"ce4bhbh2rcd13ifvqepg","pricing_plan_id":"cebpf4jnsgd1na2vs0mg"},{"bike_id":"a4084560-c1e8-412a-aa24-86e3e2944c51","system_id":"levelo_inurba_marseille","lat":43.28416,"lon":5.34991,"is_reserved":false,"is_disabled":false,"rental_uris":{"android":"levelo://app?vid=a4084560-c1e8-412a-aa24-86e3e2944c51","ios":"levelo://app?vid=a4084560-c1e8-412a-aa24-86e3e2944c51"},"vehicle_type_id":"4","last_reported":1717855628,"current_range_meters":28000,"station_id":"ce4bhbh2rcd13ifvqepg","pricing_plan_id":"cebpf4jnsgd1na2vs0mg"},{"bike_id":"6d831858-d03a-434a-887f-92e5e1f17418","system_id":"levelo_inurba_marseille","lat":43.284194,"lon":5.349791,"is_reserved":false,"is_disabled":false,"rental_uris":{"android":"levelo://app?vid=6d831858-d03a-434a-887f-92e5e1f17418","ios":"levelo://app?vid=6d831858-d03a-434a-887f-92e5e1f17418"},"vehicle_type_id":"4","last_reported":1717855628,"current_range_meters":27600,"station_id":"ce4bhbh2rcd13ifvqepg","pricing_plan_id":"cebpf4jnsgd1na2vs0mg"},{"bike_id":"af121f1f-76e0-44ea-8dbf-ca1aa5cbeb9a","system_id":"levelo_inurba_marseille","lat":43.284196,"lon":5.349772,"is_reserved":false,"is_disabled":false,"rental_uris":{"android":"levelo://app?vid=af121f1f-76e0-44ea-8dbf-ca1aa5cbeb9a","ios":"levelo://app?vid=af121f1f-76e0-44ea-8dbf-ca1aa5cbeb9a"},"vehicle_type_id":"4","last_reported":1717855628,"current_range_meters":2000,"station_id":"ce4bhbh2rcd13ifvqepg","pricing_plan_id":"cebpf4jnsgd1na2vs0mg"},{"bike_id":"957508d8-1730-4113-b8a9-ff0fb5020618","system_id":"levelo_inurba_marseille","lat":43.284217,"lon":5.349697,"is_reserved":false,"is_disabled":false,"rental_uris":{"android":"levelo://app?vid=957508d8-1730-4113-b8a9-ff0fb5020618","ios":"levelo://app?vid=957508d8-1730-4113-b8a9-ff0fb5020618"},"vehicle_type_id":"4","last_reported":1717855628,"current_range_meters":25600,"station_id":"ce4bhbh2rcd13ifvqepg","pricing_plan_id":"cebpf4jnsgd1na2vs0mg"},{"bike_id":"1b838ef7-d98d-4627-9a6a-dd40b3586faa","system_id":"levelo_inurba_marseille","lat":43.284214,"lon":5.349706,"is_reserved":false,"is_disabled":false,"rental_uris":{"android":"levelo://app?vid=1b838ef7-d98d-4627-9a6a-dd40b3586faa","ios":"levelo://app?vid=1b838ef7-d98d-4627-9a6a-dd40b3586faa"},"vehicle_type_id":"4","last_reported":1717855628,"current_range_meters":3200,"station_id":"ce4bhbh2rcd13ifvqepg","pricing_plan_id":"cebpf4jnsgd1na2vs0mg"},{"bike_id":"13d81340-68b3-43a0-8855-9cdf2db663d8","system_id":"levelo_inurba_marseille","lat":43.284219,"lon":5.3497,"is_reserved":false,"is_disabled":false,"rental_uris":{"android":"levelo://app?vid=13d81340-68b3-43a0-8855-9cdf2db663d8","ios":"levelo://app?vid=13d81340-68b3-43a0-8855-9cdf2db663d8"},"vehicle_type_id":"4","last_reported":1717855628,"current_range_meters":16800,"station_id":"ce4bhbh2rcd13ifvqepg","pricing_plan_id":"cebpf4jnsgd1na2vs0mg"},{"bike_id":"dc60a275-d334-4c25-8b23-b77f0715c4e7","system_id":"levelo_inurba_marseille","lat":43.28417,"lon":5.34983,"is_reserved":false,"is_disabled":false,"rental_uris":{"android":"levelo://app?vid=dc60a275-d334-4c25-8b23-b77f0715c4e7","ios":"levelo://app?vid=dc60a275-d334-4c25-8b23-b77f0715c4e7"},"vehicle_type_id":"4","last_reported":1717855628,"current_range_meters":6400,"station_id":"ce4bhbh2rcd13ifvqepg","pricing_plan_id":"cebpf4jnsgd1na2vs0mg"},{"bike_id":"6621b3ab-a396-413b-bfe3-f358470567fa","system_id":"levelo_inurba_marseille","lat":43.284167,"lon":5.349833,"is_reserved":false,"is_disabled":false,"rental_uris":{"android":"levelo://app?vid=6621b3ab-a396-413b-bfe3-f358470567fa","ios":"levelo://app?vid=6621b3ab-a396-413b-bfe3-f358470567fa"},"vehicle_type_id":"4","last_reported":1717855628,"current_range_meters":22400,"station_id":"ce4bhbh2rcd13ifvqepg","pricing_plan_id":"cebpf4jnsgd1na2vs0mg"},{"bike_id":"77ef84a9-ee54-456a-a26b-047edb8f00b7","system_id":"levelo_inurba_marseille","lat":43.284173,"lon":5.349811,"is_reserved":false,"is_disabled":false,"rental_uris":{"android":"levelo://app?vid=77ef84a9-ee54-456a-a26b-047edb8f00b7","ios":"levelo://app?vid=77ef84a9-ee54-456a-a26b-047edb8f00b7"},"vehicle_type_id":"4","last_reported":1717855628,"current_range_meters":31200,"station_id":"ce4bhbh2rcd13ifvqepg","pricing_plan_id":"cebpf4jnsgd1na2vs0mg"},{"bike_id":"2499a303-2d44-4f20-a622-22b53f32e219","system_id":"levelo_inurba_marseille","lat":43.28414,"lon":5.34991,"is_reserved":false,"is_disabled":false,"rental_uris":{"android":"levelo://app?vid=2499a303-2d44-4f20-a622-22b53f32e219","ios":"levelo://app?vid=2499a303-2d44-4f20-a622-22b53f32e219"},"vehicle_type_id":"4","last_reported":1717855628,"current_range_meters":31200,"station_id":"ce4bhbh2rcd13ifvqepg","pricing_plan_id":"cebpf4jnsgd1na2vs0mg"},{"bike_id":"47026d24-7838-432c-b632-2a7e7431c4e6","system_id":"levelo_inurba_marseille","lat":43.28418,"lon":5.34977,"is_reserved":false,"is_disabled":false,"rental_uris":{"android":"levelo://app?vid=47026d24-7838-432c-b632-2a7e7431c4e6","ios":"levelo://app?vid=47026d24-7838-432c-b632-2a7e7431c4e6"},"vehicle_type_id":"4","last_reported":1717855628,"current_range_meters":6400,"station_id":"ce4bhbh2rcd13ifvqepg","pricing_plan_id":"cebpf4jnsgd1na2vs0mg"},{"bike_id":"18d175c0-6641-43ce-bba9-dc62d6d70811","system_id":"levelo_inurba_marseille","lat":43.284183,"lon":5.349747,"is_reserved":false,"is_disabled":false,"rental_uris":{"android":"levelo://app?vid=18d175c0-6641-43ce-bba9-dc62d6d70811","ios":"levelo://app?vid=18d175c0-6641-43ce-bba9-dc62d6d70811"},"vehicle_type_id":"4","last_reported":1717855628,"current_range_meters":10800,"station_id":"ce4bhbh2rcd13ifvqepg","pricing_plan_id":"cebpf4jnsgd1na2vs0mg"},{"bike_id":"08a4efe6-7792-4d19-abee-f49a5c9db16f","system_id":"levelo_inurba_marseille","lat":43.284214,"lon":5.349706,"is_reserved":false,"is_disabled":false,"rental_uris":{"android":"levelo://app?vid=08a4efe6-7792-4d19-abee-f49a5c9db16f","ios":"levelo://app?vid=08a4efe6-7792-4d19-abee-f49a5c9db16f"},"vehicle_type_id":"4","last_reported":1717855628,"current_range_meters":24800,"station_id":"ce4bhbh2rcd13ifvqepg","pricing_plan_id":"cebpf4jnsgd1na2vs0mg"},{"bike_id":"a28287df-e8b7-4b77-a441-b2776f28ee58","system_id":"levelo_inurba_marseille","lat":43.28413,"lon":5.34991,"is_reserved":false,"is_disabled":false,"rental_uris":{"android":"levelo://app?vid=a28287df-e8b7-4b77-a441-b2776f28ee58","ios":"levelo://app?vid=a28287df-e8b7-4b77-a441-b2776f28ee58"},"vehicle_type_id":"4","last_reported":1717855628,"current_range_meters":14800,"station_id":"ce4bhbh2rcd13ifvqepg","pricing_plan_id":"cebpf4jnsgd1na2vs0mg"},{"bike_id":"8a3000aa-ba2f-4491-9885-055ace6c16f8","system_id":"levelo_inurba_marseille","lat":43.284217,"lon":5.349697,"is_reserved":false,"is_disabled":false,"rental_uris":{"android":"levelo://app?vid=8a3000aa-ba2f-4491-9885-055ace6c16f8","ios":"levelo://app?vid=8a3000aa-ba2f-4491-9885-055ace6c16f8"},"vehicle_type_id":"4","last_reported":1717855628,"current_range_meters":16000,"station_id":"ce4bhbh2rcd13ifvqepg","pricing_plan_id":"cebpf4jnsgd1na2vs0mg"},{"bike_id":"c5b694cf-ab64-4c11-9387-ac42e7aa2625","system_id":"levelo_inurba_marseille","lat":43.284217,"lon":5.349697,"is_reserved":false,"is_disabled":false,"rental_uris":{"android":"levelo://app?vid=c5b694cf-ab64-4c11-9387-ac42e7aa2625","ios":"levelo://app?vid=c5b694cf-ab64-4c11-9387-ac42e7aa2625"},"vehicle_type_id":"4","last_reported":1717855628,"current_range_meters":9600,"station_id":"ce4bhbh2rcd13ifvqepg","pricing_plan_id":"cebpf4jnsgd1na2vs0mg"},