{"last_updated":1748376693,"ttl":60,"version":"2.2","data":{"bikes":[{"bike_id":"c0b9fd4f-e181-46ce-b0bf-f5119973334f","system_id":"levelo_inurba_marseille","lat":43.33771,"lon":5.37424,"is_reserved":false,"is_disabled":true,"rental_uris":{"android":"levelo://app?vid=c0b9fd4f-e181-46ce-b0bf-f5119973334f","ios":"levelo://app?vid=c0b9fd4f-e181-46ce-b0bf-f5119973334f"},"vehicle_type_id":"4","last_reported":1748376693,"current_range_meters":0,"station_id":"","pricing_plan_id":"cebpf4jnsgd1na2vs0mg"},{"bike_id":"da453a88-f81b-4e0f-9781-5a7f6c1d364c","system_id":"levelo_inurba_marseille","lat":43.337499,"lon":5.374469,"is_reserved":false,"is_disabled":true,"rental_uris":{"android":"levelo://app?vid=da453a88-f81b-4e0f-9781-5a7f6c1d364c","ios":"levelo://app?vid=da453a88-f81b-4e0f-9781-5a7f6c1d364c"},"vehicle_type_id":"4","last_reported":1748376693,"current_range_meters":0,"station_id":"","pricing_plan_id":"cebpf4jnsgd1na2vs0mg"},{"bike_id":"a8e97d8f-8b1a-4591-9245-02b7651f630b","system_id":"levelo_inurba_marseille","lat":43.21202,"lon":5.35067,"is_reserved":false,"is_disabled":true,"rental_uris":{"android":"levelo://app?vid=a8e97d8f-8b1a-4591-9245-02b7651f630b","ios":"levelo://app?vid=a8e97d8f-8b1a-4591-9245-02b7651f630b"},"vehicle_type_id":"4","last_reported":1748376693,"current_range_meters":0,"station_id":"","pricing_plan_id":"cebpf4jnsgd1na2vs0mg"},{"bike_id":"ae9ac33e-6b71-439c-979f-3a5bd5a37079","system_id":"levelo_inurba_marseille","lat":43.28234,"lon":5.39042,"is_reserved":false,"is_disabled":true,"rental_uris":{"android":"levelo://app?vid=ae9ac33e-6b71-439c-979f-3a5bd5a37079","ios":"levelo://app?vid=ae9ac33e-6b71-439c-979f-3a5bd5a37079"},"vehicle_type_id":"4","last_reported":1748376693,"current_range_meters":0,"station_id":"","pricing_plan_id":"cebpf4jnsgd1na2vs0mg"},{"bike_id":"3fe3d6c4-138a-47df-b6b4-e6f19e8f7d46","system_id":"levelo_inurba_marseille","lat":43.21411,"lon":5.34114,"is_reserved":false,"is_disabled":true,"rental_uris":{"android":"levelo://app?vid=3fe3d6c4-138a-47df-b6b4-e6f19e8f7d46","ios":"levelo://app?vid=3fe3d6c4-138a-47df-b6b4-e6f19e8f7d46"},"vehicle_type_id":"4","last_reported":1748376693,"current_range_meters":0,"station_id":"","pricing_plan_id":"cebpf4jnsgd1na2vs0mg"},{"bike_id":"fd133867-b5d2-4fd2-aa0a-382781ea3f5a","system_id":"levelo_inurba_marseille","lat":43.28996,"lon":5.430355,"is_reserved":false,"is_disabled":true,"rental_uris":{"android":"levelo://app?vid=fd133867-b5d2-4fd2-aa0a-382781ea3f5a","ios":"levelo://app?vid=fd133867-b5d2-4fd2-aa0a-382781ea3f5a"},"vehicle_type_id":"4","last_reported":1748376693,"current_range_meters":0,"station_id":"","pricing_plan_id":"cebpf4jnsgd1na2vs0mg"},{"bike_id":"d9fa0449-e47c-4bbe-a91c-4939cab5d888","system_id":"levelo_inurba_marseille","lat":43.28501,"lon":5.42495,"is_reserved":false,"is_disabled":true,"rental_uris":{"android":"levelo://app?vid=d9fa0449-e47c-4bbe-a91c-4939cab5d888","ios":"levelo://app?vid=d9fa0449-e47c-4bbe-a91c-4939cab5d888"},"vehicle_type_id":"4","last_reported":1748376693,"current_range_meters":0,"station_id":"","pricing_plan_id":"cebpf4jnsgd1na2vs0mg"},{"bike_id":"b36dc425-c30c-4ea5-8cf0-c5a25c9f1257","system_id":"levelo_inurba_marseille","lat":43.27909,"lon":5.38721,"is_reserved":false,"is_disabled":true,"rental_uris":{"android":"levelo://app?vid=b36dc425-c30c-4ea5-8cf0-c5a25c9f1257","ios":"levelo://app?vid=b36dc425-c30c-4ea5-8cf0-c5a25c9f1257"},"vehicle_type_id":"4","last_reported":1748376693,"current_range_meters":0,"station_id":"","pricing_plan_id":"cebpf4jnsgd1na2vs0mg"},{"bike_id":"15dcdbbd-a41e-43eb-9ed6-26ec15ce7a50","system_id":"levelo_inurba_marseille","lat":43.21411,"lon":5.34113,"is_reserved":false,"is_disabled":true,"rental_uris":{"android":"levelo://app?vid=15dcdbbd-a41e-43eb-9ed6-26ec15ce7a50","ios":"levelo://app?vid=15dcdbbd-a41e-43eb-9ed6-26ec15ce7a50"},"vehicle_type_id":"4","last_reported":1748376693,"current_range_meters":0,"station_id":"","pricing_plan_id":"cebpf4jnsgd1na2vs0mg"},{"bike_id":"d9a3b920-9f74-40ee-942c-2b021162356c","system_id":"levelo_inurba_marseille","lat":43.265674,"lon":5.403281,"is_reserved":false,"is_disabled":true,"rental_uris":{"android":"levelo://app?vid=d9a3b920-9f74-40ee-942c-2b021162356c","ios":"levelo://app?vid=d9a3b920-9f74-40ee-942c-2b021162356c"},"vehicle_type_id":"4","last_reported":1748376693,"current_range_meters":0,"station_id":"","pricing_plan_id":"cebpf4jnsgd1na2vs0mg"},{"bike_id":"f9fb40c0-1fcd-48cb-8e26-3f2dc0fb2451","system_id":"levelo_inurba_marseille","lat":43.33751,"lon":5.37509,"is_reserved":false,"is_disabled":true,"rental_uris":{"android":"levelo://app?vid=f9fb40c0-1fcd-48cb-8e26-3f2dc0fb2451","ios":"levelo://app?vid=f9fb40c0-1fcd-48cb-8e26-3f2dc0fb2451"},"vehicle_type_id":"4","last_reported":1748376693,"current_range_meters":0,"station_id":"","pricing_plan_id":"cebpf4jnsgd1na2vs0mg"},{"bike_id":"e9dd3aa4-b5e7-4480-926d-d7f537719bfa","system_id":"levelo_inurba_marseille","lat":43.230331,"lon":5.401847,"is_reserved":false,"is_disabled":true,"rental_uris":{"android":"levelo://app?vid=e9dd3aa4-b5e7-4480-926d-d7f537719bfa","ios":"levelo://app?vid=e9dd3aa4-b5e7-4480-926d-d7f537719bfa"},"vehicle_type_id":"4","last_reported":1748376693,"current_range_meters":0,"station_id":"","pricing_plan_id":"cebpf4jnsgd1na2vs0mg"},{"bike_id":"dcd075ea-b4af-4d6d-90b2-1236858b7bc1","system_id":"levelo_inurba_marseille","lat":43.27609,"lon":5.35873,"is_reserved":false,"is_disabled":true,"rental_uris":{"android":"levelo://app?vid=dcd075ea-b4af-4d6d-90b2-1236858b7bc1","ios":"levelo://app?vid=dcd075ea-b4af-4d6d-90b2-1236858b7bc1"},"vehicle_type_id":"4","last_reported":1748376693,"current_range_meters":0,"station_id":"","pricing_plan_id":"cebpf4jnsgd1na2vs0mg"},{"bike_id":"a1ace1dd-f664-4144-b697-07cc7b373ce4","system_id":"levelo_inurba_marseille","lat":43.3125,"lon":5.36856,"is_reserved":false,"is_disabled":true,"rental_uris":{"android":"levelo://app?vid=a1ace1dd-f664-4144-b697-07cc7b373ce4","ios":"levelo://app?vid=a1ace1dd-f664-4144-b697-07cc7b373ce4"},"vehicle_type_id":"4","last_reported":1748376693,"current_range_meters":0,"station_id":"ce4bgl92rcd13ifvqbq0","pricing_plan_id":"cebpf4jnsgd1na2vs0mg"},{"bike_id":"a29b6fa2-8bb1-4149-9f76-b8718bcb8af1","system_id":"levelo_inurba_marseille","lat":43.30134,"lon":5.39833,"is_reserved":false,"is_disabled":true,"rental_uris":{"android":"levelo://app?vid=a29b6fa2-8bb1-4149-9f76-b8718bcb8af1","ios":"levelo://app?vid=a29b6fa2-8bb1-4149-9f76-b8718bcb8af1"},"vehicle_type_id":"4","last_reported":1748376693,"current_range_meters":0,"station_id":"ce4bh0h2rcd13ifvqd40","pricing_plan_id":"cebpf4jnsgd1na2vs0mg"},{"bike_id":"12a5ef2b-4074-416d-bdc6-e6eda20469bb","system_id":"levelo_inurba_marseille","lat":43.26488,"lon":5.3955,"is_reserved":false,"is_disabled":true,"rental_uris":{"android":"levelo://app?vid=12a5ef2b-4074-416d-bdc6-e6eda20469bb","ios":"levelo://app?vid=12a5ef2b-4074-416d-bdc6-e6eda20469bb"},"vehicle_type_id":"4","last_reported":1748376693,"current_range_meters":0,"station_id":"ce4bhi12rcd13ifvqfq0","pricing_plan_id":"cebpf4jnsgd1na2vs0mg"},{"bike_id":"90decd7b-1546-4366-b914-bfb5c2e85bbb","system_id":"levelo_inurba_marseille","lat":43.25725,"lon":5.41109,"is_reserved":false,"is_disabled":true,"rental_uris":{"android":"levelo://app?vid=90decd7b-1546-4366-b914-bfb5c2e85bbb","ios":"levelo://app?vid=90decd7b-1546-4366-b914-bfb5c2e85bbb"},"vehicle_type_id":"4","last_reported":1748376693,"current_range_meters":0,"station_id":"ce4bhkp2rcd13ifvqgd0","pricing_plan_id":"cebpf4jnsgd1na2vs0mg"},{"bike_id":"5dacc730-6bbb-4ed5-9f8f-85d739001685","system_id":"levelo_inurba_marseille","lat":43.23148,"lon":5.43704,"is_reserved":false,"is_disabled":true,"rental_uris":{"android":"levelo://app?vid=5dacc730-6bbb-4ed5-9f8f-85d739001685","ios":"levelo://app?vid=5dacc730-6bbb-4ed5-9f8f-85d739001685"},"vehicle_type_id":"4","last_reported":1748376693,"current_range_meters":0,"station_id":"ce4bhmp2rcd13ifvqgog","pricing_plan_id":"cebpf4jnsgd1na2vs0mg"},{"bike_id":"dfb73cb2-4b60-48af-9468-1763b84e0bcf","system_id":"levelo_inurba_marseille","lat":43.23148,"lon":5.43717,"is_reserved":false,"is_disabled":true,"rental_uris":{"android":"levelo://app?vid=dfb73cb2-4b60-48af-9468-1763b84e0bcf","ios":"levelo://app?vid=dfb73cb2-4b60-48af-9468-1763b84e0bcf"},"vehicle_type_id":"4","last_reported":1748376693,"current_range_meters":0,"station_id":"ce4bhmp2rcd13ifvqgog","pricing_plan_id":"cebpf4jnsgd1na2vs0mg"},{"bike_id":"12d8bca6-1d4a-43d2-9fda-db87053d700a","system_id":"levelo_inurba_marseille","lat":43.28154,"lon":5.4264,"is_reserved":false,"is_disabled":true,"rental_uris":{"android":"levelo://app?vid=12d8bca6-1d4a-43d2-9fda-db87053d700a","ios":"levelo://app?vid=12d8bca6-1d4a-43d2-9fda-db87053d700a"},"vehicle_type_id":"4","last_reported":1748376693,"current_range_meters":0,"station_id":"ce4bhnh2rcd13ifvqgug","pricing_plan_id":"cebpf4jnsgd1na2vs0mg"},{"bike_id":"33a01a7e-e20f-461c-aadf-358fe3852bbd","system_id":"levelo_inurba_marseille","lat":43.3117,"lon":5.38716,"is_reserved":false,"is_disabled":true,"rental_uris":{"android":"levelo://app?vid=33a01a7e-e20f-461c-aadf-358fe3852bbd","ios":"levelo://app?vid=33a01a7e-e20f-461c-aadf-358fe3852bbd"},"vehicle_type_id":"4","last_reported":1748376693,"current_range_meters":400,"station_id":"ce4bgv12rcd13ifvqcp0","pricing_plan_id":"cebpf4jnsgd1na2vs0mg"},{"bike_id":"0561c7a3-484e-4d12-a933-efd5d7f92105","system_id":"levelo_inurba_marseille","lat":43.30209,"lon":5.39466,"is_reserved":false,"is_disabled":true,"rental_uris":{"android":"levelo://app?vid=0561c7a3-484e-4d12-a933-efd5d7f92105","ios":"levelo://app?vid=0561c7a3-484e-4d12-a933-efd5d7f92105"},"vehicle_type_id":"4","last_reported":1748376693,"current_range_meters":400,"station_id":"ce4bh0p2rcd13ifvqd70","pricing_plan_id":"cebpf4jnsgd1na2vs0mg"},{"bike_id":"dcfa9cb8-736c-4ef1-91eb-f78da8693580","system_id":"levelo_inurba_marseille","lat":43.28973,"lon":5.37831,"is_reserved":false,"is_disabled":true,"rental_uris":{"android":"levelo://app?vid=dcfa9cb8-736c-4ef1-91eb-f78da8693580","ios":"levelo://app?vid=dcfa9cb8-736c-4ef1-91eb-f78da8693580"},"vehicle_type_id":"4","last_reported":1748376693,"current_range_meters":400,"station_id":"ce4bh9p2rcd13ifvqed0","pricing_plan_id":"cebpf4jnsgd1na2vs0mg"},{"bike_id":"c8fcb33d-7210-412e-92a1-327c178ed7fe","system_id":"levelo_inurba_marseille","lat":43.28423,"lon":5.34981,"is_reserved":false,"is_disabled":true,"rental_uris":{"android":"levelo://app?vid=c8fcb33d-7210-412e-92a1-327c178ed7fe","ios":"levelo://app?vid=c8fcb33d-7210-412e-92a1-327c178ed7fe"},"vehicle_type_id":"4","last_reported":1748376693,"current_range_meters":400,"station_id":"ce4bhbh2rcd13ifvqepg","pricing_plan_id":"cebpf4jnsgd1na2vs0mg"},{"bike_id":"1a0924d2-a540-41a7-9ebe-516ce609f5dd","system_id":"levelo_inurba_marseille","lat":43.25718,"lon":5.41119,"is_reserved":false,"is_disabled":true,"rental_uris":{"android":"levelo://app?vid=1a0924d2-a540-41a7-9ebe-516ce609f5dd","ios":"levelo://app?vid=1a0924d2-a540-41a7-9ebe-516ce609f5dd"},"vehicle_type_id":"4","last_reported":1748376693,"current_range_meters":400,"station_id":"ce4bhkp2rcd13ifvqgd0","pricing_plan_id":"cebpf4jnsgd1na2vs0mg"},{"bike_id":"d83958e4-0f7a-44bb-8153-6a023206ddb8","system_id":"levelo_inurba_marseille","lat":43.2853,"lon":5.38423,"is_reserved":false,"is_disabled":true,"rental_uris":{"android":"levelo://app?vid=d83958e4-0f7a-44bb-8153-6a023206ddb8","ios":"levelo://app?vid=d83958e4-0f7a-44bb-8153-6a023206ddb8"},"vehicle_type_id":"4","last_reported":1748376693,"current_range_meters":800,"station_id":"","pricing_plan_id":"cebpf4jnsgd1na2vs0mg"},{"bike_id":"a2f4288a-1e9c-4b87-a581-ec53dfe27c90","system_id":"levelo_inurba_marseille","lat":43.28764,"lon":5.38258,"is_reserved":false,"is_disabled":true,"rental_uris":{"android":"levelo://app?vid=a2f4288a-1e9c-4b87-a581-ec53dfe27c90","ios":"levelo://app?vid=a2f4288a-1e9c-4b87-a581-ec53dfe27c90"},"vehicle_type_id":"4","last_reported":1748376693,"current_range_meters":800,"station_id":"","pricing_plan_id":"cebpf4jnsgd1na2vs0mg"},{"bike_id":"c135dc47-98f9-419d-abdb-97af229da1ab","system_id":"levelo_inurba_marseille","lat":43.25118,"lon":5.40314,"is_reserved":false,"is_disabled":false,"rental_uris":{"android":"levelo://app?vid=c135dc47-98f9-419d-abdb-97af229da1ab","ios":"levelo://app?vid=c135dc47-98f9-419d-abdb-97af229da1ab"},"vehicle_type_id":"4","last_reported":1748376693,"current_range_meters":800,"station_id":"ce4bhlh2rcd13ifvqgig","pricing_plan_id":"cebpf4jnsgd1na2vs0mg"},{"bike_id":"f0642566-e49f-45e9-9ed9-ad6aec5f1519","system_id":"levelo_inurba_marseille","lat":43.26781,"lon":5.42055,"is_reserved":false,"is_disabled":true,"rental_uris":{"android":"levelo://app?vid=f0642566-e49f-45e9-9ed9-ad6aec5f1519","ios":"levelo://app?vid=f0642566-e49f-45e9-9ed9-ad6aec5f1519"},"vehicle_type_id":"4","last_reported":1748376693,"current_range_meters":1200,"station_id":"","pricing_plan_id":"cebpf4jnsgd1na2vs0mg"},{"bike_id":"8e665b81-5e54-489d-84f2-54f38aa8dc8f","system_id":"levelo_inurba_marseille","lat":43.22507,"lon":5.34787,"is_reserved":false,"is_disabled":true,"rental_uris":{"android":"levelo://app?vid=8e665b81-5e54-489d-84f2-54f38aa8dc8f","ios":"levelo://app?vid=8e665b81-5e54-489d-84f2-54f38aa8dc8f"},"vehicle_type_id":"4","last_reported":1748376693,"current_range_meters":1200,"station_id":"","pricing_plan_id":"cebpf4jnsgd1na2vs0mg"},{"bike_id":"4d56e11a-ce9a-4b48-a465-1e713115f8fa","system_id":"levelo_inurba_marseille","lat":43.28289,"lon":5.35087,"is_reserved":false,"is_disabled":true,"rental_uris":{"android":"levelo://app?vid=4d56e11a-ce9a-4b48-a465-1e713115f8fa","ios":"levelo://app?vid=4d56e11a-ce9a-4b48-a465-1e713115f8fa"},"vehicle_type_id":"4","last_reported":1748376693,"current_range_meters":1200,"station_id":"ce4bhbp2rcd13ifvqerg","pricing_plan_id":"cebpf4jnsgd1na2vs0mg"},{"bike_id":"6bd8ff7f-4179-445c-b976-9b8bbebc74a2","system_id":"levelo_inurba_marseille","lat":43.29973,"lon":5.38495,"is_reserved":false,"is_disabled":true,"rental_uris":{"android":"levelo://app?vid=6bd8ff7f-4179-445c-b976-9b8bbebc74a2","ios":"levelo://app?vid=6bd8ff7f-4179-445c-b976-9b8bbebc74a2"},"vehicle_type_id":"4","last_reported":1748376693,"current_range_meters":1600,"station_id":"ce4bgj92rcd13ifvqbd0","pricing_plan_id":"cebpf4jnsgd1na2vs0mg"},{"bike_id":"ccf80803-fa4d-4a02-991a-a0050c00e63a","system_id":"levelo_inurba_marseille","lat":43.30886,"lon":5.39654,"is_reserved":false,"is_disabled":true,"rental_uris":{"android":"levelo://app?vid=ccf80803-fa4d-4a02-991a-a0050c00e63a","ios":"levelo://app?vid=ccf80803-fa4d-4a02-991a-a0050c00e63a"},"vehicle_type_id":"4","last_reported":1748376693,"current_range_meters":1600,"station_id":"ce4bh012rcd13ifvqcv0","pricing_plan_id":"cebpf4jnsgd1na2vs0mg"},{"bike_id":"f49eb099-e098-4261-8dd8-9eacbdf09ab4","system_id":"levelo_inurba_marseille","lat":43.292063,"lon":5.393016,"is_reserved":false,"is_disabled":true,"rental_uris":{"android":"levelo://app?vid=f49eb099-e098-4261-8dd8-9eacbdf09ab4","ios":"levelo://app?vid=f49eb099-e098-4261-8dd8-9eacbdf09ab4"},"vehicle_type_id":"4","last_reported":1748376693,"current_range_meters":1600,"station_id":"ce4bh192rcd13ifvqdd0","pricing_plan_id":"cebpf4jnsgd1na2vs0mg"},{"bike_id":"54ba0f5e-635f-4ac5-933d-62d761246dd5","system_id":"levelo_inurba_marseille","lat":43.28457,"lon":5.35875,"is_reserved":false,"is_disabled":true,"rental_uris":{"android":"levelo://app?vid=54ba0f5e-635f-4ac5-933d-62d761246dd5","ios":"levelo://app?vid=54ba0f5e-635f-4ac5-933d-62d761246dd5"},"vehicle_type_id":"4","last_reported":1748376693,"current_range_meters":1600,"station_id":"ce4bhah2rcd13ifvqei0","pricing_plan_id":"cebpf4jnsgd1na2vs0mg"},{"bike_id":"1b70588b-2d40-4a3b-b547-013482254ee2","system_id":"levelo_inurba_marseille","lat":43.29274,"lon":5.36842,"is_reserved":false,"is_disabled":true,"rental_uris":{"android":"levelo://app?vid=1b70588b-2d40-4a3b-b547-013482254ee2","ios":"levelo://app?vid=1b70588b-2d40-4a3b-b547-013482254ee2"},"vehicle_type_id":"4","last_reported":1748376693,"current_range_meters":1600,"station_id":"ce4bhbp2rcd13ifvqesg","pricing_plan_id":"cebpf4jnsgd1na2vs0mg"},{"bike_id":"b35d6714-458d-46a8-bcef-4698c75a12ba","system_id":"levelo_inurba_marseille","lat":43.27212,"lon":5.39182,"is_reserved":false,"is_disabled":true,"rental_uris":{"android":"levelo://app?vid=b35d6714-458d-46a8-bcef-4698c75a12ba","ios":"levelo://app?vid=b35d6714-458d-46a8-bcef-4698c75a12ba"},"vehicle_type_id":"4","last_reported":1748376693,"current_range_meters":1600,"station_id":"ce4bhhp2rcd13ifvqfm0","pricing_plan_id":"cebpf4jnsgd1na2vs0mg"},{"bike_id":"08fae07d-cdde-496e-8463-4ec630d770b0","system_id":"levelo_inurba_marseille","lat":43.3139,"lon":5.38498,"is_reserved":false,"is_disabled":true,"rental_uris":{"android":"levelo://app?vid=08fae07d-cdde-496e-8463-4ec630d770b0","ios":"levelo://app?vid=08fae07d-cdde-496e-8463-4ec630d770b0"},"vehicle_type_id":"4","last_reported":1748376693,"current_range_meters":2000,"station_id":"ce4bgt92rcd13ifvqcf0","pricing_plan_id":"cebpf4jnsgd1na2vs0mg"},{"bike_id":"0a38e234-6f70-4d58-834f-3eecb279ff90","system_id":"levelo_inurba_marseille","lat":43.30877,"lon":5.39657,"is_reserved":false,"is_disabled":true,"rental_uris":{"android":"levelo://app?vid=0a38e234-6f70-4d58-834f-3eecb279ff90","ios":"levelo://app?vid=0a38e234-6f70-4d58-834f-3eecb279ff90"},"vehicle_type_id":"4","last_reported":1748376693,"current_range_meters":2000,"station_id":"ce4bh012rcd13ifvqcv0","pricing_plan_id":"cebpf4jnsgd1na2vs0mg"},{"bike_id":"d99d4765-c759-4055-92cb-399e688dfd5b","system_id":"levelo_inurba_marseille","lat":43.25574,"lon":5.38236,"is_reserved":false,"is_disabled":false,"rental_uris":{"android":"levelo://app?vid=d99d4765-c759-4055-92cb-399e688dfd5b","ios":"levelo://app?vid=d99d4765-c759-4055-92cb-399e688dfd5b"},"vehicle_type_id":"4","last_reported":1748376693,"current_range_meters":2800,"station_id":"ce4bhih2rcd13ifvqfs0","pricing_plan_id":"cebpf4jnsgd1na2vs0mg"},{"bike_id":"a4b558ad-a917-4d4e-bc2e-4726bf37e8b2","system_id":"levelo_inurba_marseille","lat":43.29517,"lon":5.39398,"is_reserved":false,"is_disabled":false,"rental_uris":{"android":"levelo://app?vid=a4b558ad-a917-4d4e-bc2e-4726bf37e8b2","ios":"levelo://app?vid=a4b558ad-a917-4d4e-bc2e-4726bf37e8b2"},"vehicle_type_id":"4","last_reported":1748376693,"current_range_meters":3200,"station_id":"ce4bh292rcd13ifvqdf0","pricing_plan_id":"cebpf4jnsgd1na2vs0mg"},{"bike_id":"b63aa1cb-aeb8-470f-9031-198478325e6c","system_id":"levelo_inurba_marseille","lat":43.29051,"lon":5.39973,"is_reserved":false,"is_disabled":false,"rental_uris":{"android":"levelo://app?vid=b63aa1cb-aeb8-470f-9031-198478325e6c","ios":"levelo://app?vid=b63aa1cb-aeb8-470f-9031-198478325e6c"},"vehicle_type_id":"4","last_reported":1748376693,"current_range_meters":3200,"station_id":"ce4bh392rcd13ifvqdm0","pricing_plan_id":"cebpf4jnsgd1na2vs0mg"},{"bike_id":"904e61f3-9543-4358-95e4-e461a880e97a","system_id":"levelo_inurba_marseille","lat":43.25117,"lon":5.40315,"is_reserved":false,"is_disabled":false,"rental_uris":{"android":"levelo://app?vid=904e61f3-9543-4358-95e4-e461a880e97a","ios":"levelo://app?vid=904e61f3-9543-4358-95e4-e461a880e97a"},"vehicle_type_id":"4","last_reported":1748376693,"current_range_meters":3200,"station_id":"ce4bhlh2rcd13ifvqgig","pricing_plan_id":"cebpf4jnsgd1na2vs0mg"},{"bike_id":"27fc73e7-1617-4b2e-b6df-5ca1bb0c2d46","system_id":"levelo_inurba_marseille","lat":43.287,"lon":5.39981,"is_reserved":false,"is_disabled":false,"rental_uris":{"android":"levelo://app?vid=27fc73e7-1617-4b2e-b6df-5ca1bb0c2d46","ios":"levelo://app?vid=27fc73e7-1617-4b2e-b6df-5ca1bb0c2d46"},"vehicle_type_id":"4","last_reported":1748376693,"current_range_meters":3200,"station_id":"ce4bho92rcd13ifvqh3g","pricing_plan_id":"cebpf4jnsgd1na2vs0mg"},{"bike_id":"6001c46c-6548-4b43-9ae3-db9e7103230b","system_id":"levelo_inurba_marseille","lat":43.29566,"lon":5.3787,"is_reserved":false,"is_disabled":false,"rental_uris":{"android":"levelo://app?vid=6001c46c-6548-4b43-9ae3-db9e7103230b","ios":"levelo://app?vid=6001c46c-6548-4b43-9ae3-db9e7103230b"},"vehicle_type_id":"4","last_reported":1748376693,"current_range_meters":3600,"station_id":"","pricing_plan_id":"cebpf4jnsgd1na2vs0mg"},{"bike_id":"d61a2e27-e65f-4e4c-9647-5687c75317c0","system_id":"levelo_inurba_marseille","lat":43.280995,"lon":5.3784,"is_reserved":false,"is_disabled":false,"rental_uris":{"android":"levelo://app?vid=d61a2e27-e65f-4e4c-9647-5687c75317c0","ios":"levelo://app?vid=d61a2e27-e65f-4e4c-9647-5687c75317c0"},"vehicle_type_id":"4","last_reported":1748376693,"current_range_meters":3600,"station_id":"ce4bha12rcd13ifvqee0","pricing_plan_id":"cebpf4jnsgd1na2vs0mg"},{"bike_id":"bd3aa6a4-58ab-45cb-96e0-b2c785ca5497","system_id":"levelo_inurba_marseille","lat":43.29273,"lon":5.36846,"is_reserved":false,"is_disabled":false,"rental_uris":{"android":"levelo://app?vid=bd3aa6a4-58ab-45cb-96e0-b2c785ca5497","ios":"levelo://app?vid=bd3aa6a4-58ab-45cb-96e0-b2c785ca5497"},"vehicle_type_id":"4","last_reported":1748376693,"current_range_meters":3600,"station_id":"ce4bhbp2rcd13ifvqesg","pricing_plan_id":"cebpf4jnsgd1na2vs0mg"},{"bike_id":"3571b2f9-926f-4f85-85ff-f538a569a120","system_id":"levelo_inurba_marseille","lat":43.25126,"lon":5.40311,"is_reserved":false,"is_disabled":false,"rental_uris":{"android":"levelo://app?vid=3571b2f9-926f-4f85-85ff-f538a569a120","ios":"levelo://app?vid=3571b2f9-926f-4f85-85ff-f538a569a120"},"vehicle_type_id":"4","last_reported":1748376693,"current_range_meters":3600,"station_id":"ce4bhlh2rcd13ifvqgig","pricing_plan_id":"cebpf4jnsgd1na2vs0mg"},{"bike_id":"8a8da44b-f0bc-49bf-a97a-1dee19c6a572","system_id":"levelo_inurba_marseille","lat":43.23196,"lon":5.35557,"is_reserved":false,"is_disabled":false,"rental_uris":{"android":"levelo://app?vid=8a8da44b-f0bc-49bf-a97a-1dee19c6a572","ios":"levelo://app?vid=8a8da44b-f0bc-49bf-a97a-1dee19c6a572"},"vehicle_type_id":"4","last_reported":1748376693,"current_range_meters":3600,"station_id":"ce4bhu92rcd13ifvqi70","pricing_plan_id":"cebpf4jnsgd1na2vs0mg"},{"bike_id":"a4aef2b9-b7e8-4e2d-8340-592d28bc6c85","system_id":"levelo_inurba_marseille","lat":43.337654,"lon":5.37434,"is_reserved":false,"is_disabled":false,"rental_uris":{"android":"levelo://app?vid=a4aef2b9-b7e8-4e2d-8340-592d28bc6c85","ios":"levelo://app?vid=a4aef2b9-b7e8-4e2d-8340-592d28bc6c85"},"vehicle_type_id":"4","last_reported":1748376693,"current_range_meters":4000,"station_id":"","pricing_plan_id":"cebpf4jnsgd1na2vs0mg"},{"bike_id":"898b9e02-699b-401b-ab12-875ad1622803","system_id":"levelo_inurba_marseille","lat":43.30318,"lon":5.4046,"is_reserved":false,"is_disabled":false,"rental_uris":{"android":"levelo://app?vid=898b9e02-699b-401b-ab12-875ad1622803","ios":"levelo://app?vid=898b9e02-699b-401b-ab12-875ad1622803"},"vehicle_type_id":"4","last_reported":1748376693,"current_range_meters":4000,"station_id":"ce4bh012rcd13ifvqd10","pricing_plan_id":"cebpf4jnsgd1na2vs0mg"},{"bike_id":"4a568ae2-a4a8-4025-9735-c66d73ede3db","system_id":"levelo_inurba_marseille","lat":43.29435,"lon":5.38624,"is_reserved":false,"is_disabled":false,"rental_uris":{"android":"levelo://app?vid=4a568ae2-a4a8-4025-9735-c66d73ede3db","ios":"levelo://app?vid=4a568ae2-a4a8-4025-9735-c66d73ede3db"},"vehicle_type_id":"4","last_reported":1748376693,"current_range_meters":4000,"station_id":"ce4bh2h2rcd13ifvqdh0","pricing_plan_id":"cebpf4jnsgd1na2vs0mg"},{"bike_id":"d74483e1-13cc-4905-8a14-1a72a7c1bcaa","system_id":"levelo_inurba_marseille","lat":43.24187,"lon":5.39724,"is_reserved":false,"is_disabled":false,"rental_uris":{"android":"levelo://app?vid=d74483e1-13cc-4905-8a14-1a72a7c1bcaa","ios":"levelo://app?vid=d74483e1-13cc-4905-8a14-1a72a7c1bcaa"},"vehicle_type_id":"4","last_reported":1748376693,"current_range_meters":4000,"station_id":"ce4bhn12rcd13ifvqgpg","pricing_plan_id":"cebpf4jnsgd1na2vs0mg"},{"bike_id":"6f09a455-6782-48cf-bf56-c0c04af231c1","system_id":"levelo_inurba_marseille","lat":43.312897,"lon":5.396721,"is_reserved":false,"is_disabled":false,"rental_uris":{"android":"levelo://app?vid=6f09a455-6782-48cf-bf56-c0c04af231c1","ios":"levelo://app?vid=6f09a455-6782-48cf-bf56-c0c04af231c1"},"vehicle_type_id":"4","last_reported":1748376693,"current_range_meters":4400,"station_id":"ce4bgvp2rcd13ifvqcu0","pricing_plan_id":"cebpf4jnsgd1na2vs0mg"},{"bike_id":"958f5e27-5fd5-4623-b1af-881eec91335e","system_id":"levelo_inurba_marseille","lat":43.30586,"lon":5.39353,"is_reserved":false,"is_disabled":false,"rental_uris":{"android":"levelo://app?vid=958f5e27-5fd5-4623-b1af-881eec91335e","ios":"levelo://app?vid=958f5e27-5fd5-4623-b1af-881eec91335e"},"vehicle_type_id":"4","last_reported":1748376693,"current_range_meters":4400,"station_id":"ce4bh0p2rcd13ifvqd80","pricing_plan_id":"cebpf4jnsgd1na2vs0mg"},{"bike_id":"7333ff25-afe2-46af-83ba-9880b82997b9","system_id":"levelo_inurba_marseille","lat":43.29278,"lon":5.36846,"is_reserved":false,"is_disabled":false,"rental_uris":{"android":"levelo://app?vid=7333ff25-afe2-46af-83ba-9880b82997b9","ios":"levelo://app?vid=7333ff25-afe2-46af-83ba-9880b82997b9"},"vehicle_type_id":"4","last_reported":1748376693,"current_range_meters":4400,"station_id":"ce4bhbp2rcd13ifvqesg","pricing_plan_id":"cebpf4jnsgd1na2vs0mg"},{"bike_id":"f1733994-596a-42d8-ba1f-289ddc36b89b","system_id":"levelo_inurba_marseille","lat":43.22506,"lon":5.34786,"is_reserved":false,"is_disabled":false,"rental_uris":{"android":"levelo://app?vid=f1733994-596a-42d8-ba1f-289ddc36b89b","ios":"levelo://app?vid=f1733994-596a-42d8-ba1f-289ddc36b89b"},"vehicle_type_id":"4","last_reported":1748376693,"current_range_meters":4800,"station_id":"","pricing_plan_id":"cebpf4jnsgd1na2vs0mg"},{"bike_id":"c3d6ee44-48f9-45c6-a100-173269f4080c","system_id":"levelo_inurba_marseille","lat":43.29968,"lon":5.37182,"is_reserved":false,"is_disabled":false,"rental_uris":{"android":"levelo://app?vid=c3d6ee44-48f9-45c6-a100-173269f4080c","ios":"levelo://app?vid=c3d6ee44-48f9-45c6-a100-173269f4080c"},"vehicle_type_id":"4","last_reported":1748376693,"current_range_meters":4800,"station_id":"ce4bgr92rcd13ifvqc7g","pricing_plan_id":"cebpf4jnsgd1na2vs0mg"},{"bike_id":"d1d07265-67c4-4087-a02f-85ca9471cdab","system_id":"levelo_inurba_marseille","lat":43.29532,"lon":5.39394,"is_reserved":false,"is_disabled":false,"rental_uris":{"android":"levelo://app?vid=d1d07265-67c4-4087-a02f-85ca9471cdab","ios":"levelo://app?vid=d1d07265-67c4-4087-a02f-85ca9471cdab"},"vehicle_type_id":"4","last_reported":1748376693,"current_range_meters":4800,"station_id":"ce4bh292rcd13ifvqdf0","pricing_plan_id":"cebpf4jnsgd1na2vs0mg"},{"bike_id":"b90a1741-ff58-4f93-af8a-6ed3ec765f04","system_id":"levelo_inurba_marseille","lat":43.275567,"lon":5.384307,"is_reserved":false,"is_disabled":false,"rental_uris":{"android":"levelo://app?vid=b90a1741-ff58-4f93-af8a-6ed3ec765f04","ios":"levelo://app?vid=b90a1741-ff58-4f93-af8a-6ed3ec765f04"},"vehicle_type_id":"4","last_reported":1748376693,"current_range_meters":4800,"station_id":"ce4bhh92rcd13ifvqfi0","pricing_plan_id":"cebpf4jnsgd1na2vs0mg"},{"bike_id":"ab8fa819-2481-4db1-9320-6d372b84d192","system_id":"levelo_inurba_marseille","lat":43.29968,"lon":5.37169,"is_reserved":false,"is_disabled":false,"rental_uris":{"android":"levelo://app?vid=ab8fa819-2481-4db1-9320-6d372b84d192","ios":"levelo://app?vid=ab8fa819-2481-4db1-9320-6d372b84d192"},"vehicle_type_id":"4","last_reported":1748376693,"current_range_meters":5600,"station_id":"ce4bgr92rcd13ifvqc7g","pricing_plan_id":"cebpf4jnsgd1na2vs0mg"},{"bike_id":"97bb29e8-c1f3-48e0-a960-1c3cf1d15013","system_id":"levelo_inurba_marseille","lat":43.28726,"lon":5.37937,"is_reserved":false,"is_disabled":false,"rental_uris":{"android":"levelo://app?vid=97bb29e8-c1f3-48e0-a960-1c3cf1d15013","ios":"levelo://app?vid=97bb29e8-c1f3-48e0-a960-1c3cf1d15013"},"vehicle_type_id":"4","last_reported":1748376693,"current_range_meters":5600,"station_id":"ce4bh9p2rcd13ifvqec0","pricing_plan_id":"cebpf4jnsgd1na2vs0mg"},{"bike_id":"9b33e131-456f-4624-8691-a7cd4e3c6065","system_id":"levelo_inurba_marseille","lat":43.27383,"lon":5.3624,"is_reserved":false,"is_disabled":false,"rental_uris":{"android":"levelo://app?vid=9b33e131-456f-4624-8691-a7cd4e3c6065","ios":"levelo://app?vid=9b33e131-456f-4624-8691-a7cd4e3c6065"},"vehicle_type_id":"4","last_reported":1748376693,"current_range_meters":5600,"station_id":"ce4bhbh2rcd13ifvqeo0","pricing_plan_id":"cebpf4jnsgd1na2vs0mg"},{"bike_id":"2d031914-55fe-4fc7-beed-b6d7d399f2c1","system_id":"levelo_inurba_marseille","lat":43.32107,"lon":5.36767,"is_reserved":false,"is_disabled":false,"rental_uris":{"android":"levelo://app?vid=2d031914-55fe-4fc7-beed-b6d7d399f2c1","ios":"levelo://app?vid=2d031914-55fe-4fc7-beed-b6d7d399f2c1"},"vehicle_type_id":"4","last_reported":1748376693,"current_range_meters":5600,"station_id":"ce4bhrh2rcd13ifvqhug","pricing_plan_id":"cebpf4jnsgd1na2vs0mg"},{"bike_id":"4ef6f8be-781a-4a6c-9c6a-fa0d71e78ea9","system_id":"levelo_inurba_marseille","lat":43.2926,"lon":5.38432,"is_reserved":false,"is_disabled":false,"rental_uris":{"android":"levelo://app?vid=4ef6f8be-781a-4a6c-9c6a-fa0d71e78ea9","ios":"levelo://app?vid=4ef6f8be-781a-4a6c-9c6a-fa0d71e78ea9"},"vehicle_type_id":"4","last_reported":1748376693,"current_range_meters":6000,"station_id":"ce4bh692rcd13ifvqea0","pricing_plan_id":"cebpf4jnsgd1na2vs0mg"},{"bike_id":"468951a3-6939-489f-b4e1-fd78df15097a","system_id":"levelo_inurba_marseille","lat":43.29201,"lon":5.35805,"is_reserved":false,"is_disabled":false,"rental_uris":{"android":"levelo://app?vid=468951a3-6939-489f-b4e1-fd78df15097a","ios":"levelo://app?vid=468951a3-6939-489f-b4e1-fd78df15097a"},"vehicle_type_id":"4","last_reported":1748376693,"current_range_meters":6000,"station_id":"ce4bhb12rcd13ifvqel0","pricing_plan_id":"cebpf4jnsgd1na2vs0mg"},{"bike_id":"a266fb40-f722-442b-adc8-3f3dc7a9b8b2","system_id":"levelo_inurba_marseille","lat":43.23964,"lon":5.3663,"is_reserved":false,"is_disabled":false,"rental_uris":{"android":"levelo://app?vid=a266fb40-f722-442b-adc8-3f3dc7a9b8b2","ios":"levelo://app?vid=a266fb40-f722-442b-adc8-3f3dc7a9b8b2"},"vehicle_type_id":"4","last_reported":1748376693,"current_range_meters":6000,"station_id":"ce4bhi12rcd13ifvqfp0","pricing_plan_id":"cebpf4jnsgd1na2vs0mg"},{"bike_id":"2d393347-525f-40cd-8bc8-636e6636ef28","system_id":"levelo_inurba_marseille","lat":43.26232,"lon":5.40451,"is_reserved":false,"is_disabled":false,"rental_uris":{"android":"levelo://app?vid=2d393347-525f-40cd-8bc8-636e6636ef28","ios":"levelo://app?vid=2d393347-525f-40cd-8bc8-636e6636ef28"},"vehicle_type_id":"4","last_reported":1748376693,"current_range_meters":6000,"station_id":"ce4bhmh2rcd13ifvqgmg","pricing_plan_id":"cebpf4jnsgd1na2vs0mg"},{"bike_id":"8e1e3d14-39e1-40c6-a572-79984978bd7d","system_id":"levelo_inurba_marseille","lat":43.22506,"lon":5.34743,"is_reserved":false,"is_disabled":false,"rental_uris":{"android":"levelo://app?vid=8e1e3d14-39e1-40c6-a572-79984978bd7d","ios":"levelo://app?vid=8e1e3d14-39e1-40c6-a572-79984978bd7d"},"vehicle_type_id":"4","last_reported":1748376693,"current_range_meters":6400,"station_id":"","pricing_plan_id":"cebpf4jnsgd1na2vs0mg"},{"bike_id":"b35024a9-41a4-4a3a-9070-5561aa5f102f","system_id":"levelo_inurba_marseille","lat":43.31491,"lon":5.37304,"is_reserved":false,"is_disabled":false,"rental_uris":{"android":"levelo://app?vid=b35024a9-41a4-4a3a-9070-5561aa5f102f","ios":"levelo://app?vid=b35024a9-41a4-4a3a-9070-5561aa5f102f"},"vehicle_type_id":"4","last_reported":1748376693,"current_range_meters":6400,"station_id":"ce4bgt12rcd13ifvqcd0","pricing_plan_id":"cebpf4jnsgd1na2vs0mg"},{"bike_id":"c2b0a191-bf31-4e89-8dc5-11d646e535b1","system_id":"levelo_inurba_marseille","lat":43.254969,"lon":5.37649,"is_reserved":false,"is_disabled":false,"rental_uris":{"android":"levelo://app?vid=c2b0a191-bf31-4e89-8dc5-11d646e535b1","ios":"levelo://app?vid=c2b0a191-bf31-4e89-8dc5-11d646e535b1"},"vehicle_type_id":"4","last_reported":1748376693,"current_range_meters":6800,"station_id":"","pricing_plan_id":"cebpf4jnsgd1na2vs0mg"},{"bike_id":"301bf0f9-9b48-466e-a883-4d218136fa68","system_id":"levelo_inurba_marseille","lat":43.28705,"lon":5.37399,"is_reserved":false,"is_disabled":false,"rental_uris":{"android":"levelo://app?vid=301bf0f9-9b48-466e-a883-4d218136fa68","ios":"levelo://app?vid=301bf0f9-9b48-466e-a883-4d218136fa68"},"vehicle_type_id":"4","last_reported":1748376693,"current_range_meters":6800,"station_id":"ce4bh3p2rcd13ifvqdq0","pricing_plan_id":"cebpf4jnsgd1na2vs0mg"},{"bike_id":"3746826c-355e-43cc-89e4-fc40b571f984","system_id":"levelo_inurba_marseille","lat":43.29004,"lon":5.38129,"is_reserved":false,"is_disabled":false,"rental_uris":{"android":"levelo://app?vid=3746826c-355e-43cc-89e4-fc40b571f984","ios":"levelo://app?vid=3746826c-355e-43cc-89e4-fc40b571f984"},"vehicle_type_id":"4","last_reported":1748376693,"current_range_meters":6800,"station_id":"ce4bh4p2rcd13ifvqe1g","pricing_plan_id":"cebpf4jnsgd1na2vs0mg"},{"bike_id":"1a0998e5-8bb9-474f-a827-53cad24c9e8f","system_id":"levelo_inurba_marseille","lat":43.32032,"lon":5.44951,"is_reserved":false,"is_disabled":false,"rental_uris":{"android":"levelo://app?vid=1a0998e5-8bb9-474f-a827-53cad24c9e8f","ios":"levelo://app?vid=1a0998e5-8bb9-474f-a827-53cad24c9e8f"},"vehicle_type_id":"4","last_reported":1748376693,"current_range_meters":7200,"station_id":"","pricing_plan_id":"cebpf4jnsgd1na2vs0mg"},{"bike_id":"e34c69f5-0dcc-49c0-8c69-a3b930ec7eae","system_id":"levelo_inurba_marseille","lat":43.29041,"lon":5.38121,"is_reserved":false,"is_disabled":false,"rental_uris":{"android":"levelo://app?vid=e34c69f5-0dcc-49c0-8c69-a3b930ec7eae","ios":"levelo://app?vid=e34c69f5-0dcc-49c0-8c69-a3b930ec7eae"},"vehicle_type_id":"4","last_reported":1748376693,"current_range_meters":7200,"station_id":"ce4bh4p2rcd13ifvqe1g","pricing_plan_id":"cebpf4jnsgd1na2vs0mg"},{"bike_id":"2621921b-742a-4cef-8fb9-86afebf4ef48","system_id":"levelo_inurba_marseille","lat":43.26806,"lon":5.40263,"is_reserved":false,"is_disabled":false,"rental_uris":{"android":"levelo://app?vid=2621921b-742a-4cef-8fb9-86afebf4ef48","ios":"levelo://app?vid=2621921b-742a-4cef-8fb9-86afebf4ef48"},"vehicle_type_id":"4","last_reported":1748376693,"current_range_meters":7200,"station_id":"ce501612rcd8frsf0b60","pricing_plan_id":"cebpf4jnsgd1na2vs0mg"},{"bike_id":"ae6e6868-2635-4f49-b7c1-b03759c58ec7","system_id":"levelo_inurba_marseille","lat":43.2729,"lon":5.4162,"is_reserved":false,"is_disabled":false,"rental_uris":{"android":"levelo://app?vid=ae6e6868-2635-4f49-b7c1-b03759c58ec7","ios":"levelo://app?vid=ae6e6868-2635-4f49-b7c1-b03759c58ec7"},"vehicle_type_id":"4","last_reported":1748376693,"current_range_meters":8000,"station_id":"","pricing_plan_id":"cebpf4jnsgd1na2vs0mg"},{"bike_id":"8ac2acc6-b767-4c1c-bcde-982458034c88","system_id":"levelo_inurba_marseille","lat":43.31196,"lon":5.41608,"is_reserved":false,"is_disabled":false,"rental_uris":{"android":"levelo://app?vid=8ac2acc6-b767-4c1c-bcde-982458034c88","ios":"levelo://app?vid=8ac2acc6-b767-4c1c-bcde-982458034c88"},"vehicle_type_id":"4","last_reported":1748376693,"current_range_meters":8000,"station_id":"","pricing_plan_id":"cebpf4jnsgd1na2vs0mg"},{"bike_id":"800c3dea-d041-424f-ac49-027da832df67","system_id":"levelo_inurba_marseille","lat":43.31692,"lon":5.40462,"is_reserved":false,"is_disabled":false,"rental_uris":{"android":"levelo://app?vid=800c3dea-d041-424f-ac49-027da832df67","ios":"levelo://app?vid=800c3dea-d041-424f-ac49-027da832df67"},"vehicle_type_id":"4","last_reported":1748376693,"current_range_meters":8000,"station_id":"ce4bh012rcd13ifvqd00","pricing_plan_id":"cebpf4jnsgd1na2vs0mg"},{"bike_id":"2badb821-2859-4b8d-9b1a-9dfbe62ae729","system_id":"levelo_inurba_marseille","lat":43.30314,"lon":5.40441,"is_reserved":false,"is_disabled":false,"rental_uris":{"android":"levelo://app?vid=2badb821-2859-4b8d-9b1a-9dfbe62ae729","ios":"levelo://app?vid=2badb821-2859-4b8d-9b1a-9dfbe62ae729"},"vehicle_type_id":"4","last_reported":1748376693,"current_range_meters":8000,"station_id":"ce4bh012rcd13ifvqd10","pricing_plan_id":"cebpf4jnsgd1na2vs0mg"},{"bike_id":"c3da2462-fc3a-44c7-8beb-dedf964ca089","system_id":"levelo_inurba_marseille","lat":43.30591,"lon":5.39355,"is_reserved":false,"is_disabled":false,"rental_uris":{"android":"levelo://app?vid=c3da2462-fc3a-44c7-8beb-dedf964ca089","ios":"levelo://app?vid=c3da2462-fc3a-44c7-8beb-dedf964ca089"},"vehicle_type_id":"4","last_reported":1748376693,"current_range_meters":8000,"station_id":"ce4bh0p2rcd13ifvqd80","pricing_plan_id":"cebpf4jnsgd1na2vs0mg"},{"bike_id":"ccdcb2e8-1760-498b-8ad3-eb1907048d28","system_id":"levelo_inurba_marseille","lat":43.29083,"lon":5.38148,"is_reserved":false,"is_disabled":false,"rental_uris":{"android":"levelo://app?vid=ccdcb2e8-1760-498b-8ad3-eb1907048d28","ios":"levelo://app?vid=ccdcb2e8-1760-498b-8ad3-eb1907048d28"},"vehicle_type_id":"4","last_reported":1748376693,"current_range_meters":8000,"station_id":"ce4bh512rcd13ifvqe2g","pricing_plan_id":"cebpf4jnsgd1na2vs0mg"},{"bike_id":"ea193f36-8785-4194-9e02-2eaa50f655eb","system_id":"levelo_inurba_marseille","lat":43.29265,"lon":5.38437,"is_reserved":false,"is_disabled":false,"rental_uris":{"android":"levelo://app?vid=ea193f36-8785-4194-9e02-2eaa50f655eb","ios":"levelo://app?vid=ea193f36-8785-4194-9e02-2eaa50f655eb"},"vehicle_type_id":"4","last_reported":1748376693,"current_range_meters":8000,"station_id":"ce4bh692rcd13ifvqea0","pricing_plan_id":"cebpf4jnsgd1na2vs0mg"},{"bike_id":"9bef3f76-900f-4ee6-9311-4e2b8039b880","system_id":"levelo_inurba_marseille","lat":43.2926,"lon":5.384383,"is_reserved":false,"is_disabled":false,"rental_uris":{"android":"levelo://app?vid=9bef3f76-900f-4ee6-9311-4e2b8039b880","ios":"levelo://app?vid=9bef3f76-900f-4ee6-9311-4e2b8039b880"},"vehicle_type_id":"4","last_reported":1748376693,"current_range_meters":8000,"station_id":"ce4bh692rcd13ifvqea0","pricing_plan_id":"cebpf4jnsgd1na2vs0mg"},{"bike_id":"fbf5c48a-f0e3-4aa3-9fb6-5a14c1ed4468","system_id":"levelo_inurba_marseille","lat":43.26554,"lon":5.37299,"is_reserved":false,"is_disabled":false,"rental_uris":{"android":"levelo://app?vid=fbf5c48a-f0e3-4aa3-9fb6-5a14c1ed4468","ios":"levelo://app?vid=fbf5c48a-f0e3-4aa3-9fb6-5a14c1ed4468"},"vehicle_type_id":"4","last_reported":1748376693,"current_range_meters":8000,"station_id":"ce4bhg12rcd13ifvqf70","pricing_plan_id":"cebpf4jnsgd1na2vs0mg"},{"bike_id":"e8c6544a-69c2-4947-9d3a-ccead4c4d5dd","system_id":"levelo_inurba_marseille","lat":43.25506,"lon":5.37654,"is_reserved":false,"is_disabled":false,"rental_uris":{"android":"levelo://app?vid=e8c6544a-69c2-4947-9d3a-ccead4c4d5dd","ios":"levelo://app?vid=e8c6544a-69c2-4947-9d3a-ccead4c4d5dd"},"vehicle_type_id":"4","last_reported":1748376693,"current_range_meters":8000,"station_id":"ce4bhh12rcd13ifvqff0","pricing_plan_id":"cebpf4jnsgd1na2vs0mg"},{"bike_id":"e36fe1bc-2ef4-4641-a8c9-c83263edcdc8","system_id":"levelo_inurba_marseille","lat":43.25721,"lon":5.41111,"is_reserved":false,"is_disabled":false,"rental_uris":{"android":"levelo://app?vid=e36fe1bc-2ef4-4641-a8c9-c83263edcdc8","ios":"levelo://app?vid=e36fe1bc-2ef4-4641-a8c9-c83263edcdc8"},"vehicle_type_id":"4","last_reported":1748376693,"current_range_meters":8000,"station_id":"ce4bhkp2rcd13ifvqgd0","pricing_plan_id":"cebpf4jnsgd1na2vs0mg"},{"bike_id":"89f94e95-596b-42d3-ae40-5c32f0faaf18","system_id":"levelo_inurba_marseille","lat":43.32338,"lon":5.40623,"is_reserved":false,"is_disabled":false,"rental_uris":{"android":"levelo://app?vid=89f94e95-596b-42d3-ae40-5c32f0faaf18","ios":"levelo://app?vid=89f94e95-596b-42d3-ae40-5c32f0faaf18"},"vehicle_type_id":"4","last_reported":1748376693,"current_range_meters":8000,"station_id":"ce4bhq92rcd13ifvqhjg","pricing_plan_id":"cebpf4jnsgd1na2vs0mg"},{"bike_id":"9946121a-e441-4db9-b342-d50b7a06f604","system_id":"levelo_inurba_marseille","lat":43.31731,"lon":5.37745,"is_reserved":false,"is_disabled":false,"rental_uris":{"android":"levelo://app?vid=9946121a-e441-4db9-b342-d50b7a06f604","ios":"levelo://app?vid=9946121a-e441-4db9-b342-d50b7a06f604"},"vehicle_type_id":"4","last_reported":1748376693,"current_range_meters":8400,"station_id":"ce4bgth2rcd13ifvqch0","pricing_plan_id":"cebpf4jnsgd1na2vs0mg"},{"bike_id":"71c3c26b-dbd0-45d0-80eb-41fe0433ad32","system_id":"levelo_inurba_marseille","lat":43.31072,"lon":5.38349,"is_reserved":false,"is_disabled":false,"rental_uris":{"android":"levelo://app?vid=71c3c26b-dbd0-45d0-80eb-41fe0433ad32","ios":"levelo://app?vid=71c3c26b-dbd0-45d0-80eb-41fe0433ad32"},"vehicle_type_id":"4","last_reported":1748376693,"current_range_meters":8400,"station_id":"ce4bgv92rcd13ifvqcr0","pricing_plan_id":"cebpf4jnsgd1na2vs0mg"},{"bike_id":"a382f3df-edfa-456b-8f81-d62e49146343","system_id":"levelo_inurba_marseille","lat":43.30877,"lon":5.3962,"is_reserved":false,"is_disabled":false,"rental_uris":{"android":"levelo://app?vid=a382f3df-edfa-456b-8f81-d62e49146343","ios":"levelo://app?vid=a382f3df-edfa-456b-8f81-d62e49146343"},"vehicle_type_id":"4","last_reported":1748376693,"current_range_meters":8400,"station_id":"ce4bh012rcd13ifvqcv0","pricing_plan_id":"cebpf4jnsgd1na2vs0mg"},{"bike_id":"d4bb0c74-3b3f-459a-bcc3-8e388dc68a97","system_id":"levelo_inurba_marseille","lat":43.28429,"lon":5.37517,"is_reserved":false,"is_disabled":false,"rental_uris":{"android":"levelo://app?vid=d4bb0c74-3b3f-459a-bcc3-8e388dc68a97","ios":"levelo://app?vid=d4bb0c74-3b3f-459a-bcc3-8e388dc68a97"},"vehicle_type_id":"4","last_reported":1748376693,"current_range_meters":8400,"station_id":"ce4bh412rcd13ifvqds0","pricing_plan_id":"cebpf4jnsgd1na2vs0mg"},{"bike_id":"5fd7bf73-f74f-429e-a5b6-3be8d868e159","system_id":"levelo_inurba_marseille","lat":43.297906,"lon":5.370863,"is_reserved":false,"is_disabled":false,"rental_uris":{"android":"levelo://app?vid=5fd7bf73-f74f-429e-a5b6-3be8d868e159","ios":"levelo://app?vid=5fd7bf73-f74f-429e-a5b6-3be8d868e159"},"vehicle_type_id":"4","last_reported":1748376693,"current_range_meters":8800,"station_id":"ce4bgop2rcd13ifvqc1g","pricing_plan_id":"cebpf4jnsgd1na2vs0mg"},{"bike_id":"ee2854d8-d4a9-40b9-a011-3de6c41ab855","system_id":"levelo_inurba_marseille","lat":43.30595,"lon":5.39347,"is_reserved":false,"is_disabled":false,"rental_uris":{"android":"levelo://app?vid=ee2854d8-d4a9-40b9-a011-3de6c41ab855","ios":"levelo://app?vid=ee2854d8-d4a9-40b9-a011-3de6c41ab855"},"vehicle_type_id":"4","last_reported":1748376693,"current_range_meters":8800,"station_id":"ce4bh0p2rcd13ifvqd80","pricing_plan_id":"cebpf4jnsgd1na2vs0mg"},{"bike_id":"099adafd-f2fb-48ac-8ad0-2acaeae469e3","system_id":"levelo_inurba_marseille","lat":43.29053,"lon":5.3716,"is_reserved":false,"is_disabled":false,"rental_uris":{"android":"levelo://app?vid=099adafd-f2fb-48ac-8ad0-2acaeae469e3","ios":"levelo://app?vid=099adafd-f2fb-48ac-8ad0-2acaeae469e3"},"vehicle_type_id":"4","last_reported":1748376693,"current_range_meters":8800,"station_id":"ce4bh5p2rcd13ifvqe4g","pricing_plan_id":"cebpf4jnsgd1na2vs0mg"},{"bike_id":"ecec0dbe-0ccb-470d-bc6b-7e71f374730a","system_id":"levelo_inurba_marseille","lat":43.23955,"lon":5.36632,"is_reserved":false,"is_disabled":false,"rental_uris":{"android":"levelo://app?vid=ecec0dbe-0ccb-470d-bc6b-7e71f374730a","ios":"levelo://app?vid=ecec0dbe-0ccb-470d-bc6b-7e71f374730a"},"vehicle_type_id":"4","last_reported":1748376693,"current_range_meters":8800,"station_id":"ce4bhi12rcd13ifvqfp0","pricing_plan_id":"cebpf4jnsgd1na2vs0mg"},{"bike_id":"2b5efce0-4b3a-45ee-8770-109dbd21df1b","system_id":"levelo_inurba_marseille","lat":43.287018,"lon":5.399816,"is_reserved":false,"is_disabled":false,"rental_uris":{"android":"levelo://app?vid=2b5efce0-4b3a-45ee-8770-109dbd21df1b","ios":"levelo://app?vid=2b5efce0-4b3a-45ee-8770-109dbd21df1b"},"vehicle_type_id":"4","last_reported":1748376693,"current_range_meters":8800,"station_id":"ce4bho92rcd13ifvqh3g","pricing_plan_id":"cebpf4jnsgd1na2vs0mg"},{"bike_id":"cb5a52ee-01d0-4ad5-af5c-015c091ae7b5","system_id":"levelo_inurba_marseille","lat":43.29553,"lon":5.42286,"is_reserved":false,"is_disabled":false,"rental_uris":{"android":"levelo://app?vid=cb5a52ee-01d0-4ad5-af5c-015c091ae7b5","ios":"levelo://app?vid=cb5a52ee-01d0-4ad5-af5c-015c091ae7b5"},"vehicle_type_id":"4","last_reported":1748376693,"current_range_meters":8800,"station_id":"ce4bhph2rcd13ifvqhdg","pricing_plan_id":"cebpf4jnsgd1na2vs0mg"},{"bike_id":"b420bedd-1822-418b-8f43-91462bec6d21","system_id":"levelo_inurba_marseille","lat":43.3249,"lon":5.36565,"is_reserved":false,"is_disabled":false,"rental_uris":{"android":"levelo://app?vid=b420bedd-1822-418b-8f43-91462bec6d21","ios":"levelo://app?vid=b420bedd-1822-418b-8f43-91462bec6d21"},"vehicle_type_id":"4","last_reported":1748376693,"current_range_meters":8800,"station_id":"ce4bhs12rcd13ifvqhvg","pricing_plan_id":"cebpf4jnsgd1na2vs0mg"},{"bike_id":"f4dd589b-5b58-470a-a2c9-9de3a4398e71","system_id":"levelo_inurba_marseille","lat":43.22957,"lon":5.35343,"is_reserved":false,"is_disabled":false,"rental_uris":{"android":"levelo://app?vid=f4dd589b-5b58-470a-a2c9-9de3a4398e71","ios":"levelo://app?vid=f4dd589b-5b58-470a-a2c9-9de3a4398e71"},"vehicle_type_id":"4","last_reported":1748376693,"current_range_meters":8800,"station_id":"cpo3532slgdg3j2ikp40","pricing_plan_id":"cebpf4jnsgd1na2vs0mg"},{"bike_id":"0c82887c-0046-4b11-be97-7579c1a27f27","system_id":"levelo_inurba_marseille","lat":43.30442,"lon":5.38889,"is_reserved":false,"is_disabled":false,"rental_uris":{"android":"levelo://app?vid=0c82887c-0046-4b11-be97-7579c1a27f27","ios":"levelo://app?vid=0c82887c-0046-4b11-be97-7579c1a27f27"},"vehicle_type_id":"4","last_reported":1748376693,"current_range_meters":9200,"station_id":"ce4bgk12rcd13ifvqbi0","pricing_plan_id":"cebpf4jnsgd1na2vs0mg"},{"bike_id":"6b40a792-0aca-4252-b9b0-21b20520c5bd","system_id":"levelo_inurba_marseille","lat":43.306,"lon":5.39344,"is_reserved":false,"is_disabled":false,"rental_uris":{"android":"levelo://app?vid=6b40a792-0aca-4252-b9b0-21b20520c5bd","ios":"levelo://app?vid=6b40a792-0aca-4252-b9b0-21b20520c5bd"},"vehicle_type_id":"4","last_reported":1748376693,"current_range_meters":9200,"station_id":"ce4bh0p2rcd13ifvqd80","pricing_plan_id":"cebpf4jnsgd1na2vs0mg"},{"bike_id":"1031a0de-1a80-4c50-9132-2decfc1c7d44","system_id":"levelo_inurba_marseille","lat":43.23181,"lon":5.39993,"is_reserved":false,"is_disabled":false,"rental_uris":{"android":"levelo://app?vid=1031a0de-1a80-4c50-9132-2decfc1c7d44","ios":"levelo://app?vid=1031a0de-1a80-4c50-9132-2decfc1c7d44"},"vehicle_type_id":"4","last_reported":1748376693,"current_range_meters":9200,"station_id":"ce4bhn12rcd13ifvqgqg","pricing_plan_id":"cebpf4jnsgd1na2vs0mg"},{"bike_id":"920d1e7a-edd5-425a-b16b-eb3ad90fb3b9","system_id":"levelo_inurba_marseille","lat":43.31739,"lon":5.3902,"is_reserved":false,"is_disabled":false,"rental_uris":{"android":"levelo://app?vid=920d1e7a-edd5-425a-b16b-eb3ad90fb3b9","ios":"levelo://app?vid=920d1e7a-edd5-425a-b16b-eb3ad90fb3b9"},"vehicle_type_id":"4","last_reported":1748376693,"current_range_meters":9200,"station_id":"ce4bhqp2rcd13ifvqhng","pricing_plan_id":"cebpf4jnsgd1na2vs0mg"},{"bike_id":"e6c65de3-7d92-4979-809c-6677188473c0","system_id":"levelo_inurba_marseille","lat":43.337598,"lon":5.374632,"is_reserved":false,"is_disabled":false,"rental_uris":{"android":"levelo://app?vid=e6c65de3-7d92-4979-809c-6677188473c0","ios":"levelo://app?vid=e6c65de3-7d92-4979-809c-6677188473c0"},"vehicle_type_id":"4","last_reported":1748376693,"current_range_meters":9600,"station_id":"","pricing_plan_id":"cebpf4jnsgd1na2vs0mg"},{"bike_id":"6ef27e84-462a-46f9-afe5-e09b209cc7f0","system_id":"levelo_inurba_marseille","lat":43.33119,"lon":5.36201,"is_reserved":false,"is_disabled":false,"rental_uris":{"android":"levelo://app?vid=6ef27e84-462a-46f9-afe5-e09b209cc7f0","ios":"levelo://app?vid=6ef27e84-462a-46f9-afe5-e09b209cc7f0"},"vehicle_type_id":"4","last_reported":1748376693,"current_range_meters":9600,"station_id":"","pricing_plan_id":"cebpf4jnsgd1na2vs0mg"},{"bike_id":"164bae37-e7d4-4b68-a426-3db937a3b53a","system_id":"levelo_inurba_marseille","lat":43.29906,"lon":5.38593,"is_reserved":false,"is_disabled":false,"rental_uris":{"android":"levelo://app?vid=164bae37-e7d4-4b68-a426-3db937a3b53a","ios":"levelo://app?vid=164bae37-e7d4-4b68-a426-3db937a3b53a"},"vehicle_type_id":"4","last_reported":1748376693,"current_range_meters":9600,"station_id":"ce4bgrp2rcd13ifvqc9g","pricing_plan_id":"cebpf4jnsgd1na2vs0mg"},{"bike_id":"765507f4-4472-41a3-99a1-e5ed81e33e54","system_id":"levelo_inurba_marseille","lat":43.28423,"lon":5.3751,"is_reserved":false,"is_disabled":false,"rental_uris":{"android":"levelo://app?vid=765507f4-4472-41a3-99a1-e5ed81e33e54","ios":"levelo://app?vid=765507f4-4472-41a3-99a1-e5ed81e33e54"},"vehicle_type_id":"4","last_reported":1748376693,"current_range_meters":9600,"station_id":"ce4bh412rcd13ifvqds0","pricing_plan_id":"cebpf4jnsgd1na2vs0mg"},{"bike_id":"e2041b4b-a7f7-46f6-84e8-03466304ce7c","system_id":"levelo_inurba_marseille","lat":43.290243,"lon":5.381295,"is_reserved":false,"is_disabled":false,"rental_uris":{"android":"levelo://app?vid=e2041b4b-a7f7-46f6-84e8-03466304ce7c","ios":"levelo://app?vid=e2041b4b-a7f7-46f6-84e8-03466304ce7c"},"vehicle_type_id":"4","last_reported":1748376693,"current_range_meters":9600,"station_id":"ce4bh4p2rcd13ifvqe1g","pricing_plan_id":"cebpf4jnsgd1na2vs0mg"},{"bike_id":"2e5cce9f-81f7-4320-a6da-4b2de75835b8","system_id":"levelo_inurba_marseille","lat":43.320515,"lon":5.415512,"is_reserved":false,"is_disabled":false,"rental_uris":{"android":"levelo://app?vid=2e5cce9f-81f7-4320-a6da-4b2de75835b8","ios":"levelo://app?vid=2e5cce9f-81f7-4320-a6da-4b2de75835b8"},"vehicle_type_id":"4","last_reported":1748376693,"current_range_meters":9600,"station_id":"ce4bhq92rcd13ifvqhkg","pricing_plan_id":"cebpf4jnsgd1na2vs0mg"},{"bike_id":"2a046dee-b3af-48c9-9659-b7d30ba20af5","system_id":"levelo_inurba_marseille","lat":43.24317,"lon":5.37987,"is_reserved":false,"is_disabled":false,"rental_uris":{"android":"levelo://app?vid=2a046dee-b3af-48c9-9659-b7d30ba20af5","ios":"levelo://app?vid=2a046dee-b3af-48c9-9659-b7d30ba20af5"},"vehicle_type_id":"4","last_reported":1748376693,"current_range_meters":10000,"station_id":"","pricing_plan_id":"cebpf4jnsgd1na2vs0mg"},{"bike_id":"f0d83b53-4594-4033-afb0-0d9b1a402851","system_id":"levelo_inurba_marseille","lat":43.31125,"lon":5.37762,"is_reserved":false,"is_disabled":false,"rental_uris":{"android":"levelo://app?vid=f0d83b53-4594-4033-afb0-0d9b1a402851","ios":"levelo://app?vid=f0d83b53-4594-4033-afb0-0d9b1a402851"},"vehicle_type_id":"4","last_reported":1748376693,"current_range_meters":10000,"station_id":"ce4bgt92rcd13ifvqcg0","pricing_plan_id":"cebpf4jnsgd1na2vs0mg"},{"bike_id":"f186b7ce-a6c7-4f8b-bbd3-58c3ae9f5edc","system_id":"levelo_inurba_marseille","lat":43.30112,"lon":5.39065,"is_reserved":false,"is_disabled":false,"rental_uris":{"android":"levelo://app?vid=f186b7ce-a6c7-4f8b-bbd3-58c3ae9f5edc","ios":"levelo://app?vid=f186b7ce-a6c7-4f8b-bbd3-58c3ae9f5edc"},"vehicle_type_id":"4","last_reported":1748376693,"current_range_meters":10000,"station_id":"ce4bh192rcd13ifvqdb0","pricing_plan_id":"cebpf4jnsgd1na2vs0mg"},{"bike_id":"a55af55d-a66a-4ca4-89b5-254351fe9d8a","system_id":"levelo_inurba_marseille","lat":43.29877,"lon":5.38909,"is_reserved":false,"is_disabled":false,"rental_uris":{"android":"levelo://app?vid=a55af55d-a66a-4ca4-89b5-254351fe9d8a","ios":"levelo://app?vid=a55af55d-a66a-4ca4-89b5-254351fe9d8a"},"vehicle_type_id":"4","last_reported":1748376693,"current_range_meters":10000,"station_id":"ce4bh392rcd13ifvqdl0","pricing_plan_id":"cebpf4jnsgd1na2vs0mg"},{"bike_id":"ddb91082-4722-4770-bd2c-0e7cd7a0719c","system_id":"levelo_inurba_marseille","lat":43.28423,"lon":5.3752,"is_reserved":false,"is_disabled":false,"rental_uris":{"android":"levelo://app?vid=ddb91082-4722-4770-bd2c-0e7cd7a0719c","ios":"levelo://app?vid=ddb91082-4722-4770-bd2c-0e7cd7a0719c"},"vehicle_type_id":"4","last_reported":1748376693,"current_range_meters":10000,"station_id":"ce4bh412rcd13ifvqds0","pricing_plan_id":"cebpf4jnsgd1na2vs0mg"},{"bike_id":"359cf9fd-e9de-4c08-ace7-3389e39e92c2","system_id":"levelo_inurba_marseille","lat":43.299103,"lon":5.382879,"is_reserved":false,"is_disabled":false,"rental_uris":{"android":"levelo://app?vid=359cf9fd-e9de-4c08-ace7-3389e39e92c2","ios":"levelo://app?vid=359cf9fd-e9de-4c08-ace7-3389e39e92c2"},"vehicle_type_id":"4","last_reported":1748376693,"current_range_meters":10800,"station_id":"","pricing_plan_id":"cebpf4jnsgd1na2vs0mg"},{"bike_id":"b4f755e4-1b37-4f94-a937-0d3ce3b657db","system_id":"levelo_inurba_marseille","lat":43.298075,"lon":5.3807,"is_reserved":false,"is_disabled":false,"rental_uris":{"android":"levelo://app?vid=b4f755e4-1b37-4f94-a937-0d3ce3b657db","ios":"levelo://app?vid=b4f755e4-1b37-4f94-a937-0d3ce3b657db"},"vehicle_type_id":"4","last_reported":1748376693,"current_range_meters":10800,"station_id":"ce4bgip2rcd13ifvqbb0","pricing_plan_id":"cebpf4jnsgd1na2vs0mg"},{"bike_id":"cc5a9df5-b0f5-4f9b-bb60-918eede94369","system_id":"levelo_inurba_marseille","lat":43.31217,"lon":5.36866,"is_reserved":false,"is_disabled":false,"rental_uris":{"android":"levelo://app?vid=cc5a9df5-b0f5-4f9b-bb60-918eede94369","ios":"levelo://app?vid=cc5a9df5-b0f5-4f9b-bb60-918eede94369"},"vehicle_type_id":"4","last_reported":1748376693,"current_range_meters":10800,"station_id":"ce4bgl92rcd13ifvqbq0","pricing_plan_id":"cebpf4jnsgd1na2vs0mg"},{"bike_id":"1bc2e38c-0f2a-436f-9c6b-ca4dfffbca40","system_id":"levelo_inurba_marseille","lat":43.29429,"lon":5.38624,"is_reserved":false,"is_disabled":false,"rental_uris":{"android":"levelo://app?vid=1bc2e38c-0f2a-436f-9c6b-ca4dfffbca40","ios":"levelo://app?vid=1bc2e38c-0f2a-436f-9c6b-ca4dfffbca40"},"vehicle_type_id":"4","last_reported":1748376693,"current_range_meters":10800,"station_id":"ce4bh2h2rcd13ifvqdh0","pricing_plan_id":"cebpf4jnsgd1na2vs0mg"},{"bike_id":"cf636edf-1dae-4db3-b3e1-bb4774e5a10d","system_id":"levelo_inurba_marseille","lat":43.2987,"lon":5.3891,"is_reserved":false,"is_disabled":false,"rental_uris":{"android":"levelo://app?vid=cf636edf-1dae-4db3-b3e1-bb4774e5a10d","ios":"levelo://app?vid=cf636edf-1dae-4db3-b3e1-bb4774e5a10d"},"vehicle_type_id":"4","last_reported":1748376693,"current_range_meters":10800,"station_id":"ce4bh392rcd13ifvqdl0","pricing_plan_id":"cebpf4jnsgd1na2vs0mg"},{"bike_id":"0fb09ebe-984e-4249-9ee8-d12815dd3af6","system_id":"levelo_inurba_marseille","lat":43.29164,"lon":5.37164,"is_reserved":false,"is_disabled":false,"rental_uris":{"android":"levelo://app?vid=0fb09ebe-984e-4249-9ee8-d12815dd3af6","ios":"levelo://app?vid=0fb09ebe-984e-4249-9ee8-d12815dd3af6"},"vehicle_type_id":"4","last_reported":1748376693,"current_range_meters":10800,"station_id":"ce4bha92rcd13ifvqeh0","pricing_plan_id":"cebpf4jnsgd1na2vs0mg"},{"bike_id":"e45357ce-599a-418b-98fa-474acbb41b35","system_id":"levelo_inurba_marseille","lat":43.27367,"lon":5.36248,"is_reserved":false,"is_disabled":false,"rental_uris":{"android":"levelo://app?vid=e45357ce-599a-418b-98fa-474acbb41b35","ios":"levelo://app?vid=e45357ce-599a-418b-98fa-474acbb41b35"},"vehicle_type_id":"4","last_reported":1748376693,"current_range_meters":10800,"station_id":"ce4bhbh2rcd13ifvqeo0","pricing_plan_id":"cebpf4jnsgd1na2vs0mg"},{"bike_id":"e0237074-bfe8-4e92-986d-edfb953c3aa7","system_id":"levelo_inurba_marseille","lat":43.29276,"lon":5.36846,"is_reserved":false,"is_disabled":false,"rental_uris":{"android":"levelo://app?vid=e0237074-bfe8-4e92-986d-edfb953c3aa7","ios":"levelo://app?vid=e0237074-bfe8-4e92-986d-edfb953c3aa7"},"vehicle_type_id":"4","last_reported":1748376693,"current_range_meters":10800,"station_id":"ce4bhbp2rcd13ifvqesg","pricing_plan_id":"cebpf4jnsgd1na2vs0mg"},{"bike_id":"0efe077a-d7bd-441b-82c3-70fb96ff9246","system_id":"levelo_inurba_marseille","lat":43.264939,"lon":5.395394,"is_reserved":false,"is_disabled":false,"rental_uris":{"android":"levelo://app?vid=0efe077a-d7bd-441b-82c3-70fb96ff9246","ios":"levelo://app?vid=0efe077a-d7bd-441b-82c3-70fb96ff9246"},"vehicle_type_id":"4","last_reported":1748376693,"current_range_meters":10800,"station_id":"ce4bhi12rcd13ifvqfq0","pricing_plan_id":"cebpf4jnsgd1na2vs0mg"},{"bike_id":"c8d39a71-772d-426e-9fcb-604725b7af6d","system_id":"levelo_inurba_marseille","lat":43.25115,"lon":5.4032,"is_reserved":false,"is_disabled":false,"rental_uris":{"android":"levelo://app?vid=c8d39a71-772d-426e-9fcb-604725b7af6d","ios":"levelo://app?vid=c8d39a71-772d-426e-9fcb-604725b7af6d"},"vehicle_type_id":"4","last_reported":1748376693,"current_range_meters":10800,"station_id":"ce4bhlh2rcd13ifvqgig","pricing_plan_id":"cebpf4jnsgd1na2vs0mg"},{"bike_id":"a3a1e2f8-c082-4657-9cf8-ceb282e14a71","system_id":"levelo_inurba_marseille","lat":43.23197,"lon":5.39982,"is_reserved":false,"is_disabled":false,"rental_uris":{"android":"levelo://app?vid=a3a1e2f8-c082-4657-9cf8-ceb282e14a71","ios":"levelo://app?vid=a3a1e2f8-c082-4657-9cf8-ceb282e14a71"},"vehicle_type_id":"4","last_reported":1748376693,"current_range_meters":10800,"station_id":"ce4bhn12rcd13ifvqgqg","pricing_plan_id":"cebpf4jnsgd1na2vs0mg"},{"bike_id":"92c20333-f1be-4048-8f1a-30fdeff2a990","system_id":"levelo_inurba_marseille","lat":43.330234,"lon":5.390296,"is_reserved":false,"is_disabled":false,"rental_uris":{"android":"levelo://app?vid=92c20333-f1be-4048-8f1a-30fdeff2a990","ios":"levelo://app?vid=92c20333-f1be-4048-8f1a-30fdeff2a990"},"vehicle_type_id":"4","last_reported":1748376693,"current_range_meters":10800,"station_id":"ce4bhr92rcd13ifvqhrg","pricing_plan_id":"cebpf4jnsgd1na2vs0mg"},{"bike_id":"ceb81090-b40e-47dd-bc35-8598d269ef58","system_id":"levelo_inurba_marseille","lat":43.26663,"lon":5.38431,"is_reserved":false,"is_disabled":false,"rental_uris":{"android":"levelo://app?vid=ceb81090-b40e-47dd-bc35-8598d269ef58","ios":"levelo://app?vid=ceb81090-b40e-47dd-bc35-8598d269ef58"},"vehicle_type_id":"4","last_reported":1748376693,"current_range_meters":11200,"station_id":"","pricing_plan_id":"cebpf4jnsgd1na2vs0mg"},{"bike_id":"37d1376c-dfa1-4e03-8541-7bea54bb6ea8","system_id":"levelo_inurba_marseille","lat":43.31162,"lon":5.38721,"is_reserved":false,"is_disabled":false,"rental_uris":{"android":"levelo://app?vid=37d1376c-dfa1-4e03-8541-7bea54bb6ea8","ios":"levelo://app?vid=37d1376c-dfa1-4e03-8541-7bea54bb6ea8"},"vehicle_type_id":"4","last_reported":1748376693,"current_range_meters":11200,"station_id":"ce4bgv12rcd13ifvqcp0","pricing_plan_id":"cebpf4jnsgd1na2vs0mg"},{"bike_id":"bcfb7afd-d3d3-4e1e-88fc-f5bf5f099736","system_id":"levelo_inurba_marseille","lat":43.29883,"lon":5.39766,"is_reserved":false,"is_disabled":false,"rental_uris":{"android":"levelo://app?vid=bcfb7afd-d3d3-4e1e-88fc-f5bf5f099736","ios":"levelo://app?vid=bcfb7afd-d3d3-4e1e-88fc-f5bf5f099736"},"vehicle_type_id":"4","last_reported":1748376693,"current_range_meters":11200,"station_id":"ce4bh0h2rcd13ifvqd50","pricing_plan_id":"cebpf4jnsgd1na2vs0mg"},{"bike_id":"7f87552f-d6b0-4eee-bda4-adadf1cf8635","system_id":"levelo_inurba_marseille","lat":43.29439,"lon":5.38585,"is_reserved":false,"is_disabled":false,"rental_uris":{"android":"levelo://app?vid=7f87552f-d6b0-4eee-bda4-adadf1cf8635","ios":"levelo://app?vid=7f87552f-d6b0-4eee-bda4-adadf1cf8635"},"vehicle_type_id":"4","last_reported":1748376693,"current_range_meters":11200,"station_id":"ce4bh2h2rcd13ifvqdh0","pricing_plan_id":"cebpf4jnsgd1na2vs0mg"},{"bike_id":"399ed01e-2d4e-4bc6-b1d3-297b8a613b84","system_id":"levelo_inurba_marseille","lat":43.29886,"lon":5.38891,"is_reserved":false,"is_disabled":false,"rental_uris":{"android":"levelo://app?vid=399ed01e-2d4e-4bc6-b1d3-297b8a613b84","ios":"levelo://app?vid=399ed01e-2d4e-4bc6-b1d3-297b8a613b84"},"vehicle_type_id":"4","last_reported":1748376693,"current_range_meters":11200,"station_id":"ce4bh392rcd13ifvqdl0","pricing_plan_id":"cebpf4jnsgd1na2vs0mg"},{"bike_id":"e0b2a87a-3864-4787-832f-d7d4b044e72c","system_id":"levelo_inurba_marseille","lat":43.27433,"lon":5.39409,"is_reserved":false,"is_disabled":false,"rental_uris":{"android":"levelo://app?vid=e0b2a87a-3864-4787-832f-d7d4b044e72c","ios":"levelo://app?vid=e0b2a87a-3864-4787-832f-d7d4b044e72c"},"vehicle_type_id":"4","last_reported":1748376693,"current_range_meters":11200,"station_id":"ce4bhdp2rcd13ifvqf20","pricing_plan_id":"cebpf4jnsgd1na2vs0mg"},{"bike_id":"c405a8c1-8a69-41dc-b024-148f0e5c7c72","system_id":"levelo_inurba_marseille","lat":43.28151,"lon":5.4265,"is_reserved":false,"is_disabled":false,"rental_uris":{"android":"levelo://app?vid=c405a8c1-8a69-41dc-b024-148f0e5c7c72","ios":"levelo://app?vid=c405a8c1-8a69-41dc-b024-148f0e5c7c72"},"vehicle_type_id":"4","last_reported":1748376693,"current_range_meters":11200,"station_id":"ce4bhnh2rcd13ifvqgug","pricing_plan_id":"cebpf4jnsgd1na2vs0mg"},{"bike_id":"e5e07e3f-8204-48bc-a099-0bf73319985c","system_id":"levelo_inurba_marseille","lat":43.28438,"lon":5.39178,"is_reserved":false,"is_disabled":false,"rental_uris":{"android":"levelo://app?vid=e5e07e3f-8204-48bc-a099-0bf73319985c","ios":"levelo://app?vid=e5e07e3f-8204-48bc-a099-0bf73319985c"},"vehicle_type_id":"4","last_reported":1748376693,"current_range_meters":11200,"station_id":"ce4bhoh2rcd13ifvqh5g","pricing_plan_id":"cebpf4jnsgd1na2vs0mg"},{"bike_id":"3bb69b95-acc1-4494-9449-5a747ed5114d","system_id":"levelo_inurba_marseille","lat":43.27366,"lon":5.36249,"is_reserved":false,"is_disabled":false,"rental_uris":{"android":"levelo://app?vid=3bb69b95-acc1-4494-9449-5a747ed5114d","ios":"levelo://app?vid=3bb69b95-acc1-4494-9449-5a747ed5114d"},"vehicle_type_id":"4","last_reported":1748376693,"current_range_meters":11600,"station_id":"ce4bhbh2rcd13ifvqeo0","pricing_plan_id":"cebpf4jnsgd1na2vs0mg"},{"bike_id":"117bf755-2682-426d-9a0b-5e0bd1723a20","system_id":"levelo_inurba_marseille","lat":43.27378,"lon":5.36239,"is_reserved":false,"is_disabled":false,"rental_uris":{"android":"levelo://app?vid=117bf755-2682-426d-9a0b-5e0bd1723a20","ios":"levelo://app?vid=117bf755-2682-426d-9a0b-5e0bd1723a20"},"vehicle_type_id":"4","last_reported":1748376693,"current_range_meters":11600,"station_id":"ce4bhbh2rcd13ifvqeo0","pricing_plan_id":"cebpf4jnsgd1na2vs0mg"},{"bike_id":"f11bc507-3a25-4869-bad2-624bc62971f0","system_id":"levelo_inurba_marseille","lat":43.29847,"lon":5.3628,"is_reserved":false,"is_disabled":false,"rental_uris":{"android":"levelo://app?vid=f11bc507-3a25-4869-bad2-624bc62971f0","ios":"levelo://app?vid=f11bc507-3a25-4869-bad2-624bc62971f0"},"vehicle_type_id":"4","last_reported":1748376693,"current_range_meters":12000,"station_id":"ce4bgpp2rcd13ifvqc3g","pricing_plan_id":"cebpf4jnsgd1na2vs0mg"},{"bike_id":"b434f625-bea4-4598-b6b9-9eb135f5186a","system_id":"levelo_inurba_marseille","lat":43.306126,"lon":5.372232,"is_reserved":false,"is_disabled":false,"rental_uris":{"android":"levelo://app?vid=b434f625-bea4-4598-b6b9-9eb135f5186a","ios":"levelo://app?vid=b434f625-bea4-4598-b6b9-9eb135f5186a"},"vehicle_type_id":"4","last_reported":1748376693,"current_range_meters":12000,"station_id":"ce4bgqh2rcd13ifvqc4g","pricing_plan_id":"cebpf4jnsgd1na2vs0mg"},{"bike_id":"ecc00ed2-d502-4ee1-862d-7f59edbae6b4","system_id":"levelo_inurba_marseille","lat":43.27814,"lon":5.40725,"is_reserved":false,"is_disabled":false,"rental_uris":{"android":"levelo://app?vid=ecc00ed2-d502-4ee1-862d-7f59edbae6b4","ios":"levelo://app?vid=ecc00ed2-d502-4ee1-862d-7f59edbae6b4"},"vehicle_type_id":"4","last_reported":1748376693,"current_range_meters":12000,"station_id":"ce4bhnh2rcd13ifvqgtg","pricing_plan_id":"cebpf4jnsgd1na2vs0mg"},{"bike_id":"9d1c3656-7a4d-42c6-96c7-a6bfc502fe5b","system_id":"levelo_inurba_marseille","lat":43.27946,"lon":5.4104,"is_reserved":false,"is_disabled":false,"rental_uris":{"android":"levelo://app?vid=9d1c3656-7a4d-42c6-96c7-a6bfc502fe5b","ios":"levelo://app?vid=9d1c3656-7a4d-42c6-96c7-a6bfc502fe5b"},"vehicle_type_id":"4","last_reported":1748376693,"current_range_meters":12000,"station_id":"ce4bhnp2rcd13ifvqh0g","pricing_plan_id":"cebpf4jnsgd1na2vs0mg"},{"bike_id":"c82d6539-90ac-4979-967f-24ab8afc90fe","system_id":"levelo_inurba_marseille","lat":43.29308,"lon":5.37174,"is_reserved":false,"is_disabled":false,"rental_uris":{"android":"levelo://app?vid=c82d6539-90ac-4979-967f-24ab8afc90fe","ios":"levelo://app?vid=c82d6539-90ac-4979-967f-24ab8afc90fe"},"vehicle_type_id":"4","last_reported":1748376693,"current_range_meters":12400,"station_id":"ce4bgh92rcd13ifvqb40","pricing_plan_id":"cebpf4jnsgd1na2vs0mg"},{"bike_id":"f757d16f-10d1-46fd-97c8-e7926b6602c0","system_id":"levelo_inurba_marseille","lat":43.3089,"lon":5.39625,"is_reserved":false,"is_disabled":false,"rental_uris":{"android":"levelo://app?vid=f757d16f-10d1-46fd-97c8-e7926b6602c0","ios":"levelo://app?vid=f757d16f-10d1-46fd-97c8-e7926b6602c0"},"vehicle_type_id":"4","last_reported":1748376693,"current_range_meters":12400,"station_id":"ce4bh012rcd13ifvqcv0","pricing_plan_id":"cebpf4jnsgd1na2vs0mg"},{"bike_id":"87a71c1a-c92a-42c3-834b-9a605d2133cb","system_id":"levelo_inurba_marseille","lat":43.29203,"lon":5.39309,"is_reserved":false,"is_disabled":false,"rental_uris":{"android":"levelo://app?vid=87a71c1a-c92a-42c3-834b-9a605d2133cb","ios":"levelo://app?vid=87a71c1a-c92a-42c3-834b-9a605d2133cb"},"vehicle_type_id":"4","last_reported":1748376693,"current_range_meters":12400,"station_id":"ce4bh192rcd13ifvqdd0","pricing_plan_id":"cebpf4jnsgd1na2vs0mg"},{"bike_id":"5ad0faef-897d-4c19-b2e4-979327720bd4","system_id":"levelo_inurba_marseille","lat":43.25073,"lon":5.39503,"is_reserved":false,"is_disabled":false,"rental_uris":{"android":"levelo://app?vid=5ad0faef-897d-4c19-b2e4-979327720bd4","ios":"levelo://app?vid=5ad0faef-897d-4c19-b2e4-979327720bd4"},"vehicle_type_id":"4","last_reported":1748376693,"current_range_meters":12400,"station_id":"ce4bhm12rcd13ifvqgkg","pricing_plan_id":"cebpf4jnsgd1na2vs0mg"},{"bike_id":"16325869-b0b1-4ea6-b5e0-4206964d490a","system_id":"levelo_inurba_marseille","lat":43.26024,"lon":5.4171,"is_reserved":false,"is_disabled":false,"rental_uris":{"android":"levelo://app?vid=16325869-b0b1-4ea6-b5e0-4206964d490a","ios":"levelo://app?vid=16325869-b0b1-4ea6-b5e0-4206964d490a"},"vehicle_type_id":"4","last_reported":1748376693,"current_range_meters":12800,"station_id":"","pricing_plan_id":"cebpf4jnsgd1na2vs0mg"},{"bike_id":"88fc5649-a47f-4e89-98ff-e4374f380d53","system_id":"levelo_inurba_marseille","lat":43.29926,"lon":5.37464,"is_reserved":false,"is_disabled":false,"rental_uris":{"android":"levelo://app?vid=88fc5649-a47f-4e89-98ff-e4374f380d53","ios":"levelo://app?vid=88fc5649-a47f-4e89-98ff-e4374f380d53"},"vehicle_type_id":"4","last_reported":1748376693,"current_range_meters":12800,"station_id":"ce4bgjh2rcd13ifvqbg0","pricing_plan_id":"cebpf4jnsgd1na2vs0mg"},{"bike_id":"ec71caf6-638f-4b64-a356-f00d9ed56eef","system_id":"levelo_inurba_marseille","lat":43.30314,"lon":5.39202,"is_reserved":false,"is_disabled":false,"rental_uris":{"android":"levelo://app?vid=ec71caf6-638f-4b64-a356-f00d9ed56eef","ios":"levelo://app?vid=ec71caf6-638f-4b64-a356-f00d9ed56eef"},"vehicle_type_id":"4","last_reported":1748376693,"current_range_meters":12800,"station_id":"ce4bgkh2rcd13ifvqbk0","pricing_plan_id":"cebpf4jnsgd1na2vs0mg"},{"bike_id":"80c375cd-1a6b-4799-8a90-88e9a36da616","system_id":"levelo_inurba_marseille","lat":43.29256,"lon":5.38438,"is_reserved":false,"is_disabled":false,"rental_uris":{"android":"levelo://app?vid=80c375cd-1a6b-4799-8a90-88e9a36da616","ios":"levelo://app?vid=80c375cd-1a6b-4799-8a90-88e9a36da616"},"vehicle_type_id":"4","last_reported":1748376693,"current_range_meters":12800,"station_id":"ce4bh692rcd13ifvqea0","pricing_plan_id":"cebpf4jnsgd1na2vs0mg"},{"bike_id":"07ab72bd-9298-45dd-8184-52d45380b58d","system_id":"levelo_inurba_marseille","lat":43.28071,"lon":5.39648,"is_reserved":false,"is_disabled":false,"rental_uris":{"android":"levelo://app?vid=07ab72bd-9298-45dd-8184-52d45380b58d","ios":"levelo://app?vid=07ab72bd-9298-45dd-8184-52d45380b58d"},"vehicle_type_id":"4","last_reported":1748376693,"current_range_meters":12800,"station_id":"ce4bho12rcd13ifvqh2g","pricing_plan_id":"cebpf4jnsgd1na2vs0mg"},{"bike_id":"8b8f4ddc-5f2d-41ad-9613-91a528fd4361","system_id":"levelo_inurba_marseille","lat":43.22945,"lon":5.35365,"is_reserved":false,"is_disabled":false,"rental_uris":{"android":"levelo://app?vid=8b8f4ddc-5f2d-41ad-9613-91a528fd4361","ios":"levelo://app?vid=8b8f4ddc-5f2d-41ad-9613-91a528fd4361"},"vehicle_type_id":"4","last_reported":1748376693,"current_range_meters":12800,"station_id":"cpo3532slgdg3j2ikp40","pricing_plan_id":"cebpf4jnsgd1na2vs0mg"},{"bike_id":"e501abd7-9de5-4b39-b0c2-7842d0ad844c","system_id":"levelo_inurba_marseille","lat":43.28543,"lon":5.3843,"is_reserved":false,"is_disabled":false,"rental_uris":{"android":"levelo://app?vid=e501abd7-9de5-4b39-b0c2-7842d0ad844c","ios":"levelo://app?vid=e501abd7-9de5-4b39-b0c2-7842d0ad844c"},"vehicle_type_id":"4","last_reported":1748376693,"current_range_meters":13600,"station_id":"","pricing_plan_id":"cebpf4jnsgd1na2vs0mg"},{"bike_id":"70fcc0b6-8b48-43be-b4e1-10a84a22e655","system_id":"levelo_inurba_marseille","lat":43.29939,"lon":5.37472,"is_reserved":false,"is_disabled":false,"rental_uris":{"android":"levelo://app?vid=70fcc0b6-8b48-43be-b4e1-10a84a22e655","ios":"levelo://app?vid=70fcc0b6-8b48-43be-b4e1-10a84a22e655"},"vehicle_type_id":"4","last_reported":1748376693,"current_range_meters":13600,"station_id":"ce4bgjh2rcd13ifvqbg0","pricing_plan_id":"cebpf4jnsgd1na2vs0mg"},{"bike_id":"6a2eb3d1-8421-4db2-9c25-13e15f56bb41","system_id":"levelo_inurba_marseille","lat":43.3094,"lon":5.40146,"is_reserved":false,"is_disabled":false,"rental_uris":{"android":"levelo://app?vid=6a2eb3d1-8421-4db2-9c25-13e15f56bb41","ios":"levelo://app?vid=6a2eb3d1-8421-4db2-9c25-13e15f56bb41"},"vehicle_type_id":"4","last_reported":1748376693,"current_range_meters":13600,"station_id":"ce4bgvp2rcd13ifvqct0","pricing_plan_id":"cebpf4jnsgd1na2vs0mg"},{"bike_id":"9457a377-3567-464b-b191-f8d2ccbd3d31","system_id":"levelo_inurba_marseille","lat":43.316956,"lon":5.404444,"is_reserved":false,"is_disabled":false,"rental_uris":{"android":"levelo://app?vid=9457a377-3567-464b-b191-f8d2ccbd3d31","ios":"levelo://app?vid=9457a377-3567-464b-b191-f8d2ccbd3d31"},"vehicle_type_id":"4","last_reported":1748376693,"current_range_meters":13600,"station_id":"ce4bh012rcd13ifvqd00","pricing_plan_id":"cebpf4jnsgd1na2vs0mg"},{"bike_id":"79cee223-35b4-48b7-8367-997cdc71bb24","system_id":"levelo_inurba_marseille","lat":43.29243,"lon":5.38451,"is_reserved":false,"is_disabled":false,"rental_uris":{"android":"levelo://app?vid=79cee223-35b4-48b7-8367-997cdc71bb24","ios":"levelo://app?vid=79cee223-35b4-48b7-8367-997cdc71bb24"},"vehicle_type_id":"4","last_reported":1748376693,"current_range_meters":13600,"station_id":"ce4bh692rcd13ifvqea0","pricing_plan_id":"cebpf4jnsgd1na2vs0mg"},{"bike_id":"2bdcaf77-37d8-411e-b1b4-0cb057a76273","system_id":"levelo_inurba_marseille","lat":43.28943,"lon":5.36406,"is_reserved":false,"is_disabled":false,"rental_uris":{"android":"levelo://app?vid=2bdcaf77-37d8-411e-b1b4-0cb057a76273","ios":"levelo://app?vid=2bdcaf77-37d8-411e-b1b4-0cb057a76273"},"vehicle_type_id":"4","last_reported":1748376693,"current_range_meters":13600,"station_id":"ce4bhc92rcd13ifvqetg","pricing_plan_id":"cebpf4jnsgd1na2vs0mg"},{"bike_id":"fe36555e-3b9b-4e71-ae0a-7c1f38f41e4c","system_id":"levelo_inurba_marseille","lat":43.26938,"lon":5.38921,"is_reserved":false,"is_disabled":false,"rental_uris":{"android":"levelo://app?vid=fe36555e-3b9b-4e71-ae0a-7c1f38f41e4c","ios":"levelo://app?vid=fe36555e-3b9b-4e71-ae0a-7c1f38f41e4c"},"vehicle_type_id":"4","last_reported":1748376693,"current_range_meters":13600,"station_id":"ce4bhhh2rcd13ifvqfl0","pricing_plan_id":"cebpf4jnsgd1na2vs0mg"},{"bike_id":"56f498b7-1a5f-4e78-9d89-5e7ee68bb6c9","system_id":"levelo_inurba_marseille","lat":43.30426,"lon":5.38886,"is_reserved":false,"is_disabled":false,"rental_uris":{"android":"levelo://app?vid=56f498b7-1a5f-4e78-9d89-5e7ee68bb6c9","ios":"levelo://app?vid=56f498b7-1a5f-4e78-9d89-5e7ee68bb6c9"},"vehicle_type_id":"4","last_reported":1748376693,"current_range_meters":14000,"station_id":"ce4bgk12rcd13ifvqbi0","pricing_plan_id":"cebpf4jnsgd1na2vs0mg"},{"bike_id":"96ce420f-088a-465d-8743-adc6199bb29e","system_id":"levelo_inurba_marseille","lat":43.29532,"lon":5.39043,"is_reserved":false,"is_disabled":false,"rental_uris":{"android":"levelo://app?vid=96ce420f-088a-465d-8743-adc6199bb29e","ios":"levelo://app?vid=96ce420f-088a-465d-8743-adc6199bb29e"},"vehicle_type_id":"4","last_reported":1748376693,"current_range_meters":14000,"station_id":"ce4bh3p2rcd13ifvqdp0","pricing_plan_id":"cebpf4jnsgd1na2vs0mg"},{"bike_id":"027996d9-c458-4fe9-9def-7a537508c67a","system_id":"levelo_inurba_marseille","lat":43.26534,"lon":5.37315,"is_reserved":false,"is_disabled":false,"rental_uris":{"android":"levelo://app?vid=027996d9-c458-4fe9-9def-7a537508c67a","ios":"levelo://app?vid=027996d9-c458-4fe9-9def-7a537508c67a"},"vehicle_type_id":"4","last_reported":1748376693,"current_range_meters":14000,"station_id":"ce4bhg12rcd13ifvqf70","pricing_plan_id":"cebpf4jnsgd1na2vs0mg"},{"bike_id":"f1748dcb-36b8-4493-95ae-d8e776568120","system_id":"levelo_inurba_marseille","lat":43.28438,"lon":5.39178,"is_reserved":false,"is_disabled":false,"rental_uris":{"android":"levelo://app?vid=f1748dcb-36b8-4493-95ae-d8e776568120","ios":"levelo://app?vid=f1748dcb-36b8-4493-95ae-d8e776568120"},"vehicle_type_id":"4","last_reported":1748376693,"current_range_meters":14000,"station_id":"ce4bhoh2rcd13ifvqh5g","pricing_plan_id":"cebpf4jnsgd1na2vs0mg"},{"bike_id":"da0f3c49-6bb7-4bbf-844b-3fdcb99def2b","system_id":"levelo_inurba_marseille","lat":43.29524,"lon":5.38542,"is_reserved":false,"is_disabled":false,"rental_uris":{"android":"levelo://app?vid=da0f3c49-6bb7-4bbf-844b-3fdcb99def2b","ios":"levelo://app?vid=da0f3c49-6bb7-4bbf-844b-3fdcb99def2b"},"vehicle_type_id":"4","last_reported":1748376693,"current_range_meters":14400,"station_id":"ce4bgih2rcd13ifvqba0","pricing_plan_id":"cebpf4jnsgd1na2vs0mg"},{"bike_id":"9ed94f34-a328-46fc-b201-bade39dda6d1","system_id":"levelo_inurba_marseille","lat":43.25019,"lon":5.38928,"is_reserved":false,"is_disabled":false,"rental_uris":{"android":"levelo://app?vid=9ed94f34-a328-46fc-b201-bade39dda6d1","ios":"levelo://app?vid=9ed94f34-a328-46fc-b201-bade39dda6d1"},"vehicle_type_id":"4","last_reported":1748376693,"current_range_meters":14400,"station_id":"ce4bhgp2rcd13ifvqfd0","pricing_plan_id":"cebpf4jnsgd1na2vs0mg"},{"bike_id":"c35154c0-b5d0-49e4-87d5-e523664d381c","system_id":"levelo_inurba_marseille","lat":43.26789,"lon":5.3941,"is_reserved":false,"is_disabled":false,"rental_uris":{"android":"levelo://app?vid=c35154c0-b5d0-49e4-87d5-e523664d381c","ios":"levelo://app?vid=c35154c0-b5d0-49e4-87d5-e523664d381c"},"vehicle_type_id":"4","last_reported":1748376693,"current_range_meters":14400,"station_id":"ce4bhh12rcd13ifvqfg0","pricing_plan_id":"cebpf4jnsgd1na2vs0mg"},{"bike_id":"49d35b37-e0b3-497b-b2e5-f38101b64c87","system_id":"levelo_inurba_marseille","lat":43.27199,"lon":5.39166,"is_reserved":false,"is_disabled":false,"rental_uris":{"android":"levelo://app?vid=49d35b37-e0b3-497b-b2e5-f38101b64c87","ios":"levelo://app?vid=49d35b37-e0b3-497b-b2e5-f38101b64c87"},"vehicle_type_id":"4","last_reported":1748376693,"current_range_meters":14400,"station_id":"ce4bhhp2rcd13ifvqfm0","pricing_plan_id":"cebpf4jnsgd1na2vs0mg"},{"bike_id":"46f1e1a2-421d-4288-9b19-22918bc7cc7f","system_id":"levelo_inurba_marseille","lat":43.23197,"lon":5.355531,"is_reserved":false,"is_disabled":false,"rental_uris":{"android":"levelo://app?vid=46f1e1a2-421d-4288-9b19-22918bc7cc7f","ios":"levelo://app?vid=46f1e1a2-421d-4288-9b19-22918bc7cc7f"},"vehicle_type_id":"4","last_reported":1748376693,"current_range_meters":14400,"station_id":"ce4bhu92rcd13ifvqi70","pricing_plan_id":"cebpf4jnsgd1na2vs0mg"},{"bike_id":"111b3fa9-b3d2-45cc-b9a8-40fdfa34029e","system_id":"levelo_inurba_marseille","lat":43.28491,"lon":5.391877,"is_reserved":false,"is_disabled":false,"rental_uris":{"android":"levelo://app?vid=111b3fa9-b3d2-45cc-b9a8-40fdfa34029e","ios":"levelo://app?vid=111b3fa9-b3d2-45cc-b9a8-40fdfa34029e"},"vehicle_type_id":"4","last_reported":1748376693,"current_range_meters":14800,"station_id":"ce4bgvh2rcd13ifvqcs0","pricing_plan_id":"cebpf4jnsgd1na2vs0mg"},{"bike_id":"16cc61f1-29ee-45e7-9ed3-5faadbe8a9f3","system_id":"levelo_inurba_marseille","lat":43.29419,"lon":5.38626,"is_reserved":false,"is_disabled":false,"rental_uris":{"android":"levelo://app?vid=16cc61f1-29ee-45e7-9ed3-5faadbe8a9f3","ios":"levelo://app?vid=16cc61f1-29ee-45e7-9ed3-5faadbe8a9f3"},"vehicle_type_id":"4","last_reported":1748376693,"current_range_meters":14800,"station_id":"ce4bh2h2rcd13ifvqdh0","pricing_plan_id":"cebpf4jnsgd1na2vs0mg"},{"bike_id":"4abe6b14-37da-48c1-95c2-6bcc375f4ebf","system_id":"levelo_inurba_marseille","lat":43.29415,"lon":5.38628,"is_reserved":false,"is_disabled":false,"rental_uris":{"android":"levelo://app?vid=4abe6b14-37da-48c1-95c2-6bcc375f4ebf","ios":"levelo://app?vid=4abe6b14-37da-48c1-95c2-6bcc375f4ebf"},"vehicle_type_id":"4","last_reported":1748376693,"current_range_meters":14800,"station_id":"ce4bh2h2rcd13ifvqdh0","pricing_plan_id":"cebpf4jnsgd1na2vs0mg"},{"bike_id":"3bef05aa-1a05-49f9-be6d-6836ebb25d5d","system_id":"levelo_inurba_marseille","lat":43.288391,"lon":5.393222,"is_reserved":false,"is_disabled":false,"rental_uris":{"android":"levelo://app?vid=3bef05aa-1a05-49f9-be6d-6836ebb25d5d","ios":"levelo://app?vid=3bef05aa-1a05-49f9-be6d-6836ebb25d5d"},"vehicle_type_id":"4","last_reported":1748376693,"current_range_meters":14800,"station_id":"ce4bh2p2rcd13ifvqdi0","pricing_plan_id":"cebpf4jnsgd1na2vs0mg"},{"bike_id":"66925941-48fd-44ac-a1de-7c99050ee566","system_id":"levelo_inurba_marseille","lat":43.29244,"lon":5.38457,"is_reserved":false,"is_disabled":false,"rental_uris":{"android":"levelo://app?vid=66925941-48fd-44ac-a1de-7c99050ee566","ios":"levelo://app?vid=66925941-48fd-44ac-a1de-7c99050ee566"},"vehicle_type_id":"4","last_reported":1748376693,"current_range_meters":14800,"station_id":"ce4bh692rcd13ifvqea0","pricing_plan_id":"cebpf4jnsgd1na2vs0mg"},{"bike_id":"92c79374-6a55-4a92-8a14-a56290fc6400","system_id":"levelo_inurba_marseille","lat":43.24542,"lon":5.39531,"is_reserved":false,"is_disabled":false,"rental_uris":{"android":"levelo://app?vid=92c79374-6a55-4a92-8a14-a56290fc6400","ios":"levelo://app?vid=92c79374-6a55-4a92-8a14-a56290fc6400"},"vehicle_type_id":"4","last_reported":1748376693,"current_range_meters":14800,"station_id":"ce4bhlp2rcd13ifvqgjg","pricing_plan_id":"cebpf4jnsgd1na2vs0mg"},{"bike_id":"47583335-9e10-4931-b076-003bea66dc0e","system_id":"levelo_inurba_marseille","lat":43.28219,"lon":5.39042,"is_reserved":false,"is_disabled":false,"rental_uris":{"android":"levelo://app?vid=47583335-9e10-4931-b076-003bea66dc0e","ios":"levelo://app?vid=47583335-9e10-4931-b076-003bea66dc0e"},"vehicle_type_id":"4","last_reported":1748376693,"current_range_meters":15200,"station_id":"","pricing_plan_id":"cebpf4jnsgd1na2vs0mg"},{"bike_id":"134c70cc-46f1-414c-ba60-b99ba2b4a992","system_id":"levelo_inurba_marseille","lat":43.34815,"lon":5.35116,"is_reserved":false,"is_disabled":false,"rental_uris":{"android":"levelo://app?vid=134c70cc-46f1-414c-ba60-b99ba2b4a992","ios":"levelo://app?vid=134c70cc-46f1-414c-ba60-b99ba2b4a992"},"vehicle_type_id":"4","last_reported":1748376693,"current_range_meters":15200,"station_id":"","pricing_plan_id":"cebpf4jnsgd1na2vs0mg"},{"bike_id":"0d775864-7cc7-4271-a2e2-086f8f5157af","system_id":"levelo_inurba_marseille","lat":43.28951,"lon":5.36381,"is_reserved":false,"is_disabled":false,"rental_uris":{"android":"levelo://app?vid=0d775864-7cc7-4271-a2e2-086f8f5157af","ios":"levelo://app?vid=0d775864-7cc7-4271-a2e2-086f8f5157af"},"vehicle_type_id":"4","last_reported":1748376693,"current_range_meters":15200,"station_id":"ce4bhc92rcd13ifvqetg","pricing_plan_id":"cebpf4jnsgd1na2vs0mg"},{"bike_id":"24f3e3d5-b921-4756-97bd-883483154b22","system_id":"levelo_inurba_marseille","lat":43.322908,"lon":5.382736,"is_reserved":false,"is_disabled":false,"rental_uris":{"android":"levelo://app?vid=24f3e3d5-b921-4756-97bd-883483154b22","ios":"levelo://app?vid=24f3e3d5-b921-4756-97bd-883483154b22"},"vehicle_type_id":"4","last_reported":1748376693,"current_range_meters":15200,"station_id":"ce4bhr12rcd13ifvqhqg","pricing_plan_id":"cebpf4jnsgd1na2vs0mg"},{"bike_id":"c2c25dd5-dc71-4aa2-a4d5-1ae79422659b","system_id":"levelo_inurba_marseille","lat":43.2822,"lon":5.39052,"is_reserved":false,"is_disabled":false,"rental_uris":{"android":"levelo://app?vid=c2c25dd5-dc71-4aa2-a4d5-1ae79422659b","ios":"levelo://app?vid=c2c25dd5-dc71-4aa2-a4d5-1ae79422659b"},"vehicle_type_id":"4","last_reported":1748376693,"current_range_meters":16000,"station_id":"","pricing_plan_id":"cebpf4jnsgd1na2vs0mg"},{"bike_id":"b12ac9f0-c75f-443f-9708-e988c2e4d512","system_id":"levelo_inurba_marseille","lat":43.29307,"lon":5.37156,"is_reserved":false,"is_disabled":false,"rental_uris":{"android":"levelo://app?vid=b12ac9f0-c75f-443f-9708-e988c2e4d512","ios":"levelo://app?vid=b12ac9f0-c75f-443f-9708-e988c2e4d512"},"vehicle_type_id":"4","last_reported":1748376693,"current_range_meters":16000,"station_id":"ce4bgh92rcd13ifvqb40","pricing_plan_id":"cebpf4jnsgd1na2vs0mg"},{"bike_id":"e4534a03-0cb5-48e6-a5ff-43585afc0912","system_id":"levelo_inurba_marseille","lat":43.31378,"lon":5.38515,"is_reserved":false,"is_disabled":false,"rental_uris":{"android":"levelo://app?vid=e4534a03-0cb5-48e6-a5ff-43585afc0912","ios":"levelo://app?vid=e4534a03-0cb5-48e6-a5ff-43585afc0912"},"vehicle_type_id":"4","last_reported":1748376693,"current_range_meters":16000,"station_id":"ce4bgt92rcd13ifvqcf0","pricing_plan_id":"cebpf4jnsgd1na2vs0mg"},{"bike_id":"a5bbc30c-b0db-4c44-a486-7ccd1a20b22c","system_id":"levelo_inurba_marseille","lat":43.30255,"lon":5.40066,"is_reserved":false,"is_disabled":false,"rental_uris":{"android":"levelo://app?vid=a5bbc30c-b0db-4c44-a486-7ccd1a20b22c","ios":"levelo://app?vid=a5bbc30c-b0db-4c44-a486-7ccd1a20b22c"},"vehicle_type_id":"4","last_reported":1748376693,"current_range_meters":16000,"station_id":"ce4bgvh2rcd13ifvqcs0","pricing_plan_id":"cebpf4jnsgd1na2vs0mg"},{"bike_id":"698d3f73-f32d-4705-8c63-f6b6af4441d8","system_id":"levelo_inurba_marseille","lat":43.29416,"lon":5.38626,"is_reserved":false,"is_disabled":false,"rental_uris":{"android":"levelo://app?vid=698d3f73-f32d-4705-8c63-f6b6af4441d8","ios":"levelo://app?vid=698d3f73-f32d-4705-8c63-f6b6af4441d8"},"vehicle_type_id":"4","last_reported":1748376693,"current_range_meters":16000,"station_id":"ce4bh2h2rcd13ifvqdh0","pricing_plan_id":"cebpf4jnsgd1na2vs0mg"},{"bike_id":"1d9aa0a3-8d94-496c-8645-8bc9aba995f5","system_id":"levelo_inurba_marseille","lat":43.29273,"lon":5.40123,"is_reserved":false,"is_disabled":false,"rental_uris":{"android":"levelo://app?vid=1d9aa0a3-8d94-496c-8645-8bc9aba995f5","ios":"levelo://app?vid=1d9aa0a3-8d94-496c-8645-8bc9aba995f5"},"vehicle_type_id":"4","last_reported":1748376693,"current_range_meters":16000,"station_id":"ce4bh312rcd13ifvqdk0","pricing_plan_id":"cebpf4jnsgd1na2vs0mg"},{"bike_id":"1bb2c0f7-dc33-426d-b9b9-4eac3adaba82","system_id":"levelo_inurba_marseille","lat":43.28673,"lon":5.363594,"is_reserved":false,"is_disabled":false,"rental_uris":{"android":"levelo://app?vid=1bb2c0f7-dc33-426d-b9b9-4eac3adaba82","ios":"levelo://app?vid=1bb2c0f7-dc33-426d-b9b9-4eac3adaba82"},"vehicle_type_id":"4","last_reported":1748376693,"current_range_meters":16000,"station_id":"ce4bhah2rcd13ifvqej0","pricing_plan_id":"cebpf4jnsgd1na2vs0mg"},{"bike_id":"9fa6bd71-cfcd-4a19-b661-660c3d3c260f","system_id":"levelo_inurba_marseille","lat":43.26494,"lon":5.3954,"is_reserved":false,"is_disabled":false,"rental_uris":{"android":"levelo://app?vid=9fa6bd71-cfcd-4a19-b661-660c3d3c260f","ios":"levelo://app?vid=9fa6bd71-cfcd-4a19-b661-660c3d3c260f"},"vehicle_type_id":"4","last_reported":1748376693,"current_range_meters":16000,"station_id":"ce4bhi12rcd13ifvqfq0","pricing_plan_id":"cebpf4jnsgd1na2vs0mg"},{"bike_id":"c9ac9815-cace-4f5a-bc55-391519ae5e1e","system_id":"levelo_inurba_marseille","lat":43.27162,"lon":5.40993,"is_reserved":false,"is_disabled":false,"rental_uris":{"android":"levelo://app?vid=c9ac9815-cace-4f5a-bc55-391519ae5e1e","ios":"levelo://app?vid=c9ac9815-cace-4f5a-bc55-391519ae5e1e"},"vehicle_type_id":"4","last_reported":1748376693,"current_range_meters":16000,"station_id":"ce4bhl12rcd13ifvqgf0","pricing_plan_id":"cebpf4jnsgd1na2vs0mg"},{"bike_id":"6ebb6dd7-e028-471a-a254-2363923c0cd9","system_id":"levelo_inurba_marseille","lat":43.32101,"lon":5.36783,"is_reserved":false,"is_disabled":false,"rental_uris":{"android":"levelo://app?vid=6ebb6dd7-e028-471a-a254-2363923c0cd9","ios":"levelo://app?vid=6ebb6dd7-e028-471a-a254-2363923c0cd9"},"vehicle_type_id":"4","last_reported":1748376693,"current_range_meters":16000,"station_id":"ce4bhrh2rcd13ifvqhug","pricing_plan_id":"cebpf4jnsgd1na2vs0mg"},{"bike_id":"15d09d4d-acc2-4d6a-bc96-16daa53f13b6","system_id":"levelo_inurba_marseille","lat":43.30888,"lon":5.3719,"is_reserved":false,"is_disabled":false,"rental_uris":{"android":"levelo://app?vid=15d09d4d-acc2-4d6a-bc96-16daa53f13b6","ios":"levelo://app?vid=15d09d4d-acc2-4d6a-bc96-16daa53f13b6"},"vehicle_type_id":"4","last_reported":1748376693,"current_range_meters":16400,"station_id":"ce4bguh2rcd13ifvqckg","pricing_plan_id":"cebpf4jnsgd1na2vs0mg"},{"bike_id":"f116a253-4547-49e6-82c1-0fd3e7472204","system_id":"levelo_inurba_marseille","lat":43.31688,"lon":5.40474,"is_reserved":false,"is_disabled":false,"rental_uris":{"android":"levelo://app?vid=f116a253-4547-49e6-82c1-0fd3e7472204","ios":"levelo://app?vid=f116a253-4547-49e6-82c1-0fd3e7472204"},"vehicle_type_id":"4","last_reported":1748376693,"current_range_meters":16400,"station_id":"ce4bh012rcd13ifvqd00","pricing_plan_id":"cebpf4jnsgd1na2vs0mg"},{"bike_id":"f17b5f1b-722c-492d-a6a6-635d0fc8540a","system_id":"levelo_inurba_marseille","lat":43.30422,"lon":5.39739,"is_reserved":false,"is_disabled":false,"rental_uris":{"android":"levelo://app?vid=f17b5f1b-722c-492d-a6a6-635d0fc8540a","ios":"levelo://app?vid=f17b5f1b-722c-492d-a6a6-635d0fc8540a"},"vehicle_type_id":"4","last_reported":1748376693,"current_range_meters":16400,"station_id":"ce4bh092rcd13ifvqd20","pricing_plan_id":"cebpf4jnsgd1na2vs0mg"},{"bike_id":"7863411a-5439-4313-ba2a-c5a24f9ba3df","system_id":"levelo_inurba_marseille","lat":43.29198,"lon":5.39321,"is_reserved":false,"is_disabled":false,"rental_uris":{"android":"levelo://app?vid=7863411a-5439-4313-ba2a-c5a24f9ba3df","ios":"levelo://app?vid=7863411a-5439-4313-ba2a-c5a24f9ba3df"},"vehicle_type_id":"4","last_reported":1748376693,"current_range_meters":16400,"station_id":"ce4bh192rcd13ifvqdd0","pricing_plan_id":"cebpf4jnsgd1na2vs0mg"},{"bike_id":"264d9fc0-49fc-4ea9-a69b-481b83cace44","system_id":"levelo_inurba_marseille","lat":43.30157,"lon":5.3985,"is_reserved":false,"is_disabled":false,"rental_uris":{"android":"levelo://app?vid=264d9fc0-49fc-4ea9-a69b-481b83cace44","ios":"levelo://app?vid=264d9fc0-49fc-4ea9-a69b-481b83cace44"},"vehicle_type_id":"4","last_reported":1748376693,"current_range_meters":16800,"station_id":"ce4bh0h2rcd13ifvqd40","pricing_plan_id":"cebpf4jnsgd1na2vs0mg"},{"bike_id":"451bf2df-d324-41f7-b355-cd2d44dca749","system_id":"levelo_inurba_marseille","lat":43.30137,"lon":5.39866,"is_reserved":false,"is_disabled":false,"rental_uris":{"android":"levelo://app?vid=451bf2df-d324-41f7-b355-cd2d44dca749","ios":"levelo://app?vid=451bf2df-d324-41f7-b355-cd2d44dca749"},"vehicle_type_id":"4","last_reported":1748376693,"current_range_meters":16800,"station_id":"ce4bh0h2rcd13ifvqd40","pricing_plan_id":"cebpf4jnsgd1na2vs0mg"},{"bike_id":"1c7e191b-64df-4577-aada-36547f465c24","system_id":"levelo_inurba_marseille","lat":43.28659,"lon":5.36358,"is_reserved":false,"is_disabled":false,"rental_uris":{"android":"levelo://app?vid=1c7e191b-64df-4577-aada-36547f465c24","ios":"levelo://app?vid=1c7e191b-64df-4577-aada-36547f465c24"},"vehicle_type_id":"4","last_reported":1748376693,"current_range_meters":16800,"station_id":"ce4bhah2rcd13ifvqej0","pricing_plan_id":"cebpf4jnsgd1na2vs0mg"},{"bike_id":"f9da904e-fa0f-4b70-b3f0-f955b2cf4c47","system_id":"levelo_inurba_marseille","lat":43.28849,"lon":5.35852,"is_reserved":false,"is_disabled":false,"rental_uris":{"android":"levelo://app?vid=f9da904e-fa0f-4b70-b3f0-f955b2cf4c47","ios":"levelo://app?vid=f9da904e-fa0f-4b70-b3f0-f955b2cf4c47"},"vehicle_type_id":"4","last_reported":1748376693,"current_range_meters":16800,"station_id":"ce4bhb12rcd13ifvqem0","pricing_plan_id":"cebpf4jnsgd1na2vs0mg"},{"bike_id":"9e9301ed-b079-4aa9-9065-6a4e64fec377","system_id":"levelo_inurba_marseille","lat":43.26062,"lon":5.394,"is_reserved":false,"is_disabled":false,"rental_uris":{"android":"levelo://app?vid=9e9301ed-b079-4aa9-9065-6a4e64fec377","ios":"levelo://app?vid=9e9301ed-b079-4aa9-9065-6a4e64fec377"},"vehicle_type_id":"4","last_reported":1748376693,"current_range_meters":16800,"station_id":"ce4bhh92rcd13ifvqfj0","pricing_plan_id":"cebpf4jnsgd1na2vs0mg"},{"bike_id":"750d9e45-bbfa-48c7-98ea-fdd51751dc8b","system_id":"levelo_inurba_marseille","lat":43.23955,"lon":5.3664,"is_reserved":false,"is_disabled":false,"rental_uris":{"android":"levelo://app?vid=750d9e45-bbfa-48c7-98ea-fdd51751dc8b","ios":"levelo://app?vid=750d9e45-bbfa-48c7-98ea-fdd51751dc8b"},"vehicle_type_id":"4","last_reported":1748376693,"current_range_meters":16800,"station_id":"ce4bhi12rcd13ifvqfp0","pricing_plan_id":"cebpf4jnsgd1na2vs0mg"},{"bike_id":"21cd5b03-be6b-4c0c-bf4f-a2ec11fae818","system_id":"levelo_inurba_marseille","lat":43.27046,"lon":5.40266,"is_reserved":false,"is_disabled":false,"rental_uris":{"android":"levelo://app?vid=21cd5b03-be6b-4c0c-bf4f-a2ec11fae818","ios":"levelo://app?vid=21cd5b03-be6b-4c0c-bf4f-a2ec11fae818"},"vehicle_type_id":"4","last_reported":1748376693,"current_range_meters":16800,"station_id":"ce4bhk92rcd13ifvqgc0","pricing_plan_id":"cebpf4jnsgd1na2vs0mg"},{"bike_id":"c06fca89-0053-4526-bf0e-39603aea1bf2","system_id":"levelo_inurba_marseille","lat":43.33033,"lon":5.39037,"is_reserved":false,"is_disabled":false,"rental_uris":{"android":"levelo://app?vid=c06fca89-0053-4526-bf0e-39603aea1bf2","ios":"levelo://app?vid=c06fca89-0053-4526-bf0e-39603aea1bf2"},"vehicle_type_id":"4","last_reported":1748376693,"current_range_meters":16800,"station_id":"ce4bhr92rcd13ifvqhrg","pricing_plan_id":"cebpf4jnsgd1na2vs0mg"},{"bike_id":"c21a64a9-d4ff-4cd4-9f5e-6b496c951d59","system_id":"levelo_inurba_marseille","lat":43.32475,"lon":5.3656,"is_reserved":false,"is_disabled":false,"rental_uris":{"android":"levelo://app?vid=c21a64a9-d4ff-4cd4-9f5e-6b496c951d59","ios":"levelo://app?vid=c21a64a9-d4ff-4cd4-9f5e-6b496c951d59"},"vehicle_type_id":"4","last_reported":1748376693,"current_range_meters":16800,"station_id":"ce4bhs12rcd13ifvqhvg","pricing_plan_id":"cebpf4jnsgd1na2vs0mg"},{"bike_id":"349e7297-179d-46aa-af73-d0772f15795a","system_id":"levelo_inurba_marseille","lat":43.29986,"lon":5.38384,"is_reserved":false,"is_disabled":false,"rental_uris":{"android":"levelo://app?vid=349e7297-179d-46aa-af73-d0772f15795a","ios":"levelo://app?vid=349e7297-179d-46aa-af73-d0772f15795a"},"vehicle_type_id":"4","last_reported":1748376693,"current_range_meters":17200,"station_id":"","pricing_plan_id":"cebpf4jnsgd1na2vs0mg"},{"bike_id":"3b07f020-3d8e-47eb-b723-de46e817e2a3","system_id":"levelo_inurba_marseille","lat":43.29756,"lon":5.3837,"is_reserved":false,"is_disabled":false,"rental_uris":{"android":"levelo://app?vid=3b07f020-3d8e-47eb-b723-de46e817e2a3","ios":"levelo://app?vid=3b07f020-3d8e-47eb-b723-de46e817e2a3"},"vehicle_type_id":"4","last_reported":1748376693,"current_range_meters":17200,"station_id":"","pricing_plan_id":"cebpf4jnsgd1na2vs0mg"},{"bike_id":"2d342954-e473-4d23-8261-9eee5e1c77f4","system_id":"levelo_inurba_marseille","lat":43.29712,"lon":5.36607,"is_reserved":false,"is_disabled":false,"rental_uris":{"android":"levelo://app?vid=2d342954-e473-4d23-8261-9eee5e1c77f4","ios":"levelo://app?vid=2d342954-e473-4d23-8261-9eee5e1c77f4"},"vehicle_type_id":"4","last_reported":1748376693,"current_range_meters":17200,"station_id":"ce4bgn12rcd13ifvqbt0","pricing_plan_id":"cebpf4jnsgd1na2vs0mg"},{"bike_id":"47473bd8-8b43-432c-9d7a-415e717aa32f","system_id":"levelo_inurba_marseille","lat":43.30888,"lon":5.39637,"is_reserved":false,"is_disabled":false,"rental_uris":{"android":"levelo://app?vid=47473bd8-8b43-432c-9d7a-415e717aa32f","ios":"levelo://app?vid=47473bd8-8b43-432c-9d7a-415e717aa32f"},"vehicle_type_id":"4","last_reported":1748376693,"current_range_meters":17200,"station_id":"ce4bh012rcd13ifvqcv0","pricing_plan_id":"cebpf4jnsgd1na2vs0mg"},{"bike_id":"2c48cbb3-da00-4761-aeed-14ea44d8c62f","system_id":"levelo_inurba_marseille","lat":43.30219,"lon":5.39464,"is_reserved":false,"is_disabled":false,"rental_uris":{"android":"levelo://app?vid=2c48cbb3-da00-4761-aeed-14ea44d8c62f","ios":"levelo://app?vid=2c48cbb3-da00-4761-aeed-14ea44d8c62f"},"vehicle_type_id":"4","last_reported":1748376693,"current_range_meters":17200,"station_id":"ce4bh0p2rcd13ifvqd70","pricing_plan_id":"cebpf4jnsgd1na2vs0mg"},{"bike_id":"2070b75f-30e7-41e0-ba4d-dd096d96a131","system_id":"levelo_inurba_marseille","lat":43.29247,"lon":5.38443,"is_reserved":false,"is_disabled":false,"rental_uris":{"android":"levelo://app?vid=2070b75f-30e7-41e0-ba4d-dd096d96a131","ios":"levelo://app?vid=2070b75f-30e7-41e0-ba4d-dd096d96a131"},"vehicle_type_id":"4","last_reported":1748376693,"current_range_meters":17200,"station_id":"ce4bh692rcd13ifvqea0","pricing_plan_id":"cebpf4jnsgd1na2vs0mg"},{"bike_id":"45c941a7-9562-4778-ae0c-86ddbaf5a628","system_id":"levelo_inurba_marseille","lat":43.2457,"lon":5.39507,"is_reserved":false,"is_disabled":false,"rental_uris":{"android":"levelo://app?vid=45c941a7-9562-4778-ae0c-86ddbaf5a628","ios":"levelo://app?vid=45c941a7-9562-4778-ae0c-86ddbaf5a628"},"vehicle_type_id":"4","last_reported":1748376693,"current_range_meters":17200,"station_id":"ce4bhlp2rcd13ifvqgjg","pricing_plan_id":"cebpf4jnsgd1na2vs0mg"},{"bike_id":"ed3ce463-8108-462a-b16b-760e2671d87c","system_id":"levelo_inurba_marseille","lat":43.25093,"lon":5.39506,"is_reserved":false,"is_disabled":false,"rental_uris":{"android":"levelo://app?vid=ed3ce463-8108-462a-b16b-760e2671d87c","ios":"levelo://app?vid=ed3ce463-8108-462a-b16b-760e2671d87c"},"vehicle_type_id":"4","last_reported":1748376693,"current_range_meters":17200,"station_id":"ce4bhm12rcd13ifvqgkg","pricing_plan_id":"cebpf4jnsgd1na2vs0mg"},{"bike_id":"2447e726-02f2-4707-a232-a209224dd9ad","system_id":"levelo_inurba_marseille","lat":43.33025,"lon":5.3903,"is_reserved":false,"is_disabled":false,"rental_uris":{"android":"levelo://app?vid=2447e726-02f2-4707-a232-a209224dd9ad","ios":"levelo://app?vid=2447e726-02f2-4707-a232-a209224dd9ad"},"vehicle_type_id":"4","last_reported":1748376693,"current_range_meters":17200,"station_id":"ce4bhr92rcd13ifvqhrg","pricing_plan_id":"cebpf4jnsgd1na2vs0mg"},{"bike_id":"13f44831-c6c1-4d03-9899-2a7d2c674a4b","system_id":"levelo_inurba_marseille","lat":43.28101,"lon":5.40636,"is_reserved":false,"is_disabled":false,"rental_uris":{"android":"levelo://app?vid=13f44831-c6c1-4d03-9899-2a7d2c674a4b","ios":"levelo://app?vid=13f44831-c6c1-4d03-9899-2a7d2c674a4b"},"vehicle_type_id":"4","last_reported":1748376693,"current_range_meters":17600,"station_id":"","pricing_plan_id":"cebpf4jnsgd1na2vs0mg"},{"bike_id":"3865b0a2-6909-4ea2-b648-0ed5dd91b7a2","system_id":"levelo_inurba_marseille","lat":43.22531,"lon":5.34773,"is_reserved":false,"is_disabled":false,"rental_uris":{"android":"levelo://app?vid=3865b0a2-6909-4ea2-b648-0ed5dd91b7a2","ios":"levelo://app?vid=3865b0a2-6909-4ea2-b648-0ed5dd91b7a2"},"vehicle_type_id":"4","last_reported":1748376693,"current_range_meters":17600,"station_id":"","pricing_plan_id":"cebpf4jnsgd1na2vs0mg"},{"bike_id":"513b5f01-a9b9-439d-aef2-ce9f2e0b93eb","system_id":"levelo_inurba_marseille","lat":43.29538,"lon":5.38545,"is_reserved":false,"is_disabled":false,"rental_uris":{"android":"levelo://app?vid=513b5f01-a9b9-439d-aef2-ce9f2e0b93eb","ios":"levelo://app?vid=513b5f01-a9b9-439d-aef2-ce9f2e0b93eb"},"vehicle_type_id":"4","last_reported":1748376693,"current_range_meters":17600,"station_id":"ce4bgih2rcd13ifvqba0","pricing_plan_id":"cebpf4jnsgd1na2vs0mg"},{"bike_id":"55358351-4ccb-42da-889e-8b7aadb9ef55","system_id":"levelo_inurba_marseille","lat":43.29961,"lon":5.37172,"is_reserved":false,"is_disabled":false,"rental_uris":{"android":"levelo://app?vid=55358351-4ccb-42da-889e-8b7aadb9ef55","ios":"levelo://app?vid=55358351-4ccb-42da-889e-8b7aadb9ef55"},"vehicle_type_id":"4","last_reported":1748376693,"current_range_meters":17600,"station_id":"ce4bgr92rcd13ifvqc7g","pricing_plan_id":"cebpf4jnsgd1na2vs0mg"},{"bike_id":"06fca470-8e0b-49aa-b619-7c1a67427f84","system_id":"levelo_inurba_marseille","lat":43.30265,"lon":5.40076,"is_reserved":false,"is_disabled":false,"rental_uris":{"android":"levelo://app?vid=06fca470-8e0b-49aa-b619-7c1a67427f84","ios":"levelo://app?vid=06fca470-8e0b-49aa-b619-7c1a67427f84"},"vehicle_type_id":"4","last_reported":1748376693,"current_range_meters":17600,"station_id":"ce4bgvh2rcd13ifvqcs0","pricing_plan_id":"cebpf4jnsgd1na2vs0mg"},{"bike_id":"391c1c5e-58ef-438c-ae6d-582eb5e5c12f","system_id":"levelo_inurba_marseille","lat":43.29433,"lon":5.38609,"is_reserved":false,"is_disabled":false,"rental_uris":{"android":"levelo://app?vid=391c1c5e-58ef-438c-ae6d-582eb5e5c12f","ios":"levelo://app?vid=391c1c5e-58ef-438c-ae6d-582eb5e5c12f"},"vehicle_type_id":"4","last_reported":1748376693,"current_range_meters":17600,"station_id":"ce4bh2h2rcd13ifvqdh0","pricing_plan_id":"cebpf4jnsgd1na2vs0mg"},{"bike_id":"68d70f13-fc49-4672-a830-ee7878902172","system_id":"levelo_inurba_marseille","lat":43.23975,"lon":5.36616,"is_reserved":false,"is_disabled":false,"rental_uris":{"android":"levelo://app?vid=68d70f13-fc49-4672-a830-ee7878902172","ios":"levelo://app?vid=68d70f13-fc49-4672-a830-ee7878902172"},"vehicle_type_id":"4","last_reported":1748376693,"current_range_meters":17600,"station_id":"ce4bhi12rcd13ifvqfp0","pricing_plan_id":"cebpf4jnsgd1na2vs0mg"},{"bike_id":"7fbe708d-c33c-41ec-a527-afb366d5d874","system_id":"levelo_inurba_marseille","lat":43.27941,"lon":5.41044,"is_reserved":false,"is_disabled":false,"rental_uris":{"android":"levelo://app?vid=7fbe708d-c33c-41ec-a527-afb366d5d874","ios":"levelo://app?vid=7fbe708d-c33c-41ec-a527-afb366d5d874"},"vehicle_type_id":"4","last_reported":1748376693,"current_range_meters":17600,"station_id":"ce4bhnp2rcd13ifvqh0g","pricing_plan_id":"cebpf4jnsgd1na2vs0mg"},{"bike_id":"7adbd369-f684-4c09-90a5-6bbf2f150346","system_id":"levelo_inurba_marseille","lat":43.32134,"lon":5.3676,"is_reserved":false,"is_disabled":false,"rental_uris":{"android":"levelo://app?vid=7adbd369-f684-4c09-90a5-6bbf2f150346","ios":"levelo://app?vid=7adbd369-f684-4c09-90a5-6bbf2f150346"},"vehicle_type_id":"4","last_reported":1748376693,"current_range_meters":17600,"station_id":"ce4bhrh2rcd13ifvqhug","pricing_plan_id":"cebpf4jnsgd1na2vs0mg"},{"bike_id":"798b4dd9-09fd-4939-a396-5d8278d045a8","system_id":"levelo_inurba_marseille","lat":43.28228,"lon":5.39025,"is_reserved":false,"is_disabled":false,"rental_uris":{"android":"levelo://app?vid=798b4dd9-09fd-4939-a396-5d8278d045a8","ios":"levelo://app?vid=798b4dd9-09fd-4939-a396-5d8278d045a8"},"vehicle_type_id":"4","last_reported":1748376693,"current_range_meters":18000,"station_id":"","pricing_plan_id":"cebpf4jnsgd1na2vs0mg"},{"bike_id":"68189fd1-9866-4843-94ef-6d114f110fbd","system_id":"levelo_inurba_marseille","lat":43.2822,"lon":5.39055,"is_reserved":false,"is_disabled":false,"rental_uris":{"android":"levelo://app?vid=68189fd1-9866-4843-94ef-6d114f110fbd","ios":"levelo://app?vid=68189fd1-9866-4843-94ef-6d114f110fbd"},"vehicle_type_id":"4","last_reported":1748376693,"current_range_meters":18000,"station_id":"","pricing_plan_id":"cebpf4jnsgd1na2vs0mg"},{"bike_id":"e4e0f159-d249-4f1e-afd0-f1e06cb58b08","system_id":"levelo_inurba_marseille","lat":43.30593,"lon":5.39347,"is_reserved":false,"is_disabled":false,"rental_uris":{"android":"levelo://app?vid=e4e0f159-d249-4f1e-afd0-f1e06cb58b08","ios":"levelo://app?vid=e4e0f159-d249-4f1e-afd0-f1e06cb58b08"},