{"last_updated":1761718619,"ttl":60,"version":"2.2","data":{"bikes":[{"bike_id":"aba6b563-5093-4f2c-abdc-45b501f05388","system_id":"levelo_inurba_marseille","lat":43.27069,"lon":5.38287,"is_reserved":false,"is_disabled":true,"rental_uris":{"android":"levelo://app?vid=aba6b563-5093-4f2c-abdc-45b501f05388","ios":"levelo://app?vid=aba6b563-5093-4f2c-abdc-45b501f05388"},"vehicle_type_id":"4","last_reported":1761718619,"current_range_meters":2800,"station_id":"st_d3n2fo6cfp8s73cte1j0","pricing_plan_id":"cebpf4jnsgd1na2vs0mg"},{"bike_id":"59689845-2110-4933-b13e-5e5e6e1c17c0","system_id":"levelo_inurba_marseille","lat":43.29167,"lon":5.3716,"is_reserved":false,"is_disabled":false,"rental_uris":{"android":"levelo://app?vid=59689845-2110-4933-b13e-5e5e6e1c17c0","ios":"levelo://app?vid=59689845-2110-4933-b13e-5e5e6e1c17c0"},"vehicle_type_id":"4","last_reported":1761718619,"current_range_meters":2800,"station_id":"ce4bha92rcd13ifvqeh0","pricing_plan_id":"cebpf4jnsgd1na2vs0mg"},{"bike_id":"3f7c552a-2a9b-4bf8-95bd-507570380f71","system_id":"levelo_inurba_marseille","lat":43.28696,"lon":5.37937,"is_reserved":false,"is_disabled":false,"rental_uris":{"android":"levelo://app?vid=3f7c552a-2a9b-4bf8-95bd-507570380f71","ios":"levelo://app?vid=3f7c552a-2a9b-4bf8-95bd-507570380f71"},"vehicle_type_id":"4","last_reported":1761718619,"current_range_meters":3200,"station_id":"","pricing_plan_id":"cebpf4jnsgd1na2vs0mg"},{"bike_id":"b5448b30-152d-44df-b35f-727ecc2cf419","system_id":"levelo_inurba_marseille","lat":43.25333,"lon":5.42165,"is_reserved":false,"is_disabled":false,"rental_uris":{"android":"levelo://app?vid=b5448b30-152d-44df-b35f-727ecc2cf419","ios":"levelo://app?vid=b5448b30-152d-44df-b35f-727ecc2cf419"},"vehicle_type_id":"4","last_reported":1761718619,"current_range_meters":3200,"station_id":"st_d2m65c5bi1j21697t3ng","pricing_plan_id":"cebpf4jnsgd1na2vs0mg"},{"bike_id":"76bab7c3-bfc6-410c-b71c-b504ab4f3e12","system_id":"levelo_inurba_marseille","lat":43.26535,"lon":5.38028,"is_reserved":false,"is_disabled":false,"rental_uris":{"android":"levelo://app?vid=76bab7c3-bfc6-410c-b71c-b504ab4f3e12","ios":"levelo://app?vid=76bab7c3-bfc6-410c-b71c-b504ab4f3e12"},"vehicle_type_id":"4","last_reported":1761718619,"current_range_meters":3600,"station_id":"","pricing_plan_id":"cebpf4jnsgd1na2vs0mg"},{"bike_id":"174f0929-3efc-43ed-b568-f665ef5213af","system_id":"levelo_inurba_marseille","lat":43.303162,"lon":5.404426,"is_reserved":false,"is_disabled":false,"rental_uris":{"android":"levelo://app?vid=174f0929-3efc-43ed-b568-f665ef5213af","ios":"levelo://app?vid=174f0929-3efc-43ed-b568-f665ef5213af"},"vehicle_type_id":"4","last_reported":1761718619,"current_range_meters":4400,"station_id":"ce4bh012rcd13ifvqd10","pricing_plan_id":"cebpf4jnsgd1na2vs0mg"},{"bike_id":"aa5c1afc-feac-4ddb-ad79-cf993c47f2dc","system_id":"levelo_inurba_marseille","lat":43.28402,"lon":5.37509,"is_reserved":false,"is_disabled":false,"rental_uris":{"android":"levelo://app?vid=aa5c1afc-feac-4ddb-ad79-cf993c47f2dc","ios":"levelo://app?vid=aa5c1afc-feac-4ddb-ad79-cf993c47f2dc"},"vehicle_type_id":"4","last_reported":1761718619,"current_range_meters":4400,"station_id":"ce4bh412rcd13ifvqds0","pricing_plan_id":"cebpf4jnsgd1na2vs0mg"},{"bike_id":"4053e572-fdb8-4eb6-a497-5ba9a7592ff2","system_id":"levelo_inurba_marseille","lat":43.297529,"lon":5.427817,"is_reserved":false,"is_disabled":false,"rental_uris":{"android":"levelo://app?vid=4053e572-fdb8-4eb6-a497-5ba9a7592ff2","ios":"levelo://app?vid=4053e572-fdb8-4eb6-a497-5ba9a7592ff2"},"vehicle_type_id":"4","last_reported":1761718619,"current_range_meters":4800,"station_id":"st_d3md5207bmas73dh9klg","pricing_plan_id":"cebpf4jnsgd1na2vs0mg"},{"bike_id":"eea3c3c3-734f-4fd3-8061-ed84cfe47b38","system_id":"levelo_inurba_marseille","lat":43.325618,"lon":5.391308,"is_reserved":false,"is_disabled":false,"rental_uris":{"android":"levelo://app?vid=eea3c3c3-734f-4fd3-8061-ed84cfe47b38","ios":"levelo://app?vid=eea3c3c3-734f-4fd3-8061-ed84cfe47b38"},"vehicle_type_id":"4","last_reported":1761718619,"current_range_meters":4800,"station_id":"","pricing_plan_id":"cebpf4jnsgd1na2vs0mg"},{"bike_id":"0696ebf5-d825-4831-81f9-0d14d23a6f3d","system_id":"levelo_inurba_marseille","lat":43.29695,"lon":5.36618,"is_reserved":false,"is_disabled":false,"rental_uris":{"android":"levelo://app?vid=0696ebf5-d825-4831-81f9-0d14d23a6f3d","ios":"levelo://app?vid=0696ebf5-d825-4831-81f9-0d14d23a6f3d"},"vehicle_type_id":"4","last_reported":1761718619,"current_range_meters":4800,"station_id":"ce4bgn12rcd13ifvqbt0","pricing_plan_id":"cebpf4jnsgd1na2vs0mg"},{"bike_id":"ecf682c9-b328-42d4-bf93-c673977dea5c","system_id":"levelo_inurba_marseille","lat":43.291689,"lon":5.371461,"is_reserved":false,"is_disabled":true,"rental_uris":{"android":"levelo://app?vid=ecf682c9-b328-42d4-bf93-c673977dea5c","ios":"levelo://app?vid=ecf682c9-b328-42d4-bf93-c673977dea5c"},"vehicle_type_id":"4","last_reported":1761718619,"current_range_meters":4800,"station_id":"ce4bha92rcd13ifvqeh0","pricing_plan_id":"cebpf4jnsgd1na2vs0mg"},{"bike_id":"fd09dbe7-0bec-431b-9705-875a0c7a7829","system_id":"levelo_inurba_marseille","lat":43.23067,"lon":5.35479,"is_reserved":false,"is_disabled":true,"rental_uris":{"android":"levelo://app?vid=fd09dbe7-0bec-431b-9705-875a0c7a7829","ios":"levelo://app?vid=fd09dbe7-0bec-431b-9705-875a0c7a7829"},"vehicle_type_id":"4","last_reported":1761718619,"current_range_meters":5600,"station_id":"cpo3342slgdg3j2ifvpg","pricing_plan_id":"cebpf4jnsgd1na2vs0mg"},{"bike_id":"2791dc20-1330-4e5d-bc12-0c0bc4f70bad","system_id":"levelo_inurba_marseille","lat":43.29782,"lon":5.37092,"is_reserved":false,"is_disabled":false,"rental_uris":{"android":"levelo://app?vid=2791dc20-1330-4e5d-bc12-0c0bc4f70bad","ios":"levelo://app?vid=2791dc20-1330-4e5d-bc12-0c0bc4f70bad"},"vehicle_type_id":"4","last_reported":1761718619,"current_range_meters":5600,"station_id":"ce4bgop2rcd13ifvqc1g","pricing_plan_id":"cebpf4jnsgd1na2vs0mg"},{"bike_id":"813b0e57-2c36-42ec-aee0-add73db61124","system_id":"levelo_inurba_marseille","lat":43.30871,"lon":5.39646,"is_reserved":false,"is_disabled":false,"rental_uris":{"android":"levelo://app?vid=813b0e57-2c36-42ec-aee0-add73db61124","ios":"levelo://app?vid=813b0e57-2c36-42ec-aee0-add73db61124"},"vehicle_type_id":"4","last_reported":1761718619,"current_range_meters":6800,"station_id":"ce4bh012rcd13ifvqcv0","pricing_plan_id":"cebpf4jnsgd1na2vs0mg"},{"bike_id":"3796c45a-6621-460a-b393-e47c52479d7b","system_id":"levelo_inurba_marseille","lat":43.28552,"lon":5.39074,"is_reserved":false,"is_disabled":false,"rental_uris":{"android":"levelo://app?vid=3796c45a-6621-460a-b393-e47c52479d7b","ios":"levelo://app?vid=3796c45a-6621-460a-b393-e47c52479d7b"},"vehicle_type_id":"4","last_reported":1761718619,"current_range_meters":6800,"station_id":"","pricing_plan_id":"cebpf4jnsgd1na2vs0mg"},{"bike_id":"a58fc224-2878-4767-92d7-dfc7da4ca7ad","system_id":"levelo_inurba_marseille","lat":43.24987,"lon":5.37634,"is_reserved":false,"is_disabled":false,"rental_uris":{"android":"levelo://app?vid=a58fc224-2878-4767-92d7-dfc7da4ca7ad","ios":"levelo://app?vid=a58fc224-2878-4767-92d7-dfc7da4ca7ad"},"vehicle_type_id":"4","last_reported":1761718619,"current_range_meters":6800,"station_id":"","pricing_plan_id":"cebpf4jnsgd1na2vs0mg"},{"bike_id":"07f188eb-bdce-4512-b54b-1516d85c5e09","system_id":"levelo_inurba_marseille","lat":43.24391,"lon":5.37043,"is_reserved":false,"is_disabled":false,"rental_uris":{"android":"levelo://app?vid=07f188eb-bdce-4512-b54b-1516d85c5e09","ios":"levelo://app?vid=07f188eb-bdce-4512-b54b-1516d85c5e09"},"vehicle_type_id":"4","last_reported":1761718619,"current_range_meters":6800,"station_id":"ce4bhhh2rcd13ifvqfk0","pricing_plan_id":"cebpf4jnsgd1na2vs0mg"},{"bike_id":"1880ebb9-7edb-463e-976b-226e958b9ebe","system_id":"levelo_inurba_marseille","lat":43.31097,"lon":5.37487,"is_reserved":false,"is_disabled":false,"rental_uris":{"android":"levelo://app?vid=1880ebb9-7edb-463e-976b-226e958b9ebe","ios":"levelo://app?vid=1880ebb9-7edb-463e-976b-226e958b9ebe"},"vehicle_type_id":"4","last_reported":1761718619,"current_range_meters":7200,"station_id":"ce4bgt12rcd13ifvqce0","pricing_plan_id":"cebpf4jnsgd1na2vs0mg"},{"bike_id":"ff3ce436-1785-418e-8081-70fae0b4c310","system_id":"levelo_inurba_marseille","lat":43.27083,"lon":5.42274,"is_reserved":false,"is_disabled":false,"rental_uris":{"android":"levelo://app?vid=ff3ce436-1785-418e-8081-70fae0b4c310","ios":"levelo://app?vid=ff3ce436-1785-418e-8081-70fae0b4c310"},"vehicle_type_id":"4","last_reported":1761718619,"current_range_meters":7200,"station_id":"ce4bhk92rcd13ifvqgb0","pricing_plan_id":"cebpf4jnsgd1na2vs0mg"},{"bike_id":"208a1fa9-c371-4a9e-bc97-d54ccd03a0b4","system_id":"levelo_inurba_marseille","lat":43.337477,"lon":5.374661,"is_reserved":false,"is_disabled":false,"rental_uris":{"android":"levelo://app?vid=208a1fa9-c371-4a9e-bc97-d54ccd03a0b4","ios":"levelo://app?vid=208a1fa9-c371-4a9e-bc97-d54ccd03a0b4"},"vehicle_type_id":"4","last_reported":1761718619,"current_range_meters":7200,"station_id":"","pricing_plan_id":"cebpf4jnsgd1na2vs0mg"},{"bike_id":"f2cfca52-bd97-4b84-8272-940d6ef94f46","system_id":"levelo_inurba_marseille","lat":43.28411,"lon":5.35002,"is_reserved":false,"is_disabled":false,"rental_uris":{"android":"levelo://app?vid=f2cfca52-bd97-4b84-8272-940d6ef94f46","ios":"levelo://app?vid=f2cfca52-bd97-4b84-8272-940d6ef94f46"},"vehicle_type_id":"4","last_reported":1761718619,"current_range_meters":7200,"station_id":"ce4bhbh2rcd13ifvqepg","pricing_plan_id":"cebpf4jnsgd1na2vs0mg"},{"bike_id":"f9484733-c07f-4293-8628-46871c65b913","system_id":"levelo_inurba_marseille","lat":43.25456,"lon":5.38104,"is_reserved":false,"is_disabled":false,"rental_uris":{"android":"levelo://app?vid=f9484733-c07f-4293-8628-46871c65b913","ios":"levelo://app?vid=f9484733-c07f-4293-8628-46871c65b913"},"vehicle_type_id":"4","last_reported":1761718619,"current_range_meters":7200,"station_id":"","pricing_plan_id":"cebpf4jnsgd1na2vs0mg"},{"bike_id":"3b82aff6-7cb9-43aa-944c-0f02fe4ef9fa","system_id":"levelo_inurba_marseille","lat":43.27951,"lon":5.386961,"is_reserved":false,"is_disabled":true,"rental_uris":{"android":"levelo://app?vid=3b82aff6-7cb9-43aa-944c-0f02fe4ef9fa","ios":"levelo://app?vid=3b82aff6-7cb9-43aa-944c-0f02fe4ef9fa"},"vehicle_type_id":"4","last_reported":1761718619,"current_range_meters":8000,"station_id":"ce4bhg12rcd13ifvqf80","pricing_plan_id":"cebpf4jnsgd1na2vs0mg"},{"bike_id":"3e42f0f0-3181-45e7-a6a2-bde41c463aeb","system_id":"levelo_inurba_marseille","lat":43.30929,"lon":5.40148,"is_reserved":false,"is_disabled":false,"rental_uris":{"android":"levelo://app?vid=3e42f0f0-3181-45e7-a6a2-bde41c463aeb","ios":"levelo://app?vid=3e42f0f0-3181-45e7-a6a2-bde41c463aeb"},"vehicle_type_id":"4","last_reported":1761718619,"current_range_meters":8000,"station_id":"ce4bgvp2rcd13ifvqct0","pricing_plan_id":"cebpf4jnsgd1na2vs0mg"},{"bike_id":"dbcbcef0-4b5f-446e-9d2e-80d991993c2b","system_id":"levelo_inurba_marseille","lat":43.29525,"lon":5.40235,"is_reserved":false,"is_disabled":false,"rental_uris":{"android":"levelo://app?vid=dbcbcef0-4b5f-446e-9d2e-80d991993c2b","ios":"levelo://app?vid=dbcbcef0-4b5f-446e-9d2e-80d991993c2b"},"vehicle_type_id":"4","last_reported":1761718619,"current_range_meters":8400,"station_id":"","pricing_plan_id":"cebpf4jnsgd1na2vs0mg"},{"bike_id":"011ffc47-cab5-4e69-83ea-75158b7053d8","system_id":"levelo_inurba_marseille","lat":43.25572,"lon":5.38253,"is_reserved":false,"is_disabled":true,"rental_uris":{"android":"levelo://app?vid=011ffc47-cab5-4e69-83ea-75158b7053d8","ios":"levelo://app?vid=011ffc47-cab5-4e69-83ea-75158b7053d8"},"vehicle_type_id":"4","last_reported":1761718619,"current_range_meters":8400,"station_id":"ce4bhih2rcd13ifvqfs0","pricing_plan_id":"cebpf4jnsgd1na2vs0mg"},{"bike_id":"08129b9e-8873-4f8e-9f48-40e49ee7c8b4","system_id":"levelo_inurba_marseille","lat":43.29269,"lon":5.38399,"is_reserved":false,"is_disabled":false,"rental_uris":{"android":"levelo://app?vid=08129b9e-8873-4f8e-9f48-40e49ee7c8b4","ios":"levelo://app?vid=08129b9e-8873-4f8e-9f48-40e49ee7c8b4"},"vehicle_type_id":"4","last_reported":1761718619,"current_range_meters":8400,"station_id":"ce4bh692rcd13ifvqea0","pricing_plan_id":"cebpf4jnsgd1na2vs0mg"},{"bike_id":"b266dcaa-1434-4312-ac09-76a519cde647","system_id":"levelo_inurba_marseille","lat":43.26784,"lon":5.39418,"is_reserved":false,"is_disabled":false,"rental_uris":{"android":"levelo://app?vid=b266dcaa-1434-4312-ac09-76a519cde647","ios":"levelo://app?vid=b266dcaa-1434-4312-ac09-76a519cde647"},"vehicle_type_id":"4","last_reported":1761718619,"current_range_meters":8800,"station_id":"ce4bhh12rcd13ifvqfg0","pricing_plan_id":"cebpf4jnsgd1na2vs0mg"},{"bike_id":"eecef57d-1115-4654-92c3-e7ae1ae01ee6","system_id":"levelo_inurba_marseille","lat":43.27819,"lon":5.39201,"is_reserved":false,"is_disabled":false,"rental_uris":{"android":"levelo://app?vid=eecef57d-1115-4654-92c3-e7ae1ae01ee6","ios":"levelo://app?vid=eecef57d-1115-4654-92c3-e7ae1ae01ee6"},"vehicle_type_id":"4","last_reported":1761718619,"current_range_meters":8800,"station_id":"ce4bhjp2rcd13ifvqga0","pricing_plan_id":"cebpf4jnsgd1na2vs0mg"},{"bike_id":"872eb665-bdbb-4461-8b90-79087dafae89","system_id":"levelo_inurba_marseille","lat":43.26218,"lon":5.40468,"is_reserved":false,"is_disabled":false,"rental_uris":{"android":"levelo://app?vid=872eb665-bdbb-4461-8b90-79087dafae89","ios":"levelo://app?vid=872eb665-bdbb-4461-8b90-79087dafae89"},"vehicle_type_id":"4","last_reported":1761718619,"current_range_meters":8800,"station_id":"ce4bhmh2rcd13ifvqgmg","pricing_plan_id":"cebpf4jnsgd1na2vs0mg"},{"bike_id":"d81fe572-b0fb-4539-9e7a-4dbfc87474ff","system_id":"levelo_inurba_marseille","lat":43.287272,"lon":5.360871,"is_reserved":false,"is_disabled":false,"rental_uris":{"android":"levelo://app?vid=d81fe572-b0fb-4539-9e7a-4dbfc87474ff","ios":"levelo://app?vid=d81fe572-b0fb-4539-9e7a-4dbfc87474ff"},"vehicle_type_id":"4","last_reported":1761718619,"current_range_meters":9200,"station_id":"cki0cbj6b192h4jlfktg","pricing_plan_id":"cebpf4jnsgd1na2vs0mg"},{"bike_id":"dccef0b1-edb3-49b5-866c-43e10e5763cc","system_id":"levelo_inurba_marseille","lat":43.288189,"lon":5.438391,"is_reserved":false,"is_disabled":false,"rental_uris":{"android":"levelo://app?vid=dccef0b1-edb3-49b5-866c-43e10e5763cc","ios":"levelo://app?vid=dccef0b1-edb3-49b5-866c-43e10e5763cc"},"vehicle_type_id":"4","last_reported":1761718619,"current_range_meters":9200,"station_id":"","pricing_plan_id":"cebpf4jnsgd1na2vs0mg"},{"bike_id":"0706bd2c-a666-4666-8663-f4a6c5a6d055","system_id":"levelo_inurba_marseille","lat":43.288435,"lon":5.392629,"is_reserved":false,"is_disabled":false,"rental_uris":{"android":"levelo://app?vid=0706bd2c-a666-4666-8663-f4a6c5a6d055","ios":"levelo://app?vid=0706bd2c-a666-4666-8663-f4a6c5a6d055"},"vehicle_type_id":"4","last_reported":1761718619,"current_range_meters":9200,"station_id":"ce4bh2p2rcd13ifvqdi0","pricing_plan_id":"cebpf4jnsgd1na2vs0mg"},{"bike_id":"73359caf-072d-4007-b260-0916a1365425","system_id":"levelo_inurba_marseille","lat":43.30302,"lon":5.39206,"is_reserved":false,"is_disabled":false,"rental_uris":{"android":"levelo://app?vid=73359caf-072d-4007-b260-0916a1365425","ios":"levelo://app?vid=73359caf-072d-4007-b260-0916a1365425"},"vehicle_type_id":"4","last_reported":1761718619,"current_range_meters":9200,"station_id":"ce4bgkh2rcd13ifvqbk0","pricing_plan_id":"cebpf4jnsgd1na2vs0mg"},{"bike_id":"6abb9e09-33f3-43f3-9417-8cc0cf0144f6","system_id":"levelo_inurba_marseille","lat":43.29926,"lon":5.37432,"is_reserved":false,"is_disabled":true,"rental_uris":{"android":"levelo://app?vid=6abb9e09-33f3-43f3-9417-8cc0cf0144f6","ios":"levelo://app?vid=6abb9e09-33f3-43f3-9417-8cc0cf0144f6"},"vehicle_type_id":"4","last_reported":1761718619,"current_range_meters":9200,"station_id":"ce4bgjh2rcd13ifvqbg0","pricing_plan_id":"cebpf4jnsgd1na2vs0mg"},{"bike_id":"5e8f0882-5c60-48e3-9df1-214d5666a53f","system_id":"levelo_inurba_marseille","lat":43.3126,"lon":5.41187,"is_reserved":false,"is_disabled":false,"rental_uris":{"android":"levelo://app?vid=5e8f0882-5c60-48e3-9df1-214d5666a53f","ios":"levelo://app?vid=5e8f0882-5c60-48e3-9df1-214d5666a53f"},"vehicle_type_id":"4","last_reported":1761718619,"current_range_meters":9200,"station_id":"","pricing_plan_id":"cebpf4jnsgd1na2vs0mg"},{"bike_id":"32a863b6-26b8-457c-992a-f0253dd4c910","system_id":"levelo_inurba_marseille","lat":43.284759,"lon":5.483869,"is_reserved":false,"is_disabled":false,"rental_uris":{"android":"levelo://app?vid=32a863b6-26b8-457c-992a-f0253dd4c910","ios":"levelo://app?vid=32a863b6-26b8-457c-992a-f0253dd4c910"},"vehicle_type_id":"4","last_reported":1761718619,"current_range_meters":9200,"station_id":"st_d3svhcjqgbts73a3dn0g","pricing_plan_id":"cebpf4jnsgd1na2vs0mg"},{"bike_id":"b33dd93e-a353-4859-98de-f9819b9f0404","system_id":"levelo_inurba_marseille","lat":43.25105,"lon":5.39488,"is_reserved":false,"is_disabled":false,"rental_uris":{"android":"levelo://app?vid=b33dd93e-a353-4859-98de-f9819b9f0404","ios":"levelo://app?vid=b33dd93e-a353-4859-98de-f9819b9f0404"},"vehicle_type_id":"4","last_reported":1761718619,"current_range_meters":9600,"station_id":"ce4bhm12rcd13ifvqgkg","pricing_plan_id":"cebpf4jnsgd1na2vs0mg"},{"bike_id":"2dadb0b7-125c-4cad-a51f-e306e38949dd","system_id":"levelo_inurba_marseille","lat":43.253368,"lon":5.42161,"is_reserved":false,"is_disabled":false,"rental_uris":{"android":"levelo://app?vid=2dadb0b7-125c-4cad-a51f-e306e38949dd","ios":"levelo://app?vid=2dadb0b7-125c-4cad-a51f-e306e38949dd"},"vehicle_type_id":"4","last_reported":1761718619,"current_range_meters":9600,"station_id":"st_d2m65c5bi1j21697t3ng","pricing_plan_id":"cebpf4jnsgd1na2vs0mg"},{"bike_id":"05348a72-033c-4422-aaa9-58cc959b0648","system_id":"levelo_inurba_marseille","lat":43.240771,"lon":5.377416,"is_reserved":false,"is_disabled":false,"rental_uris":{"android":"levelo://app?vid=05348a72-033c-4422-aaa9-58cc959b0648","ios":"levelo://app?vid=05348a72-033c-4422-aaa9-58cc959b0648"},"vehicle_type_id":"4","last_reported":1761718619,"current_range_meters":9600,"station_id":"ce4bhnp2rcd13ifvqgvg","pricing_plan_id":"cebpf4jnsgd1na2vs0mg"},{"bike_id":"e68f19ec-6316-4a47-919b-a01164633315","system_id":"levelo_inurba_marseille","lat":43.25074,"lon":5.39511,"is_reserved":false,"is_disabled":true,"rental_uris":{"android":"levelo://app?vid=e68f19ec-6316-4a47-919b-a01164633315","ios":"levelo://app?vid=e68f19ec-6316-4a47-919b-a01164633315"},"vehicle_type_id":"4","last_reported":1761718619,"current_range_meters":9600,"station_id":"ce4bhm12rcd13ifvqgkg","pricing_plan_id":"cebpf4jnsgd1na2vs0mg"},{"bike_id":"c6960031-1a85-45d9-aae2-dcb70a0d1ede","system_id":"levelo_inurba_marseille","lat":43.3045,"lon":5.37915,"is_reserved":false,"is_disabled":false,"rental_uris":{"android":"levelo://app?vid=c6960031-1a85-45d9-aae2-dcb70a0d1ede","ios":"levelo://app?vid=c6960031-1a85-45d9-aae2-dcb70a0d1ede"},"vehicle_type_id":"4","last_reported":1761718619,"current_range_meters":9600,"station_id":"ce4bgup2rcd13ifvqcn0","pricing_plan_id":"cebpf4jnsgd1na2vs0mg"},{"bike_id":"b31ed6ae-3d76-45d7-8116-a1a8a172f8d5","system_id":"levelo_inurba_marseille","lat":43.314928,"lon":5.373086,"is_reserved":false,"is_disabled":false,"rental_uris":{"android":"levelo://app?vid=b31ed6ae-3d76-45d7-8116-a1a8a172f8d5","ios":"levelo://app?vid=b31ed6ae-3d76-45d7-8116-a1a8a172f8d5"},"vehicle_type_id":"4","last_reported":1761718619,"current_range_meters":9600,"station_id":"ce4bgt12rcd13ifvqcd0","pricing_plan_id":"cebpf4jnsgd1na2vs0mg"},{"bike_id":"d5ca831f-8041-403e-ada8-7b4196c3d5be","system_id":"levelo_inurba_marseille","lat":43.293714,"lon":5.379385,"is_reserved":false,"is_disabled":false,"rental_uris":{"android":"levelo://app?vid=d5ca831f-8041-403e-ada8-7b4196c3d5be","ios":"levelo://app?vid=d5ca831f-8041-403e-ada8-7b4196c3d5be"},"vehicle_type_id":"4","last_reported":1761718619,"current_range_meters":9600,"station_id":"","pricing_plan_id":"cebpf4jnsgd1na2vs0mg"},{"bike_id":"9a701c46-f8a1-48d4-ac3f-957f6dceeccc","system_id":"levelo_inurba_marseille","lat":43.31528,"lon":5.38057,"is_reserved":false,"is_disabled":false,"rental_uris":{"android":"levelo://app?vid=9a701c46-f8a1-48d4-ac3f-957f6dceeccc","ios":"levelo://app?vid=9a701c46-f8a1-48d4-ac3f-957f6dceeccc"},"vehicle_type_id":"4","last_reported":1761718619,"current_range_meters":9600,"station_id":"ce4bhsp2rcd13ifvqi50","pricing_plan_id":"cebpf4jnsgd1na2vs0mg"},{"bike_id":"e531de68-38da-4941-a63d-d9c15e7e8533","system_id":"levelo_inurba_marseille","lat":43.307774,"lon":5.376443,"is_reserved":false,"is_disabled":false,"rental_uris":{"android":"levelo://app?vid=e531de68-38da-4941-a63d-d9c15e7e8533","ios":"levelo://app?vid=e531de68-38da-4941-a63d-d9c15e7e8533"},"vehicle_type_id":"4","last_reported":1761718619,"current_range_meters":9600,"station_id":"ce4bgv92rcd13ifvqcq0","pricing_plan_id":"cebpf4jnsgd1na2vs0mg"},{"bike_id":"897d1025-cdde-48ec-9b73-6418bafdbbc5","system_id":"levelo_inurba_marseille","lat":43.280745,"lon":5.347614,"is_reserved":false,"is_disabled":false,"rental_uris":{"android":"levelo://app?vid=897d1025-cdde-48ec-9b73-6418bafdbbc5","ios":"levelo://app?vid=897d1025-cdde-48ec-9b73-6418bafdbbc5"},"vehicle_type_id":"4","last_reported":1761718619,"current_range_meters":9600,"station_id":"","pricing_plan_id":"cebpf4jnsgd1na2vs0mg"},{"bike_id":"3ae65f0b-2239-4eef-94d2-4c10c327bb85","system_id":"levelo_inurba_marseille","lat":43.279164,"lon":5.395792,"is_reserved":false,"is_disabled":false,"rental_uris":{"android":"levelo://app?vid=3ae65f0b-2239-4eef-94d2-4c10c327bb85","ios":"levelo://app?vid=3ae65f0b-2239-4eef-94d2-4c10c327bb85"},"vehicle_type_id":"4","last_reported":1761718619,"current_range_meters":10000,"station_id":"ce4bhf92rcd13ifvqf40","pricing_plan_id":"cebpf4jnsgd1na2vs0mg"},{"bike_id":"aa0e7e4b-f890-4f53-a40a-615d9f77115a","system_id":"levelo_inurba_marseille","lat":43.321101,"lon":5.368001,"is_reserved":false,"is_disabled":false,"rental_uris":{"android":"levelo://app?vid=aa0e7e4b-f890-4f53-a40a-615d9f77115a","ios":"levelo://app?vid=aa0e7e4b-f890-4f53-a40a-615d9f77115a"},"vehicle_type_id":"4","last_reported":1761718619,"current_range_meters":10000,"station_id":"ce4bhrh2rcd13ifvqhug","pricing_plan_id":"cebpf4jnsgd1na2vs0mg"},{"bike_id":"d2ce14a1-e9f5-407b-a0c3-2e69d0a16a79","system_id":"levelo_inurba_marseille","lat":43.28223,"lon":5.39078,"is_reserved":false,"is_disabled":true,"rental_uris":{"android":"levelo://app?vid=d2ce14a1-e9f5-407b-a0c3-2e69d0a16a79","ios":"levelo://app?vid=d2ce14a1-e9f5-407b-a0c3-2e69d0a16a79"},"vehicle_type_id":"4","last_reported":1761718619,"current_range_meters":10000,"station_id":"ce4bhn92rcd13ifvqgsg","pricing_plan_id":"cebpf4jnsgd1na2vs0mg"},{"bike_id":"dced2bcc-e95f-44ce-b7d8-7bb47def612a","system_id":"levelo_inurba_marseille","lat":43.23027,"lon":5.35518,"is_reserved":false,"is_disabled":false,"rental_uris":{"android":"levelo://app?vid=dced2bcc-e95f-44ce-b7d8-7bb47def612a","ios":"levelo://app?vid=dced2bcc-e95f-44ce-b7d8-7bb47def612a"},"vehicle_type_id":"4","last_reported":1761718619,"current_range_meters":10000,"station_id":"cpo3342slgdg3j2ifvpg","pricing_plan_id":"cebpf4jnsgd1na2vs0mg"},{"bike_id":"17ed224b-9fac-4dcb-97d7-d39708298032","system_id":"levelo_inurba_marseille","lat":43.28837,"lon":5.35826,"is_reserved":false,"is_disabled":false,"rental_uris":{"android":"levelo://app?vid=17ed224b-9fac-4dcb-97d7-d39708298032","ios":"levelo://app?vid=17ed224b-9fac-4dcb-97d7-d39708298032"},"vehicle_type_id":"4","last_reported":1761718619,"current_range_meters":10000,"station_id":"ce4bhb12rcd13ifvqem0","pricing_plan_id":"cebpf4jnsgd1na2vs0mg"},{"bike_id":"8a725d88-50bd-4351-84ea-d232021839e3","system_id":"levelo_inurba_marseille","lat":43.25546,"lon":5.39401,"is_reserved":false,"is_disabled":false,"rental_uris":{"android":"levelo://app?vid=8a725d88-50bd-4351-84ea-d232021839e3","ios":"levelo://app?vid=8a725d88-50bd-4351-84ea-d232021839e3"},"vehicle_type_id":"4","last_reported":1761718619,"current_range_meters":10000,"station_id":"","pricing_plan_id":"cebpf4jnsgd1na2vs0mg"},{"bike_id":"1975be38-f301-42ba-a022-50bba37a3dac","system_id":"levelo_inurba_marseille","lat":43.28393,"lon":5.37522,"is_reserved":false,"is_disabled":false,"rental_uris":{"android":"levelo://app?vid=1975be38-f301-42ba-a022-50bba37a3dac","ios":"levelo://app?vid=1975be38-f301-42ba-a022-50bba37a3dac"},"vehicle_type_id":"4","last_reported":1761718619,"current_range_meters":10000,"station_id":"ce4bh412rcd13ifvqds0","pricing_plan_id":"cebpf4jnsgd1na2vs0mg"},{"bike_id":"9d2cc869-60c3-425a-9a47-39058f205cba","system_id":"levelo_inurba_marseille","lat":43.29547,"lon":5.3866,"is_reserved":false,"is_disabled":false,"rental_uris":{"android":"levelo://app?vid=9d2cc869-60c3-425a-9a47-39058f205cba","ios":"levelo://app?vid=9d2cc869-60c3-425a-9a47-39058f205cba"},"vehicle_type_id":"4","last_reported":1761718619,"current_range_meters":10000,"station_id":"","pricing_plan_id":"cebpf4jnsgd1na2vs0mg"},{"bike_id":"f202aef9-db9c-4b5f-b19b-62f40b9a9dba","system_id":"levelo_inurba_marseille","lat":43.24074,"lon":5.37754,"is_reserved":false,"is_disabled":false,"rental_uris":{"android":"levelo://app?vid=f202aef9-db9c-4b5f-b19b-62f40b9a9dba","ios":"levelo://app?vid=f202aef9-db9c-4b5f-b19b-62f40b9a9dba"},"vehicle_type_id":"4","last_reported":1761718619,"current_range_meters":10800,"station_id":"ce4bhnp2rcd13ifvqgvg","pricing_plan_id":"cebpf4jnsgd1na2vs0mg"},{"bike_id":"f1b32764-5ab9-4e8e-a35a-116f87feb363","system_id":"levelo_inurba_marseille","lat":43.303166,"lon":5.404482,"is_reserved":false,"is_disabled":false,"rental_uris":{"android":"levelo://app?vid=f1b32764-5ab9-4e8e-a35a-116f87feb363","ios":"levelo://app?vid=f1b32764-5ab9-4e8e-a35a-116f87feb363"},"vehicle_type_id":"4","last_reported":1761718619,"current_range_meters":10800,"station_id":"ce4bh012rcd13ifvqd10","pricing_plan_id":"cebpf4jnsgd1na2vs0mg"},{"bike_id":"e362f4ba-3ff5-409c-847f-dbee0482ec04","system_id":"levelo_inurba_marseille","lat":43.29977,"lon":5.37196,"is_reserved":false,"is_disabled":true,"rental_uris":{"android":"levelo://app?vid=e362f4ba-3ff5-409c-847f-dbee0482ec04","ios":"levelo://app?vid=e362f4ba-3ff5-409c-847f-dbee0482ec04"},"vehicle_type_id":"4","last_reported":1761718619,"current_range_meters":10800,"station_id":"ce4bgr92rcd13ifvqc7g","pricing_plan_id":"cebpf4jnsgd1na2vs0mg"},{"bike_id":"ce00e885-a781-4efe-acd7-bb2e5665d1e7","system_id":"levelo_inurba_marseille","lat":43.28402,"lon":5.37539,"is_reserved":false,"is_disabled":false,"rental_uris":{"android":"levelo://app?vid=ce00e885-a781-4efe-acd7-bb2e5665d1e7","ios":"levelo://app?vid=ce00e885-a781-4efe-acd7-bb2e5665d1e7"},"vehicle_type_id":"4","last_reported":1761718619,"current_range_meters":11200,"station_id":"ce4bh412rcd13ifvqds0","pricing_plan_id":"cebpf4jnsgd1na2vs0mg"},{"bike_id":"73fecdac-6940-4a9c-a46d-ed7ede6c3c2c","system_id":"levelo_inurba_marseille","lat":43.27361,"lon":5.36252,"is_reserved":false,"is_disabled":false,"rental_uris":{"android":"levelo://app?vid=73fecdac-6940-4a9c-a46d-ed7ede6c3c2c","ios":"levelo://app?vid=73fecdac-6940-4a9c-a46d-ed7ede6c3c2c"},"vehicle_type_id":"4","last_reported":1761718619,"current_range_meters":11200,"station_id":"ce4bhbh2rcd13ifvqeo0","pricing_plan_id":"cebpf4jnsgd1na2vs0mg"},{"bike_id":"eea91071-a585-455f-a824-596ec59b39cb","system_id":"levelo_inurba_marseille","lat":43.25339,"lon":5.42173,"is_reserved":false,"is_disabled":false,"rental_uris":{"android":"levelo://app?vid=eea91071-a585-455f-a824-596ec59b39cb","ios":"levelo://app?vid=eea91071-a585-455f-a824-596ec59b39cb"},"vehicle_type_id":"4","last_reported":1761718619,"current_range_meters":11200,"station_id":"st_d2m65c5bi1j21697t3ng","pricing_plan_id":"cebpf4jnsgd1na2vs0mg"},{"bike_id":"afa055a5-88e6-4d87-a9f4-2fc9a20f3a43","system_id":"levelo_inurba_marseille","lat":43.286178,"lon":5.351028,"is_reserved":false,"is_disabled":false,"rental_uris":{"android":"levelo://app?vid=afa055a5-88e6-4d87-a9f4-2fc9a20f3a43","ios":"levelo://app?vid=afa055a5-88e6-4d87-a9f4-2fc9a20f3a43"},"vehicle_type_id":"4","last_reported":1761718619,"current_range_meters":11200,"station_id":"ce4bhch2rcd13ifvqeug","pricing_plan_id":"cebpf4jnsgd1na2vs0mg"},{"bike_id":"32d7653e-b033-4183-b4c0-f44169bb9067","system_id":"levelo_inurba_marseille","lat":43.3272,"lon":5.39225,"is_reserved":false,"is_disabled":false,"rental_uris":{"android":"levelo://app?vid=32d7653e-b033-4183-b4c0-f44169bb9067","ios":"levelo://app?vid=32d7653e-b033-4183-b4c0-f44169bb9067"},"vehicle_type_id":"4","last_reported":1761718619,"current_range_meters":11200,"station_id":"","pricing_plan_id":"cebpf4jnsgd1na2vs0mg"},{"bike_id":"49ed0d39-51fe-4cd4-8527-50556baa8749","system_id":"levelo_inurba_marseille","lat":43.22531,"lon":5.348321,"is_reserved":false,"is_disabled":false,"rental_uris":{"android":"levelo://app?vid=49ed0d39-51fe-4cd4-8527-50556baa8749","ios":"levelo://app?vid=49ed0d39-51fe-4cd4-8527-50556baa8749"},"vehicle_type_id":"4","last_reported":1761718619,"current_range_meters":11200,"station_id":"","pricing_plan_id":"cebpf4jnsgd1na2vs0mg"},{"bike_id":"fba1ca92-07b4-4313-9c9c-871e825bbe8b","system_id":"levelo_inurba_marseille","lat":43.302504,"lon":5.400576,"is_reserved":false,"is_disabled":false,"rental_uris":{"android":"levelo://app?vid=fba1ca92-07b4-4313-9c9c-871e825bbe8b","ios":"levelo://app?vid=fba1ca92-07b4-4313-9c9c-871e825bbe8b"},"vehicle_type_id":"4","last_reported":1761718619,"current_range_meters":11200,"station_id":"ce4bgvh2rcd13ifvqcs0","pricing_plan_id":"cebpf4jnsgd1na2vs0mg"},{"bike_id":"f5797326-3c99-49ed-b5ea-113d3e51334b","system_id":"levelo_inurba_marseille","lat":43.30904,"lon":5.39631,"is_reserved":false,"is_disabled":false,"rental_uris":{"android":"levelo://app?vid=f5797326-3c99-49ed-b5ea-113d3e51334b","ios":"levelo://app?vid=f5797326-3c99-49ed-b5ea-113d3e51334b"},"vehicle_type_id":"4","last_reported":1761718619,"current_range_meters":12000,"station_id":"ce4bh012rcd13ifvqcv0","pricing_plan_id":"cebpf4jnsgd1na2vs0mg"},{"bike_id":"a2c44ae7-52cc-4b80-a772-211a26fa85b1","system_id":"levelo_inurba_marseille","lat":43.301877,"lon":5.366406,"is_reserved":false,"is_disabled":true,"rental_uris":{"android":"levelo://app?vid=a2c44ae7-52cc-4b80-a772-211a26fa85b1","ios":"levelo://app?vid=a2c44ae7-52cc-4b80-a772-211a26fa85b1"},"vehicle_type_id":"4","last_reported":1761718619,"current_range_meters":12000,"station_id":"ce4bgrh2rcd13ifvqc8g","pricing_plan_id":"cebpf4jnsgd1na2vs0mg"},{"bike_id":"65a4bf0b-a957-4ac2-9c71-1b1f4c5610cb","system_id":"levelo_inurba_marseille","lat":43.27988,"lon":5.41668,"is_reserved":false,"is_disabled":false,"rental_uris":{"android":"levelo://app?vid=65a4bf0b-a957-4ac2-9c71-1b1f4c5610cb","ios":"levelo://app?vid=65a4bf0b-a957-4ac2-9c71-1b1f4c5610cb"},"vehicle_type_id":"4","last_reported":1761718619,"current_range_meters":12000,"station_id":"ce4bho12rcd13ifvqh1g","pricing_plan_id":"cebpf4jnsgd1na2vs0mg"},{"bike_id":"2be3bf9b-39f4-4c37-8c01-9e9bcabe1c53","system_id":"levelo_inurba_marseille","lat":43.33741,"lon":5.37444,"is_reserved":false,"is_disabled":false,"rental_uris":{"android":"levelo://app?vid=2be3bf9b-39f4-4c37-8c01-9e9bcabe1c53","ios":"levelo://app?vid=2be3bf9b-39f4-4c37-8c01-9e9bcabe1c53"},"vehicle_type_id":"4","last_reported":1761718619,"current_range_meters":12000,"station_id":"","pricing_plan_id":"cebpf4jnsgd1na2vs0mg"},{"bike_id":"9c97335d-e5a0-4807-8718-cc9e9bd0f749","system_id":"levelo_inurba_marseille","lat":43.2508,"lon":5.39511,"is_reserved":false,"is_disabled":false,"rental_uris":{"android":"levelo://app?vid=9c97335d-e5a0-4807-8718-cc9e9bd0f749","ios":"levelo://app?vid=9c97335d-e5a0-4807-8718-cc9e9bd0f749"},"vehicle_type_id":"4","last_reported":1761718619,"current_range_meters":12000,"station_id":"ce4bhm12rcd13ifvqgkg","pricing_plan_id":"cebpf4jnsgd1na2vs0mg"},{"bike_id":"cefcc05b-5b04-4de3-a03a-e33a7e0b205b","system_id":"levelo_inurba_marseille","lat":43.26573,"lon":5.37266,"is_reserved":false,"is_disabled":false,"rental_uris":{"android":"levelo://app?vid=cefcc05b-5b04-4de3-a03a-e33a7e0b205b","ios":"levelo://app?vid=cefcc05b-5b04-4de3-a03a-e33a7e0b205b"},"vehicle_type_id":"4","last_reported":1761718619,"current_range_meters":12000,"station_id":"ce4bhg12rcd13ifvqf70","pricing_plan_id":"cebpf4jnsgd1na2vs0mg"},{"bike_id":"ae8ebe94-fc0f-4409-8f77-39eb5c613a67","system_id":"levelo_inurba_marseille","lat":43.337444,"lon":5.374475,"is_reserved":false,"is_disabled":false,"rental_uris":{"android":"levelo://app?vid=ae8ebe94-fc0f-4409-8f77-39eb5c613a67","ios":"levelo://app?vid=ae8ebe94-fc0f-4409-8f77-39eb5c613a67"},"vehicle_type_id":"4","last_reported":1761718619,"current_range_meters":12400,"station_id":"","pricing_plan_id":"cebpf4jnsgd1na2vs0mg"},{"bike_id":"50ce794b-c6ed-4536-908e-16065b8cb8f7","system_id":"levelo_inurba_marseille","lat":43.29529,"lon":5.39034,"is_reserved":false,"is_disabled":false,"rental_uris":{"android":"levelo://app?vid=50ce794b-c6ed-4536-908e-16065b8cb8f7","ios":"levelo://app?vid=50ce794b-c6ed-4536-908e-16065b8cb8f7"},"vehicle_type_id":"4","last_reported":1761718619,"current_range_meters":12400,"station_id":"ce4bh3p2rcd13ifvqdp0","pricing_plan_id":"cebpf4jnsgd1na2vs0mg"},{"bike_id":"82c3d2c8-f0bf-446e-b125-018f07998329","system_id":"levelo_inurba_marseille","lat":43.327551,"lon":5.400944,"is_reserved":false,"is_disabled":false,"rental_uris":{"android":"levelo://app?vid=82c3d2c8-f0bf-446e-b125-018f07998329","ios":"levelo://app?vid=82c3d2c8-f0bf-446e-b125-018f07998329"},"vehicle_type_id":"4","last_reported":1761718619,"current_range_meters":12400,"station_id":"","pricing_plan_id":"cebpf4jnsgd1na2vs0mg"},{"bike_id":"798a6099-226a-447c-bc36-82e620e156b7","system_id":"levelo_inurba_marseille","lat":43.288433,"lon":5.358486,"is_reserved":false,"is_disabled":false,"rental_uris":{"android":"levelo://app?vid=798a6099-226a-447c-bc36-82e620e156b7","ios":"levelo://app?vid=798a6099-226a-447c-bc36-82e620e156b7"},"vehicle_type_id":"4","last_reported":1761718619,"current_range_meters":12400,"station_id":"ce4bhb12rcd13ifvqem0","pricing_plan_id":"cebpf4jnsgd1na2vs0mg"},{"bike_id":"895851fd-9f94-4c26-bb54-5536d0e4a089","system_id":"levelo_inurba_marseille","lat":43.281051,"lon":5.378453,"is_reserved":false,"is_disabled":false,"rental_uris":{"android":"levelo://app?vid=895851fd-9f94-4c26-bb54-5536d0e4a089","ios":"levelo://app?vid=895851fd-9f94-4c26-bb54-5536d0e4a089"},"vehicle_type_id":"4","last_reported":1761718619,"current_range_meters":12400,"station_id":"ce4bha12rcd13ifvqee0","pricing_plan_id":"cebpf4jnsgd1na2vs0mg"},{"bike_id":"5d059a3d-1986-46bd-9e67-5267d63535d3","system_id":"levelo_inurba_marseille","lat":43.31327,"lon":5.38505,"is_reserved":false,"is_disabled":false,"rental_uris":{"android":"levelo://app?vid=5d059a3d-1986-46bd-9e67-5267d63535d3","ios":"levelo://app?vid=5d059a3d-1986-46bd-9e67-5267d63535d3"},"vehicle_type_id":"4","last_reported":1761718619,"current_range_meters":12800,"station_id":"ce4bgt92rcd13ifvqcf0","pricing_plan_id":"cebpf4jnsgd1na2vs0mg"},{"bike_id":"456ea219-5670-48a5-ab3b-8a80dfa6db42","system_id":"levelo_inurba_marseille","lat":43.28611,"lon":5.35104,"is_reserved":false,"is_disabled":false,"rental_uris":{"android":"levelo://app?vid=456ea219-5670-48a5-ab3b-8a80dfa6db42","ios":"levelo://app?vid=456ea219-5670-48a5-ab3b-8a80dfa6db42"},"vehicle_type_id":"4","last_reported":1761718619,"current_range_meters":12800,"station_id":"ce4bhch2rcd13ifvqeug","pricing_plan_id":"cebpf4jnsgd1na2vs0mg"},{"bike_id":"02dd205b-e97c-4104-9683-066d2523fd3f","system_id":"levelo_inurba_marseille","lat":43.230624,"lon":5.354889,"is_reserved":false,"is_disabled":false,"rental_uris":{"android":"levelo://app?vid=02dd205b-e97c-4104-9683-066d2523fd3f","ios":"levelo://app?vid=02dd205b-e97c-4104-9683-066d2523fd3f"},"vehicle_type_id":"4","last_reported":1761718619,"current_range_meters":13600,"station_id":"cpo3342slgdg3j2ifvpg","pricing_plan_id":"cebpf4jnsgd1na2vs0mg"},{"bike_id":"93ee39ab-a2b5-4ffa-a898-c3e3f66b5472","system_id":"levelo_inurba_marseille","lat":43.30256,"lon":5.40055,"is_reserved":false,"is_disabled":false,"rental_uris":{"android":"levelo://app?vid=93ee39ab-a2b5-4ffa-a898-c3e3f66b5472","ios":"levelo://app?vid=93ee39ab-a2b5-4ffa-a898-c3e3f66b5472"},"vehicle_type_id":"4","last_reported":1761718619,"current_range_meters":13600,"station_id":"ce4bgvh2rcd13ifvqcs0","pricing_plan_id":"cebpf4jnsgd1na2vs0mg"},{"bike_id":"d24a2c68-94c2-4577-88eb-bd161c9ebb38","system_id":"levelo_inurba_marseille","lat":43.225311,"lon":5.348358,"is_reserved":false,"is_disabled":false,"rental_uris":{"android":"levelo://app?vid=d24a2c68-94c2-4577-88eb-bd161c9ebb38","ios":"levelo://app?vid=d24a2c68-94c2-4577-88eb-bd161c9ebb38"},"vehicle_type_id":"4","last_reported":1761718619,"current_range_meters":14000,"station_id":"","pricing_plan_id":"cebpf4jnsgd1na2vs0mg"},{"bike_id":"6828e858-378a-4971-8510-eff63c493e9d","system_id":"levelo_inurba_marseille","lat":43.287208,"lon":5.360925,"is_reserved":false,"is_disabled":false,"rental_uris":{"android":"levelo://app?vid=6828e858-378a-4971-8510-eff63c493e9d","ios":"levelo://app?vid=6828e858-378a-4971-8510-eff63c493e9d"},"vehicle_type_id":"4","last_reported":1761718619,"current_range_meters":14000,"station_id":"cki0cbj6b192h4jlfktg","pricing_plan_id":"cebpf4jnsgd1na2vs0mg"},{"bike_id":"46d8cd22-361f-4c91-9e38-bf998ae888d1","system_id":"levelo_inurba_marseille","lat":43.31677,"lon":5.40409,"is_reserved":false,"is_disabled":false,"rental_uris":{"android":"levelo://app?vid=46d8cd22-361f-4c91-9e38-bf998ae888d1","ios":"levelo://app?vid=46d8cd22-361f-4c91-9e38-bf998ae888d1"},"vehicle_type_id":"4","last_reported":1761718619,"current_range_meters":14000,"station_id":"ce4bh012rcd13ifvqd00","pricing_plan_id":"cebpf4jnsgd1na2vs0mg"},{"bike_id":"1c39ca45-45e0-4674-9290-6314a987d622","system_id":"levelo_inurba_marseille","lat":43.307931,"lon":5.381625,"is_reserved":false,"is_disabled":false,"rental_uris":{"android":"levelo://app?vid=1c39ca45-45e0-4674-9290-6314a987d622","ios":"levelo://app?vid=1c39ca45-45e0-4674-9290-6314a987d622"},"vehicle_type_id":"4","last_reported":1761718619,"current_range_meters":14400,"station_id":"ce4bgt12rcd13ifvqce0","pricing_plan_id":"cebpf4jnsgd1na2vs0mg"},{"bike_id":"3647a140-bc93-465d-8d47-e974143959e0","system_id":"levelo_inurba_marseille","lat":43.2872,"lon":5.36078,"is_reserved":false,"is_disabled":false,"rental_uris":{"android":"levelo://app?vid=3647a140-bc93-465d-8d47-e974143959e0","ios":"levelo://app?vid=3647a140-bc93-465d-8d47-e974143959e0"},"vehicle_type_id":"4","last_reported":1761718619,"current_range_meters":14400,"station_id":"cki0cbj6b192h4jlfktg","pricing_plan_id":"cebpf4jnsgd1na2vs0mg"},{"bike_id":"bb9370ef-3590-41dd-8c39-3a78062a4405","system_id":"levelo_inurba_marseille","lat":43.26567,"lon":5.37283,"is_reserved":false,"is_disabled":false,"rental_uris":{"android":"levelo://app?vid=bb9370ef-3590-41dd-8c39-3a78062a4405","ios":"levelo://app?vid=bb9370ef-3590-41dd-8c39-3a78062a4405"},"vehicle_type_id":"4","last_reported":1761718619,"current_range_meters":14400,"station_id":"ce4bhg12rcd13ifvqf70","pricing_plan_id":"cebpf4jnsgd1na2vs0mg"},{"bike_id":"d3ab1928-98af-4dd7-b21d-a67c16787d2a","system_id":"levelo_inurba_marseille","lat":43.31708,"lon":5.40439,"is_reserved":false,"is_disabled":false,"rental_uris":{"android":"levelo://app?vid=d3ab1928-98af-4dd7-b21d-a67c16787d2a","ios":"levelo://app?vid=d3ab1928-98af-4dd7-b21d-a67c16787d2a"},"vehicle_type_id":"4","last_reported":1761718619,"current_range_meters":14400,"station_id":"ce4bh012rcd13ifvqd00","pricing_plan_id":"cebpf4jnsgd1na2vs0mg"},{"bike_id":"0461d431-3fcf-4af1-88fa-dbb3a8ad29a0","system_id":"levelo_inurba_marseille","lat":43.286202,"lon":5.351048,"is_reserved":false,"is_disabled":false,"rental_uris":{"android":"levelo://app?vid=0461d431-3fcf-4af1-88fa-dbb3a8ad29a0","ios":"levelo://app?vid=0461d431-3fcf-4af1-88fa-dbb3a8ad29a0"},"vehicle_type_id":"4","last_reported":1761718619,"current_range_meters":14400,"station_id":"ce4bhch2rcd13ifvqeug","pricing_plan_id":"cebpf4jnsgd1na2vs0mg"},{"bike_id":"29d4cc9f-bc36-402e-9dce-cece4b5fc105","system_id":"levelo_inurba_marseille","lat":43.31269,"lon":5.4017,"is_reserved":false,"is_disabled":false,"rental_uris":{"android":"levelo://app?vid=29d4cc9f-bc36-402e-9dce-cece4b5fc105","ios":"levelo://app?vid=29d4cc9f-bc36-402e-9dce-cece4b5fc105"},"vehicle_type_id":"4","last_reported":1761718619,"current_range_meters":14400,"station_id":"ce4bh092rcd13ifvqd30","pricing_plan_id":"cebpf4jnsgd1na2vs0mg"},{"bike_id":"7da4f8b1-918d-4dac-8b09-74a88d500397","system_id":"levelo_inurba_marseille","lat":43.30141,"lon":5.38076,"is_reserved":false,"is_disabled":false,"rental_uris":{"android":"levelo://app?vid=7da4f8b1-918d-4dac-8b09-74a88d500397","ios":"levelo://app?vid=7da4f8b1-918d-4dac-8b09-74a88d500397"},"vehicle_type_id":"4","last_reported":1761718619,"current_range_meters":14800,"station_id":"ce4bgjp2rcd13ifvqbh0","pricing_plan_id":"cebpf4jnsgd1na2vs0mg"},{"bike_id":"75420eb4-e407-4ea9-a649-49e1ebb71b5d","system_id":"levelo_inurba_marseille","lat":43.28739,"lon":5.38904,"is_reserved":false,"is_disabled":false,"rental_uris":{"android":"levelo://app?vid=75420eb4-e407-4ea9-a649-49e1ebb71b5d","ios":"levelo://app?vid=75420eb4-e407-4ea9-a649-49e1ebb71b5d"},"vehicle_type_id":"4","last_reported":1761718619,"current_range_meters":14800,"station_id":"","pricing_plan_id":"cebpf4jnsgd1na2vs0mg"},{"bike_id":"1c868779-eff1-4321-b0fa-e73de017ad7a","system_id":"levelo_inurba_marseille","lat":43.31528,"lon":5.37244,"is_reserved":false,"is_disabled":false,"rental_uris":{"android":"levelo://app?vid=1c868779-eff1-4321-b0fa-e73de017ad7a","ios":"levelo://app?vid=1c868779-eff1-4321-b0fa-e73de017ad7a"},"vehicle_type_id":"4","last_reported":1761718619,"current_range_meters":14800,"station_id":"","pricing_plan_id":"cebpf4jnsgd1na2vs0mg"},{"bike_id":"2213c54a-976a-43be-8f2d-e12b8795e211","system_id":"levelo_inurba_marseille","lat":43.308821,"lon":5.39642,"is_reserved":false,"is_disabled":false,"rental_uris":{"android":"levelo://app?vid=2213c54a-976a-43be-8f2d-e12b8795e211","ios":"levelo://app?vid=2213c54a-976a-43be-8f2d-e12b8795e211"},"vehicle_type_id":"4","last_reported":1761718619,"current_range_meters":15200,"station_id":"ce4bh012rcd13ifvqcv0","pricing_plan_id":"cebpf4jnsgd1na2vs0mg"},{"bike_id":"e62bc63f-1623-48ba-bdc2-ffa136c40c90","system_id":"levelo_inurba_marseille","lat":43.280879,"lon":5.356604,"is_reserved":false,"is_disabled":false,"rental_uris":{"android":"levelo://app?vid=e62bc63f-1623-48ba-bdc2-ffa136c40c90","ios":"levelo://app?vid=e62bc63f-1623-48ba-bdc2-ffa136c40c90"},"vehicle_type_id":"4","last_reported":1761718619,"current_range_meters":15200,"station_id":"","pricing_plan_id":"cebpf4jnsgd1na2vs0mg"},{"bike_id":"51c86afd-1731-4357-b0d3-0aaa51113f1c","system_id":"levelo_inurba_marseille","lat":43.28477,"lon":5.35878,"is_reserved":false,"is_disabled":false,"rental_uris":{"android":"levelo://app?vid=51c86afd-1731-4357-b0d3-0aaa51113f1c","ios":"levelo://app?vid=51c86afd-1731-4357-b0d3-0aaa51113f1c"},"vehicle_type_id":"4","last_reported":1761718619,"current_range_meters":15200,"station_id":"ce4bhah2rcd13ifvqei0","pricing_plan_id":"cebpf4jnsgd1na2vs0mg"},{"bike_id":"14c6cedd-2559-445e-b389-644995a90b39","system_id":"levelo_inurba_marseille","lat":43.31014,"lon":5.42768,"is_reserved":false,"is_disabled":false,"rental_uris":{"android":"levelo://app?vid=14c6cedd-2559-445e-b389-644995a90b39","ios":"levelo://app?vid=14c6cedd-2559-445e-b389-644995a90b39"},"vehicle_type_id":"4","last_reported":1761718619,"current_range_meters":15200,"station_id":"","pricing_plan_id":"cebpf4jnsgd1na2vs0mg"},{"bike_id":"2c80b54e-bbc1-4de7-afdf-9b0246ad8a4c","system_id":"levelo_inurba_marseille","lat":43.24825,"lon":5.37452,"is_reserved":false,"is_disabled":false,"rental_uris":{"android":"levelo://app?vid=2c80b54e-bbc1-4de7-afdf-9b0246ad8a4c","ios":"levelo://app?vid=2c80b54e-bbc1-4de7-afdf-9b0246ad8a4c"},"vehicle_type_id":"4","last_reported":1761718619,"current_range_meters":16000,"station_id":"ce4bhgh2rcd13ifvqfb0","pricing_plan_id":"cebpf4jnsgd1na2vs0mg"},{"bike_id":"fef7c7e6-8059-41aa-ae57-31b07bd2b2eb","system_id":"levelo_inurba_marseille","lat":43.225311,"lon":5.348374,"is_reserved":false,"is_disabled":false,"rental_uris":{"android":"levelo://app?vid=fef7c7e6-8059-41aa-ae57-31b07bd2b2eb","ios":"levelo://app?vid=fef7c7e6-8059-41aa-ae57-31b07bd2b2eb"},"vehicle_type_id":"4","last_reported":1761718619,"current_range_meters":16000,"station_id":"","pricing_plan_id":"cebpf4jnsgd1na2vs0mg"},{"bike_id":"3f5acd70-2356-4446-93c1-f1c4e7509dbe","system_id":"levelo_inurba_marseille","lat":43.314892,"lon":5.372977,"is_reserved":false,"is_disabled":false,"rental_uris":{"android":"levelo://app?vid=3f5acd70-2356-4446-93c1-f1c4e7509dbe","ios":"levelo://app?vid=3f5acd70-2356-4446-93c1-f1c4e7509dbe"},"vehicle_type_id":"4","last_reported":1761718619,"current_range_meters":16000,"station_id":"ce4bgt12rcd13ifvqcd0","pricing_plan_id":"cebpf4jnsgd1na2vs0mg"},{"bike_id":"34cfbbfb-7fcd-4e0b-a511-b666cf091d8e","system_id":"levelo_inurba_marseille","lat":43.2508,"lon":5.39506,"is_reserved":false,"is_disabled":true,"rental_uris":{"android":"levelo://app?vid=34cfbbfb-7fcd-4e0b-a511-b666cf091d8e","ios":"levelo://app?vid=34cfbbfb-7fcd-4e0b-a511-b666cf091d8e"},"vehicle_type_id":"4","last_reported":1761718619,"current_range_meters":16000,"station_id":"ce4bhm12rcd13ifvqgkg","pricing_plan_id":"cebpf4jnsgd1na2vs0mg"},{"bike_id":"7fb0d27d-ec45-4de8-9c9e-90046ec376fa","system_id":"levelo_inurba_marseille","lat":43.24162,"lon":5.364,"is_reserved":false,"is_disabled":false,"rental_uris":{"android":"levelo://app?vid=7fb0d27d-ec45-4de8-9c9e-90046ec376fa","ios":"levelo://app?vid=7fb0d27d-ec45-4de8-9c9e-90046ec376fa"},"vehicle_type_id":"4","last_reported":1761718619,"current_range_meters":16000,"station_id":"cpo36qri1sfpv3e86is0","pricing_plan_id":"cebpf4jnsgd1na2vs0mg"},{"bike_id":"faee4aed-34d1-4e59-9f3e-bc2337688920","system_id":"levelo_inurba_marseille","lat":43.31711,"lon":5.43707,"is_reserved":false,"is_disabled":true,"rental_uris":{"android":"levelo://app?vid=faee4aed-34d1-4e59-9f3e-bc2337688920","ios":"levelo://app?vid=faee4aed-34d1-4e59-9f3e-bc2337688920"},"vehicle_type_id":"4","last_reported":1761718619,"current_range_meters":16000,"station_id":"ce4bhp92rcd13ifvqhcg","pricing_plan_id":"cebpf4jnsgd1na2vs0mg"},{"bike_id":"f6adb9c1-4a78-4322-baec-aa5f6f5d93b6","system_id":"levelo_inurba_marseille","lat":43.225321,"lon":5.348302,"is_reserved":false,"is_disabled":false,"rental_uris":{"android":"levelo://app?vid=f6adb9c1-4a78-4322-baec-aa5f6f5d93b6","ios":"levelo://app?vid=f6adb9c1-4a78-4322-baec-aa5f6f5d93b6"},"vehicle_type_id":"4","last_reported":1761718619,"current_range_meters":16000,"station_id":"","pricing_plan_id":"cebpf4jnsgd1na2vs0mg"},{"bike_id":"d340ce0c-a59e-46d4-8780-fe806ed042f0","system_id":"levelo_inurba_marseille","lat":43.28397,"lon":5.37514,"is_reserved":false,"is_disabled":false,"rental_uris":{"android":"levelo://app?vid=d340ce0c-a59e-46d4-8780-fe806ed042f0","ios":"levelo://app?vid=d340ce0c-a59e-46d4-8780-fe806ed042f0"},"vehicle_type_id":"4","last_reported":1761718619,"current_range_meters":16400,"station_id":"ce4bh412rcd13ifvqds0","pricing_plan_id":"cebpf4jnsgd1na2vs0mg"},{"bike_id":"94e6b0aa-f8c9-477e-8091-c3a189e0f238","system_id":"levelo_inurba_marseille","lat":43.29676,"lon":5.38122,"is_reserved":false,"is_disabled":false,"rental_uris":{"android":"levelo://app?vid=94e6b0aa-f8c9-477e-8091-c3a189e0f238","ios":"levelo://app?vid=94e6b0aa-f8c9-477e-8091-c3a189e0f238"},"vehicle_type_id":"4","last_reported":1761718619,"current_range_meters":16400,"station_id":"","pricing_plan_id":"cebpf4jnsgd1na2vs0mg"},{"bike_id":"e3260d53-1f31-4048-a6b1-57d9b1375877","system_id":"levelo_inurba_marseille","lat":43.28536,"lon":5.44104,"is_reserved":false,"is_disabled":false,"rental_uris":{"android":"levelo://app?vid=e3260d53-1f31-4048-a6b1-57d9b1375877","ios":"levelo://app?vid=e3260d53-1f31-4048-a6b1-57d9b1375877"},"vehicle_type_id":"4","last_reported":1761718619,"current_range_meters":16400,"station_id":"st_d3j3df2ikq2c7380ej80","pricing_plan_id":"cebpf4jnsgd1na2vs0mg"},{"bike_id":"fa189b92-54c0-4695-b921-16882d1a0763","system_id":"levelo_inurba_marseille","lat":43.25338,"lon":5.4217,"is_reserved":false,"is_disabled":false,"rental_uris":{"android":"levelo://app?vid=fa189b92-54c0-4695-b921-16882d1a0763","ios":"levelo://app?vid=fa189b92-54c0-4695-b921-16882d1a0763"},"vehicle_type_id":"4","last_reported":1761718619,"current_range_meters":16400,"station_id":"st_d2m65c5bi1j21697t3ng","pricing_plan_id":"cebpf4jnsgd1na2vs0mg"},{"bike_id":"3d00cf23-a66b-47a1-8eb3-f05af16b09a1","system_id":"levelo_inurba_marseille","lat":43.24384,"lon":5.37093,"is_reserved":false,"is_disabled":false,"rental_uris":{"android":"levelo://app?vid=3d00cf23-a66b-47a1-8eb3-f05af16b09a1","ios":"levelo://app?vid=3d00cf23-a66b-47a1-8eb3-f05af16b09a1"},"vehicle_type_id":"4","last_reported":1761718619,"current_range_meters":16400,"station_id":"ce4bhhh2rcd13ifvqfk0","pricing_plan_id":"cebpf4jnsgd1na2vs0mg"},{"bike_id":"1a34b5a4-3c1e-479b-b6f5-76f97d5c5c52","system_id":"levelo_inurba_marseille","lat":43.285315,"lon":5.440956,"is_reserved":false,"is_disabled":false,"rental_uris":{"android":"levelo://app?vid=1a34b5a4-3c1e-479b-b6f5-76f97d5c5c52","ios":"levelo://app?vid=1a34b5a4-3c1e-479b-b6f5-76f97d5c5c52"},"vehicle_type_id":"4","last_reported":1761718619,"current_range_meters":16400,"station_id":"st_d3j3df2ikq2c7380ej80","pricing_plan_id":"cebpf4jnsgd1na2vs0mg"},{"bike_id":"7dd33c2c-7ff9-431e-b18d-edcb0ea51bd0","system_id":"levelo_inurba_marseille","lat":43.30642,"lon":5.40082,"is_reserved":false,"is_disabled":false,"rental_uris":{"android":"levelo://app?vid=7dd33c2c-7ff9-431e-b18d-edcb0ea51bd0","ios":"levelo://app?vid=7dd33c2c-7ff9-431e-b18d-edcb0ea51bd0"},"vehicle_type_id":"4","last_reported":1761718619,"current_range_meters":16400,"station_id":"","pricing_plan_id":"cebpf4jnsgd1na2vs0mg"},{"bike_id":"d48bd189-c047-44cc-be96-8b66af3488e6","system_id":"levelo_inurba_marseille","lat":43.28169,"lon":5.42621,"is_reserved":false,"is_disabled":false,"rental_uris":{"android":"levelo://app?vid=d48bd189-c047-44cc-be96-8b66af3488e6","ios":"levelo://app?vid=d48bd189-c047-44cc-be96-8b66af3488e6"},"vehicle_type_id":"4","last_reported":1761718619,"current_range_meters":16400,"station_id":"ce4bhnh2rcd13ifvqgug","pricing_plan_id":"cebpf4jnsgd1na2vs0mg"},{"bike_id":"3be6387f-9356-4d22-96e9-26a716368262","system_id":"levelo_inurba_marseille","lat":43.2963,"lon":5.40623,"is_reserved":false,"is_disabled":true,"rental_uris":{"android":"levelo://app?vid=3be6387f-9356-4d22-96e9-26a716368262","ios":"levelo://app?vid=3be6387f-9356-4d22-96e9-26a716368262"},"vehicle_type_id":"4","last_reported":1761718619,"current_range_meters":16400,"station_id":"ce4bh0h2rcd13ifvqd60","pricing_plan_id":"cebpf4jnsgd1na2vs0mg"},{"bike_id":"70871168-18dd-4754-ad19-d28c37ce9f69","system_id":"levelo_inurba_marseille","lat":43.30813,"lon":5.38176,"is_reserved":false,"is_disabled":true,"rental_uris":{"android":"levelo://app?vid=70871168-18dd-4754-ad19-d28c37ce9f69","ios":"levelo://app?vid=70871168-18dd-4754-ad19-d28c37ce9f69"},"vehicle_type_id":"4","last_reported":1761718619,"current_range_meters":16400,"station_id":"ce4bgt12rcd13ifvqce0","pricing_plan_id":"cebpf4jnsgd1na2vs0mg"},{"bike_id":"0fa22cff-de67-418a-a148-3c23d41c278e","system_id":"levelo_inurba_marseille","lat":43.308772,"lon":5.396401,"is_reserved":false,"is_disabled":false,"rental_uris":{"android":"levelo://app?vid=0fa22cff-de67-418a-a148-3c23d41c278e","ios":"levelo://app?vid=0fa22cff-de67-418a-a148-3c23d41c278e"},"vehicle_type_id":"4","last_reported":1761718619,"current_range_meters":16400,"station_id":"ce4bh012rcd13ifvqcv0","pricing_plan_id":"cebpf4jnsgd1na2vs0mg"},{"bike_id":"1f1e1455-9138-4367-9342-42f2dcda9c2b","system_id":"levelo_inurba_marseille","lat":43.30386,"lon":5.42484,"is_reserved":false,"is_disabled":false,"rental_uris":{"android":"levelo://app?vid=1f1e1455-9138-4367-9342-42f2dcda9c2b","ios":"levelo://app?vid=1f1e1455-9138-4367-9342-42f2dcda9c2b"},"vehicle_type_id":"4","last_reported":1761718619,"current_range_meters":16800,"station_id":"ce4bhoh2rcd13ifvqh6g","pricing_plan_id":"cebpf4jnsgd1na2vs0mg"},{"bike_id":"75dc66b3-0d26-400d-85b7-e985f64e2136","system_id":"levelo_inurba_marseille","lat":43.29002,"lon":5.43691,"is_reserved":false,"is_disabled":false,"rental_uris":{"android":"levelo://app?vid=75dc66b3-0d26-400d-85b7-e985f64e2136","ios":"levelo://app?vid=75dc66b3-0d26-400d-85b7-e985f64e2136"},"vehicle_type_id":"4","last_reported":1761718619,"current_range_meters":16800,"station_id":"","pricing_plan_id":"cebpf4jnsgd1na2vs0mg"},{"bike_id":"cb198da0-0e7c-48ae-a1c5-8f167fa907d9","system_id":"levelo_inurba_marseille","lat":43.31115,"lon":5.37716,"is_reserved":false,"is_disabled":false,"rental_uris":{"android":"levelo://app?vid=cb198da0-0e7c-48ae-a1c5-8f167fa907d9","ios":"levelo://app?vid=cb198da0-0e7c-48ae-a1c5-8f167fa907d9"},"vehicle_type_id":"4","last_reported":1761718619,"current_range_meters":16800,"station_id":"ce4bgt92rcd13ifvqcg0","pricing_plan_id":"cebpf4jnsgd1na2vs0mg"},{"bike_id":"ef9f16b7-5a5c-49b4-9d77-8d8add1efb3f","system_id":"levelo_inurba_marseille","lat":43.30109,"lon":5.39065,"is_reserved":false,"is_disabled":false,"rental_uris":{"android":"levelo://app?vid=ef9f16b7-5a5c-49b4-9d77-8d8add1efb3f","ios":"levelo://app?vid=ef9f16b7-5a5c-49b4-9d77-8d8add1efb3f"},"vehicle_type_id":"4","last_reported":1761718619,"current_range_meters":16800,"station_id":"ce4bh192rcd13ifvqdb0","pricing_plan_id":"cebpf4jnsgd1na2vs0mg"},{"bike_id":"7adb349b-d58b-4a64-a4d5-44b06f616a91","system_id":"levelo_inurba_marseille","lat":43.31683,"lon":5.40479,"is_reserved":false,"is_disabled":false,"rental_uris":{"android":"levelo://app?vid=7adb349b-d58b-4a64-a4d5-44b06f616a91","ios":"levelo://app?vid=7adb349b-d58b-4a64-a4d5-44b06f616a91"},"vehicle_type_id":"4","last_reported":1761718619,"current_range_meters":16800,"station_id":"ce4bh012rcd13ifvqd00","pricing_plan_id":"cebpf4jnsgd1na2vs0mg"},{"bike_id":"0a0a341a-24e8-4742-8eb6-32a1f9c490e8","system_id":"levelo_inurba_marseille","lat":43.25868,"lon":5.39896,"is_reserved":false,"is_disabled":false,"rental_uris":{"android":"levelo://app?vid=0a0a341a-24e8-4742-8eb6-32a1f9c490e8","ios":"levelo://app?vid=0a0a341a-24e8-4742-8eb6-32a1f9c490e8"},"vehicle_type_id":"4","last_reported":1761718619,"current_range_meters":16800,"station_id":"ce4bhl92rcd13ifvqghg","pricing_plan_id":"cebpf4jnsgd1na2vs0mg"},{"bike_id":"0e47ea97-fee5-4ec5-b83f-528a31f6a727","system_id":"levelo_inurba_marseille","lat":43.24953,"lon":5.40502,"is_reserved":false,"is_disabled":false,"rental_uris":{"android":"levelo://app?vid=0e47ea97-fee5-4ec5-b83f-528a31f6a727","ios":"levelo://app?vid=0e47ea97-fee5-4ec5-b83f-528a31f6a727"},"vehicle_type_id":"4","last_reported":1761718619,"current_range_meters":17200,"station_id":"st_d2ngiaodas8pm72gd1h0","pricing_plan_id":"cebpf4jnsgd1na2vs0mg"},{"bike_id":"66f35c71-7548-4c33-9bb7-97e77983d5f2","system_id":"levelo_inurba_marseille","lat":43.302391,"lon":5.400449,"is_reserved":false,"is_disabled":true,"rental_uris":{"android":"levelo://app?vid=66f35c71-7548-4c33-9bb7-97e77983d5f2","ios":"levelo://app?vid=66f35c71-7548-4c33-9bb7-97e77983d5f2"},"vehicle_type_id":"4","last_reported":1761718619,"current_range_meters":17200,"station_id":"ce4bgvh2rcd13ifvqcs0","pricing_plan_id":"cebpf4jnsgd1na2vs0mg"},{"bike_id":"043d62f2-664f-4e4e-bee0-592fa5e58c70","system_id":"levelo_inurba_marseille","lat":43.30937,"lon":5.40132,"is_reserved":false,"is_disabled":false,"rental_uris":{"android":"levelo://app?vid=043d62f2-664f-4e4e-bee0-592fa5e58c70","ios":"levelo://app?vid=043d62f2-664f-4e4e-bee0-592fa5e58c70"},"vehicle_type_id":"4","last_reported":1761718619,"current_range_meters":17200,"station_id":"ce4bgvp2rcd13ifvqct0","pricing_plan_id":"cebpf4jnsgd1na2vs0mg"},{"bike_id":"16ec2196-055f-4c75-9d9a-9032440ebc2e","system_id":"levelo_inurba_marseille","lat":43.29682,"lon":5.37276,"is_reserved":false,"is_disabled":false,"rental_uris":{"android":"levelo://app?vid=16ec2196-055f-4c75-9d9a-9032440ebc2e","ios":"levelo://app?vid=16ec2196-055f-4c75-9d9a-9032440ebc2e"},"vehicle_type_id":"4","last_reported":1761718619,"current_range_meters":17200,"station_id":"ce4bgk12rcd13ifvqbj0","pricing_plan_id":"cebpf4jnsgd1na2vs0mg"},{"bike_id":"a889273d-bcc7-4055-aa42-4c0b25e800a5","system_id":"levelo_inurba_marseille","lat":43.308866,"lon":5.39643,"is_reserved":false,"is_disabled":false,"rental_uris":{"android":"levelo://app?vid=a889273d-bcc7-4055-aa42-4c0b25e800a5","ios":"levelo://app?vid=a889273d-bcc7-4055-aa42-4c0b25e800a5"},"vehicle_type_id":"4","last_reported":1761718619,"current_range_meters":17200,"station_id":"ce4bh012rcd13ifvqcv0","pricing_plan_id":"cebpf4jnsgd1na2vs0mg"},{"bike_id":"6a34e6d0-792e-4bee-9428-37d85ef8871d","system_id":"levelo_inurba_marseille","lat":43.248161,"lon":5.374587,"is_reserved":false,"is_disabled":false,"rental_uris":{"android":"levelo://app?vid=6a34e6d0-792e-4bee-9428-37d85ef8871d","ios":"levelo://app?vid=6a34e6d0-792e-4bee-9428-37d85ef8871d"},"vehicle_type_id":"4","last_reported":1761718619,"current_range_meters":17600,"station_id":"ce4bhgh2rcd13ifvqfb0","pricing_plan_id":"cebpf4jnsgd1na2vs0mg"},{"bike_id":"cbc41777-be83-4e9b-b7a1-2be04d24d8ee","system_id":"levelo_inurba_marseille","lat":43.30148,"lon":5.38071,"is_reserved":false,"is_disabled":false,"rental_uris":{"android":"levelo://app?vid=cbc41777-be83-4e9b-b7a1-2be04d24d8ee","ios":"levelo://app?vid=cbc41777-be83-4e9b-b7a1-2be04d24d8ee"},"vehicle_type_id":"4","last_reported":1761718619,"current_range_meters":17600,"station_id":"ce4bgjp2rcd13ifvqbh0","pricing_plan_id":"cebpf4jnsgd1na2vs0mg"},{"bike_id":"556c95c4-e39d-4a50-b32b-6e1b11658636","system_id":"levelo_inurba_marseille","lat":43.241662,"lon":5.364031,"is_reserved":false,"is_disabled":false,"rental_uris":{"android":"levelo://app?vid=556c95c4-e39d-4a50-b32b-6e1b11658636","ios":"levelo://app?vid=556c95c4-e39d-4a50-b32b-6e1b11658636"},"vehicle_type_id":"4","last_reported":1761718619,"current_range_meters":17600,"station_id":"cpo36qri1sfpv3e86is0","pricing_plan_id":"cebpf4jnsgd1na2vs0mg"},{"bike_id":"d9a6a1f6-ad3e-4d83-b3dd-5f0ef903b947","system_id":"levelo_inurba_marseille","lat":43.230866,"lon":5.354803,"is_reserved":false,"is_disabled":false,"rental_uris":{"android":"levelo://app?vid=d9a6a1f6-ad3e-4d83-b3dd-5f0ef903b947","ios":"levelo://app?vid=d9a6a1f6-ad3e-4d83-b3dd-5f0ef903b947"},"vehicle_type_id":"4","last_reported":1761718619,"current_range_meters":18000,"station_id":"","pricing_plan_id":"cebpf4jnsgd1na2vs0mg"},{"bike_id":"f796a07f-26a3-4fab-a2a7-6b9992df4068","system_id":"levelo_inurba_marseille","lat":43.29121,"lon":5.40208,"is_reserved":false,"is_disabled":false,"rental_uris":{"android":"levelo://app?vid=f796a07f-26a3-4fab-a2a7-6b9992df4068","ios":"levelo://app?vid=f796a07f-26a3-4fab-a2a7-6b9992df4068"},"vehicle_type_id":"4","last_reported":1761718619,"current_range_meters":18000,"station_id":"","pricing_plan_id":"cebpf4jnsgd1na2vs0mg"},{"bike_id":"760b7e4a-a8c4-4135-b9cf-63172e4a5ee6","system_id":"levelo_inurba_marseille","lat":43.27936,"lon":5.41037,"is_reserved":false,"is_disabled":false,"rental_uris":{"android":"levelo://app?vid=760b7e4a-a8c4-4135-b9cf-63172e4a5ee6","ios":"levelo://app?vid=760b7e4a-a8c4-4135-b9cf-63172e4a5ee6"},"vehicle_type_id":"4","last_reported":1761718619,"current_range_meters":18000,"station_id":"ce4bhnp2rcd13ifvqh0g","pricing_plan_id":"cebpf4jnsgd1na2vs0mg"},{"bike_id":"ec07cf22-8a7a-4e36-91fe-187ba5c42839","system_id":"levelo_inurba_marseille","lat":43.287238,"lon":5.360775,"is_reserved":false,"is_disabled":false,"rental_uris":{"android":"levelo://app?vid=ec07cf22-8a7a-4e36-91fe-187ba5c42839","ios":"levelo://app?vid=ec07cf22-8a7a-4e36-91fe-187ba5c42839"},"vehicle_type_id":"4","last_reported":1761718619,"current_range_meters":18000,"station_id":"cki0cbj6b192h4jlfktg","pricing_plan_id":"cebpf4jnsgd1na2vs0mg"},{"bike_id":"5bf996c0-533a-43f0-90e7-e795ff8ed648","system_id":"levelo_inurba_marseille","lat":43.28356,"lon":5.38106,"is_reserved":false,"is_disabled":false,"rental_uris":{"android":"levelo://app?vid=5bf996c0-533a-43f0-90e7-e795ff8ed648","ios":"levelo://app?vid=5bf996c0-533a-43f0-90e7-e795ff8ed648"},"vehicle_type_id":"4","last_reported":1761718619,"current_range_meters":18000,"station_id":"ce4bh412rcd13ifvqdr0","pricing_plan_id":"cebpf4jnsgd1na2vs0mg"},{"bike_id":"76aace91-61d0-4fb5-84bc-fded435c3777","system_id":"levelo_inurba_marseille","lat":43.30054,"lon":5.3864,"is_reserved":false,"is_disabled":false,"rental_uris":{"android":"levelo://app?vid=76aace91-61d0-4fb5-84bc-fded435c3777","ios":"levelo://app?vid=76aace91-61d0-4fb5-84bc-fded435c3777"},"vehicle_type_id":"4","last_reported":1761718619,"current_range_meters":18000,"station_id":"","pricing_plan_id":"cebpf4jnsgd1na2vs0mg"},{"bike_id":"b02463ff-5f79-4767-8ad3-c523ea22652b","system_id":"levelo_inurba_marseille","lat":43.30161,"lon":5.38069,"is_reserved":false,"is_disabled":false,"rental_uris":{"android":"levelo://app?vid=b02463ff-5f79-4767-8ad3-c523ea22652b","ios":"levelo://app?vid=b02463ff-5f79-4767-8ad3-c523ea22652b"},"vehicle_type_id":"4","last_reported":1761718619,"current_range_meters":18000,"station_id":"ce4bgjp2rcd13ifvqbh0","pricing_plan_id":"cebpf4jnsgd1na2vs0mg"},{"bike_id":"7eb41e00-2ba5-474f-bad2-8430af09c89b","system_id":"levelo_inurba_marseille","lat":43.26944,"lon":5.40241,"is_reserved":false,"is_disabled":false,"rental_uris":{"android":"levelo://app?vid=7eb41e00-2ba5-474f-bad2-8430af09c89b","ios":"levelo://app?vid=7eb41e00-2ba5-474f-bad2-8430af09c89b"},"vehicle_type_id":"4","last_reported":1761718619,"current_range_meters":18000,"station_id":"cjm6bp8fraef2m0cb0m0","pricing_plan_id":"cebpf4jnsgd1na2vs0mg"},{"bike_id":"a0257cb7-6e09-4e57-9074-9166ca511388","system_id":"levelo_inurba_marseille","lat":43.2256,"lon":5.41627,"is_reserved":false,"is_disabled":false,"rental_uris":{"android":"levelo://app?vid=a0257cb7-6e09-4e57-9074-9166ca511388","ios":"levelo://app?vid=a0257cb7-6e09-4e57-9074-9166ca511388"},"vehicle_type_id":"4","last_reported":1761718619,"current_range_meters":18800,"station_id":"st_d2o4gvlbi1j2169b742g","pricing_plan_id":"cebpf4jnsgd1na2vs0mg"},{"bike_id":"75d57c7d-1a1a-4807-b716-f0c1fc5a0d1a","system_id":"levelo_inurba_marseille","lat":43.3059,"lon":5.372,"is_reserved":false,"is_disabled":false,"rental_uris":{"android":"levelo://app?vid=75d57c7d-1a1a-4807-b716-f0c1fc5a0d1a","ios":"levelo://app?vid=75d57c7d-1a1a-4807-b716-f0c1fc5a0d1a"},"vehicle_type_id":"4","last_reported":1761718619,"current_range_meters":18800,"station_id":"ce4bgqh2rcd13ifvqc4g","pricing_plan_id":"cebpf4jnsgd1na2vs0mg"},{"bike_id":"2e71e28f-9664-4350-bc05-536897292751","system_id":"levelo_inurba_marseille","lat":43.26229,"lon":5.40459,"is_reserved":false,"is_disabled":false,"rental_uris":{"android":"levelo://app?vid=2e71e28f-9664-4350-bc05-536897292751","ios":"levelo://app?vid=2e71e28f-9664-4350-bc05-536897292751"},"vehicle_type_id":"4","last_reported":1761718619,"current_range_meters":18800,"station_id":"ce4bhmh2rcd13ifvqgmg","pricing_plan_id":"cebpf4jnsgd1na2vs0mg"},{"bike_id":"91dd3e8b-a073-4cac-8bf0-8313410543fb","system_id":"levelo_inurba_marseille","lat":43.24684,"lon":5.3816,"is_reserved":false,"is_disabled":false,"rental_uris":{"android":"levelo://app?vid=91dd3e8b-a073-4cac-8bf0-8313410543fb","ios":"levelo://app?vid=91dd3e8b-a073-4cac-8bf0-8313410543fb"},"vehicle_type_id":"4","last_reported":1761718619,"current_range_meters":18800,"station_id":"ce4bhih2rcd13ifvqfr0","pricing_plan_id":"cebpf4jnsgd1na2vs0mg"},{"bike_id":"6f8dc063-f314-474d-8ea1-8e9d5e37f857","system_id":"levelo_inurba_marseille","lat":43.27917,"lon":5.39588,"is_reserved":false,"is_disabled":false,"rental_uris":{"android":"levelo://app?vid=6f8dc063-f314-474d-8ea1-8e9d5e37f857","ios":"levelo://app?vid=6f8dc063-f314-474d-8ea1-8e9d5e37f857"},"vehicle_type_id":"4","last_reported":1761718619,"current_range_meters":18800,"station_id":"ce4bhf92rcd13ifvqf40","pricing_plan_id":"cebpf4jnsgd1na2vs0mg"},{"bike_id":"9d19aa12-f7d8-4182-8cd0-6d800ec08c05","system_id":"levelo_inurba_marseille","lat":43.276166,"lon":5.360981,"is_reserved":false,"is_disabled":true,"rental_uris":{"android":"levelo://app?vid=9d19aa12-f7d8-4182-8cd0-6d800ec08c05","ios":"levelo://app?vid=9d19aa12-f7d8-4182-8cd0-6d800ec08c05"},"vehicle_type_id":"4","last_reported":1761718619,"current_range_meters":18800,"station_id":"ce4bgj92rcd13ifvqbe0","pricing_plan_id":"cebpf4jnsgd1na2vs0mg"},{"bike_id":"0320dc14-5222-40a3-b833-18c5819cb98a","system_id":"levelo_inurba_marseille","lat":43.28427,"lon":5.37521,"is_reserved":false,"is_disabled":false,"rental_uris":{"android":"levelo://app?vid=0320dc14-5222-40a3-b833-18c5819cb98a","ios":"levelo://app?vid=0320dc14-5222-40a3-b833-18c5819cb98a"},"vehicle_type_id":"4","last_reported":1761718619,"current_range_meters":18800,"station_id":"ce4bh412rcd13ifvqds0","pricing_plan_id":"cebpf4jnsgd1na2vs0mg"},{"bike_id":"7b82456d-c11b-40dc-a988-52f7a38cbcbe","system_id":"levelo_inurba_marseille","lat":43.2791,"lon":5.39587,"is_reserved":false,"is_disabled":false,"rental_uris":{"android":"levelo://app?vid=7b82456d-c11b-40dc-a988-52f7a38cbcbe","ios":"levelo://app?vid=7b82456d-c11b-40dc-a988-52f7a38cbcbe"},"vehicle_type_id":"4","last_reported":1761718619,"current_range_meters":19200,"station_id":"ce4bhf92rcd13ifvqf40","pricing_plan_id":"cebpf4jnsgd1na2vs0mg"},{"bike_id":"dfd6d678-9f72-4936-ab5f-fe7d0e920deb","system_id":"levelo_inurba_marseille","lat":43.30947,"lon":5.40126,"is_reserved":false,"is_disabled":false,"rental_uris":{"android":"levelo://app?vid=dfd6d678-9f72-4936-ab5f-fe7d0e920deb","ios":"levelo://app?vid=dfd6d678-9f72-4936-ab5f-fe7d0e920deb"},"vehicle_type_id":"4","last_reported":1761718619,"current_range_meters":19200,"station_id":"ce4bgvp2rcd13ifvqct0","pricing_plan_id":"cebpf4jnsgd1na2vs0mg"},{"bike_id":"58e5d3a5-2659-4cba-9640-35e98cfd4b2c","system_id":"levelo_inurba_marseille","lat":43.29539,"lon":5.37511,"is_reserved":false,"is_disabled":true,"rental_uris":{"android":"levelo://app?vid=58e5d3a5-2659-4cba-9640-35e98cfd4b2c","ios":"levelo://app?vid=58e5d3a5-2659-4cba-9640-35e98cfd4b2c"},"vehicle_type_id":"4","last_reported":1761718619,"current_range_meters":19200,"station_id":"ce4bgkp2rcd13ifvqbmg","pricing_plan_id":"cebpf4jnsgd1na2vs0mg"},{"bike_id":"37b9a414-ff49-459d-a699-5e4384e67c87","system_id":"levelo_inurba_marseille","lat":43.29571,"lon":5.36742,"is_reserved":false,"is_disabled":false,"rental_uris":{"android":"levelo://app?vid=37b9a414-ff49-459d-a699-5e4384e67c87","ios":"levelo://app?vid=37b9a414-ff49-459d-a699-5e4384e67c87"},"vehicle_type_id":"4","last_reported":1761718619,"current_range_meters":19200,"station_id":"ce4bgph2rcd13ifvqc2g","pricing_plan_id":"cebpf4jnsgd1na2vs0mg"},{"bike_id":"5504ec66-0c82-4e82-9837-259bae8ec552","system_id":"levelo_inurba_marseille","lat":43.284193,"lon":5.349886,"is_reserved":false,"is_disabled":false,"rental_uris":{"android":"levelo://app?vid=5504ec66-0c82-4e82-9837-259bae8ec552","ios":"levelo://app?vid=5504ec66-0c82-4e82-9837-259bae8ec552"},"vehicle_type_id":"4","last_reported":1761718619,"current_range_meters":19200,"station_id":"ce4bhbh2rcd13ifvqepg","pricing_plan_id":"cebpf4jnsgd1na2vs0mg"},{"bike_id":"4a01e536-dd54-44ae-8678-7741cea8b733","system_id":"levelo_inurba_marseille","lat":43.30141,"lon":5.38081,"is_reserved":false,"is_disabled":false,"rental_uris":{"android":"levelo://app?vid=4a01e536-dd54-44ae-8678-7741cea8b733","ios":"levelo://app?vid=4a01e536-dd54-44ae-8678-7741cea8b733"},"vehicle_type_id":"4","last_reported":1761718619,"current_range_meters":19200,"station_id":"ce4bgjp2rcd13ifvqbh0","pricing_plan_id":"cebpf4jnsgd1na2vs0mg"},{"bike_id":"5866982f-82d7-4873-be4e-2079188220fc","system_id":"levelo_inurba_marseille","lat":43.24168,"lon":5.39721,"is_reserved":false,"is_disabled":false,"rental_uris":{"android":"levelo://app?vid=5866982f-82d7-4873-be4e-2079188220fc","ios":"levelo://app?vid=5866982f-82d7-4873-be4e-2079188220fc"},"vehicle_type_id":"4","last_reported":1761718619,"current_range_meters":19200,"station_id":"ce4bhn12rcd13ifvqgpg","pricing_plan_id":"cebpf4jnsgd1na2vs0mg"},{"bike_id":"a80deccf-a0f1-4a56-8e1a-6c2b2d32f79d","system_id":"levelo_inurba_marseille","lat":43.23144,"lon":5.43706,"is_reserved":false,"is_disabled":false,"rental_uris":{"android":"levelo://app?vid=a80deccf-a0f1-4a56-8e1a-6c2b2d32f79d","ios":"levelo://app?vid=a80deccf-a0f1-4a56-8e1a-6c2b2d32f79d"},"vehicle_type_id":"4","last_reported":1761718619,"current_range_meters":19200,"station_id":"ce4bhmp2rcd13ifvqgog","pricing_plan_id":"cebpf4jnsgd1na2vs0mg"},{"bike_id":"40f2b625-7d0c-4fb2-9832-dc645b0606ef","system_id":"levelo_inurba_marseille","lat":43.337564,"lon":5.374448,"is_reserved":false,"is_disabled":false,"rental_uris":{"android":"levelo://app?vid=40f2b625-7d0c-4fb2-9832-dc645b0606ef","ios":"levelo://app?vid=40f2b625-7d0c-4fb2-9832-dc645b0606ef"},"vehicle_type_id":"4","last_reported":1761718619,"current_range_meters":19600,"station_id":"","pricing_plan_id":"cebpf4jnsgd1na2vs0mg"},{"bike_id":"765e33c5-b992-4dc4-8c54-0384c53e260f","system_id":"levelo_inurba_marseille","lat":43.24171,"lon":5.36397,"is_reserved":false,"is_disabled":true,"rental_uris":{"android":"levelo://app?vid=765e33c5-b992-4dc4-8c54-0384c53e260f","ios":"levelo://app?vid=765e33c5-b992-4dc4-8c54-0384c53e260f"},"vehicle_type_id":"4","last_reported":1761718619,"current_range_meters":19600,"station_id":"cpo36qri1sfpv3e86is0","pricing_plan_id":"cebpf4jnsgd1na2vs0mg"},{"bike_id":"456266f3-48d8-4fb8-ac5d-d08598ad41f1","system_id":"levelo_inurba_marseille","lat":43.25573,"lon":5.38236,"is_reserved":false,"is_disabled":false,"rental_uris":{"android":"levelo://app?vid=456266f3-48d8-4fb8-ac5d-d08598ad41f1","ios":"levelo://app?vid=456266f3-48d8-4fb8-ac5d-d08598ad41f1"},"vehicle_type_id":"4","last_reported":1761718619,"current_range_meters":19600,"station_id":"ce4bhih2rcd13ifvqfs0","pricing_plan_id":"cebpf4jnsgd1na2vs0mg"},{"bike_id":"1e9ab2b8-a0e1-4419-85d4-936336420057","system_id":"levelo_inurba_marseille","lat":43.32088,"lon":5.43295,"is_reserved":false,"is_disabled":false,"rental_uris":{"android":"levelo://app?vid=1e9ab2b8-a0e1-4419-85d4-936336420057","ios":"levelo://app?vid=1e9ab2b8-a0e1-4419-85d4-936336420057"},"vehicle_type_id":"4","last_reported":1761718619,"current_range_meters":19600,"station_id":"","pricing_plan_id":"cebpf4jnsgd1na2vs0mg"},{"bike_id":"6a7144ef-7aa3-4281-bc24-6d65cf64fc32","system_id":"levelo_inurba_marseille","lat":43.301714,"lon":5.371859,"is_reserved":false,"is_disabled":false,"rental_uris":{"android":"levelo://app?vid=6a7144ef-7aa3-4281-bc24-6d65cf64fc32","ios":"levelo://app?vid=6a7144ef-7aa3-4281-bc24-6d65cf64fc32"},"vehicle_type_id":"4","last_reported":1761718619,"current_range_meters":19600,"station_id":"","pricing_plan_id":"cebpf4jnsgd1na2vs0mg"},{"bike_id":"9d245cdd-57af-40c9-8fae-42d63cad83d4","system_id":"levelo_inurba_marseille","lat":43.308805,"lon":5.396351,"is_reserved":false,"is_disabled":false,"rental_uris":{"android":"levelo://app?vid=9d245cdd-57af-40c9-8fae-42d63cad83d4","ios":"levelo://app?vid=9d245cdd-57af-40c9-8fae-42d63cad83d4"},"vehicle_type_id":"4","last_reported":1761718619,"current_range_meters":20000,"station_id":"ce4bh012rcd13ifvqcv0","pricing_plan_id":"cebpf4jnsgd1na2vs0mg"},{"bike_id":"449d68fe-e44d-478e-956e-c4715d97f07f","system_id":"levelo_inurba_marseille","lat":43.30942,"lon":5.3916,"is_reserved":false,"is_disabled":false,"rental_uris":{"android":"levelo://app?vid=449d68fe-e44d-478e-956e-c4715d97f07f","ios":"levelo://app?vid=449d68fe-e44d-478e-956e-c4715d97f07f"},"vehicle_type_id":"4","last_reported":1761718619,"current_range_meters":20000,"station_id":"","pricing_plan_id":"cebpf4jnsgd1na2vs0mg"},{"bike_id":"5b620425-6862-46cb-a74c-d3eec48203d7","system_id":"levelo_inurba_marseille","lat":43.295512,"lon":5.422793,"is_reserved":false,"is_disabled":false,"rental_uris":{"android":"levelo://app?vid=5b620425-6862-46cb-a74c-d3eec48203d7","ios":"levelo://app?vid=5b620425-6862-46cb-a74c-d3eec48203d7"},"vehicle_type_id":"4","last_reported":1761718619,"current_range_meters":20000,"station_id":"ce4bhph2rcd13ifvqhdg","pricing_plan_id":"cebpf4jnsgd1na2vs0mg"},{"bike_id":"dead3ee9-28a0-4654-afdf-43074901507c","system_id":"levelo_inurba_marseille","lat":43.30333,"lon":5.40459,"is_reserved":false,"is_disabled":false,"rental_uris":{"android":"levelo://app?vid=dead3ee9-28a0-4654-afdf-43074901507c","ios":"levelo://app?vid=dead3ee9-28a0-4654-afdf-43074901507c"},"vehicle_type_id":"4","last_reported":1761718619,"current_range_meters":20000,"station_id":"ce4bh012rcd13ifvqd10","pricing_plan_id":"cebpf4jnsgd1na2vs0mg"},{"bike_id":"bfec4d63-e5d6-459e-8a16-c526af67d502","system_id":"levelo_inurba_marseille","lat":43.28839,"lon":5.3929,"is_reserved":false,"is_disabled":false,"rental_uris":{"android":"levelo://app?vid=bfec4d63-e5d6-459e-8a16-c526af67d502","ios":"levelo://app?vid=bfec4d63-e5d6-459e-8a16-c526af67d502"},"vehicle_type_id":"4","last_reported":1761718619,"current_range_meters":20000,"station_id":"ce4bh2p2rcd13ifvqdi0","pricing_plan_id":"cebpf4jnsgd1na2vs0mg"},{"bike_id":"15e2c5dd-bae1-46fb-906a-d29fa37d6e53","system_id":"levelo_inurba_marseille","lat":43.31338,"lon":5.37275,"is_reserved":false,"is_disabled":false,"rental_uris":{"android":"levelo://app?vid=15e2c5dd-bae1-46fb-906a-d29fa37d6e53","ios":"levelo://app?vid=15e2c5dd-bae1-46fb-906a-d29fa37d6e53"},"vehicle_type_id":"4","last_reported":1761718619,"current_range_meters":20000,"station_id":"","pricing_plan_id":"cebpf4jnsgd1na2vs0mg"},{"bike_id":"f0ec41fd-03ca-4d4c-9a71-3c2b6d63f2f6","system_id":"levelo_inurba_marseille","lat":43.28396,"lon":5.37528,"is_reserved":false,"is_disabled":false,"rental_uris":{"android":"levelo://app?vid=f0ec41fd-03ca-4d4c-9a71-3c2b6d63f2f6","ios":"levelo://app?vid=f0ec41fd-03ca-4d4c-9a71-3c2b6d63f2f6"},"vehicle_type_id":"4","last_reported":1761718619,"current_range_meters":20000,"station_id":"ce4bh412rcd13ifvqds0","pricing_plan_id":"cebpf4jnsgd1na2vs0mg"},{"bike_id":"02022cdf-e65a-45f6-b63c-ce62efd90628","system_id":"levelo_inurba_marseille","lat":43.30499,"lon":5.369555,"is_reserved":false,"is_disabled":false,"rental_uris":{"android":"levelo://app?vid=02022cdf-e65a-45f6-b63c-ce62efd90628","ios":"levelo://app?vid=02022cdf-e65a-45f6-b63c-ce62efd90628"},"vehicle_type_id":"4","last_reported":1761718619,"current_range_meters":20000,"station_id":"","pricing_plan_id":"cebpf4jnsgd1na2vs0mg"},{"bike_id":"d2f30ff1-239b-45f9-a8b7-676e761bd2a3","system_id":"levelo_inurba_marseille","lat":43.32031,"lon":5.41572,"is_reserved":false,"is_disabled":false,"rental_uris":{"android":"levelo://app?vid=d2f30ff1-239b-45f9-a8b7-676e761bd2a3","ios":"levelo://app?vid=d2f30ff1-239b-45f9-a8b7-676e761bd2a3"},"vehicle_type_id":"4","last_reported":1761718619,"current_range_meters":20400,"station_id":"ce4bhq92rcd13ifvqhkg","pricing_plan_id":"cebpf4jnsgd1na2vs0mg"},{"bike_id":"354d79d8-b33e-4744-934c-51af9fd87ed8","system_id":"levelo_inurba_marseille","lat":43.28091,"lon":5.39646,"is_reserved":false,"is_disabled":false,"rental_uris":{"android":"levelo://app?vid=354d79d8-b33e-4744-934c-51af9fd87ed8","ios":"levelo://app?vid=354d79d8-b33e-4744-934c-51af9fd87ed8"},"vehicle_type_id":"4","last_reported":1761718619,"current_range_meters":20400,"station_id":"ce4bho12rcd13ifvqh2g","pricing_plan_id":"cebpf4jnsgd1na2vs0mg"},{"bike_id":"afcbd88d-ae01-4f58-ab2c-71abb3c65ecc","system_id":"levelo_inurba_marseille","lat":43.313235,"lon":5.397057,"is_reserved":false,"is_disabled":false,"rental_uris":{"android":"levelo://app?vid=afcbd88d-ae01-4f58-ab2c-71abb3c65ecc","ios":"levelo://app?vid=afcbd88d-ae01-4f58-ab2c-71abb3c65ecc"},"vehicle_type_id":"4","last_reported":1761718619,"current_range_meters":20400,"station_id":"ce4bgvp2rcd13ifvqcu0","pricing_plan_id":"cebpf4jnsgd1na2vs0mg"},{"bike_id":"3252b369-e4a3-4c0b-94db-c4612699ab97","system_id":"levelo_inurba_marseille","lat":43.31238,"lon":5.40166,"is_reserved":false,"is_disabled":false,"rental_uris":{"android":"levelo://app?vid=3252b369-e4a3-4c0b-94db-c4612699ab97","ios":"levelo://app?vid=3252b369-e4a3-4c0b-94db-c4612699ab97"},"vehicle_type_id":"4","last_reported":1761718619,"current_range_meters":20400,"station_id":"ce4bh092rcd13ifvqd30","pricing_plan_id":"cebpf4jnsgd1na2vs0mg"},{"bike_id":"78be7b3a-87ed-47a3-9fb6-68a4ea2a844e","system_id":"levelo_inurba_marseille","lat":43.30885,"lon":5.37205,"is_reserved":false,"is_disabled":false,"rental_uris":{"android":"levelo://app?vid=78be7b3a-87ed-47a3-9fb6-68a4ea2a844e","ios":"levelo://app?vid=78be7b3a-87ed-47a3-9fb6-68a4ea2a844e"},"vehicle_type_id":"4","last_reported":1761718619,"current_range_meters":20400,"station_id":"ce4bguh2rcd13ifvqckg","pricing_plan_id":"cebpf4jnsgd1na2vs0mg"},{"bike_id":"9d40a700-0d92-4efa-9902-11e2f8d9e543","system_id":"levelo_inurba_marseille","lat":43.30431,"lon":5.41273,"is_reserved":false,"is_disabled":false,"rental_uris":{"android":"levelo://app?vid=9d40a700-0d92-4efa-9902-11e2f8d9e543","ios":"levelo://app?vid=9d40a700-0d92-4efa-9902-11e2f8d9e543"},"vehicle_type_id":"4","last_reported":1761718619,"current_range_meters":20400,"station_id":"ce4bhop2rcd13ifvqh8g","pricing_plan_id":"cebpf4jnsgd1na2vs0mg"},{"bike_id":"a18dbf48-2c4d-4fa4-a4c5-c9871d73c9a0","system_id":"levelo_inurba_marseille","lat":43.301994,"lon":5.383462,"is_reserved":false,"is_disabled":false,"rental_uris":{"android":"levelo://app?vid=a18dbf48-2c4d-4fa4-a4c5-c9871d73c9a0","ios":"levelo://app?vid=a18dbf48-2c4d-4fa4-a4c5-c9871d73c9a0"},"vehicle_type_id":"4","last_reported":1761718619,"current_range_meters":20400,"station_id":"ce4bgup2rcd13ifvqcn0","pricing_plan_id":"cebpf4jnsgd1na2vs0mg"},{"bike_id":"7075a5bf-e685-49f2-a7bd-0a906f3c97d3","system_id":"levelo_inurba_marseille","lat":43.243904,"lon":5.370566,"is_reserved":false,"is_disabled":false,"rental_uris":{"android":"levelo://app?vid=7075a5bf-e685-49f2-a7bd-0a906f3c97d3","ios":"levelo://app?vid=7075a5bf-e685-49f2-a7bd-0a906f3c97d3"},"vehicle_type_id":"4","last_reported":1761718619,"current_range_meters":20400,"station_id":"ce4bhhh2rcd13ifvqfk0","pricing_plan_id":"cebpf4jnsgd1na2vs0mg"},{"bike_id":"4f8d05d3-c3ec-46c5-98b3-93a2da7f8cb1","system_id":"levelo_inurba_marseille","lat":43.27047,"lon":5.40277,"is_reserved":false,"is_disabled":false,"rental_uris":{"android":"levelo://app?vid=4f8d05d3-c3ec-46c5-98b3-93a2da7f8cb1","ios":"levelo://app?vid=4f8d05d3-c3ec-46c5-98b3-93a2da7f8cb1"},"vehicle_type_id":"4","last_reported":1761718619,"current_range_meters":20400,"station_id":"ce4bhk92rcd13ifvqgc0","pricing_plan_id":"cebpf4jnsgd1na2vs0mg"},{"bike_id":"3c9877a9-bf7c-4aed-9210-31aaee07a89f","system_id":"levelo_inurba_marseille","lat":43.279905,"lon":5.416606,"is_reserved":false,"is_disabled":false,"rental_uris":{"android":"levelo://app?vid=3c9877a9-bf7c-4aed-9210-31aaee07a89f","ios":"levelo://app?vid=3c9877a9-bf7c-4aed-9210-31aaee07a89f"},"vehicle_type_id":"4","last_reported":1761718619,"current_range_meters":20400,"station_id":"ce4bho12rcd13ifvqh1g","pricing_plan_id":"cebpf4jnsgd1na2vs0mg"},{"bike_id":"36fad58c-5986-4ae7-acc3-cce44f51e068","system_id":"levelo_inurba_marseille","lat":43.28976,"lon":5.37841,"is_reserved":false,"is_disabled":true,"rental_uris":{"android":"levelo://app?vid=36fad58c-5986-4ae7-acc3-cce44f51e068","ios":"levelo://app?vid=36fad58c-5986-4ae7-acc3-cce44f51e068"},"vehicle_type_id":"4","last_reported":1761718619,"current_range_meters":20400,"station_id":"ce4bh9p2rcd13ifvqed0","pricing_plan_id":"cebpf4jnsgd1na2vs0mg"},{"bike_id":"9b93b5e1-c939-4745-bf85-2d21945442dc","system_id":"levelo_inurba_marseille","lat":43.29989,"lon":5.36406,"is_reserved":false,"is_disabled":false,"rental_uris":{"android":"levelo://app?vid=9b93b5e1-c939-4745-bf85-2d21945442dc","ios":"levelo://app?vid=9b93b5e1-c939-4745-bf85-2d21945442dc"},"vehicle_type_id":"4","last_reported":1761718619,"current_range_meters":20800,"station_id":"","pricing_plan_id":"cebpf4jnsgd1na2vs0mg"},{"bike_id":"0fd10a7b-a597-4dc1-bac2-8bb1ff657150","system_id":"levelo_inurba_marseille","lat":43.31758,"lon":5.39015,"is_reserved":false,"is_disabled":false,"rental_uris":{"android":"levelo://app?vid=0fd10a7b-a597-4dc1-bac2-8bb1ff657150","ios":"levelo://app?vid=0fd10a7b-a597-4dc1-bac2-8bb1ff657150"},"vehicle_type_id":"4","last_reported":1761718619,"current_range_meters":20800,"station_id":"ce4bhqp2rcd13ifvqhng","pricing_plan_id":"cebpf4jnsgd1na2vs0mg"},{"bike_id":"735746f2-8831-4016-8fde-5ca6dc77cf37","system_id":"levelo_inurba_marseille","lat":43.245458,"lon":5.395268,"is_reserved":false,"is_disabled":false,"rental_uris":{"android":"levelo://app?vid=735746f2-8831-4016-8fde-5ca6dc77cf37","ios":"levelo://app?vid=735746f2-8831-4016-8fde-5ca6dc77cf37"},"vehicle_type_id":"4","last_reported":1761718619,"current_range_meters":20800,"station_id":"ce4bhlp2rcd13ifvqgjg","pricing_plan_id":"cebpf4jnsgd1na2vs0mg"},{"bike_id":"48724abd-044c-4749-a7c3-b915eb7d1835","system_id":"levelo_inurba_marseille","lat":43.24169,"lon":5.36399,"is_reserved":false,"is_disabled":false,"rental_uris":{"android":"levelo://app?vid=48724abd-044c-4749-a7c3-b915eb7d1835","ios":"levelo://app?vid=48724abd-044c-4749-a7c3-b915eb7d1835"},"vehicle_type_id":"4","last_reported":1761718619,"current_range_meters":20800,"station_id":"cpo36qri1sfpv3e86is0","pricing_plan_id":"cebpf4jnsgd1na2vs0mg"},{"bike_id":"9a597d49-3ffe-4f5a-ae05-a9c4ea5e15fe","system_id":"levelo_inurba_marseille","lat":43.29067,"lon":5.37146,"is_reserved":false,"is_disabled":true,"rental_uris":{"android":"levelo://app?vid=9a597d49-3ffe-4f5a-ae05-a9c4ea5e15fe","ios":"levelo://app?vid=9a597d49-3ffe-4f5a-ae05-a9c4ea5e15fe"},"vehicle_type_id":"4","last_reported":1761718619,"current_range_meters":20800,"station_id":"ce4bh5p2rcd13ifvqe4g","pricing_plan_id":"cebpf4jnsgd1na2vs0mg"},{"bike_id":"eb5ed237-061d-4ce2-93aa-d97e58a27432","system_id":"levelo_inurba_marseille","lat":43.24142,"lon":5.36496,"is_reserved":false,"is_disabled":false,"rental_uris":{"android":"levelo://app?vid=eb5ed237-061d-4ce2-93aa-d97e58a27432","ios":"levelo://app?vid=eb5ed237-061d-4ce2-93aa-d97e58a27432"},"vehicle_type_id":"4","last_reported":1761718619,"current_range_meters":20800,"station_id":"","pricing_plan_id":"cebpf4jnsgd1na2vs0mg"},{"bike_id":"347bdabb-bc7c-40e1-b905-2886819327e2","system_id":"levelo_inurba_marseille","lat":43.30146,"lon":5.38083,"is_reserved":false,"is_disabled":false,"rental_uris":{"android":"levelo://app?vid=347bdabb-bc7c-40e1-b905-2886819327e2","ios":"levelo://app?vid=347bdabb-bc7c-40e1-b905-2886819327e2"},"vehicle_type_id":"4","last_reported":1761718619,"current_range_meters":20800,"station_id":"ce4bgjp2rcd13ifvqbh0","pricing_plan_id":"cebpf4jnsgd1na2vs0mg"},{"bike_id":"72fb4fe8-29f0-47ec-a970-0be6b8af1ad5","system_id":"levelo_inurba_marseille","lat":43.29197,"lon":5.35777,"is_reserved":false,"is_disabled":false,"rental_uris":{"android":"levelo://app?vid=72fb4fe8-29f0-47ec-a970-0be6b8af1ad5","ios":"levelo://app?vid=72fb4fe8-29f0-47ec-a970-0be6b8af1ad5"},"vehicle_type_id":"4","last_reported":1761718619,"current_range_meters":20800,"station_id":"ce4bhb12rcd13ifvqel0","pricing_plan_id":"cebpf4jnsgd1na2vs0mg"},{"bike_id":"6074d01a-a92d-49f6-a295-093688773547","system_id":"levelo_inurba_marseille","lat":43.297559,"lon":5.42779,"is_reserved":false,"is_disabled":false,"rental_uris":{"android":"levelo://app?vid=6074d01a-a92d-49f6-a295-093688773547","ios":"levelo://app?vid=6074d01a-a92d-49f6-a295-093688773547"},"vehicle_type_id":"4","last_reported":1761718619,"current_range_meters":20800,"station_id":"st_d3md5207bmas73dh9klg","pricing_plan_id":"cebpf4jnsgd1na2vs0mg"},{"bike_id":"74a107ac-7212-4d1c-ac0e-f630ec0d9eda","system_id":"levelo_inurba_marseille","lat":43.30461,"lon":5.3792,"is_reserved":false,"is_disabled":false,"rental_uris":{"android":"levelo://app?vid=74a107ac-7212-4d1c-ac0e-f630ec0d9eda","ios":"levelo://app?vid=74a107ac-7212-4d1c-ac0e-f630ec0d9eda"},"vehicle_type_id":"4","last_reported":1761718619,"current_range_meters":20800,"station_id":"ce4bgup2rcd13ifvqcn0","pricing_plan_id":"cebpf4jnsgd1na2vs0mg"},{"bike_id":"e99768b9-8515-4539-9351-248e29f0a75a","system_id":"levelo_inurba_marseille","lat":43.26947,"lon":5.38629,"is_reserved":false,"is_disabled":false,"rental_uris":{"android":"levelo://app?vid=e99768b9-8515-4539-9351-248e29f0a75a","ios":"levelo://app?vid=e99768b9-8515-4539-9351-248e29f0a75a"},"vehicle_type_id":"4","last_reported":1761718619,"current_range_meters":21600,"station_id":"ce4bhh92rcd13ifvqfh0","pricing_plan_id":"cebpf4jnsgd1na2vs0mg"},{"bike_id":"7b1a4a19-70aa-4654-af87-9754542a00eb","system_id":"levelo_inurba_marseille","lat":43.29518,"lon":5.39018,"is_reserved":false,"is_disabled":true,"rental_uris":{"android":"levelo://app?vid=7b1a4a19-70aa-4654-af87-9754542a00eb","ios":"levelo://app?vid=7b1a4a19-70aa-4654-af87-9754542a00eb"},"vehicle_type_id":"4","last_reported":1761718619,"current_range_meters":21600,"station_id":"ce4bh3p2rcd13ifvqdp0","pricing_plan_id":"cebpf4jnsgd1na2vs0mg"},{"bike_id":"2a5e1df6-abaa-43d8-a326-8fc6517b2c52","system_id":"levelo_inurba_marseille","lat":43.22568,"lon":5.4163,"is_reserved":false,"is_disabled":false,"rental_uris":{"android":"levelo://app?vid=2a5e1df6-abaa-43d8-a326-8fc6517b2c52","ios":"levelo://app?vid=2a5e1df6-abaa-43d8-a326-8fc6517b2c52"},"vehicle_type_id":"4","last_reported":1761718619,"current_range_meters":21600,"station_id":"st_d2o4gvlbi1j2169b742g","pricing_plan_id":"cebpf4jnsgd1na2vs0mg"},{"bike_id":"8ff7698c-7e5c-4194-9f4c-b674091b39a8","system_id":"levelo_inurba_marseille","lat":43.27943,"lon":5.403926,"is_reserved":false,"is_disabled":false,"rental_uris":{"android":"levelo://app?vid=8ff7698c-7e5c-4194-9f4c-b674091b39a8","ios":"levelo://app?vid=8ff7698c-7e5c-4194-9f4c-b674091b39a8"},"vehicle_type_id":"4","last_reported":1761718619,"current_range_meters":21600,"station_id":"","pricing_plan_id":"cebpf4jnsgd1na2vs0mg"},{"bike_id":"0f6b7fbe-71c4-44fb-a1df-6afd6f64446c","system_id":"levelo_inurba_marseille","lat":43.29885,"lon":5.380855,"is_reserved":false,"is_disabled":true,"rental_uris":{"android":"levelo://app?vid=0f6b7fbe-71c4-44fb-a1df-6afd6f64446c","ios":"levelo://app?vid=0f6b7fbe-71c4-44fb-a1df-6afd6f64446c"},"vehicle_type_id":"4","last_reported":1761718619,"current_range_meters":21600,"station_id":"","pricing_plan_id":"cebpf4jnsgd1na2vs0mg"},{"bike_id":"c1219d33-b2f7-4216-930a-843be9dc20a8","system_id":"levelo_inurba_marseille","lat":43.33803,"lon":5.37414,"is_reserved":false,"is_disabled":false,"rental_uris":{"android":"levelo://app?vid=c1219d33-b2f7-4216-930a-843be9dc20a8","ios":"levelo://app?vid=c1219d33-b2f7-4216-930a-843be9dc20a8"},"vehicle_type_id":"4","last_reported":1761718619,"current_range_meters":21600,"station_id":"","pricing_plan_id":"cebpf4jnsgd1na2vs0mg"},{"bike_id":"3ccbad45-41c7-4b92-bea1-b635a899572f","system_id":"levelo_inurba_marseille","lat":43.314912,"lon":5.373088,"is_reserved":false,"is_disabled":false,"rental_uris":{"android":"levelo://app?vid=3ccbad45-41c7-4b92-bea1-b635a899572f","ios":"levelo://app?vid=3ccbad45-41c7-4b92-bea1-b635a899572f"},"vehicle_type_id":"4","last_reported":1761718619,"current_range_meters":21600,"station_id":"ce4bgt12rcd13ifvqcd0","pricing_plan_id":"cebpf4jnsgd1na2vs0mg"},{"bike_id":"6e727f51-e1be-4a14-a275-04bd16a55958","system_id":"levelo_inurba_marseille","lat":43.28612,"lon":5.35101,"is_reserved":false,"is_disabled":true,"rental_uris":{"android":"levelo://app?vid=6e727f51-e1be-4a14-a275-04bd16a55958","ios":"levelo://app?vid=6e727f51-e1be-4a14-a275-04bd16a55958"},"vehicle_type_id":"4","last_reported":1761718619,"current_range_meters":21600,"station_id":"ce4bhch2rcd13ifvqeug","pricing_plan_id":"cebpf4jnsgd1na2vs0mg"},{"bike_id":"2ecac202-cc2c-49f5-8dea-4c509f950408","system_id":"levelo_inurba_marseille","lat":43.30152,"lon":5.38081,"is_reserved":false,"is_disabled":false,"rental_uris":{"android":"levelo://app?vid=2ecac202-cc2c-49f5-8dea-4c509f950408","ios":"levelo://app?vid=2ecac202-cc2c-49f5-8dea-4c509f950408"},"vehicle_type_id":"4","last_reported":1761718619,"current_range_meters":21600,"station_id":"ce4bgjp2rcd13ifvqbh0","pricing_plan_id":"cebpf4jnsgd1na2vs0mg"},{"bike_id":"f907fbe3-e0ff-4d7b-8844-5301dede0944","system_id":"levelo_inurba_marseille","lat":43.27368,"lon":5.36254,"is_reserved":false,"is_disabled":false,"rental_uris":{"android":"levelo://app?vid=f907fbe3-e0ff-4d7b-8844-5301dede0944","ios":"levelo://app?vid=f907fbe3-e0ff-4d7b-8844-5301dede0944"},"vehicle_type_id":"4","last_reported":1761718619,"current_range_meters":21600,"station_id":"ce4bhbh2rcd13ifvqeo0","pricing_plan_id":"cebpf4jnsgd1na2vs0mg"},{"bike_id":"0a738aac-829c-4065-ad55-b9450671e69b","system_id":"levelo_inurba_marseille","lat":43.28407,"lon":5.37525,"is_reserved":false,"is_disabled":false,"rental_uris":{"android":"levelo://app?vid=0a738aac-829c-4065-ad55-b9450671e69b","ios":"levelo://app?vid=0a738aac-829c-4065-ad55-b9450671e69b"},"vehicle_type_id":"4","last_reported":1761718619,"current_range_meters":21600,"station_id":"ce4bh412rcd13ifvqds0","pricing_plan_id":"cebpf4jnsgd1na2vs0mg"},{"bike_id":"f3f4fd84-e4b0-4a93-bebd-d783c748268d","system_id":"levelo_inurba_marseille","lat":43.27823,"lon":5.35477,"is_reserved":false,"is_disabled":false,"rental_uris":{"android":"levelo://app?vid=f3f4fd84-e4b0-4a93-bebd-d783c748268d","ios":"levelo://app?vid=f3f4fd84-e4b0-4a93-bebd-d783c748268d"},"vehicle_type_id":"4","last_reported":1761718619,"current_range_meters":22000,"station_id":"","pricing_plan_id":"cebpf4jnsgd1na2vs0mg"},{"bike_id":"f89d499f-6923-4f68-a6f6-9bd7973b36a4","system_id":"levelo_inurba_marseille","lat":43.30107,"lon":5.38753,"is_reserved":false,"is_disabled":false,"rental_uris":{"android":"levelo://app?vid=f89d499f-6923-4f68-a6f6-9bd7973b36a4","ios":"levelo://app?vid=f89d499f-6923-4f68-a6f6-9bd7973b36a4"},"vehicle_type_id":"4","last_reported":1761718619,"current_range_meters":22000,"station_id":"","pricing_plan_id":"cebpf4jnsgd1na2vs0mg"},{"bike_id":"fc4e308e-ca9c-40cc-8299-2c92a327e969","system_id":"levelo_inurba_marseille","lat":43.30777,"lon":5.376487,"is_reserved":false,"is_disabled":true,"rental_uris":{"android":"levelo://app?vid=fc4e308e-ca9c-40cc-8299-2c92a327e969","ios":"levelo://app?vid=fc4e308e-ca9c-40cc-8299-2c92a327e969"},"vehicle_type_id":"4","last_reported":1761718619,"current_range_meters":22000,"station_id":"ce4bgv92rcd13ifvqcq0","pricing_plan_id":"cebpf4jnsgd1na2vs0mg"},{"bike_id":"3e015a0c-489b-4c11-be52-20f33a65c819","system_id":"levelo_inurba_marseille","lat":43.33031,"lon":5.39242,"is_reserved":false,"is_disabled":false,"rental_uris":{"android":"levelo://app?vid=3e015a0c-489b-4c11-be52-20f33a65c819","ios":"levelo://app?vid=3e015a0c-489b-4c11-be52-20f33a65c819"},"vehicle_type_id":"4","last_reported":1761718619,"current_range_meters":22000,"station_id":"","pricing_plan_id":"cebpf4jnsgd1na2vs0mg"},{"bike_id":"9cddcb69-bdd0-4367-b7d2-dfc7341fe31f","system_id":"levelo_inurba_marseille","lat":43.302469,"lon":5.400476,"is_reserved":false,"is_disabled":false,"rental_uris":{"android":"levelo://app?vid=9cddcb69-bdd0-4367-b7d2-dfc7341fe31f","ios":"levelo://app?vid=9cddcb69-bdd0-4367-b7d2-dfc7341fe31f"},"vehicle_type_id":"4","last_reported":1761718619,"current_range_meters":22000,"station_id":"ce4bgvh2rcd13ifvqcs0","pricing_plan_id":"cebpf4jnsgd1na2vs0mg"},{"bike_id":"5d6dab70-76c7-420b-ad97-bb518b3696b2","system_id":"levelo_inurba_marseille","lat":43.30502,"lon":5.36706,"is_reserved":false,"is_disabled":false,"rental_uris":{"android":"levelo://app?vid=5d6dab70-76c7-420b-ad97-bb518b3696b2","ios":"levelo://app?vid=5d6dab70-76c7-420b-ad97-bb518b3696b2"},"vehicle_type_id":"4","last_reported":1761718619,"current_range_meters":22000,"station_id":"ce4bgrp2rcd13ifvqc9g","pricing_plan_id":"cebpf4jnsgd1na2vs0mg"},{"bike_id":"4fda6b3a-f91b-4eed-8dc1-f1bac69d7295","system_id":"levelo_inurba_marseille","lat":43.31552,"lon":5.37445,"is_reserved":false,"is_disabled":true,"rental_uris":{"android":"levelo://app?vid=4fda6b3a-f91b-4eed-8dc1-f1bac69d7295","ios":"levelo://app?vid=4fda6b3a-f91b-4eed-8dc1-f1bac69d7295"},"vehicle_type_id":"4","last_reported":1761718619,"current_range_meters":22000,"station_id":"","pricing_plan_id":"cebpf4jnsgd1na2vs0mg"},{"bike_id":"3344eb7e-5b2a-4ed2-b2f5-8eaa76c6f946","system_id":"levelo_inurba_marseille","lat":43.26549,"lon":5.37287,"is_reserved":false,"is_disabled":false,"rental_uris":{"android":"levelo://app?vid=3344eb7e-5b2a-4ed2-b2f5-8eaa76c6f946","ios":"levelo://app?vid=3344eb7e-5b2a-4ed2-b2f5-8eaa76c6f946"},"vehicle_type_id":"4","last_reported":1761718619,"current_range_meters":22400,"station_id":"ce4bhg12rcd13ifvqf70","pricing_plan_id":"cebpf4jnsgd1na2vs0mg"},{"bike_id":"88327406-ba65-4ce0-831c-3da476dbb691","system_id":"levelo_inurba_marseille","lat":43.237708,"lon":5.366379,"is_reserved":false,"is_disabled":false,"rental_uris":{"android":"levelo://app?vid=88327406-ba65-4ce0-831c-3da476dbb691","ios":"levelo://app?vid=88327406-ba65-4ce0-831c-3da476dbb691"},"vehicle_type_id":"4","last_reported":1761718619,"current_range_meters":22400,"station_id":"st_d3nk18o9ro0c73en2l3g","pricing_plan_id":"cebpf4jnsgd1na2vs0mg"},{"bike_id":"4b12e3ad-8bab-47a7-928f-b7e59fd707f5","system_id":"levelo_inurba_marseille","lat":43.31694,"lon":5.37658,"is_reserved":false,"is_disabled":false,"rental_uris":{"android":"levelo://app?vid=4b12e3ad-8bab-47a7-928f-b7e59fd707f5","ios":"levelo://app?vid=4b12e3ad-8bab-47a7-928f-b7e59fd707f5"},"vehicle_type_id":"4","last_reported":1761718619,"current_range_meters":22400,"station_id":"","pricing_plan_id":"cebpf4jnsgd1na2vs0mg"},{"bike_id":"02783449-1679-465e-a1c9-fafa329f2d04","system_id":"levelo_inurba_marseille","lat":43.313539,"lon":5.385014,"is_reserved":false,"is_disabled":false,"rental_uris":{"android":"levelo://app?vid=02783449-1679-465e-a1c9-fafa329f2d04","ios":"levelo://app?vid=02783449-1679-465e-a1c9-fafa329f2d04"},"vehicle_type_id":"4","last_reported":1761718619,"current_range_meters":22400,"station_id":"ce4bgt92rcd13ifvqcf0","pricing_plan_id":"cebpf4jnsgd1na2vs0mg"},{"bike_id":"f09a628a-aa46-42f1-888a-4e837a270058","system_id":"levelo_inurba_marseille","lat":43.26954,"lon":5.40338,"is_reserved":false,"is_disabled":false,"rental_uris":{"android":"levelo://app?vid=f09a628a-aa46-42f1-888a-4e837a270058","ios":"levelo://app?vid=f09a628a-aa46-42f1-888a-4e837a270058"},"vehicle_type_id":"4","last_reported":1761718619,"current_range_meters":22400,"station_id":"","pricing_plan_id":"cebpf4jnsgd1na2vs0mg"},{"bike_id":"9fe2f728-f63e-4a2d-b618-a709cf4e994f","system_id":"levelo_inurba_marseille","lat":43.31045,"lon":5.38871,"is_reserved":false,"is_disabled":false,"rental_uris":{"android":"levelo://app?vid=9fe2f728-f63e-4a2d-b618-a709cf4e994f","ios":"levelo://app?vid=9fe2f728-f63e-4a2d-b618-a709cf4e994f"},"vehicle_type_id":"4","last_reported":1761718619,"current_range_meters":22800,"station_id":"","pricing_plan_id":"cebpf4jnsgd1na2vs0mg"},{"bike_id":"e06cf717-8f31-4af7-a9ab-a142c449c8d1","system_id":"levelo_inurba_marseille","lat":43.24387,"lon":5.37071,"is_reserved":false,"is_disabled":false,"rental_uris":{"android":"levelo://app?vid=e06cf717-8f31-4af7-a9ab-a142c449c8d1","ios":"levelo://app?vid=e06cf717-8f31-4af7-a9ab-a142c449c8d1"},"vehicle_type_id":"4","last_reported":1761718619,"current_range_meters":22800,"station_id":"ce4bhhh2rcd13ifvqfk0","pricing_plan_id":"cebpf4jnsgd1na2vs0mg"},{"bike_id":"93c09170-58a3-4cac-a1a4-ffde302ec5a5","system_id":"levelo_inurba_marseille","lat":43.225311,"lon":5.348382,"is_reserved":false,"is_disabled":false,"rental_uris":{"android":"levelo://app?vid=93c09170-58a3-4cac-a1a4-ffde302ec5a5","ios":"levelo://app?vid=93c09170-58a3-4cac-a1a4-ffde302ec5a5"},"vehicle_type_id":"4","last_reported":1761718619,"current_range_meters":22800,"station_id":"","pricing_plan_id":"cebpf4jnsgd1na2vs0mg"},{"bike_id":"ff84a8eb-5247-4f6e-b00d-cbd9e9d10f42","system_id":"levelo_inurba_marseille","lat":43.337433,"lon":5.374531,"is_reserved":false,"is_disabled":false,"rental_uris":{"android":"levelo://app?vid=ff84a8eb-5247-4f6e-b00d-cbd9e9d10f42","ios":"levelo://app?vid=ff84a8eb-5247-4f6e-b00d-cbd9e9d10f42"},"vehicle_type_id":"4","last_reported":1761718619,"current_range_meters":22800,"station_id":"","pricing_plan_id":"cebpf4jnsgd1na2vs0mg"},{"bike_id":"a24e6f3f-a2ec-4e38-a19f-8712f391dae0","system_id":"levelo_inurba_marseille","lat":43.243982,"lon":5.370676,"is_reserved":false,"is_disabled":false,"rental_uris":{"android":"levelo://app?vid=a24e6f3f-a2ec-4e38-a19f-8712f391dae0","ios":"levelo://app?vid=a24e6f3f-a2ec-4e38-a19f-8712f391dae0"},"vehicle_type_id":"4","last_reported":1761718619,"current_range_meters":23200,"station_id":"ce4bhhh2rcd13ifvqfk0","pricing_plan_id":"cebpf4jnsgd1na2vs0mg"},{"bike_id":"b0f45747-c9c8-4cd0-b924-ff1f0b337f15","system_id":"levelo_inurba_marseille","lat":43.31328,"lon":5.39718,"is_reserved":false,"is_disabled":false,"rental_uris":{"android":"levelo://app?vid=b0f45747-c9c8-4cd0-b924-ff1f0b337f15","ios":"levelo://app?vid=b0f45747-c9c8-4cd0-b924-ff1f0b337f15"},"vehicle_type_id":"4","last_reported":1761718619,"current_range_meters":23200,"station_id":"ce4bgvp2rcd13ifvqcu0","pricing_plan_id":"cebpf4jnsgd1na2vs0mg"},{"bike_id":"346c4db1-c533-47a8-8a88-e2a2addda2df","system_id":"levelo_inurba_marseille","lat":43.260692,"lon":5.393665,"is_reserved":false,"is_disabled":true,"rental_uris":{"android":"levelo://app?vid=346c4db1-c533-47a8-8a88-e2a2addda2df","ios":"levelo://app?vid=346c4db1-c533-47a8-8a88-e2a2addda2df"},"vehicle_type_id":"4","last_reported":1761718619,"current_range_meters":23200,"station_id":"ce4bhh92rcd13ifvqfj0","pricing_plan_id":"cebpf4jnsgd1na2vs0mg"},{"bike_id":"05a47c24-c74d-4482-aade-5974399cb310","system_id":"levelo_inurba_marseille","lat":43.29606,"lon":5.37672,"is_reserved":false,"is_disabled":false,"rental_uris":{"android":"levelo://app?vid=05a47c24-c74d-4482-aade-5974399cb310","ios":"levelo://app?vid=05a47c24-c74d-4482-aade-5974399cb310"},"vehicle_type_id":"4","last_reported":1761718619,"current_range_meters":23200,"station_id":"ce4bgi92rcd13ifvqb90","pricing_plan_id":"cebpf4jnsgd1na2vs0mg"},{"bike_id":"a6150eb3-7512-4167-9a4b-03906bc60c3e","system_id":"levelo_inurba_marseille","lat":43.29786,"lon":5.3811,"is_reserved":false,"is_disabled":true,"rental_uris":{"android":"levelo://app?vid=a6150eb3-7512-4167-9a4b-03906bc60c3e","ios":"levelo://app?vid=a6150eb3-7512-4167-9a4b-03906bc60c3e"},"vehicle_type_id":"4","last_reported":1761718619,"current_range_meters":23200,"station_id":"ce4bgip2rcd13ifvqbb0","pricing_plan_id":"cebpf4jnsgd1na2vs0mg"},{"bike_id":"6d8114ec-8ced-486f-9bcc-62a011d5f3ca","system_id":"levelo_inurba_marseille","lat":43.30931,"lon":5.40142,"is_reserved":false,"is_disabled":false,"rental_uris":{"android":"levelo://app?vid=6d8114ec-8ced-486f-9bcc-62a011d5f3ca","ios":"levelo://app?vid=6d8114ec-8ced-486f-9bcc-62a011d5f3ca"},"vehicle_type_id":"4","last_reported":1761718619,"current_range_meters":23200,"station_id":"ce4bgvp2rcd13ifvqct0","pricing_plan_id":"cebpf4jnsgd1na2vs0mg"},{"bike_id":"ca816c3e-550d-4f0f-baf1-a1807852673b","system_id":"levelo_inurba_marseille","lat":43.282068,"lon":5.390521,"is_reserved":false,"is_disabled":false,"rental_uris":{"android":"levelo://app?vid=ca816c3e-550d-4f0f-baf1-a1807852673b","ios":"levelo://app?vid=ca816c3e-550d-4f0f-baf1-a1807852673b"},"vehicle_type_id":"4","last_reported":1761718619,"current_range_meters":24000,"station_id":"ce4bhn92rcd13ifvqgsg","pricing_plan_id":"cebpf4jnsgd1na2vs0mg"},{"bike_id":"a4dac4fa-66e6-48be-a654-6e17cdc7ca0b","system_id":"levelo_inurba_marseille","lat":43.337644,"lon":5.374277,"is_reserved":false,"is_disabled":false,"rental_uris":{"android":"levelo://app?vid=a4dac4fa-66e6-48be-a654-6e17cdc7ca0b","ios":"levelo://app?vid=a4dac4fa-66e6-48be-a654-6e17cdc7ca0b"},"vehicle_type_id":"4","last_reported":1761718619,"current_range_meters":24000,"station_id":"","pricing_plan_id":"cebpf4jnsgd1na2vs0mg"},{"bike_id":"f80a0055-c873-4e76-98bc-f952a6f624c9","system_id":"levelo_inurba_marseille","lat":43.2794,"lon":5.41038,"is_reserved":false,"is_disabled":false,"rental_uris":{"android":"levelo://app?vid=f80a0055-c873-4e76-98bc-f952a6f624c9","ios":"levelo://app?vid=f80a0055-c873-4e76-98bc-f952a6f624c9"},