{"last_updated":1751713660,"ttl":60,"version":"2.2","data":{"bikes":[{"bike_id":"3da29fb8-fc97-44c6-b9ac-31dd456b2fd4","system_id":"levelo_inurba_marseille","lat":43.33771,"lon":5.37424,"is_reserved":false,"is_disabled":true,"rental_uris":{"android":"levelo://app?vid=3da29fb8-fc97-44c6-b9ac-31dd456b2fd4","ios":"levelo://app?vid=3da29fb8-fc97-44c6-b9ac-31dd456b2fd4"},"vehicle_type_id":"4","last_reported":1751713660,"current_range_meters":0,"station_id":"","pricing_plan_id":"cebpf4jnsgd1na2vs0mg"},{"bike_id":"01861ad8-a8d7-4be6-816e-651927c87584","system_id":"levelo_inurba_marseille","lat":43.33751,"lon":5.37456,"is_reserved":false,"is_disabled":true,"rental_uris":{"android":"levelo://app?vid=01861ad8-a8d7-4be6-816e-651927c87584","ios":"levelo://app?vid=01861ad8-a8d7-4be6-816e-651927c87584"},"vehicle_type_id":"4","last_reported":1751713660,"current_range_meters":0,"station_id":"","pricing_plan_id":"cebpf4jnsgd1na2vs0mg"},{"bike_id":"c8885025-0b30-48c0-846f-ea87c2948681","system_id":"levelo_inurba_marseille","lat":43.301493,"lon":5.377396,"is_reserved":false,"is_disabled":true,"rental_uris":{"android":"levelo://app?vid=c8885025-0b30-48c0-846f-ea87c2948681","ios":"levelo://app?vid=c8885025-0b30-48c0-846f-ea87c2948681"},"vehicle_type_id":"4","last_reported":1751713660,"current_range_meters":0,"station_id":"","pricing_plan_id":"cebpf4jnsgd1na2vs0mg"},{"bike_id":"c9c1daf4-a7c2-403a-9448-2d7f40669937","system_id":"levelo_inurba_marseille","lat":43.31373,"lon":5.38511,"is_reserved":false,"is_disabled":true,"rental_uris":{"android":"levelo://app?vid=c9c1daf4-a7c2-403a-9448-2d7f40669937","ios":"levelo://app?vid=c9c1daf4-a7c2-403a-9448-2d7f40669937"},"vehicle_type_id":"4","last_reported":1751713660,"current_range_meters":0,"station_id":"ce4bgt92rcd13ifvqcf0","pricing_plan_id":"cebpf4jnsgd1na2vs0mg"},{"bike_id":"7b59b02f-d11f-4605-98d5-ae20c43c1982","system_id":"levelo_inurba_marseille","lat":43.241713,"lon":5.364399,"is_reserved":false,"is_disabled":true,"rental_uris":{"android":"levelo://app?vid=7b59b02f-d11f-4605-98d5-ae20c43c1982","ios":"levelo://app?vid=7b59b02f-d11f-4605-98d5-ae20c43c1982"},"vehicle_type_id":"4","last_reported":1751713660,"current_range_meters":0,"station_id":"ce4bhbh2rcd13ifvqeqg","pricing_plan_id":"cebpf4jnsgd1na2vs0mg"},{"bike_id":"fb7eaa34-3090-467a-bc3a-a4c2c7cd510d","system_id":"levelo_inurba_marseille","lat":43.21754,"lon":5.34593,"is_reserved":false,"is_disabled":true,"rental_uris":{"android":"levelo://app?vid=fb7eaa34-3090-467a-bc3a-a4c2c7cd510d","ios":"levelo://app?vid=fb7eaa34-3090-467a-bc3a-a4c2c7cd510d"},"vehicle_type_id":"4","last_reported":1751713660,"current_range_meters":0,"station_id":"st_cvj6r9ubvosntc0bgbag","pricing_plan_id":"cebpf4jnsgd1na2vs0mg"},{"bike_id":"030833f6-f365-4b0a-ab3c-50584a2e4a9a","system_id":"levelo_inurba_marseille","lat":43.31068,"lon":5.38371,"is_reserved":false,"is_disabled":true,"rental_uris":{"android":"levelo://app?vid=030833f6-f365-4b0a-ab3c-50584a2e4a9a","ios":"levelo://app?vid=030833f6-f365-4b0a-ab3c-50584a2e4a9a"},"vehicle_type_id":"4","last_reported":1751713660,"current_range_meters":400,"station_id":"ce4bgv92rcd13ifvqcr0","pricing_plan_id":"cebpf4jnsgd1na2vs0mg"},{"bike_id":"6645ae22-d1d7-42bd-be33-e18b79aa171f","system_id":"levelo_inurba_marseille","lat":43.26572,"lon":5.39008,"is_reserved":false,"is_disabled":true,"rental_uris":{"android":"levelo://app?vid=6645ae22-d1d7-42bd-be33-e18b79aa171f","ios":"levelo://app?vid=6645ae22-d1d7-42bd-be33-e18b79aa171f"},"vehicle_type_id":"4","last_reported":1751713660,"current_range_meters":400,"station_id":"ce4bhe12rcd13ifvqf30","pricing_plan_id":"cebpf4jnsgd1na2vs0mg"},{"bike_id":"837df4cd-55b1-4912-a7b5-e001d84cb2a1","system_id":"levelo_inurba_marseille","lat":43.23968,"lon":5.36631,"is_reserved":false,"is_disabled":true,"rental_uris":{"android":"levelo://app?vid=837df4cd-55b1-4912-a7b5-e001d84cb2a1","ios":"levelo://app?vid=837df4cd-55b1-4912-a7b5-e001d84cb2a1"},"vehicle_type_id":"4","last_reported":1751713660,"current_range_meters":400,"station_id":"ce4bhi12rcd13ifvqfp0","pricing_plan_id":"cebpf4jnsgd1na2vs0mg"},{"bike_id":"478f82af-561c-438e-9486-05633bebd7f2","system_id":"levelo_inurba_marseille","lat":43.29421,"lon":5.38615,"is_reserved":false,"is_disabled":true,"rental_uris":{"android":"levelo://app?vid=478f82af-561c-438e-9486-05633bebd7f2","ios":"levelo://app?vid=478f82af-561c-438e-9486-05633bebd7f2"},"vehicle_type_id":"4","last_reported":1751713660,"current_range_meters":800,"station_id":"ce4bh2h2rcd13ifvqdh0","pricing_plan_id":"cebpf4jnsgd1na2vs0mg"},{"bike_id":"2fbd07fa-3a32-4a5f-b157-79199010b8a7","system_id":"levelo_inurba_marseille","lat":43.248082,"lon":5.374566,"is_reserved":false,"is_disabled":true,"rental_uris":{"android":"levelo://app?vid=2fbd07fa-3a32-4a5f-b157-79199010b8a7","ios":"levelo://app?vid=2fbd07fa-3a32-4a5f-b157-79199010b8a7"},"vehicle_type_id":"4","last_reported":1751713660,"current_range_meters":800,"station_id":"ce4bhgh2rcd13ifvqfb0","pricing_plan_id":"cebpf4jnsgd1na2vs0mg"},{"bike_id":"8afa7640-ebe8-4025-983a-c83f3912a2dd","system_id":"levelo_inurba_marseille","lat":43.211995,"lon":5.350614,"is_reserved":false,"is_disabled":true,"rental_uris":{"android":"levelo://app?vid=8afa7640-ebe8-4025-983a-c83f3912a2dd","ios":"levelo://app?vid=8afa7640-ebe8-4025-983a-c83f3912a2dd"},"vehicle_type_id":"4","last_reported":1751713660,"current_range_meters":800,"station_id":"st_cvj6sg6p6f1abm77japg","pricing_plan_id":"cebpf4jnsgd1na2vs0mg"},{"bike_id":"e3a0cf1a-1549-425e-b19f-7b4be4377ce9","system_id":"levelo_inurba_marseille","lat":43.29631,"lon":5.40592,"is_reserved":false,"is_disabled":true,"rental_uris":{"android":"levelo://app?vid=e3a0cf1a-1549-425e-b19f-7b4be4377ce9","ios":"levelo://app?vid=e3a0cf1a-1549-425e-b19f-7b4be4377ce9"},"vehicle_type_id":"4","last_reported":1751713660,"current_range_meters":1200,"station_id":"ce4bh0h2rcd13ifvqd60","pricing_plan_id":"cebpf4jnsgd1na2vs0mg"},{"bike_id":"2e65c86e-2478-402b-a179-7a81c3e12dad","system_id":"levelo_inurba_marseille","lat":43.260617,"lon":5.394005,"is_reserved":false,"is_disabled":true,"rental_uris":{"android":"levelo://app?vid=2e65c86e-2478-402b-a179-7a81c3e12dad","ios":"levelo://app?vid=2e65c86e-2478-402b-a179-7a81c3e12dad"},"vehicle_type_id":"4","last_reported":1751713660,"current_range_meters":1200,"station_id":"ce4bhh92rcd13ifvqfj0","pricing_plan_id":"cebpf4jnsgd1na2vs0mg"},{"bike_id":"6c328fe2-a342-4229-83e5-dc9f8a442ed7","system_id":"levelo_inurba_marseille","lat":43.29973,"lon":5.38499,"is_reserved":false,"is_disabled":true,"rental_uris":{"android":"levelo://app?vid=6c328fe2-a342-4229-83e5-dc9f8a442ed7","ios":"levelo://app?vid=6c328fe2-a342-4229-83e5-dc9f8a442ed7"},"vehicle_type_id":"4","last_reported":1751713660,"current_range_meters":1600,"station_id":"ce4bgj92rcd13ifvqbd0","pricing_plan_id":"cebpf4jnsgd1na2vs0mg"},{"bike_id":"61f487a2-0639-4423-b78b-a0e76fad7daf","system_id":"levelo_inurba_marseille","lat":43.30891,"lon":5.3966,"is_reserved":false,"is_disabled":true,"rental_uris":{"android":"levelo://app?vid=61f487a2-0639-4423-b78b-a0e76fad7daf","ios":"levelo://app?vid=61f487a2-0639-4423-b78b-a0e76fad7daf"},"vehicle_type_id":"4","last_reported":1751713660,"current_range_meters":1600,"station_id":"ce4bh012rcd13ifvqcv0","pricing_plan_id":"cebpf4jnsgd1na2vs0mg"},{"bike_id":"aef5dba8-dff6-417f-b93a-471c87a4986f","system_id":"levelo_inurba_marseille","lat":43.31265,"lon":5.40182,"is_reserved":false,"is_disabled":true,"rental_uris":{"android":"levelo://app?vid=aef5dba8-dff6-417f-b93a-471c87a4986f","ios":"levelo://app?vid=aef5dba8-dff6-417f-b93a-471c87a4986f"},"vehicle_type_id":"4","last_reported":1751713660,"current_range_meters":1600,"station_id":"ce4bh092rcd13ifvqd30","pricing_plan_id":"cebpf4jnsgd1na2vs0mg"},{"bike_id":"e26ba497-efc7-4420-b8c5-9fa5e27f2ce4","system_id":"levelo_inurba_marseille","lat":43.313685,"lon":5.370616,"is_reserved":false,"is_disabled":true,"rental_uris":{"android":"levelo://app?vid=e26ba497-efc7-4420-b8c5-9fa5e27f2ce4","ios":"levelo://app?vid=e26ba497-efc7-4420-b8c5-9fa5e27f2ce4"},"vehicle_type_id":"4","last_reported":1751713660,"current_range_meters":2000,"station_id":"","pricing_plan_id":"cebpf4jnsgd1na2vs0mg"},{"bike_id":"3b7ffb59-7905-4a25-bba6-70c577a557b8","system_id":"levelo_inurba_marseille","lat":43.26955,"lon":5.386427,"is_reserved":false,"is_disabled":true,"rental_uris":{"android":"levelo://app?vid=3b7ffb59-7905-4a25-bba6-70c577a557b8","ios":"levelo://app?vid=3b7ffb59-7905-4a25-bba6-70c577a557b8"},"vehicle_type_id":"4","last_reported":1751713660,"current_range_meters":2000,"station_id":"ce4bhh92rcd13ifvqfh0","pricing_plan_id":"cebpf4jnsgd1na2vs0mg"},{"bike_id":"51c03f33-5544-40dd-b8f3-eee4d96db32d","system_id":"levelo_inurba_marseille","lat":43.26062,"lon":5.39393,"is_reserved":false,"is_disabled":false,"rental_uris":{"android":"levelo://app?vid=51c03f33-5544-40dd-b8f3-eee4d96db32d","ios":"levelo://app?vid=51c03f33-5544-40dd-b8f3-eee4d96db32d"},"vehicle_type_id":"4","last_reported":1751713660,"current_range_meters":2800,"station_id":"ce4bhh92rcd13ifvqfj0","pricing_plan_id":"cebpf4jnsgd1na2vs0mg"},{"bike_id":"d52317ec-9d8e-4e5d-a5ef-563eb0952a26","system_id":"levelo_inurba_marseille","lat":43.317711,"lon":5.390048,"is_reserved":false,"is_disabled":false,"rental_uris":{"android":"levelo://app?vid=d52317ec-9d8e-4e5d-a5ef-563eb0952a26","ios":"levelo://app?vid=d52317ec-9d8e-4e5d-a5ef-563eb0952a26"},"vehicle_type_id":"4","last_reported":1751713660,"current_range_meters":2800,"station_id":"ce4bhqp2rcd13ifvqhng","pricing_plan_id":"cebpf4jnsgd1na2vs0mg"},{"bike_id":"8e6356fb-f619-4568-904f-b6ce3fa1c178","system_id":"levelo_inurba_marseille","lat":43.30536,"lon":5.36723,"is_reserved":false,"is_disabled":false,"rental_uris":{"android":"levelo://app?vid=8e6356fb-f619-4568-904f-b6ce3fa1c178","ios":"levelo://app?vid=8e6356fb-f619-4568-904f-b6ce3fa1c178"},"vehicle_type_id":"4","last_reported":1751713660,"current_range_meters":3200,"station_id":"ce4bgrp2rcd13ifvqc9g","pricing_plan_id":"cebpf4jnsgd1na2vs0mg"},{"bike_id":"9bfc7d3d-4e60-4f8a-9c32-ef3d0e77ec5b","system_id":"levelo_inurba_marseille","lat":43.21193,"lon":5.35073,"is_reserved":false,"is_disabled":false,"rental_uris":{"android":"levelo://app?vid=9bfc7d3d-4e60-4f8a-9c32-ef3d0e77ec5b","ios":"levelo://app?vid=9bfc7d3d-4e60-4f8a-9c32-ef3d0e77ec5b"},"vehicle_type_id":"4","last_reported":1751713660,"current_range_meters":3200,"station_id":"st_cvj6sg6p6f1abm77japg","pricing_plan_id":"cebpf4jnsgd1na2vs0mg"},{"bike_id":"e6e3ebe5-5d8f-437c-8f99-f6bd243ac5b2","system_id":"levelo_inurba_marseille","lat":43.30482,"lon":5.36998,"is_reserved":false,"is_disabled":false,"rental_uris":{"android":"levelo://app?vid=e6e3ebe5-5d8f-437c-8f99-f6bd243ac5b2","ios":"levelo://app?vid=e6e3ebe5-5d8f-437c-8f99-f6bd243ac5b2"},"vehicle_type_id":"4","last_reported":1751713660,"current_range_meters":3600,"station_id":"","pricing_plan_id":"cebpf4jnsgd1na2vs0mg"},{"bike_id":"a3254185-0252-4bd0-b39d-205b94ce7177","system_id":"levelo_inurba_marseille","lat":43.312327,"lon":5.368457,"is_reserved":false,"is_disabled":false,"rental_uris":{"android":"levelo://app?vid=a3254185-0252-4bd0-b39d-205b94ce7177","ios":"levelo://app?vid=a3254185-0252-4bd0-b39d-205b94ce7177"},"vehicle_type_id":"4","last_reported":1751713660,"current_range_meters":3600,"station_id":"ce4bgl92rcd13ifvqbq0","pricing_plan_id":"cebpf4jnsgd1na2vs0mg"},{"bike_id":"d2b08d76-b5a6-46b5-b7aa-b484ca9f9be5","system_id":"levelo_inurba_marseille","lat":43.28666,"lon":5.3635,"is_reserved":false,"is_disabled":false,"rental_uris":{"android":"levelo://app?vid=d2b08d76-b5a6-46b5-b7aa-b484ca9f9be5","ios":"levelo://app?vid=d2b08d76-b5a6-46b5-b7aa-b484ca9f9be5"},"vehicle_type_id":"4","last_reported":1751713660,"current_range_meters":3600,"station_id":"ce4bhah2rcd13ifvqej0","pricing_plan_id":"cebpf4jnsgd1na2vs0mg"},{"bike_id":"ef70d7c6-404e-4d8e-b607-a888194d6292","system_id":"levelo_inurba_marseille","lat":43.27322,"lon":5.39084,"is_reserved":false,"is_disabled":false,"rental_uris":{"android":"levelo://app?vid=ef70d7c6-404e-4d8e-b607-a888194d6292","ios":"levelo://app?vid=ef70d7c6-404e-4d8e-b607-a888194d6292"},"vehicle_type_id":"4","last_reported":1751713660,"current_range_meters":3600,"station_id":"ce4bhgp2rcd13ifvqfe0","pricing_plan_id":"cebpf4jnsgd1na2vs0mg"},{"bike_id":"33a7516a-7da6-4d99-97bb-14e06afc8700","system_id":"levelo_inurba_marseille","lat":43.22936,"lon":5.35374,"is_reserved":false,"is_disabled":false,"rental_uris":{"android":"levelo://app?vid=33a7516a-7da6-4d99-97bb-14e06afc8700","ios":"levelo://app?vid=33a7516a-7da6-4d99-97bb-14e06afc8700"},"vehicle_type_id":"4","last_reported":1751713660,"current_range_meters":3600,"station_id":"cpo3532slgdg3j2ikp40","pricing_plan_id":"cebpf4jnsgd1na2vs0mg"},{"bike_id":"80335fc8-36c8-4c76-b240-2c0da993dff0","system_id":"levelo_inurba_marseille","lat":43.31731,"lon":5.40471,"is_reserved":false,"is_disabled":false,"rental_uris":{"android":"levelo://app?vid=80335fc8-36c8-4c76-b240-2c0da993dff0","ios":"levelo://app?vid=80335fc8-36c8-4c76-b240-2c0da993dff0"},"vehicle_type_id":"4","last_reported":1751713660,"current_range_meters":4000,"station_id":"","pricing_plan_id":"cebpf4jnsgd1na2vs0mg"},{"bike_id":"be4e2ba2-f83c-4be6-923a-932d435bb5ce","system_id":"levelo_inurba_marseille","lat":43.28221,"lon":5.40465,"is_reserved":false,"is_disabled":false,"rental_uris":{"android":"levelo://app?vid=be4e2ba2-f83c-4be6-923a-932d435bb5ce","ios":"levelo://app?vid=be4e2ba2-f83c-4be6-923a-932d435bb5ce"},"vehicle_type_id":"4","last_reported":1751713660,"current_range_meters":4000,"station_id":"","pricing_plan_id":"cebpf4jnsgd1na2vs0mg"},{"bike_id":"93e647b9-b87c-4cd3-8a02-1f1567981330","system_id":"levelo_inurba_marseille","lat":43.29269,"lon":5.38444,"is_reserved":false,"is_disabled":false,"rental_uris":{"android":"levelo://app?vid=93e647b9-b87c-4cd3-8a02-1f1567981330","ios":"levelo://app?vid=93e647b9-b87c-4cd3-8a02-1f1567981330"},"vehicle_type_id":"4","last_reported":1751713660,"current_range_meters":4000,"station_id":"ce4bh692rcd13ifvqea0","pricing_plan_id":"cebpf4jnsgd1na2vs0mg"},{"bike_id":"d8b11894-e250-443c-8dc3-3e69b5b85474","system_id":"levelo_inurba_marseille","lat":43.275299,"lon":5.38452,"is_reserved":false,"is_disabled":false,"rental_uris":{"android":"levelo://app?vid=d8b11894-e250-443c-8dc3-3e69b5b85474","ios":"levelo://app?vid=d8b11894-e250-443c-8dc3-3e69b5b85474"},"vehicle_type_id":"4","last_reported":1751713660,"current_range_meters":4000,"station_id":"ce4bhh92rcd13ifvqfh0","pricing_plan_id":"cebpf4jnsgd1na2vs0mg"},{"bike_id":"6c2a6d04-4b0d-45c2-99de-4707245db9b8","system_id":"levelo_inurba_marseille","lat":43.31904,"lon":5.40756,"is_reserved":false,"is_disabled":false,"rental_uris":{"android":"levelo://app?vid=6c2a6d04-4b0d-45c2-99de-4707245db9b8","ios":"levelo://app?vid=6c2a6d04-4b0d-45c2-99de-4707245db9b8"},"vehicle_type_id":"4","last_reported":1751713660,"current_range_meters":4400,"station_id":"ce4bhq12rcd13ifvqhig","pricing_plan_id":"cebpf4jnsgd1na2vs0mg"},{"bike_id":"7d607989-d17b-41c9-b0f5-2af101a3a05d","system_id":"levelo_inurba_marseille","lat":43.30152,"lon":5.3808,"is_reserved":false,"is_disabled":false,"rental_uris":{"android":"levelo://app?vid=7d607989-d17b-41c9-b0f5-2af101a3a05d","ios":"levelo://app?vid=7d607989-d17b-41c9-b0f5-2af101a3a05d"},"vehicle_type_id":"4","last_reported":1751713660,"current_range_meters":4800,"station_id":"ce4bgjp2rcd13ifvqbh0","pricing_plan_id":"cebpf4jnsgd1na2vs0mg"},{"bike_id":"f6ac2ca1-a3ac-4f58-b1a1-b74be8a76990","system_id":"levelo_inurba_marseille","lat":43.298953,"lon":5.436405,"is_reserved":false,"is_disabled":false,"rental_uris":{"android":"levelo://app?vid=f6ac2ca1-a3ac-4f58-b1a1-b74be8a76990","ios":"levelo://app?vid=f6ac2ca1-a3ac-4f58-b1a1-b74be8a76990"},"vehicle_type_id":"4","last_reported":1751713660,"current_range_meters":4800,"station_id":"ce4bhpp2rcd13ifvqhfg","pricing_plan_id":"cebpf4jnsgd1na2vs0mg"},{"bike_id":"770d2dab-3c14-4579-aae2-96a05fd23271","system_id":"levelo_inurba_marseille","lat":43.30315,"lon":5.36905,"is_reserved":false,"is_disabled":false,"rental_uris":{"android":"levelo://app?vid=770d2dab-3c14-4579-aae2-96a05fd23271","ios":"levelo://app?vid=770d2dab-3c14-4579-aae2-96a05fd23271"},"vehicle_type_id":"4","last_reported":1751713660,"current_range_meters":5600,"station_id":"ce4bgqh2rcd13ifvqc5g","pricing_plan_id":"cebpf4jnsgd1na2vs0mg"},{"bike_id":"0aff9451-dd88-4f23-97af-4c3b1d0cba80","system_id":"levelo_inurba_marseille","lat":43.26197,"lon":5.37445,"is_reserved":false,"is_disabled":false,"rental_uris":{"android":"levelo://app?vid=0aff9451-dd88-4f23-97af-4c3b1d0cba80","ios":"levelo://app?vid=0aff9451-dd88-4f23-97af-4c3b1d0cba80"},"vehicle_type_id":"4","last_reported":1751713660,"current_range_meters":5600,"station_id":"ce4bhgp2rcd13ifvqfc0","pricing_plan_id":"cebpf4jnsgd1na2vs0mg"},{"bike_id":"4f424b5e-efc8-4a41-8592-3ccb81c888d3","system_id":"levelo_inurba_marseille","lat":43.23198,"lon":5.35552,"is_reserved":false,"is_disabled":false,"rental_uris":{"android":"levelo://app?vid=4f424b5e-efc8-4a41-8592-3ccb81c888d3","ios":"levelo://app?vid=4f424b5e-efc8-4a41-8592-3ccb81c888d3"},"vehicle_type_id":"4","last_reported":1751713660,"current_range_meters":5600,"station_id":"ce4bhu92rcd13ifvqi70","pricing_plan_id":"cebpf4jnsgd1na2vs0mg"},{"bike_id":"d799b321-3a7d-4201-b46e-ffe2ad124f19","system_id":"levelo_inurba_marseille","lat":43.32906,"lon":5.383919,"is_reserved":false,"is_disabled":false,"rental_uris":{"android":"levelo://app?vid=d799b321-3a7d-4201-b46e-ffe2ad124f19","ios":"levelo://app?vid=d799b321-3a7d-4201-b46e-ffe2ad124f19"},"vehicle_type_id":"4","last_reported":1751713660,"current_range_meters":6000,"station_id":"","pricing_plan_id":"cebpf4jnsgd1na2vs0mg"},{"bike_id":"6a19e2ea-d827-47d5-86ab-aa8c98c544b1","system_id":"levelo_inurba_marseille","lat":43.29896,"lon":5.389,"is_reserved":false,"is_disabled":false,"rental_uris":{"android":"levelo://app?vid=6a19e2ea-d827-47d5-86ab-aa8c98c544b1","ios":"levelo://app?vid=6a19e2ea-d827-47d5-86ab-aa8c98c544b1"},"vehicle_type_id":"4","last_reported":1751713660,"current_range_meters":6000,"station_id":"ce4bh392rcd13ifvqdl0","pricing_plan_id":"cebpf4jnsgd1na2vs0mg"},{"bike_id":"5f8e5eb3-04d3-411e-a94b-c4257968a6e4","system_id":"levelo_inurba_marseille","lat":43.25867,"lon":5.39892,"is_reserved":false,"is_disabled":false,"rental_uris":{"android":"levelo://app?vid=5f8e5eb3-04d3-411e-a94b-c4257968a6e4","ios":"levelo://app?vid=5f8e5eb3-04d3-411e-a94b-c4257968a6e4"},"vehicle_type_id":"4","last_reported":1751713660,"current_range_meters":6000,"station_id":"ce4bhl92rcd13ifvqghg","pricing_plan_id":"cebpf4jnsgd1na2vs0mg"},{"bike_id":"149c88ef-b75d-4a6b-b819-11821adadb7b","system_id":"levelo_inurba_marseille","lat":43.24388,"lon":5.37073,"is_reserved":false,"is_disabled":false,"rental_uris":{"android":"levelo://app?vid=149c88ef-b75d-4a6b-b819-11821adadb7b","ios":"levelo://app?vid=149c88ef-b75d-4a6b-b819-11821adadb7b"},"vehicle_type_id":"4","last_reported":1751713660,"current_range_meters":6400,"station_id":"ce4bhhh2rcd13ifvqfk0","pricing_plan_id":"cebpf4jnsgd1na2vs0mg"},{"bike_id":"e3822c24-4fb4-45b7-8cd2-6e1079eeff65","system_id":"levelo_inurba_marseille","lat":43.31107,"lon":5.424266,"is_reserved":false,"is_disabled":false,"rental_uris":{"android":"levelo://app?vid=e3822c24-4fb4-45b7-8cd2-6e1079eeff65","ios":"levelo://app?vid=e3822c24-4fb4-45b7-8cd2-6e1079eeff65"},"vehicle_type_id":"4","last_reported":1751713660,"current_range_meters":6400,"station_id":"ce4bhp92rcd13ifvqhag","pricing_plan_id":"cebpf4jnsgd1na2vs0mg"},{"bike_id":"ee10ad97-6926-4d7d-99c2-3ba58e764081","system_id":"levelo_inurba_marseille","lat":43.27615,"lon":5.36112,"is_reserved":false,"is_disabled":false,"rental_uris":{"android":"levelo://app?vid=ee10ad97-6926-4d7d-99c2-3ba58e764081","ios":"levelo://app?vid=ee10ad97-6926-4d7d-99c2-3ba58e764081"},"vehicle_type_id":"4","last_reported":1751713660,"current_range_meters":6800,"station_id":"ce4bgj92rcd13ifvqbe0","pricing_plan_id":"cebpf4jnsgd1na2vs0mg"},{"bike_id":"ed5e1723-9f1b-44c4-9c56-176da58f98c0","system_id":"levelo_inurba_marseille","lat":43.31264,"lon":5.40183,"is_reserved":false,"is_disabled":false,"rental_uris":{"android":"levelo://app?vid=ed5e1723-9f1b-44c4-9c56-176da58f98c0","ios":"levelo://app?vid=ed5e1723-9f1b-44c4-9c56-176da58f98c0"},"vehicle_type_id":"4","last_reported":1751713660,"current_range_meters":6800,"station_id":"ce4bh092rcd13ifvqd30","pricing_plan_id":"cebpf4jnsgd1na2vs0mg"},{"bike_id":"abecd695-2d0f-4188-bc09-716232afc658","system_id":"levelo_inurba_marseille","lat":43.29269,"lon":5.4013,"is_reserved":false,"is_disabled":false,"rental_uris":{"android":"levelo://app?vid=abecd695-2d0f-4188-bc09-716232afc658","ios":"levelo://app?vid=abecd695-2d0f-4188-bc09-716232afc658"},"vehicle_type_id":"4","last_reported":1751713660,"current_range_meters":6800,"station_id":"ce4bh312rcd13ifvqdk0","pricing_plan_id":"cebpf4jnsgd1na2vs0mg"},{"bike_id":"ba154a12-11bd-42a5-958a-5992f5d043d1","system_id":"levelo_inurba_marseille","lat":43.30456,"lon":5.37026,"is_reserved":false,"is_disabled":false,"rental_uris":{"android":"levelo://app?vid=ba154a12-11bd-42a5-958a-5992f5d043d1","ios":"levelo://app?vid=ba154a12-11bd-42a5-958a-5992f5d043d1"},"vehicle_type_id":"4","last_reported":1751713660,"current_range_meters":7200,"station_id":"","pricing_plan_id":"cebpf4jnsgd1na2vs0mg"},{"bike_id":"dbde0d81-068a-4fa4-a92a-5f5e4289de54","system_id":"levelo_inurba_marseille","lat":43.28424,"lon":5.34985,"is_reserved":false,"is_disabled":false,"rental_uris":{"android":"levelo://app?vid=dbde0d81-068a-4fa4-a92a-5f5e4289de54","ios":"levelo://app?vid=dbde0d81-068a-4fa4-a92a-5f5e4289de54"},"vehicle_type_id":"4","last_reported":1751713660,"current_range_meters":7200,"station_id":"","pricing_plan_id":"cebpf4jnsgd1na2vs0mg"},{"bike_id":"0da28be7-6429-4fa6-9c63-647a2a04ef06","system_id":"levelo_inurba_marseille","lat":43.21747,"lon":5.34603,"is_reserved":false,"is_disabled":false,"rental_uris":{"android":"levelo://app?vid=0da28be7-6429-4fa6-9c63-647a2a04ef06","ios":"levelo://app?vid=0da28be7-6429-4fa6-9c63-647a2a04ef06"},"vehicle_type_id":"4","last_reported":1751713660,"current_range_meters":7200,"station_id":"","pricing_plan_id":"cebpf4jnsgd1na2vs0mg"},{"bike_id":"44a4767d-4e15-48e5-8ad1-ec31529d0bb0","system_id":"levelo_inurba_marseille","lat":43.28982,"lon":5.37826,"is_reserved":false,"is_disabled":false,"rental_uris":{"android":"levelo://app?vid=44a4767d-4e15-48e5-8ad1-ec31529d0bb0","ios":"levelo://app?vid=44a4767d-4e15-48e5-8ad1-ec31529d0bb0"},"vehicle_type_id":"4","last_reported":1751713660,"current_range_meters":7200,"station_id":"ce4bh9p2rcd13ifvqed0","pricing_plan_id":"cebpf4jnsgd1na2vs0mg"},{"bike_id":"8a64c433-7d2d-4a51-9503-60f47d187827","system_id":"levelo_inurba_marseille","lat":43.2657,"lon":5.39006,"is_reserved":false,"is_disabled":false,"rental_uris":{"android":"levelo://app?vid=8a64c433-7d2d-4a51-9503-60f47d187827","ios":"levelo://app?vid=8a64c433-7d2d-4a51-9503-60f47d187827"},"vehicle_type_id":"4","last_reported":1751713660,"current_range_meters":7200,"station_id":"ce4bhe12rcd13ifvqf30","pricing_plan_id":"cebpf4jnsgd1na2vs0mg"},{"bike_id":"c9c2ea77-50c1-4a87-8bb2-cd76bc73be7e","system_id":"levelo_inurba_marseille","lat":43.25505,"lon":5.37641,"is_reserved":false,"is_disabled":false,"rental_uris":{"android":"levelo://app?vid=c9c2ea77-50c1-4a87-8bb2-cd76bc73be7e","ios":"levelo://app?vid=c9c2ea77-50c1-4a87-8bb2-cd76bc73be7e"},"vehicle_type_id":"4","last_reported":1751713660,"current_range_meters":7200,"station_id":"ce4bhh12rcd13ifvqff0","pricing_plan_id":"cebpf4jnsgd1na2vs0mg"},{"bike_id":"a57434b9-cc81-4f0b-ba91-1feeb211115e","system_id":"levelo_inurba_marseille","lat":43.3052,"lon":5.36642,"is_reserved":false,"is_disabled":false,"rental_uris":{"android":"levelo://app?vid=a57434b9-cc81-4f0b-ba91-1feeb211115e","ios":"levelo://app?vid=a57434b9-cc81-4f0b-ba91-1feeb211115e"},"vehicle_type_id":"4","last_reported":1751713660,"current_range_meters":8000,"station_id":"","pricing_plan_id":"cebpf4jnsgd1na2vs0mg"},{"bike_id":"0c4b7fdb-b39e-49b3-a2b0-ae3d0f43e89d","system_id":"levelo_inurba_marseille","lat":43.329107,"lon":5.406117,"is_reserved":false,"is_disabled":false,"rental_uris":{"android":"levelo://app?vid=0c4b7fdb-b39e-49b3-a2b0-ae3d0f43e89d","ios":"levelo://app?vid=0c4b7fdb-b39e-49b3-a2b0-ae3d0f43e89d"},"vehicle_type_id":"4","last_reported":1751713660,"current_range_meters":8000,"station_id":"","pricing_plan_id":"cebpf4jnsgd1na2vs0mg"},{"bike_id":"0bf8a78c-6fb1-4444-a111-9cc6eb5aaedc","system_id":"levelo_inurba_marseille","lat":43.29632,"lon":5.40595,"is_reserved":false,"is_disabled":false,"rental_uris":{"android":"levelo://app?vid=0bf8a78c-6fb1-4444-a111-9cc6eb5aaedc","ios":"levelo://app?vid=0bf8a78c-6fb1-4444-a111-9cc6eb5aaedc"},"vehicle_type_id":"4","last_reported":1751713660,"current_range_meters":8000,"station_id":"ce4bh0h2rcd13ifvqd60","pricing_plan_id":"cebpf4jnsgd1na2vs0mg"},{"bike_id":"e9f93152-c103-42e7-8290-70a0dd64d0c1","system_id":"levelo_inurba_marseille","lat":43.24818,"lon":5.37458,"is_reserved":false,"is_disabled":false,"rental_uris":{"android":"levelo://app?vid=e9f93152-c103-42e7-8290-70a0dd64d0c1","ios":"levelo://app?vid=e9f93152-c103-42e7-8290-70a0dd64d0c1"},"vehicle_type_id":"4","last_reported":1751713660,"current_range_meters":8000,"station_id":"ce4bhgh2rcd13ifvqfb0","pricing_plan_id":"cebpf4jnsgd1na2vs0mg"},{"bike_id":"2ffeba7a-8316-4052-8019-91454da58cbe","system_id":"levelo_inurba_marseille","lat":43.269878,"lon":5.420115,"is_reserved":false,"is_disabled":false,"rental_uris":{"android":"levelo://app?vid=2ffeba7a-8316-4052-8019-91454da58cbe","ios":"levelo://app?vid=2ffeba7a-8316-4052-8019-91454da58cbe"},"vehicle_type_id":"4","last_reported":1751713660,"current_range_meters":8400,"station_id":"","pricing_plan_id":"cebpf4jnsgd1na2vs0mg"},{"bike_id":"571abec9-12fe-4261-907b-5b08f5260cfb","system_id":"levelo_inurba_marseille","lat":43.231534,"lon":5.437097,"is_reserved":false,"is_disabled":false,"rental_uris":{"android":"levelo://app?vid=571abec9-12fe-4261-907b-5b08f5260cfb","ios":"levelo://app?vid=571abec9-12fe-4261-907b-5b08f5260cfb"},"vehicle_type_id":"4","last_reported":1751713660,"current_range_meters":8400,"station_id":"ce4bhmp2rcd13ifvqgog","pricing_plan_id":"cebpf4jnsgd1na2vs0mg"},{"bike_id":"6917bed5-c21f-48c3-870d-5408dab99803","system_id":"levelo_inurba_marseille","lat":43.296894,"lon":5.368857,"is_reserved":false,"is_disabled":false,"rental_uris":{"android":"levelo://app?vid=6917bed5-c21f-48c3-870d-5408dab99803","ios":"levelo://app?vid=6917bed5-c21f-48c3-870d-5408dab99803"},"vehicle_type_id":"4","last_reported":1751713660,"current_range_meters":8800,"station_id":"","pricing_plan_id":"cebpf4jnsgd1na2vs0mg"},{"bike_id":"b2af4a6c-cc23-4b08-804e-761ba133a3ff","system_id":"levelo_inurba_marseille","lat":43.303414,"lon":5.364977,"is_reserved":false,"is_disabled":false,"rental_uris":{"android":"levelo://app?vid=b2af4a6c-cc23-4b08-804e-761ba133a3ff","ios":"levelo://app?vid=b2af4a6c-cc23-4b08-804e-761ba133a3ff"},"vehicle_type_id":"4","last_reported":1751713660,"current_range_meters":8800,"station_id":"ce4bgn92rcd13ifvqbvg","pricing_plan_id":"cebpf4jnsgd1na2vs0mg"},{"bike_id":"03b7f533-e5ef-456e-92f8-de79b4a06395","system_id":"levelo_inurba_marseille","lat":43.314958,"lon":5.37308,"is_reserved":false,"is_disabled":false,"rental_uris":{"android":"levelo://app?vid=03b7f533-e5ef-456e-92f8-de79b4a06395","ios":"levelo://app?vid=03b7f533-e5ef-456e-92f8-de79b4a06395"},"vehicle_type_id":"4","last_reported":1751713660,"current_range_meters":8800,"station_id":"ce4bgt12rcd13ifvqcd0","pricing_plan_id":"cebpf4jnsgd1na2vs0mg"},{"bike_id":"95e15d95-cd84-41c1-9d82-5eeba565aaeb","system_id":"levelo_inurba_marseille","lat":43.304626,"lon":5.366333,"is_reserved":false,"is_disabled":false,"rental_uris":{"android":"levelo://app?vid=95e15d95-cd84-41c1-9d82-5eeba565aaeb","ios":"levelo://app?vid=95e15d95-cd84-41c1-9d82-5eeba565aaeb"},"vehicle_type_id":"4","last_reported":1751713660,"current_range_meters":9200,"station_id":"ce4bgrp2rcd13ifvqc9g","pricing_plan_id":"cebpf4jnsgd1na2vs0mg"},{"bike_id":"86769240-560e-4712-98b8-f5ab99c28d93","system_id":"levelo_inurba_marseille","lat":43.284191,"lon":5.349733,"is_reserved":false,"is_disabled":false,"rental_uris":{"android":"levelo://app?vid=86769240-560e-4712-98b8-f5ab99c28d93","ios":"levelo://app?vid=86769240-560e-4712-98b8-f5ab99c28d93"},"vehicle_type_id":"4","last_reported":1751713660,"current_range_meters":9200,"station_id":"ce4bhch2rcd13ifvqeug","pricing_plan_id":"cebpf4jnsgd1na2vs0mg"},{"bike_id":"1c8ab180-05fd-405f-9922-b2b2c2d5142f","system_id":"levelo_inurba_marseille","lat":43.33809,"lon":5.38099,"is_reserved":false,"is_disabled":false,"rental_uris":{"android":"levelo://app?vid=1c8ab180-05fd-405f-9922-b2b2c2d5142f","ios":"levelo://app?vid=1c8ab180-05fd-405f-9922-b2b2c2d5142f"},"vehicle_type_id":"4","last_reported":1751713660,"current_range_meters":10000,"station_id":"","pricing_plan_id":"cebpf4jnsgd1na2vs0mg"},{"bike_id":"6b0a1fd8-d9c6-42b7-8aee-05d9231cf95a","system_id":"levelo_inurba_marseille","lat":43.29172,"lon":5.40169,"is_reserved":false,"is_disabled":false,"rental_uris":{"android":"levelo://app?vid=6b0a1fd8-d9c6-42b7-8aee-05d9231cf95a","ios":"levelo://app?vid=6b0a1fd8-d9c6-42b7-8aee-05d9231cf95a"},"vehicle_type_id":"4","last_reported":1751713660,"current_range_meters":10000,"station_id":"","pricing_plan_id":"cebpf4jnsgd1na2vs0mg"},{"bike_id":"96b05bea-c75f-4f69-92c0-5319f2c84401","system_id":"levelo_inurba_marseille","lat":43.23196,"lon":5.35552,"is_reserved":false,"is_disabled":false,"rental_uris":{"android":"levelo://app?vid=96b05bea-c75f-4f69-92c0-5319f2c84401","ios":"levelo://app?vid=96b05bea-c75f-4f69-92c0-5319f2c84401"},"vehicle_type_id":"4","last_reported":1751713660,"current_range_meters":10000,"station_id":"ce4bhu92rcd13ifvqi70","pricing_plan_id":"cebpf4jnsgd1na2vs0mg"},{"bike_id":"76d127a6-3385-47a2-9e3a-490d1d976c59","system_id":"levelo_inurba_marseille","lat":43.31182,"lon":5.38317,"is_reserved":false,"is_disabled":false,"rental_uris":{"android":"levelo://app?vid=76d127a6-3385-47a2-9e3a-490d1d976c59","ios":"levelo://app?vid=76d127a6-3385-47a2-9e3a-490d1d976c59"},"vehicle_type_id":"4","last_reported":1751713660,"current_range_meters":10800,"station_id":"","pricing_plan_id":"cebpf4jnsgd1na2vs0mg"},{"bike_id":"b26fae72-751e-4090-a9c4-76ff5de1ad66","system_id":"levelo_inurba_marseille","lat":43.332534,"lon":5.380408,"is_reserved":false,"is_disabled":false,"rental_uris":{"android":"levelo://app?vid=b26fae72-751e-4090-a9c4-76ff5de1ad66","ios":"levelo://app?vid=b26fae72-751e-4090-a9c4-76ff5de1ad66"},"vehicle_type_id":"4","last_reported":1751713660,"current_range_meters":10800,"station_id":"","pricing_plan_id":"cebpf4jnsgd1na2vs0mg"},{"bike_id":"0f4aa110-58f6-4ad5-9501-652797bd9665","system_id":"levelo_inurba_marseille","lat":43.29559,"lon":5.37523,"is_reserved":false,"is_disabled":false,"rental_uris":{"android":"levelo://app?vid=0f4aa110-58f6-4ad5-9501-652797bd9665","ios":"levelo://app?vid=0f4aa110-58f6-4ad5-9501-652797bd9665"},"vehicle_type_id":"4","last_reported":1751713660,"current_range_meters":10800,"station_id":"ce4bgh92rcd13ifvqb50","pricing_plan_id":"cebpf4jnsgd1na2vs0mg"},{"bike_id":"f48c3046-9fef-49c7-912c-05c8f0636e72","system_id":"levelo_inurba_marseille","lat":43.31065,"lon":5.3835,"is_reserved":false,"is_disabled":false,"rental_uris":{"android":"levelo://app?vid=f48c3046-9fef-49c7-912c-05c8f0636e72","ios":"levelo://app?vid=f48c3046-9fef-49c7-912c-05c8f0636e72"},"vehicle_type_id":"4","last_reported":1751713660,"current_range_meters":10800,"station_id":"ce4bgv92rcd13ifvqcr0","pricing_plan_id":"cebpf4jnsgd1na2vs0mg"},{"bike_id":"28a93013-239d-4aad-b74f-1edc51452a44","system_id":"levelo_inurba_marseille","lat":43.246597,"lon":5.381491,"is_reserved":false,"is_disabled":false,"rental_uris":{"android":"levelo://app?vid=28a93013-239d-4aad-b74f-1edc51452a44","ios":"levelo://app?vid=28a93013-239d-4aad-b74f-1edc51452a44"},"vehicle_type_id":"4","last_reported":1751713660,"current_range_meters":10800,"station_id":"ce4bhh12rcd13ifvqff0","pricing_plan_id":"cebpf4jnsgd1na2vs0mg"},{"bike_id":"5e034fd1-54f7-4f49-8381-1f2bc4e3f5d9","system_id":"levelo_inurba_marseille","lat":43.25829,"lon":5.39434,"is_reserved":false,"is_disabled":false,"rental_uris":{"android":"levelo://app?vid=5e034fd1-54f7-4f49-8381-1f2bc4e3f5d9","ios":"levelo://app?vid=5e034fd1-54f7-4f49-8381-1f2bc4e3f5d9"},"vehicle_type_id":"4","last_reported":1751713660,"current_range_meters":10800,"station_id":"ce4bhip2rcd13ifvqft0","pricing_plan_id":"cebpf4jnsgd1na2vs0mg"},{"bike_id":"8e29c565-7854-4b64-8875-839c074fd3fb","system_id":"levelo_inurba_marseille","lat":43.34143,"lon":5.4091,"is_reserved":false,"is_disabled":false,"rental_uris":{"android":"levelo://app?vid=8e29c565-7854-4b64-8875-839c074fd3fb","ios":"levelo://app?vid=8e29c565-7854-4b64-8875-839c074fd3fb"},"vehicle_type_id":"4","last_reported":1751713660,"current_range_meters":10800,"station_id":"ce4bhqh2rcd13ifvqhlg","pricing_plan_id":"cebpf4jnsgd1na2vs0mg"},{"bike_id":"0b528480-d98f-4305-b1b9-d966d45d9050","system_id":"levelo_inurba_marseille","lat":43.2119,"lon":5.35074,"is_reserved":false,"is_disabled":false,"rental_uris":{"android":"levelo://app?vid=0b528480-d98f-4305-b1b9-d966d45d9050","ios":"levelo://app?vid=0b528480-d98f-4305-b1b9-d966d45d9050"},"vehicle_type_id":"4","last_reported":1751713660,"current_range_meters":10800,"station_id":"st_cvj6sg6p6f1abm77japg","pricing_plan_id":"cebpf4jnsgd1na2vs0mg"},{"bike_id":"4b8da722-ee9e-48a4-a5e5-3a8a10364708","system_id":"levelo_inurba_marseille","lat":43.31229,"lon":5.37812,"is_reserved":false,"is_disabled":false,"rental_uris":{"android":"levelo://app?vid=4b8da722-ee9e-48a4-a5e5-3a8a10364708","ios":"levelo://app?vid=4b8da722-ee9e-48a4-a5e5-3a8a10364708"},"vehicle_type_id":"4","last_reported":1751713660,"current_range_meters":11200,"station_id":"","pricing_plan_id":"cebpf4jnsgd1na2vs0mg"},{"bike_id":"69c2280d-9883-47db-99f2-c073a6babae6","system_id":"levelo_inurba_marseille","lat":43.30855,"lon":5.37039,"is_reserved":false,"is_disabled":false,"rental_uris":{"android":"levelo://app?vid=69c2280d-9883-47db-99f2-c073a6babae6","ios":"levelo://app?vid=69c2280d-9883-47db-99f2-c073a6babae6"},"vehicle_type_id":"4","last_reported":1751713660,"current_range_meters":11200,"station_id":"","pricing_plan_id":"cebpf4jnsgd1na2vs0mg"},{"bike_id":"f1eadc7a-7edf-4dac-94f8-ad879d8139eb","system_id":"levelo_inurba_marseille","lat":43.28618,"lon":5.35106,"is_reserved":false,"is_disabled":false,"rental_uris":{"android":"levelo://app?vid=f1eadc7a-7edf-4dac-94f8-ad879d8139eb","ios":"levelo://app?vid=f1eadc7a-7edf-4dac-94f8-ad879d8139eb"},"vehicle_type_id":"4","last_reported":1751713660,"current_range_meters":11200,"station_id":"ce4bhch2rcd13ifvqeug","pricing_plan_id":"cebpf4jnsgd1na2vs0mg"},{"bike_id":"bb4c7eb1-769d-4646-8fe9-453ae26dc31a","system_id":"levelo_inurba_marseille","lat":43.264016,"lon":5.392254,"is_reserved":false,"is_disabled":false,"rental_uris":{"android":"levelo://app?vid=bb4c7eb1-769d-4646-8fe9-453ae26dc31a","ios":"levelo://app?vid=bb4c7eb1-769d-4646-8fe9-453ae26dc31a"},"vehicle_type_id":"4","last_reported":1751713660,"current_range_meters":11200,"station_id":"ce4bhh92rcd13ifvqfj0","pricing_plan_id":"cebpf4jnsgd1na2vs0mg"},{"bike_id":"f5de7370-6b3b-4819-a8fd-1546035ea2e5","system_id":"levelo_inurba_marseille","lat":43.29816,"lon":5.40414,"is_reserved":false,"is_disabled":false,"rental_uris":{"android":"levelo://app?vid=f5de7370-6b3b-4819-a8fd-1546035ea2e5","ios":"levelo://app?vid=f5de7370-6b3b-4819-a8fd-1546035ea2e5"},"vehicle_type_id":"4","last_reported":1751713660,"current_range_meters":11600,"station_id":"ce4bh112rcd13ifvqd90","pricing_plan_id":"cebpf4jnsgd1na2vs0mg"},{"bike_id":"73d35947-e3ad-4f31-9a46-172901553826","system_id":"levelo_inurba_marseille","lat":43.27426,"lon":5.39417,"is_reserved":false,"is_disabled":false,"rental_uris":{"android":"levelo://app?vid=73d35947-e3ad-4f31-9a46-172901553826","ios":"levelo://app?vid=73d35947-e3ad-4f31-9a46-172901553826"},"vehicle_type_id":"4","last_reported":1751713660,"current_range_meters":11600,"station_id":"ce4bhdp2rcd13ifvqf20","pricing_plan_id":"cebpf4jnsgd1na2vs0mg"},{"bike_id":"f6b09216-3f78-4c6d-ad55-f19b248d42c9","system_id":"levelo_inurba_marseille","lat":43.24409,"lon":5.37054,"is_reserved":false,"is_disabled":false,"rental_uris":{"android":"levelo://app?vid=f6b09216-3f78-4c6d-ad55-f19b248d42c9","ios":"levelo://app?vid=f6b09216-3f78-4c6d-ad55-f19b248d42c9"},"vehicle_type_id":"4","last_reported":1751713660,"current_range_meters":11600,"station_id":"ce4bhhh2rcd13ifvqfk0","pricing_plan_id":"cebpf4jnsgd1na2vs0mg"},{"bike_id":"8540eae3-ead3-4b83-ba8b-6b7654e615e1","system_id":"levelo_inurba_marseille","lat":43.28154,"lon":5.42652,"is_reserved":false,"is_disabled":false,"rental_uris":{"android":"levelo://app?vid=8540eae3-ead3-4b83-ba8b-6b7654e615e1","ios":"levelo://app?vid=8540eae3-ead3-4b83-ba8b-6b7654e615e1"},"vehicle_type_id":"4","last_reported":1751713660,"current_range_meters":11600,"station_id":"ce4bhnh2rcd13ifvqgug","pricing_plan_id":"cebpf4jnsgd1na2vs0mg"},{"bike_id":"4db45513-e520-4598-82fa-5809d80d4f3d","system_id":"levelo_inurba_marseille","lat":43.28102,"lon":5.35479,"is_reserved":false,"is_disabled":false,"rental_uris":{"android":"levelo://app?vid=4db45513-e520-4598-82fa-5809d80d4f3d","ios":"levelo://app?vid=4db45513-e520-4598-82fa-5809d80d4f3d"},"vehicle_type_id":"4","last_reported":1751713660,"current_range_meters":12000,"station_id":"","pricing_plan_id":"cebpf4jnsgd1na2vs0mg"},{"bike_id":"3da7a7a2-9364-4916-b617-f643e3f7d37c","system_id":"levelo_inurba_marseille","lat":43.30147,"lon":5.38089,"is_reserved":false,"is_disabled":false,"rental_uris":{"android":"levelo://app?vid=3da7a7a2-9364-4916-b617-f643e3f7d37c","ios":"levelo://app?vid=3da7a7a2-9364-4916-b617-f643e3f7d37c"},"vehicle_type_id":"4","last_reported":1751713660,"current_range_meters":12000,"station_id":"ce4bgjp2rcd13ifvqbh0","pricing_plan_id":"cebpf4jnsgd1na2vs0mg"},{"bike_id":"8c7b5457-b790-4ceb-8535-d321af702702","system_id":"levelo_inurba_marseille","lat":43.312742,"lon":5.40166,"is_reserved":false,"is_disabled":false,"rental_uris":{"android":"levelo://app?vid=8c7b5457-b790-4ceb-8535-d321af702702","ios":"levelo://app?vid=8c7b5457-b790-4ceb-8535-d321af702702"},"vehicle_type_id":"4","last_reported":1751713660,"current_range_meters":12000,"station_id":"ce4bh092rcd13ifvqd30","pricing_plan_id":"cebpf4jnsgd1na2vs0mg"},{"bike_id":"ef086af5-e34f-4e4b-b345-7e3a952273cd","system_id":"levelo_inurba_marseille","lat":43.23147,"lon":5.43723,"is_reserved":false,"is_disabled":false,"rental_uris":{"android":"levelo://app?vid=ef086af5-e34f-4e4b-b345-7e3a952273cd","ios":"levelo://app?vid=ef086af5-e34f-4e4b-b345-7e3a952273cd"},"vehicle_type_id":"4","last_reported":1751713660,"current_range_meters":12000,"station_id":"ce4bhmp2rcd13ifvqgog","pricing_plan_id":"cebpf4jnsgd1na2vs0mg"},{"bike_id":"04edf994-7a6f-42bd-bdb9-6db229bd33ae","system_id":"levelo_inurba_marseille","lat":43.295584,"lon":5.422796,"is_reserved":false,"is_disabled":false,"rental_uris":{"android":"levelo://app?vid=04edf994-7a6f-42bd-bdb9-6db229bd33ae","ios":"levelo://app?vid=04edf994-7a6f-42bd-bdb9-6db229bd33ae"},"vehicle_type_id":"4","last_reported":1751713660,"current_range_meters":12000,"station_id":"ce4bhph2rcd13ifvqhdg","pricing_plan_id":"cebpf4jnsgd1na2vs0mg"},{"bike_id":"250429e0-9ab2-49c8-b8df-89f96f0e274c","system_id":"levelo_inurba_marseille","lat":43.30294,"lon":5.39212,"is_reserved":false,"is_disabled":false,"rental_uris":{"android":"levelo://app?vid=250429e0-9ab2-49c8-b8df-89f96f0e274c","ios":"levelo://app?vid=250429e0-9ab2-49c8-b8df-89f96f0e274c"},"vehicle_type_id":"4","last_reported":1751713660,"current_range_meters":12400,"station_id":"ce4bgkh2rcd13ifvqbk0","pricing_plan_id":"cebpf4jnsgd1na2vs0mg"},{"bike_id":"aa471eeb-b47d-4e10-8329-db75e207ca54","system_id":"levelo_inurba_marseille","lat":43.24666,"lon":5.38166,"is_reserved":false,"is_disabled":false,"rental_uris":{"android":"levelo://app?vid=aa471eeb-b47d-4e10-8329-db75e207ca54","ios":"levelo://app?vid=aa471eeb-b47d-4e10-8329-db75e207ca54"},"vehicle_type_id":"4","last_reported":1751713660,"current_range_meters":12400,"station_id":"ce4bhih2rcd13ifvqfr0","pricing_plan_id":"cebpf4jnsgd1na2vs0mg"},{"bike_id":"0dab2d99-4317-474b-9229-0840318e94bb","system_id":"levelo_inurba_marseille","lat":43.25824,"lon":5.39432,"is_reserved":false,"is_disabled":false,"rental_uris":{"android":"levelo://app?vid=0dab2d99-4317-474b-9229-0840318e94bb","ios":"levelo://app?vid=0dab2d99-4317-474b-9229-0840318e94bb"},"vehicle_type_id":"4","last_reported":1751713660,"current_range_meters":12400,"station_id":"ce4bhip2rcd13ifvqft0","pricing_plan_id":"cebpf4jnsgd1na2vs0mg"},{"bike_id":"ae16f5e0-7344-47e5-bfdf-f837fbd0da34","system_id":"levelo_inurba_marseille","lat":43.3249,"lon":5.36595,"is_reserved":false,"is_disabled":false,"rental_uris":{"android":"levelo://app?vid=ae16f5e0-7344-47e5-bfdf-f837fbd0da34","ios":"levelo://app?vid=ae16f5e0-7344-47e5-bfdf-f837fbd0da34"},"vehicle_type_id":"4","last_reported":1751713660,"current_range_meters":12400,"station_id":"ce4bhs12rcd13ifvqhvg","pricing_plan_id":"cebpf4jnsgd1na2vs0mg"},{"bike_id":"a439a6b9-4d17-4e7a-bc9f-fc9182ca0a5f","system_id":"levelo_inurba_marseille","lat":43.29687,"lon":5.37291,"is_reserved":false,"is_disabled":false,"rental_uris":{"android":"levelo://app?vid=a439a6b9-4d17-4e7a-bc9f-fc9182ca0a5f","ios":"levelo://app?vid=a439a6b9-4d17-4e7a-bc9f-fc9182ca0a5f"},"vehicle_type_id":"4","last_reported":1751713660,"current_range_meters":12800,"station_id":"ce4bgk12rcd13ifvqbj0","pricing_plan_id":"cebpf4jnsgd1na2vs0mg"},{"bike_id":"165515b0-8fe5-4d5a-a587-ce5bb4b5c283","system_id":"levelo_inurba_marseille","lat":43.31489,"lon":5.37308,"is_reserved":false,"is_disabled":false,"rental_uris":{"android":"levelo://app?vid=165515b0-8fe5-4d5a-a587-ce5bb4b5c283","ios":"levelo://app?vid=165515b0-8fe5-4d5a-a587-ce5bb4b5c283"},"vehicle_type_id":"4","last_reported":1751713660,"current_range_meters":12800,"station_id":"ce4bgt12rcd13ifvqcd0","pricing_plan_id":"cebpf4jnsgd1na2vs0mg"},{"bike_id":"5c5bcca8-ce1b-4fb2-ade6-e9b96c84bdd4","system_id":"levelo_inurba_marseille","lat":43.23187,"lon":5.39987,"is_reserved":false,"is_disabled":false,"rental_uris":{"android":"levelo://app?vid=5c5bcca8-ce1b-4fb2-ade6-e9b96c84bdd4","ios":"levelo://app?vid=5c5bcca8-ce1b-4fb2-ade6-e9b96c84bdd4"},"vehicle_type_id":"4","last_reported":1751713660,"current_range_meters":12800,"station_id":"ce4bhn12rcd13ifvqgqg","pricing_plan_id":"cebpf4jnsgd1na2vs0mg"},{"bike_id":"29b19e99-4845-4ee3-b1ee-35721cd36dc7","system_id":"levelo_inurba_marseille","lat":43.23198,"lon":5.355427,"is_reserved":false,"is_disabled":false,"rental_uris":{"android":"levelo://app?vid=29b19e99-4845-4ee3-b1ee-35721cd36dc7","ios":"levelo://app?vid=29b19e99-4845-4ee3-b1ee-35721cd36dc7"},"vehicle_type_id":"4","last_reported":1751713660,"current_range_meters":12800,"station_id":"ce4bhu92rcd13ifvqi70","pricing_plan_id":"cebpf4jnsgd1na2vs0mg"},{"bike_id":"672fc69a-31c0-4b40-a532-4a811d670207","system_id":"levelo_inurba_marseille","lat":43.21195,"lon":5.35092,"is_reserved":false,"is_disabled":false,"rental_uris":{"android":"levelo://app?vid=672fc69a-31c0-4b40-a532-4a811d670207","ios":"levelo://app?vid=672fc69a-31c0-4b40-a532-4a811d670207"},"vehicle_type_id":"4","last_reported":1751713660,"current_range_meters":12800,"station_id":"st_cvj6sg6p6f1abm77japg","pricing_plan_id":"cebpf4jnsgd1na2vs0mg"},{"bike_id":"1f7df1cb-8d2c-4552-985d-5305370d5dc3","system_id":"levelo_inurba_marseille","lat":43.289457,"lon":5.364043,"is_reserved":false,"is_disabled":false,"rental_uris":{"android":"levelo://app?vid=1f7df1cb-8d2c-4552-985d-5305370d5dc3","ios":"levelo://app?vid=1f7df1cb-8d2c-4552-985d-5305370d5dc3"},"vehicle_type_id":"4","last_reported":1751713660,"current_range_meters":13600,"station_id":"ce4bhc92rcd13ifvqetg","pricing_plan_id":"cebpf4jnsgd1na2vs0mg"},{"bike_id":"c9e016dd-7469-4469-83d4-aae2144382da","system_id":"levelo_inurba_marseille","lat":43.26549,"lon":5.37304,"is_reserved":false,"is_disabled":false,"rental_uris":{"android":"levelo://app?vid=c9e016dd-7469-4469-83d4-aae2144382da","ios":"levelo://app?vid=c9e016dd-7469-4469-83d4-aae2144382da"},"vehicle_type_id":"4","last_reported":1751713660,"current_range_meters":13600,"station_id":"ce4bhg12rcd13ifvqf70","pricing_plan_id":"cebpf4jnsgd1na2vs0mg"},{"bike_id":"53fadc11-0ba5-463b-9387-5620e0568761","system_id":"levelo_inurba_marseille","lat":43.26224,"lon":5.37442,"is_reserved":false,"is_disabled":false,"rental_uris":{"android":"levelo://app?vid=53fadc11-0ba5-463b-9387-5620e0568761","ios":"levelo://app?vid=53fadc11-0ba5-463b-9387-5620e0568761"},"vehicle_type_id":"4","last_reported":1751713660,"current_range_meters":13600,"station_id":"ce4bhgp2rcd13ifvqfc0","pricing_plan_id":"cebpf4jnsgd1na2vs0mg"},{"bike_id":"25d65b54-2483-49ad-9e8c-b4102ded682f","system_id":"levelo_inurba_marseille","lat":43.211949,"lon":5.350719,"is_reserved":false,"is_disabled":false,"rental_uris":{"android":"levelo://app?vid=25d65b54-2483-49ad-9e8c-b4102ded682f","ios":"levelo://app?vid=25d65b54-2483-49ad-9e8c-b4102ded682f"},"vehicle_type_id":"4","last_reported":1751713660,"current_range_meters":13600,"station_id":"st_cvj6sg6p6f1abm77japg","pricing_plan_id":"cebpf4jnsgd1na2vs0mg"},{"bike_id":"36e2d749-e1c3-435d-bc6d-ca63ed32bfe8","system_id":"levelo_inurba_marseille","lat":43.29301,"lon":5.37463,"is_reserved":false,"is_disabled":false,"rental_uris":{"android":"levelo://app?vid=36e2d749-e1c3-435d-bc6d-ca63ed32bfe8","ios":"levelo://app?vid=36e2d749-e1c3-435d-bc6d-ca63ed32bfe8"},"vehicle_type_id":"4","last_reported":1751713660,"current_range_meters":14000,"station_id":"ce4bgi12rcd13ifvqb70","pricing_plan_id":"cebpf4jnsgd1na2vs0mg"},{"bike_id":"02e49158-7e33-4ff2-aace-c7da50a8e403","system_id":"levelo_inurba_marseille","lat":43.30158,"lon":5.38084,"is_reserved":false,"is_disabled":false,"rental_uris":{"android":"levelo://app?vid=02e49158-7e33-4ff2-aace-c7da50a8e403","ios":"levelo://app?vid=02e49158-7e33-4ff2-aace-c7da50a8e403"},"vehicle_type_id":"4","last_reported":1751713660,"current_range_meters":14000,"station_id":"ce4bgjp2rcd13ifvqbh0","pricing_plan_id":"cebpf4jnsgd1na2vs0mg"},{"bike_id":"1a664519-f0a0-4535-a859-050f1da859f2","system_id":"levelo_inurba_marseille","lat":43.30535,"lon":5.36711,"is_reserved":false,"is_disabled":false,"rental_uris":{"android":"levelo://app?vid=1a664519-f0a0-4535-a859-050f1da859f2","ios":"levelo://app?vid=1a664519-f0a0-4535-a859-050f1da859f2"},"vehicle_type_id":"4","last_reported":1751713660,"current_range_meters":14000,"station_id":"ce4bgrp2rcd13ifvqc9g","pricing_plan_id":"cebpf4jnsgd1na2vs0mg"},{"bike_id":"3913ad23-cf89-4f24-8bec-6574be33c73e","system_id":"levelo_inurba_marseille","lat":43.312717,"lon":5.401777,"is_reserved":false,"is_disabled":false,"rental_uris":{"android":"levelo://app?vid=3913ad23-cf89-4f24-8bec-6574be33c73e","ios":"levelo://app?vid=3913ad23-cf89-4f24-8bec-6574be33c73e"},"vehicle_type_id":"4","last_reported":1751713660,"current_range_meters":14000,"station_id":"ce4bh092rcd13ifvqd30","pricing_plan_id":"cebpf4jnsgd1na2vs0mg"},{"bike_id":"5e811c86-824d-4978-918d-a61aa3a543ea","system_id":"levelo_inurba_marseille","lat":43.30421,"lon":5.41292,"is_reserved":false,"is_disabled":false,"rental_uris":{"android":"levelo://app?vid=5e811c86-824d-4978-918d-a61aa3a543ea","ios":"levelo://app?vid=5e811c86-824d-4978-918d-a61aa3a543ea"},"vehicle_type_id":"4","last_reported":1751713660,"current_range_meters":14000,"station_id":"ce4bhop2rcd13ifvqh8g","pricing_plan_id":"cebpf4jnsgd1na2vs0mg"},{"bike_id":"daeee1e5-3b93-44da-8e47-7b24df6d544e","system_id":"levelo_inurba_marseille","lat":43.300028,"lon":5.373639,"is_reserved":false,"is_disabled":false,"rental_uris":{"android":"levelo://app?vid=daeee1e5-3b93-44da-8e47-7b24df6d544e","ios":"levelo://app?vid=daeee1e5-3b93-44da-8e47-7b24df6d544e"},"vehicle_type_id":"4","last_reported":1751713660,"current_range_meters":14400,"station_id":"","pricing_plan_id":"cebpf4jnsgd1na2vs0mg"},{"bike_id":"f8f0898a-ee56-4ab4-82e9-b9e552d09e2f","system_id":"levelo_inurba_marseille","lat":43.30149,"lon":5.380825,"is_reserved":false,"is_disabled":false,"rental_uris":{"android":"levelo://app?vid=f8f0898a-ee56-4ab4-82e9-b9e552d09e2f","ios":"levelo://app?vid=f8f0898a-ee56-4ab4-82e9-b9e552d09e2f"},"vehicle_type_id":"4","last_reported":1751713660,"current_range_meters":14400,"station_id":"ce4bgjp2rcd13ifvqbh0","pricing_plan_id":"cebpf4jnsgd1na2vs0mg"},{"bike_id":"1c2f10bb-b624-4465-ab6a-fb47349e5a39","system_id":"levelo_inurba_marseille","lat":43.29628,"lon":5.40597,"is_reserved":false,"is_disabled":false,"rental_uris":{"android":"levelo://app?vid=1c2f10bb-b624-4465-ab6a-fb47349e5a39","ios":"levelo://app?vid=1c2f10bb-b624-4465-ab6a-fb47349e5a39"},"vehicle_type_id":"4","last_reported":1751713660,"current_range_meters":14400,"station_id":"ce4bh0h2rcd13ifvqd60","pricing_plan_id":"cebpf4jnsgd1na2vs0mg"},{"bike_id":"3ddbba30-83fc-4406-8b51-decfffba50fc","system_id":"levelo_inurba_marseille","lat":43.2573,"lon":5.41104,"is_reserved":false,"is_disabled":false,"rental_uris":{"android":"levelo://app?vid=3ddbba30-83fc-4406-8b51-decfffba50fc","ios":"levelo://app?vid=3ddbba30-83fc-4406-8b51-decfffba50fc"},"vehicle_type_id":"4","last_reported":1751713660,"current_range_meters":14400,"station_id":"ce4bhkp2rcd13ifvqgd0","pricing_plan_id":"cebpf4jnsgd1na2vs0mg"},{"bike_id":"78ab5302-e875-419f-bc40-15894c294024","system_id":"levelo_inurba_marseille","lat":43.31992,"lon":5.38161,"is_reserved":false,"is_disabled":false,"rental_uris":{"android":"levelo://app?vid=78ab5302-e875-419f-bc40-15894c294024","ios":"levelo://app?vid=78ab5302-e875-419f-bc40-15894c294024"},"vehicle_type_id":"4","last_reported":1751713660,"current_range_meters":14400,"station_id":"ce4bhr12rcd13ifvqhpg","pricing_plan_id":"cebpf4jnsgd1na2vs0mg"},{"bike_id":"c5b91b0a-5fc4-4165-b464-20e1a4c673fb","system_id":"levelo_inurba_marseille","lat":43.32371,"lon":5.36764,"is_reserved":false,"is_disabled":false,"rental_uris":{"android":"levelo://app?vid=c5b91b0a-5fc4-4165-b464-20e1a4c673fb","ios":"levelo://app?vid=c5b91b0a-5fc4-4165-b464-20e1a4c673fb"},"vehicle_type_id":"4","last_reported":1751713660,"current_range_meters":14400,"station_id":"ce4bhsh2rcd13ifvqi2g","pricing_plan_id":"cebpf4jnsgd1na2vs0mg"},{"bike_id":"89c4c171-fa34-44ee-8818-b4f1de745083","system_id":"levelo_inurba_marseille","lat":43.23194,"lon":5.355471,"is_reserved":false,"is_disabled":false,"rental_uris":{"android":"levelo://app?vid=89c4c171-fa34-44ee-8818-b4f1de745083","ios":"levelo://app?vid=89c4c171-fa34-44ee-8818-b4f1de745083"},"vehicle_type_id":"4","last_reported":1751713660,"current_range_meters":14400,"station_id":"ce4bhu92rcd13ifvqi70","pricing_plan_id":"cebpf4jnsgd1na2vs0mg"},{"bike_id":"0e5d9ab4-af8f-4fed-bdd4-2e6b146587b0","system_id":"levelo_inurba_marseille","lat":43.29851,"lon":5.36285,"is_reserved":false,"is_disabled":false,"rental_uris":{"android":"levelo://app?vid=0e5d9ab4-af8f-4fed-bdd4-2e6b146587b0","ios":"levelo://app?vid=0e5d9ab4-af8f-4fed-bdd4-2e6b146587b0"},"vehicle_type_id":"4","last_reported":1751713660,"current_range_meters":14800,"station_id":"ce4bgpp2rcd13ifvqc3g","pricing_plan_id":"cebpf4jnsgd1na2vs0mg"},{"bike_id":"61112d70-31be-4914-9970-1d2e6dbfaafb","system_id":"levelo_inurba_marseille","lat":43.30791,"lon":5.37641,"is_reserved":false,"is_disabled":false,"rental_uris":{"android":"levelo://app?vid=61112d70-31be-4914-9970-1d2e6dbfaafb","ios":"levelo://app?vid=61112d70-31be-4914-9970-1d2e6dbfaafb"},"vehicle_type_id":"4","last_reported":1751713660,"current_range_meters":14800,"station_id":"ce4bgv92rcd13ifvqcq0","pricing_plan_id":"cebpf4jnsgd1na2vs0mg"},{"bike_id":"43b433cf-6050-4ea7-8ddd-7b98c73b8e4a","system_id":"levelo_inurba_marseille","lat":43.23159,"lon":5.43715,"is_reserved":false,"is_disabled":false,"rental_uris":{"android":"levelo://app?vid=43b433cf-6050-4ea7-8ddd-7b98c73b8e4a","ios":"levelo://app?vid=43b433cf-6050-4ea7-8ddd-7b98c73b8e4a"},"vehicle_type_id":"4","last_reported":1751713660,"current_range_meters":14800,"station_id":"ce4bhmp2rcd13ifvqgog","pricing_plan_id":"cebpf4jnsgd1na2vs0mg"},{"bike_id":"85e59ae2-b351-4789-8c40-11e04c4e6808","system_id":"levelo_inurba_marseille","lat":43.23217,"lon":5.35561,"is_reserved":false,"is_disabled":false,"rental_uris":{"android":"levelo://app?vid=85e59ae2-b351-4789-8c40-11e04c4e6808","ios":"levelo://app?vid=85e59ae2-b351-4789-8c40-11e04c4e6808"},"vehicle_type_id":"4","last_reported":1751713660,"current_range_meters":14800,"station_id":"ce4bhu92rcd13ifvqi70","pricing_plan_id":"cebpf4jnsgd1na2vs0mg"},{"bike_id":"b1d40197-e49c-4962-8cd8-0babe05d31a6","system_id":"levelo_inurba_marseille","lat":43.21276,"lon":5.35304,"is_reserved":false,"is_disabled":false,"rental_uris":{"android":"levelo://app?vid=b1d40197-e49c-4962-8cd8-0babe05d31a6","ios":"levelo://app?vid=b1d40197-e49c-4962-8cd8-0babe05d31a6"},"vehicle_type_id":"4","last_reported":1751713660,"current_range_meters":15200,"station_id":"","pricing_plan_id":"cebpf4jnsgd1na2vs0mg"},{"bike_id":"a1037a73-ffef-4389-a5d2-145a8a14a5fd","system_id":"levelo_inurba_marseille","lat":43.30143,"lon":5.38083,"is_reserved":false,"is_disabled":false,"rental_uris":{"android":"levelo://app?vid=a1037a73-ffef-4389-a5d2-145a8a14a5fd","ios":"levelo://app?vid=a1037a73-ffef-4389-a5d2-145a8a14a5fd"},"vehicle_type_id":"4","last_reported":1751713660,"current_range_meters":15200,"station_id":"ce4bgjp2rcd13ifvqbh0","pricing_plan_id":"cebpf4jnsgd1na2vs0mg"},{"bike_id":"54fb8806-be47-4898-ba0f-a0e409e8873d","system_id":"levelo_inurba_marseille","lat":43.29713,"lon":5.36618,"is_reserved":false,"is_disabled":false,"rental_uris":{"android":"levelo://app?vid=54fb8806-be47-4898-ba0f-a0e409e8873d","ios":"levelo://app?vid=54fb8806-be47-4898-ba0f-a0e409e8873d"},"vehicle_type_id":"4","last_reported":1751713660,"current_range_meters":15200,"station_id":"ce4bgn12rcd13ifvqbt0","pricing_plan_id":"cebpf4jnsgd1na2vs0mg"},{"bike_id":"85080208-5a96-4cad-acb1-d768af0f84c7","system_id":"levelo_inurba_marseille","lat":43.28938,"lon":5.36628,"is_reserved":false,"is_disabled":false,"rental_uris":{"android":"levelo://app?vid=85080208-5a96-4cad-acb1-d768af0f84c7","ios":"levelo://app?vid=85080208-5a96-4cad-acb1-d768af0f84c7"},"vehicle_type_id":"4","last_reported":1751713660,"current_range_meters":15200,"station_id":"ce4bhap2rcd13ifvqek0","pricing_plan_id":"cebpf4jnsgd1na2vs0mg"},{"bike_id":"d008f2d7-a6e8-4370-83cd-46244114c79c","system_id":"levelo_inurba_marseille","lat":43.23196,"lon":5.35553,"is_reserved":false,"is_disabled":false,"rental_uris":{"android":"levelo://app?vid=d008f2d7-a6e8-4370-83cd-46244114c79c","ios":"levelo://app?vid=d008f2d7-a6e8-4370-83cd-46244114c79c"},"vehicle_type_id":"4","last_reported":1751713660,"current_range_meters":15200,"station_id":"ce4bhu92rcd13ifvqi70","pricing_plan_id":"cebpf4jnsgd1na2vs0mg"},{"bike_id":"adf1d38d-1f03-40cf-9b57-0a8f15f62b2d","system_id":"levelo_inurba_marseille","lat":43.33029,"lon":5.36388,"is_reserved":false,"is_disabled":false,"rental_uris":{"android":"levelo://app?vid=adf1d38d-1f03-40cf-9b57-0a8f15f62b2d","ios":"levelo://app?vid=adf1d38d-1f03-40cf-9b57-0a8f15f62b2d"},"vehicle_type_id":"4","last_reported":1751713660,"current_range_meters":16000,"station_id":"","pricing_plan_id":"cebpf4jnsgd1na2vs0mg"},{"bike_id":"176e1302-1c51-4c2f-a08e-70b23b3764a2","system_id":"levelo_inurba_marseille","lat":43.2952,"lon":5.37512,"is_reserved":false,"is_disabled":false,"rental_uris":{"android":"levelo://app?vid=176e1302-1c51-4c2f-a08e-70b23b3764a2","ios":"levelo://app?vid=176e1302-1c51-4c2f-a08e-70b23b3764a2"},"vehicle_type_id":"4","last_reported":1751713660,"current_range_meters":16000,"station_id":"ce4bgkp2rcd13ifvqbmg","pricing_plan_id":"cebpf4jnsgd1na2vs0mg"},{"bike_id":"a4c1af88-de92-4f7b-b72d-dbd5b00c248e","system_id":"levelo_inurba_marseille","lat":43.24811,"lon":5.37457,"is_reserved":false,"is_disabled":false,"rental_uris":{"android":"levelo://app?vid=a4c1af88-de92-4f7b-b72d-dbd5b00c248e","ios":"levelo://app?vid=a4c1af88-de92-4f7b-b72d-dbd5b00c248e"},"vehicle_type_id":"4","last_reported":1751713660,"current_range_meters":16000,"station_id":"ce4bhgh2rcd13ifvqfb0","pricing_plan_id":"cebpf4jnsgd1na2vs0mg"},{"bike_id":"31c9d267-14ee-4ad6-b6e1-0b2576b46e5c","system_id":"levelo_inurba_marseille","lat":43.27312,"lon":5.3907,"is_reserved":false,"is_disabled":false,"rental_uris":{"android":"levelo://app?vid=31c9d267-14ee-4ad6-b6e1-0b2576b46e5c","ios":"levelo://app?vid=31c9d267-14ee-4ad6-b6e1-0b2576b46e5c"},"vehicle_type_id":"4","last_reported":1751713660,"current_range_meters":16000,"station_id":"ce4bhgp2rcd13ifvqfe0","pricing_plan_id":"cebpf4jnsgd1na2vs0mg"},{"bike_id":"fcbb47f0-480f-4647-b620-44d3e4ef9dc8","system_id":"levelo_inurba_marseille","lat":43.25495,"lon":5.37655,"is_reserved":false,"is_disabled":false,"rental_uris":{"android":"levelo://app?vid=fcbb47f0-480f-4647-b620-44d3e4ef9dc8","ios":"levelo://app?vid=fcbb47f0-480f-4647-b620-44d3e4ef9dc8"},"vehicle_type_id":"4","last_reported":1751713660,"current_range_meters":16000,"station_id":"ce4bhh12rcd13ifvqff0","pricing_plan_id":"cebpf4jnsgd1na2vs0mg"},{"bike_id":"c3fae141-3322-46bb-976b-c85803ceeb5f","system_id":"levelo_inurba_marseille","lat":43.295575,"lon":5.422758,"is_reserved":false,"is_disabled":false,"rental_uris":{"android":"levelo://app?vid=c3fae141-3322-46bb-976b-c85803ceeb5f","ios":"levelo://app?vid=c3fae141-3322-46bb-976b-c85803ceeb5f"},"vehicle_type_id":"4","last_reported":1751713660,"current_range_meters":16000,"station_id":"ce4bhph2rcd13ifvqhdg","pricing_plan_id":"cebpf4jnsgd1na2vs0mg"},{"bike_id":"2715f82c-34cb-48c3-9a4a-0d5b9a830ae7","system_id":"levelo_inurba_marseille","lat":43.21753,"lon":5.34604,"is_reserved":false,"is_disabled":false,"rental_uris":{"android":"levelo://app?vid=2715f82c-34cb-48c3-9a4a-0d5b9a830ae7","ios":"levelo://app?vid=2715f82c-34cb-48c3-9a4a-0d5b9a830ae7"},"vehicle_type_id":"4","last_reported":1751713660,"current_range_meters":16000,"station_id":"st_cvj6r9ubvosntc0bgbag","pricing_plan_id":"cebpf4jnsgd1na2vs0mg"},{"bike_id":"8501c7f1-4540-433a-9226-9677bd87b71a","system_id":"levelo_inurba_marseille","lat":43.21193,"lon":5.350779,"is_reserved":false,"is_disabled":false,"rental_uris":{"android":"levelo://app?vid=8501c7f1-4540-433a-9226-9677bd87b71a","ios":"levelo://app?vid=8501c7f1-4540-433a-9226-9677bd87b71a"},"vehicle_type_id":"4","last_reported":1751713660,"current_range_meters":16000,"station_id":"st_cvj6sg6p6f1abm77japg","pricing_plan_id":"cebpf4jnsgd1na2vs0mg"},{"bike_id":"134a6fd1-cb8b-4ade-a0c2-0b22bf7dca76","system_id":"levelo_inurba_marseille","lat":43.211911,"lon":5.35073,"is_reserved":false,"is_disabled":false,"rental_uris":{"android":"levelo://app?vid=134a6fd1-cb8b-4ade-a0c2-0b22bf7dca76","ios":"levelo://app?vid=134a6fd1-cb8b-4ade-a0c2-0b22bf7dca76"},"vehicle_type_id":"4","last_reported":1751713660,"current_range_meters":16000,"station_id":"st_cvj6sg6p6f1abm77japg","pricing_plan_id":"cebpf4jnsgd1na2vs0mg"},{"bike_id":"fe8ee84c-fdfc-40aa-a1c2-6e36409c0740","system_id":"levelo_inurba_marseille","lat":43.268231,"lon":5.390479,"is_reserved":false,"is_disabled":false,"rental_uris":{"android":"levelo://app?vid=fe8ee84c-fdfc-40aa-a1c2-6e36409c0740","ios":"levelo://app?vid=fe8ee84c-fdfc-40aa-a1c2-6e36409c0740"},"vehicle_type_id":"4","last_reported":1751713660,"current_range_meters":16400,"station_id":"","pricing_plan_id":"cebpf4jnsgd1na2vs0mg"},{"bike_id":"cca681f4-cce5-4fb7-9918-cb13c2d9cbe6","system_id":"levelo_inurba_marseille","lat":43.2573,"lon":5.41107,"is_reserved":false,"is_disabled":false,"rental_uris":{"android":"levelo://app?vid=cca681f4-cce5-4fb7-9918-cb13c2d9cbe6","ios":"levelo://app?vid=cca681f4-cce5-4fb7-9918-cb13c2d9cbe6"},"vehicle_type_id":"4","last_reported":1751713660,"current_range_meters":16400,"station_id":"","pricing_plan_id":"cebpf4jnsgd1na2vs0mg"},{"bike_id":"ebae9af6-499f-45b8-a110-9e88f4e7e2cb","system_id":"levelo_inurba_marseille","lat":43.29716,"lon":5.37692,"is_reserved":false,"is_disabled":false,"rental_uris":{"android":"levelo://app?vid=ebae9af6-499f-45b8-a110-9e88f4e7e2cb","ios":"levelo://app?vid=ebae9af6-499f-45b8-a110-9e88f4e7e2cb"},"vehicle_type_id":"4","last_reported":1751713660,"current_range_meters":16400,"station_id":"ce4bgkh2rcd13ifvqbl0","pricing_plan_id":"cebpf4jnsgd1na2vs0mg"},{"bike_id":"ac00ee2e-1fa0-4325-8eb9-7b1590729e7b","system_id":"levelo_inurba_marseille","lat":43.30259,"lon":5.40064,"is_reserved":false,"is_disabled":false,"rental_uris":{"android":"levelo://app?vid=ac00ee2e-1fa0-4325-8eb9-7b1590729e7b","ios":"levelo://app?vid=ac00ee2e-1fa0-4325-8eb9-7b1590729e7b"},"vehicle_type_id":"4","last_reported":1751713660,"current_range_meters":16400,"station_id":"ce4bgvh2rcd13ifvqcs0","pricing_plan_id":"cebpf4jnsgd1na2vs0mg"},{"bike_id":"6a136699-4dfb-4c73-b4ce-11ef92c9e282","system_id":"levelo_inurba_marseille","lat":43.26572,"lon":5.38993,"is_reserved":false,"is_disabled":false,"rental_uris":{"android":"levelo://app?vid=6a136699-4dfb-4c73-b4ce-11ef92c9e282","ios":"levelo://app?vid=6a136699-4dfb-4c73-b4ce-11ef92c9e282"},"vehicle_type_id":"4","last_reported":1751713660,"current_range_meters":16400,"station_id":"ce4bhe12rcd13ifvqf30","pricing_plan_id":"cebpf4jnsgd1na2vs0mg"},{"bike_id":"c8382ce0-0fe6-4f20-8953-b535ef227a20","system_id":"levelo_inurba_marseille","lat":43.27314,"lon":5.39125,"is_reserved":false,"is_disabled":false,"rental_uris":{"android":"levelo://app?vid=c8382ce0-0fe6-4f20-8953-b535ef227a20","ios":"levelo://app?vid=c8382ce0-0fe6-4f20-8953-b535ef227a20"},"vehicle_type_id":"4","last_reported":1751713660,"current_range_meters":16400,"station_id":"ce4bhgp2rcd13ifvqfe0","pricing_plan_id":"cebpf4jnsgd1na2vs0mg"},{"bike_id":"af366e0c-809f-4ded-8974-a209854fda87","system_id":"levelo_inurba_marseille","lat":43.30418,"lon":5.41286,"is_reserved":false,"is_disabled":false,"rental_uris":{"android":"levelo://app?vid=af366e0c-809f-4ded-8974-a209854fda87","ios":"levelo://app?vid=af366e0c-809f-4ded-8974-a209854fda87"},"vehicle_type_id":"4","last_reported":1751713660,"current_range_meters":16400,"station_id":"ce4bhop2rcd13ifvqh8g","pricing_plan_id":"cebpf4jnsgd1na2vs0mg"},{"bike_id":"e9f184b7-4c52-47df-adfb-be4fdc9c8ed3","system_id":"levelo_inurba_marseille","lat":43.23194,"lon":5.35564,"is_reserved":false,"is_disabled":false,"rental_uris":{"android":"levelo://app?vid=e9f184b7-4c52-47df-adfb-be4fdc9c8ed3","ios":"levelo://app?vid=e9f184b7-4c52-47df-adfb-be4fdc9c8ed3"},"vehicle_type_id":"4","last_reported":1751713660,"current_range_meters":16400,"station_id":"ce4bhu92rcd13ifvqi70","pricing_plan_id":"cebpf4jnsgd1na2vs0mg"},{"bike_id":"07ba84a8-f478-421c-96ed-6c0402ece04f","system_id":"levelo_inurba_marseille","lat":43.2294,"lon":5.353897,"is_reserved":false,"is_disabled":false,"rental_uris":{"android":"levelo://app?vid=07ba84a8-f478-421c-96ed-6c0402ece04f","ios":"levelo://app?vid=07ba84a8-f478-421c-96ed-6c0402ece04f"},"vehicle_type_id":"4","last_reported":1751713660,"current_range_meters":16400,"station_id":"cpo3532slgdg3j2ikp40","pricing_plan_id":"cebpf4jnsgd1na2vs0mg"},{"bike_id":"a6fe0581-5daf-4b07-9e14-c0bfec26b1cd","system_id":"levelo_inurba_marseille","lat":43.21762,"lon":5.34599,"is_reserved":false,"is_disabled":false,"rental_uris":{"android":"levelo://app?vid=a6fe0581-5daf-4b07-9e14-c0bfec26b1cd","ios":"levelo://app?vid=a6fe0581-5daf-4b07-9e14-c0bfec26b1cd"},"vehicle_type_id":"4","last_reported":1751713660,"current_range_meters":16400,"station_id":"st_cvj6r9ubvosntc0bgbag","pricing_plan_id":"cebpf4jnsgd1na2vs0mg"},{"bike_id":"cd6f91d4-bdaf-4e38-b4f5-14f6e83055e8","system_id":"levelo_inurba_marseille","lat":43.211946,"lon":5.350703,"is_reserved":false,"is_disabled":false,"rental_uris":{"android":"levelo://app?vid=cd6f91d4-bdaf-4e38-b4f5-14f6e83055e8","ios":"levelo://app?vid=cd6f91d4-bdaf-4e38-b4f5-14f6e83055e8"},"vehicle_type_id":"4","last_reported":1751713660,"current_range_meters":16400,"station_id":"st_cvj6sg6p6f1abm77japg","pricing_plan_id":"cebpf4jnsgd1na2vs0mg"},{"bike_id":"bb4a28ca-bcb8-4241-b0fb-7b24851d517f","system_id":"levelo_inurba_marseille","lat":43.211883,"lon":5.35068,"is_reserved":false,"is_disabled":false,"rental_uris":{"android":"levelo://app?vid=bb4a28ca-bcb8-4241-b0fb-7b24851d517f","ios":"levelo://app?vid=bb4a28ca-bcb8-4241-b0fb-7b24851d517f"},"vehicle_type_id":"4","last_reported":1751713660,"current_range_meters":16400,"station_id":"st_cvj6sg6p6f1abm77japg","pricing_plan_id":"cebpf4jnsgd1na2vs0mg"},{"bike_id":"8a42812b-a6a1-406d-afe6-f3a1f04badd8","system_id":"levelo_inurba_marseille","lat":43.30879,"lon":5.37028,"is_reserved":false,"is_disabled":false,"rental_uris":{"android":"levelo://app?vid=8a42812b-a6a1-406d-afe6-f3a1f04badd8","ios":"levelo://app?vid=8a42812b-a6a1-406d-afe6-f3a1f04badd8"},"vehicle_type_id":"4","last_reported":1751713660,"current_range_meters":16800,"station_id":"","pricing_plan_id":"cebpf4jnsgd1na2vs0mg"},{"bike_id":"856c776b-976c-4e7f-97c1-3dc27b8380dd","system_id":"levelo_inurba_marseille","lat":43.316279,"lon":5.383209,"is_reserved":false,"is_disabled":false,"rental_uris":{"android":"levelo://app?vid=856c776b-976c-4e7f-97c1-3dc27b8380dd","ios":"levelo://app?vid=856c776b-976c-4e7f-97c1-3dc27b8380dd"},"vehicle_type_id":"4","last_reported":1751713660,"current_range_meters":16800,"station_id":"","pricing_plan_id":"cebpf4jnsgd1na2vs0mg"},{"bike_id":"1da8e8f3-29d9-453e-9159-6d3ce6a9cd5f","system_id":"levelo_inurba_marseille","lat":43.30462,"lon":5.37918,"is_reserved":false,"is_disabled":false,"rental_uris":{"android":"levelo://app?vid=1da8e8f3-29d9-453e-9159-6d3ce6a9cd5f","ios":"levelo://app?vid=1da8e8f3-29d9-453e-9159-6d3ce6a9cd5f"},"vehicle_type_id":"4","last_reported":1751713660,"current_range_meters":16800,"station_id":"ce4bgup2rcd13ifvqcn0","pricing_plan_id":"cebpf4jnsgd1na2vs0mg"},{"bike_id":"84303959-8cba-4981-9cd0-d7bbd107feff","system_id":"levelo_inurba_marseille","lat":43.304208,"lon":5.41275,"is_reserved":false,"is_disabled":false,"rental_uris":{"android":"levelo://app?vid=84303959-8cba-4981-9cd0-d7bbd107feff","ios":"levelo://app?vid=84303959-8cba-4981-9cd0-d7bbd107feff"},"vehicle_type_id":"4","last_reported":1751713660,"current_range_meters":16800,"station_id":"ce4bhop2rcd13ifvqh8g","pricing_plan_id":"cebpf4jnsgd1na2vs0mg"},{"bike_id":"7d7ca329-d013-418c-84c4-2b0666103eeb","system_id":"levelo_inurba_marseille","lat":43.29902,"lon":5.43677,"is_reserved":false,"is_disabled":false,"rental_uris":{"android":"levelo://app?vid=7d7ca329-d013-418c-84c4-2b0666103eeb","ios":"levelo://app?vid=7d7ca329-d013-418c-84c4-2b0666103eeb"},"vehicle_type_id":"4","last_reported":1751713660,"current_range_meters":16800,"station_id":"ce4bhpp2rcd13ifvqhfg","pricing_plan_id":"cebpf4jnsgd1na2vs0mg"},{"bike_id":"cfedde4d-29e4-48a6-bc2a-67d1ad344395","system_id":"levelo_inurba_marseille","lat":43.23205,"lon":5.35543,"is_reserved":false,"is_disabled":false,"rental_uris":{"android":"levelo://app?vid=cfedde4d-29e4-48a6-bc2a-67d1ad344395","ios":"levelo://app?vid=cfedde4d-29e4-48a6-bc2a-67d1ad344395"},"vehicle_type_id":"4","last_reported":1751713660,"current_range_meters":16800,"station_id":"ce4bhu92rcd13ifvqi70","pricing_plan_id":"cebpf4jnsgd1na2vs0mg"},{"bike_id":"869e4c39-5977-4a7b-893e-58d0300c6cdd","system_id":"levelo_inurba_marseille","lat":43.24148,"lon":5.36408,"is_reserved":false,"is_disabled":false,"rental_uris":{"android":"levelo://app?vid=869e4c39-5977-4a7b-893e-58d0300c6cdd","ios":"levelo://app?vid=869e4c39-5977-4a7b-893e-58d0300c6cdd"},"vehicle_type_id":"4","last_reported":1751713660,"current_range_meters":16800,"station_id":"cpo36qri1sfpv3e86is0","pricing_plan_id":"cebpf4jnsgd1na2vs0mg"},{"bike_id":"bf24b26e-7f51-4120-9a48-54c87edaa2f7","system_id":"levelo_inurba_marseille","lat":43.21194,"lon":5.35069,"is_reserved":false,"is_disabled":false,"rental_uris":{"android":"levelo://app?vid=bf24b26e-7f51-4120-9a48-54c87edaa2f7","ios":"levelo://app?vid=bf24b26e-7f51-4120-9a48-54c87edaa2f7"},"vehicle_type_id":"4","last_reported":1751713660,"current_range_meters":16800,"station_id":"st_cvj6sg6p6f1abm77japg","pricing_plan_id":"cebpf4jnsgd1na2vs0mg"},{"bike_id":"4d48d853-7d97-4abb-b48f-4004bd360e81","system_id":"levelo_inurba_marseille","lat":43.295785,"lon":5.375165,"is_reserved":false,"is_disabled":false,"rental_uris":{"android":"levelo://app?vid=4d48d853-7d97-4abb-b48f-4004bd360e81","ios":"levelo://app?vid=4d48d853-7d97-4abb-b48f-4004bd360e81"},"vehicle_type_id":"4","last_reported":1751713660,"current_range_meters":17200,"station_id":"","pricing_plan_id":"cebpf4jnsgd1na2vs0mg"},{"bike_id":"8daf738f-1933-4850-8881-99a30cc61adb","system_id":"levelo_inurba_marseille","lat":43.29681,"lon":5.37283,"is_reserved":false,"is_disabled":false,"rental_uris":{"android":"levelo://app?vid=8daf738f-1933-4850-8881-99a30cc61adb","ios":"levelo://app?vid=8daf738f-1933-4850-8881-99a30cc61adb"},"vehicle_type_id":"4","last_reported":1751713660,"current_range_meters":17200,"station_id":"ce4bgk12rcd13ifvqbj0","pricing_plan_id":"cebpf4jnsgd1na2vs0mg"},{"bike_id":"a432562a-30ff-4df9-a4a5-167573d04372","system_id":"levelo_inurba_marseille","lat":43.31695,"lon":5.40429,"is_reserved":false,"is_disabled":false,"rental_uris":{"android":"levelo://app?vid=a432562a-30ff-4df9-a4a5-167573d04372","ios":"levelo://app?vid=a432562a-30ff-4df9-a4a5-167573d04372"},"vehicle_type_id":"4","last_reported":1751713660,"current_range_meters":17200,"station_id":"ce4bh012rcd13ifvqd00","pricing_plan_id":"cebpf4jnsgd1na2vs0mg"},{"bike_id":"dcf14905-5d88-4cf4-ba13-ac2a6bb8e11f","system_id":"levelo_inurba_marseille","lat":43.28727,"lon":5.37948,"is_reserved":false,"is_disabled":false,"rental_uris":{"android":"levelo://app?vid=dcf14905-5d88-4cf4-ba13-ac2a6bb8e11f","ios":"levelo://app?vid=dcf14905-5d88-4cf4-ba13-ac2a6bb8e11f"},"vehicle_type_id":"4","last_reported":1751713660,"current_range_meters":17200,"station_id":"ce4bh9p2rcd13ifvqec0","pricing_plan_id":"cebpf4jnsgd1na2vs0mg"},{"bike_id":"a04a2a51-c290-4596-a39f-5192929c012f","system_id":"levelo_inurba_marseille","lat":43.29169,"lon":5.37151,"is_reserved":false,"is_disabled":false,"rental_uris":{"android":"levelo://app?vid=a04a2a51-c290-4596-a39f-5192929c012f","ios":"levelo://app?vid=a04a2a51-c290-4596-a39f-5192929c012f"},"vehicle_type_id":"4","last_reported":1751713660,"current_range_meters":17200,"station_id":"ce4bha92rcd13ifvqeh0","pricing_plan_id":"cebpf4jnsgd1na2vs0mg"},{"bike_id":"d1c1d769-91d0-4866-8097-b6e51dd3f87c","system_id":"levelo_inurba_marseille","lat":43.29261,"lon":5.36856,"is_reserved":false,"is_disabled":false,"rental_uris":{"android":"levelo://app?vid=d1c1d769-91d0-4866-8097-b6e51dd3f87c","ios":"levelo://app?vid=d1c1d769-91d0-4866-8097-b6e51dd3f87c"},"vehicle_type_id":"4","last_reported":1751713660,"current_range_meters":17200,"station_id":"ce4bhbp2rcd13ifvqesg","pricing_plan_id":"cebpf4jnsgd1na2vs0mg"},{"bike_id":"5e4669bd-8536-4919-8da2-15409e182044","system_id":"levelo_inurba_marseille","lat":43.231523,"lon":5.437209,"is_reserved":false,"is_disabled":false,"rental_uris":{"android":"levelo://app?vid=5e4669bd-8536-4919-8da2-15409e182044","ios":"levelo://app?vid=5e4669bd-8536-4919-8da2-15409e182044"},"vehicle_type_id":"4","last_reported":1751713660,"current_range_meters":17200,"station_id":"ce4bhmp2rcd13ifvqgog","pricing_plan_id":"cebpf4jnsgd1na2vs0mg"},{"bike_id":"d7b38d56-834e-4f13-940f-76edc49acc30","system_id":"levelo_inurba_marseille","lat":43.30153,"lon":5.38091,"is_reserved":false,"is_disabled":false,"rental_uris":{"android":"levelo://app?vid=d7b38d56-834e-4f13-940f-76edc49acc30","ios":"levelo://app?vid=d7b38d56-834e-4f13-940f-76edc49acc30"},"vehicle_type_id":"4","last_reported":1751713660,"current_range_meters":17600,"station_id":"ce4bgjp2rcd13ifvqbh0","pricing_plan_id":"cebpf4jnsgd1na2vs0mg"},{"bike_id":"a9e86f9b-660c-4eae-9748-1d4e3d8cc7fb","system_id":"levelo_inurba_marseille","lat":43.287147,"lon":5.373942,"is_reserved":false,"is_disabled":false,"rental_uris":{"android":"levelo://app?vid=a9e86f9b-660c-4eae-9748-1d4e3d8cc7fb","ios":"levelo://app?vid=a9e86f9b-660c-4eae-9748-1d4e3d8cc7fb"},"vehicle_type_id":"4","last_reported":1751713660,"current_range_meters":17600,"station_id":"ce4bh3p2rcd13ifvqdq0","pricing_plan_id":"cebpf4jnsgd1na2vs0mg"},{"bike_id":"84ecec0c-2f91-42a5-8791-abca74e53738","system_id":"levelo_inurba_marseille","lat":43.26201,"lon":5.3794,"is_reserved":false,"is_disabled":false,"rental_uris":{"android":"levelo://app?vid=84ecec0c-2f91-42a5-8791-abca74e53738","ios":"levelo://app?vid=84ecec0c-2f91-42a5-8791-abca74e53738"},"vehicle_type_id":"4","last_reported":1751713660,"current_range_meters":17600,"station_id":"ce4bhjp2rcd13ifvqg90","pricing_plan_id":"cebpf4jnsgd1na2vs0mg"},{"bike_id":"7f0c1e3c-145d-459e-b135-55934e2c45cf","system_id":"levelo_inurba_marseille","lat":43.28157,"lon":5.42637,"is_reserved":false,"is_disabled":false,"rental_uris":{"android":"levelo://app?vid=7f0c1e3c-145d-459e-b135-55934e2c45cf","ios":"levelo://app?vid=7f0c1e3c-145d-459e-b135-55934e2c45cf"},"vehicle_type_id":"4","last_reported":1751713660,"current_range_meters":17600,"station_id":"ce4bhnh2rcd13ifvqgug","pricing_plan_id":"cebpf4jnsgd1na2vs0mg"},{"bike_id":"e449aa29-cae1-4432-9aec-dedc13360b20","system_id":"levelo_inurba_marseille","lat":43.21186,"lon":5.35078,"is_reserved":false,"is_disabled":false,"rental_uris":{"android":"levelo://app?vid=e449aa29-cae1-4432-9aec-dedc13360b20","ios":"levelo://app?vid=e449aa29-cae1-4432-9aec-dedc13360b20"},"vehicle_type_id":"4","last_reported":1751713660,"current_range_meters":17600,"station_id":"st_cvj6sg6p6f1abm77japg","pricing_plan_id":"cebpf4jnsgd1na2vs0mg"},{"bike_id":"d5ef770d-9759-47e3-b3a5-7d2785ef76db","system_id":"levelo_inurba_marseille","lat":43.32976,"lon":5.38962,"is_reserved":false,"is_disabled":false,"rental_uris":{"android":"levelo://app?vid=d5ef770d-9759-47e3-b3a5-7d2785ef76db","ios":"levelo://app?vid=d5ef770d-9759-47e3-b3a5-7d2785ef76db"},"vehicle_type_id":"4","last_reported":1751713660,"current_range_meters":18000,"station_id":"","pricing_plan_id":"cebpf4jnsgd1na2vs0mg"},{"bike_id":"655a110d-474d-43b1-a203-d9e462e1a783","system_id":"levelo_inurba_marseille","lat":43.2118,"lon":5.35005,"is_reserved":false,"is_disabled":false,"rental_uris":{"android":"levelo://app?vid=655a110d-474d-43b1-a203-d9e462e1a783","ios":"levelo://app?vid=655a110d-474d-43b1-a203-d9e462e1a783"},"vehicle_type_id":"4","last_reported":1751713660,"current_range_meters":18000,"station_id":"","pricing_plan_id":"cebpf4jnsgd1na2vs0mg"},{"bike_id":"8b885149-cf7a-4df4-824d-7d686b7d76d4","system_id":"levelo_inurba_marseille","lat":43.28033,"lon":5.40877,"is_reserved":false,"is_disabled":false,"rental_uris":{"android":"levelo://app?vid=8b885149-cf7a-4df4-824d-7d686b7d76d4","ios":"levelo://app?vid=8b885149-cf7a-4df4-824d-7d686b7d76d4"},"vehicle_type_id":"4","last_reported":1751713660,"current_range_meters":18000,"station_id":"","pricing_plan_id":"cebpf4jnsgd1na2vs0mg"},{"bike_id":"0e07b02e-70b9-4d1c-8708-3554fa9b3848","system_id":"levelo_inurba_marseille","lat":43.23186,"lon":5.35567,"is_reserved":false,"is_disabled":false,"rental_uris":{"android":"levelo://app?vid=0e07b02e-70b9-4d1c-8708-3554fa9b3848","ios":"levelo://app?vid=0e07b02e-70b9-4d1c-8708-3554fa9b3848"},"vehicle_type_id":"4","last_reported":1751713660,"current_range_meters":18000,"station_id":"ce4bhu92rcd13ifvqi70","pricing_plan_id":"cebpf4jnsgd1na2vs0mg"},{"bike_id":"98aac28d-b860-4179-8d39-1798550d6dac","system_id":"levelo_inurba_marseille","lat":43.21187,"lon":5.35066,"is_reserved":false,"is_disabled":false,"rental_uris":{"android":"levelo://app?vid=98aac28d-b860-4179-8d39-1798550d6dac","ios":"levelo://app?vid=98aac28d-b860-4179-8d39-1798550d6dac"},"vehicle_type_id":"4","last_reported":1751713660,"current_range_meters":18000,"station_id":"st_cvj6sg6p6f1abm77japg","pricing_plan_id":"cebpf4jnsgd1na2vs0mg"},{"bike_id":"452e8211-4f44-45d0-814a-3e9e25b8c44e","system_id":"levelo_inurba_marseille","lat":43.211952,"lon":5.350733,"is_reserved":false,"is_disabled":false,"rental_uris":{"android":"levelo://app?vid=452e8211-4f44-45d0-814a-3e9e25b8c44e","ios":"levelo://app?vid=452e8211-4f44-45d0-814a-3e9e25b8c44e"},"vehicle_type_id":"4","last_reported":1751713660,"current_range_meters":18000,"station_id":"st_cvj6sg6p6f1abm77japg","pricing_plan_id":"cebpf4jnsgd1na2vs0mg"},{"bike_id":"4177c5ff-aca1-4474-9b79-866b7db339c9","system_id":"levelo_inurba_marseille","lat":43.29935,"lon":5.36558,"is_reserved":false,"is_disabled":false,"rental_uris":{"android":"levelo://app?vid=4177c5ff-aca1-4474-9b79-866b7db339c9","ios":"levelo://app?vid=4177c5ff-aca1-4474-9b79-866b7db339c9"},"vehicle_type_id":"4","last_reported":1751713660,"current_range_meters":18800,"station_id":"ce4bgm92rcd13ifvqbr0","pricing_plan_id":"cebpf4jnsgd1na2vs0mg"},{"bike_id":"0f7223ee-118a-4e7e-b9de-7d2675177506","system_id":"levelo_inurba_marseille","lat":43.30541,"lon":5.36585,"is_reserved":false,"is_disabled":false,"rental_uris":{"android":"levelo://app?vid=0f7223ee-118a-4e7e-b9de-7d2675177506","ios":"levelo://app?vid=0f7223ee-118a-4e7e-b9de-7d2675177506"},"vehicle_type_id":"4","last_reported":1751713660,"current_range_meters":18800,"station_id":"ce4bgs12rcd13ifvqcag","pricing_plan_id":"cebpf4jnsgd1na2vs0mg"},{"bike_id":"fa9c0305-e9bc-4b95-b537-406a4f602642","system_id":"levelo_inurba_marseille","lat":43.28357,"lon":5.38114,"is_reserved":false,"is_disabled":false,"rental_uris":{"android":"levelo://app?vid=fa9c0305-e9bc-4b95-b537-406a4f602642","ios":"levelo://app?vid=fa9c0305-e9bc-4b95-b537-406a4f602642"},"vehicle_type_id":"4","last_reported":1751713660,"current_range_meters":18800,"station_id":"ce4bh412rcd13ifvqdr0","pricing_plan_id":"cebpf4jnsgd1na2vs0mg"},{"bike_id":"30c5f82e-69a5-4464-95de-82bfcc1d606a","system_id":"levelo_inurba_marseille","lat":43.28618,"lon":5.35103,"is_reserved":false,"is_disabled":false,"rental_uris":{"android":"levelo://app?vid=30c5f82e-69a5-4464-95de-82bfcc1d606a","ios":"levelo://app?vid=30c5f82e-69a5-4464-95de-82bfcc1d606a"},"vehicle_type_id":"4","last_reported":1751713660,"current_range_meters":18800,"station_id":"ce4bhch2rcd13ifvqeug","pricing_plan_id":"cebpf4jnsgd1na2vs0mg"},{"bike_id":"1608218e-ab67-4f6b-8130-1c59efb738f0","system_id":"levelo_inurba_marseille","lat":43.23964,"lon":5.36629,"is_reserved":false,"is_disabled":false,"rental_uris":{"android":"levelo://app?vid=1608218e-ab67-4f6b-8130-1c59efb738f0","ios":"levelo://app?vid=1608218e-ab67-4f6b-8130-1c59efb738f0"},"vehicle_type_id":"4","last_reported":1751713660,"current_range_meters":18800,"station_id":"ce4bhi12rcd13ifvqfp0","pricing_plan_id":"cebpf4jnsgd1na2vs0mg"},{"bike_id":"8ae9c32e-94d8-411d-b2a0-91ac5bc77dab","system_id":"levelo_inurba_marseille","lat":43.23968,"lon":5.36636,"is_reserved":false,"is_disabled":false,"rental_uris":{"android":"levelo://app?vid=8ae9c32e-94d8-411d-b2a0-91ac5bc77dab","ios":"levelo://app?vid=8ae9c32e-94d8-411d-b2a0-91ac5bc77dab"},"vehicle_type_id":"4","last_reported":1751713660,"current_range_meters":18800,"station_id":"ce4bhi12rcd13ifvqfp0","pricing_plan_id":"cebpf4jnsgd1na2vs0mg"},{"bike_id":"7fb71639-3333-4c19-8f46-b6e15eeecc08","system_id":"levelo_inurba_marseille","lat":43.32,"lon":5.38164,"is_reserved":false,"is_disabled":false,"rental_uris":{"android":"levelo://app?vid=7fb71639-3333-4c19-8f46-b6e15eeecc08","ios":"levelo://app?vid=7fb71639-3333-4c19-8f46-b6e15eeecc08"},"vehicle_type_id":"4","last_reported":1751713660,"current_range_meters":18800,"station_id":"ce4bhr12rcd13ifvqhpg","pricing_plan_id":"cebpf4jnsgd1na2vs0mg"},{"bike_id":"0065a870-8b66-4de1-893e-580a720e4a79","system_id":"levelo_inurba_marseille","lat":43.24165,"lon":5.36398,"is_reserved":false,"is_disabled":false,"rental_uris":{"android":"levelo://app?vid=0065a870-8b66-4de1-893e-580a720e4a79","ios":"levelo://app?vid=0065a870-8b66-4de1-893e-580a720e4a79"},"vehicle_type_id":"4","last_reported":1751713660,"current_range_meters":18800,"station_id":"cpo36qri1sfpv3e86is0","pricing_plan_id":"cebpf4jnsgd1na2vs0mg"},{"bike_id":"35b83f8f-3d97-4c4a-aa36-e774ca0233b5","system_id":"levelo_inurba_marseille","lat":43.21748,"lon":5.34591,"is_reserved":false,"is_disabled":false,"rental_uris":{"android":"levelo://app?vid=35b83f8f-3d97-4c4a-aa36-e774ca0233b5","ios":"levelo://app?vid=35b83f8f-3d97-4c4a-aa36-e774ca0233b5"},"vehicle_type_id":"4","last_reported":1751713660,"current_range_meters":18800,"station_id":"st_cvj6r9ubvosntc0bgbag","pricing_plan_id":"cebpf4jnsgd1na2vs0mg"},{"bike_id":"fb204c65-a928-4b8b-b309-eab1439f4930","system_id":"levelo_inurba_marseille","lat":43.30166,"lon":5.36638,"is_reserved":false,"is_disabled":false,"rental_uris":{"android":"levelo://app?vid=fb204c65-a928-4b8b-b309-eab1439f4930","ios":"levelo://app?vid=fb204c65-a928-4b8b-b309-eab1439f4930"},"vehicle_type_id":"4","last_reported":1751713660,"current_range_meters":19200,"station_id":"ce4bgrh2rcd13ifvqc8g","pricing_plan_id":"cebpf4jnsgd1na2vs0mg"},{"bike_id":"41acad4d-fbae-405a-8b61-48721c368b3a","system_id":"levelo_inurba_marseille","lat":43.29038,"lon":5.37561,"is_reserved":false,"is_disabled":false,"rental_uris":{"android":"levelo://app?vid=41acad4d-fbae-405a-8b61-48721c368b3a","ios":"levelo://app?vid=41acad4d-fbae-405a-8b61-48721c368b3a"},"vehicle_type_id":"4","last_reported":1751713660,"current_range_meters":19200,"station_id":"ce4bh692rcd13ifvqe90","pricing_plan_id":"cebpf4jnsgd1na2vs0mg"},{"bike_id":"6d8fa619-d301-4047-8b8c-89e84c2e4b04","system_id":"levelo_inurba_marseille","lat":43.253978,"lon":5.375434,"is_reserved":false,"is_disabled":false,"rental_uris":{"android":"levelo://app?vid=6d8fa619-d301-4047-8b8c-89e84c2e4b04","ios":"levelo://app?vid=6d8fa619-d301-4047-8b8c-89e84c2e4b04"},"vehicle_type_id":"4","last_reported":1751713660,"current_range_meters":19200,"station_id":"ce4bhih2rcd13ifvqfs0","pricing_plan_id":"cebpf4jnsgd1na2vs0mg"},{"bike_id":"84855eb9-c5fa-400d-ac2c-7414d64ce8f9","system_id":"levelo_inurba_marseille","lat":43.3302,"lon":5.39043,"is_reserved":false,"is_disabled":false,"rental_uris":{"android":"levelo://app?vid=84855eb9-c5fa-400d-ac2c-7414d64ce8f9","ios":"levelo://app?vid=84855eb9-c5fa-400d-ac2c-7414d64ce8f9"},"vehicle_type_id":"4","last_reported":1751713660,"current_range_meters":19200,"station_id":"ce4bhr92rcd13ifvqhrg","pricing_plan_id":"cebpf4jnsgd1na2vs0mg"},{"bike_id":"30daf87a-5e7d-42b3-ac97-c9dfd23296b5","system_id":"levelo_inurba_marseille","lat":43.32499,"lon":5.36566,"is_reserved":false,"is_disabled":false,"rental_uris":{"android":"levelo://app?vid=30daf87a-5e7d-42b3-ac97-c9dfd23296b5","ios":"levelo://app?vid=30daf87a-5e7d-42b3-ac97-c9dfd23296b5"},"vehicle_type_id":"4","last_reported":1751713660,"current_range_meters":19200,"station_id":"ce4bhs12rcd13ifvqhvg","pricing_plan_id":"cebpf4jnsgd1na2vs0mg"},{"bike_id":"8bf0d992-d2a0-428e-940a-091ee9b7c2a4","system_id":"levelo_inurba_marseille","lat":43.21192,"lon":5.35077,"is_reserved":false,"is_disabled":false,"rental_uris":{"android":"levelo://app?vid=8bf0d992-d2a0-428e-940a-091ee9b7c2a4","ios":"levelo://app?vid=8bf0d992-d2a0-428e-940a-091ee9b7c2a4"},"vehicle_type_id":"4","last_reported":1751713660,"current_range_meters":19200,"station_id":"st_cvj6sg6p6f1abm77japg","pricing_plan_id":"cebpf4jnsgd1na2vs0mg"},{"bike_id":"b147b715-441f-423c-a300-927127c72dbf","system_id":"levelo_inurba_marseille","lat":43.30176,"lon":5.38075,"is_reserved":false,"is_disabled":false,"rental_uris":{"android":"levelo://app?vid=b147b715-441f-423c-a300-927127c72dbf","ios":"levelo://app?vid=b147b715-441f-423c-a300-927127c72dbf"},"vehicle_type_id":"4","last_reported":1751713660,"current_range_meters":19600,"station_id":"ce4bgjp2rcd13ifvqbh0","pricing_plan_id":"cebpf4jnsgd1na2vs0mg"},{"bike_id":"d04f47e8-0c89-4de0-b137-93048916338d","system_id":"levelo_inurba_marseille","lat":43.29719,"lon":5.36611,"is_reserved":false,"is_disabled":false,"rental_uris":{"android":"levelo://app?vid=d04f47e8-0c89-4de0-b137-93048916338d","ios":"levelo://app?vid=d04f47e8-0c89-4de0-b137-93048916338d"},"vehicle_type_id":"4","last_reported":1751713660,"current_range_meters":19600,"station_id":"ce4bgn12rcd13ifvqbt0","pricing_plan_id":"cebpf4jnsgd1na2vs0mg"},{"bike_id":"9da73e4f-d9db-443d-bb7d-3321678cea21","system_id":"levelo_inurba_marseille","lat":43.28264,"lon":5.3507,"is_reserved":false,"is_disabled":false,"rental_uris":{"android":"levelo://app?vid=9da73e4f-d9db-443d-bb7d-3321678cea21","ios":"levelo://app?vid=9da73e4f-d9db-443d-bb7d-3321678cea21"},"vehicle_type_id":"4","last_reported":1751713660,"current_range_meters":19600,"station_id":"ce4bhbp2rcd13ifvqerg","pricing_plan_id":"cebpf4jnsgd1na2vs0mg"},{"bike_id":"4c3909c1-15e4-4353-9724-ea731b20f6eb","system_id":"levelo_inurba_marseille","lat":43.28264,"lon":5.35072,"is_reserved":false,"is_disabled":false,"rental_uris":{"android":"levelo://app?vid=4c3909c1-15e4-4353-9724-ea731b20f6eb","ios":"levelo://app?vid=4c3909c1-15e4-4353-9724-ea731b20f6eb"},"vehicle_type_id":"4","last_reported":1751713660,"current_range_meters":19600,"station_id":"ce4bhbp2rcd13ifvqerg","pricing_plan_id":"cebpf4jnsgd1na2vs0mg"},{"bike_id":"76558ac1-6d67-42d3-99cc-0b13879ac5f0","system_id":"levelo_inurba_marseille","lat":43.25579,"lon":5.38261,"is_reserved":false,"is_disabled":false,"rental_uris":{"android":"levelo://app?vid=76558ac1-6d67-42d3-99cc-0b13879ac5f0","ios":"levelo://app?vid=76558ac1-6d67-42d3-99cc-0b13879ac5f0"},"vehicle_type_id":"4","last_reported":1751713660,"current_range_meters":19600,"station_id":"ce4bhih2rcd13ifvqfs0","pricing_plan_id":"cebpf4jnsgd1na2vs0mg"},{"bike_id":"96a73f83-381b-4221-b654-b3859a2314ca","system_id":"levelo_inurba_marseille","lat":43.28702,"lon":5.39981,"is_reserved":false,"is_disabled":false,"rental_uris":{"android":"levelo://app?vid=96a73f83-381b-4221-b654-b3859a2314ca","ios":"levelo://app?vid=96a73f83-381b-4221-b654-b3859a2314ca"},"vehicle_type_id":"4","last_reported":1751713660,"current_range_meters":19600,"station_id":"ce4bho92rcd13ifvqh3g","pricing_plan_id":"cebpf4jnsgd1na2vs0mg"},{"bike_id":"eb0d0945-da73-4805-a7fa-0f4d1995a84b","system_id":"levelo_inurba_marseille","lat":43.3042,"lon":5.41273,"is_reserved":false,"is_disabled":false,"rental_uris":{"android":"levelo://app?vid=eb0d0945-da73-4805-a7fa-0f4d1995a84b","ios":"levelo://app?vid=eb0d0945-da73-4805-a7fa-0f4d1995a84b"},"vehicle_type_id":"4","last_reported":1751713660,"current_range_meters":19600,"station_id":"ce4bhop2rcd13ifvqh8g","pricing_plan_id":"cebpf4jnsgd1na2vs0mg"},{"bike_id":"ed4e39d1-3e16-40d8-a89c-f536b7cba98a","system_id":"levelo_inurba_marseille","lat":43.29554,"lon":5.42279,"is_reserved":false,"is_disabled":false,"rental_uris":{"android":"levelo://app?vid=ed4e39d1-3e16-40d8-a89c-f536b7cba98a","ios":"levelo://app?vid=ed4e39d1-3e16-40d8-a89c-f536b7cba98a"},"vehicle_type_id":"4","last_reported":1751713660,"current_range_meters":19600,"station_id":"ce4bhph2rcd13ifvqhdg","pricing_plan_id":"cebpf4jnsgd1na2vs0mg"},{"bike_id":"2e9ecc0a-afc7-4316-ac0c-3ab173435e83","system_id":"levelo_inurba_marseille","lat":43.23187,"lon":5.35592,"is_reserved":false,"is_disabled":false,"rental_uris":{"android":"levelo://app?vid=2e9ecc0a-afc7-4316-ac0c-3ab173435e83","ios":"levelo://app?vid=2e9ecc0a-afc7-4316-ac0c-3ab173435e83"},"vehicle_type_id":"4","last_reported":1751713660,"current_range_meters":19600,"station_id":"ce4bhu92rcd13ifvqi70","pricing_plan_id":"cebpf4jnsgd1na2vs0mg"},{"bike_id":"9c9ee5ce-96a8-4043-8654-8a4e1303348b","system_id":"levelo_inurba_marseille","lat":43.30318,"lon":5.36898,"is_reserved":false,"is_disabled":false,"rental_uris":{"android":"levelo://app?vid=9c9ee5ce-96a8-4043-8654-8a4e1303348b","ios":"levelo://app?vid=9c9ee5ce-96a8-4043-8654-8a4e1303348b"},"vehicle_type_id":"4","last_reported":1751713660,"current_range_meters":20000,"station_id":"ce4bgqh2rcd13ifvqc5g","pricing_plan_id":"cebpf4jnsgd1na2vs0mg"},{"bike_id":"294c55ac-c8ae-4f49-bc9e-29d799a8277e","system_id":"levelo_inurba_marseille","lat":43.30538,"lon":5.36561,"is_reserved":false,"is_disabled":false,"rental_uris":{"android":"levelo://app?vid=294c55ac-c8ae-4f49-bc9e-29d799a8277e","ios":"levelo://app?vid=294c55ac-c8ae-4f49-bc9e-29d799a8277e"},"vehicle_type_id":"4","last_reported":1751713660,"current_range_meters":20000,"station_id":"ce4bgs12rcd13ifvqcag","pricing_plan_id":"cebpf4jnsgd1na2vs0mg"},{"bike_id":"7b683db7-9114-4be4-844d-e94144ac6dd7","system_id":"levelo_inurba_marseille","lat":43.29635,"lon":5.40595,"is_reserved":false,"is_disabled":false,"rental_uris":{"android":"levelo://app?vid=7b683db7-9114-4be4-844d-e94144ac6dd7","ios":"levelo://app?vid=7b683db7-9114-4be4-844d-e94144ac6dd7"},"vehicle_type_id":"4","last_reported":1751713660,"current_range_meters":20000,"station_id":"ce4bh0h2rcd13ifvqd60","pricing_plan_id":"cebpf4jnsgd1na2vs0mg"},{"bike_id":"8f2318ab-e485-4c3d-abee-aac99dff0b59","system_id":"levelo_inurba_marseille","lat":43.28622,"lon":5.35115,"is_reserved":false,"is_disabled":false,"rental_uris":{"android":"levelo://app?vid=8f2318ab-e485-4c3d-abee-aac99dff0b59","ios":"levelo://app?vid=8f2318ab-e485-4c3d-abee-aac99dff0b59"},"vehicle_type_id":"4","last_reported":1751713660,"current_range_meters":20000,"station_id":"ce4bhch2rcd13ifvqeug","pricing_plan_id":"cebpf4jnsgd1na2vs0mg"},{"bike_id":"bac5e1b2-e810-4ee9-8ebf-5d6d78869a02","system_id":"levelo_inurba_marseille","lat":43.2931,"lon":5.37171,"is_reserved":false,"is_disabled":false,"rental_uris":{"android":"levelo://app?vid=bac5e1b2-e810-4ee9-8ebf-5d6d78869a02","ios":"levelo://app?vid=bac5e1b2-e810-4ee9-8ebf-5d6d78869a02"},"vehicle_type_id":"4","last_reported":1751713660,"current_range_meters":20400,"station_id":"ce4bgh92rcd13ifvqb40","pricing_plan_id":"cebpf4jnsgd1na2vs0mg"},{"bike_id":"763bc2a0-ecb4-4a6a-8d73-252579218688","system_id":"levelo_inurba_marseille","lat":43.30541,"lon":5.36558,"is_reserved":false,"is_disabled":false,"rental_uris":{"android":"levelo://app?vid=763bc2a0-ecb4-4a6a-8d73-252579218688","ios":"levelo://app?vid=763bc2a0-ecb4-4a6a-8d73-252579218688"},"vehicle_type_id":"4","last_reported":1751713660,"current_range_meters":20400,"station_id":"ce4bgs12rcd13ifvqcag","pricing_plan_id":"cebpf4jnsgd1na2vs0mg"},{"bike_id":"8930268e-6f71-4edb-8359-5d69cd1b7b64","system_id":"levelo_inurba_marseille","lat":43.282655,"lon":5.35064,"is_reserved":false,"is_disabled":false,"rental_uris":{"android":"levelo://app?vid=8930268e-6f71-4edb-8359-5d69cd1b7b64","ios":"levelo://app?vid=8930268e-6f71-4edb-8359-5d69cd1b7b64"},"vehicle_type_id":"4","last_reported":1751713660,"current_range_meters":20400,"station_id":"ce4bhbp2rcd13ifvqerg","pricing_plan_id":"cebpf4jnsgd1na2vs0mg"},{"bike_id":"d1f9d37d-b429-4583-912e-805cf3889e65","system_id":"levelo_inurba_marseille","lat":43.231954,"lon":5.355637,"is_reserved":false,"is_disabled":false,"rental_uris":{"android":"levelo://app?vid=d1f9d37d-b429-4583-912e-805cf3889e65","ios":"levelo://app?vid=d1f9d37d-b429-4583-912e-805cf3889e65"},"vehicle_type_id":"4","last_reported":1751713660,"current_range_meters":20400,"station_id":"ce4bhu92rcd13ifvqi70","pricing_plan_id":"cebpf4jnsgd1na2vs0mg"},{"bike_id":"80955d0f-8669-4c02-b90f-c6fe20790c37","system_id":"levelo_inurba_marseille","lat":43.23183,"lon":5.3505,"is_reserved":false,"is_disabled":false,"rental_uris":{"android":"levelo://app?vid=80955d0f-8669-4c02-b90f-c6fe20790c37","ios":"levelo://app?vid=80955d0f-8669-4c02-b90f-c6fe20790c37"},"vehicle_type_id":"4","last_reported":1751713660,"current_range_meters":20800,"station_id":"","pricing_plan_id":"cebpf4jnsgd1na2vs0mg"},{"bike_id":"3b22f952-d0bc-4c00-8fd3-7e27b88aea23","system_id":"levelo_inurba_marseille","lat":43.29659,"lon":5.36245,"is_reserved":false,"is_disabled":false,"rental_uris":{"android":"levelo://app?vid=3b22f952-d0bc-4c00-8fd3-7e27b88aea23","ios":"levelo://app?vid=3b22f952-d0bc-4c00-8fd3-7e27b88aea23"},"vehicle_type_id":"4","last_reported":1751713660,"current_range_meters":20800,"station_id":"","pricing_plan_id":"cebpf4jnsgd1na2vs0mg"},{"bike_id":"e3497bf7-db23-4b0a-ae61-0131fc3177c8","system_id":"levelo_inurba_marseille","lat":43.292806,"lon":5.368357,"is_reserved":false,"is_disabled":false,"rental_uris":{"android":"levelo://app?vid=e3497bf7-db23-4b0a-ae61-0131fc3177c8","ios":"levelo://app?vid=e3497bf7-db23-4b0a-ae61-0131fc3177c8"},"vehicle_type_id":"4","last_reported":1751713660,"current_range_meters":20800,"station_id":"ce4bgg92rcd13ifvqb30","pricing_plan_id":"cebpf4jnsgd1na2vs0mg"},{"bike_id":"5e857273-3f2b-4f5a-ada5-49c8a2da73a9","system_id":"levelo_inurba_marseille","lat":43.27611,"lon":5.36093,"is_reserved":false,"is_disabled":false,"rental_uris":{"android":"levelo://app?vid=5e857273-3f2b-4f5a-ada5-49c8a2da73a9","ios":"levelo://app?vid=5e857273-3f2b-4f5a-ada5-49c8a2da73a9"},"vehicle_type_id":"4","last_reported":1751713660,"current_range_meters":20800,"station_id":"ce4bhbh2rcd13ifvqeo0","pricing_plan_id":"cebpf4jnsgd1na2vs0mg"},{"bike_id":"b76d88a9-e9ba-4974-9987-401ff063a439","system_id":"levelo_inurba_marseille","lat":43.26219,"lon":5.37478,"is_reserved":false,"is_disabled":false,"rental_uris":{"android":"levelo://app?vid=b76d88a9-e9ba-4974-9987-401ff063a439","ios":"levelo://app?vid=b76d88a9-e9ba-4974-9987-401ff063a439"},"vehicle_type_id":"4","last_reported":1751713660,"current_range_meters":20800,"station_id":"ce4bhgp2rcd13ifvqfc0","pricing_plan_id":"cebpf4jnsgd1na2vs0mg"},{"bike_id":"cc77c888-9da2-42df-aab4-55bd18e3864f","system_id":"levelo_inurba_marseille","lat":43.29564,"lon":5.42281,"is_reserved":false,"is_disabled":false,"rental_uris":{"android":"levelo://app?vid=cc77c888-9da2-42df-aab4-55bd18e3864f","ios":"levelo://app?vid=cc77c888-9da2-42df-aab4-55bd18e3864f"},"vehicle_type_id":"4","last_reported":1751713660,"current_range_meters":20800,"station_id":"ce4bhph2rcd13ifvqhdg","pricing_plan_id":"cebpf4jnsgd1na2vs0mg"},{"bike_id":"be98bce7-e178-4086-a1cf-9a4edf6a2cd6","system_id":"levelo_inurba_marseille","lat":43.29302,"lon":5.37469,"is_reserved":false,"is_disabled":false,"rental_uris":{"android":"levelo://app?vid=be98bce7-e178-4086-a1cf-9a4edf6a2cd6","ios":"levelo://app?vid=be98bce7-e178-4086-a1cf-9a4edf6a2cd6"},"vehicle_type_id":"4","last_reported":1751713660,"current_range_meters":21600,"station_id":"ce4bgi12rcd13ifvqb70","pricing_plan_id":"cebpf4jnsgd1na2vs0mg"},{"bike_id":"92d0ddd3-3451-40b8-8531-399cc1a2a2c1","system_id":"levelo_inurba_marseille","lat":43.24814,"lon":5.37448,"is_reserved":false,"is_disabled":false,"rental_uris":{"android":"levelo://app?vid=92d0ddd3-3451-40b8-8531-399cc1a2a2c1","ios":"levelo://app?vid=92d0ddd3-3451-40b8-8531-399cc1a2a2c1"},"vehicle_type_id":"4","last_reported":1751713660,"current_range_meters":21600,"station_id":"ce4bhgh2rcd13ifvqfb0","pricing_plan_id":"cebpf4jnsgd1na2vs0mg"},{"bike_id":"37f2becd-23f9-4f13-a711-38b8024eeec7","system_id":"levelo_inurba_marseille","lat":43.33768,"lon":5.37516,"is_reserved":false,"is_disabled":false,"rental_uris":{"android":"levelo://app?vid=37f2becd-23f9-4f13-a711-38b8024eeec7","ios":"levelo://app?vid=37f2becd-23f9-4f13-a711-38b8024eeec7"},"vehicle_type_id":"4","last_reported":1751713660,"current_range_meters":22000,"station_id":"","pricing_plan_id":"cebpf4jnsgd1na2vs0mg"},{"bike_id":"aef2da19-2977-4eaa-9a1d-cfd2b08ce3a1","system_id":"levelo_inurba_marseille","lat":43.28365,"lon":5.41853,"is_reserved":false,"is_disabled":false,"rental_uris":{"android":"levelo://app?vid=aef2da19-2977-4eaa-9a1d-cfd2b08ce3a1","ios":"levelo://app?vid=aef2da19-2977-4eaa-9a1d-cfd2b08ce3a1"},"vehicle_type_id":"4","last_reported":1751713660,"current_range_meters":22000,"station_id":"","pricing_plan_id":"cebpf4jnsgd1na2vs0mg"},{"bike_id":"256922cb-ca5d-4f11-8ca9-526d4cd3d387","system_id":"levelo_inurba_marseille","lat":43.27626,"lon":5.36106,"is_reserved":false,"is_disabled":false,"rental_uris":{"android":"levelo://app?vid=256922cb-ca5d-4f11-8ca9-526d4cd3d387","ios":"levelo://app?vid=256922cb-ca5d-4f11-8ca9-526d4cd3d387"},"vehicle_type_id":"4","last_reported":1751713660,"current_range_meters":22000,"station_id":"ce4bgj92rcd13ifvqbe0","pricing_plan_id":"cebpf4jnsgd1na2vs0mg"},{"bike_id":"d2bcc1cf-2af1-43c3-9223-1fe477e4c6fa","system_id":"levelo_inurba_marseille","lat":43.295534,"lon":5.422899,"is_reserved":false,"is_disabled":false,"rental_uris":{"android":"levelo://app?vid=d2bcc1cf-2af1-43c3-9223-1fe477e4c6fa","ios":"levelo://app?vid=d2bcc1cf-2af1-43c3-9223-1fe477e4c6fa"},"vehicle_type_id":"4","last_reported":1751713660,"current_range_meters":22000,"station_id":"ce4bhph2rcd13ifvqhdg","pricing_plan_id":"cebpf4jnsgd1na2vs0mg"},{"bike_id":"d0e04904-9db2-4424-bdc3-c864c216422c","system_id":"levelo_inurba_marseille","lat":43.23193,"lon":5.35557,"is_reserved":false,"is_disabled":false,"rental_uris":{"android":"levelo://app?vid=d0e04904-9db2-4424-bdc3-c864c216422c","ios":"levelo://app?vid=d0e04904-9db2-4424-bdc3-c864c216422c"},"vehicle_type_id":"4","last_reported":1751713660,"current_range_meters":22000,"station_id":"ce4bhu92rcd13ifvqi70","pricing_plan_id":"cebpf4jnsgd1na2vs0mg"},{"bike_id":"e8d7fcf5-14a0-430b-a247-ddceafd06b95","system_id":"levelo_inurba_marseille","lat":43.2253,"lon":5.34834,"is_reserved":false,"is_disabled":false,"rental_uris":{"android":"levelo://app?vid=e8d7fcf5-14a0-430b-a247-ddceafd06b95","ios":"levelo://app?vid=e8d7fcf5-14a0-430b-a247-ddceafd06b95"},"vehicle_type_id":"4","last_reported":1751713660,"current_range_meters":22000,"station_id":"st_cvj5dfep6f1abm77gieg","pricing_plan_id":"cebpf4jnsgd1na2vs0mg"},{"bike_id":"d0f90c24-dd03-411b-9731-55305f76b7c8","system_id":"levelo_inurba_marseille","lat":43.21174,"lon":5.35138,"is_reserved":false,"is_disabled":false,"rental_uris":{"android":"levelo://app?vid=d0f90c24-dd03-411b-9731-55305f76b7c8","ios":"levelo://app?vid=d0f90c24-dd03-411b-9731-55305f76b7c8"},"vehicle_type_id":"4","last_reported":1751713660,"current_range_meters":22000,"station_id":"st_cvj6sg6p6f1abm77japg","pricing_plan_id":"cebpf4jnsgd1na2vs0mg"},{"bike_id":"ccf7a193-bfcb-4cdd-8129-01166f6a08b8","system_id":"levelo_inurba_marseille","lat":43.24425,"lon":5.37032,"is_reserved":false,"is_disabled":false,"rental_uris":{"android":"levelo://app?vid=ccf7a193-bfcb-4cdd-8129-01166f6a08b8","ios":"levelo://app?vid=ccf7a193-bfcb-4cdd-8129-01166f6a08b8"},"vehicle_type_id":"4","last_reported":1751713660,"current_range_meters":22400,"station_id":"","pricing_plan_id":"cebpf4jnsgd1na2vs0mg"},{"bike_id":"67097a9b-a134-4c14-82c9-233da1be9986","system_id":"levelo_inurba_marseille","lat":43.29292,"lon":5.37494,"is_reserved":false,"is_disabled":false,"rental_uris":{"android":"levelo://app?vid=67097a9b-a134-4c14-82c9-233da1be9986","ios":"levelo://app?vid=67097a9b-a134-4c14-82c9-233da1be9986"},"vehicle_type_id":"4","last_reported":1751713660,"current_range_meters":22400,"station_id":"ce4bgi12rcd13ifvqb70","pricing_plan_id":"cebpf4jnsgd1na2vs0mg"},{"bike_id":"fdc30ccc-bb07-48aa-8852-54712696f420","system_id":"levelo_inurba_marseille","lat":43.29687,"lon":5.37276,"is_reserved":false,"is_disabled":false,"rental_uris":{"android":"levelo://app?vid=fdc30ccc-bb07-48aa-8852-54712696f420","ios":"levelo://app?vid=fdc30ccc-bb07-48aa-8852-54712696f420"},"vehicle_type_id":"4","last_reported":1751713660,"current_range_meters":22400,"station_id":"ce4bgk12rcd13ifvqbj0","pricing_plan_id":"cebpf4jnsgd1na2vs0mg"},{"bike_id":"9ae255d0-d244-43be-ad28-f1ce58853ad0","system_id":"levelo_inurba_marseille","lat":43.2842,"lon":5.37514,"is_reserved":false,"is_disabled":false,"rental_uris":{"android":"levelo://app?vid=9ae255d0-d244-43be-ad28-f1ce58853ad0","ios":"levelo://app?vid=9ae255d0-d244-43be-ad28-f1ce58853ad0"},"vehicle_type_id":"4","last_reported":1751713660,"current_range_meters":22400,"station_id":"ce4bh412rcd13ifvqds0","pricing_plan_id":"cebpf4jnsgd1na2vs0mg"},{"bike_id":"b9a2d6aa-67f6-49b4-9fc4-9c98316b6617","system_id":"levelo_inurba_marseille","lat":43.23189,"lon":5.39997,"is_reserved":false,"is_disabled":false,"rental_uris":{"android":"levelo://app?vid=b9a2d6aa-67f6-49b4-9fc4-9c98316b6617","ios":"levelo://app?vid=b9a2d6aa-67f6-49b4-9fc4-9c98316b6617"},"vehicle_type_id":"4","last_reported":1751713660,"current_range_meters":22400,"station_id":"ce4bhn12rcd13ifvqgqg","pricing_plan_id":"cebpf4jnsgd1na2vs0mg"},