{"last_updated":1726855933,"ttl":30,"version":"2.2","data":{"bikes":[{"bike_id":"0faf272a-fdc8-4442-914f-92f52b9bce91","system_id":"levelo_inurba_marseille","lat":43.27935,"lon":5.41052,"is_reserved":false,"is_disabled":false,"rental_uris":{"android":"levelo://app?vid=0faf272a-fdc8-4442-914f-92f52b9bce91","ios":"levelo://app?vid=0faf272a-fdc8-4442-914f-92f52b9bce91"},"vehicle_type_id":"4","last_reported":1726855933,"current_range_meters":10000,"station_id":"ce4bhnp2rcd13ifvqh0g","pricing_plan_id":"cebpf4jnsgd1na2vs0mg"},{"bike_id":"afe159f4-c1bc-4c14-b01d-5fea9b272a4e","system_id":"levelo_inurba_marseille","lat":43.29009,"lon":5.38637,"is_reserved":false,"is_disabled":false,"rental_uris":{"android":"levelo://app?vid=afe159f4-c1bc-4c14-b01d-5fea9b272a4e","ios":"levelo://app?vid=afe159f4-c1bc-4c14-b01d-5fea9b272a4e"},"vehicle_type_id":"4","last_reported":1726855933,"current_range_meters":18800,"station_id":"ce4bh4p2rcd13ifvqe0g","pricing_plan_id":"cebpf4jnsgd1na2vs0mg"},{"bike_id":"f662e825-9148-4a09-82cd-289cff82a6e2","system_id":"levelo_inurba_marseille","lat":43.27809,"lon":5.40716,"is_reserved":false,"is_disabled":false,"rental_uris":{"android":"levelo://app?vid=f662e825-9148-4a09-82cd-289cff82a6e2","ios":"levelo://app?vid=f662e825-9148-4a09-82cd-289cff82a6e2"},"vehicle_type_id":"4","last_reported":1726855933,"current_range_meters":16400,"station_id":"ce4bhnh2rcd13ifvqgtg","pricing_plan_id":"cebpf4jnsgd1na2vs0mg"},{"bike_id":"e206c119-4008-4923-b0af-4bb052c852bc","system_id":"levelo_inurba_marseille","lat":43.301483,"lon":5.380795,"is_reserved":false,"is_disabled":false,"rental_uris":{"android":"levelo://app?vid=e206c119-4008-4923-b0af-4bb052c852bc","ios":"levelo://app?vid=e206c119-4008-4923-b0af-4bb052c852bc"},"vehicle_type_id":"4","last_reported":1726855933,"current_range_meters":3600,"station_id":"ce4bgjp2rcd13ifvqbh0","pricing_plan_id":"cebpf4jnsgd1na2vs0mg"},{"bike_id":"dd72a544-3523-434a-9996-97132486a661","system_id":"levelo_inurba_marseille","lat":43.29447,"lon":5.39749,"is_reserved":false,"is_disabled":false,"rental_uris":{"android":"levelo://app?vid=dd72a544-3523-434a-9996-97132486a661","ios":"levelo://app?vid=dd72a544-3523-434a-9996-97132486a661"},"vehicle_type_id":"4","last_reported":1726855933,"current_range_meters":30400,"station_id":"ce4bh3h2rcd13ifvqdo0","pricing_plan_id":"cebpf4jnsgd1na2vs0mg"},{"bike_id":"caeb01e1-f6ca-4785-8d66-d5a031a43aa7","system_id":"levelo_inurba_marseille","lat":43.25085,"lon":5.39505,"is_reserved":false,"is_disabled":false,"rental_uris":{"android":"levelo://app?vid=caeb01e1-f6ca-4785-8d66-d5a031a43aa7","ios":"levelo://app?vid=caeb01e1-f6ca-4785-8d66-d5a031a43aa7"},"vehicle_type_id":"4","last_reported":1726855933,"current_range_meters":36000,"station_id":"ce4bhm12rcd13ifvqgkg","pricing_plan_id":"cebpf4jnsgd1na2vs0mg"},{"bike_id":"ddebed3d-04b1-4cea-a662-f2c0e8f7f0b2","system_id":"levelo_inurba_marseille","lat":43.337444,"lon":5.374475,"is_reserved":false,"is_disabled":false,"rental_uris":{"android":"levelo://app?vid=ddebed3d-04b1-4cea-a662-f2c0e8f7f0b2","ios":"levelo://app?vid=ddebed3d-04b1-4cea-a662-f2c0e8f7f0b2"},"vehicle_type_id":"4","last_reported":1726855933,"current_range_meters":38800,"station_id":"ce4bhqp2rcd13ifvqhng","pricing_plan_id":"cebpf4jnsgd1na2vs0mg"},{"bike_id":"8f18f3ac-b546-4dc3-b71b-f4dac1253089","system_id":"levelo_inurba_marseille","lat":43.29785,"lon":5.39343,"is_reserved":false,"is_disabled":false,"rental_uris":{"android":"levelo://app?vid=8f18f3ac-b546-4dc3-b71b-f4dac1253089","ios":"levelo://app?vid=8f18f3ac-b546-4dc3-b71b-f4dac1253089"},"vehicle_type_id":"4","last_reported":1726855933,"current_range_meters":10000,"station_id":"chh1huq6cuj3fo74tm60","pricing_plan_id":"cebpf4jnsgd1na2vs0mg"},{"bike_id":"8cd2f0da-2044-4e41-b992-3374b9a409d5","system_id":"levelo_inurba_marseille","lat":43.29448,"lon":5.3975,"is_reserved":false,"is_disabled":false,"rental_uris":{"android":"levelo://app?vid=8cd2f0da-2044-4e41-b992-3374b9a409d5","ios":"levelo://app?vid=8cd2f0da-2044-4e41-b992-3374b9a409d5"},"vehicle_type_id":"4","last_reported":1726855933,"current_range_meters":8400,"station_id":"ce4bh3h2rcd13ifvqdo0","pricing_plan_id":"cebpf4jnsgd1na2vs0mg"},{"bike_id":"b1c6c2b8-8aa9-49cd-b2aa-67fac614adda","system_id":"levelo_inurba_marseille","lat":43.29592,"lon":5.36736,"is_reserved":false,"is_disabled":false,"rental_uris":{"android":"levelo://app?vid=b1c6c2b8-8aa9-49cd-b2aa-67fac614adda","ios":"levelo://app?vid=b1c6c2b8-8aa9-49cd-b2aa-67fac614adda"},"vehicle_type_id":"4","last_reported":1726855933,"current_range_meters":6000,"station_id":"ce4bgph2rcd13ifvqc2g","pricing_plan_id":"cebpf4jnsgd1na2vs0mg"},{"bike_id":"ba1c7af7-daf9-4fc8-864f-129a7e148f12","system_id":"levelo_inurba_marseille","lat":43.282776,"lon":5.389109,"is_reserved":false,"is_disabled":false,"rental_uris":{"android":"levelo://app?vid=ba1c7af7-daf9-4fc8-864f-129a7e148f12","ios":"levelo://app?vid=ba1c7af7-daf9-4fc8-864f-129a7e148f12"},"vehicle_type_id":"4","last_reported":1726855933,"current_range_meters":23200,"station_id":"ce4bh192rcd13ifvqdb0","pricing_plan_id":"cebpf4jnsgd1na2vs0mg"},{"bike_id":"7adb6a9c-fc7c-4226-a40a-fdb37f7e5bd8","system_id":"levelo_inurba_marseille","lat":43.2467,"lon":5.38157,"is_reserved":false,"is_disabled":false,"rental_uris":{"android":"levelo://app?vid=7adb6a9c-fc7c-4226-a40a-fdb37f7e5bd8","ios":"levelo://app?vid=7adb6a9c-fc7c-4226-a40a-fdb37f7e5bd8"},"vehicle_type_id":"4","last_reported":1726855933,"current_range_meters":38800,"station_id":"ce4bhih2rcd13ifvqfr0","pricing_plan_id":"cebpf4jnsgd1na2vs0mg"},{"bike_id":"3d9367e7-4334-4398-8840-7e7fd729c93f","system_id":"levelo_inurba_marseille","lat":43.32486,"lon":5.3658,"is_reserved":false,"is_disabled":false,"rental_uris":{"android":"levelo://app?vid=3d9367e7-4334-4398-8840-7e7fd729c93f","ios":"levelo://app?vid=3d9367e7-4334-4398-8840-7e7fd729c93f"},"vehicle_type_id":"4","last_reported":1726855933,"current_range_meters":38800,"station_id":"ce4bhs12rcd13ifvqhvg","pricing_plan_id":"cebpf4jnsgd1na2vs0mg"},{"bike_id":"12d81291-30fe-4d6b-94c5-cb0a8ba853d9","system_id":"levelo_inurba_marseille","lat":43.29419,"lon":5.38628,"is_reserved":false,"is_disabled":false,"rental_uris":{"android":"levelo://app?vid=12d81291-30fe-4d6b-94c5-cb0a8ba853d9","ios":"levelo://app?vid=12d81291-30fe-4d6b-94c5-cb0a8ba853d9"},"vehicle_type_id":"4","last_reported":1726855933,"current_range_meters":14000,"station_id":"ce4bh2h2rcd13ifvqdh0","pricing_plan_id":"cebpf4jnsgd1na2vs0mg"},{"bike_id":"a6ed4969-0556-414d-860c-5de0f6bbce5a","system_id":"levelo_inurba_marseille","lat":43.27374,"lon":5.36268,"is_reserved":false,"is_disabled":false,"rental_uris":{"android":"levelo://app?vid=a6ed4969-0556-414d-860c-5de0f6bbce5a","ios":"levelo://app?vid=a6ed4969-0556-414d-860c-5de0f6bbce5a"},"vehicle_type_id":"4","last_reported":1726855933,"current_range_meters":18800,"station_id":"ce4bhbh2rcd13ifvqeo0","pricing_plan_id":"cebpf4jnsgd1na2vs0mg"},{"bike_id":"a35912da-efa1-4242-840a-afc92fe9f5d5","system_id":"levelo_inurba_marseille","lat":43.31329,"lon":5.39692,"is_reserved":false,"is_disabled":false,"rental_uris":{"android":"levelo://app?vid=a35912da-efa1-4242-840a-afc92fe9f5d5","ios":"levelo://app?vid=a35912da-efa1-4242-840a-afc92fe9f5d5"},"vehicle_type_id":"4","last_reported":1726855933,"current_range_meters":12000,"station_id":"ce4bgvp2rcd13ifvqcu0","pricing_plan_id":"cebpf4jnsgd1na2vs0mg"},{"bike_id":"548ff5e8-4be6-4fa2-b210-beb1ef8053de","system_id":"levelo_inurba_marseille","lat":43.33024,"lon":5.39046,"is_reserved":false,"is_disabled":false,"rental_uris":{"android":"levelo://app?vid=548ff5e8-4be6-4fa2-b210-beb1ef8053de","ios":"levelo://app?vid=548ff5e8-4be6-4fa2-b210-beb1ef8053de"},"vehicle_type_id":"4","last_reported":1726855933,"current_range_meters":21600,"station_id":"ce4bhr92rcd13ifvqhrg","pricing_plan_id":"cebpf4jnsgd1na2vs0mg"},{"bike_id":"a5db291a-7ea3-46af-83c9-1ffbd5842767","system_id":"levelo_inurba_marseille","lat":43.27369,"lon":5.36268,"is_reserved":false,"is_disabled":false,"rental_uris":{"android":"levelo://app?vid=a5db291a-7ea3-46af-83c9-1ffbd5842767","ios":"levelo://app?vid=a5db291a-7ea3-46af-83c9-1ffbd5842767"},"vehicle_type_id":"4","last_reported":1726855933,"current_range_meters":7200,"station_id":"ce4bhbh2rcd13ifvqeo0","pricing_plan_id":"cebpf4jnsgd1na2vs0mg"},{"bike_id":"5843285f-2fae-44bf-8873-ed5fd2d96971","system_id":"levelo_inurba_marseille","lat":43.29563,"lon":5.37522,"is_reserved":false,"is_disabled":false,"rental_uris":{"android":"levelo://app?vid=5843285f-2fae-44bf-8873-ed5fd2d96971","ios":"levelo://app?vid=5843285f-2fae-44bf-8873-ed5fd2d96971"},"vehicle_type_id":"4","last_reported":1726855933,"current_range_meters":38400,"station_id":"ce4bgh92rcd13ifvqb50","pricing_plan_id":"cebpf4jnsgd1na2vs0mg"},{"bike_id":"7a6e96dc-c3f3-41b5-a466-7ac169cf85bc","system_id":"levelo_inurba_marseille","lat":43.30799,"lon":5.43525,"is_reserved":false,"is_disabled":false,"rental_uris":{"android":"levelo://app?vid=7a6e96dc-c3f3-41b5-a466-7ac169cf85bc","ios":"levelo://app?vid=7a6e96dc-c3f3-41b5-a466-7ac169cf85bc"},"vehicle_type_id":"4","last_reported":1726855933,"current_range_meters":2000,"station_id":"ce4bhph2rcd13ifvqheg","pricing_plan_id":"cebpf4jnsgd1na2vs0mg"},{"bike_id":"afe7aa39-6c29-4e92-bab0-593301de1dc2","system_id":"levelo_inurba_marseille","lat":43.289337,"lon":5.366425,"is_reserved":false,"is_disabled":false,"rental_uris":{"android":"levelo://app?vid=afe7aa39-6c29-4e92-bab0-593301de1dc2","ios":"levelo://app?vid=afe7aa39-6c29-4e92-bab0-593301de1dc2"},"vehicle_type_id":"4","last_reported":1726855933,"current_range_meters":6400,"station_id":"ce4bhap2rcd13ifvqek0","pricing_plan_id":"cebpf4jnsgd1na2vs0mg"},{"bike_id":"553c4abe-6f46-4d97-a409-7725c0c56fc0","system_id":"levelo_inurba_marseille","lat":43.25585,"lon":5.38232,"is_reserved":false,"is_disabled":false,"rental_uris":{"android":"levelo://app?vid=553c4abe-6f46-4d97-a409-7725c0c56fc0","ios":"levelo://app?vid=553c4abe-6f46-4d97-a409-7725c0c56fc0"},"vehicle_type_id":"4","last_reported":1726855933,"current_range_meters":10800,"station_id":"ce4bhih2rcd13ifvqfs0","pricing_plan_id":"cebpf4jnsgd1na2vs0mg"},{"bike_id":"da30903d-945e-4048-9931-f370d4c6279e","system_id":"levelo_inurba_marseille","lat":43.23153,"lon":5.43728,"is_reserved":false,"is_disabled":false,"rental_uris":{"android":"levelo://app?vid=da30903d-945e-4048-9931-f370d4c6279e","ios":"levelo://app?vid=da30903d-945e-4048-9931-f370d4c6279e"},"vehicle_type_id":"4","last_reported":1726855933,"current_range_meters":36800,"station_id":"ce4bhmp2rcd13ifvqgog","pricing_plan_id":"cebpf4jnsgd1na2vs0mg"},{"bike_id":"3859f426-b9ba-46ad-8e45-21c0fdccc993","system_id":"levelo_inurba_marseille","lat":43.26792,"lon":5.39416,"is_reserved":false,"is_disabled":false,"rental_uris":{"android":"levelo://app?vid=3859f426-b9ba-46ad-8e45-21c0fdccc993","ios":"levelo://app?vid=3859f426-b9ba-46ad-8e45-21c0fdccc993"},"vehicle_type_id":"4","last_reported":1726855933,"current_range_meters":38400,"station_id":"ce4bhh12rcd13ifvqfg0","pricing_plan_id":"cebpf4jnsgd1na2vs0mg"},{"bike_id":"acfd38db-e93b-4b83-9afa-11e828273dc3","system_id":"levelo_inurba_marseille","lat":43.33022,"lon":5.39038,"is_reserved":false,"is_disabled":false,"rental_uris":{"android":"levelo://app?vid=acfd38db-e93b-4b83-9afa-11e828273dc3","ios":"levelo://app?vid=acfd38db-e93b-4b83-9afa-11e828273dc3"},"vehicle_type_id":"4","last_reported":1726855933,"current_range_meters":6400,"station_id":"ce4bhr92rcd13ifvqhrg","pricing_plan_id":"cebpf4jnsgd1na2vs0mg"},{"bike_id":"91d3179b-f594-478d-88ef-0e7917da756a","system_id":"levelo_inurba_marseille","lat":43.313171,"lon":5.396836,"is_reserved":false,"is_disabled":false,"rental_uris":{"android":"levelo://app?vid=91d3179b-f594-478d-88ef-0e7917da756a","ios":"levelo://app?vid=91d3179b-f594-478d-88ef-0e7917da756a"},"vehicle_type_id":"4","last_reported":1726855933,"current_range_meters":13600,"station_id":"ce4bgvp2rcd13ifvqcu0","pricing_plan_id":"cebpf4jnsgd1na2vs0mg"},{"bike_id":"bf6a0df4-e95b-4dae-8389-1b46575b78e1","system_id":"levelo_inurba_marseille","lat":43.29257,"lon":5.38435,"is_reserved":false,"is_disabled":false,"rental_uris":{"android":"levelo://app?vid=bf6a0df4-e95b-4dae-8389-1b46575b78e1","ios":"levelo://app?vid=bf6a0df4-e95b-4dae-8389-1b46575b78e1"},"vehicle_type_id":"4","last_reported":1726855933,"current_range_meters":38800,"station_id":"ce4bh692rcd13ifvqea0","pricing_plan_id":"cebpf4jnsgd1na2vs0mg"},{"bike_id":"4e5615d3-4be2-4c59-aac3-e9ba26fb9b97","system_id":"levelo_inurba_marseille","lat":43.28565,"lon":5.39498,"is_reserved":false,"is_disabled":false,"rental_uris":{"android":"levelo://app?vid=4e5615d3-4be2-4c59-aac3-e9ba26fb9b97","ios":"levelo://app?vid=4e5615d3-4be2-4c59-aac3-e9ba26fb9b97"},"vehicle_type_id":"4","last_reported":1726855933,"current_range_meters":34000,"station_id":"ce4bh292rcd13ifvqdg0","pricing_plan_id":"cebpf4jnsgd1na2vs0mg"},{"bike_id":"70c0c3d6-4e0c-404c-ac90-663ade37856b","system_id":"levelo_inurba_marseille","lat":43.24169,"lon":5.364,"is_reserved":false,"is_disabled":false,"rental_uris":{"android":"levelo://app?vid=70c0c3d6-4e0c-404c-ac90-663ade37856b","ios":"levelo://app?vid=70c0c3d6-4e0c-404c-ac90-663ade37856b"},"vehicle_type_id":"4","last_reported":1726855933,"current_range_meters":20400,"station_id":"cpo36qri1sfpv3e86is0","pricing_plan_id":"cebpf4jnsgd1na2vs0mg"},{"bike_id":"85b6714c-61fd-4103-9cf5-2d17f8dc1a70","system_id":"levelo_inurba_marseille","lat":43.29041,"lon":5.39976,"is_reserved":false,"is_disabled":false,"rental_uris":{"android":"levelo://app?vid=85b6714c-61fd-4103-9cf5-2d17f8dc1a70","ios":"levelo://app?vid=85b6714c-61fd-4103-9cf5-2d17f8dc1a70"},"vehicle_type_id":"4","last_reported":1726855933,"current_range_meters":38000,"station_id":"ce4bh392rcd13ifvqdm0","pricing_plan_id":"cebpf4jnsgd1na2vs0mg"},{"bike_id":"8599327e-7a38-42cc-bae8-5460e681ba0a","system_id":"levelo_inurba_marseille","lat":43.31752,"lon":5.39026,"is_reserved":false,"is_disabled":false,"rental_uris":{"android":"levelo://app?vid=8599327e-7a38-42cc-bae8-5460e681ba0a","ios":"levelo://app?vid=8599327e-7a38-42cc-bae8-5460e681ba0a"},"vehicle_type_id":"4","last_reported":1726855933,"current_range_meters":38800,"station_id":"ce4bhqp2rcd13ifvqhng","pricing_plan_id":"cebpf4jnsgd1na2vs0mg"},{"bike_id":"665a68c7-15de-409f-9953-d36742dd89e0","system_id":"levelo_inurba_marseille","lat":43.286842,"lon":5.386795,"is_reserved":false,"is_disabled":false,"rental_uris":{"android":"levelo://app?vid=665a68c7-15de-409f-9953-d36742dd89e0","ios":"levelo://app?vid=665a68c7-15de-409f-9953-d36742dd89e0"},"vehicle_type_id":"4","last_reported":1726855933,"current_range_meters":35600,"station_id":"ce4bh492rcd13ifvqdug","pricing_plan_id":"cebpf4jnsgd1na2vs0mg"},{"bike_id":"82d7f277-ce8e-4e9c-b700-49a41a0c84d0","system_id":"levelo_inurba_marseille","lat":43.298657,"lon":5.397413,"is_reserved":false,"is_disabled":false,"rental_uris":{"android":"levelo://app?vid=82d7f277-ce8e-4e9c-b700-49a41a0c84d0","ios":"levelo://app?vid=82d7f277-ce8e-4e9c-b700-49a41a0c84d0"},"vehicle_type_id":"4","last_reported":1726855933,"current_range_meters":38000,"station_id":"ce4bh0h2rcd13ifvqd50","pricing_plan_id":"cebpf4jnsgd1na2vs0mg"},{"bike_id":"edfb1ff5-b81b-4225-8da9-100a9115b1e3","system_id":"levelo_inurba_marseille","lat":43.29735,"lon":5.36561,"is_reserved":false,"is_disabled":false,"rental_uris":{"android":"levelo://app?vid=edfb1ff5-b81b-4225-8da9-100a9115b1e3","ios":"levelo://app?vid=edfb1ff5-b81b-4225-8da9-100a9115b1e3"},"vehicle_type_id":"4","last_reported":1726855933,"current_range_meters":12000,"station_id":"","pricing_plan_id":"cebpf4jnsgd1na2vs0mg"},{"bike_id":"15e3060d-1cfb-481c-9f48-257a94bd2c2a","system_id":"levelo_inurba_marseille","lat":43.32477,"lon":5.40757,"is_reserved":false,"is_disabled":false,"rental_uris":{"android":"levelo://app?vid=15e3060d-1cfb-481c-9f48-257a94bd2c2a","ios":"levelo://app?vid=15e3060d-1cfb-481c-9f48-257a94bd2c2a"},"vehicle_type_id":"4","last_reported":1726855933,"current_range_meters":36000,"station_id":"","pricing_plan_id":"cebpf4jnsgd1na2vs0mg"},{"bike_id":"c8558a3e-0779-4454-9c3b-d1ee2706fdca","system_id":"levelo_inurba_marseille","lat":43.31713,"lon":5.43706,"is_reserved":false,"is_disabled":false,"rental_uris":{"android":"levelo://app?vid=c8558a3e-0779-4454-9c3b-d1ee2706fdca","ios":"levelo://app?vid=c8558a3e-0779-4454-9c3b-d1ee2706fdca"},"vehicle_type_id":"4","last_reported":1726855933,"current_range_meters":38800,"station_id":"ce4bhp92rcd13ifvqhcg","pricing_plan_id":"cebpf4jnsgd1na2vs0mg"},{"bike_id":"9a7554e7-fe85-4852-a448-30d3e7fd07d7","system_id":"levelo_inurba_marseille","lat":43.23149,"lon":5.43716,"is_reserved":false,"is_disabled":false,"rental_uris":{"android":"levelo://app?vid=9a7554e7-fe85-4852-a448-30d3e7fd07d7","ios":"levelo://app?vid=9a7554e7-fe85-4852-a448-30d3e7fd07d7"},"vehicle_type_id":"4","last_reported":1726855933,"current_range_meters":38800,"station_id":"ce4bhmp2rcd13ifvqgog","pricing_plan_id":"cebpf4jnsgd1na2vs0mg"},{"bike_id":"234bfd93-37fc-410c-9a9f-d050b00450ef","system_id":"levelo_inurba_marseille","lat":43.24072,"lon":5.37762,"is_reserved":false,"is_disabled":false,"rental_uris":{"android":"levelo://app?vid=234bfd93-37fc-410c-9a9f-d050b00450ef","ios":"levelo://app?vid=234bfd93-37fc-410c-9a9f-d050b00450ef"},"vehicle_type_id":"4","last_reported":1726855933,"current_range_meters":3600,"station_id":"ce4bhnp2rcd13ifvqgvg","pricing_plan_id":"cebpf4jnsgd1na2vs0mg"},{"bike_id":"7e71093c-aebf-4563-b68b-a6efd02f6553","system_id":"levelo_inurba_marseille","lat":43.29419,"lon":5.38632,"is_reserved":false,"is_disabled":false,"rental_uris":{"android":"levelo://app?vid=7e71093c-aebf-4563-b68b-a6efd02f6553","ios":"levelo://app?vid=7e71093c-aebf-4563-b68b-a6efd02f6553"},"vehicle_type_id":"4","last_reported":1726855933,"current_range_meters":20000,"station_id":"ce4bh2h2rcd13ifvqdh0","pricing_plan_id":"cebpf4jnsgd1na2vs0mg"},{"bike_id":"e4cd288b-58e9-4c73-81ff-0e54d332441e","system_id":"levelo_inurba_marseille","lat":43.33021,"lon":5.39045,"is_reserved":false,"is_disabled":false,"rental_uris":{"android":"levelo://app?vid=e4cd288b-58e9-4c73-81ff-0e54d332441e","ios":"levelo://app?vid=e4cd288b-58e9-4c73-81ff-0e54d332441e"},"vehicle_type_id":"4","last_reported":1726855933,"current_range_meters":20400,"station_id":"ce4bhr92rcd13ifvqhrg","pricing_plan_id":"cebpf4jnsgd1na2vs0mg"},{"bike_id":"b4d8cc2f-08fa-447c-98aa-3fb508700768","system_id":"levelo_inurba_marseille","lat":43.28963,"lon":5.35787,"is_reserved":false,"is_disabled":false,"rental_uris":{"android":"levelo://app?vid=b4d8cc2f-08fa-447c-98aa-3fb508700768","ios":"levelo://app?vid=b4d8cc2f-08fa-447c-98aa-3fb508700768"},"vehicle_type_id":"4","last_reported":1726855933,"current_range_meters":11600,"station_id":"","pricing_plan_id":"cebpf4jnsgd1na2vs0mg"},{"bike_id":"51d0b4c6-5fad-4b04-96c7-224cbaf3018a","system_id":"levelo_inurba_marseille","lat":43.26493,"lon":5.39547,"is_reserved":false,"is_disabled":false,"rental_uris":{"android":"levelo://app?vid=51d0b4c6-5fad-4b04-96c7-224cbaf3018a","ios":"levelo://app?vid=51d0b4c6-5fad-4b04-96c7-224cbaf3018a"},"vehicle_type_id":"4","last_reported":1726855933,"current_range_meters":10000,"station_id":"ce4bhi12rcd13ifvqfq0","pricing_plan_id":"cebpf4jnsgd1na2vs0mg"},{"bike_id":"53b0d88c-3ddb-4e2e-a1d5-9ea3b0a5c6d1","system_id":"levelo_inurba_marseille","lat":43.31328,"lon":5.39702,"is_reserved":false,"is_disabled":false,"rental_uris":{"android":"levelo://app?vid=53b0d88c-3ddb-4e2e-a1d5-9ea3b0a5c6d1","ios":"levelo://app?vid=53b0d88c-3ddb-4e2e-a1d5-9ea3b0a5c6d1"},"vehicle_type_id":"4","last_reported":1726855933,"current_range_meters":30000,"station_id":"ce4bgvp2rcd13ifvqcu0","pricing_plan_id":"cebpf4jnsgd1na2vs0mg"},{"bike_id":"ca97d4b7-ec02-45c7-9280-bc772bfad916","system_id":"levelo_inurba_marseille","lat":43.28149,"lon":5.42653,"is_reserved":false,"is_disabled":false,"rental_uris":{"android":"levelo://app?vid=ca97d4b7-ec02-45c7-9280-bc772bfad916","ios":"levelo://app?vid=ca97d4b7-ec02-45c7-9280-bc772bfad916"},"vehicle_type_id":"4","last_reported":1726855933,"current_range_meters":37600,"station_id":"ce4bhnh2rcd13ifvqgug","pricing_plan_id":"cebpf4jnsgd1na2vs0mg"},{"bike_id":"a662793f-6068-46a4-a560-d9c3d0f98ce6","system_id":"levelo_inurba_marseille","lat":43.29318,"lon":5.41154,"is_reserved":false,"is_disabled":false,"rental_uris":{"android":"levelo://app?vid=a662793f-6068-46a4-a560-d9c3d0f98ce6","ios":"levelo://app?vid=a662793f-6068-46a4-a560-d9c3d0f98ce6"},"vehicle_type_id":"4","last_reported":1726855933,"current_range_meters":29600,"station_id":"ce4bh192rcd13ifvqdc0","pricing_plan_id":"cebpf4jnsgd1na2vs0mg"},{"bike_id":"703b0261-13de-4e0d-bed8-61815b02ebda","system_id":"levelo_inurba_marseille","lat":43.28265,"lon":5.35069,"is_reserved":false,"is_disabled":false,"rental_uris":{"android":"levelo://app?vid=703b0261-13de-4e0d-bed8-61815b02ebda","ios":"levelo://app?vid=703b0261-13de-4e0d-bed8-61815b02ebda"},"vehicle_type_id":"4","last_reported":1726855933,"current_range_meters":8400,"station_id":"ce4bhbp2rcd13ifvqerg","pricing_plan_id":"cebpf4jnsgd1na2vs0mg"},{"bike_id":"8c81d612-2a8f-4e3e-a586-bf5719ba1cd5","system_id":"levelo_inurba_marseille","lat":43.299652,"lon":5.384825,"is_reserved":false,"is_disabled":false,"rental_uris":{"android":"levelo://app?vid=8c81d612-2a8f-4e3e-a586-bf5719ba1cd5","ios":"levelo://app?vid=8c81d612-2a8f-4e3e-a586-bf5719ba1cd5"},"vehicle_type_id":"4","last_reported":1726855933,"current_range_meters":36800,"station_id":"ce4bgj92rcd13ifvqbd0","pricing_plan_id":"cebpf4jnsgd1na2vs0mg"},{"bike_id":"050f7360-ba49-437d-a072-e514dfd8e053","system_id":"levelo_inurba_marseille","lat":43.29582,"lon":5.36746,"is_reserved":false,"is_disabled":false,"rental_uris":{"android":"levelo://app?vid=050f7360-ba49-437d-a072-e514dfd8e053","ios":"levelo://app?vid=050f7360-ba49-437d-a072-e514dfd8e053"},"vehicle_type_id":"4","last_reported":1726855933,"current_range_meters":34000,"station_id":"ce4bgph2rcd13ifvqc2g","pricing_plan_id":"cebpf4jnsgd1na2vs0mg"},{"bike_id":"5840a821-7b4a-4179-8856-92a74917e83c","system_id":"levelo_inurba_marseille","lat":43.25004,"lon":5.38932,"is_reserved":false,"is_disabled":false,"rental_uris":{"android":"levelo://app?vid=5840a821-7b4a-4179-8856-92a74917e83c","ios":"levelo://app?vid=5840a821-7b4a-4179-8856-92a74917e83c"},"vehicle_type_id":"4","last_reported":1726855933,"current_range_meters":33600,"station_id":"ce4bhgp2rcd13ifvqfd0","pricing_plan_id":"cebpf4jnsgd1na2vs0mg"},{"bike_id":"d4642f17-1257-4932-99eb-07162a326286","system_id":"levelo_inurba_marseille","lat":43.2926,"lon":5.38445,"is_reserved":false,"is_disabled":false,"rental_uris":{"android":"levelo://app?vid=d4642f17-1257-4932-99eb-07162a326286","ios":"levelo://app?vid=d4642f17-1257-4932-99eb-07162a326286"},"vehicle_type_id":"4","last_reported":1726855933,"current_range_meters":5600,"station_id":"ce4bh692rcd13ifvqea0","pricing_plan_id":"cebpf4jnsgd1na2vs0mg"},{"bike_id":"5419b1bf-d37c-4076-a34c-52ede101758e","system_id":"levelo_inurba_marseille","lat":43.337444,"lon":5.374475,"is_reserved":false,"is_disabled":false,"rental_uris":{"android":"levelo://app?vid=5419b1bf-d37c-4076-a34c-52ede101758e","ios":"levelo://app?vid=5419b1bf-d37c-4076-a34c-52ede101758e"},"vehicle_type_id":"4","last_reported":1726855933,"current_range_meters":36000,"station_id":"","pricing_plan_id":"cebpf4jnsgd1na2vs0mg"},{"bike_id":"97863820-4339-4f87-ad75-690b36cae799","system_id":"levelo_inurba_marseille","lat":43.29607,"lon":5.3772,"is_reserved":false,"is_disabled":false,"rental_uris":{"android":"levelo://app?vid=97863820-4339-4f87-ad75-690b36cae799","ios":"levelo://app?vid=97863820-4339-4f87-ad75-690b36cae799"},"vehicle_type_id":"4","last_reported":1726855933,"current_range_meters":38800,"station_id":"ce4bgi92rcd13ifvqb90","pricing_plan_id":"cebpf4jnsgd1na2vs0mg"},{"bike_id":"9fd59997-0deb-43b4-86f4-94ad67ec3995","system_id":"levelo_inurba_marseille","lat":43.29892,"lon":5.436702,"is_reserved":false,"is_disabled":false,"rental_uris":{"android":"levelo://app?vid=9fd59997-0deb-43b4-86f4-94ad67ec3995","ios":"levelo://app?vid=9fd59997-0deb-43b4-86f4-94ad67ec3995"},"vehicle_type_id":"4","last_reported":1726855933,"current_range_meters":5600,"station_id":"ce4bh112rcd13ifvqda0","pricing_plan_id":"cebpf4jnsgd1na2vs0mg"},{"bike_id":"f7575c27-994c-406f-8323-578b38c16d91","system_id":"levelo_inurba_marseille","lat":43.2874,"lon":5.36533,"is_reserved":false,"is_disabled":false,"rental_uris":{"android":"levelo://app?vid=f7575c27-994c-406f-8323-578b38c16d91","ios":"levelo://app?vid=f7575c27-994c-406f-8323-578b38c16d91"},"vehicle_type_id":"4","last_reported":1726855933,"current_range_meters":34000,"station_id":"","pricing_plan_id":"cebpf4jnsgd1na2vs0mg"},{"bike_id":"3305a7fe-5158-4980-88fa-5e5dcad5d1f5","system_id":"levelo_inurba_marseille","lat":43.294129,"lon":5.386231,"is_reserved":false,"is_disabled":false,"rental_uris":{"android":"levelo://app?vid=3305a7fe-5158-4980-88fa-5e5dcad5d1f5","ios":"levelo://app?vid=3305a7fe-5158-4980-88fa-5e5dcad5d1f5"},"vehicle_type_id":"4","last_reported":1726855933,"current_range_meters":6400,"station_id":"ce4bh612rcd13ifvqe6g","pricing_plan_id":"cebpf4jnsgd1na2vs0mg"},{"bike_id":"598304d3-f8d3-448e-8a71-06db80bfb9e1","system_id":"levelo_inurba_marseille","lat":43.305328,"lon":5.365145,"is_reserved":false,"is_disabled":false,"rental_uris":{"android":"levelo://app?vid=598304d3-f8d3-448e-8a71-06db80bfb9e1","ios":"levelo://app?vid=598304d3-f8d3-448e-8a71-06db80bfb9e1"},"vehicle_type_id":"4","last_reported":1726855933,"current_range_meters":8800,"station_id":"","pricing_plan_id":"cebpf4jnsgd1na2vs0mg"},{"bike_id":"5235b9bc-7af4-4558-bb36-c206d0035e15","system_id":"levelo_inurba_marseille","lat":43.289063,"lon":5.384069,"is_reserved":false,"is_disabled":false,"rental_uris":{"android":"levelo://app?vid=5235b9bc-7af4-4558-bb36-c206d0035e15","ios":"levelo://app?vid=5235b9bc-7af4-4558-bb36-c206d0035e15"},"vehicle_type_id":"4","last_reported":1726855933,"current_range_meters":19600,"station_id":"ce4bh612rcd13ifvqe6g","pricing_plan_id":"cebpf4jnsgd1na2vs0mg"},{"bike_id":"5899dc76-4576-41fc-91db-67e269faacc4","system_id":"levelo_inurba_marseille","lat":43.3175,"lon":5.39011,"is_reserved":false,"is_disabled":false,"rental_uris":{"android":"levelo://app?vid=5899dc76-4576-41fc-91db-67e269faacc4","ios":"levelo://app?vid=5899dc76-4576-41fc-91db-67e269faacc4"},"vehicle_type_id":"4","last_reported":1726855933,"current_range_meters":40000,"station_id":"ce4bhqp2rcd13ifvqhng","pricing_plan_id":"cebpf4jnsgd1na2vs0mg"},{"bike_id":"9203739a-774a-4b9c-832c-d982cfd4c7c1","system_id":"levelo_inurba_marseille","lat":43.32361,"lon":5.38981,"is_reserved":false,"is_disabled":false,"rental_uris":{"android":"levelo://app?vid=9203739a-774a-4b9c-832c-d982cfd4c7c1","ios":"levelo://app?vid=9203739a-774a-4b9c-832c-d982cfd4c7c1"},"vehicle_type_id":"4","last_reported":1726855933,"current_range_meters":9600,"station_id":"","pricing_plan_id":"cebpf4jnsgd1na2vs0mg"},{"bike_id":"6e2fd8fb-799c-468d-a60b-38d2bf81aa37","system_id":"levelo_inurba_marseille","lat":43.23959,"lon":5.36633,"is_reserved":false,"is_disabled":false,"rental_uris":{"android":"levelo://app?vid=6e2fd8fb-799c-468d-a60b-38d2bf81aa37","ios":"levelo://app?vid=6e2fd8fb-799c-468d-a60b-38d2bf81aa37"},"vehicle_type_id":"4","last_reported":1726855933,"current_range_meters":6800,"station_id":"ce4bhi12rcd13ifvqfp0","pricing_plan_id":"cebpf4jnsgd1na2vs0mg"},{"bike_id":"f0d0f194-bfcd-4377-b45c-0e66a22c749d","system_id":"levelo_inurba_marseille","lat":43.24543,"lon":5.39525,"is_reserved":false,"is_disabled":false,"rental_uris":{"android":"levelo://app?vid=f0d0f194-bfcd-4377-b45c-0e66a22c749d","ios":"levelo://app?vid=f0d0f194-bfcd-4377-b45c-0e66a22c749d"},"vehicle_type_id":"4","last_reported":1726855933,"current_range_meters":32000,"station_id":"ce4bhlp2rcd13ifvqgjg","pricing_plan_id":"cebpf4jnsgd1na2vs0mg"},{"bike_id":"fb730c85-cef2-43fb-877c-de273059500e","system_id":"levelo_inurba_marseille","lat":43.31755,"lon":5.3902,"is_reserved":false,"is_disabled":false,"rental_uris":{"android":"levelo://app?vid=fb730c85-cef2-43fb-877c-de273059500e","ios":"levelo://app?vid=fb730c85-cef2-43fb-877c-de273059500e"},"vehicle_type_id":"4","last_reported":1726855933,"current_range_meters":38800,"station_id":"ce4bhqp2rcd13ifvqhng","pricing_plan_id":"cebpf4jnsgd1na2vs0mg"},{"bike_id":"bdfe886e-96ed-4cf7-b4d0-d4115a63a67e","system_id":"levelo_inurba_marseille","lat":43.29188,"lon":5.35814,"is_reserved":false,"is_disabled":false,"rental_uris":{"android":"levelo://app?vid=bdfe886e-96ed-4cf7-b4d0-d4115a63a67e","ios":"levelo://app?vid=bdfe886e-96ed-4cf7-b4d0-d4115a63a67e"},"vehicle_type_id":"4","last_reported":1726855933,"current_range_meters":8800,"station_id":"ce4bhb12rcd13ifvqel0","pricing_plan_id":"cebpf4jnsgd1na2vs0mg"},{"bike_id":"770c4546-c9d5-493a-97b3-94eaeca25111","system_id":"levelo_inurba_marseille","lat":43.32482,"lon":5.36579,"is_reserved":false,"is_disabled":false,"rental_uris":{"android":"levelo://app?vid=770c4546-c9d5-493a-97b3-94eaeca25111","ios":"levelo://app?vid=770c4546-c9d5-493a-97b3-94eaeca25111"},"vehicle_type_id":"4","last_reported":1726855933,"current_range_meters":22400,"station_id":"ce4bhs12rcd13ifvqhvg","pricing_plan_id":"cebpf4jnsgd1na2vs0mg"},{"bike_id":"04d451fb-62c9-4faa-be40-97225a33ce8e","system_id":"levelo_inurba_marseille","lat":43.286591,"lon":5.383219,"is_reserved":false,"is_disabled":false,"rental_uris":{"android":"levelo://app?vid=04d451fb-62c9-4faa-be40-97225a33ce8e","ios":"levelo://app?vid=04d451fb-62c9-4faa-be40-97225a33ce8e"},"vehicle_type_id":"4","last_reported":1726855933,"current_range_meters":26800,"station_id":"","pricing_plan_id":"cebpf4jnsgd1na2vs0mg"},{"bike_id":"e1b79ad2-9f21-48f7-816d-5d7dda34d738","system_id":"levelo_inurba_marseille","lat":43.27368,"lon":5.36259,"is_reserved":false,"is_disabled":false,"rental_uris":{"android":"levelo://app?vid=e1b79ad2-9f21-48f7-816d-5d7dda34d738","ios":"levelo://app?vid=e1b79ad2-9f21-48f7-816d-5d7dda34d738"},"vehicle_type_id":"4","last_reported":1726855933,"current_range_meters":22000,"station_id":"ce4bhbh2rcd13ifvqeo0","pricing_plan_id":"cebpf4jnsgd1na2vs0mg"},{"bike_id":"40b30bf1-df0a-47fd-bf93-8f163c982ffe","system_id":"levelo_inurba_marseille","lat":43.32289,"lon":5.38271,"is_reserved":false,"is_disabled":false,"rental_uris":{"android":"levelo://app?vid=40b30bf1-df0a-47fd-bf93-8f163c982ffe","ios":"levelo://app?vid=40b30bf1-df0a-47fd-bf93-8f163c982ffe"},"vehicle_type_id":"4","last_reported":1726855933,"current_range_meters":36000,"station_id":"ce4bhr12rcd13ifvqhqg","pricing_plan_id":"cebpf4jnsgd1na2vs0mg"},{"bike_id":"bd248bc7-a1a6-4c83-92d3-231a636890e1","system_id":"levelo_inurba_marseille","lat":43.30798,"lon":5.4353,"is_reserved":false,"is_disabled":false,"rental_uris":{"android":"levelo://app?vid=bd248bc7-a1a6-4c83-92d3-231a636890e1","ios":"levelo://app?vid=bd248bc7-a1a6-4c83-92d3-231a636890e1"},"vehicle_type_id":"4","last_reported":1726855933,"current_range_meters":36800,"station_id":"ce4bhph2rcd13ifvqheg","pricing_plan_id":"cebpf4jnsgd1na2vs0mg"},{"bike_id":"604c9531-be4f-4974-bfe2-bd7828d7386f","system_id":"levelo_inurba_marseille","lat":43.29895,"lon":5.43686,"is_reserved":false,"is_disabled":false,"rental_uris":{"android":"levelo://app?vid=604c9531-be4f-4974-bfe2-bd7828d7386f","ios":"levelo://app?vid=604c9531-be4f-4974-bfe2-bd7828d7386f"},"vehicle_type_id":"4","last_reported":1726855933,"current_range_meters":27200,"station_id":"ce4bhpp2rcd13ifvqhfg","pricing_plan_id":"cebpf4jnsgd1na2vs0mg"},{"bike_id":"b0008ea5-6e23-4363-abd2-15eab2b917a3","system_id":"levelo_inurba_marseille","lat":43.269531,"lon":5.386324,"is_reserved":false,"is_disabled":false,"rental_uris":{"android":"levelo://app?vid=b0008ea5-6e23-4363-abd2-15eab2b917a3","ios":"levelo://app?vid=b0008ea5-6e23-4363-abd2-15eab2b917a3"},"vehicle_type_id":"4","last_reported":1726855933,"current_range_meters":12400,"station_id":"ce4bhh92rcd13ifvqfh0","pricing_plan_id":"cebpf4jnsgd1na2vs0mg"},{"bike_id":"d36deb4d-57ce-4d28-9ccd-27d988ca4d6a","system_id":"levelo_inurba_marseille","lat":43.30297,"lon":5.3921,"is_reserved":false,"is_disabled":false,"rental_uris":{"android":"levelo://app?vid=d36deb4d-57ce-4d28-9ccd-27d988ca4d6a","ios":"levelo://app?vid=d36deb4d-57ce-4d28-9ccd-27d988ca4d6a"},"vehicle_type_id":"4","last_reported":1726855933,"current_range_meters":26800,"station_id":"ce4bgkh2rcd13ifvqbk0","pricing_plan_id":"cebpf4jnsgd1na2vs0mg"},{"bike_id":"ac7d9b45-ee2a-404a-a3f5-82573bc089e0","system_id":"levelo_inurba_marseille","lat":43.28466,"lon":5.3588,"is_reserved":false,"is_disabled":false,"rental_uris":{"android":"levelo://app?vid=ac7d9b45-ee2a-404a-a3f5-82573bc089e0","ios":"levelo://app?vid=ac7d9b45-ee2a-404a-a3f5-82573bc089e0"},"vehicle_type_id":"4","last_reported":1726855933,"current_range_meters":32000,"station_id":"ce4bhah2rcd13ifvqei0","pricing_plan_id":"cebpf4jnsgd1na2vs0mg"},{"bike_id":"3a5c047a-0e6a-4426-8a83-90b5a77ff6b4","system_id":"levelo_inurba_marseille","lat":43.2396,"lon":5.36632,"is_reserved":false,"is_disabled":false,"rental_uris":{"android":"levelo://app?vid=3a5c047a-0e6a-4426-8a83-90b5a77ff6b4","ios":"levelo://app?vid=3a5c047a-0e6a-4426-8a83-90b5a77ff6b4"},"vehicle_type_id":"4","last_reported":1726855933,"current_range_meters":8400,"station_id":"ce4bhi12rcd13ifvqfp0","pricing_plan_id":"cebpf4jnsgd1na2vs0mg"},{"bike_id":"e5b107f6-bfca-4c71-b7f0-138f6abcbd25","system_id":"levelo_inurba_marseille","lat":43.27371,"lon":5.36262,"is_reserved":false,"is_disabled":false,"rental_uris":{"android":"levelo://app?vid=e5b107f6-bfca-4c71-b7f0-138f6abcbd25","ios":"levelo://app?vid=e5b107f6-bfca-4c71-b7f0-138f6abcbd25"},"vehicle_type_id":"4","last_reported":1726855933,"current_range_meters":10000,"station_id":"ce4bhbh2rcd13ifvqeo0","pricing_plan_id":"cebpf4jnsgd1na2vs0mg"},{"bike_id":"f99ba06d-22d4-4e79-b26c-bd230edbc0ec","system_id":"levelo_inurba_marseille","lat":43.27808,"lon":5.40708,"is_reserved":false,"is_disabled":false,"rental_uris":{"android":"levelo://app?vid=f99ba06d-22d4-4e79-b26c-bd230edbc0ec","ios":"levelo://app?vid=f99ba06d-22d4-4e79-b26c-bd230edbc0ec"},"vehicle_type_id":"4","last_reported":1726855933,"current_range_meters":26000,"station_id":"ce4bhnh2rcd13ifvqgtg","pricing_plan_id":"cebpf4jnsgd1na2vs0mg"},{"bike_id":"5c48e6b5-512d-441e-9c67-e1754091d5d0","system_id":"levelo_inurba_marseille","lat":43.24999,"lon":5.38938,"is_reserved":false,"is_disabled":false,"rental_uris":{"android":"levelo://app?vid=5c48e6b5-512d-441e-9c67-e1754091d5d0","ios":"levelo://app?vid=5c48e6b5-512d-441e-9c67-e1754091d5d0"},"vehicle_type_id":"4","last_reported":1726855933,"current_range_meters":22000,"station_id":"ce4bhgp2rcd13ifvqfd0","pricing_plan_id":"cebpf4jnsgd1na2vs0mg"},{"bike_id":"c7fdb6e7-0be7-4cec-809d-2dd794ade93e","system_id":"levelo_inurba_marseille","lat":43.30787,"lon":5.37663,"is_reserved":false,"is_disabled":false,"rental_uris":{"android":"levelo://app?vid=c7fdb6e7-0be7-4cec-809d-2dd794ade93e","ios":"levelo://app?vid=c7fdb6e7-0be7-4cec-809d-2dd794ade93e"},"vehicle_type_id":"4","last_reported":1726855933,"current_range_meters":22400,"station_id":"ce4bgv92rcd13ifvqcq0","pricing_plan_id":"cebpf4jnsgd1na2vs0mg"},{"bike_id":"2597adc7-762f-4ba2-8fda-0dcbb84c5e6a","system_id":"levelo_inurba_marseille","lat":43.29513,"lon":5.39403,"is_reserved":false,"is_disabled":false,"rental_uris":{"android":"levelo://app?vid=2597adc7-762f-4ba2-8fda-0dcbb84c5e6a","ios":"levelo://app?vid=2597adc7-762f-4ba2-8fda-0dcbb84c5e6a"},"vehicle_type_id":"4","last_reported":1726855933,"current_range_meters":30000,"station_id":"ce4bh292rcd13ifvqdf0","pricing_plan_id":"cebpf4jnsgd1na2vs0mg"},{"bike_id":"8273c267-5219-4186-8f32-c3e55203a7ac","system_id":"levelo_inurba_marseille","lat":43.2397,"lon":5.39709,"is_reserved":false,"is_disabled":false,"rental_uris":{"android":"levelo://app?vid=8273c267-5219-4186-8f32-c3e55203a7ac","ios":"levelo://app?vid=8273c267-5219-4186-8f32-c3e55203a7ac"},"vehicle_type_id":"4","last_reported":1726855933,"current_range_meters":8800,"station_id":"","pricing_plan_id":"cebpf4jnsgd1na2vs0mg"},{"bike_id":"cb7d261f-e1fa-449d-9564-c438ed947949","system_id":"levelo_inurba_marseille","lat":43.28935,"lon":5.3664,"is_reserved":false,"is_disabled":false,"rental_uris":{"android":"levelo://app?vid=cb7d261f-e1fa-449d-9564-c438ed947949","ios":"levelo://app?vid=cb7d261f-e1fa-449d-9564-c438ed947949"},"vehicle_type_id":"4","last_reported":1726855933,"current_range_meters":2800,"station_id":"ce4bhap2rcd13ifvqek0","pricing_plan_id":"cebpf4jnsgd1na2vs0mg"},{"bike_id":"7148ff3a-ef26-44ac-a33f-cb0767045e4d","system_id":"levelo_inurba_marseille","lat":43.23146,"lon":5.43715,"is_reserved":false,"is_disabled":false,"rental_uris":{"android":"levelo://app?vid=7148ff3a-ef26-44ac-a33f-cb0767045e4d","ios":"levelo://app?vid=7148ff3a-ef26-44ac-a33f-cb0767045e4d"},"vehicle_type_id":"4","last_reported":1726855933,"current_range_meters":37600,"station_id":"ce4bhmp2rcd13ifvqgog","pricing_plan_id":"cebpf4jnsgd1na2vs0mg"},{"bike_id":"af135eb6-084e-4310-8f38-5fdea9dc1740","system_id":"levelo_inurba_marseille","lat":43.29532,"lon":5.38553,"is_reserved":false,"is_disabled":false,"rental_uris":{"android":"levelo://app?vid=af135eb6-084e-4310-8f38-5fdea9dc1740","ios":"levelo://app?vid=af135eb6-084e-4310-8f38-5fdea9dc1740"},"vehicle_type_id":"4","last_reported":1726855933,"current_range_meters":32400,"station_id":"ce4bgih2rcd13ifvqba0","pricing_plan_id":"cebpf4jnsgd1na2vs0mg"},{"bike_id":"3e07e410-9739-42b0-8a20-46ded2ef8d77","system_id":"levelo_inurba_marseille","lat":43.27068,"lon":5.42278,"is_reserved":false,"is_disabled":false,"rental_uris":{"android":"levelo://app?vid=3e07e410-9739-42b0-8a20-46ded2ef8d77","ios":"levelo://app?vid=3e07e410-9739-42b0-8a20-46ded2ef8d77"},"vehicle_type_id":"4","last_reported":1726855933,"current_range_meters":22400,"station_id":"ce4bhk92rcd13ifvqgb0","pricing_plan_id":"cebpf4jnsgd1na2vs0mg"},{"bike_id":"bfa59234-54d9-4e2c-b786-97073b160331","system_id":"levelo_inurba_marseille","lat":43.290323,"lon":5.386499,"is_reserved":false,"is_disabled":false,"rental_uris":{"android":"levelo://app?vid=bfa59234-54d9-4e2c-b786-97073b160331","ios":"levelo://app?vid=bfa59234-54d9-4e2c-b786-97073b160331"},"vehicle_type_id":"4","last_reported":1726855933,"current_range_meters":6000,"station_id":"ce4bh4p2rcd13ifvqe0g","pricing_plan_id":"cebpf4jnsgd1na2vs0mg"},{"bike_id":"6c34ccae-402e-40b8-9c0d-2e7f312c8354","system_id":"levelo_inurba_marseille","lat":43.25493,"lon":5.3765,"is_reserved":false,"is_disabled":false,"rental_uris":{"android":"levelo://app?vid=6c34ccae-402e-40b8-9c0d-2e7f312c8354","ios":"levelo://app?vid=6c34ccae-402e-40b8-9c0d-2e7f312c8354"},"vehicle_type_id":"4","last_reported":1726855933,"current_range_meters":30800,"station_id":"ce4bhh12rcd13ifvqff0","pricing_plan_id":"cebpf4jnsgd1na2vs0mg"},{"bike_id":"530a8037-52a9-4abc-9e5e-6f716c50ff1b","system_id":"levelo_inurba_marseille","lat":43.25075,"lon":5.39518,"is_reserved":false,"is_disabled":false,"rental_uris":{"android":"levelo://app?vid=530a8037-52a9-4abc-9e5e-6f716c50ff1b","ios":"levelo://app?vid=530a8037-52a9-4abc-9e5e-6f716c50ff1b"},"vehicle_type_id":"4","last_reported":1726855933,"current_range_meters":39200,"station_id":"ce4bhm12rcd13ifvqgkg","pricing_plan_id":"cebpf4jnsgd1na2vs0mg"},{"bike_id":"8056aa53-c928-4d29-a223-1b6c6fd35978","system_id":"levelo_inurba_marseille","lat":43.31715,"lon":5.43708,"is_reserved":false,"is_disabled":false,"rental_uris":{"android":"levelo://app?vid=8056aa53-c928-4d29-a223-1b6c6fd35978","ios":"levelo://app?vid=8056aa53-c928-4d29-a223-1b6c6fd35978"},"vehicle_type_id":"4","last_reported":1726855933,"current_range_meters":11200,"station_id":"ce4bhp92rcd13ifvqhcg","pricing_plan_id":"cebpf4jnsgd1na2vs0mg"},{"bike_id":"7b9dd459-340b-4978-bfb0-6c163a5263e8","system_id":"levelo_inurba_marseille","lat":43.23193,"lon":5.35554,"is_reserved":false,"is_disabled":false,"rental_uris":{"android":"levelo://app?vid=7b9dd459-340b-4978-bfb0-6c163a5263e8","ios":"levelo://app?vid=7b9dd459-340b-4978-bfb0-6c163a5263e8"},"vehicle_type_id":"4","last_reported":1726855933,"current_range_meters":40000,"station_id":"ce4bhu92rcd13ifvqi70","pricing_plan_id":"cebpf4jnsgd1na2vs0mg"},{"bike_id":"006af271-3da4-48eb-b464-e20a9927797e","system_id":"levelo_inurba_marseille","lat":43.26935,"lon":5.40255,"is_reserved":false,"is_disabled":false,"rental_uris":{"android":"levelo://app?vid=006af271-3da4-48eb-b464-e20a9927797e","ios":"levelo://app?vid=006af271-3da4-48eb-b464-e20a9927797e"},"vehicle_type_id":"4","last_reported":1726855933,"current_range_meters":18800,"station_id":"cjm6bp8fraef2m0cb0m0","pricing_plan_id":"cebpf4jnsgd1na2vs0mg"},{"bike_id":"ebf59978-331a-497b-98a0-a384ac6e1738","system_id":"levelo_inurba_marseille","lat":43.25581,"lon":5.38232,"is_reserved":false,"is_disabled":false,"rental_uris":{"android":"levelo://app?vid=ebf59978-331a-497b-98a0-a384ac6e1738","ios":"levelo://app?vid=ebf59978-331a-497b-98a0-a384ac6e1738"},"vehicle_type_id":"4","last_reported":1726855933,"current_range_meters":22800,"station_id":"ce4bhih2rcd13ifvqfs0","pricing_plan_id":"cebpf4jnsgd1na2vs0mg"},{"bike_id":"15a022f8-27e9-43a6-b87f-8e1f3e0fd779","system_id":"levelo_inurba_marseille","lat":43.31997,"lon":5.38152,"is_reserved":false,"is_disabled":false,"rental_uris":{"android":"levelo://app?vid=15a022f8-27e9-43a6-b87f-8e1f3e0fd779","ios":"levelo://app?vid=15a022f8-27e9-43a6-b87f-8e1f3e0fd779"},"vehicle_type_id":"4","last_reported":1726855933,"current_range_meters":8400,"station_id":"ce4bhr12rcd13ifvqhpg","pricing_plan_id":"cebpf4jnsgd1na2vs0mg"},{"bike_id":"e9b8e590-3bc0-4c22-b946-0db314d5083d","system_id":"levelo_inurba_marseille","lat":43.25855,"lon":5.39903,"is_reserved":false,"is_disabled":false,"rental_uris":{"android":"levelo://app?vid=e9b8e590-3bc0-4c22-b946-0db314d5083d","ios":"levelo://app?vid=e9b8e590-3bc0-4c22-b946-0db314d5083d"},"vehicle_type_id":"4","last_reported":1726855933,"current_range_meters":8800,"station_id":"ce4bhl92rcd13ifvqghg","pricing_plan_id":"cebpf4jnsgd1na2vs0mg"},{"bike_id":"3740c6df-06cd-419b-9ae6-b8d9e5eff548","system_id":"levelo_inurba_marseille","lat":43.2753,"lon":5.40935,"is_reserved":false,"is_disabled":false,"rental_uris":{"android":"levelo://app?vid=3740c6df-06cd-419b-9ae6-b8d9e5eff548","ios":"levelo://app?vid=3740c6df-06cd-419b-9ae6-b8d9e5eff548"},"vehicle_type_id":"4","last_reported":1726855933,"current_range_meters":21600,"station_id":"","pricing_plan_id":"cebpf4jnsgd1na2vs0mg"},{"bike_id":"40ed9b0b-a8eb-4f97-9950-76dc057cd74b","system_id":"levelo_inurba_marseille","lat":43.33022,"lon":5.39046,"is_reserved":false,"is_disabled":false,"rental_uris":{"android":"levelo://app?vid=40ed9b0b-a8eb-4f97-9950-76dc057cd74b","ios":"levelo://app?vid=40ed9b0b-a8eb-4f97-9950-76dc057cd74b"},"vehicle_type_id":"4","last_reported":1726855933,"current_range_meters":10000,"station_id":"ce4bhr92rcd13ifvqhrg","pricing_plan_id":"cebpf4jnsgd1na2vs0mg"},{"bike_id":"3743596c-aa4b-41c2-a09c-22219360e954","system_id":"levelo_inurba_marseille","lat":43.2989,"lon":5.43684,"is_reserved":false,"is_disabled":false,"rental_uris":{"android":"levelo://app?vid=3743596c-aa4b-41c2-a09c-22219360e954","ios":"levelo://app?vid=3743596c-aa4b-41c2-a09c-22219360e954"},"vehicle_type_id":"4","last_reported":1726855933,"current_range_meters":10000,"station_id":"ce4bhpp2rcd13ifvqhfg","pricing_plan_id":"cebpf4jnsgd1na2vs0mg"},{"bike_id":"8230d67a-0651-4706-a9e5-1fbae883af09","system_id":"levelo_inurba_marseille","lat":43.292286,"lon":5.360674,"is_reserved":false,"is_disabled":false,"rental_uris":{"android":"levelo://app?vid=8230d67a-0651-4706-a9e5-1fbae883af09","ios":"levelo://app?vid=8230d67a-0651-4706-a9e5-1fbae883af09"},"vehicle_type_id":"4","last_reported":1726855933,"current_range_meters":3200,"station_id":"ce4bhbh2rcd13ifvqeqg","pricing_plan_id":"cebpf4jnsgd1na2vs0mg"},{"bike_id":"59882401-3864-48cc-b72f-063424b08269","system_id":"levelo_inurba_marseille","lat":43.2841,"lon":5.37523,"is_reserved":false,"is_disabled":false,"rental_uris":{"android":"levelo://app?vid=59882401-3864-48cc-b72f-063424b08269","ios":"levelo://app?vid=59882401-3864-48cc-b72f-063424b08269"},"vehicle_type_id":"4","last_reported":1726855933,"current_range_meters":3200,"station_id":"ce4bh412rcd13ifvqds0","pricing_plan_id":"cebpf4jnsgd1na2vs0mg"},{"bike_id":"9cac3c72-b966-4d5b-a475-ed0152911bb9","system_id":"levelo_inurba_marseille","lat":43.29613,"lon":5.37726,"is_reserved":false,"is_disabled":false,"rental_uris":{"android":"levelo://app?vid=9cac3c72-b966-4d5b-a475-ed0152911bb9","ios":"levelo://app?vid=9cac3c72-b966-4d5b-a475-ed0152911bb9"},"vehicle_type_id":"4","last_reported":1726855933,"current_range_meters":38800,"station_id":"ce4bgi92rcd13ifvqb90","pricing_plan_id":"cebpf4jnsgd1na2vs0mg"},{"bike_id":"184aa16c-e0ec-4208-94dc-b3783231ff10","system_id":"levelo_inurba_marseille","lat":43.25491,"lon":5.37649,"is_reserved":false,"is_disabled":false,"rental_uris":{"android":"levelo://app?vid=184aa16c-e0ec-4208-94dc-b3783231ff10","ios":"levelo://app?vid=184aa16c-e0ec-4208-94dc-b3783231ff10"},"vehicle_type_id":"4","last_reported":1726855933,"current_range_meters":22000,"station_id":"ce4bhh12rcd13ifvqff0","pricing_plan_id":"cebpf4jnsgd1na2vs0mg"},{"bike_id":"9dfe27e5-d738-4684-beb4-f33ffc8ee3e1","system_id":"levelo_inurba_marseille","lat":43.248047,"lon":5.374573,"is_reserved":false,"is_disabled":false,"rental_uris":{"android":"levelo://app?vid=9dfe27e5-d738-4684-beb4-f33ffc8ee3e1","ios":"levelo://app?vid=9dfe27e5-d738-4684-beb4-f33ffc8ee3e1"},"vehicle_type_id":"4","last_reported":1726855933,"current_range_meters":38400,"station_id":"ce4bhgh2rcd13ifvqfb0","pricing_plan_id":"cebpf4jnsgd1na2vs0mg"},{"bike_id":"66847d37-c429-499d-bc08-4915f20207e6","system_id":"levelo_inurba_marseille","lat":43.24386,"lon":5.37065,"is_reserved":false,"is_disabled":false,"rental_uris":{"android":"levelo://app?vid=66847d37-c429-499d-bc08-4915f20207e6","ios":"levelo://app?vid=66847d37-c429-499d-bc08-4915f20207e6"},"vehicle_type_id":"4","last_reported":1726855933,"current_range_meters":8400,"station_id":"ce4bhhh2rcd13ifvqfk0","pricing_plan_id":"cebpf4jnsgd1na2vs0mg"},{"bike_id":"72691ed9-c113-4d6e-b719-0d05b0511a10","system_id":"levelo_inurba_marseille","lat":43.29283,"lon":5.4012,"is_reserved":false,"is_disabled":false,"rental_uris":{"android":"levelo://app?vid=72691ed9-c113-4d6e-b719-0d05b0511a10","ios":"levelo://app?vid=72691ed9-c113-4d6e-b719-0d05b0511a10"},"vehicle_type_id":"4","last_reported":1726855933,"current_range_meters":5600,"station_id":"ce4bh312rcd13ifvqdk0","pricing_plan_id":"cebpf4jnsgd1na2vs0mg"},{"bike_id":"c7b93606-3655-49ed-a67c-15e8c3f11b31","system_id":"levelo_inurba_marseille","lat":43.312714,"lon":5.401767,"is_reserved":false,"is_disabled":false,"rental_uris":{"android":"levelo://app?vid=c7b93606-3655-49ed-a67c-15e8c3f11b31","ios":"levelo://app?vid=c7b93606-3655-49ed-a67c-15e8c3f11b31"},"vehicle_type_id":"4","last_reported":1726855933,"current_range_meters":38800,"station_id":"ce4bh092rcd13ifvqd30","pricing_plan_id":"cebpf4jnsgd1na2vs0mg"},{"bike_id":"2b2a8c95-9550-4462-a8ab-b2ca27da2681","system_id":"levelo_inurba_marseille","lat":43.27945,"lon":5.41054,"is_reserved":false,"is_disabled":false,"rental_uris":{"android":"levelo://app?vid=2b2a8c95-9550-4462-a8ab-b2ca27da2681","ios":"levelo://app?vid=2b2a8c95-9550-4462-a8ab-b2ca27da2681"},"vehicle_type_id":"4","last_reported":1726855933,"current_range_meters":35200,"station_id":"ce4bhnp2rcd13ifvqh0g","pricing_plan_id":"cebpf4jnsgd1na2vs0mg"},{"bike_id":"eb07a221-1438-4c1a-98bd-cf8148f5e107","system_id":"levelo_inurba_marseille","lat":43.28792,"lon":5.36658,"is_reserved":false,"is_disabled":false,"rental_uris":{"android":"levelo://app?vid=eb07a221-1438-4c1a-98bd-cf8148f5e107","ios":"levelo://app?vid=eb07a221-1438-4c1a-98bd-cf8148f5e107"},"vehicle_type_id":"4","last_reported":1726855933,"current_range_meters":17600,"station_id":"ce4bhah2rcd13ifvqej0","pricing_plan_id":"cebpf4jnsgd1na2vs0mg"},{"bike_id":"2d9e27c4-0a1d-44f6-80ce-57ec13328cf4","system_id":"levelo_inurba_marseille","lat":43.28035,"lon":5.36957,"is_reserved":false,"is_disabled":false,"rental_uris":{"android":"levelo://app?vid=2d9e27c4-0a1d-44f6-80ce-57ec13328cf4","ios":"levelo://app?vid=2d9e27c4-0a1d-44f6-80ce-57ec13328cf4"},"vehicle_type_id":"4","last_reported":1726855933,"current_range_meters":38800,"station_id":"ce4bha12rcd13ifvqef0","pricing_plan_id":"cebpf4jnsgd1na2vs0mg"},{"bike_id":"64764613-91e8-483f-aa7e-4c9b89c24e98","system_id":"levelo_inurba_marseille","lat":43.283966,"lon":5.375192,"is_reserved":false,"is_disabled":false,"rental_uris":{"android":"levelo://app?vid=64764613-91e8-483f-aa7e-4c9b89c24e98","ios":"levelo://app?vid=64764613-91e8-483f-aa7e-4c9b89c24e98"},"vehicle_type_id":"4","last_reported":1726855933,"current_range_meters":3600,"station_id":"ce4bh412rcd13ifvqds0","pricing_plan_id":"cebpf4jnsgd1na2vs0mg"},{"bike_id":"4f6cd953-65f5-4d4f-a052-70118d864e1d","system_id":"levelo_inurba_marseille","lat":43.29893,"lon":5.43669,"is_reserved":false,"is_disabled":false,"rental_uris":{"android":"levelo://app?vid=4f6cd953-65f5-4d4f-a052-70118d864e1d","ios":"levelo://app?vid=4f6cd953-65f5-4d4f-a052-70118d864e1d"},"vehicle_type_id":"4","last_reported":1726855933,"current_range_meters":12000,"station_id":"ce4bhpp2rcd13ifvqhfg","pricing_plan_id":"cebpf4jnsgd1na2vs0mg"},{"bike_id":"98697dff-9c14-49f8-85f4-6b61fdbb0824","system_id":"levelo_inurba_marseille","lat":43.279419,"lon":5.410418,"is_reserved":false,"is_disabled":false,"rental_uris":{"android":"levelo://app?vid=98697dff-9c14-49f8-85f4-6b61fdbb0824","ios":"levelo://app?vid=98697dff-9c14-49f8-85f4-6b61fdbb0824"},"vehicle_type_id":"4","last_reported":1726855933,"current_range_meters":16800,"station_id":"ce4bhnp2rcd13ifvqh0g","pricing_plan_id":"cebpf4jnsgd1na2vs0mg"},{"bike_id":"5a18805c-b865-4d96-8bdf-92cf8bfa51f8","system_id":"levelo_inurba_marseille","lat":43.31496,"lon":5.37314,"is_reserved":false,"is_disabled":false,"rental_uris":{"android":"levelo://app?vid=5a18805c-b865-4d96-8bdf-92cf8bfa51f8","ios":"levelo://app?vid=5a18805c-b865-4d96-8bdf-92cf8bfa51f8"},"vehicle_type_id":"4","last_reported":1726855933,"current_range_meters":17200,"station_id":"ce4bgt12rcd13ifvqcd0","pricing_plan_id":"cebpf4jnsgd1na2vs0mg"},{"bike_id":"610ae2bc-1ce0-4157-8b8a-62d460f1da9c","system_id":"levelo_inurba_marseille","lat":43.22922,"lon":5.35376,"is_reserved":false,"is_disabled":false,"rental_uris":{"android":"levelo://app?vid=610ae2bc-1ce0-4157-8b8a-62d460f1da9c","ios":"levelo://app?vid=610ae2bc-1ce0-4157-8b8a-62d460f1da9c"},"vehicle_type_id":"4","last_reported":1726855933,"current_range_meters":9200,"station_id":"cpo3532slgdg3j2ikp40","pricing_plan_id":"cebpf4jnsgd1na2vs0mg"},{"bike_id":"24893521-8489-4735-b12d-d0bd4c986d8e","system_id":"levelo_inurba_marseille","lat":43.31702,"lon":5.37752,"is_reserved":false,"is_disabled":false,"rental_uris":{"android":"levelo://app?vid=24893521-8489-4735-b12d-d0bd4c986d8e","ios":"levelo://app?vid=24893521-8489-4735-b12d-d0bd4c986d8e"},"vehicle_type_id":"4","last_reported":1726855933,"current_range_meters":38400,"station_id":"ce4bgth2rcd13ifvqch0","pricing_plan_id":"cebpf4jnsgd1na2vs0mg"},{"bike_id":"4b6ec19f-cffa-40d0-92f0-d9d23ea6ecfb","system_id":"levelo_inurba_marseille","lat":43.284607,"lon":5.358858,"is_reserved":false,"is_disabled":false,"rental_uris":{"android":"levelo://app?vid=4b6ec19f-cffa-40d0-92f0-d9d23ea6ecfb","ios":"levelo://app?vid=4b6ec19f-cffa-40d0-92f0-d9d23ea6ecfb"},"vehicle_type_id":"4","last_reported":1726855933,"current_range_meters":3200,"station_id":"ce4bhah2rcd13ifvqei0","pricing_plan_id":"cebpf4jnsgd1na2vs0mg"},{"bike_id":"652f380c-211b-4a79-bd1f-eb105446200f","system_id":"levelo_inurba_marseille","lat":43.27493,"lon":5.42458,"is_reserved":false,"is_disabled":false,"rental_uris":{"android":"levelo://app?vid=652f380c-211b-4a79-bd1f-eb105446200f","ios":"levelo://app?vid=652f380c-211b-4a79-bd1f-eb105446200f"},"vehicle_type_id":"4","last_reported":1726855933,"current_range_meters":5600,"station_id":"ce4bhn92rcd13ifvqgrg","pricing_plan_id":"cebpf4jnsgd1na2vs0mg"},{"bike_id":"58014cc6-4f39-4119-a8a0-cdc0e2507820","system_id":"levelo_inurba_marseille","lat":43.32292,"lon":5.38286,"is_reserved":false,"is_disabled":false,"rental_uris":{"android":"levelo://app?vid=58014cc6-4f39-4119-a8a0-cdc0e2507820","ios":"levelo://app?vid=58014cc6-4f39-4119-a8a0-cdc0e2507820"},"vehicle_type_id":"4","last_reported":1726855933,"current_range_meters":40000,"station_id":"ce4bhr12rcd13ifvqhqg","pricing_plan_id":"cebpf4jnsgd1na2vs0mg"},{"bike_id":"aa539819-5c3f-47c6-9ed8-019513f894b5","system_id":"levelo_inurba_marseille","lat":43.298157,"lon":5.380954,"is_reserved":false,"is_disabled":false,"rental_uris":{"android":"levelo://app?vid=aa539819-5c3f-47c6-9ed8-019513f894b5","ios":"levelo://app?vid=aa539819-5c3f-47c6-9ed8-019513f894b5"},"vehicle_type_id":"4","last_reported":1726855933,"current_range_meters":38800,"station_id":"ce4bgj12rcd13ifvqbc0","pricing_plan_id":"cebpf4jnsgd1na2vs0mg"},{"bike_id":"0ad75068-dc40-4069-866b-86545c04a734","system_id":"levelo_inurba_marseille","lat":43.30541,"lon":5.38406,"is_reserved":false,"is_disabled":false,"rental_uris":{"android":"levelo://app?vid=0ad75068-dc40-4069-866b-86545c04a734","ios":"levelo://app?vid=0ad75068-dc40-4069-866b-86545c04a734"},"vehicle_type_id":"4","last_reported":1726855933,"current_range_meters":28400,"station_id":"ce4bgqh2rcd13ifvqc4g","pricing_plan_id":"cebpf4jnsgd1na2vs0mg"},{"bike_id":"bce83964-771d-421d-a795-c2b376c5b9dc","system_id":"levelo_inurba_marseille","lat":43.23193,"lon":5.35546,"is_reserved":false,"is_disabled":false,"rental_uris":{"android":"levelo://app?vid=bce83964-771d-421d-a795-c2b376c5b9dc","ios":"levelo://app?vid=bce83964-771d-421d-a795-c2b376c5b9dc"},"vehicle_type_id":"4","last_reported":1726855933,"current_range_meters":18800,"station_id":"ce4bhu92rcd13ifvqi70","pricing_plan_id":"cebpf4jnsgd1na2vs0mg"},{"bike_id":"842fa7b6-23bb-4fb3-b114-449a5a31c46c","system_id":"levelo_inurba_marseille","lat":43.24173,"lon":5.39735,"is_reserved":false,"is_disabled":false,"rental_uris":{"android":"levelo://app?vid=842fa7b6-23bb-4fb3-b114-449a5a31c46c","ios":"levelo://app?vid=842fa7b6-23bb-4fb3-b114-449a5a31c46c"},"vehicle_type_id":"4","last_reported":1726855933,"current_range_meters":9600,"station_id":"ce4bhn12rcd13ifvqgpg","pricing_plan_id":"cebpf4jnsgd1na2vs0mg"},{"bike_id":"5c4bffed-0019-4b39-a45e-d1fccf257ffb","system_id":"levelo_inurba_marseille","lat":43.31327,"lon":5.39698,"is_reserved":false,"is_disabled":false,"rental_uris":{"android":"levelo://app?vid=5c4bffed-0019-4b39-a45e-d1fccf257ffb","ios":"levelo://app?vid=5c4bffed-0019-4b39-a45e-d1fccf257ffb"},"vehicle_type_id":"4","last_reported":1726855933,"current_range_meters":30400,"station_id":"ce4bgvp2rcd13ifvqcu0","pricing_plan_id":"cebpf4jnsgd1na2vs0mg"},{"bike_id":"a5ebaac0-78fd-45e2-afd6-4858a1e0db70","system_id":"levelo_inurba_marseille","lat":43.283997,"lon":5.375179,"is_reserved":false,"is_disabled":false,"rental_uris":{"android":"levelo://app?vid=a5ebaac0-78fd-45e2-afd6-4858a1e0db70","ios":"levelo://app?vid=a5ebaac0-78fd-45e2-afd6-4858a1e0db70"},"vehicle_type_id":"4","last_reported":1726855933,"current_range_meters":8800,"station_id":"ce4bh412rcd13ifvqds0","pricing_plan_id":"cebpf4jnsgd1na2vs0mg"},{"bike_id":"6cdbec38-c73a-4c54-b4f2-0995396b95a5","system_id":"levelo_inurba_marseille","lat":43.24176,"lon":5.39733,"is_reserved":false,"is_disabled":false,"rental_uris":{"android":"levelo://app?vid=6cdbec38-c73a-4c54-b4f2-0995396b95a5","ios":"levelo://app?vid=6cdbec38-c73a-4c54-b4f2-0995396b95a5"},"vehicle_type_id":"4","last_reported":1726855933,"current_range_meters":10000,"station_id":"ce4bhn12rcd13ifvqgpg","pricing_plan_id":"cebpf4jnsgd1na2vs0mg"},{"bike_id":"d72cf0a0-e993-4012-b63c-f4717ebbe5b3","system_id":"levelo_inurba_marseille","lat":43.30206,"lon":5.3947,"is_reserved":false,"is_disabled":false,"rental_uris":{"android":"levelo://app?vid=d72cf0a0-e993-4012-b63c-f4717ebbe5b3","ios":"levelo://app?vid=d72cf0a0-e993-4012-b63c-f4717ebbe5b3"},"vehicle_type_id":"4","last_reported":1726855933,"current_range_meters":20800,"station_id":"ce4bh0p2rcd13ifvqd70","pricing_plan_id":"cebpf4jnsgd1na2vs0mg"},{"bike_id":"e186148d-5a6d-4e86-9210-67558c73fc77","system_id":"levelo_inurba_marseille","lat":43.32482,"lon":5.38557,"is_reserved":false,"is_disabled":false,"rental_uris":{"android":"levelo://app?vid=e186148d-5a6d-4e86-9210-67558c73fc77","ios":"levelo://app?vid=e186148d-5a6d-4e86-9210-67558c73fc77"},"vehicle_type_id":"4","last_reported":1726855933,"current_range_meters":38800,"station_id":"","pricing_plan_id":"cebpf4jnsgd1na2vs0mg"},{"bike_id":"fd4e2c02-70b3-4d71-b8f4-4ea8e22087c9","system_id":"levelo_inurba_marseille","lat":43.29259,"lon":5.38453,"is_reserved":false,"is_disabled":false,"rental_uris":{"android":"levelo://app?vid=fd4e2c02-70b3-4d71-b8f4-4ea8e22087c9","ios":"levelo://app?vid=fd4e2c02-70b3-4d71-b8f4-4ea8e22087c9"},"vehicle_type_id":"4","last_reported":1726855933,"current_range_meters":39200,"station_id":"ce4bh692rcd13ifvqea0","pricing_plan_id":"cebpf4jnsgd1na2vs0mg"},{"bike_id":"586f8105-6e43-4f98-b7f9-2ef4a3b698a9","system_id":"levelo_inurba_marseille","lat":43.269908,"lon":5.387013,"is_reserved":false,"is_disabled":false,"rental_uris":{"android":"levelo://app?vid=586f8105-6e43-4f98-b7f9-2ef4a3b698a9","ios":"levelo://app?vid=586f8105-6e43-4f98-b7f9-2ef4a3b698a9"},"vehicle_type_id":"4","last_reported":1726855933,"current_range_meters":28400,"station_id":"ce4bhg92rcd13ifvqf90","pricing_plan_id":"cebpf4jnsgd1na2vs0mg"},{"bike_id":"5fd696fc-9eb8-4c93-b1b2-ac819a662521","system_id":"levelo_inurba_marseille","lat":43.24998,"lon":5.38934,"is_reserved":false,"is_disabled":false,"rental_uris":{"android":"levelo://app?vid=5fd696fc-9eb8-4c93-b1b2-ac819a662521","ios":"levelo://app?vid=5fd696fc-9eb8-4c93-b1b2-ac819a662521"},"vehicle_type_id":"4","last_reported":1726855933,"current_range_meters":36800,"station_id":"ce4bhgp2rcd13ifvqfd0","pricing_plan_id":"cebpf4jnsgd1na2vs0mg"},{"bike_id":"fb8449ae-9fcb-4dff-8b30-f4901332eea6","system_id":"levelo_inurba_marseille","lat":43.29913,"lon":5.37474,"is_reserved":false,"is_disabled":false,"rental_uris":{"android":"levelo://app?vid=fb8449ae-9fcb-4dff-8b30-f4901332eea6","ios":"levelo://app?vid=fb8449ae-9fcb-4dff-8b30-f4901332eea6"},"vehicle_type_id":"4","last_reported":1726855933,"current_range_meters":24000,"station_id":"ce4bgjh2rcd13ifvqbg0","pricing_plan_id":"cebpf4jnsgd1na2vs0mg"},{"bike_id":"1ad3c514-ff41-4c1e-8353-64b83c7e797c","system_id":"levelo_inurba_marseille","lat":43.290227,"lon":5.386544,"is_reserved":false,"is_disabled":false,"rental_uris":{"android":"levelo://app?vid=1ad3c514-ff41-4c1e-8353-64b83c7e797c","ios":"levelo://app?vid=1ad3c514-ff41-4c1e-8353-64b83c7e797c"},"vehicle_type_id":"4","last_reported":1726855933,"current_range_meters":27600,"station_id":"ce4bh612rcd13ifvqe6g","pricing_plan_id":"cebpf4jnsgd1na2vs0mg"},{"bike_id":"fa2e946d-01fe-4bb4-a2b0-55af60a0bcec","system_id":"levelo_inurba_marseille","lat":43.33721,"lon":5.39192,"is_reserved":false,"is_disabled":false,"rental_uris":{"android":"levelo://app?vid=fa2e946d-01fe-4bb4-a2b0-55af60a0bcec","ios":"levelo://app?vid=fa2e946d-01fe-4bb4-a2b0-55af60a0bcec"},"vehicle_type_id":"4","last_reported":1726855933,"current_range_meters":35600,"station_id":"ce4bhr92rcd13ifvqhsg","pricing_plan_id":"cebpf4jnsgd1na2vs0mg"},{"bike_id":"96f9a91d-428e-493e-b8c0-fcd22d3c14f4","system_id":"levelo_inurba_marseille","lat":43.23183,"lon":5.39992,"is_reserved":false,"is_disabled":false,"rental_uris":{"android":"levelo://app?vid=96f9a91d-428e-493e-b8c0-fcd22d3c14f4","ios":"levelo://app?vid=96f9a91d-428e-493e-b8c0-fcd22d3c14f4"},"vehicle_type_id":"4","last_reported":1726855933,"current_range_meters":6400,"station_id":"ce4bhn12rcd13ifvqgqg","pricing_plan_id":"cebpf4jnsgd1na2vs0mg"},{"bike_id":"974ab486-ed2d-4b01-823c-6cb562932479","system_id":"levelo_inurba_marseille","lat":43.250051,"lon":5.389278,"is_reserved":false,"is_disabled":false,"rental_uris":{"android":"levelo://app?vid=974ab486-ed2d-4b01-823c-6cb562932479","ios":"levelo://app?vid=974ab486-ed2d-4b01-823c-6cb562932479"},"vehicle_type_id":"4","last_reported":1726855933,"current_range_meters":2800,"station_id":"ce4bhgp2rcd13ifvqfd0","pricing_plan_id":"cebpf4jnsgd1na2vs0mg"},{"bike_id":"bd8d0eb6-334c-44c4-a789-c460addf4741","system_id":"levelo_inurba_marseille","lat":43.33025,"lon":5.3904,"is_reserved":false,"is_disabled":false,"rental_uris":{"android":"levelo://app?vid=bd8d0eb6-334c-44c4-a789-c460addf4741","ios":"levelo://app?vid=bd8d0eb6-334c-44c4-a789-c460addf4741"},"vehicle_type_id":"4","last_reported":1726855933,"current_range_meters":22800,"station_id":"ce4bhr92rcd13ifvqhrg","pricing_plan_id":"cebpf4jnsgd1na2vs0mg"},{"bike_id":"4e1f9844-542a-4e41-8660-9fe15475883a","system_id":"levelo_inurba_marseille","lat":43.32529,"lon":5.3897,"is_reserved":false,"is_disabled":false,"rental_uris":{"android":"levelo://app?vid=4e1f9844-542a-4e41-8660-9fe15475883a","ios":"levelo://app?vid=4e1f9844-542a-4e41-8660-9fe15475883a"},"vehicle_type_id":"4","last_reported":1726855933,"current_range_meters":28800,"station_id":"","pricing_plan_id":"cebpf4jnsgd1na2vs0mg"},{"bike_id":"2b32f6b9-0b93-4761-8bb8-2bd9d20f08f9","system_id":"levelo_inurba_marseille","lat":43.2832,"lon":5.42392,"is_reserved":false,"is_disabled":false,"rental_uris":{"android":"levelo://app?vid=2b32f6b9-0b93-4761-8bb8-2bd9d20f08f9","ios":"levelo://app?vid=2b32f6b9-0b93-4761-8bb8-2bd9d20f08f9"},"vehicle_type_id":"4","last_reported":1726855933,"current_range_meters":17200,"station_id":"","pricing_plan_id":"cebpf4jnsgd1na2vs0mg"},{"bike_id":"c5f53eed-5d54-4e3f-a49e-4cbc4eed2318","system_id":"levelo_inurba_marseille","lat":43.30806,"lon":5.43525,"is_reserved":false,"is_disabled":false,"rental_uris":{"android":"levelo://app?vid=c5f53eed-5d54-4e3f-a49e-4cbc4eed2318","ios":"levelo://app?vid=c5f53eed-5d54-4e3f-a49e-4cbc4eed2318"},"vehicle_type_id":"4","last_reported":1726855933,"current_range_meters":4400,"station_id":"ce4bhph2rcd13ifvqheg","pricing_plan_id":"cebpf4jnsgd1na2vs0mg"},{"bike_id":"19dcaabe-b304-41c9-9075-962d3447cb4a","system_id":"levelo_inurba_marseille","lat":43.28722,"lon":5.36459,"is_reserved":false,"is_disabled":false,"rental_uris":{"android":"levelo://app?vid=19dcaabe-b304-41c9-9075-962d3447cb4a","ios":"levelo://app?vid=19dcaabe-b304-41c9-9075-962d3447cb4a"},"vehicle_type_id":"4","last_reported":1726855933,"current_range_meters":7200,"station_id":"","pricing_plan_id":"cebpf4jnsgd1na2vs0mg"},{"bike_id":"aa29200f-5d7f-4d1e-a8b2-98561eb30973","system_id":"levelo_inurba_marseille","lat":43.31704,"lon":5.4371,"is_reserved":false,"is_disabled":false,"rental_uris":{"android":"levelo://app?vid=aa29200f-5d7f-4d1e-a8b2-98561eb30973","ios":"levelo://app?vid=aa29200f-5d7f-4d1e-a8b2-98561eb30973"},"vehicle_type_id":"4","last_reported":1726855933,"current_range_meters":30000,"station_id":"ce4bhp92rcd13ifvqhcg","pricing_plan_id":"cebpf4jnsgd1na2vs0mg"},{"bike_id":"fa690805-233a-4a70-a9f3-33f1b67cdb1f","system_id":"levelo_inurba_marseille","lat":43.32291,"lon":5.38278,"is_reserved":false,"is_disabled":false,"rental_uris":{"android":"levelo://app?vid=fa690805-233a-4a70-a9f3-33f1b67cdb1f","ios":"levelo://app?vid=fa690805-233a-4a70-a9f3-33f1b67cdb1f"},"vehicle_type_id":"4","last_reported":1726855933,"current_range_meters":16800,"station_id":"ce4bhr12rcd13ifvqhqg","pricing_plan_id":"cebpf4jnsgd1na2vs0mg"},{"bike_id":"9f1bd971-1dd0-42ab-876b-b82f3f956ffd","system_id":"levelo_inurba_marseille","lat":43.26192,"lon":5.37449,"is_reserved":false,"is_disabled":false,"rental_uris":{"android":"levelo://app?vid=9f1bd971-1dd0-42ab-876b-b82f3f956ffd","ios":"levelo://app?vid=9f1bd971-1dd0-42ab-876b-b82f3f956ffd"},"vehicle_type_id":"4","last_reported":1726855933,"current_range_meters":20800,"station_id":"ce4bhgp2rcd13ifvqfc0","pricing_plan_id":"cebpf4jnsgd1na2vs0mg"},{"bike_id":"339919fc-2748-4e16-967c-b7e98b739fbe","system_id":"levelo_inurba_marseille","lat":43.298401,"lon":5.362805,"is_reserved":false,"is_disabled":false,"rental_uris":{"android":"levelo://app?vid=339919fc-2748-4e16-967c-b7e98b739fbe","ios":"levelo://app?vid=339919fc-2748-4e16-967c-b7e98b739fbe"},"vehicle_type_id":"4","last_reported":1726855933,"current_range_meters":10000,"station_id":"ce4bgpp2rcd13ifvqc3g","pricing_plan_id":"cebpf4jnsgd1na2vs0mg"},{"bike_id":"89496093-5d19-4d2d-af92-b4327367eb09","system_id":"levelo_inurba_marseille","lat":43.25863,"lon":5.39904,"is_reserved":false,"is_disabled":false,"rental_uris":{"android":"levelo://app?vid=89496093-5d19-4d2d-af92-b4327367eb09","ios":"levelo://app?vid=89496093-5d19-4d2d-af92-b4327367eb09"},"vehicle_type_id":"4","last_reported":1726855933,"current_range_meters":5600,"station_id":"ce4bhl92rcd13ifvqghg","pricing_plan_id":"cebpf4jnsgd1na2vs0mg"},{"bike_id":"05bfb6ff-f655-4375-8f9d-e694e58c5638","system_id":"levelo_inurba_marseille","lat":43.291962,"lon":5.358753,"is_reserved":false,"is_disabled":false,"rental_uris":{"android":"levelo://app?vid=05bfb6ff-f655-4375-8f9d-e694e58c5638","ios":"levelo://app?vid=05bfb6ff-f655-4375-8f9d-e694e58c5638"},"vehicle_type_id":"4","last_reported":1726855933,"current_range_meters":27600,"station_id":"ce4bh612rcd13ifvqe6g","pricing_plan_id":"cebpf4jnsgd1na2vs0mg"},{"bike_id":"b2763354-ec6c-4733-8de6-6c4493759ae9","system_id":"levelo_inurba_marseille","lat":43.29065,"lon":5.4017,"is_reserved":false,"is_disabled":false,"rental_uris":{"android":"levelo://app?vid=b2763354-ec6c-4733-8de6-6c4493759ae9","ios":"levelo://app?vid=b2763354-ec6c-4733-8de6-6c4493759ae9"},"vehicle_type_id":"4","last_reported":1726855933,"current_range_meters":19200,"station_id":"","pricing_plan_id":"cebpf4jnsgd1na2vs0mg"},{"bike_id":"e6111ba7-a6db-44b2-8dbf-0638ac91672c","system_id":"levelo_inurba_marseille","lat":43.299164,"lon":5.37473,"is_reserved":false,"is_disabled":false,"rental_uris":{"android":"levelo://app?vid=e6111ba7-a6db-44b2-8dbf-0638ac91672c","ios":"levelo://app?vid=e6111ba7-a6db-44b2-8dbf-0638ac91672c"},"vehicle_type_id":"4","last_reported":1726855933,"current_range_meters":32000,"station_id":"ce4bgjh2rcd13ifvqbg0","pricing_plan_id":"cebpf4jnsgd1na2vs0mg"},{"bike_id":"61248aa9-b1fc-4c82-8a0f-f4b1ba9c842b","system_id":"levelo_inurba_marseille","lat":43.261841,"lon":5.374565,"is_reserved":false,"is_disabled":false,"rental_uris":{"android":"levelo://app?vid=61248aa9-b1fc-4c82-8a0f-f4b1ba9c842b","ios":"levelo://app?vid=61248aa9-b1fc-4c82-8a0f-f4b1ba9c842b"},"vehicle_type_id":"4","last_reported":1726855933,"current_range_meters":3600,"station_id":"ce4bhgp2rcd13ifvqfc0","pricing_plan_id":"cebpf4jnsgd1na2vs0mg"},{"bike_id":"881ac96f-9b98-44cf-a316-9e554c8e5863","system_id":"levelo_inurba_marseille","lat":43.232,"lon":5.39982,"is_reserved":false,"is_disabled":false,"rental_uris":{"android":"levelo://app?vid=881ac96f-9b98-44cf-a316-9e554c8e5863","ios":"levelo://app?vid=881ac96f-9b98-44cf-a316-9e554c8e5863"},"vehicle_type_id":"4","last_reported":1726855933,"current_range_meters":20000,"station_id":"ce4bhn12rcd13ifvqgqg","pricing_plan_id":"cebpf4jnsgd1na2vs0mg"},{"bike_id":"c8747535-6180-44da-aa41-8200498ca7f6","system_id":"levelo_inurba_marseille","lat":43.29265,"lon":5.38438,"is_reserved":false,"is_disabled":false,"rental_uris":{"android":"levelo://app?vid=c8747535-6180-44da-aa41-8200498ca7f6","ios":"levelo://app?vid=c8747535-6180-44da-aa41-8200498ca7f6"},"vehicle_type_id":"4","last_reported":1726855933,"current_range_meters":6800,"station_id":"ce4bh692rcd13ifvqea0","pricing_plan_id":"cebpf4jnsgd1na2vs0mg"},{"bike_id":"0653cb10-c12e-4c27-af75-8f3495a98f89","system_id":"levelo_inurba_marseille","lat":43.32288,"lon":5.38272,"is_reserved":false,"is_disabled":false,"rental_uris":{"android":"levelo://app?vid=0653cb10-c12e-4c27-af75-8f3495a98f89","ios":"levelo://app?vid=0653cb10-c12e-4c27-af75-8f3495a98f89"},"vehicle_type_id":"4","last_reported":1726855933,"current_range_meters":38800,"station_id":"ce4bhr12rcd13ifvqhqg","pricing_plan_id":"cebpf4jnsgd1na2vs0mg"},{"bike_id":"3109ab5f-83e6-4134-a408-1c8451ecf6a3","system_id":"levelo_inurba_marseille","lat":43.28934,"lon":5.36637,"is_reserved":false,"is_disabled":false,"rental_uris":{"android":"levelo://app?vid=3109ab5f-83e6-4134-a408-1c8451ecf6a3","ios":"levelo://app?vid=3109ab5f-83e6-4134-a408-1c8451ecf6a3"},"vehicle_type_id":"4","last_reported":1726855933,"current_range_meters":9600,"station_id":"ce4bhap2rcd13ifvqek0","pricing_plan_id":"cebpf4jnsgd1na2vs0mg"},{"bike_id":"667dcb1e-82c9-4808-af86-f738f1852fe5","system_id":"levelo_inurba_marseille","lat":43.32477,"lon":5.36592,"is_reserved":false,"is_disabled":false,"rental_uris":{"android":"levelo://app?vid=667dcb1e-82c9-4808-af86-f738f1852fe5","ios":"levelo://app?vid=667dcb1e-82c9-4808-af86-f738f1852fe5"},"vehicle_type_id":"4","last_reported":1726855933,"current_range_meters":30800,"station_id":"ce4bhs12rcd13ifvqhvg","pricing_plan_id":"cebpf4jnsgd1na2vs0mg"},{"bike_id":"c2c9a555-6ec8-4b92-b33e-073571605c93","system_id":"levelo_inurba_marseille","lat":43.23191,"lon":5.35551,"is_reserved":false,"is_disabled":false,"rental_uris":{"android":"levelo://app?vid=c2c9a555-6ec8-4b92-b33e-073571605c93","ios":"levelo://app?vid=c2c9a555-6ec8-4b92-b33e-073571605c93"},"vehicle_type_id":"4","last_reported":1726855933,"current_range_meters":26000,"station_id":"ce4bhu92rcd13ifvqi70","pricing_plan_id":"cebpf4jnsgd1na2vs0mg"},{"bike_id":"4f92f48d-3e8a-48f8-9e11-04642f11f793","system_id":"levelo_inurba_marseille","lat":43.25496,"lon":5.37651,"is_reserved":false,"is_disabled":false,"rental_uris":{"android":"levelo://app?vid=4f92f48d-3e8a-48f8-9e11-04642f11f793","ios":"levelo://app?vid=4f92f48d-3e8a-48f8-9e11-04642f11f793"},"vehicle_type_id":"4","last_reported":1726855933,"current_range_meters":24800,"station_id":"ce4bhh12rcd13ifvqff0","pricing_plan_id":"cebpf4jnsgd1na2vs0mg"},{"bike_id":"3ea8f54f-9145-4e7d-b8dd-375864b1fadc","system_id":"levelo_inurba_marseille","lat":43.31994,"lon":5.37204,"is_reserved":false,"is_disabled":false,"rental_uris":{"android":"levelo://app?vid=3ea8f54f-9145-4e7d-b8dd-375864b1fadc","ios":"levelo://app?vid=3ea8f54f-9145-4e7d-b8dd-375864b1fadc"},"vehicle_type_id":"4","last_reported":1726855933,"current_range_meters":12400,"station_id":"","pricing_plan_id":"cebpf4jnsgd1na2vs0mg"},{"bike_id":"dab3a9f8-15ee-43c8-86ac-8048e5415da6","system_id":"levelo_inurba_marseille","lat":43.32336,"lon":5.40617,"is_reserved":false,"is_disabled":false,"rental_uris":{"android":"levelo://app?vid=dab3a9f8-15ee-43c8-86ac-8048e5415da6","ios":"levelo://app?vid=dab3a9f8-15ee-43c8-86ac-8048e5415da6"},"vehicle_type_id":"4","last_reported":1726855933,"current_range_meters":18800,"station_id":"ce4bhq92rcd13ifvqhjg","pricing_plan_id":"cebpf4jnsgd1na2vs0mg"},{"bike_id":"e8c6309b-71d7-410a-bae9-a1e7e999f192","system_id":"levelo_inurba_marseille","lat":43.28595,"lon":5.35137,"is_reserved":false,"is_disabled":false,"rental_uris":{"android":"levelo://app?vid=e8c6309b-71d7-410a-bae9-a1e7e999f192","ios":"levelo://app?vid=e8c6309b-71d7-410a-bae9-a1e7e999f192"},"vehicle_type_id":"4","last_reported":1726855933,"current_range_meters":20800,"station_id":"ce4bhch2rcd13ifvqeug","pricing_plan_id":"cebpf4jnsgd1na2vs0mg"},{"bike_id":"5dbf763e-c0f2-452b-8768-19f29c48a9f7","system_id":"levelo_inurba_marseille","lat":43.27188,"lon":5.40997,"is_reserved":false,"is_disabled":false,"rental_uris":{"android":"levelo://app?vid=5dbf763e-c0f2-452b-8768-19f29c48a9f7","ios":"levelo://app?vid=5dbf763e-c0f2-452b-8768-19f29c48a9f7"},"vehicle_type_id":"4","last_reported":1726855933,"current_range_meters":34000,"station_id":"ce4bhl12rcd13ifvqgf0","pricing_plan_id":"cebpf4jnsgd1na2vs0mg"},{"bike_id":"ebd01afa-d990-40fb-a84f-2a3ae0c48760","system_id":"levelo_inurba_marseille","lat":43.27566,"lon":5.38432,"is_reserved":false,"is_disabled":false,"rental_uris":{"android":"levelo://app?vid=ebd01afa-d990-40fb-a84f-2a3ae0c48760","ios":"levelo://app?vid=ebd01afa-d990-40fb-a84f-2a3ae0c48760"},"vehicle_type_id":"4","last_reported":1726855933,"current_range_meters":10000,"station_id":"ce4bhh92rcd13ifvqfi0","pricing_plan_id":"cebpf4jnsgd1na2vs0mg"},{"bike_id":"2488825e-085f-41d0-bfda-69eecf5c7970","system_id":"levelo_inurba_marseille","lat":43.29196,"lon":5.35803,"is_reserved":false,"is_disabled":false,"rental_uris":{"android":"levelo://app?vid=2488825e-085f-41d0-bfda-69eecf5c7970","ios":"levelo://app?vid=2488825e-085f-41d0-bfda-69eecf5c7970"},"vehicle_type_id":"4","last_reported":1726855933,"current_range_meters":3600,"station_id":"ce4bhb12rcd13ifvqel0","pricing_plan_id":"cebpf4jnsgd1na2vs0mg"},{"bike_id":"af3d81eb-8250-4f05-bb17-35fc1f8b48c0","system_id":"levelo_inurba_marseille","lat":43.32749,"lon":5.37974,"is_reserved":false,"is_disabled":false,"rental_uris":{"android":"levelo://app?vid=af3d81eb-8250-4f05-bb17-35fc1f8b48c0","ios":"levelo://app?vid=af3d81eb-8250-4f05-bb17-35fc1f8b48c0"},"vehicle_type_id":"4","last_reported":1726855933,"current_range_meters":14400,"station_id":"","pricing_plan_id":"cebpf4jnsgd1na2vs0mg"},{"bike_id":"68159eba-e301-4077-943e-46befe1273f0","system_id":"levelo_inurba_marseille","lat":43.23191,"lon":5.35556,"is_reserved":false,"is_disabled":false,"rental_uris":{"android":"levelo://app?vid=68159eba-e301-4077-943e-46befe1273f0","ios":"levelo://app?vid=68159eba-e301-4077-943e-46befe1273f0"},"vehicle_type_id":"4","last_reported":1726855933,"current_range_meters":32000,"station_id":"ce4bhu92rcd13ifvqi70","pricing_plan_id":"cebpf4jnsgd1na2vs0mg"},{"bike_id":"7d66f339-e9a1-4deb-8e88-576eebb910a0","system_id":"levelo_inurba_marseille","lat":43.31759,"lon":5.3903,"is_reserved":false,"is_disabled":false,"rental_uris":{"android":"levelo://app?vid=7d66f339-e9a1-4deb-8e88-576eebb910a0","ios":"levelo://app?vid=7d66f339-e9a1-4deb-8e88-576eebb910a0"},"vehicle_type_id":"4","last_reported":1726855933,"current_range_meters":5600,"station_id":"ce4bhqp2rcd13ifvqhng","pricing_plan_id":"cebpf4jnsgd1na2vs0mg"},{"bike_id":"5eecc8bd-53b4-4ac9-934d-c16b0f0611ae","system_id":"levelo_inurba_marseille","lat":43.317108,"lon":5.436892,"is_reserved":false,"is_disabled":false,"rental_uris":{"android":"levelo://app?vid=5eecc8bd-53b4-4ac9-934d-c16b0f0611ae","ios":"levelo://app?vid=5eecc8bd-53b4-4ac9-934d-c16b0f0611ae"},"vehicle_type_id":"4","last_reported":1726855933,"current_range_meters":34000,"station_id":"ce4bhp92rcd13ifvqhcg","pricing_plan_id":"cebpf4jnsgd1na2vs0mg"},{"bike_id":"0f9e353b-34be-4131-bc94-f528c8afe4b7","system_id":"levelo_inurba_marseille","lat":43.32494,"lon":5.36578,"is_reserved":false,"is_disabled":false,"rental_uris":{"android":"levelo://app?vid=0f9e353b-34be-4131-bc94-f528c8afe4b7","ios":"levelo://app?vid=0f9e353b-34be-4131-bc94-f528c8afe4b7"},"vehicle_type_id":"4","last_reported":1726855933,"current_range_meters":14000,"station_id":"ce4bhs12rcd13ifvqhvg","pricing_plan_id":"cebpf4jnsgd1na2vs0mg"},{"bike_id":"62d80591-d030-4b7a-9a05-de0fa680b12e","system_id":"levelo_inurba_marseille","lat":43.29963,"lon":5.38498,"is_reserved":false,"is_disabled":false,"rental_uris":{"android":"levelo://app?vid=62d80591-d030-4b7a-9a05-de0fa680b12e","ios":"levelo://app?vid=62d80591-d030-4b7a-9a05-de0fa680b12e"},"vehicle_type_id":"4","last_reported":1726855933,"current_range_meters":3200,"station_id":"ce4bgj92rcd13ifvqbd0","pricing_plan_id":"cebpf4jnsgd1na2vs0mg"},{"bike_id":"c6308f46-8066-45f9-9fdd-2c8b377601be","system_id":"levelo_inurba_marseille","lat":43.28437,"lon":5.39196,"is_reserved":false,"is_disabled":false,"rental_uris":{"android":"levelo://app?vid=c6308f46-8066-45f9-9fdd-2c8b377601be","ios":"levelo://app?vid=c6308f46-8066-45f9-9fdd-2c8b377601be"},"vehicle_type_id":"4","last_reported":1726855933,"current_range_meters":6800,"station_id":"ce4bhoh2rcd13ifvqh5g","pricing_plan_id":"cebpf4jnsgd1na2vs0mg"},{"bike_id":"559c3036-0042-4eb6-9422-d6ee121baaf9","system_id":"levelo_inurba_marseille","lat":43.28453,"lon":5.3589,"is_reserved":false,"is_disabled":false,"rental_uris":{"android":"levelo://app?vid=559c3036-0042-4eb6-9422-d6ee121baaf9","ios":"levelo://app?vid=559c3036-0042-4eb6-9422-d6ee121baaf9"},"vehicle_type_id":"4","last_reported":1726855933,"current_range_meters":12800,"station_id":"ce4bhah2rcd13ifvqei0","pricing_plan_id":"cebpf4jnsgd1na2vs0mg"},{"bike_id":"6555de99-f530-4c2d-961f-b8cf69dbd424","system_id":"levelo_inurba_marseille","lat":43.31756,"lon":5.39024,"is_reserved":false,"is_disabled":false,"rental_uris":{"android":"levelo://app?vid=6555de99-f530-4c2d-961f-b8cf69dbd424","ios":"levelo://app?vid=6555de99-f530-4c2d-961f-b8cf69dbd424"},"vehicle_type_id":"4","last_reported":1726855933,"current_range_meters":38800,"station_id":"ce4bhqp2rcd13ifvqhng","pricing_plan_id":"cebpf4jnsgd1na2vs0mg"},{"bike_id":"b862c2ef-daa7-4949-91ec-e87df0f3727c","system_id":"levelo_inurba_marseille","lat":43.27371,"lon":5.36254,"is_reserved":false,"is_disabled":false,"rental_uris":{"android":"levelo://app?vid=b862c2ef-daa7-4949-91ec-e87df0f3727c","ios":"levelo://app?vid=b862c2ef-daa7-4949-91ec-e87df0f3727c"},"vehicle_type_id":"4","last_reported":1726855933,"current_range_meters":29600,"station_id":"ce4bhbh2rcd13ifvqeo0","pricing_plan_id":"cebpf4jnsgd1na2vs0mg"},{"bike_id":"d323bc23-4105-4d98-87ab-fb3899c88f8a","system_id":"levelo_inurba_marseille","lat":43.2319,"lon":5.35556,"is_reserved":false,"is_disabled":false,"rental_uris":{"android":"levelo://app?vid=d323bc23-4105-4d98-87ab-fb3899c88f8a","ios":"levelo://app?vid=d323bc23-4105-4d98-87ab-fb3899c88f8a"},"vehicle_type_id":"4","last_reported":1726855933,"current_range_meters":38800,"station_id":"ce4bhu92rcd13ifvqi70","pricing_plan_id":"cebpf4jnsgd1na2vs0mg"},{"bike_id":"4fe8f3a4-a462-4f91-8ae4-78ac141fae82","system_id":"levelo_inurba_marseille","lat":43.31761,"lon":5.39019,"is_reserved":false,"is_disabled":false,"rental_uris":{"android":"levelo://app?vid=4fe8f3a4-a462-4f91-8ae4-78ac141fae82","ios":"levelo://app?vid=4fe8f3a4-a462-4f91-8ae4-78ac141fae82"},"vehicle_type_id":"4","last_reported":1726855933,"current_range_meters":9200,"station_id":"ce4bhqp2rcd13ifvqhng","pricing_plan_id":"cebpf4jnsgd1na2vs0mg"},{"bike_id":"b60a54ec-17cf-4afe-84ba-79a9c0caef24","system_id":"levelo_inurba_marseille","lat":43.30122,"lon":5.39861,"is_reserved":false,"is_disabled":false,"rental_uris":{"android":"levelo://app?vid=b60a54ec-17cf-4afe-84ba-79a9c0caef24","ios":"levelo://app?vid=b60a54ec-17cf-4afe-84ba-79a9c0caef24"},"vehicle_type_id":"4","last_reported":1726855933,"current_range_meters":38800,"station_id":"","pricing_plan_id":"cebpf4jnsgd1na2vs0mg"},{"bike_id":"6a52ab1b-4a00-4501-ae37-f15b2934dda4","system_id":"levelo_inurba_marseille","lat":43.28152,"lon":5.42642,"is_reserved":false,"is_disabled":false,"rental_uris":{"android":"levelo://app?vid=6a52ab1b-4a00-4501-ae37-f15b2934dda4","ios":"levelo://app?vid=6a52ab1b-4a00-4501-ae37-f15b2934dda4"},"vehicle_type_id":"4","last_reported":1726855933,"current_range_meters":31200,"station_id":"ce4bhnh2rcd13ifvqgug","pricing_plan_id":"cebpf4jnsgd1na2vs0mg"},{"bike_id":"26fbdc58-3fc0-4120-9128-2aab67b0496a","system_id":"levelo_inurba_marseille","lat":43.29257,"lon":5.38449,"is_reserved":false,"is_disabled":false,"rental_uris":{"android":"levelo://app?vid=26fbdc58-3fc0-4120-9128-2aab67b0496a","ios":"levelo://app?vid=26fbdc58-3fc0-4120-9128-2aab67b0496a"},"vehicle_type_id":"4","last_reported":1726855933,"current_range_meters":2800,"station_id":"ce4bh692rcd13ifvqea0","pricing_plan_id":"cebpf4jnsgd1na2vs0mg"},{"bike_id":"671a54f5-daf6-4157-80eb-f08ca484665a","system_id":"levelo_inurba_marseille","lat":43.29984,"lon":5.37174,"is_reserved":false,"is_disabled":false,"rental_uris":{"android":"levelo://app?vid=671a54f5-daf6-4157-80eb-f08ca484665a","ios":"levelo://app?vid=671a54f5-daf6-4157-80eb-f08ca484665a"},"vehicle_type_id":"4","last_reported":1726855933,"current_range_meters":38000,"station_id":"ce4bgr92rcd13ifvqc7g","pricing_plan_id":"cebpf4jnsgd1na2vs0mg"},{"bike_id":"64591c17-8ee0-43df-8725-13f05b5cb133","system_id":"levelo_inurba_marseille","lat":43.28725,"lon":5.4001,"is_reserved":false,"is_disabled":false,"rental_uris":{"android":"levelo://app?vid=64591c17-8ee0-43df-8725-13f05b5cb133","ios":"levelo://app?vid=64591c17-8ee0-43df-8725-13f05b5cb133"},"vehicle_type_id":"4","last_reported":1726855933,"current_range_meters":36800,"station_id":"ce4bho92rcd13ifvqh3g","pricing_plan_id":"cebpf4jnsgd1na2vs0mg"},{"bike_id":"96c2cdc4-264d-40af-b5e7-cf74c3dd3a69","system_id":"levelo_inurba_marseille","lat":43.24998,"lon":5.38925,"is_reserved":false,"is_disabled":false,"rental_uris":{"android":"levelo://app?vid=96c2cdc4-264d-40af-b5e7-cf74c3dd3a69","ios":"levelo://app?vid=96c2cdc4-264d-40af-b5e7-cf74c3dd3a69"},"vehicle_type_id":"4","last_reported":1726855933,"current_range_meters":10800,"station_id":"ce4bhgp2rcd13ifvqfd0","pricing_plan_id":"cebpf4jnsgd1na2vs0mg"},{"bike_id":"9e1a47c2-0bf2-4199-a3bc-1e7695f225ba","system_id":"levelo_inurba_marseille","lat":43.291656,"lon":5.371583,"is_reserved":false,"is_disabled":false,"rental_uris":{"android":"levelo://app?vid=9e1a47c2-0bf2-4199-a3bc-1e7695f225ba","ios":"levelo://app?vid=9e1a47c2-0bf2-4199-a3bc-1e7695f225ba"},"vehicle_type_id":"4","last_reported":1726855933,"current_range_meters":38800,"station_id":"ce4bha92rcd13ifvqeh0","pricing_plan_id":"cebpf4jnsgd1na2vs0mg"},{"bike_id":"6388e495-3762-4608-8b80-54f6f1b4f882","system_id":"levelo_inurba_marseille","lat":43.23195,"lon":5.35552,"is_reserved":false,"is_disabled":false,"rental_uris":{"android":"levelo://app?vid=6388e495-3762-4608-8b80-54f6f1b4f882","ios":"levelo://app?vid=6388e495-3762-4608-8b80-54f6f1b4f882"},"vehicle_type_id":"4","last_reported":1726855933,"current_range_meters":11600,"station_id":"ce4bhu92rcd13ifvqi70","pricing_plan_id":"cebpf4jnsgd1na2vs0mg"},{"bike_id":"a08c16d2-99a0-4fbd-b970-795e60419327","system_id":"levelo_inurba_marseille","lat":43.2955,"lon":5.42285,"is_reserved":false,"is_disabled":false,"rental_uris":{"android":"levelo://app?vid=a08c16d2-99a0-4fbd-b970-795e60419327","ios":"levelo://app?vid=a08c16d2-99a0-4fbd-b970-795e60419327"},"vehicle_type_id":"4","last_reported":1726855933,"current_range_meters":9200,"station_id":"ce4bhph2rcd13ifvqhdg","pricing_plan_id":"cebpf4jnsgd1na2vs0mg"},{"bike_id":"22e5e8b4-2780-465e-a665-87f6f1172653","system_id":"levelo_inurba_marseille","lat":43.24997,"lon":5.38935,"is_reserved":false,"is_disabled":false,"rental_uris":{"android":"levelo://app?vid=22e5e8b4-2780-465e-a665-87f6f1172653","ios":"levelo://app?vid=22e5e8b4-2780-465e-a665-87f6f1172653"},"vehicle_type_id":"4","last_reported":1726855933,"current_range_meters":16000,"station_id":"ce4bhgp2rcd13ifvqfd0","pricing_plan_id":"cebpf4jnsgd1na2vs0mg"},{"bike_id":"c0dad189-fca0-4e4e-b3f1-16810320880b","system_id":"levelo_inurba_marseille","lat":43.29419,"lon":5.38648,"is_reserved":false,"is_disabled":false,"rental_uris":{"android":"levelo://app?vid=c0dad189-fca0-4e4e-b3f1-16810320880b","ios":"levelo://app?vid=c0dad189-fca0-4e4e-b3f1-16810320880b"},"vehicle_type_id":"4","last_reported":1726855933,"current_range_meters":28000,"station_id":"ce4bh2h2rcd13ifvqdh0","pricing_plan_id":"cebpf4jnsgd1na2vs0mg"},{"bike_id":"f4087b7c-4546-4b45-b294-2e0e9b091136","system_id":"levelo_inurba_marseille","lat":43.289394,"lon":5.396293,"is_reserved":false,"is_disabled":false,"rental_uris":{"android":"levelo://app?vid=f4087b7c-4546-4b45-b294-2e0e9b091136","ios":"levelo://app?vid=f4087b7c-4546-4b45-b294-2e0e9b091136"},"vehicle_type_id":"4","last_reported":1726855933,"current_range_meters":11600,"station_id":"ce4bh3h2rcd13ifvqdn0","pricing_plan_id":"cebpf4jnsgd1na2vs0mg"},{"bike_id":"306641f8-b277-467c-b7e2-7725e9457060","system_id":"levelo_inurba_marseille","lat":43.281555,"lon":5.426264,"is_reserved":false,"is_disabled":false,"rental_uris":{"android":"levelo://app?vid=306641f8-b277-467c-b7e2-7725e9457060","ios":"levelo://app?vid=306641f8-b277-467c-b7e2-7725e9457060"},"vehicle_type_id":"4","last_reported":1726855933,"current_range_meters":6000,"station_id":"ce4bhnh2rcd13ifvqgug","pricing_plan_id":"cebpf4jnsgd1na2vs0mg"},{"bike_id":"cfd9e125-aace-4fba-aa8e-27ae6fb826f6","system_id":"levelo_inurba_marseille","lat":43.32334,"lon":5.40623,"is_reserved":false,"is_disabled":false,"rental_uris":{"android":"levelo://app?vid=cfd9e125-aace-4fba-aa8e-27ae6fb826f6","ios":"levelo://app?vid=cfd9e125-aace-4fba-aa8e-27ae6fb826f6"},"vehicle_type_id":"4","last_reported":1726855933,"current_range_meters":39200,"station_id":"ce4bhq92rcd13ifvqhjg","pricing_plan_id":"cebpf4jnsgd1na2vs0mg"},{"bike_id":"2d25f8a5-2ff7-48b4-889c-6a9b69c0e245","system_id":"levelo_inurba_marseille","lat":43.29301,"lon":5.37179,"is_reserved":false,"is_disabled":false,"rental_uris":{"android":"levelo://app?vid=2d25f8a5-2ff7-48b4-889c-6a9b69c0e245","ios":"levelo://app?vid=2d25f8a5-2ff7-48b4-889c-6a9b69c0e245"},"vehicle_type_id":"4","last_reported":1726855933,"current_range_meters":34000,"station_id":"ce4bgh92rcd13ifvqb40","pricing_plan_id":"cebpf4jnsgd1na2vs0mg"},{"bike_id":"544ce2cf-83dc-47ff-bb9d-8b7f4fe5aef9","system_id":"levelo_inurba_marseille","lat":43.27303,"lon":5.41224,"is_reserved":false,"is_disabled":false,"rental_uris":{"android":"levelo://app?vid=544ce2cf-83dc-47ff-bb9d-8b7f4fe5aef9","ios":"levelo://app?vid=544ce2cf-83dc-47ff-bb9d-8b7f4fe5aef9"},"vehicle_type_id":"4","last_reported":1726855933,"current_range_meters":4000,"station_id":"","pricing_plan_id":"cebpf4jnsgd1na2vs0mg"},{"bike_id":"9f2988ac-66ea-414d-9556-3c96920ef3a8","system_id":"levelo_inurba_marseille","lat":43.3026,"lon":5.40084,"is_reserved":false,"is_disabled":false,"rental_uris":{"android":"levelo://app?vid=9f2988ac-66ea-414d-9556-3c96920ef3a8","ios":"levelo://app?vid=9f2988ac-66ea-414d-9556-3c96920ef3a8"},"vehicle_type_id":"4","last_reported":1726855933,"current_range_meters":31200,"station_id":"ce4bgvh2rcd13ifvqcs0","pricing_plan_id":"cebpf4jnsgd1na2vs0mg"},{"bike_id":"534173ed-c7da-49ff-8f57-5d6e6781b1b9","system_id":"levelo_inurba_marseille","lat":43.23195,"lon":5.35555,"is_reserved":false,"is_disabled":false,"rental_uris":{"android":"levelo://app?vid=534173ed-c7da-49ff-8f57-5d6e6781b1b9","ios":"levelo://app?vid=534173ed-c7da-49ff-8f57-5d6e6781b1b9"},"vehicle_type_id":"4","last_reported":1726855933,"current_range_meters":36000,"station_id":"ce4bhu92rcd13ifvqi70","pricing_plan_id":"cebpf4jnsgd1na2vs0mg"},{"bike_id":"6a1683ad-3ad9-4b91-b338-149a597d762c","system_id":"levelo_inurba_marseille","lat":43.30602,"lon":5.37228,"is_reserved":false,"is_disabled":false,"rental_uris":{"android":"levelo://app?vid=6a1683ad-3ad9-4b91-b338-149a597d762c","ios":"levelo://app?vid=6a1683ad-3ad9-4b91-b338-149a597d762c"},"vehicle_type_id":"4","last_reported":1726855933,"current_range_meters":18800,"station_id":"ce4bgqh2rcd13ifvqc4g","pricing_plan_id":"cebpf4jnsgd1na2vs0mg"},{"bike_id":"60aeb82c-a8fb-4875-a42f-0b5368b6b6f4","system_id":"levelo_inurba_marseille","lat":43.27997,"lon":5.40011,"is_reserved":false,"is_disabled":false,"rental_uris":{"android":"levelo://app?vid=60aeb82c-a8fb-4875-a42f-0b5368b6b6f4","ios":"levelo://app?vid=60aeb82c-a8fb-4875-a42f-0b5368b6b6f4"},"vehicle_type_id":"4","last_reported":1726855933,"current_range_meters":30800,"station_id":"ce4bho92rcd13ifvqh4g","pricing_plan_id":"cebpf4jnsgd1na2vs0mg"},{"bike_id":"edd9f389-dc7f-438d-b842-b11ca88b82ef","system_id":"levelo_inurba_marseille","lat":43.308917,"lon":5.391618,"is_reserved":false,"is_disabled":false,"rental_uris":{"android":"levelo://app?vid=edd9f389-dc7f-438d-b842-b11ca88b82ef","ios":"levelo://app?vid=edd9f389-dc7f-438d-b842-b11ca88b82ef"},"vehicle_type_id":"4","last_reported":1726855933,"current_range_meters":26000,"station_id":"ce4bgup2rcd13ifvqco0","pricing_plan_id":"cebpf4jnsgd1na2vs0mg"},{"bike_id":"12bf45ac-e9c4-4859-9c08-4966656d6df0","system_id":"levelo_inurba_marseille","lat":43.28703,"lon":5.37389,"is_reserved":false,"is_disabled":false,"rental_uris":{"android":"levelo://app?vid=12bf45ac-e9c4-4859-9c08-4966656d6df0","ios":"levelo://app?vid=12bf45ac-e9c4-4859-9c08-4966656d6df0"},"vehicle_type_id":"4","last_reported":1726855933,"current_range_meters":7200,"station_id":"ce4bh3p2rcd13ifvqdq0","pricing_plan_id":"cebpf4jnsgd1na2vs0mg"},{"bike_id":"7790bead-229f-4a16-af48-aad2ead53425","system_id":"levelo_inurba_marseille","lat":43.30418,"lon":5.41287,"is_reserved":false,"is_disabled":false,"rental_uris":{"android":"levelo://app?vid=7790bead-229f-4a16-af48-aad2ead53425","ios":"levelo://app?vid=7790bead-229f-4a16-af48-aad2ead53425"},"vehicle_type_id":"4","last_reported":1726855933,"current_range_meters":12800,"station_id":"ce4bhop2rcd13ifvqh8g","pricing_plan_id":"cebpf4jnsgd1na2vs0mg"},{"bike_id":"f7cdd69b-6e0a-41b2-afb6-f74440f29465","system_id":"levelo_inurba_marseille","lat":43.24545,"lon":5.39526,"is_reserved":false,"is_disabled":false,"rental_uris":{"android":"levelo://app?vid=f7cdd69b-6e0a-41b2-afb6-f74440f29465","ios":"levelo://app?vid=f7cdd69b-6e0a-41b2-afb6-f74440f29465"},"vehicle_type_id":"4","last_reported":1726855933,"current_range_meters":8000,"station_id":"ce4bhlp2rcd13ifvqgjg","pricing_plan_id":"cebpf4jnsgd1na2vs0mg"},{"bike_id":"b52f6fe1-5af7-4565-b5a8-d459a993545e","system_id":"levelo_inurba_marseille","lat":43.31988,"lon":5.38165,"is_reserved":false,"is_disabled":false,"rental_uris":{"android":"levelo://app?vid=b52f6fe1-5af7-4565-b5a8-d459a993545e","ios":"levelo://app?vid=b52f6fe1-5af7-4565-b5a8-d459a993545e"},"vehicle_type_id":"4","last_reported":1726855933,"current_range_meters":28400,"station_id":"ce4bhr12rcd13ifvqhpg","pricing_plan_id":"cebpf4jnsgd1na2vs0mg"},{"bike_id":"64244a04-c9d9-4423-8820-b949a626b211","system_id":"levelo_inurba_marseille","lat":43.279633,"lon":5.387424,"is_reserved":false,"is_disabled":false,"rental_uris":{"android":"levelo://app?vid=64244a04-c9d9-4423-8820-b949a626b211","ios":"levelo://app?vid=64244a04-c9d9-4423-8820-b949a626b211"},"vehicle_type_id":"4","last_reported":1726855933,"current_range_meters":24400,"station_id":"ce4bhg12rcd13ifvqf80","pricing_plan_id":"cebpf4jnsgd1na2vs0mg"},{"bike_id":"8455f973-1d28-4133-bc83-5de8e0143592","system_id":"levelo_inurba_marseille","lat":43.30417,"lon":5.39751,"is_reserved":false,"is_disabled":false,"rental_uris":{"android":"levelo://app?vid=8455f973-1d28-4133-bc83-5de8e0143592","ios":"levelo://app?vid=8455f973-1d28-4133-bc83-5de8e0143592"},"vehicle_type_id":"4","last_reported":1726855933,"current_range_meters":6400,"station_id":"ce4bh092rcd13ifvqd20","pricing_plan_id":"cebpf4jnsgd1na2vs0mg"},{"bike_id":"87346f06-dafd-4784-9cd8-406cbbd3912f","system_id":"levelo_inurba_marseille","lat":43.29794,"lon":5.40394,"is_reserved":false,"is_disabled":false,"rental_uris":{"android":"levelo://app?vid=87346f06-dafd-4784-9cd8-406cbbd3912f","ios":"levelo://app?vid=87346f06-dafd-4784-9cd8-406cbbd3912f"},"vehicle_type_id":"4","last_reported":1726855933,"current_range_meters":39200,"station_id":"ce4bh112rcd13ifvqd90","pricing_plan_id":"cebpf4jnsgd1na2vs0mg"},{"bike_id":"d8a041ab-c6bd-40f4-b8f7-4e63dcda0914","system_id":"levelo_inurba_marseille","lat":43.33296,"lon":5.42908,"is_reserved":false,"is_disabled":false,"rental_uris":{"android":"levelo://app?vid=d8a041ab-c6bd-40f4-b8f7-4e63dcda0914","ios":"levelo://app?vid=d8a041ab-c6bd-40f4-b8f7-4e63dcda0914"},"vehicle_type_id":"4","last_reported":1726855933,"current_range_meters":18000,"station_id":"","pricing_plan_id":"cebpf4jnsgd1na2vs0mg"},{"bike_id":"eb4f0792-3b17-447a-aee1-573fbc465364","system_id":"levelo_inurba_marseille","lat":43.2396,"lon":5.36639,"is_reserved":false,"is_disabled":false,"rental_uris":{"android":"levelo://app?vid=eb4f0792-3b17-447a-aee1-573fbc465364","ios":"levelo://app?vid=eb4f0792-3b17-447a-aee1-573fbc465364"},"vehicle_type_id":"4","last_reported":1726855933,"current_range_meters":14400,"station_id":"ce4bhi12rcd13ifvqfp0","pricing_plan_id":"cebpf4jnsgd1na2vs0mg"},{"bike_id":"cc52f80e-2ef0-49e5-8b19-5659066c0f6f","system_id":"levelo_inurba_marseille","lat":43.31708,"lon":5.4371,"is_reserved":false,"is_disabled":false,"rental_uris":{"android":"levelo://app?vid=cc52f80e-2ef0-49e5-8b19-5659066c0f6f","ios":"levelo://app?vid=cc52f80e-2ef0-49e5-8b19-5659066c0f6f"},"vehicle_type_id":"4","last_reported":1726855933,"current_range_meters":9200,"station_id":"ce4bhp92rcd13ifvqhcg","pricing_plan_id":"cebpf4jnsgd1na2vs0mg"},{"bike_id":"6c49d7fc-28d4-430a-a652-7d35afd8384c","system_id":"levelo_inurba_marseille","lat":43.29898,"lon":5.43674,"is_reserved":false,"is_disabled":false,"rental_uris":{"android":"levelo://app?vid=6c49d7fc-28d4-430a-a652-7d35afd8384c","ios":"levelo://app?vid=6c49d7fc-28d4-430a-a652-7d35afd8384c"},"vehicle_type_id":"4","last_reported":1726855933,"current_range_meters":9600,"station_id":"ce4bhpp2rcd13ifvqhfg","pricing_plan_id":"cebpf4jnsgd1na2vs0mg"},{"bike_id":"31427ca5-5a4f-465f-b41a-1d0ec4436454","system_id":"levelo_inurba_marseille","lat":43.2955,"lon":5.4229,"is_reserved":false,"is_disabled":false,"rental_uris":{"android":"levelo://app?vid=31427ca5-5a4f-465f-b41a-1d0ec4436454","ios":"levelo://app?vid=31427ca5-5a4f-465f-b41a-1d0ec4436454"},"vehicle_type_id":"4","last_reported":1726855933,"current_range_meters":4000,"station_id":"ce4bhph2rcd13ifvqhdg","pricing_plan_id":"cebpf4jnsgd1na2vs0mg"},{"bike_id":"42a5e3dc-fba7-46e2-87c6-d88bff9f2a02","system_id":"levelo_inurba_marseille","lat":43.27495,"lon":5.42454,"is_reserved":false,"is_disabled":false,"rental_uris":{"android":"levelo://app?vid=42a5e3dc-fba7-46e2-87c6-d88bff9f2a02","ios":"levelo://app?vid=42a5e3dc-fba7-46e2-87c6-d88bff9f2a02"},"vehicle_type_id":"4","last_reported":1726855933,"current_range_meters":10800,"station_id":"ce4bhn92rcd13ifvqgrg","pricing_plan_id":"cebpf4jnsgd1na2vs0mg"},{"bike_id":"bd35274d-82c9-4293-a0ed-10cf5790e601","system_id":"levelo_inurba_marseille","lat":43.31073,"lon":5.38356,"is_reserved":false,"is_disabled":false,"rental_uris":{"android":"levelo://app?vid=bd35274d-82c9-4293-a0ed-10cf5790e601","ios":"levelo://app?vid=bd35274d-82c9-4293-a0ed-10cf5790e601"},"vehicle_type_id":"4","last_reported":1726855933,"current_range_meters":27200,"station_id":"ce4bgv92rcd13ifvqcr0","pricing_plan_id":"cebpf4jnsgd1na2vs0mg"},{"bike_id":"231df590-15eb-4c0a-bdf6-dddd3cb861cb","system_id":"levelo_inurba_marseille","lat":43.337444,"lon":5.374475,"is_reserved":false,"is_disabled":false,"rental_uris":{"android":"levelo://app?vid=231df590-15eb-4c0a-bdf6-dddd3cb861cb","ios":"levelo://app?vid=231df590-15eb-4c0a-bdf6-dddd3cb861cb"},"vehicle_type_id":"4","last_reported":1726855933,"current_range_meters":34800,"station_id":"","pricing_plan_id":"cebpf4jnsgd1na2vs0mg"},{"bike_id":"8e7d42cc-ed0d-4a07-a603-3b911ab2f749","system_id":"levelo_inurba_marseille","lat":43.25727,"lon":5.41113,"is_reserved":false,"is_disabled":false,"rental_uris":{"android":"levelo://app?vid=8e7d42cc-ed0d-4a07-a603-3b911ab2f749","ios":"levelo://app?vid=8e7d42cc-ed0d-4a07-a603-3b911ab2f749"},"vehicle_type_id":"4","last_reported":1726855933,"current_range_meters":12400,"station_id":"ce4bhkp2rcd13ifvqgd0","pricing_plan_id":"cebpf4jnsgd1na2vs0mg"},{"bike_id":"cc092de0-4c23-44c5-8af5-e0044787ab4f","system_id":"levelo_inurba_marseille","lat":43.31993,"lon":5.38171,"is_reserved":false,"is_disabled":false,"rental_uris":{"android":"levelo://app?vid=cc092de0-4c23-44c5-8af5-e0044787ab4f","ios":"levelo://app?vid=cc092de0-4c23-44c5-8af5-e0044787ab4f"},"vehicle_type_id":"4","last_reported":1726855933,"current_range_meters":38800,"station_id":"ce4bhr12rcd13ifvqhpg","pricing_plan_id":"cebpf4jnsgd1na2vs0mg"},{"bike_id":"c8b78497-b39a-45a4-ad1a-7383bfb5783e","system_id":"levelo_inurba_marseille","lat":43.31759,"lon":5.39024,"is_reserved":false,"is_disabled":false,"rental_uris":{"android":"levelo://app?vid=c8b78497-b39a-45a4-ad1a-7383bfb5783e","ios":"levelo://app?vid=c8b78497-b39a-45a4-ad1a-7383bfb5783e"},"vehicle_type_id":"4","last_reported":1726855933,"current_range_meters":24000,"station_id":"ce4bhqp2rcd13ifvqhng","pricing_plan_id":"cebpf4jnsgd1na2vs0mg"},{"bike_id":"2c40c514-259f-4442-bc9e-ab82ab1f46ba","system_id":"levelo_inurba_marseille","lat":43.26677,"lon":5.38266,"is_reserved":false,"is_disabled":false,"rental_uris":{"android":"levelo://app?vid=2c40c514-259f-4442-bc9e-ab82ab1f46ba","ios":"levelo://app?vid=2c40c514-259f-4442-bc9e-ab82ab1f46ba"},"vehicle_type_id":"4","last_reported":1726855933,"current_range_meters":16800,"station_id":"ce4bhg92rcd13ifvqf90","pricing_plan_id":"cebpf4jnsgd1na2vs0mg"},{"bike_id":"68e7d41a-d38d-4894-b227-2829e335bc75","system_id":"levelo_inurba_marseille","lat":43.30276,"lon":5.37707,"is_reserved":false,"is_disabled":false,"rental_uris":{"android":"levelo://app?vid=68e7d41a-d38d-4894-b227-2829e335bc75","ios":"levelo://app?vid=68e7d41a-d38d-4894-b227-2829e335bc75"},"vehicle_type_id":"4","last_reported":1726855933,"current_range_meters":11200,"station_id":"ce4bguh2rcd13ifvqcj0","pricing_plan_id":"cebpf4jnsgd1na2vs0mg"},{"bike_id":"bd8d2fa7-c98b-48e3-a7ef-5c307e3342a9","system_id":"levelo_inurba_marseille","lat":43.29042,"lon":5.35884,"is_reserved":false,"is_disabled":false,"rental_uris":{"android":"levelo://app?vid=bd8d2fa7-c98b-48e3-a7ef-5c307e3342a9","ios":"levelo://app?vid=bd8d2fa7-c98b-48e3-a7ef-5c307e3342a9"},"vehicle_type_id":"4","last_reported":1726855933,"current_range_meters":34800,"station_id":"ce4bha92rcd13ifvqeg0","pricing_plan_id":"cebpf4jnsgd1na2vs0mg"},{"bike_id":"7b47853b-3f08-4c74-9de8-cbec07893527","system_id":"levelo_inurba_marseille","lat":43.33025,"lon":5.39044,"is_reserved":false,"is_disabled":false,"rental_uris":{"android":"levelo://app?vid=7b47853b-3f08-4c74-9de8-cbec07893527","ios":"levelo://app?vid=7b47853b-3f08-4c74-9de8-cbec07893527"},"vehicle_type_id":"4","last_reported":1726855933,"current_range_meters":39200,"station_id":"ce4bhr92rcd13ifvqhrg","pricing_plan_id":"cebpf4jnsgd1na2vs0mg"},{"bike_id":"83320d84-23f8-40d7-ab6f-60000d08be99","system_id":"levelo_inurba_marseille","lat":43.239619,"lon":5.366289,"is_reserved":false,"is_disabled":false,"rental_uris":{"android":"levelo://app?vid=83320d84-23f8-40d7-ab6f-60000d08be99","ios":"levelo://app?vid=83320d84-23f8-40d7-ab6f-60000d08be99"},"vehicle_type_id":"4","last_reported":1726855933,"current_range_meters":4000,"station_id":"ce4bhi12rcd13ifvqfp0","pricing_plan_id":"cebpf4jnsgd1na2vs0mg"},{"bike_id":"5257d6cd-61d8-4232-ba78-4f5cc379154b","system_id":"levelo_inurba_marseille","lat":43.290926,"lon":5.381355,"is_reserved":false,"is_disabled":false,"rental_uris":{"android":"levelo://app?vid=5257d6cd-61d8-4232-ba78-4f5cc379154b","ios":"levelo://app?vid=5257d6cd-61d8-4232-ba78-4f5cc379154b"},"vehicle_type_id":"4","last_reported":1726855933,"current_range_meters":31200,"station_id":"ce4bh512rcd13ifvqe2g","pricing_plan_id":"cebpf4jnsgd1na2vs0mg"},{"bike_id":"4024f914-c508-4cdd-af68-25623a876612","system_id":"levelo_inurba_marseille","lat":43.31753,"lon":5.39031,"is_reserved":false,"is_disabled":false,"rental_uris":{"android":"levelo://app?vid=4024f914-c508-4cdd-af68-25623a876612","ios":"levelo://app?vid=4024f914-c508-4cdd-af68-25623a876612"},"vehicle_type_id":"4","last_reported":1726855933,"current_range_meters":14000,"station_id":"ce4bhqp2rcd13ifvqhng","pricing_plan_id":"cebpf4jnsgd1na2vs0mg"},{"bike_id":"5e93a29b-fbf8-441f-bab9-2113219b36a8","system_id":"levelo_inurba_marseille","lat":43.29704,"lon":5.36621,"is_reserved":false,"is_disabled":false,"rental_uris":{"android":"levelo://app?vid=5e93a29b-fbf8-441f-bab9-2113219b36a8","ios":"levelo://app?vid=5e93a29b-fbf8-441f-bab9-2113219b36a8"},"vehicle_type_id":"4","last_reported":1726855933,"current_range_meters":38800,"station_id":"ce4bgn12rcd13ifvqbt0","pricing_plan_id":"cebpf4jnsgd1na2vs0mg"},{"bike_id":"e8c349f5-dde6-4382-b6d4-8bc4dd74fc1d","system_id":"levelo_inurba_marseille","lat":43.31077,"lon":5.42432,"is_reserved":false,"is_disabled":false,"rental_uris":{"android":"levelo://app?vid=e8c349f5-dde6-4382-b6d4-8bc4dd74fc1d","ios":"levelo://app?vid=e8c349f5-dde6-4382-b6d4-8bc4dd74fc1d"},"vehicle_type_id":"4","last_reported":1726855933,"current_range_meters":2800,"station_id":"ce4bhp92rcd13ifvqhag","pricing_plan_id":"cebpf4jnsgd1na2vs0mg"},