{"last_updated":1752081096,"ttl":60,"version":"2.2","data":{"bikes":[{"bike_id":"cd20cfea-2f2f-444d-a882-a49b6cf370eb","system_id":"levelo_inurba_marseille","lat":43.337444,"lon":5.374475,"is_reserved":false,"is_disabled":true,"rental_uris":{"android":"levelo://app?vid=cd20cfea-2f2f-444d-a882-a49b6cf370eb","ios":"levelo://app?vid=cd20cfea-2f2f-444d-a882-a49b6cf370eb"},"vehicle_type_id":"4","last_reported":1752081096,"current_range_meters":0,"station_id":"","pricing_plan_id":"cebpf4jnsgd1na2vs0mg"},{"bike_id":"3da29fb8-fc97-44c6-b9ac-31dd456b2fd4","system_id":"levelo_inurba_marseille","lat":43.33771,"lon":5.37424,"is_reserved":false,"is_disabled":true,"rental_uris":{"android":"levelo://app?vid=3da29fb8-fc97-44c6-b9ac-31dd456b2fd4","ios":"levelo://app?vid=3da29fb8-fc97-44c6-b9ac-31dd456b2fd4"},"vehicle_type_id":"4","last_reported":1752081096,"current_range_meters":0,"station_id":"","pricing_plan_id":"cebpf4jnsgd1na2vs0mg"},{"bike_id":"01861ad8-a8d7-4be6-816e-651927c87584","system_id":"levelo_inurba_marseille","lat":43.33751,"lon":5.37456,"is_reserved":false,"is_disabled":true,"rental_uris":{"android":"levelo://app?vid=01861ad8-a8d7-4be6-816e-651927c87584","ios":"levelo://app?vid=01861ad8-a8d7-4be6-816e-651927c87584"},"vehicle_type_id":"4","last_reported":1752081096,"current_range_meters":0,"station_id":"","pricing_plan_id":"cebpf4jnsgd1na2vs0mg"},{"bike_id":"eb89bb63-623c-4ad4-9a5f-4b12daf6b4eb","system_id":"levelo_inurba_marseille","lat":43.296088,"lon":5.371595,"is_reserved":false,"is_disabled":true,"rental_uris":{"android":"levelo://app?vid=eb89bb63-623c-4ad4-9a5f-4b12daf6b4eb","ios":"levelo://app?vid=eb89bb63-623c-4ad4-9a5f-4b12daf6b4eb"},"vehicle_type_id":"4","last_reported":1752081096,"current_range_meters":0,"station_id":"","pricing_plan_id":"cebpf4jnsgd1na2vs0mg"},{"bike_id":"53b1a31e-8ada-40c0-8d64-113a81233c84","system_id":"levelo_inurba_marseille","lat":43.36374,"lon":5.31857,"is_reserved":false,"is_disabled":true,"rental_uris":{"android":"levelo://app?vid=53b1a31e-8ada-40c0-8d64-113a81233c84","ios":"levelo://app?vid=53b1a31e-8ada-40c0-8d64-113a81233c84"},"vehicle_type_id":"4","last_reported":1752081096,"current_range_meters":0,"station_id":"","pricing_plan_id":"cebpf4jnsgd1na2vs0mg"},{"bike_id":"9cd197b7-f483-432f-92c8-6e19035d180e","system_id":"levelo_inurba_marseille","lat":43.2929,"lon":5.37435,"is_reserved":false,"is_disabled":true,"rental_uris":{"android":"levelo://app?vid=9cd197b7-f483-432f-92c8-6e19035d180e","ios":"levelo://app?vid=9cd197b7-f483-432f-92c8-6e19035d180e"},"vehicle_type_id":"4","last_reported":1752081096,"current_range_meters":0,"station_id":"ce4bgi12rcd13ifvqb70","pricing_plan_id":"cebpf4jnsgd1na2vs0mg"},{"bike_id":"51684a38-ff6e-4e10-a149-ed34f0a6be2e","system_id":"levelo_inurba_marseille","lat":43.29252,"lon":5.37636,"is_reserved":false,"is_disabled":true,"rental_uris":{"android":"levelo://app?vid=51684a38-ff6e-4e10-a149-ed34f0a6be2e","ios":"levelo://app?vid=51684a38-ff6e-4e10-a149-ed34f0a6be2e"},"vehicle_type_id":"4","last_reported":1752081096,"current_range_meters":0,"station_id":"ce4bgi12rcd13ifvqb80","pricing_plan_id":"cebpf4jnsgd1na2vs0mg"},{"bike_id":"72e21b6b-06cc-4693-b41a-0e9fe35e4971","system_id":"levelo_inurba_marseille","lat":43.29534,"lon":5.3855,"is_reserved":false,"is_disabled":true,"rental_uris":{"android":"levelo://app?vid=72e21b6b-06cc-4693-b41a-0e9fe35e4971","ios":"levelo://app?vid=72e21b6b-06cc-4693-b41a-0e9fe35e4971"},"vehicle_type_id":"4","last_reported":1752081096,"current_range_meters":0,"station_id":"ce4bgih2rcd13ifvqba0","pricing_plan_id":"cebpf4jnsgd1na2vs0mg"},{"bike_id":"19990b2a-ac81-4412-9fd4-c70862dee54b","system_id":"levelo_inurba_marseille","lat":43.3013,"lon":5.39869,"is_reserved":false,"is_disabled":true,"rental_uris":{"android":"levelo://app?vid=19990b2a-ac81-4412-9fd4-c70862dee54b","ios":"levelo://app?vid=19990b2a-ac81-4412-9fd4-c70862dee54b"},"vehicle_type_id":"4","last_reported":1752081096,"current_range_meters":0,"station_id":"ce4bh0h2rcd13ifvqd40","pricing_plan_id":"cebpf4jnsgd1na2vs0mg"},{"bike_id":"014453ed-f6cd-4974-bb51-92737acd1974","system_id":"levelo_inurba_marseille","lat":43.29259,"lon":5.40914,"is_reserved":false,"is_disabled":true,"rental_uris":{"android":"levelo://app?vid=014453ed-f6cd-4974-bb51-92737acd1974","ios":"levelo://app?vid=014453ed-f6cd-4974-bb51-92737acd1974"},"vehicle_type_id":"4","last_reported":1752081096,"current_range_meters":0,"station_id":"ce4bh192rcd13ifvqdc0","pricing_plan_id":"cebpf4jnsgd1na2vs0mg"},{"bike_id":"383d5e33-adf2-4ce0-9c33-f95066a2cfc0","system_id":"levelo_inurba_marseille","lat":43.27383,"lon":5.36249,"is_reserved":false,"is_disabled":true,"rental_uris":{"android":"levelo://app?vid=383d5e33-adf2-4ce0-9c33-f95066a2cfc0","ios":"levelo://app?vid=383d5e33-adf2-4ce0-9c33-f95066a2cfc0"},"vehicle_type_id":"4","last_reported":1752081096,"current_range_meters":0,"station_id":"ce4bhbh2rcd13ifvqeo0","pricing_plan_id":"cebpf4jnsgd1na2vs0mg"},{"bike_id":"9e143942-2c32-464b-937c-26f5f8534186","system_id":"levelo_inurba_marseille","lat":43.26682,"lon":5.38236,"is_reserved":false,"is_disabled":true,"rental_uris":{"android":"levelo://app?vid=9e143942-2c32-464b-937c-26f5f8534186","ios":"levelo://app?vid=9e143942-2c32-464b-937c-26f5f8534186"},"vehicle_type_id":"4","last_reported":1752081096,"current_range_meters":0,"station_id":"ce4bhg92rcd13ifvqf90","pricing_plan_id":"cebpf4jnsgd1na2vs0mg"},{"bike_id":"4eaa4f46-e787-462b-ab61-5147ba127d17","system_id":"levelo_inurba_marseille","lat":43.27499,"lon":5.42463,"is_reserved":false,"is_disabled":true,"rental_uris":{"android":"levelo://app?vid=4eaa4f46-e787-462b-ab61-5147ba127d17","ios":"levelo://app?vid=4eaa4f46-e787-462b-ab61-5147ba127d17"},"vehicle_type_id":"4","last_reported":1752081096,"current_range_meters":0,"station_id":"ce4bhn92rcd13ifvqgrg","pricing_plan_id":"cebpf4jnsgd1na2vs0mg"},{"bike_id":"55319fe7-a2fc-4cfc-b69d-40acd09d95d0","system_id":"levelo_inurba_marseille","lat":43.33603,"lon":5.41033,"is_reserved":false,"is_disabled":true,"rental_uris":{"android":"levelo://app?vid=55319fe7-a2fc-4cfc-b69d-40acd09d95d0","ios":"levelo://app?vid=55319fe7-a2fc-4cfc-b69d-40acd09d95d0"},"vehicle_type_id":"4","last_reported":1752081096,"current_range_meters":0,"station_id":"ce4bhqh2rcd13ifvqhmg","pricing_plan_id":"cebpf4jnsgd1na2vs0mg"},{"bike_id":"765dc4e5-fbf5-415e-8836-ddc51378f1fc","system_id":"levelo_inurba_marseille","lat":43.22935,"lon":5.35379,"is_reserved":false,"is_disabled":true,"rental_uris":{"android":"levelo://app?vid=765dc4e5-fbf5-415e-8836-ddc51378f1fc","ios":"levelo://app?vid=765dc4e5-fbf5-415e-8836-ddc51378f1fc"},"vehicle_type_id":"4","last_reported":1752081096,"current_range_meters":0,"station_id":"cpo3532slgdg3j2ikp40","pricing_plan_id":"cebpf4jnsgd1na2vs0mg"},{"bike_id":"e562ad4e-a577-4b7b-a74e-7e00b9c0f52f","system_id":"levelo_inurba_marseille","lat":43.225027,"lon":5.347812,"is_reserved":false,"is_disabled":true,"rental_uris":{"android":"levelo://app?vid=e562ad4e-a577-4b7b-a74e-7e00b9c0f52f","ios":"levelo://app?vid=e562ad4e-a577-4b7b-a74e-7e00b9c0f52f"},"vehicle_type_id":"4","last_reported":1752081096,"current_range_meters":0,"station_id":"st_cvj5dfep6f1abm77gieg","pricing_plan_id":"cebpf4jnsgd1na2vs0mg"},{"bike_id":"6661cbd2-6ba2-4b46-b15e-1188df0f29d7","system_id":"levelo_inurba_marseille","lat":43.212251,"lon":5.350806,"is_reserved":false,"is_disabled":true,"rental_uris":{"android":"levelo://app?vid=6661cbd2-6ba2-4b46-b15e-1188df0f29d7","ios":"levelo://app?vid=6661cbd2-6ba2-4b46-b15e-1188df0f29d7"},"vehicle_type_id":"4","last_reported":1752081096,"current_range_meters":0,"station_id":"st_cvj6sg6p6f1abm77japg","pricing_plan_id":"cebpf4jnsgd1na2vs0mg"},{"bike_id":"2204d68e-c420-4c72-abca-f37f9e9749ab","system_id":"levelo_inurba_marseille","lat":43.295311,"lon":5.391042,"is_reserved":false,"is_disabled":true,"rental_uris":{"android":"levelo://app?vid=2204d68e-c420-4c72-abca-f37f9e9749ab","ios":"levelo://app?vid=2204d68e-c420-4c72-abca-f37f9e9749ab"},"vehicle_type_id":"4","last_reported":1752081096,"current_range_meters":400,"station_id":"ce4bh3p2rcd13ifvqdp0","pricing_plan_id":"cebpf4jnsgd1na2vs0mg"},{"bike_id":"336eaf6b-6955-4ef9-8dfa-abf06b057d2c","system_id":"levelo_inurba_marseille","lat":43.212,"lon":5.35044,"is_reserved":false,"is_disabled":true,"rental_uris":{"android":"levelo://app?vid=336eaf6b-6955-4ef9-8dfa-abf06b057d2c","ios":"levelo://app?vid=336eaf6b-6955-4ef9-8dfa-abf06b057d2c"},"vehicle_type_id":"4","last_reported":1752081096,"current_range_meters":400,"station_id":"st_cvj6sg6p6f1abm77japg","pricing_plan_id":"cebpf4jnsgd1na2vs0mg"},{"bike_id":"264dc217-208e-4525-a2ce-7eb745880ba0","system_id":"levelo_inurba_marseille","lat":43.3137,"lon":5.38489,"is_reserved":false,"is_disabled":true,"rental_uris":{"android":"levelo://app?vid=264dc217-208e-4525-a2ce-7eb745880ba0","ios":"levelo://app?vid=264dc217-208e-4525-a2ce-7eb745880ba0"},"vehicle_type_id":"4","last_reported":1752081096,"current_range_meters":800,"station_id":"ce4bgt92rcd13ifvqcf0","pricing_plan_id":"cebpf4jnsgd1na2vs0mg"},{"bike_id":"c780bccc-8e8e-4426-a537-1ed8f10ba6b1","system_id":"levelo_inurba_marseille","lat":43.28277,"lon":5.35058,"is_reserved":false,"is_disabled":true,"rental_uris":{"android":"levelo://app?vid=c780bccc-8e8e-4426-a537-1ed8f10ba6b1","ios":"levelo://app?vid=c780bccc-8e8e-4426-a537-1ed8f10ba6b1"},"vehicle_type_id":"4","last_reported":1752081096,"current_range_meters":800,"station_id":"ce4bhbp2rcd13ifvqerg","pricing_plan_id":"cebpf4jnsgd1na2vs0mg"},{"bike_id":"9dbe87cc-21c9-4b6c-952c-c09e35887f80","system_id":"levelo_inurba_marseille","lat":43.21738,"lon":5.34588,"is_reserved":false,"is_disabled":true,"rental_uris":{"android":"levelo://app?vid=9dbe87cc-21c9-4b6c-952c-c09e35887f80","ios":"levelo://app?vid=9dbe87cc-21c9-4b6c-952c-c09e35887f80"},"vehicle_type_id":"4","last_reported":1752081096,"current_range_meters":800,"station_id":"st_cvj6r9ubvosntc0bgbag","pricing_plan_id":"cebpf4jnsgd1na2vs0mg"},{"bike_id":"59e97700-1a35-427c-bc92-a304bf54502e","system_id":"levelo_inurba_marseille","lat":43.30979,"lon":5.39068,"is_reserved":false,"is_disabled":true,"rental_uris":{"android":"levelo://app?vid=59e97700-1a35-427c-bc92-a304bf54502e","ios":"levelo://app?vid=59e97700-1a35-427c-bc92-a304bf54502e"},"vehicle_type_id":"4","last_reported":1752081096,"current_range_meters":1200,"station_id":"ce4bgup2rcd13ifvqco0","pricing_plan_id":"cebpf4jnsgd1na2vs0mg"},{"bike_id":"f3c76ed8-d2b8-4c4e-b29f-e9af4c25961b","system_id":"levelo_inurba_marseille","lat":43.2958,"lon":5.39992,"is_reserved":false,"is_disabled":true,"rental_uris":{"android":"levelo://app?vid=f3c76ed8-d2b8-4c4e-b29f-e9af4c25961b","ios":"levelo://app?vid=f3c76ed8-d2b8-4c4e-b29f-e9af4c25961b"},"vehicle_type_id":"4","last_reported":1752081096,"current_range_meters":1200,"station_id":"ce4bh312rcd13ifvqdj0","pricing_plan_id":"cebpf4jnsgd1na2vs0mg"},{"bike_id":"4ed45661-83ae-42a3-b708-c5d1ee5ceab3","system_id":"levelo_inurba_marseille","lat":43.28421,"lon":5.34981,"is_reserved":false,"is_disabled":true,"rental_uris":{"android":"levelo://app?vid=4ed45661-83ae-42a3-b708-c5d1ee5ceab3","ios":"levelo://app?vid=4ed45661-83ae-42a3-b708-c5d1ee5ceab3"},"vehicle_type_id":"4","last_reported":1752081096,"current_range_meters":1200,"station_id":"ce4bhbh2rcd13ifvqepg","pricing_plan_id":"cebpf4jnsgd1na2vs0mg"},{"bike_id":"e6274472-cdce-4241-8bd9-dbda1dc4c809","system_id":"levelo_inurba_marseille","lat":43.25108,"lon":5.40324,"is_reserved":false,"is_disabled":true,"rental_uris":{"android":"levelo://app?vid=e6274472-cdce-4241-8bd9-dbda1dc4c809","ios":"levelo://app?vid=e6274472-cdce-4241-8bd9-dbda1dc4c809"},"vehicle_type_id":"4","last_reported":1752081096,"current_range_meters":1200,"station_id":"ce4bhlh2rcd13ifvqgig","pricing_plan_id":"cebpf4jnsgd1na2vs0mg"},{"bike_id":"2581b7c5-1b42-4417-a9e6-cbdbedb7a2dd","system_id":"levelo_inurba_marseille","lat":43.21739,"lon":5.34604,"is_reserved":false,"is_disabled":true,"rental_uris":{"android":"levelo://app?vid=2581b7c5-1b42-4417-a9e6-cbdbedb7a2dd","ios":"levelo://app?vid=2581b7c5-1b42-4417-a9e6-cbdbedb7a2dd"},"vehicle_type_id":"4","last_reported":1752081096,"current_range_meters":1200,"station_id":"st_cvj6r9ubvosntc0bgbag","pricing_plan_id":"cebpf4jnsgd1na2vs0mg"},{"bike_id":"c98d0307-3157-4a39-9409-864e8e505802","system_id":"levelo_inurba_marseille","lat":43.24185,"lon":5.39348,"is_reserved":false,"is_disabled":true,"rental_uris":{"android":"levelo://app?vid=c98d0307-3157-4a39-9409-864e8e505802","ios":"levelo://app?vid=c98d0307-3157-4a39-9409-864e8e505802"},"vehicle_type_id":"4","last_reported":1752081096,"current_range_meters":1600,"station_id":"","pricing_plan_id":"cebpf4jnsgd1na2vs0mg"},{"bike_id":"38f3f174-8e71-49b1-8138-b39ab2b58fe4","system_id":"levelo_inurba_marseille","lat":43.306453,"lon":5.400843,"is_reserved":false,"is_disabled":true,"rental_uris":{"android":"levelo://app?vid=38f3f174-8e71-49b1-8138-b39ab2b58fe4","ios":"levelo://app?vid=38f3f174-8e71-49b1-8138-b39ab2b58fe4"},"vehicle_type_id":"4","last_reported":1752081096,"current_range_meters":1600,"station_id":"ce4bh112rcd13ifvqda0","pricing_plan_id":"cebpf4jnsgd1na2vs0mg"},{"bike_id":"8c5dcd40-c262-499a-a6c5-fcd1cc5937e9","system_id":"levelo_inurba_marseille","lat":43.292633,"lon":5.384366,"is_reserved":false,"is_disabled":true,"rental_uris":{"android":"levelo://app?vid=8c5dcd40-c262-499a-a6c5-fcd1cc5937e9","ios":"levelo://app?vid=8c5dcd40-c262-499a-a6c5-fcd1cc5937e9"},"vehicle_type_id":"4","last_reported":1752081096,"current_range_meters":1600,"station_id":"ce4bh692rcd13ifvqea0","pricing_plan_id":"cebpf4jnsgd1na2vs0mg"},{"bike_id":"db841109-9b56-4777-86e2-06fbf4ef1649","system_id":"levelo_inurba_marseille","lat":43.28274,"lon":5.3507,"is_reserved":false,"is_disabled":true,"rental_uris":{"android":"levelo://app?vid=db841109-9b56-4777-86e2-06fbf4ef1649","ios":"levelo://app?vid=db841109-9b56-4777-86e2-06fbf4ef1649"},"vehicle_type_id":"4","last_reported":1752081096,"current_range_meters":1600,"station_id":"ce4bhbp2rcd13ifvqerg","pricing_plan_id":"cebpf4jnsgd1na2vs0mg"},{"bike_id":"e8f249bc-dc64-400d-b484-a6048703049b","system_id":"levelo_inurba_marseille","lat":43.232727,"lon":5.356722,"is_reserved":false,"is_disabled":true,"rental_uris":{"android":"levelo://app?vid=e8f249bc-dc64-400d-b484-a6048703049b","ios":"levelo://app?vid=e8f249bc-dc64-400d-b484-a6048703049b"},"vehicle_type_id":"4","last_reported":1752081096,"current_range_meters":1600,"station_id":"ce4bhu92rcd13ifvqi70","pricing_plan_id":"cebpf4jnsgd1na2vs0mg"},{"bike_id":"5745f131-cd4a-4ac9-bdc2-7385b3c3e0a5","system_id":"levelo_inurba_marseille","lat":43.21754,"lon":5.34603,"is_reserved":false,"is_disabled":true,"rental_uris":{"android":"levelo://app?vid=5745f131-cd4a-4ac9-bdc2-7385b3c3e0a5","ios":"levelo://app?vid=5745f131-cd4a-4ac9-bdc2-7385b3c3e0a5"},"vehicle_type_id":"4","last_reported":1752081096,"current_range_meters":1600,"station_id":"st_cvj6r9ubvosntc0bgbag","pricing_plan_id":"cebpf4jnsgd1na2vs0mg"},{"bike_id":"1b186b22-261c-42bd-a83e-2b359f71fd28","system_id":"levelo_inurba_marseille","lat":43.29982,"lon":5.38553,"is_reserved":false,"is_disabled":true,"rental_uris":{"android":"levelo://app?vid=1b186b22-261c-42bd-a83e-2b359f71fd28","ios":"levelo://app?vid=1b186b22-261c-42bd-a83e-2b359f71fd28"},"vehicle_type_id":"4","last_reported":1752081096,"current_range_meters":2000,"station_id":"","pricing_plan_id":"cebpf4jnsgd1na2vs0mg"},{"bike_id":"7c48cb36-bc2f-4ab1-a02a-809a2e52d350","system_id":"levelo_inurba_marseille","lat":43.29547,"lon":5.38551,"is_reserved":false,"is_disabled":false,"rental_uris":{"android":"levelo://app?vid=7c48cb36-bc2f-4ab1-a02a-809a2e52d350","ios":"levelo://app?vid=7c48cb36-bc2f-4ab1-a02a-809a2e52d350"},"vehicle_type_id":"4","last_reported":1752081096,"current_range_meters":2000,"station_id":"ce4bgih2rcd13ifvqba0","pricing_plan_id":"cebpf4jnsgd1na2vs0mg"},{"bike_id":"402fef2d-d664-4e7d-9c81-13adb4c8fdc4","system_id":"levelo_inurba_marseille","lat":43.302963,"lon":5.39219,"is_reserved":false,"is_disabled":true,"rental_uris":{"android":"levelo://app?vid=402fef2d-d664-4e7d-9c81-13adb4c8fdc4","ios":"levelo://app?vid=402fef2d-d664-4e7d-9c81-13adb4c8fdc4"},"vehicle_type_id":"4","last_reported":1752081096,"current_range_meters":2000,"station_id":"ce4bgkh2rcd13ifvqbk0","pricing_plan_id":"cebpf4jnsgd1na2vs0mg"},{"bike_id":"e42cb89d-9d98-4b4d-9937-1b3303bcfadc","system_id":"levelo_inurba_marseille","lat":43.30313,"lon":5.36899,"is_reserved":false,"is_disabled":true,"rental_uris":{"android":"levelo://app?vid=e42cb89d-9d98-4b4d-9937-1b3303bcfadc","ios":"levelo://app?vid=e42cb89d-9d98-4b4d-9937-1b3303bcfadc"},"vehicle_type_id":"4","last_reported":1752081096,"current_range_meters":2000,"station_id":"ce4bgqh2rcd13ifvqc5g","pricing_plan_id":"cebpf4jnsgd1na2vs0mg"},{"bike_id":"47274d3b-2e30-46e7-bbd5-6e985f057fa2","system_id":"levelo_inurba_marseille","lat":43.31165,"lon":5.38722,"is_reserved":false,"is_disabled":true,"rental_uris":{"android":"levelo://app?vid=47274d3b-2e30-46e7-bbd5-6e985f057fa2","ios":"levelo://app?vid=47274d3b-2e30-46e7-bbd5-6e985f057fa2"},"vehicle_type_id":"4","last_reported":1752081096,"current_range_meters":2000,"station_id":"ce4bgv12rcd13ifvqcp0","pricing_plan_id":"cebpf4jnsgd1na2vs0mg"},{"bike_id":"73d24b2a-5575-4ab5-92bb-ba8350108ccd","system_id":"levelo_inurba_marseille","lat":43.30136,"lon":5.39842,"is_reserved":false,"is_disabled":true,"rental_uris":{"android":"levelo://app?vid=73d24b2a-5575-4ab5-92bb-ba8350108ccd","ios":"levelo://app?vid=73d24b2a-5575-4ab5-92bb-ba8350108ccd"},"vehicle_type_id":"4","last_reported":1752081096,"current_range_meters":2000,"station_id":"ce4bh0h2rcd13ifvqd40","pricing_plan_id":"cebpf4jnsgd1na2vs0mg"},{"bike_id":"5229f300-81aa-4655-bce2-fbc78987f722","system_id":"levelo_inurba_marseille","lat":43.2841,"lon":5.37514,"is_reserved":false,"is_disabled":true,"rental_uris":{"android":"levelo://app?vid=5229f300-81aa-4655-bce2-fbc78987f722","ios":"levelo://app?vid=5229f300-81aa-4655-bce2-fbc78987f722"},"vehicle_type_id":"4","last_reported":1752081096,"current_range_meters":2000,"station_id":"ce4bh412rcd13ifvqds0","pricing_plan_id":"cebpf4jnsgd1na2vs0mg"},{"bike_id":"a60d0736-d041-4eed-97f7-95fe028fb8db","system_id":"levelo_inurba_marseille","lat":43.27918,"lon":5.39578,"is_reserved":false,"is_disabled":true,"rental_uris":{"android":"levelo://app?vid=a60d0736-d041-4eed-97f7-95fe028fb8db","ios":"levelo://app?vid=a60d0736-d041-4eed-97f7-95fe028fb8db"},"vehicle_type_id":"4","last_reported":1752081096,"current_range_meters":2000,"station_id":"ce4bhf92rcd13ifvqf40","pricing_plan_id":"cebpf4jnsgd1na2vs0mg"},{"bike_id":"f9ea4d60-943c-44f3-bbff-6267bc81c2cc","system_id":"levelo_inurba_marseille","lat":43.23962,"lon":5.36626,"is_reserved":false,"is_disabled":true,"rental_uris":{"android":"levelo://app?vid=f9ea4d60-943c-44f3-bbff-6267bc81c2cc","ios":"levelo://app?vid=f9ea4d60-943c-44f3-bbff-6267bc81c2cc"},"vehicle_type_id":"4","last_reported":1752081096,"current_range_meters":2000,"station_id":"ce4bhi12rcd13ifvqfp0","pricing_plan_id":"cebpf4jnsgd1na2vs0mg"},{"bike_id":"37f2becd-23f9-4f13-a711-38b8024eeec7","system_id":"levelo_inurba_marseille","lat":43.33768,"lon":5.37516,"is_reserved":false,"is_disabled":false,"rental_uris":{"android":"levelo://app?vid=37f2becd-23f9-4f13-a711-38b8024eeec7","ios":"levelo://app?vid=37f2becd-23f9-4f13-a711-38b8024eeec7"},"vehicle_type_id":"4","last_reported":1752081096,"current_range_meters":2800,"station_id":"","pricing_plan_id":"cebpf4jnsgd1na2vs0mg"},{"bike_id":"2c423baa-ecca-420a-87d7-ad0b7e0b9ebb","system_id":"levelo_inurba_marseille","lat":43.2805,"lon":5.35354,"is_reserved":false,"is_disabled":false,"rental_uris":{"android":"levelo://app?vid=2c423baa-ecca-420a-87d7-ad0b7e0b9ebb","ios":"levelo://app?vid=2c423baa-ecca-420a-87d7-ad0b7e0b9ebb"},"vehicle_type_id":"4","last_reported":1752081096,"current_range_meters":3200,"station_id":"","pricing_plan_id":"cebpf4jnsgd1na2vs0mg"},{"bike_id":"55d28fa8-fcdc-45af-a7df-4c58aad884bb","system_id":"levelo_inurba_marseille","lat":43.26678,"lon":5.382426,"is_reserved":false,"is_disabled":false,"rental_uris":{"android":"levelo://app?vid=55d28fa8-fcdc-45af-a7df-4c58aad884bb","ios":"levelo://app?vid=55d28fa8-fcdc-45af-a7df-4c58aad884bb"},"vehicle_type_id":"4","last_reported":1752081096,"current_range_meters":3200,"station_id":"ce4bhg92rcd13ifvqf90","pricing_plan_id":"cebpf4jnsgd1na2vs0mg"},{"bike_id":"5695e21f-e113-4e04-b629-ec13ebe773e9","system_id":"levelo_inurba_marseille","lat":43.26787,"lon":5.39413,"is_reserved":false,"is_disabled":false,"rental_uris":{"android":"levelo://app?vid=5695e21f-e113-4e04-b629-ec13ebe773e9","ios":"levelo://app?vid=5695e21f-e113-4e04-b629-ec13ebe773e9"},"vehicle_type_id":"4","last_reported":1752081096,"current_range_meters":3200,"station_id":"ce4bhh12rcd13ifvqfg0","pricing_plan_id":"cebpf4jnsgd1na2vs0mg"},{"bike_id":"303615e2-b645-47aa-b8dc-d69233e50c42","system_id":"levelo_inurba_marseille","lat":43.29899,"lon":5.43652,"is_reserved":false,"is_disabled":false,"rental_uris":{"android":"levelo://app?vid=303615e2-b645-47aa-b8dc-d69233e50c42","ios":"levelo://app?vid=303615e2-b645-47aa-b8dc-d69233e50c42"},"vehicle_type_id":"4","last_reported":1752081096,"current_range_meters":3200,"station_id":"ce4bhpp2rcd13ifvqhfg","pricing_plan_id":"cebpf4jnsgd1na2vs0mg"},{"bike_id":"e193a6c5-d0ea-4c8a-888f-95484265364f","system_id":"levelo_inurba_marseille","lat":43.26924,"lon":5.40266,"is_reserved":false,"is_disabled":false,"rental_uris":{"android":"levelo://app?vid=e193a6c5-d0ea-4c8a-888f-95484265364f","ios":"levelo://app?vid=e193a6c5-d0ea-4c8a-888f-95484265364f"},"vehicle_type_id":"4","last_reported":1752081096,"current_range_meters":3200,"station_id":"cjm6bp8fraef2m0cb0m0","pricing_plan_id":"cebpf4jnsgd1na2vs0mg"},{"bike_id":"5fb37b27-cd81-4727-a000-d075b7a0e72d","system_id":"levelo_inurba_marseille","lat":43.31499,"lon":5.37309,"is_reserved":false,"is_disabled":false,"rental_uris":{"android":"levelo://app?vid=5fb37b27-cd81-4727-a000-d075b7a0e72d","ios":"levelo://app?vid=5fb37b27-cd81-4727-a000-d075b7a0e72d"},"vehicle_type_id":"4","last_reported":1752081096,"current_range_meters":4000,"station_id":"ce4bgt12rcd13ifvqcd0","pricing_plan_id":"cebpf4jnsgd1na2vs0mg"},{"bike_id":"dafec84a-8f56-4bd2-8a00-0b55f193b3cb","system_id":"levelo_inurba_marseille","lat":43.28273,"lon":5.35066,"is_reserved":false,"is_disabled":false,"rental_uris":{"android":"levelo://app?vid=dafec84a-8f56-4bd2-8a00-0b55f193b3cb","ios":"levelo://app?vid=dafec84a-8f56-4bd2-8a00-0b55f193b3cb"},"vehicle_type_id":"4","last_reported":1752081096,"current_range_meters":4000,"station_id":"ce4bhbp2rcd13ifvqerg","pricing_plan_id":"cebpf4jnsgd1na2vs0mg"},{"bike_id":"b6298908-c110-4734-bd54-5126c1515414","system_id":"levelo_inurba_marseille","lat":43.211863,"lon":5.350797,"is_reserved":false,"is_disabled":false,"rental_uris":{"android":"levelo://app?vid=b6298908-c110-4734-bd54-5126c1515414","ios":"levelo://app?vid=b6298908-c110-4734-bd54-5126c1515414"},"vehicle_type_id":"4","last_reported":1752081096,"current_range_meters":4000,"station_id":"st_cvj6sg6p6f1abm77japg","pricing_plan_id":"cebpf4jnsgd1na2vs0mg"},{"bike_id":"0c8f92f0-34dd-4528-ac9a-218976babbcb","system_id":"levelo_inurba_marseille","lat":43.297057,"lon":5.376893,"is_reserved":false,"is_disabled":false,"rental_uris":{"android":"levelo://app?vid=0c8f92f0-34dd-4528-ac9a-218976babbcb","ios":"levelo://app?vid=0c8f92f0-34dd-4528-ac9a-218976babbcb"},"vehicle_type_id":"4","last_reported":1752081096,"current_range_meters":4800,"station_id":"ce4bgkh2rcd13ifvqbl0","pricing_plan_id":"cebpf4jnsgd1na2vs0mg"},{"bike_id":"c293dfea-6724-4e70-9db8-ca3048fba494","system_id":"levelo_inurba_marseille","lat":43.21767,"lon":5.34586,"is_reserved":false,"is_disabled":false,"rental_uris":{"android":"levelo://app?vid=c293dfea-6724-4e70-9db8-ca3048fba494","ios":"levelo://app?vid=c293dfea-6724-4e70-9db8-ca3048fba494"},"vehicle_type_id":"4","last_reported":1752081096,"current_range_meters":4800,"station_id":"st_cvj6r9ubvosntc0bgbag","pricing_plan_id":"cebpf4jnsgd1na2vs0mg"},{"bike_id":"95b6745f-bfad-424d-b1d6-4470afe23f00","system_id":"levelo_inurba_marseille","lat":43.28705,"lon":5.37388,"is_reserved":false,"is_disabled":false,"rental_uris":{"android":"levelo://app?vid=95b6745f-bfad-424d-b1d6-4470afe23f00","ios":"levelo://app?vid=95b6745f-bfad-424d-b1d6-4470afe23f00"},"vehicle_type_id":"4","last_reported":1752081096,"current_range_meters":5600,"station_id":"ce4bh3p2rcd13ifvqdq0","pricing_plan_id":"cebpf4jnsgd1na2vs0mg"},{"bike_id":"c7281037-c5cb-41ae-bf39-f86490269c9f","system_id":"levelo_inurba_marseille","lat":43.23967,"lon":5.36633,"is_reserved":false,"is_disabled":false,"rental_uris":{"android":"levelo://app?vid=c7281037-c5cb-41ae-bf39-f86490269c9f","ios":"levelo://app?vid=c7281037-c5cb-41ae-bf39-f86490269c9f"},"vehicle_type_id":"4","last_reported":1752081096,"current_range_meters":5600,"station_id":"ce4bhi12rcd13ifvqfp0","pricing_plan_id":"cebpf4jnsgd1na2vs0mg"},{"bike_id":"45e26917-9e71-41d4-b7c3-c2d027a82468","system_id":"levelo_inurba_marseille","lat":43.27812,"lon":5.40712,"is_reserved":false,"is_disabled":false,"rental_uris":{"android":"levelo://app?vid=45e26917-9e71-41d4-b7c3-c2d027a82468","ios":"levelo://app?vid=45e26917-9e71-41d4-b7c3-c2d027a82468"},"vehicle_type_id":"4","last_reported":1752081096,"current_range_meters":5600,"station_id":"ce4bhnh2rcd13ifvqgtg","pricing_plan_id":"cebpf4jnsgd1na2vs0mg"},{"bike_id":"d6b20e67-84ca-4bf8-a330-cc36080f55bf","system_id":"levelo_inurba_marseille","lat":43.30547,"lon":5.36706,"is_reserved":false,"is_disabled":false,"rental_uris":{"android":"levelo://app?vid=d6b20e67-84ca-4bf8-a330-cc36080f55bf","ios":"levelo://app?vid=d6b20e67-84ca-4bf8-a330-cc36080f55bf"},"vehicle_type_id":"4","last_reported":1752081096,"current_range_meters":6400,"station_id":"ce4bgrp2rcd13ifvqc9g","pricing_plan_id":"cebpf4jnsgd1na2vs0mg"},{"bike_id":"e8e9dea9-6ebc-42c5-a0db-1d607e785c78","system_id":"levelo_inurba_marseille","lat":43.27378,"lon":5.36255,"is_reserved":false,"is_disabled":false,"rental_uris":{"android":"levelo://app?vid=e8e9dea9-6ebc-42c5-a0db-1d607e785c78","ios":"levelo://app?vid=e8e9dea9-6ebc-42c5-a0db-1d607e785c78"},"vehicle_type_id":"4","last_reported":1752081096,"current_range_meters":6400,"station_id":"ce4bhbh2rcd13ifvqeo0","pricing_plan_id":"cebpf4jnsgd1na2vs0mg"},{"bike_id":"77cf0754-6b25-4e50-8e88-2ca24b2380d6","system_id":"levelo_inurba_marseille","lat":43.282758,"lon":5.350826,"is_reserved":false,"is_disabled":false,"rental_uris":{"android":"levelo://app?vid=77cf0754-6b25-4e50-8e88-2ca24b2380d6","ios":"levelo://app?vid=77cf0754-6b25-4e50-8e88-2ca24b2380d6"},"vehicle_type_id":"4","last_reported":1752081096,"current_range_meters":6400,"station_id":"ce4bhbp2rcd13ifvqerg","pricing_plan_id":"cebpf4jnsgd1na2vs0mg"},{"bike_id":"3fdfe980-ad24-4b9a-b706-1338dd7f23aa","system_id":"levelo_inurba_marseille","lat":43.29554,"lon":5.42288,"is_reserved":false,"is_disabled":false,"rental_uris":{"android":"levelo://app?vid=3fdfe980-ad24-4b9a-b706-1338dd7f23aa","ios":"levelo://app?vid=3fdfe980-ad24-4b9a-b706-1338dd7f23aa"},"vehicle_type_id":"4","last_reported":1752081096,"current_range_meters":6400,"station_id":"ce4bhph2rcd13ifvqhdg","pricing_plan_id":"cebpf4jnsgd1na2vs0mg"},{"bike_id":"888522e3-39b6-4ff3-ad74-ff6c6f771157","system_id":"levelo_inurba_marseille","lat":43.29494,"lon":5.40273,"is_reserved":false,"is_disabled":false,"rental_uris":{"android":"levelo://app?vid=888522e3-39b6-4ff3-ad74-ff6c6f771157","ios":"levelo://app?vid=888522e3-39b6-4ff3-ad74-ff6c6f771157"},"vehicle_type_id":"4","last_reported":1752081096,"current_range_meters":6800,"station_id":"","pricing_plan_id":"cebpf4jnsgd1na2vs0mg"},{"bike_id":"de2d9c8d-b7c7-4c10-95e6-1b3dfa665873","system_id":"levelo_inurba_marseille","lat":43.30143,"lon":5.38073,"is_reserved":false,"is_disabled":false,"rental_uris":{"android":"levelo://app?vid=de2d9c8d-b7c7-4c10-95e6-1b3dfa665873","ios":"levelo://app?vid=de2d9c8d-b7c7-4c10-95e6-1b3dfa665873"},"vehicle_type_id":"4","last_reported":1752081096,"current_range_meters":6800,"station_id":"ce4bgjp2rcd13ifvqbh0","pricing_plan_id":"cebpf4jnsgd1na2vs0mg"},{"bike_id":"697697eb-0d53-4396-8d71-1725fcb54313","system_id":"levelo_inurba_marseille","lat":43.28281,"lon":5.35062,"is_reserved":false,"is_disabled":false,"rental_uris":{"android":"levelo://app?vid=697697eb-0d53-4396-8d71-1725fcb54313","ios":"levelo://app?vid=697697eb-0d53-4396-8d71-1725fcb54313"},"vehicle_type_id":"4","last_reported":1752081096,"current_range_meters":6800,"station_id":"ce4bhbp2rcd13ifvqerg","pricing_plan_id":"cebpf4jnsgd1na2vs0mg"},{"bike_id":"7c17752a-ffbd-4af7-b757-7e4e328e29f7","system_id":"levelo_inurba_marseille","lat":43.25087,"lon":5.39521,"is_reserved":false,"is_disabled":false,"rental_uris":{"android":"levelo://app?vid=7c17752a-ffbd-4af7-b757-7e4e328e29f7","ios":"levelo://app?vid=7c17752a-ffbd-4af7-b757-7e4e328e29f7"},"vehicle_type_id":"4","last_reported":1752081096,"current_range_meters":6800,"station_id":"ce4bhm12rcd13ifvqgkg","pricing_plan_id":"cebpf4jnsgd1na2vs0mg"},{"bike_id":"bc50a72a-326b-4387-883f-09d25d5a5ea8","system_id":"levelo_inurba_marseille","lat":43.32061,"lon":5.41537,"is_reserved":false,"is_disabled":false,"rental_uris":{"android":"levelo://app?vid=bc50a72a-326b-4387-883f-09d25d5a5ea8","ios":"levelo://app?vid=bc50a72a-326b-4387-883f-09d25d5a5ea8"},"vehicle_type_id":"4","last_reported":1752081096,"current_range_meters":6800,"station_id":"ce4bhq92rcd13ifvqhkg","pricing_plan_id":"cebpf4jnsgd1na2vs0mg"},{"bike_id":"39553800-36a3-4878-abac-a1797fe3f549","system_id":"levelo_inurba_marseille","lat":43.30728,"lon":5.42448,"is_reserved":false,"is_disabled":false,"rental_uris":{"android":"levelo://app?vid=39553800-36a3-4878-abac-a1797fe3f549","ios":"levelo://app?vid=39553800-36a3-4878-abac-a1797fe3f549"},"vehicle_type_id":"4","last_reported":1752081096,"current_range_meters":6800,"station_id":"st_cvj6ca6bvosntc0bfgr0","pricing_plan_id":"cebpf4jnsgd1na2vs0mg"},{"bike_id":"d6b14c12-0d86-4d9f-9ed5-310e45867cfd","system_id":"levelo_inurba_marseille","lat":43.26812,"lon":5.40232,"is_reserved":false,"is_disabled":false,"rental_uris":{"android":"levelo://app?vid=d6b14c12-0d86-4d9f-9ed5-310e45867cfd","ios":"levelo://app?vid=d6b14c12-0d86-4d9f-9ed5-310e45867cfd"},"vehicle_type_id":"4","last_reported":1752081096,"current_range_meters":7200,"station_id":"ce501612rcd8frsf0b60","pricing_plan_id":"cebpf4jnsgd1na2vs0mg"},{"bike_id":"8166f3d5-9a58-408e-96a6-7d938142bae9","system_id":"levelo_inurba_marseille","lat":43.25496,"lon":5.37653,"is_reserved":false,"is_disabled":false,"rental_uris":{"android":"levelo://app?vid=8166f3d5-9a58-408e-96a6-7d938142bae9","ios":"levelo://app?vid=8166f3d5-9a58-408e-96a6-7d938142bae9"},"vehicle_type_id":"4","last_reported":1752081096,"current_range_meters":8000,"station_id":"ce4bhh12rcd13ifvqff0","pricing_plan_id":"cebpf4jnsgd1na2vs0mg"},{"bike_id":"6e0511ef-a497-4d07-90dd-003b17e82c5a","system_id":"levelo_inurba_marseille","lat":43.26798,"lon":5.39409,"is_reserved":false,"is_disabled":false,"rental_uris":{"android":"levelo://app?vid=6e0511ef-a497-4d07-90dd-003b17e82c5a","ios":"levelo://app?vid=6e0511ef-a497-4d07-90dd-003b17e82c5a"},"vehicle_type_id":"4","last_reported":1752081096,"current_range_meters":8000,"station_id":"ce4bhh12rcd13ifvqfg0","pricing_plan_id":"cebpf4jnsgd1na2vs0mg"},{"bike_id":"1097b151-2e18-4753-af29-317104b8e978","system_id":"levelo_inurba_marseille","lat":43.231392,"lon":5.437499,"is_reserved":false,"is_disabled":false,"rental_uris":{"android":"levelo://app?vid=1097b151-2e18-4753-af29-317104b8e978","ios":"levelo://app?vid=1097b151-2e18-4753-af29-317104b8e978"},"vehicle_type_id":"4","last_reported":1752081096,"current_range_meters":8000,"station_id":"ce4bhmp2rcd13ifvqgog","pricing_plan_id":"cebpf4jnsgd1na2vs0mg"},{"bike_id":"89a5d67e-c898-48b2-8522-05ac4dca387b","system_id":"levelo_inurba_marseille","lat":43.27625,"lon":5.36109,"is_reserved":false,"is_disabled":false,"rental_uris":{"android":"levelo://app?vid=89a5d67e-c898-48b2-8522-05ac4dca387b","ios":"levelo://app?vid=89a5d67e-c898-48b2-8522-05ac4dca387b"},"vehicle_type_id":"4","last_reported":1752081096,"current_range_meters":8400,"station_id":"ce4bgj92rcd13ifvqbe0","pricing_plan_id":"cebpf4jnsgd1na2vs0mg"},{"bike_id":"c86d0381-bdd7-48ba-9922-977ff79ece97","system_id":"levelo_inurba_marseille","lat":43.26225,"lon":5.40445,"is_reserved":false,"is_disabled":false,"rental_uris":{"android":"levelo://app?vid=c86d0381-bdd7-48ba-9922-977ff79ece97","ios":"levelo://app?vid=c86d0381-bdd7-48ba-9922-977ff79ece97"},"vehicle_type_id":"4","last_reported":1752081096,"current_range_meters":8400,"station_id":"ce4bhmh2rcd13ifvqgmg","pricing_plan_id":"cebpf4jnsgd1na2vs0mg"},{"bike_id":"ba571be9-27ed-4a89-a621-25f86f895c4c","system_id":"levelo_inurba_marseille","lat":43.26058,"lon":5.39398,"is_reserved":false,"is_disabled":false,"rental_uris":{"android":"levelo://app?vid=ba571be9-27ed-4a89-a621-25f86f895c4c","ios":"levelo://app?vid=ba571be9-27ed-4a89-a621-25f86f895c4c"},"vehicle_type_id":"4","last_reported":1752081096,"current_range_meters":8800,"station_id":"ce4bhh92rcd13ifvqfj0","pricing_plan_id":"cebpf4jnsgd1na2vs0mg"},{"bike_id":"358447ec-f0b7-4b94-a741-1235aa8aa55e","system_id":"levelo_inurba_marseille","lat":43.303136,"lon":5.390808,"is_reserved":false,"is_disabled":false,"rental_uris":{"android":"levelo://app?vid=358447ec-f0b7-4b94-a741-1235aa8aa55e","ios":"levelo://app?vid=358447ec-f0b7-4b94-a741-1235aa8aa55e"},"vehicle_type_id":"4","last_reported":1752081096,"current_range_meters":8800,"station_id":"ce4bhhh2rcd13ifvqfk0","pricing_plan_id":"cebpf4jnsgd1na2vs0mg"},{"bike_id":"067ed7e9-4d5a-49f5-b2e8-507ff7acf0c7","system_id":"levelo_inurba_marseille","lat":43.34143,"lon":5.40901,"is_reserved":false,"is_disabled":false,"rental_uris":{"android":"levelo://app?vid=067ed7e9-4d5a-49f5-b2e8-507ff7acf0c7","ios":"levelo://app?vid=067ed7e9-4d5a-49f5-b2e8-507ff7acf0c7"},"vehicle_type_id":"4","last_reported":1752081096,"current_range_meters":8800,"station_id":"ce4bhqh2rcd13ifvqhlg","pricing_plan_id":"cebpf4jnsgd1na2vs0mg"},{"bike_id":"67a45585-930f-4a51-b5c7-db1585564219","system_id":"levelo_inurba_marseille","lat":43.29008,"lon":5.35609,"is_reserved":false,"is_disabled":false,"rental_uris":{"android":"levelo://app?vid=67a45585-930f-4a51-b5c7-db1585564219","ios":"levelo://app?vid=67a45585-930f-4a51-b5c7-db1585564219"},"vehicle_type_id":"4","last_reported":1752081096,"current_range_meters":9200,"station_id":"","pricing_plan_id":"cebpf4jnsgd1na2vs0mg"},{"bike_id":"74f5dfc3-498d-4a73-96c9-49c7911eca11","system_id":"levelo_inurba_marseille","lat":43.28282,"lon":5.35051,"is_reserved":false,"is_disabled":false,"rental_uris":{"android":"levelo://app?vid=74f5dfc3-498d-4a73-96c9-49c7911eca11","ios":"levelo://app?vid=74f5dfc3-498d-4a73-96c9-49c7911eca11"},"vehicle_type_id":"4","last_reported":1752081096,"current_range_meters":9200,"station_id":"ce4bhbp2rcd13ifvqerg","pricing_plan_id":"cebpf4jnsgd1na2vs0mg"},{"bike_id":"c72c27cd-b7c5-459c-8240-d9a518a21df4","system_id":"levelo_inurba_marseille","lat":43.25868,"lon":5.399,"is_reserved":false,"is_disabled":false,"rental_uris":{"android":"levelo://app?vid=c72c27cd-b7c5-459c-8240-d9a518a21df4","ios":"levelo://app?vid=c72c27cd-b7c5-459c-8240-d9a518a21df4"},"vehicle_type_id":"4","last_reported":1752081096,"current_range_meters":9200,"station_id":"ce4bhl92rcd13ifvqghg","pricing_plan_id":"cebpf4jnsgd1na2vs0mg"},{"bike_id":"d53523c5-d5c3-465b-8dc4-5ab01b246595","system_id":"levelo_inurba_marseille","lat":43.24166,"lon":5.36393,"is_reserved":false,"is_disabled":false,"rental_uris":{"android":"levelo://app?vid=d53523c5-d5c3-465b-8dc4-5ab01b246595","ios":"levelo://app?vid=d53523c5-d5c3-465b-8dc4-5ab01b246595"},"vehicle_type_id":"4","last_reported":1752081096,"current_range_meters":9200,"station_id":"cpo36qri1sfpv3e86is0","pricing_plan_id":"cebpf4jnsgd1na2vs0mg"},{"bike_id":"3030cb07-c041-4d87-a253-8c849c24aa85","system_id":"levelo_inurba_marseille","lat":43.32647,"lon":5.36215,"is_reserved":false,"is_disabled":false,"rental_uris":{"android":"levelo://app?vid=3030cb07-c041-4d87-a253-8c849c24aa85","ios":"levelo://app?vid=3030cb07-c041-4d87-a253-8c849c24aa85"},"vehicle_type_id":"4","last_reported":1752081096,"current_range_meters":9600,"station_id":"","pricing_plan_id":"cebpf4jnsgd1na2vs0mg"},{"bike_id":"9631330b-cc92-497b-9cd5-ec39f9cd1a7c","system_id":"levelo_inurba_marseille","lat":43.282482,"lon":5.350938,"is_reserved":false,"is_disabled":false,"rental_uris":{"android":"levelo://app?vid=9631330b-cc92-497b-9cd5-ec39f9cd1a7c","ios":"levelo://app?vid=9631330b-cc92-497b-9cd5-ec39f9cd1a7c"},"vehicle_type_id":"4","last_reported":1752081096,"current_range_meters":9600,"station_id":"","pricing_plan_id":"cebpf4jnsgd1na2vs0mg"},{"bike_id":"cfe11837-cddc-45f2-9072-1503a3157ea4","system_id":"levelo_inurba_marseille","lat":43.28278,"lon":5.35069,"is_reserved":false,"is_disabled":false,"rental_uris":{"android":"levelo://app?vid=cfe11837-cddc-45f2-9072-1503a3157ea4","ios":"levelo://app?vid=cfe11837-cddc-45f2-9072-1503a3157ea4"},"vehicle_type_id":"4","last_reported":1752081096,"current_range_meters":9600,"station_id":"ce4bhbp2rcd13ifvqerg","pricing_plan_id":"cebpf4jnsgd1na2vs0mg"},{"bike_id":"6bf14947-2d8b-42f6-bcdf-718df382ac9e","system_id":"levelo_inurba_marseille","lat":43.25826,"lon":5.39436,"is_reserved":false,"is_disabled":false,"rental_uris":{"android":"levelo://app?vid=6bf14947-2d8b-42f6-bcdf-718df382ac9e","ios":"levelo://app?vid=6bf14947-2d8b-42f6-bcdf-718df382ac9e"},"vehicle_type_id":"4","last_reported":1752081096,"current_range_meters":9600,"station_id":"ce4bhip2rcd13ifvqft0","pricing_plan_id":"cebpf4jnsgd1na2vs0mg"},{"bike_id":"7b940a2d-5d05-4dec-939c-d975fc7c961f","system_id":"levelo_inurba_marseille","lat":43.31083,"lon":5.42431,"is_reserved":false,"is_disabled":false,"rental_uris":{"android":"levelo://app?vid=7b940a2d-5d05-4dec-939c-d975fc7c961f","ios":"levelo://app?vid=7b940a2d-5d05-4dec-939c-d975fc7c961f"},"vehicle_type_id":"4","last_reported":1752081096,"current_range_meters":10000,"station_id":"","pricing_plan_id":"cebpf4jnsgd1na2vs0mg"},{"bike_id":"dfe1b682-637a-43a7-a154-ee4bf060bf2f","system_id":"levelo_inurba_marseille","lat":43.28609,"lon":5.37067,"is_reserved":false,"is_disabled":false,"rental_uris":{"android":"levelo://app?vid=dfe1b682-637a-43a7-a154-ee4bf060bf2f","ios":"levelo://app?vid=dfe1b682-637a-43a7-a154-ee4bf060bf2f"},"vehicle_type_id":"4","last_reported":1752081096,"current_range_meters":10000,"station_id":"ce4bht12rcd13ifvqi60","pricing_plan_id":"cebpf4jnsgd1na2vs0mg"},{"bike_id":"a75ae5d9-1762-4b54-b63f-4d14995dae79","system_id":"levelo_inurba_marseille","lat":43.26566,"lon":5.39008,"is_reserved":false,"is_disabled":false,"rental_uris":{"android":"levelo://app?vid=a75ae5d9-1762-4b54-b63f-4d14995dae79","ios":"levelo://app?vid=a75ae5d9-1762-4b54-b63f-4d14995dae79"},"vehicle_type_id":"4","last_reported":1752081096,"current_range_meters":10800,"station_id":"ce4bhe12rcd13ifvqf30","pricing_plan_id":"cebpf4jnsgd1na2vs0mg"},{"bike_id":"5db44857-9ed0-4850-a05a-f2fc6bd5fa46","system_id":"levelo_inurba_marseille","lat":43.2796,"lon":5.38345,"is_reserved":false,"is_disabled":false,"rental_uris":{"android":"levelo://app?vid=5db44857-9ed0-4850-a05a-f2fc6bd5fa46","ios":"levelo://app?vid=5db44857-9ed0-4850-a05a-f2fc6bd5fa46"},"vehicle_type_id":"4","last_reported":1752081096,"current_range_meters":11200,"station_id":"","pricing_plan_id":"cebpf4jnsgd1na2vs0mg"},{"bike_id":"e73866b4-3c51-4fe2-a074-63ad073561e5","system_id":"levelo_inurba_marseille","lat":43.264987,"lon":5.395364,"is_reserved":false,"is_disabled":false,"rental_uris":{"android":"levelo://app?vid=e73866b4-3c51-4fe2-a074-63ad073561e5","ios":"levelo://app?vid=e73866b4-3c51-4fe2-a074-63ad073561e5"},"vehicle_type_id":"4","last_reported":1752081096,"current_range_meters":11200,"station_id":"ce4bhi12rcd13ifvqfq0","pricing_plan_id":"cebpf4jnsgd1na2vs0mg"},{"bike_id":"ace40af9-ec82-4249-af44-7491083ac112","system_id":"levelo_inurba_marseille","lat":43.292699,"lon":5.401217,"is_reserved":false,"is_disabled":false,"rental_uris":{"android":"levelo://app?vid=ace40af9-ec82-4249-af44-7491083ac112","ios":"levelo://app?vid=ace40af9-ec82-4249-af44-7491083ac112"},"vehicle_type_id":"4","last_reported":1752081096,"current_range_meters":11600,"station_id":"ce4bh312rcd13ifvqdk0","pricing_plan_id":"cebpf4jnsgd1na2vs0mg"},{"bike_id":"35732a09-b302-42bd-9405-8539eac1270a","system_id":"levelo_inurba_marseille","lat":43.28621,"lon":5.35109,"is_reserved":false,"is_disabled":false,"rental_uris":{"android":"levelo://app?vid=35732a09-b302-42bd-9405-8539eac1270a","ios":"levelo://app?vid=35732a09-b302-42bd-9405-8539eac1270a"},"vehicle_type_id":"4","last_reported":1752081096,"current_range_meters":11600,"station_id":"ce4bhch2rcd13ifvqeug","pricing_plan_id":"cebpf4jnsgd1na2vs0mg"},{"bike_id":"84e7e709-4e4f-4764-818c-af719435bfca","system_id":"levelo_inurba_marseille","lat":43.3183,"lon":5.37214,"is_reserved":false,"is_disabled":false,"rental_uris":{"android":"levelo://app?vid=84e7e709-4e4f-4764-818c-af719435bfca","ios":"levelo://app?vid=84e7e709-4e4f-4764-818c-af719435bfca"},"vehicle_type_id":"4","last_reported":1752081096,"current_range_meters":12000,"station_id":"","pricing_plan_id":"cebpf4jnsgd1na2vs0mg"},{"bike_id":"cef8156f-ca86-48c5-8a1e-e7d4dba7072a","system_id":"levelo_inurba_marseille","lat":43.315718,"lon":5.373112,"is_reserved":false,"is_disabled":false,"rental_uris":{"android":"levelo://app?vid=cef8156f-ca86-48c5-8a1e-e7d4dba7072a","ios":"levelo://app?vid=cef8156f-ca86-48c5-8a1e-e7d4dba7072a"},"vehicle_type_id":"4","last_reported":1752081096,"current_range_meters":12000,"station_id":"ce4bgth2rcd13ifvqch0","pricing_plan_id":"cebpf4jnsgd1na2vs0mg"},{"bike_id":"c60251ba-3129-460b-8d5d-cc0145c2f74a","system_id":"levelo_inurba_marseille","lat":43.29514,"lon":5.39055,"is_reserved":false,"is_disabled":false,"rental_uris":{"android":"levelo://app?vid=c60251ba-3129-460b-8d5d-cc0145c2f74a","ios":"levelo://app?vid=c60251ba-3129-460b-8d5d-cc0145c2f74a"},"vehicle_type_id":"4","last_reported":1752081096,"current_range_meters":12000,"station_id":"ce4bh3p2rcd13ifvqdp0","pricing_plan_id":"cebpf4jnsgd1na2vs0mg"},{"bike_id":"85339cdc-4037-4417-9054-e722f7e495c5","system_id":"levelo_inurba_marseille","lat":43.273793,"lon":5.36258,"is_reserved":false,"is_disabled":false,"rental_uris":{"android":"levelo://app?vid=85339cdc-4037-4417-9054-e722f7e495c5","ios":"levelo://app?vid=85339cdc-4037-4417-9054-e722f7e495c5"},"vehicle_type_id":"4","last_reported":1752081096,"current_range_meters":12000,"station_id":"ce4bhbh2rcd13ifvqeo0","pricing_plan_id":"cebpf4jnsgd1na2vs0mg"},{"bike_id":"86b9b08b-1620-4bce-b388-6a966eb11cb3","system_id":"levelo_inurba_marseille","lat":43.24831,"lon":5.3744,"is_reserved":false,"is_disabled":false,"rental_uris":{"android":"levelo://app?vid=86b9b08b-1620-4bce-b388-6a966eb11cb3","ios":"levelo://app?vid=86b9b08b-1620-4bce-b388-6a966eb11cb3"},"vehicle_type_id":"4","last_reported":1752081096,"current_range_meters":12000,"station_id":"ce4bhgh2rcd13ifvqfb0","pricing_plan_id":"cebpf4jnsgd1na2vs0mg"},{"bike_id":"2fa231de-f74d-4e49-b569-19825602707e","system_id":"levelo_inurba_marseille","lat":43.23968,"lon":5.36623,"is_reserved":false,"is_disabled":false,"rental_uris":{"android":"levelo://app?vid=2fa231de-f74d-4e49-b569-19825602707e","ios":"levelo://app?vid=2fa231de-f74d-4e49-b569-19825602707e"},"vehicle_type_id":"4","last_reported":1752081096,"current_range_meters":12000,"station_id":"ce4bhi12rcd13ifvqfp0","pricing_plan_id":"cebpf4jnsgd1na2vs0mg"},{"bike_id":"830ca46b-969b-473f-8d1d-9113a656779c","system_id":"levelo_inurba_marseille","lat":43.281545,"lon":5.426425,"is_reserved":false,"is_disabled":false,"rental_uris":{"android":"levelo://app?vid=830ca46b-969b-473f-8d1d-9113a656779c","ios":"levelo://app?vid=830ca46b-969b-473f-8d1d-9113a656779c"},"vehicle_type_id":"4","last_reported":1752081096,"current_range_meters":12000,"station_id":"ce4bhnh2rcd13ifvqgug","pricing_plan_id":"cebpf4jnsgd1na2vs0mg"},{"bike_id":"1d9ea478-07eb-4bdd-9fda-fa36c4e68415","system_id":"levelo_inurba_marseille","lat":43.29004,"lon":5.35611,"is_reserved":false,"is_disabled":false,"rental_uris":{"android":"levelo://app?vid=1d9ea478-07eb-4bdd-9fda-fa36c4e68415","ios":"levelo://app?vid=1d9ea478-07eb-4bdd-9fda-fa36c4e68415"},"vehicle_type_id":"4","last_reported":1752081096,"current_range_meters":12400,"station_id":"ce4bhb92rcd13ifvqen0","pricing_plan_id":"cebpf4jnsgd1na2vs0mg"},{"bike_id":"bcf91a6e-6be5-4b45-b153-ede31338792e","system_id":"levelo_inurba_marseille","lat":43.2827,"lon":5.35063,"is_reserved":false,"is_disabled":false,"rental_uris":{"android":"levelo://app?vid=bcf91a6e-6be5-4b45-b153-ede31338792e","ios":"levelo://app?vid=bcf91a6e-6be5-4b45-b153-ede31338792e"},"vehicle_type_id":"4","last_reported":1752081096,"current_range_meters":12400,"station_id":"ce4bhbp2rcd13ifvqerg","pricing_plan_id":"cebpf4jnsgd1na2vs0mg"},{"bike_id":"35361cf0-7a2b-4533-a38b-c4b36cb47ed1","system_id":"levelo_inurba_marseille","lat":43.24814,"lon":5.37444,"is_reserved":false,"is_disabled":false,"rental_uris":{"android":"levelo://app?vid=35361cf0-7a2b-4533-a38b-c4b36cb47ed1","ios":"levelo://app?vid=35361cf0-7a2b-4533-a38b-c4b36cb47ed1"},"vehicle_type_id":"4","last_reported":1752081096,"current_range_meters":12400,"station_id":"ce4bhgh2rcd13ifvqfb0","pricing_plan_id":"cebpf4jnsgd1na2vs0mg"},{"bike_id":"d5a6b840-f293-4f7e-94f2-1825a40996d7","system_id":"levelo_inurba_marseille","lat":43.26206,"lon":5.37446,"is_reserved":false,"is_disabled":false,"rental_uris":{"android":"levelo://app?vid=d5a6b840-f293-4f7e-94f2-1825a40996d7","ios":"levelo://app?vid=d5a6b840-f293-4f7e-94f2-1825a40996d7"},"vehicle_type_id":"4","last_reported":1752081096,"current_range_meters":12400,"station_id":"ce4bhgp2rcd13ifvqfc0","pricing_plan_id":"cebpf4jnsgd1na2vs0mg"},{"bike_id":"ac39d365-5643-4610-bf4b-0e5167a77f88","system_id":"levelo_inurba_marseille","lat":43.33726,"lon":5.39182,"is_reserved":false,"is_disabled":false,"rental_uris":{"android":"levelo://app?vid=ac39d365-5643-4610-bf4b-0e5167a77f88","ios":"levelo://app?vid=ac39d365-5643-4610-bf4b-0e5167a77f88"},"vehicle_type_id":"4","last_reported":1752081096,"current_range_meters":12400,"station_id":"ce4bhr92rcd13ifvqhsg","pricing_plan_id":"cebpf4jnsgd1na2vs0mg"},{"bike_id":"f573a8fb-f1f8-47c4-901e-ddf2739a5cca","system_id":"levelo_inurba_marseille","lat":43.36028,"lon":5.32466,"is_reserved":false,"is_disabled":false,"rental_uris":{"android":"levelo://app?vid=f573a8fb-f1f8-47c4-901e-ddf2739a5cca","ios":"levelo://app?vid=f573a8fb-f1f8-47c4-901e-ddf2739a5cca"},"vehicle_type_id":"4","last_reported":1752081096,"current_range_meters":12800,"station_id":"","pricing_plan_id":"cebpf4jnsgd1na2vs0mg"},{"bike_id":"c2b72fe0-bae6-4c7b-ad48-9e771b203dc8","system_id":"levelo_inurba_marseille","lat":43.313559,"lon":5.384676,"is_reserved":false,"is_disabled":false,"rental_uris":{"android":"levelo://app?vid=c2b72fe0-bae6-4c7b-ad48-9e771b203dc8","ios":"levelo://app?vid=c2b72fe0-bae6-4c7b-ad48-9e771b203dc8"},"vehicle_type_id":"4","last_reported":1752081096,"current_range_meters":12800,"station_id":"ce4bgt92rcd13ifvqcf0","pricing_plan_id":"cebpf4jnsgd1na2vs0mg"},{"bike_id":"644de9ba-9fde-4bed-a981-dd76b3cb6b40","system_id":"levelo_inurba_marseille","lat":43.239572,"lon":5.366596,"is_reserved":false,"is_disabled":false,"rental_uris":{"android":"levelo://app?vid=644de9ba-9fde-4bed-a981-dd76b3cb6b40","ios":"levelo://app?vid=644de9ba-9fde-4bed-a981-dd76b3cb6b40"},"vehicle_type_id":"4","last_reported":1752081096,"current_range_meters":12800,"station_id":"ce4bhi12rcd13ifvqfp0","pricing_plan_id":"cebpf4jnsgd1na2vs0mg"},{"bike_id":"4975b22d-8c48-452f-bd19-7a9d3ed7c378","system_id":"levelo_inurba_marseille","lat":43.29676,"lon":5.37424,"is_reserved":false,"is_disabled":false,"rental_uris":{"android":"levelo://app?vid=4975b22d-8c48-452f-bd19-7a9d3ed7c378","ios":"levelo://app?vid=4975b22d-8c48-452f-bd19-7a9d3ed7c378"},"vehicle_type_id":"4","last_reported":1752081096,"current_range_meters":13600,"station_id":"","pricing_plan_id":"cebpf4jnsgd1na2vs0mg"},{"bike_id":"e7ec5ad4-c7df-4fe8-91d4-ccec7523d190","system_id":"levelo_inurba_marseille","lat":43.28041,"lon":5.36946,"is_reserved":false,"is_disabled":false,"rental_uris":{"android":"levelo://app?vid=e7ec5ad4-c7df-4fe8-91d4-ccec7523d190","ios":"levelo://app?vid=e7ec5ad4-c7df-4fe8-91d4-ccec7523d190"},"vehicle_type_id":"4","last_reported":1752081096,"current_range_meters":13600,"station_id":"ce4bha12rcd13ifvqef0","pricing_plan_id":"cebpf4jnsgd1na2vs0mg"},{"bike_id":"8fc96add-786a-4f96-a861-7500d74aa2a1","system_id":"levelo_inurba_marseille","lat":43.28425,"lon":5.34993,"is_reserved":false,"is_disabled":false,"rental_uris":{"android":"levelo://app?vid=8fc96add-786a-4f96-a861-7500d74aa2a1","ios":"levelo://app?vid=8fc96add-786a-4f96-a861-7500d74aa2a1"},"vehicle_type_id":"4","last_reported":1752081096,"current_range_meters":13600,"station_id":"ce4bhbh2rcd13ifvqepg","pricing_plan_id":"cebpf4jnsgd1na2vs0mg"},{"bike_id":"c514ad25-b83c-4d10-a595-57ae5a32aef4","system_id":"levelo_inurba_marseille","lat":43.22935,"lon":5.35374,"is_reserved":false,"is_disabled":false,"rental_uris":{"android":"levelo://app?vid=c514ad25-b83c-4d10-a595-57ae5a32aef4","ios":"levelo://app?vid=c514ad25-b83c-4d10-a595-57ae5a32aef4"},"vehicle_type_id":"4","last_reported":1752081096,"current_range_meters":13600,"station_id":"cpo3532slgdg3j2ikp40","pricing_plan_id":"cebpf4jnsgd1na2vs0mg"},{"bike_id":"63177951-27bc-4cb8-bcf8-0bc3e8e0e208","system_id":"levelo_inurba_marseille","lat":43.28277,"lon":5.35056,"is_reserved":false,"is_disabled":false,"rental_uris":{"android":"levelo://app?vid=63177951-27bc-4cb8-bcf8-0bc3e8e0e208","ios":"levelo://app?vid=63177951-27bc-4cb8-bcf8-0bc3e8e0e208"},"vehicle_type_id":"4","last_reported":1752081096,"current_range_meters":14000,"station_id":"ce4bhbp2rcd13ifvqerg","pricing_plan_id":"cebpf4jnsgd1na2vs0mg"},{"bike_id":"7dc48cb7-b742-4446-8d3e-f56bc6d6cf97","system_id":"levelo_inurba_marseille","lat":43.26208,"lon":5.37442,"is_reserved":false,"is_disabled":false,"rental_uris":{"android":"levelo://app?vid=7dc48cb7-b742-4446-8d3e-f56bc6d6cf97","ios":"levelo://app?vid=7dc48cb7-b742-4446-8d3e-f56bc6d6cf97"},"vehicle_type_id":"4","last_reported":1752081096,"current_range_meters":14000,"station_id":"ce4bhgp2rcd13ifvqfc0","pricing_plan_id":"cebpf4jnsgd1na2vs0mg"},{"bike_id":"c97f7624-9439-4547-976f-3d5df8d1f008","system_id":"levelo_inurba_marseille","lat":43.26065,"lon":5.394,"is_reserved":false,"is_disabled":false,"rental_uris":{"android":"levelo://app?vid=c97f7624-9439-4547-976f-3d5df8d1f008","ios":"levelo://app?vid=c97f7624-9439-4547-976f-3d5df8d1f008"},"vehicle_type_id":"4","last_reported":1752081096,"current_range_meters":14000,"station_id":"ce4bhh92rcd13ifvqfj0","pricing_plan_id":"cebpf4jnsgd1na2vs0mg"},{"bike_id":"878331b6-4dbd-4828-a6d5-4c5b511244d4","system_id":"levelo_inurba_marseille","lat":43.217406,"lon":5.346063,"is_reserved":false,"is_disabled":false,"rental_uris":{"android":"levelo://app?vid=878331b6-4dbd-4828-a6d5-4c5b511244d4","ios":"levelo://app?vid=878331b6-4dbd-4828-a6d5-4c5b511244d4"},"vehicle_type_id":"4","last_reported":1752081096,"current_range_meters":14000,"station_id":"st_cvj6r9ubvosntc0bgbag","pricing_plan_id":"cebpf4jnsgd1na2vs0mg"},{"bike_id":"69851d52-03c7-490b-86b7-e4b62b3ba12e","system_id":"levelo_inurba_marseille","lat":43.28622,"lon":5.35106,"is_reserved":false,"is_disabled":false,"rental_uris":{"android":"levelo://app?vid=69851d52-03c7-490b-86b7-e4b62b3ba12e","ios":"levelo://app?vid=69851d52-03c7-490b-86b7-e4b62b3ba12e"},"vehicle_type_id":"4","last_reported":1752081096,"current_range_meters":14400,"station_id":"ce4bhch2rcd13ifvqeug","pricing_plan_id":"cebpf4jnsgd1na2vs0mg"},{"bike_id":"b6d9b946-f66a-4c6f-96e5-5d23e176360c","system_id":"levelo_inurba_marseille","lat":43.31315,"lon":5.38172,"is_reserved":false,"is_disabled":false,"rental_uris":{"android":"levelo://app?vid=b6d9b946-f66a-4c6f-96e5-5d23e176360c","ios":"levelo://app?vid=b6d9b946-f66a-4c6f-96e5-5d23e176360c"},"vehicle_type_id":"4","last_reported":1752081096,"current_range_meters":14800,"station_id":"","pricing_plan_id":"cebpf4jnsgd1na2vs0mg"},{"bike_id":"b2caa530-bb19-4cc6-a6bd-61e3e1d7432e","system_id":"levelo_inurba_marseille","lat":43.33763,"lon":5.37461,"is_reserved":false,"is_disabled":false,"rental_uris":{"android":"levelo://app?vid=b2caa530-bb19-4cc6-a6bd-61e3e1d7432e","ios":"levelo://app?vid=b2caa530-bb19-4cc6-a6bd-61e3e1d7432e"},"vehicle_type_id":"4","last_reported":1752081096,"current_range_meters":14800,"station_id":"","pricing_plan_id":"cebpf4jnsgd1na2vs0mg"},{"bike_id":"93d6be08-2471-48d7-9948-c35dc9626201","system_id":"levelo_inurba_marseille","lat":43.31714,"lon":5.37647,"is_reserved":false,"is_disabled":false,"rental_uris":{"android":"levelo://app?vid=93d6be08-2471-48d7-9948-c35dc9626201","ios":"levelo://app?vid=93d6be08-2471-48d7-9948-c35dc9626201"},"vehicle_type_id":"4","last_reported":1752081096,"current_range_meters":14800,"station_id":"","pricing_plan_id":"cebpf4jnsgd1na2vs0mg"},{"bike_id":"f5c16f07-bc6f-4121-91a7-5ad90eec4f34","system_id":"levelo_inurba_marseille","lat":43.3122,"lon":5.37333,"is_reserved":false,"is_disabled":false,"rental_uris":{"android":"levelo://app?vid=f5c16f07-bc6f-4121-91a7-5ad90eec4f34","ios":"levelo://app?vid=f5c16f07-bc6f-4121-91a7-5ad90eec4f34"},"vehicle_type_id":"4","last_reported":1752081096,"current_range_meters":14800,"station_id":"","pricing_plan_id":"cebpf4jnsgd1na2vs0mg"},{"bike_id":"0d87a204-44ee-4de1-8435-ffc36c6492ab","system_id":"levelo_inurba_marseille","lat":43.29708,"lon":5.36601,"is_reserved":false,"is_disabled":false,"rental_uris":{"android":"levelo://app?vid=0d87a204-44ee-4de1-8435-ffc36c6492ab","ios":"levelo://app?vid=0d87a204-44ee-4de1-8435-ffc36c6492ab"},"vehicle_type_id":"4","last_reported":1752081096,"current_range_meters":14800,"station_id":"ce4bgn12rcd13ifvqbt0","pricing_plan_id":"cebpf4jnsgd1na2vs0mg"},{"bike_id":"78ab3f57-b102-4d4e-a184-6feda2c5b0f6","system_id":"levelo_inurba_marseille","lat":43.31166,"lon":5.38731,"is_reserved":false,"is_disabled":false,"rental_uris":{"android":"levelo://app?vid=78ab3f57-b102-4d4e-a184-6feda2c5b0f6","ios":"levelo://app?vid=78ab3f57-b102-4d4e-a184-6feda2c5b0f6"},"vehicle_type_id":"4","last_reported":1752081096,"current_range_meters":14800,"station_id":"ce4bgv12rcd13ifvqcp0","pricing_plan_id":"cebpf4jnsgd1na2vs0mg"},{"bike_id":"7d7fadfa-d0da-4e5c-8341-70ccc392ee85","system_id":"levelo_inurba_marseille","lat":43.26212,"lon":5.37443,"is_reserved":false,"is_disabled":false,"rental_uris":{"android":"levelo://app?vid=7d7fadfa-d0da-4e5c-8341-70ccc392ee85","ios":"levelo://app?vid=7d7fadfa-d0da-4e5c-8341-70ccc392ee85"},"vehicle_type_id":"4","last_reported":1752081096,"current_range_meters":14800,"station_id":"ce4bhgp2rcd13ifvqfc0","pricing_plan_id":"cebpf4jnsgd1na2vs0mg"},{"bike_id":"d69b26eb-f7a8-4ac6-a4cf-e0c8a159dd69","system_id":"levelo_inurba_marseille","lat":43.2558,"lon":5.38244,"is_reserved":false,"is_disabled":false,"rental_uris":{"android":"levelo://app?vid=d69b26eb-f7a8-4ac6-a4cf-e0c8a159dd69","ios":"levelo://app?vid=d69b26eb-f7a8-4ac6-a4cf-e0c8a159dd69"},"vehicle_type_id":"4","last_reported":1752081096,"current_range_meters":14800,"station_id":"ce4bhih2rcd13ifvqfs0","pricing_plan_id":"cebpf4jnsgd1na2vs0mg"},{"bike_id":"449ed129-2f06-47da-936f-6e63a3609258","system_id":"levelo_inurba_marseille","lat":43.23217,"lon":5.35559,"is_reserved":false,"is_disabled":false,"rental_uris":{"android":"levelo://app?vid=449ed129-2f06-47da-936f-6e63a3609258","ios":"levelo://app?vid=449ed129-2f06-47da-936f-6e63a3609258"},"vehicle_type_id":"4","last_reported":1752081096,"current_range_meters":14800,"station_id":"ce4bhu92rcd13ifvqi70","pricing_plan_id":"cebpf4jnsgd1na2vs0mg"},{"bike_id":"b757ffbb-2b71-4330-9f60-5f8a9d46d16e","system_id":"levelo_inurba_marseille","lat":43.29663,"lon":5.37135,"is_reserved":false,"is_disabled":false,"rental_uris":{"android":"levelo://app?vid=b757ffbb-2b71-4330-9f60-5f8a9d46d16e","ios":"levelo://app?vid=b757ffbb-2b71-4330-9f60-5f8a9d46d16e"},"vehicle_type_id":"4","last_reported":1752081096,"current_range_meters":15200,"station_id":"","pricing_plan_id":"cebpf4jnsgd1na2vs0mg"},{"bike_id":"b28aa0a0-791c-4a08-9a16-c7bf6ea0ed5a","system_id":"levelo_inurba_marseille","lat":43.2245,"lon":5.34827,"is_reserved":false,"is_disabled":false,"rental_uris":{"android":"levelo://app?vid=b28aa0a0-791c-4a08-9a16-c7bf6ea0ed5a","ios":"levelo://app?vid=b28aa0a0-791c-4a08-9a16-c7bf6ea0ed5a"},"vehicle_type_id":"4","last_reported":1752081096,"current_range_meters":15200,"station_id":"","pricing_plan_id":"cebpf4jnsgd1na2vs0mg"},{"bike_id":"8e1215e6-4c82-4ab8-9d9f-10f486b027ac","system_id":"levelo_inurba_marseille","lat":43.29529,"lon":5.3854,"is_reserved":false,"is_disabled":false,"rental_uris":{"android":"levelo://app?vid=8e1215e6-4c82-4ab8-9d9f-10f486b027ac","ios":"levelo://app?vid=8e1215e6-4c82-4ab8-9d9f-10f486b027ac"},"vehicle_type_id":"4","last_reported":1752081096,"current_range_meters":15200,"station_id":"ce4bgih2rcd13ifvqba0","pricing_plan_id":"cebpf4jnsgd1na2vs0mg"},{"bike_id":"0a610d40-56c8-4486-a0c2-9330ec302dd1","system_id":"levelo_inurba_marseille","lat":43.30428,"lon":5.38899,"is_reserved":false,"is_disabled":false,"rental_uris":{"android":"levelo://app?vid=0a610d40-56c8-4486-a0c2-9330ec302dd1","ios":"levelo://app?vid=0a610d40-56c8-4486-a0c2-9330ec302dd1"},"vehicle_type_id":"4","last_reported":1752081096,"current_range_meters":15200,"station_id":"ce4bgk12rcd13ifvqbi0","pricing_plan_id":"cebpf4jnsgd1na2vs0mg"},{"bike_id":"56f273f7-2a7c-41bc-bee6-17dbd6db8e09","system_id":"levelo_inurba_marseille","lat":43.31331,"lon":5.39701,"is_reserved":false,"is_disabled":false,"rental_uris":{"android":"levelo://app?vid=56f273f7-2a7c-41bc-bee6-17dbd6db8e09","ios":"levelo://app?vid=56f273f7-2a7c-41bc-bee6-17dbd6db8e09"},"vehicle_type_id":"4","last_reported":1752081096,"current_range_meters":15200,"station_id":"ce4bgvp2rcd13ifvqcu0","pricing_plan_id":"cebpf4jnsgd1na2vs0mg"},{"bike_id":"88e36905-9185-42cd-b3d3-afce6da694d5","system_id":"levelo_inurba_marseille","lat":43.2603,"lon":5.37548,"is_reserved":false,"is_disabled":false,"rental_uris":{"android":"levelo://app?vid=88e36905-9185-42cd-b3d3-afce6da694d5","ios":"levelo://app?vid=88e36905-9185-42cd-b3d3-afce6da694d5"},"vehicle_type_id":"4","last_reported":1752081096,"current_range_meters":15200,"station_id":"ce4bhgh2rcd13ifvqfa0","pricing_plan_id":"cebpf4jnsgd1na2vs0mg"},{"bike_id":"c88498d3-407a-4954-8385-87664db936e3","system_id":"levelo_inurba_marseille","lat":43.24815,"lon":5.37459,"is_reserved":false,"is_disabled":false,"rental_uris":{"android":"levelo://app?vid=c88498d3-407a-4954-8385-87664db936e3","ios":"levelo://app?vid=c88498d3-407a-4954-8385-87664db936e3"},"vehicle_type_id":"4","last_reported":1752081096,"current_range_meters":15200,"station_id":"ce4bhgh2rcd13ifvqfb0","pricing_plan_id":"cebpf4jnsgd1na2vs0mg"},{"bike_id":"1bc63c58-183e-4688-9173-e004e373962b","system_id":"levelo_inurba_marseille","lat":43.22977,"lon":5.35433,"is_reserved":false,"is_disabled":false,"rental_uris":{"android":"levelo://app?vid=1bc63c58-183e-4688-9173-e004e373962b","ios":"levelo://app?vid=1bc63c58-183e-4688-9173-e004e373962b"},"vehicle_type_id":"4","last_reported":1752081096,"current_range_meters":15200,"station_id":"cpo3342slgdg3j2ifvpg","pricing_plan_id":"cebpf4jnsgd1na2vs0mg"},{"bike_id":"6e5c2657-ccb8-4153-8b94-2143bc427a03","system_id":"levelo_inurba_marseille","lat":43.22507,"lon":5.34785,"is_reserved":false,"is_disabled":false,"rental_uris":{"android":"levelo://app?vid=6e5c2657-ccb8-4153-8b94-2143bc427a03","ios":"levelo://app?vid=6e5c2657-ccb8-4153-8b94-2143bc427a03"},"vehicle_type_id":"4","last_reported":1752081096,"current_range_meters":15200,"station_id":"st_cvj5dfep6f1abm77gieg","pricing_plan_id":"cebpf4jnsgd1na2vs0mg"},{"bike_id":"4a69cd1c-a9bd-4bb6-b294-335eb9c2ac5d","system_id":"levelo_inurba_marseille","lat":43.2668,"lon":5.38189,"is_reserved":false,"is_disabled":false,"rental_uris":{"android":"levelo://app?vid=4a69cd1c-a9bd-4bb6-b294-335eb9c2ac5d","ios":"levelo://app?vid=4a69cd1c-a9bd-4bb6-b294-335eb9c2ac5d"},"vehicle_type_id":"4","last_reported":1752081096,"current_range_meters":16000,"station_id":"","pricing_plan_id":"cebpf4jnsgd1na2vs0mg"},{"bike_id":"3dd7b3a9-55fb-4522-8be0-da83aa1c4ef9","system_id":"levelo_inurba_marseille","lat":43.28411,"lon":5.37509,"is_reserved":false,"is_disabled":false,"rental_uris":{"android":"levelo://app?vid=3dd7b3a9-55fb-4522-8be0-da83aa1c4ef9","ios":"levelo://app?vid=3dd7b3a9-55fb-4522-8be0-da83aa1c4ef9"},"vehicle_type_id":"4","last_reported":1752081096,"current_range_meters":16000,"station_id":"ce4bh412rcd13ifvqds0","pricing_plan_id":"cebpf4jnsgd1na2vs0mg"},{"bike_id":"e2e6b9b1-19a9-4773-9fae-1c9f264f4d72","system_id":"levelo_inurba_marseille","lat":43.30379,"lon":5.4248,"is_reserved":false,"is_disabled":false,"rental_uris":{"android":"levelo://app?vid=e2e6b9b1-19a9-4773-9fae-1c9f264f4d72","ios":"levelo://app?vid=e2e6b9b1-19a9-4773-9fae-1c9f264f4d72"},"vehicle_type_id":"4","last_reported":1752081096,"current_range_meters":16000,"station_id":"ce4bhoh2rcd13ifvqh6g","pricing_plan_id":"cebpf4jnsgd1na2vs0mg"},{"bike_id":"1be39311-cfa5-4cbb-b93d-fb0870d6e611","system_id":"levelo_inurba_marseille","lat":43.211946,"lon":5.350715,"is_reserved":false,"is_disabled":false,"rental_uris":{"android":"levelo://app?vid=1be39311-cfa5-4cbb-b93d-fb0870d6e611","ios":"levelo://app?vid=1be39311-cfa5-4cbb-b93d-fb0870d6e611"},"vehicle_type_id":"4","last_reported":1752081096,"current_range_meters":16000,"station_id":"st_cvj6sg6p6f1abm77japg","pricing_plan_id":"cebpf4jnsgd1na2vs0mg"},{"bike_id":"320f2a33-deaa-4e0a-a3d5-c39ce8ad680a","system_id":"levelo_inurba_marseille","lat":43.315644,"lon":5.374329,"is_reserved":false,"is_disabled":false,"rental_uris":{"android":"levelo://app?vid=320f2a33-deaa-4e0a-a3d5-c39ce8ad680a","ios":"levelo://app?vid=320f2a33-deaa-4e0a-a3d5-c39ce8ad680a"},"vehicle_type_id":"4","last_reported":1752081096,"current_range_meters":16400,"station_id":"","pricing_plan_id":"cebpf4jnsgd1na2vs0mg"},{"bike_id":"744de9c5-5760-4c22-96e4-d65a1e22d14f","system_id":"levelo_inurba_marseille","lat":43.32047,"lon":5.4093,"is_reserved":false,"is_disabled":false,"rental_uris":{"android":"levelo://app?vid=744de9c5-5760-4c22-96e4-d65a1e22d14f","ios":"levelo://app?vid=744de9c5-5760-4c22-96e4-d65a1e22d14f"},"vehicle_type_id":"4","last_reported":1752081096,"current_range_meters":16400,"station_id":"ce4bhap2rcd13ifvqek0","pricing_plan_id":"cebpf4jnsgd1na2vs0mg"},{"bike_id":"b9aad953-9bed-4824-834b-f3f50fd8c58d","system_id":"levelo_inurba_marseille","lat":43.284205,"lon":5.349925,"is_reserved":false,"is_disabled":false,"rental_uris":{"android":"levelo://app?vid=b9aad953-9bed-4824-834b-f3f50fd8c58d","ios":"levelo://app?vid=b9aad953-9bed-4824-834b-f3f50fd8c58d"},"vehicle_type_id":"4","last_reported":1752081096,"current_range_meters":16400,"station_id":"ce4bhbh2rcd13ifvqepg","pricing_plan_id":"cebpf4jnsgd1na2vs0mg"},{"bike_id":"dfc91ac7-1142-4c9c-970a-d500d1c99918","system_id":"levelo_inurba_marseille","lat":43.24672,"lon":5.3815,"is_reserved":false,"is_disabled":false,"rental_uris":{"android":"levelo://app?vid=dfc91ac7-1142-4c9c-970a-d500d1c99918","ios":"levelo://app?vid=dfc91ac7-1142-4c9c-970a-d500d1c99918"},"vehicle_type_id":"4","last_reported":1752081096,"current_range_meters":16400,"station_id":"ce4bhih2rcd13ifvqfr0","pricing_plan_id":"cebpf4jnsgd1na2vs0mg"},{"bike_id":"191da7b9-bed7-4843-89f5-6df19e076b49","system_id":"levelo_inurba_marseille","lat":43.28556,"lon":5.35205,"is_reserved":false,"is_disabled":false,"rental_uris":{"android":"levelo://app?vid=191da7b9-bed7-4843-89f5-6df19e076b49","ios":"levelo://app?vid=191da7b9-bed7-4843-89f5-6df19e076b49"},"vehicle_type_id":"4","last_reported":1752081096,"current_range_meters":16800,"station_id":"","pricing_plan_id":"cebpf4jnsgd1na2vs0mg"},{"bike_id":"367485b7-87d1-4616-a7ee-358054e3543b","system_id":"levelo_inurba_marseille","lat":43.27375,"lon":5.36259,"is_reserved":false,"is_disabled":false,"rental_uris":{"android":"levelo://app?vid=367485b7-87d1-4616-a7ee-358054e3543b","ios":"levelo://app?vid=367485b7-87d1-4616-a7ee-358054e3543b"},"vehicle_type_id":"4","last_reported":1752081096,"current_range_meters":16800,"station_id":"ce4bhbh2rcd13ifvqeo0","pricing_plan_id":"cebpf4jnsgd1na2vs0mg"},{"bike_id":"f9334c6c-1df0-4384-bf56-32755b1c9a49","system_id":"levelo_inurba_marseille","lat":43.32289,"lon":5.38266,"is_reserved":false,"is_disabled":false,"rental_uris":{"android":"levelo://app?vid=f9334c6c-1df0-4384-bf56-32755b1c9a49","ios":"levelo://app?vid=f9334c6c-1df0-4384-bf56-32755b1c9a49"},"vehicle_type_id":"4","last_reported":1752081096,"current_range_meters":16800,"station_id":"ce4bhr12rcd13ifvqhqg","pricing_plan_id":"cebpf4jnsgd1na2vs0mg"},{"bike_id":"7dd4258d-8fe1-466b-bba8-036a896c4262","system_id":"levelo_inurba_marseille","lat":43.23212,"lon":5.35561,"is_reserved":false,"is_disabled":false,"rental_uris":{"android":"levelo://app?vid=7dd4258d-8fe1-466b-bba8-036a896c4262","ios":"levelo://app?vid=7dd4258d-8fe1-466b-bba8-036a896c4262"},"vehicle_type_id":"4","last_reported":1752081096,"current_range_meters":16800,"station_id":"ce4bhu92rcd13ifvqi70","pricing_plan_id":"cebpf4jnsgd1na2vs0mg"},{"bike_id":"531d572c-53cd-4bd5-ab32-bb49df9177e8","system_id":"levelo_inurba_marseille","lat":43.26945,"lon":5.40259,"is_reserved":false,"is_disabled":false,"rental_uris":{"android":"levelo://app?vid=531d572c-53cd-4bd5-ab32-bb49df9177e8","ios":"levelo://app?vid=531d572c-53cd-4bd5-ab32-bb49df9177e8"},"vehicle_type_id":"4","last_reported":1752081096,"current_range_meters":16800,"station_id":"cjm6bp8fraef2m0cb0m0","pricing_plan_id":"cebpf4jnsgd1na2vs0mg"},{"bike_id":"1ee3caf5-59c2-452b-913a-5b7e597c4fb3","system_id":"levelo_inurba_marseille","lat":43.27378,"lon":5.36256,"is_reserved":false,"is_disabled":false,"rental_uris":{"android":"levelo://app?vid=1ee3caf5-59c2-452b-913a-5b7e597c4fb3","ios":"levelo://app?vid=1ee3caf5-59c2-452b-913a-5b7e597c4fb3"},"vehicle_type_id":"4","last_reported":1752081096,"current_range_meters":17200,"station_id":"ce4bhbh2rcd13ifvqeo0","pricing_plan_id":"cebpf4jnsgd1na2vs0mg"},{"bike_id":"9d2e056a-5a76-483e-bd70-1ba4cc8582d9","system_id":"levelo_inurba_marseille","lat":43.28297,"lon":5.35081,"is_reserved":false,"is_disabled":false,"rental_uris":{"android":"levelo://app?vid=9d2e056a-5a76-483e-bd70-1ba4cc8582d9","ios":"levelo://app?vid=9d2e056a-5a76-483e-bd70-1ba4cc8582d9"},"vehicle_type_id":"4","last_reported":1752081096,"current_range_meters":17200,"station_id":"ce4bhbp2rcd13ifvqerg","pricing_plan_id":"cebpf4jnsgd1na2vs0mg"},{"bike_id":"f1f94696-2315-4ae2-a038-00497fea0df4","system_id":"levelo_inurba_marseille","lat":43.29789,"lon":5.39342,"is_reserved":false,"is_disabled":false,"rental_uris":{"android":"levelo://app?vid=f1f94696-2315-4ae2-a038-00497fea0df4","ios":"levelo://app?vid=f1f94696-2315-4ae2-a038-00497fea0df4"},"vehicle_type_id":"4","last_reported":1752081096,"current_range_meters":17200,"station_id":"chh1huq6cuj3fo74tm60","pricing_plan_id":"cebpf4jnsgd1na2vs0mg"},{"bike_id":"28a25b71-7799-42d1-ab4e-37abcab75d5f","system_id":"levelo_inurba_marseille","lat":43.29786,"lon":5.39345,"is_reserved":false,"is_disabled":false,"rental_uris":{"android":"levelo://app?vid=28a25b71-7799-42d1-ab4e-37abcab75d5f","ios":"levelo://app?vid=28a25b71-7799-42d1-ab4e-37abcab75d5f"},"vehicle_type_id":"4","last_reported":1752081096,"current_range_meters":17200,"station_id":"chh1huq6cuj3fo74tm60","pricing_plan_id":"cebpf4jnsgd1na2vs0mg"},{"bike_id":"de8d5a3d-6620-44dc-b1ec-80ec8253da1b","system_id":"levelo_inurba_marseille","lat":43.28609,"lon":5.35106,"is_reserved":false,"is_disabled":false,"rental_uris":{"android":"levelo://app?vid=de8d5a3d-6620-44dc-b1ec-80ec8253da1b","ios":"levelo://app?vid=de8d5a3d-6620-44dc-b1ec-80ec8253da1b"},"vehicle_type_id":"4","last_reported":1752081096,"current_range_meters":17600,"station_id":"","pricing_plan_id":"cebpf4jnsgd1na2vs0mg"},{"bike_id":"90239158-f1bc-40dc-9293-3304c78063f9","system_id":"levelo_inurba_marseille","lat":43.28427,"lon":5.34981,"is_reserved":false,"is_disabled":false,"rental_uris":{"android":"levelo://app?vid=90239158-f1bc-40dc-9293-3304c78063f9","ios":"levelo://app?vid=90239158-f1bc-40dc-9293-3304c78063f9"},"vehicle_type_id":"4","last_reported":1752081096,"current_range_meters":17600,"station_id":"ce4bhbh2rcd13ifvqepg","pricing_plan_id":"cebpf4jnsgd1na2vs0mg"},{"bike_id":"8a0c5f1a-4bab-45fd-bfde-22a9b0ec2c0c","system_id":"levelo_inurba_marseille","lat":43.28617,"lon":5.35108,"is_reserved":false,"is_disabled":false,"rental_uris":{"android":"levelo://app?vid=8a0c5f1a-4bab-45fd-bfde-22a9b0ec2c0c","ios":"levelo://app?vid=8a0c5f1a-4bab-45fd-bfde-22a9b0ec2c0c"},"vehicle_type_id":"4","last_reported":1752081096,"current_range_meters":17600,"station_id":"ce4bhch2rcd13ifvqeug","pricing_plan_id":"cebpf4jnsgd1na2vs0mg"},{"bike_id":"92db8c5b-bf30-43b4-9b76-415df938f614","system_id":"levelo_inurba_marseille","lat":43.25588,"lon":5.3822,"is_reserved":false,"is_disabled":false,"rental_uris":{"android":"levelo://app?vid=92db8c5b-bf30-43b4-9b76-415df938f614","ios":"levelo://app?vid=92db8c5b-bf30-43b4-9b76-415df938f614"},"vehicle_type_id":"4","last_reported":1752081096,"current_range_meters":17600,"station_id":"ce4bhih2rcd13ifvqfs0","pricing_plan_id":"cebpf4jnsgd1na2vs0mg"},{"bike_id":"bc79cf22-9600-43f9-855f-d2516f160b65","system_id":"levelo_inurba_marseille","lat":43.31369,"lon":5.37646,"is_reserved":false,"is_disabled":false,"rental_uris":{"android":"levelo://app?vid=bc79cf22-9600-43f9-855f-d2516f160b65","ios":"levelo://app?vid=bc79cf22-9600-43f9-855f-d2516f160b65"},"vehicle_type_id":"4","last_reported":1752081096,"current_range_meters":18000,"station_id":"","pricing_plan_id":"cebpf4jnsgd1na2vs0mg"},{"bike_id":"36c387ea-be50-4028-8ecc-21605fe3e879","system_id":"levelo_inurba_marseille","lat":43.29358,"lon":5.42841,"is_reserved":false,"is_disabled":false,"rental_uris":{"android":"levelo://app?vid=36c387ea-be50-4028-8ecc-21605fe3e879","ios":"levelo://app?vid=36c387ea-be50-4028-8ecc-21605fe3e879"},"vehicle_type_id":"4","last_reported":1752081096,"current_range_meters":18000,"station_id":"","pricing_plan_id":"cebpf4jnsgd1na2vs0mg"},{"bike_id":"87d13c3c-9453-4492-8a8f-f2b4c8e828c6","system_id":"levelo_inurba_marseille","lat":43.26177,"lon":5.37049,"is_reserved":false,"is_disabled":false,"rental_uris":{"android":"levelo://app?vid=87d13c3c-9453-4492-8a8f-f2b4c8e828c6","ios":"levelo://app?vid=87d13c3c-9453-4492-8a8f-f2b4c8e828c6"},"vehicle_type_id":"4","last_reported":1752081096,"current_range_meters":18000,"station_id":"","pricing_plan_id":"cebpf4jnsgd1na2vs0mg"},{"bike_id":"feaa7e3a-cbe4-4489-be11-8a12d7eec173","system_id":"levelo_inurba_marseille","lat":43.25167,"lon":5.42514,"is_reserved":false,"is_disabled":false,"rental_uris":{"android":"levelo://app?vid=feaa7e3a-cbe4-4489-be11-8a12d7eec173","ios":"levelo://app?vid=feaa7e3a-cbe4-4489-be11-8a12d7eec173"},"vehicle_type_id":"4","last_reported":1752081096,"current_range_meters":18000,"station_id":"","pricing_plan_id":"cebpf4jnsgd1na2vs0mg"},{"bike_id":"4c1c68ca-5a95-4ad0-b062-f58caf4cef6a","system_id":"levelo_inurba_marseille","lat":43.26568,"lon":5.39001,"is_reserved":false,"is_disabled":false,"rental_uris":{"android":"levelo://app?vid=4c1c68ca-5a95-4ad0-b062-f58caf4cef6a","ios":"levelo://app?vid=4c1c68ca-5a95-4ad0-b062-f58caf4cef6a"},"vehicle_type_id":"4","last_reported":1752081096,"current_range_meters":18000,"station_id":"ce4bhe12rcd13ifvqf30","pricing_plan_id":"cebpf4jnsgd1na2vs0mg"},{"bike_id":"b904489d-b2c8-4b7e-b087-eb9c6301dffe","system_id":"levelo_inurba_marseille","lat":43.26215,"lon":5.37459,"is_reserved":false,"is_disabled":false,"rental_uris":{"android":"levelo://app?vid=b904489d-b2c8-4b7e-b087-eb9c6301dffe","ios":"levelo://app?vid=b904489d-b2c8-4b7e-b087-eb9c6301dffe"},"vehicle_type_id":"4","last_reported":1752081096,"current_range_meters":18000,"station_id":"ce4bhgp2rcd13ifvqfc0","pricing_plan_id":"cebpf4jnsgd1na2vs0mg"},{"bike_id":"3c2be974-f10a-47a0-ae30-b9e120db49ce","system_id":"levelo_inurba_marseille","lat":43.25499,"lon":5.37641,"is_reserved":false,"is_disabled":false,"rental_uris":{"android":"levelo://app?vid=3c2be974-f10a-47a0-ae30-b9e120db49ce","ios":"levelo://app?vid=3c2be974-f10a-47a0-ae30-b9e120db49ce"},"vehicle_type_id":"4","last_reported":1752081096,"current_range_meters":18000,"station_id":"ce4bhh12rcd13ifvqff0","pricing_plan_id":"cebpf4jnsgd1na2vs0mg"},{"bike_id":"344a0812-e991-479f-abc8-d92875730026","system_id":"levelo_inurba_marseille","lat":43.23153,"lon":5.43713,"is_reserved":false,"is_disabled":false,"rental_uris":{"android":"levelo://app?vid=344a0812-e991-479f-abc8-d92875730026","ios":"levelo://app?vid=344a0812-e991-479f-abc8-d92875730026"},"vehicle_type_id":"4","last_reported":1752081096,"current_range_meters":18000,"station_id":"ce4bhmp2rcd13ifvqgog","pricing_plan_id":"cebpf4jnsgd1na2vs0mg"},{"bike_id":"e10c0869-9891-4eff-983b-2f667f7a71f0","system_id":"levelo_inurba_marseille","lat":43.31083,"lon":5.42429,"is_reserved":false,"is_disabled":false,"rental_uris":{"android":"levelo://app?vid=e10c0869-9891-4eff-983b-2f667f7a71f0","ios":"levelo://app?vid=e10c0869-9891-4eff-983b-2f667f7a71f0"},"vehicle_type_id":"4","last_reported":1752081096,"current_range_meters":18000,"station_id":"ce4bhp92rcd13ifvqhag","pricing_plan_id":"cebpf4jnsgd1na2vs0mg"},{"bike_id":"07e72a3b-a5d5-4bd1-b3cb-2449beee7aae","system_id":"levelo_inurba_marseille","lat":43.27376,"lon":5.36253,"is_reserved":false,"is_disabled":false,"rental_uris":{"android":"levelo://app?vid=07e72a3b-a5d5-4bd1-b3cb-2449beee7aae","ios":"levelo://app?vid=07e72a3b-a5d5-4bd1-b3cb-2449beee7aae"},"vehicle_type_id":"4","last_reported":1752081096,"current_range_meters":18800,"station_id":"ce4bhbh2rcd13ifvqeo0","pricing_plan_id":"cebpf4jnsgd1na2vs0mg"},{"bike_id":"c7e88ad0-ccb2-433f-8ee1-39e1d50d10f8","system_id":"levelo_inurba_marseille","lat":43.27381,"lon":5.36248,"is_reserved":false,"is_disabled":false,"rental_uris":{"android":"levelo://app?vid=c7e88ad0-ccb2-433f-8ee1-39e1d50d10f8","ios":"levelo://app?vid=c7e88ad0-ccb2-433f-8ee1-39e1d50d10f8"},"vehicle_type_id":"4","last_reported":1752081096,"current_range_meters":18800,"station_id":"ce4bhbh2rcd13ifvqeo0","pricing_plan_id":"cebpf4jnsgd1na2vs0mg"},{"bike_id":"32a45745-158f-4e9b-8347-39544e4e467d","system_id":"levelo_inurba_marseille","lat":43.284162,"lon":5.349967,"is_reserved":false,"is_disabled":false,"rental_uris":{"android":"levelo://app?vid=32a45745-158f-4e9b-8347-39544e4e467d","ios":"levelo://app?vid=32a45745-158f-4e9b-8347-39544e4e467d"},"vehicle_type_id":"4","last_reported":1752081096,"current_range_meters":18800,"station_id":"ce4bhbh2rcd13ifvqepg","pricing_plan_id":"cebpf4jnsgd1na2vs0mg"},{"bike_id":"fe393e70-3017-4f74-9643-ce2ab31a2adc","system_id":"levelo_inurba_marseille","lat":43.286227,"lon":5.351029,"is_reserved":false,"is_disabled":false,"rental_uris":{"android":"levelo://app?vid=fe393e70-3017-4f74-9643-ce2ab31a2adc","ios":"levelo://app?vid=fe393e70-3017-4f74-9643-ce2ab31a2adc"},"vehicle_type_id":"4","last_reported":1752081096,"current_range_meters":18800,"station_id":"ce4bhch2rcd13ifvqeug","pricing_plan_id":"cebpf4jnsgd1na2vs0mg"},{"bike_id":"343100f3-90b8-4dd0-8837-a51462171593","system_id":"levelo_inurba_marseille","lat":43.26215,"lon":5.37442,"is_reserved":false,"is_disabled":false,"rental_uris":{"android":"levelo://app?vid=343100f3-90b8-4dd0-8837-a51462171593","ios":"levelo://app?vid=343100f3-90b8-4dd0-8837-a51462171593"},"vehicle_type_id":"4","last_reported":1752081096,"current_range_meters":18800,"station_id":"ce4bhgp2rcd13ifvqfc0","pricing_plan_id":"cebpf4jnsgd1na2vs0mg"},{"bike_id":"e0ff3244-daad-4993-8ee0-7363d63c0a34","system_id":"levelo_inurba_marseille","lat":43.24389,"lon":5.37063,"is_reserved":false,"is_disabled":false,"rental_uris":{"android":"levelo://app?vid=e0ff3244-daad-4993-8ee0-7363d63c0a34","ios":"levelo://app?vid=e0ff3244-daad-4993-8ee0-7363d63c0a34"},"vehicle_type_id":"4","last_reported":1752081096,"current_range_meters":18800,"station_id":"ce4bhhh2rcd13ifvqfk0","pricing_plan_id":"cebpf4jnsgd1na2vs0mg"},{"bike_id":"f7db4f76-f9b4-4c58-81f0-17769d8a997d","system_id":"levelo_inurba_marseille","lat":43.25581,"lon":5.38269,"is_reserved":false,"is_disabled":false,"rental_uris":{"android":"levelo://app?vid=f7db4f76-f9b4-4c58-81f0-17769d8a997d","ios":"levelo://app?vid=f7db4f76-f9b4-4c58-81f0-17769d8a997d"},"vehicle_type_id":"4","last_reported":1752081096,"current_range_meters":18800,"station_id":"ce4bhih2rcd13ifvqfs0","pricing_plan_id":"cebpf4jnsgd1na2vs0mg"},{"bike_id":"7725683b-3883-4cb7-b23c-591c9a76b7b2","system_id":"levelo_inurba_marseille","lat":43.25593,"lon":5.3823,"is_reserved":false,"is_disabled":false,"rental_uris":{"android":"levelo://app?vid=7725683b-3883-4cb7-b23c-591c9a76b7b2","ios":"levelo://app?vid=7725683b-3883-4cb7-b23c-591c9a76b7b2"},"vehicle_type_id":"4","last_reported":1752081096,"current_range_meters":18800,"station_id":"ce4bhih2rcd13ifvqfs0","pricing_plan_id":"cebpf4jnsgd1na2vs0mg"},{"bike_id":"8868571d-3278-4d73-b8ba-50b335fba196","system_id":"levelo_inurba_marseille","lat":43.31527,"lon":5.38023,"is_reserved":false,"is_disabled":false,"rental_uris":{"android":"levelo://app?vid=8868571d-3278-4d73-b8ba-50b335fba196","ios":"levelo://app?vid=8868571d-3278-4d73-b8ba-50b335fba196"},"vehicle_type_id":"4","last_reported":1752081096,"current_range_meters":18800,"station_id":"ce4bhsp2rcd13ifvqi50","pricing_plan_id":"cebpf4jnsgd1na2vs0mg"},{"bike_id":"1295af6a-01c4-4a4f-8c28-f31c5a272844","system_id":"levelo_inurba_marseille","lat":43.23191,"lon":5.35558,"is_reserved":false,"is_disabled":false,"rental_uris":{"android":"levelo://app?vid=1295af6a-01c4-4a4f-8c28-f31c5a272844","ios":"levelo://app?vid=1295af6a-01c4-4a4f-8c28-f31c5a272844"},"vehicle_type_id":"4","last_reported":1752081096,"current_range_meters":18800,"station_id":"ce4bhu92rcd13ifvqi70","pricing_plan_id":"cebpf4jnsgd1na2vs0mg"},{"bike_id":"85e3320e-8cee-43de-83f2-e982ac59c075","system_id":"levelo_inurba_marseille","lat":43.22467,"lon":5.34819,"is_reserved":false,"is_disabled":false,"rental_uris":{"android":"levelo://app?vid=85e3320e-8cee-43de-83f2-e982ac59c075","ios":"levelo://app?vid=85e3320e-8cee-43de-83f2-e982ac59c075"},"vehicle_type_id":"4","last_reported":1752081096,"current_range_meters":18800,"station_id":"st_cvj5dfep6f1abm77gieg","pricing_plan_id":"cebpf4jnsgd1na2vs0mg"},{"bike_id":"51d79711-fd55-46d0-999d-7df329fd6150","system_id":"levelo_inurba_marseille","lat":43.217506,"lon":5.345969,"is_reserved":false,"is_disabled":false,"rental_uris":{"android":"levelo://app?vid=51d79711-fd55-46d0-999d-7df329fd6150","ios":"levelo://app?vid=51d79711-fd55-46d0-999d-7df329fd6150"},"vehicle_type_id":"4","last_reported":1752081096,"current_range_meters":18800,"station_id":"st_cvj6r9ubvosntc0bgbag","pricing_plan_id":"cebpf4jnsgd1na2vs0mg"},{"bike_id":"069759f3-8488-4973-b337-5e447fc27e24","system_id":"levelo_inurba_marseille","lat":43.211941,"lon":5.350718,"is_reserved":false,"is_disabled":false,"rental_uris":{"android":"levelo://app?vid=069759f3-8488-4973-b337-5e447fc27e24","ios":"levelo://app?vid=069759f3-8488-4973-b337-5e447fc27e24"},"vehicle_type_id":"4","last_reported":1752081096,"current_range_meters":18800,"station_id":"st_cvj6sg6p6f1abm77japg","pricing_plan_id":"cebpf4jnsgd1na2vs0mg"},{"bike_id":"cade331f-a6e3-4d01-8bc4-dd218718d65a","system_id":"levelo_inurba_marseille","lat":43.337703,"lon":5.374537,"is_reserved":false,"is_disabled":false,"rental_uris":{"android":"levelo://app?vid=cade331f-a6e3-4d01-8bc4-dd218718d65a","ios":"levelo://app?vid=cade331f-a6e3-4d01-8bc4-dd218718d65a"},"vehicle_type_id":"4","last_reported":1752081096,"current_range_meters":19200,"station_id":"","pricing_plan_id":"cebpf4jnsgd1na2vs0mg"},{"bike_id":"9f5e74ce-2459-4c6f-a171-f6d1e8a1ed83","system_id":"levelo_inurba_marseille","lat":43.31874,"lon":5.37567,"is_reserved":false,"is_disabled":false,"rental_uris":{"android":"levelo://app?vid=9f5e74ce-2459-4c6f-a171-f6d1e8a1ed83","ios":"levelo://app?vid=9f5e74ce-2459-4c6f-a171-f6d1e8a1ed83"},"vehicle_type_id":"4","last_reported":1752081096,"current_range_meters":19200,"station_id":"","pricing_plan_id":"cebpf4jnsgd1na2vs0mg"},{"bike_id":"fde530d0-eeed-4692-bb9c-2c65ba0cdd9f","system_id":"levelo_inurba_marseille","lat":43.3088,"lon":5.4256,"is_reserved":false,"is_disabled":false,"rental_uris":{"android":"levelo://app?vid=fde530d0-eeed-4692-bb9c-2c65ba0cdd9f","ios":"levelo://app?vid=fde530d0-eeed-4692-bb9c-2c65ba0cdd9f"},"vehicle_type_id":"4","last_reported":1752081096,"current_range_meters":19200,"station_id":"","pricing_plan_id":"cebpf4jnsgd1na2vs0mg"},{"bike_id":"87c00971-7aff-483a-80d2-aac506436ef4","system_id":"levelo_inurba_marseille","lat":43.27368,"lon":5.3625,"is_reserved":false,"is_disabled":false,"rental_uris":{"android":"levelo://app?vid=87c00971-7aff-483a-80d2-aac506436ef4","ios":"levelo://app?vid=87c00971-7aff-483a-80d2-aac506436ef4"},"vehicle_type_id":"4","last_reported":1752081096,"current_range_meters":19200,"station_id":"ce4bhbh2rcd13ifvqeo0","pricing_plan_id":"cebpf4jnsgd1na2vs0mg"},{"bike_id":"d283b3ce-28ad-4b5e-a397-4f25536715d1","system_id":"levelo_inurba_marseille","lat":43.27376,"lon":5.36254,"is_reserved":false,"is_disabled":false,"rental_uris":{"android":"levelo://app?vid=d283b3ce-28ad-4b5e-a397-4f25536715d1","ios":"levelo://app?vid=d283b3ce-28ad-4b5e-a397-4f25536715d1"},"vehicle_type_id":"4","last_reported":1752081096,"current_range_meters":19200,"station_id":"ce4bhbh2rcd13ifvqeo0","pricing_plan_id":"cebpf4jnsgd1na2vs0mg"},{"bike_id":"ad6abeee-ecf6-4325-89ce-baf12c9a34d6","system_id":"levelo_inurba_marseille","lat":43.27375,"lon":5.36274,"is_reserved":false,"is_disabled":false,"rental_uris":{"android":"levelo://app?vid=ad6abeee-ecf6-4325-89ce-baf12c9a34d6","ios":"levelo://app?vid=ad6abeee-ecf6-4325-89ce-baf12c9a34d6"},"vehicle_type_id":"4","last_reported":1752081096,"current_range_meters":19600,"station_id":"ce4bhbh2rcd13ifvqeo0","pricing_plan_id":"cebpf4jnsgd1na2vs0mg"},{"bike_id":"c9b5b835-5930-47ef-a19d-a9426c9cf3a5","system_id":"levelo_inurba_marseille","lat":43.27378,"lon":5.36258,"is_reserved":false,"is_disabled":false,"rental_uris":{"android":"levelo://app?vid=c9b5b835-5930-47ef-a19d-a9426c9cf3a5","ios":"levelo://app?vid=c9b5b835-5930-47ef-a19d-a9426c9cf3a5"},"vehicle_type_id":"4","last_reported":1752081096,"current_range_meters":19600,"station_id":"ce4bhbh2rcd13ifvqeo0","pricing_plan_id":"cebpf4jnsgd1na2vs0mg"},{"bike_id":"ab5d5fcf-9aa2-47fc-bf4e-dd8601d15f1c","system_id":"levelo_inurba_marseille","lat":43.28417,"lon":5.34982,"is_reserved":false,"is_disabled":false,"rental_uris":{"android":"levelo://app?vid=ab5d5fcf-9aa2-47fc-bf4e-dd8601d15f1c","ios":"levelo://app?vid=ab5d5fcf-9aa2-47fc-bf4e-dd8601d15f1c"},"vehicle_type_id":"4","last_reported":1752081096,"current_range_meters":19600,"station_id":"ce4bhbh2rcd13ifvqepg","pricing_plan_id":"cebpf4jnsgd1na2vs0mg"},{"bike_id":"89c88601-23fc-46eb-8f34-723cccb1bf9d","system_id":"levelo_inurba_marseille","lat":43.27493,"lon":5.42451,"is_reserved":false,"is_disabled":false,"rental_uris":{"android":"levelo://app?vid=89c88601-23fc-46eb-8f34-723cccb1bf9d","ios":"levelo://app?vid=89c88601-23fc-46eb-8f34-723cccb1bf9d"},"vehicle_type_id":"4","last_reported":1752081096,"current_range_meters":19600,"station_id":"ce4bhn92rcd13ifvqgrg","pricing_plan_id":"cebpf4jnsgd1na2vs0mg"},{"bike_id":"3b30cb48-100f-4f80-ae9c-c05fdbf5ac62","system_id":"levelo_inurba_marseille","lat":43.25451,"lon":5.37946,"is_reserved":false,"is_disabled":false,"rental_uris":{"android":"levelo://app?vid=3b30cb48-100f-4f80-ae9c-c05fdbf5ac62","ios":"levelo://app?vid=3b30cb48-100f-4f80-ae9c-c05fdbf5ac62"},"vehicle_type_id":"4","last_reported":1752081096,"current_range_meters":20000,"station_id":"","pricing_plan_id":"cebpf4jnsgd1na2vs0mg"},{"bike_id":"d6ccf0b1-3fcc-4a6a-883f-25257c08898d","system_id":"levelo_inurba_marseille","lat":43.224976,"lon":5.348346,"is_reserved":false,"is_disabled":false,"rental_uris":{"android":"levelo://app?vid=d6ccf0b1-3fcc-4a6a-883f-25257c08898d","ios":"levelo://app?vid=d6ccf0b1-3fcc-4a6a-883f-25257c08898d"},"vehicle_type_id":"4","last_reported":1752081096,"current_range_meters":20000,"station_id":"","pricing_plan_id":"cebpf4jnsgd1na2vs0mg"},{"bike_id":"fa87fcb5-aacb-41a1-a789-0296bbd02085","system_id":"levelo_inurba_marseille","lat":43.24583,"lon":5.37388,"is_reserved":false,"is_disabled":false,"rental_uris":{"android":"levelo://app?vid=fa87fcb5-aacb-41a1-a789-0296bbd02085","ios":"levelo://app?vid=fa87fcb5-aacb-41a1-a789-0296bbd02085"},"vehicle_type_id":"4","last_reported":1752081096,"current_range_meters":20000,"station_id":"","pricing_plan_id":"cebpf4jnsgd1na2vs0mg"},{"bike_id":"4e209b0c-855f-4b51-8120-2faef8673853","system_id":"levelo_inurba_marseille","lat":43.306022,"lon":5.369191,"is_reserved":false,"is_disabled":false,"rental_uris":{"android":"levelo://app?vid=4e209b0c-855f-4b51-8120-2faef8673853","ios":"levelo://app?vid=4e209b0c-855f-4b51-8120-2faef8673853"},"vehicle_type_id":"4","last_reported":1752081096,"current_range_meters":20000,"station_id":"","pricing_plan_id":"cebpf4jnsgd1na2vs0mg"},{"bike_id":"016cb263-3e5e-4668-b362-40e783e27ea7","system_id":"levelo_inurba_marseille","lat":43.311639,"lon":5.387076,"is_reserved":false,"is_disabled":false,"rental_uris":{"android":"levelo://app?vid=016cb263-3e5e-4668-b362-40e783e27ea7","ios":"levelo://app?vid=016cb263-3e5e-4668-b362-40e783e27ea7"},"vehicle_type_id":"4","last_reported":1752081096,"current_range_meters":20000,"station_id":"ce4bgv12rcd13ifvqcp0","pricing_plan_id":"cebpf4jnsgd1na2vs0mg"},{"bike_id":"e2bb7ee9-ac0d-44b3-bb61-6afabc57f457","system_id":"levelo_inurba_marseille","lat":43.27389,"lon":5.36264,"is_reserved":false,"is_disabled":false,"rental_uris":{"android":"levelo://app?vid=e2bb7ee9-ac0d-44b3-bb61-6afabc57f457","ios":"levelo://app?vid=e2bb7ee9-ac0d-44b3-bb61-6afabc57f457"},"vehicle_type_id":"4","last_reported":1752081096,"current_range_meters":20000,"station_id":"ce4bhbh2rcd13ifvqeo0","pricing_plan_id":"cebpf4jnsgd1na2vs0mg"},{"bike_id":"2af61bd9-87ba-4b44-8aeb-9c2b0e9f182a","system_id":"levelo_inurba_marseille","lat":43.25499,"lon":5.37649,"is_reserved":false,"is_disabled":false,"rental_uris":{"android":"levelo://app?vid=2af61bd9-87ba-4b44-8aeb-9c2b0e9f182a","ios":"levelo://app?vid=2af61bd9-87ba-4b44-8aeb-9c2b0e9f182a"},"vehicle_type_id":"4","last_reported":1752081096,"current_range_meters":20000,"station_id":"ce4bhh12rcd13ifvqff0","pricing_plan_id":"cebpf4jnsgd1na2vs0mg"},{"bike_id":"edde5c48-d1a8-4b22-b745-b7fa8b1d8126","system_id":"levelo_inurba_marseille","lat":43.28,"lon":5.40018,"is_reserved":false,"is_disabled":false,"rental_uris":{"android":"levelo://app?vid=edde5c48-d1a8-4b22-b745-b7fa8b1d8126","ios":"levelo://app?vid=edde5c48-d1a8-4b22-b745-b7fa8b1d8126"},"vehicle_type_id":"4","last_reported":1752081096,"current_range_meters":20000,"station_id":"ce4bho92rcd13ifvqh4g","pricing_plan_id":"cebpf4jnsgd1na2vs0mg"},{"bike_id":"13efd694-245f-4ce0-b576-1b99d6974f1b","system_id":"levelo_inurba_marseille","lat":43.26943,"lon":5.40255,"is_reserved":false,"is_disabled":false,"rental_uris":{"android":"levelo://app?vid=13efd694-245f-4ce0-b576-1b99d6974f1b","ios":"levelo://app?vid=13efd694-245f-4ce0-b576-1b99d6974f1b"},"vehicle_type_id":"4","last_reported":1752081096,"current_range_meters":20000,"station_id":"cjm6bp8fraef2m0cb0m0","pricing_plan_id":"cebpf4jnsgd1na2vs0mg"},{"bike_id":"49f5dbf4-585c-472a-9fc1-3482a472d9dd","system_id":"levelo_inurba_marseille","lat":43.2293,"lon":5.35374,"is_reserved":false,"is_disabled":false,"rental_uris":{"android":"levelo://app?vid=49f5dbf4-585c-472a-9fc1-3482a472d9dd","ios":"levelo://app?vid=49f5dbf4-585c-472a-9fc1-3482a472d9dd"},"vehicle_type_id":"4","last_reported":1752081096,"current_range_meters":20000,"station_id":"cpo3532slgdg3j2ikp40","pricing_plan_id":"cebpf4jnsgd1na2vs0mg"},{"bike_id":"bd5228ab-002e-4f81-bbd3-2baf5452f591","system_id":"levelo_inurba_marseille","lat":43.27846,"lon":5.4144,"is_reserved":false,"is_disabled":false,"rental_uris":{"android":"levelo://app?vid=bd5228ab-002e-4f81-bbd3-2baf5452f591","ios":"levelo://app?vid=bd5228ab-002e-4f81-bbd3-2baf5452f591"},"vehicle_type_id":"4","last_reported":1752081096,"current_range_meters":20400,"station_id":"","pricing_plan_id":"cebpf4jnsgd1na2vs0mg"},{"bike_id":"55eb3ee3-207d-45c9-a356-7e275a6ee08e","system_id":"levelo_inurba_marseille","lat":43.322208,"lon":5.407363,"is_reserved":false,"is_disabled":false,"rental_uris":{"android":"levelo://app?vid=55eb3ee3-207d-45c9-a356-7e275a6ee08e","ios":"levelo://app?vid=55eb3ee3-207d-45c9-a356-7e275a6ee08e"},"vehicle_type_id":"4","last_reported":1752081096,"current_range_meters":20400,"station_id":"ce4bh092rcd13ifvqd30","pricing_plan_id":"cebpf4jnsgd1na2vs0mg"},{"bike_id":"87cb3d96-4801-4089-9c67-a0dda7f099dc","system_id":"levelo_inurba_marseille","lat":43.290123,"lon":5.356002,"is_reserved":false,"is_disabled":false,"rental_uris":{"android":"levelo://app?vid=87cb3d96-4801-4089-9c67-a0dda7f099dc","ios":"levelo://app?vid=87cb3d96-4801-4089-9c67-a0dda7f099dc"},"vehicle_type_id":"4","last_reported":1752081096,"current_range_meters":20400,"station_id":"ce4bhb92rcd13ifvqen0","pricing_plan_id":"cebpf4jnsgd1na2vs0mg"},{"bike_id":"33ca56ee-489a-4240-9d4c-667abf911c67","system_id":"levelo_inurba_marseille","lat":43.27394,"lon":5.36263,"is_reserved":false,"is_disabled":false,"rental_uris":{"android":"levelo://app?vid=33ca56ee-489a-4240-9d4c-667abf911c67","ios":"levelo://app?vid=33ca56ee-489a-4240-9d4c-667abf911c67"},"vehicle_type_id":"4","last_reported":1752081096,"current_range_meters":20400,"station_id":"ce4bhbh2rcd13ifvqeo0","pricing_plan_id":"cebpf4jnsgd1na2vs0mg"},{"bike_id":"10c59449-1e22-41d8-be57-73de9f1e8e96","system_id":"levelo_inurba_marseille","lat":43.28416,"lon":5.34985,"is_reserved":false,"is_disabled":false,"rental_uris":{"android":"levelo://app?vid=10c59449-1e22-41d8-be57-73de9f1e8e96","ios":"levelo://app?vid=10c59449-1e22-41d8-be57-73de9f1e8e96"},"vehicle_type_id":"4","last_reported":1752081096,"current_range_meters":20400,"station_id":"ce4bhbh2rcd13ifvqepg","pricing_plan_id":"cebpf4jnsgd1na2vs0mg"},{"bike_id":"a4d31e9a-51b7-40a9-a8a4-50cdcf25722c","system_id":"levelo_inurba_marseille","lat":43.28426,"lon":5.3499,"is_reserved":false,"is_disabled":false,"rental_uris":{"android":"levelo://app?vid=a4d31e9a-51b7-40a9-a8a4-50cdcf25722c","ios":"levelo://app?vid=a4d31e9a-51b7-40a9-a8a4-50cdcf25722c"},"vehicle_type_id":"4","last_reported":1752081096,"current_range_meters":20400,"station_id":"ce4bhbh2rcd13ifvqepg","pricing_plan_id":"cebpf4jnsgd1na2vs0mg"},{"bike_id":"d29d784e-d8e4-46dd-bb3f-f0c18ed60e4d","system_id":"levelo_inurba_marseille","lat":43.29215,"lon":5.36065,"is_reserved":false,"is_disabled":false,"rental_uris":{"android":"levelo://app?vid=d29d784e-d8e4-46dd-bb3f-f0c18ed60e4d","ios":"levelo://app?vid=d29d784e-d8e4-46dd-bb3f-f0c18ed60e4d"},"vehicle_type_id":"4","last_reported":1752081096,"current_range_meters":20400,"station_id":"ce4bhbh2rcd13ifvqeqg","pricing_plan_id":"cebpf4jnsgd1na2vs0mg"},{"bike_id":"876f1c7a-3b02-42ca-b5db-d74bac478a8a","system_id":"levelo_inurba_marseille","lat":43.28271,"lon":5.35064,"is_reserved":false,"is_disabled":false,"rental_uris":{"android":"levelo://app?vid=876f1c7a-3b02-42ca-b5db-d74bac478a8a","ios":"levelo://app?vid=876f1c7a-3b02-42ca-b5db-d74bac478a8a"},"vehicle_type_id":"4","last_reported":1752081096,"current_range_meters":20400,"station_id":"ce4bhbp2rcd13ifvqerg","pricing_plan_id":"cebpf4jnsgd1na2vs0mg"},{"bike_id":"9239d50f-454f-4cfe-bb52-525aa9c261e6","system_id":"levelo_inurba_marseille","lat":43.2863,"lon":5.35085,"is_reserved":false,"is_disabled":false,"rental_uris":{"android":"levelo://app?vid=9239d50f-454f-4cfe-bb52-525aa9c261e6","ios":"levelo://app?vid=9239d50f-454f-4cfe-bb52-525aa9c261e6"},"vehicle_type_id":"4","last_reported":1752081096,"current_range_meters":20400,"station_id":"ce4bhch2rcd13ifvqeug","pricing_plan_id":"cebpf4jnsgd1na2vs0mg"},{"bike_id":"beccceff-fb95-4cb6-9b0f-7251567f3776","system_id":"levelo_inurba_marseille","lat":43.24807,"lon":5.37454,"is_reserved":false,"is_disabled":false,"rental_uris":{"android":"levelo://app?vid=beccceff-fb95-4cb6-9b0f-7251567f3776","ios":"levelo://app?vid=beccceff-fb95-4cb6-9b0f-7251567f3776"},"vehicle_type_id":"4","last_reported":1752081096,"current_range_meters":20400,"station_id":"ce4bhgh2rcd13ifvqfb0","pricing_plan_id":"cebpf4jnsgd1na2vs0mg"},{"bike_id":"e00441a7-6443-47a3-b489-2162daab1188","system_id":"levelo_inurba_marseille","lat":43.26204,"lon":5.37446,"is_reserved":false,"is_disabled":false,"rental_uris":{"android":"levelo://app?vid=e00441a7-6443-47a3-b489-2162daab1188","ios":"levelo://app?vid=e00441a7-6443-47a3-b489-2162daab1188"},"vehicle_type_id":"4","last_reported":1752081096,"current_range_meters":20400,"station_id":"ce4bhgp2rcd13ifvqfc0","pricing_plan_id":"cebpf4jnsgd1na2vs0mg"},{"bike_id":"eadedb8d-3001-4e56-80e0-a2b0b20dd1c6","system_id":"levelo_inurba_marseille","lat":43.31997,"lon":5.38157,"is_reserved":false,"is_disabled":false,"rental_uris":{"android":"levelo://app?vid=eadedb8d-3001-4e56-80e0-a2b0b20dd1c6","ios":"levelo://app?vid=eadedb8d-3001-4e56-80e0-a2b0b20dd1c6"},"vehicle_type_id":"4","last_reported":1752081096,"current_range_meters":20400,"station_id":"ce4bhr12rcd13ifvqhpg","pricing_plan_id":"cebpf4jnsgd1na2vs0mg"},{"bike_id":"ee1ac907-8623-4d00-ac01-d41dd90be9fe","system_id":"levelo_inurba_marseille","lat":43.211914,"lon":5.350788,"is_reserved":false,"is_disabled":false,"rental_uris":{"android":"levelo://app?vid=ee1ac907-8623-4d00-ac01-d41dd90be9fe","ios":"levelo://app?vid=ee1ac907-8623-4d00-ac01-d41dd90be9fe"},"vehicle_type_id":"4","last_reported":1752081096,"current_range_meters":20400,"station_id":"st_cvj6sg6p6f1abm77japg","pricing_plan_id":"cebpf4jnsgd1na2vs0mg"},{"bike_id":"24b17f7b-dff1-4936-b27a-7c2c6813a894","system_id":"levelo_inurba_marseille","lat":43.245876,"lon":5.373768,"is_reserved":false,"is_disabled":false,"rental_uris":{"android":"levelo://app?vid=24b17f7b-dff1-4936-b27a-7c2c6813a894","ios":"levelo://app?vid=24b17f7b-dff1-4936-b27a-7c2c6813a894"},"vehicle_type_id":"4","last_reported":1752081096,"current_range_meters":20800,"station_id":"","pricing_plan_id":"cebpf4jnsgd1na2vs0mg"},{"bike_id":"927b0505-69c9-405e-befb-17b4208e84a6","system_id":"levelo_inurba_marseille","lat":43.31118,"lon":5.37774,"is_reserved":false,"is_disabled":false,"rental_uris":{"android":"levelo://app?vid=927b0505-69c9-405e-befb-17b4208e84a6","ios":"levelo://app?vid=927b0505-69c9-405e-befb-17b4208e84a6"},"vehicle_type_id":"4","last_reported":1752081096,"current_range_meters":20800,"station_id":"ce4bgt92rcd13ifvqcg0","pricing_plan_id":"cebpf4jnsgd1na2vs0mg"},{"bike_id":"ea5d326c-11a2-4610-8caf-74dba3b7ae68","system_id":"levelo_inurba_marseille","lat":43.27373,"lon":5.36256,"is_reserved":false,"is_disabled":false,"rental_uris":{"android":"levelo://app?vid=ea5d326c-11a2-4610-8caf-74dba3b7ae68","ios":"levelo://app?vid=ea5d326c-11a2-4610-8caf-74dba3b7ae68"},"vehicle_type_id":"4","last_reported":1752081096,"current_range_meters":20800,"station_id":"ce4bhbh2rcd13ifvqeo0","pricing_plan_id":"cebpf4jnsgd1na2vs0mg"},{"bike_id":"16af6176-40dd-4695-9e84-8bede1ed7a5b","system_id":"levelo_inurba_marseille","lat":43.28277,"lon":5.35073,"is_reserved":false,"is_disabled":false,"rental_uris":{"android":"levelo://app?vid=16af6176-40dd-4695-9e84-8bede1ed7a5b","ios":"levelo://app?vid=16af6176-40dd-4695-9e84-8bede1ed7a5b"},"vehicle_type_id":"4","last_reported":1752081096,"current_range_meters":20800,"station_id":"ce4bhbp2rcd13ifvqerg","pricing_plan_id":"cebpf4jnsgd1na2vs0mg"},{"bike_id":"cc8dac58-e10f-4660-9a4a-aeb193ea7375","system_id":"levelo_inurba_marseille","lat":43.25501,"lon":5.37645,"is_reserved":false,"is_disabled":false,"rental_uris":{"android":"levelo://app?vid=cc8dac58-e10f-4660-9a4a-aeb193ea7375","ios":"levelo://app?vid=cc8dac58-e10f-4660-9a4a-aeb193ea7375"},"vehicle_type_id":"4","last_reported":1752081096,"current_range_meters":20800,"station_id":"ce4bhh12rcd13ifvqff0","pricing_plan_id":"cebpf4jnsgd1na2vs0mg"},{"bike_id":"3f674e21-387f-42dc-83a5-434606be9c99","system_id":"levelo_inurba_marseille","lat":43.21749,"lon":5.346,"is_reserved":false,"is_disabled":false,"rental_uris":{"android":"levelo://app?vid=3f674e21-387f-42dc-83a5-434606be9c99","ios":"levelo://app?vid=3f674e21-387f-42dc-83a5-434606be9c99"},"vehicle_type_id":"4","last_reported":1752081096,"current_range_meters":20800,"station_id":"st_cvj6r9ubvosntc0bgbag","pricing_plan_id":"cebpf4jnsgd1na2vs0mg"},{"bike_id":"6103ade4-9f90-4be7-8152-7a0b978df782","system_id":"levelo_inurba_marseille","lat":43.299257,"lon":5.374755,"is_reserved":false,"is_disabled":false,"rental_uris":{"android":"levelo://app?vid=6103ade4-9f90-4be7-8152-7a0b978df782","ios":"levelo://app?vid=6103ade4-9f90-4be7-8152-7a0b978df782"},"vehicle_type_id":"4","last_reported":1752081096,"current_range_meters":21600,"station_id":"","pricing_plan_id":"cebpf4jnsgd1na2vs0mg"},{"bike_id":"ab521df9-ab36-4a3d-a446-31ee393c87dd","system_id":"levelo_inurba_marseille","lat":43.30863,"lon":5.40371,"is_reserved":false,"is_disabled":false,"rental_uris":{"android":"levelo://app?vid=ab521df9-ab36-4a3d-a446-31ee393c87dd","ios":"levelo://app?vid=ab521df9-ab36-4a3d-a446-31ee393c87dd"},"vehicle_type_id":"4","last_reported":1752081096,"current_range_meters":21600,"station_id":"","pricing_plan_id":"cebpf4jnsgd1na2vs0mg"},{"bike_id":"be2f19a5-f0b9-4cd4-95ba-5aad7494c47e","system_id":"levelo_inurba_marseille","lat":43.30178,"lon":5.36611,"is_reserved":false,"is_disabled":false,"rental_uris":{"android":"levelo://app?vid=be2f19a5-f0b9-4cd4-95ba-5aad7494c47e","ios":"levelo://app?vid=be2f19a5-f0b9-4cd4-95ba-5aad7494c47e"},"vehicle_type_id":"4","last_reported":1752081096,"current_range_meters":21600,"station_id":"ce4bgrh2rcd13ifvqc8g","pricing_plan_id":"cebpf4jnsgd1na2vs0mg"},{"bike_id":"00b0a3d7-7a11-43f1-bc07-36fd5cdf48c6","system_id":"levelo_inurba_marseille","lat":43.29523,"lon":5.39033,"is_reserved":false,"is_disabled":false,"rental_uris":{"android":"levelo://app?vid=00b0a3d7-7a11-43f1-bc07-36fd5cdf48c6","ios":"levelo://app?vid=00b0a3d7-7a11-43f1-bc07-36fd5cdf48c6"},"vehicle_type_id":"4","last_reported":1752081096,"current_range_meters":21600,"station_id":"ce4bh3p2rcd13ifvqdp0","pricing_plan_id":"cebpf4jnsgd1na2vs0mg"},{"bike_id":"6006a9aa-40e9-4dd0-9916-778076e2eaee","system_id":"levelo_inurba_marseille","lat":43.28428,"lon":5.349886,"is_reserved":false,"is_disabled":false,"rental_uris":{"android":"levelo://app?vid=6006a9aa-40e9-4dd0-9916-778076e2eaee","ios":"levelo://app?vid=6006a9aa-40e9-4dd0-9916-778076e2eaee"},"vehicle_type_id":"4","last_reported":1752081096,"current_range_meters":21600,"station_id":"ce4bhbh2rcd13ifvqepg","pricing_plan_id":"cebpf4jnsgd1na2vs0mg"},{"bike_id":"0e055446-1a25-4d64-8b1f-e6595d6f372e","system_id":"levelo_inurba_marseille","lat":43.28617,"lon":5.35108,"is_reserved":false,"is_disabled":false,"rental_uris":{"android":"levelo://app?vid=0e055446-1a25-4d64-8b1f-e6595d6f372e","ios":"levelo://app?vid=0e055446-1a25-4d64-8b1f-e6595d6f372e"},"vehicle_type_id":"4","last_reported":1752081096,"current_range_meters":21600,"station_id":"ce4bhch2rcd13ifvqeug","pricing_plan_id":"cebpf4jnsgd1na2vs0mg"},{"bike_id":"a639b820-7e59-4035-96cb-cf4c8016504d","system_id":"levelo_inurba_marseille","lat":43.26558,"lon":5.37281,"is_reserved":false,"is_disabled":false,"rental_uris":{"android":"levelo://app?vid=a639b820-7e59-4035-96cb-cf4c8016504d","ios":"levelo://app?vid=a639b820-7e59-4035-96cb-cf4c8016504d"},"vehicle_type_id":"4","last_reported":1752081096,"current_range_meters":21600,"station_id":"ce4bhg12rcd13ifvqf70","pricing_plan_id":"cebpf4jnsgd1na2vs0mg"},{"bike_id":"bdd54ef5-d72e-4553-93b4-3f4026c46437","system_id":"levelo_inurba_marseille","lat":43.270685,"lon":5.388044,"is_reserved":false,"is_disabled":false,"rental_uris":{"android":"levelo://app?vid=bdd54ef5-d72e-4553-93b4-3f4026c46437","ios":"levelo://app?vid=bdd54ef5-d72e-4553-93b4-3f4026c46437"},