{"last_updated":1761080954,"ttl":60,"version":"2.2","data":{"bikes":[{"bike_id":"d8a0f4f8-3964-402e-924c-3470748785aa","system_id":"levelo_inurba_marseille","lat":43.337444,"lon":5.374475,"is_reserved":false,"is_disabled":false,"rental_uris":{"android":"levelo://app?vid=d8a0f4f8-3964-402e-924c-3470748785aa","ios":"levelo://app?vid=d8a0f4f8-3964-402e-924c-3470748785aa"},"vehicle_type_id":"4","last_reported":1761080954,"current_range_meters":0,"station_id":"","pricing_plan_id":"cebpf4jnsgd1na2vs0mg"},{"bike_id":"fbb75000-48f5-4dbe-aa37-aa4a8d769d08","system_id":"levelo_inurba_marseille","lat":43.21187,"lon":5.3507,"is_reserved":false,"is_disabled":false,"rental_uris":{"android":"levelo://app?vid=fbb75000-48f5-4dbe-aa37-aa4a8d769d08","ios":"levelo://app?vid=fbb75000-48f5-4dbe-aa37-aa4a8d769d08"},"vehicle_type_id":"4","last_reported":1761080954,"current_range_meters":2800,"station_id":"st_cvj6sg6p6f1abm77japg","pricing_plan_id":"cebpf4jnsgd1na2vs0mg"},{"bike_id":"78a0dc8b-3b9d-41f7-a3a3-18ec054e3617","system_id":"levelo_inurba_marseille","lat":43.30968,"lon":5.3812,"is_reserved":false,"is_disabled":false,"rental_uris":{"android":"levelo://app?vid=78a0dc8b-3b9d-41f7-a3a3-18ec054e3617","ios":"levelo://app?vid=78a0dc8b-3b9d-41f7-a3a3-18ec054e3617"},"vehicle_type_id":"4","last_reported":1761080954,"current_range_meters":2800,"station_id":"","pricing_plan_id":"cebpf4jnsgd1na2vs0mg"},{"bike_id":"4aba9dec-2974-4873-8770-618bc787840f","system_id":"levelo_inurba_marseille","lat":43.26227,"lon":5.40454,"is_reserved":false,"is_disabled":false,"rental_uris":{"android":"levelo://app?vid=4aba9dec-2974-4873-8770-618bc787840f","ios":"levelo://app?vid=4aba9dec-2974-4873-8770-618bc787840f"},"vehicle_type_id":"4","last_reported":1761080954,"current_range_meters":3200,"station_id":"ce4bhmh2rcd13ifvqgmg","pricing_plan_id":"cebpf4jnsgd1na2vs0mg"},{"bike_id":"1fd43941-7bba-4f99-99db-104027a53a3c","system_id":"levelo_inurba_marseille","lat":43.2439,"lon":5.37075,"is_reserved":false,"is_disabled":false,"rental_uris":{"android":"levelo://app?vid=1fd43941-7bba-4f99-99db-104027a53a3c","ios":"levelo://app?vid=1fd43941-7bba-4f99-99db-104027a53a3c"},"vehicle_type_id":"4","last_reported":1761080954,"current_range_meters":3600,"station_id":"ce4bhhh2rcd13ifvqfk0","pricing_plan_id":"cebpf4jnsgd1na2vs0mg"},{"bike_id":"212a9329-66c4-44b3-8186-4a3357c4630e","system_id":"levelo_inurba_marseille","lat":43.292097,"lon":5.380964,"is_reserved":false,"is_disabled":false,"rental_uris":{"android":"levelo://app?vid=212a9329-66c4-44b3-8186-4a3357c4630e","ios":"levelo://app?vid=212a9329-66c4-44b3-8186-4a3357c4630e"},"vehicle_type_id":"4","last_reported":1761080954,"current_range_meters":4400,"station_id":"","pricing_plan_id":"cebpf4jnsgd1na2vs0mg"},{"bike_id":"a3879cb9-6456-4562-b725-521792316b8b","system_id":"levelo_inurba_marseille","lat":43.316621,"lon":5.404418,"is_reserved":false,"is_disabled":false,"rental_uris":{"android":"levelo://app?vid=a3879cb9-6456-4562-b725-521792316b8b","ios":"levelo://app?vid=a3879cb9-6456-4562-b725-521792316b8b"},"vehicle_type_id":"4","last_reported":1761080954,"current_range_meters":4400,"station_id":"ce4bh012rcd13ifvqd00","pricing_plan_id":"cebpf4jnsgd1na2vs0mg"},{"bike_id":"1666a686-fbcf-41ad-bebe-c6003e7dd7db","system_id":"levelo_inurba_marseille","lat":43.30888,"lon":5.371879,"is_reserved":false,"is_disabled":false,"rental_uris":{"android":"levelo://app?vid=1666a686-fbcf-41ad-bebe-c6003e7dd7db","ios":"levelo://app?vid=1666a686-fbcf-41ad-bebe-c6003e7dd7db"},"vehicle_type_id":"4","last_reported":1761080954,"current_range_meters":4800,"station_id":"ce4bguh2rcd13ifvqckg","pricing_plan_id":"cebpf4jnsgd1na2vs0mg"},{"bike_id":"a568e6dd-160c-4c52-8b70-2412c493b526","system_id":"levelo_inurba_marseille","lat":43.22564,"lon":5.41627,"is_reserved":false,"is_disabled":false,"rental_uris":{"android":"levelo://app?vid=a568e6dd-160c-4c52-8b70-2412c493b526","ios":"levelo://app?vid=a568e6dd-160c-4c52-8b70-2412c493b526"},"vehicle_type_id":"4","last_reported":1761080954,"current_range_meters":5600,"station_id":"st_d2o4gvlbi1j2169b742g","pricing_plan_id":"cebpf4jnsgd1na2vs0mg"},{"bike_id":"c037874f-e454-4d1e-9f03-b485b4dbd4f2","system_id":"levelo_inurba_marseille","lat":43.29183,"lon":5.37062,"is_reserved":false,"is_disabled":false,"rental_uris":{"android":"levelo://app?vid=c037874f-e454-4d1e-9f03-b485b4dbd4f2","ios":"levelo://app?vid=c037874f-e454-4d1e-9f03-b485b4dbd4f2"},"vehicle_type_id":"4","last_reported":1761080954,"current_range_meters":6000,"station_id":"","pricing_plan_id":"cebpf4jnsgd1na2vs0mg"},{"bike_id":"23d2e327-9a1c-43f9-a1d7-2fca27e96f84","system_id":"levelo_inurba_marseille","lat":43.27371,"lon":5.41514,"is_reserved":false,"is_disabled":false,"rental_uris":{"android":"levelo://app?vid=23d2e327-9a1c-43f9-a1d7-2fca27e96f84","ios":"levelo://app?vid=23d2e327-9a1c-43f9-a1d7-2fca27e96f84"},"vehicle_type_id":"4","last_reported":1761080954,"current_range_meters":6000,"station_id":"","pricing_plan_id":"cebpf4jnsgd1na2vs0mg"},{"bike_id":"c04f9120-086d-47fb-86c9-7eb28f177b53","system_id":"levelo_inurba_marseille","lat":43.274678,"lon":5.424337,"is_reserved":false,"is_disabled":false,"rental_uris":{"android":"levelo://app?vid=c04f9120-086d-47fb-86c9-7eb28f177b53","ios":"levelo://app?vid=c04f9120-086d-47fb-86c9-7eb28f177b53"},"vehicle_type_id":"4","last_reported":1761080954,"current_range_meters":6000,"station_id":"ce4bhn92rcd13ifvqgrg","pricing_plan_id":"cebpf4jnsgd1na2vs0mg"},{"bike_id":"6d8da19b-0143-43ba-a2b6-b774a32597d4","system_id":"levelo_inurba_marseille","lat":43.28148,"lon":5.34763,"is_reserved":false,"is_disabled":false,"rental_uris":{"android":"levelo://app?vid=6d8da19b-0143-43ba-a2b6-b774a32597d4","ios":"levelo://app?vid=6d8da19b-0143-43ba-a2b6-b774a32597d4"},"vehicle_type_id":"4","last_reported":1761080954,"current_range_meters":6400,"station_id":"","pricing_plan_id":"cebpf4jnsgd1na2vs0mg"},{"bike_id":"573ff4d5-52a8-420d-ab6b-386d85e58b5b","system_id":"levelo_inurba_marseille","lat":43.28219,"lon":5.3906,"is_reserved":false,"is_disabled":false,"rental_uris":{"android":"levelo://app?vid=573ff4d5-52a8-420d-ab6b-386d85e58b5b","ios":"levelo://app?vid=573ff4d5-52a8-420d-ab6b-386d85e58b5b"},"vehicle_type_id":"4","last_reported":1761080954,"current_range_meters":6400,"station_id":"ce4bhn92rcd13ifvqgsg","pricing_plan_id":"cebpf4jnsgd1na2vs0mg"},{"bike_id":"32fe13f3-1998-41d4-a763-4eea85838a36","system_id":"levelo_inurba_marseille","lat":43.28602,"lon":5.37074,"is_reserved":false,"is_disabled":false,"rental_uris":{"android":"levelo://app?vid=32fe13f3-1998-41d4-a763-4eea85838a36","ios":"levelo://app?vid=32fe13f3-1998-41d4-a763-4eea85838a36"},"vehicle_type_id":"4","last_reported":1761080954,"current_range_meters":6400,"station_id":"ce4bht12rcd13ifvqi60","pricing_plan_id":"cebpf4jnsgd1na2vs0mg"},{"bike_id":"98490d11-db71-4361-ab96-f0addd49d050","system_id":"levelo_inurba_marseille","lat":43.30002,"lon":5.37396,"is_reserved":false,"is_disabled":false,"rental_uris":{"android":"levelo://app?vid=98490d11-db71-4361-ab96-f0addd49d050","ios":"levelo://app?vid=98490d11-db71-4361-ab96-f0addd49d050"},"vehicle_type_id":"4","last_reported":1761080954,"current_range_meters":6400,"station_id":"","pricing_plan_id":"cebpf4jnsgd1na2vs0mg"},{"bike_id":"8952652d-181d-4647-99e0-dd7c8dc8f72d","system_id":"levelo_inurba_marseille","lat":43.28575,"lon":5.44114,"is_reserved":false,"is_disabled":false,"rental_uris":{"android":"levelo://app?vid=8952652d-181d-4647-99e0-dd7c8dc8f72d","ios":"levelo://app?vid=8952652d-181d-4647-99e0-dd7c8dc8f72d"},"vehicle_type_id":"4","last_reported":1761080954,"current_range_meters":6800,"station_id":"st_d3j3df2ikq2c7380ej80","pricing_plan_id":"cebpf4jnsgd1na2vs0mg"},{"bike_id":"5579785c-3a11-4952-8185-13727af029d5","system_id":"levelo_inurba_marseille","lat":43.2858,"lon":5.39467,"is_reserved":false,"is_disabled":false,"rental_uris":{"android":"levelo://app?vid=5579785c-3a11-4952-8185-13727af029d5","ios":"levelo://app?vid=5579785c-3a11-4952-8185-13727af029d5"},"vehicle_type_id":"4","last_reported":1761080954,"current_range_meters":6800,"station_id":"ce4bh292rcd13ifvqdg0","pricing_plan_id":"cebpf4jnsgd1na2vs0mg"},{"bike_id":"9000d598-4615-4375-b3e1-b7516ad2df50","system_id":"levelo_inurba_marseille","lat":43.29256,"lon":5.38324,"is_reserved":false,"is_disabled":false,"rental_uris":{"android":"levelo://app?vid=9000d598-4615-4375-b3e1-b7516ad2df50","ios":"levelo://app?vid=9000d598-4615-4375-b3e1-b7516ad2df50"},"vehicle_type_id":"4","last_reported":1761080954,"current_range_meters":6800,"station_id":"","pricing_plan_id":"cebpf4jnsgd1na2vs0mg"},{"bike_id":"04018adf-9b7e-4f75-95a6-f2dca1881420","system_id":"levelo_inurba_marseille","lat":43.21746,"lon":5.34594,"is_reserved":false,"is_disabled":true,"rental_uris":{"android":"levelo://app?vid=04018adf-9b7e-4f75-95a6-f2dca1881420","ios":"levelo://app?vid=04018adf-9b7e-4f75-95a6-f2dca1881420"},"vehicle_type_id":"4","last_reported":1761080954,"current_range_meters":6800,"station_id":"st_cvj6r9ubvosntc0bgbag","pricing_plan_id":"cebpf4jnsgd1na2vs0mg"},{"bike_id":"a9c0bae4-13da-4feb-aee3-a83d95e1956e","system_id":"levelo_inurba_marseille","lat":43.29275,"lon":5.36843,"is_reserved":false,"is_disabled":false,"rental_uris":{"android":"levelo://app?vid=a9c0bae4-13da-4feb-aee3-a83d95e1956e","ios":"levelo://app?vid=a9c0bae4-13da-4feb-aee3-a83d95e1956e"},"vehicle_type_id":"4","last_reported":1761080954,"current_range_meters":7200,"station_id":"ce4bhbp2rcd13ifvqesg","pricing_plan_id":"cebpf4jnsgd1na2vs0mg"},{"bike_id":"86e4f589-1c69-49e4-9ea8-d673442a5975","system_id":"levelo_inurba_marseille","lat":43.29535,"lon":5.38533,"is_reserved":false,"is_disabled":false,"rental_uris":{"android":"levelo://app?vid=86e4f589-1c69-49e4-9ea8-d673442a5975","ios":"levelo://app?vid=86e4f589-1c69-49e4-9ea8-d673442a5975"},"vehicle_type_id":"4","last_reported":1761080954,"current_range_meters":7200,"station_id":"ce4bgih2rcd13ifvqba0","pricing_plan_id":"cebpf4jnsgd1na2vs0mg"},{"bike_id":"4bb6d993-b33c-4862-ab4c-59be979be62e","system_id":"levelo_inurba_marseille","lat":43.292575,"lon":5.40906,"is_reserved":false,"is_disabled":false,"rental_uris":{"android":"levelo://app?vid=4bb6d993-b33c-4862-ab4c-59be979be62e","ios":"levelo://app?vid=4bb6d993-b33c-4862-ab4c-59be979be62e"},"vehicle_type_id":"4","last_reported":1761080954,"current_range_meters":8000,"station_id":"ce4bh192rcd13ifvqdc0","pricing_plan_id":"cebpf4jnsgd1na2vs0mg"},{"bike_id":"bf8ec125-d0e1-4669-93ef-7d5ad0ddea3a","system_id":"levelo_inurba_marseille","lat":43.27234,"lon":5.40048,"is_reserved":false,"is_disabled":false,"rental_uris":{"android":"levelo://app?vid=bf8ec125-d0e1-4669-93ef-7d5ad0ddea3a","ios":"levelo://app?vid=bf8ec125-d0e1-4669-93ef-7d5ad0ddea3a"},"vehicle_type_id":"4","last_reported":1761080954,"current_range_meters":8000,"station_id":"","pricing_plan_id":"cebpf4jnsgd1na2vs0mg"},{"bike_id":"a7c7675d-e06c-4794-bdda-4ac8c78a31c6","system_id":"levelo_inurba_marseille","lat":43.2827,"lon":5.35063,"is_reserved":false,"is_disabled":true,"rental_uris":{"android":"levelo://app?vid=a7c7675d-e06c-4794-bdda-4ac8c78a31c6","ios":"levelo://app?vid=a7c7675d-e06c-4794-bdda-4ac8c78a31c6"},"vehicle_type_id":"4","last_reported":1761080954,"current_range_meters":8000,"station_id":"ce4bhbp2rcd13ifvqerg","pricing_plan_id":"cebpf4jnsgd1na2vs0mg"},{"bike_id":"e7cb61d9-84d9-41c0-8427-00fc6a9e436b","system_id":"levelo_inurba_marseille","lat":43.31063,"lon":5.37563,"is_reserved":false,"is_disabled":false,"rental_uris":{"android":"levelo://app?vid=e7cb61d9-84d9-41c0-8427-00fc6a9e436b","ios":"levelo://app?vid=e7cb61d9-84d9-41c0-8427-00fc6a9e436b"},"vehicle_type_id":"4","last_reported":1761080954,"current_range_meters":8000,"station_id":"","pricing_plan_id":"cebpf4jnsgd1na2vs0mg"},{"bike_id":"c4432b73-0adb-475d-83b3-18f6e7bba483","system_id":"levelo_inurba_marseille","lat":43.33031,"lon":5.39492,"is_reserved":false,"is_disabled":false,"rental_uris":{"android":"levelo://app?vid=c4432b73-0adb-475d-83b3-18f6e7bba483","ios":"levelo://app?vid=c4432b73-0adb-475d-83b3-18f6e7bba483"},"vehicle_type_id":"4","last_reported":1761080954,"current_range_meters":8000,"station_id":"","pricing_plan_id":"cebpf4jnsgd1na2vs0mg"},{"bike_id":"f7a07b58-cadd-44ad-9aec-67b79048708f","system_id":"levelo_inurba_marseille","lat":43.304308,"lon":5.405861,"is_reserved":false,"is_disabled":false,"rental_uris":{"android":"levelo://app?vid=f7a07b58-cadd-44ad-9aec-67b79048708f","ios":"levelo://app?vid=f7a07b58-cadd-44ad-9aec-67b79048708f"},"vehicle_type_id":"4","last_reported":1761080954,"current_range_meters":8400,"station_id":"","pricing_plan_id":"cebpf4jnsgd1na2vs0mg"},{"bike_id":"a2e131f8-3c9f-478a-b394-6a9db5f46a7a","system_id":"levelo_inurba_marseille","lat":43.30131,"lon":5.37428,"is_reserved":false,"is_disabled":true,"rental_uris":{"android":"levelo://app?vid=a2e131f8-3c9f-478a-b394-6a9db5f46a7a","ios":"levelo://app?vid=a2e131f8-3c9f-478a-b394-6a9db5f46a7a"},"vehicle_type_id":"4","last_reported":1761080954,"current_range_meters":8400,"station_id":"ce4bgs92rcd13ifvqcc0","pricing_plan_id":"cebpf4jnsgd1na2vs0mg"},{"bike_id":"f2ff0ade-5361-46d8-ab78-69bd403c3483","system_id":"levelo_inurba_marseille","lat":43.28228,"lon":5.34981,"is_reserved":false,"is_disabled":false,"rental_uris":{"android":"levelo://app?vid=f2ff0ade-5361-46d8-ab78-69bd403c3483","ios":"levelo://app?vid=f2ff0ade-5361-46d8-ab78-69bd403c3483"},"vehicle_type_id":"4","last_reported":1761080954,"current_range_meters":8400,"station_id":"","pricing_plan_id":"cebpf4jnsgd1na2vs0mg"},{"bike_id":"b57659f4-d3ee-4dae-9f8a-459796f973b4","system_id":"levelo_inurba_marseille","lat":43.25333,"lon":5.42168,"is_reserved":false,"is_disabled":false,"rental_uris":{"android":"levelo://app?vid=b57659f4-d3ee-4dae-9f8a-459796f973b4","ios":"levelo://app?vid=b57659f4-d3ee-4dae-9f8a-459796f973b4"},"vehicle_type_id":"4","last_reported":1761080954,"current_range_meters":8400,"station_id":"st_d2m65c5bi1j21697t3ng","pricing_plan_id":"cebpf4jnsgd1na2vs0mg"},{"bike_id":"fbc32ad4-e9d0-49d2-aad8-8fc6fbfce7c5","system_id":"levelo_inurba_marseille","lat":43.29527,"lon":5.38539,"is_reserved":false,"is_disabled":false,"rental_uris":{"android":"levelo://app?vid=fbc32ad4-e9d0-49d2-aad8-8fc6fbfce7c5","ios":"levelo://app?vid=fbc32ad4-e9d0-49d2-aad8-8fc6fbfce7c5"},"vehicle_type_id":"4","last_reported":1761080954,"current_range_meters":8400,"station_id":"ce4bgih2rcd13ifvqba0","pricing_plan_id":"cebpf4jnsgd1na2vs0mg"},{"bike_id":"5358d4d0-c0ca-463c-adbb-bfb4d9389da2","system_id":"levelo_inurba_marseille","lat":43.29069,"lon":5.37164,"is_reserved":false,"is_disabled":false,"rental_uris":{"android":"levelo://app?vid=5358d4d0-c0ca-463c-adbb-bfb4d9389da2","ios":"levelo://app?vid=5358d4d0-c0ca-463c-adbb-bfb4d9389da2"},"vehicle_type_id":"4","last_reported":1761080954,"current_range_meters":8400,"station_id":"ce4bh5p2rcd13ifvqe4g","pricing_plan_id":"cebpf4jnsgd1na2vs0mg"},{"bike_id":"bedab86a-a42b-4d3b-a255-7e555fb6da4b","system_id":"levelo_inurba_marseille","lat":43.28827,"lon":5.45164,"is_reserved":false,"is_disabled":false,"rental_uris":{"android":"levelo://app?vid=bedab86a-a42b-4d3b-a255-7e555fb6da4b","ios":"levelo://app?vid=bedab86a-a42b-4d3b-a255-7e555fb6da4b"},"vehicle_type_id":"4","last_reported":1761080954,"current_range_meters":8800,"station_id":"","pricing_plan_id":"cebpf4jnsgd1na2vs0mg"},{"bike_id":"adb6da43-a790-4bbe-8cdb-8fa1e5d17796","system_id":"levelo_inurba_marseille","lat":43.3175,"lon":5.38585,"is_reserved":false,"is_disabled":true,"rental_uris":{"android":"levelo://app?vid=adb6da43-a790-4bbe-8cdb-8fa1e5d17796","ios":"levelo://app?vid=adb6da43-a790-4bbe-8cdb-8fa1e5d17796"},"vehicle_type_id":"4","last_reported":1761080954,"current_range_meters":8800,"station_id":"","pricing_plan_id":"cebpf4jnsgd1na2vs0mg"},{"bike_id":"4154d683-e72a-4592-9e60-2a3872848698","system_id":"levelo_inurba_marseille","lat":43.28474,"lon":5.48393,"is_reserved":false,"is_disabled":false,"rental_uris":{"android":"levelo://app?vid=4154d683-e72a-4592-9e60-2a3872848698","ios":"levelo://app?vid=4154d683-e72a-4592-9e60-2a3872848698"},"vehicle_type_id":"4","last_reported":1761080954,"current_range_meters":9200,"station_id":"st_d3jp68qikq2c7381ktn0","pricing_plan_id":"cebpf4jnsgd1na2vs0mg"},{"bike_id":"b3368da1-faef-43a4-ada4-73d0de7687c7","system_id":"levelo_inurba_marseille","lat":43.31571,"lon":5.38755,"is_reserved":false,"is_disabled":true,"rental_uris":{"android":"levelo://app?vid=b3368da1-faef-43a4-ada4-73d0de7687c7","ios":"levelo://app?vid=b3368da1-faef-43a4-ada4-73d0de7687c7"},"vehicle_type_id":"4","last_reported":1761080954,"current_range_meters":9200,"station_id":"","pricing_plan_id":"cebpf4jnsgd1na2vs0mg"},{"bike_id":"2a7581c7-64ec-4fda-8d5b-2d439c226ba4","system_id":"levelo_inurba_marseille","lat":43.30645,"lon":5.40097,"is_reserved":false,"is_disabled":false,"rental_uris":{"android":"levelo://app?vid=2a7581c7-64ec-4fda-8d5b-2d439c226ba4","ios":"levelo://app?vid=2a7581c7-64ec-4fda-8d5b-2d439c226ba4"},"vehicle_type_id":"4","last_reported":1761080954,"current_range_meters":9200,"station_id":"ce4bh112rcd13ifvqda0","pricing_plan_id":"cebpf4jnsgd1na2vs0mg"},{"bike_id":"fe998b17-9d85-477f-b92c-87f6ebb6e1b3","system_id":"levelo_inurba_marseille","lat":43.24477,"lon":5.36924,"is_reserved":false,"is_disabled":false,"rental_uris":{"android":"levelo://app?vid=fe998b17-9d85-477f-b92c-87f6ebb6e1b3","ios":"levelo://app?vid=fe998b17-9d85-477f-b92c-87f6ebb6e1b3"},"vehicle_type_id":"4","last_reported":1761080954,"current_range_meters":9600,"station_id":"","pricing_plan_id":"cebpf4jnsgd1na2vs0mg"},{"bike_id":"3d068a7d-8c2c-4f97-8d7d-54140fa95800","system_id":"levelo_inurba_marseille","lat":43.27344,"lon":5.39877,"is_reserved":false,"is_disabled":false,"rental_uris":{"android":"levelo://app?vid=3d068a7d-8c2c-4f97-8d7d-54140fa95800","ios":"levelo://app?vid=3d068a7d-8c2c-4f97-8d7d-54140fa95800"},"vehicle_type_id":"4","last_reported":1761080954,"current_range_meters":9600,"station_id":"","pricing_plan_id":"cebpf4jnsgd1na2vs0mg"},{"bike_id":"49cabdc5-ab59-45bc-b0af-456b5f3dbb0b","system_id":"levelo_inurba_marseille","lat":43.29528,"lon":5.38531,"is_reserved":false,"is_disabled":false,"rental_uris":{"android":"levelo://app?vid=49cabdc5-ab59-45bc-b0af-456b5f3dbb0b","ios":"levelo://app?vid=49cabdc5-ab59-45bc-b0af-456b5f3dbb0b"},"vehicle_type_id":"4","last_reported":1761080954,"current_range_meters":9600,"station_id":"ce4bgih2rcd13ifvqba0","pricing_plan_id":"cebpf4jnsgd1na2vs0mg"},{"bike_id":"66bec76d-d7e9-4a1e-a715-39e56334bf96","system_id":"levelo_inurba_marseille","lat":43.28289,"lon":5.39648,"is_reserved":false,"is_disabled":false,"rental_uris":{"android":"levelo://app?vid=66bec76d-d7e9-4a1e-a715-39e56334bf96","ios":"levelo://app?vid=66bec76d-d7e9-4a1e-a715-39e56334bf96"},"vehicle_type_id":"4","last_reported":1761080954,"current_range_meters":10000,"station_id":"","pricing_plan_id":"cebpf4jnsgd1na2vs0mg"},{"bike_id":"b7e41c34-cad5-468c-aadc-3ef8a1845b5a","system_id":"levelo_inurba_marseille","lat":43.28158,"lon":5.36117,"is_reserved":false,"is_disabled":false,"rental_uris":{"android":"levelo://app?vid=b7e41c34-cad5-468c-aadc-3ef8a1845b5a","ios":"levelo://app?vid=b7e41c34-cad5-468c-aadc-3ef8a1845b5a"},"vehicle_type_id":"4","last_reported":1761080954,"current_range_meters":10000,"station_id":"","pricing_plan_id":"cebpf4jnsgd1na2vs0mg"},{"bike_id":"3089079e-3bcd-4a4a-bfa4-ca56078c2290","system_id":"levelo_inurba_marseille","lat":43.29521,"lon":5.39405,"is_reserved":false,"is_disabled":false,"rental_uris":{"android":"levelo://app?vid=3089079e-3bcd-4a4a-bfa4-ca56078c2290","ios":"levelo://app?vid=3089079e-3bcd-4a4a-bfa4-ca56078c2290"},"vehicle_type_id":"4","last_reported":1761080954,"current_range_meters":10000,"station_id":"ce4bh292rcd13ifvqdf0","pricing_plan_id":"cebpf4jnsgd1na2vs0mg"},{"bike_id":"da3c5d5d-639d-4a11-88e1-f7b9c2ad220a","system_id":"levelo_inurba_marseille","lat":43.31714,"lon":5.37748,"is_reserved":false,"is_disabled":true,"rental_uris":{"android":"levelo://app?vid=da3c5d5d-639d-4a11-88e1-f7b9c2ad220a","ios":"levelo://app?vid=da3c5d5d-639d-4a11-88e1-f7b9c2ad220a"},"vehicle_type_id":"4","last_reported":1761080954,"current_range_meters":10000,"station_id":"ce4bgth2rcd13ifvqch0","pricing_plan_id":"cebpf4jnsgd1na2vs0mg"},{"bike_id":"54a7471e-8675-4b3b-a7a5-316aa76bbcbc","system_id":"levelo_inurba_marseille","lat":43.27911,"lon":5.40424,"is_reserved":false,"is_disabled":false,"rental_uris":{"android":"levelo://app?vid=54a7471e-8675-4b3b-a7a5-316aa76bbcbc","ios":"levelo://app?vid=54a7471e-8675-4b3b-a7a5-316aa76bbcbc"},"vehicle_type_id":"4","last_reported":1761080954,"current_range_meters":10000,"station_id":"","pricing_plan_id":"cebpf4jnsgd1na2vs0mg"},{"bike_id":"19840955-f9d6-49c1-86e8-b7616b7da32c","system_id":"levelo_inurba_marseille","lat":43.33134,"lon":5.39115,"is_reserved":false,"is_disabled":true,"rental_uris":{"android":"levelo://app?vid=19840955-f9d6-49c1-86e8-b7616b7da32c","ios":"levelo://app?vid=19840955-f9d6-49c1-86e8-b7616b7da32c"},"vehicle_type_id":"4","last_reported":1761080954,"current_range_meters":10000,"station_id":"","pricing_plan_id":"cebpf4jnsgd1na2vs0mg"},{"bike_id":"c4d17d81-19cf-4697-a9b1-d780d189ed78","system_id":"levelo_inurba_marseille","lat":43.25124,"lon":5.40319,"is_reserved":false,"is_disabled":true,"rental_uris":{"android":"levelo://app?vid=c4d17d81-19cf-4697-a9b1-d780d189ed78","ios":"levelo://app?vid=c4d17d81-19cf-4697-a9b1-d780d189ed78"},"vehicle_type_id":"4","last_reported":1761080954,"current_range_meters":10800,"station_id":"ce4bhlh2rcd13ifvqgig","pricing_plan_id":"cebpf4jnsgd1na2vs0mg"},{"bike_id":"380aa70e-b568-4044-9571-2f99d393b4a7","system_id":"levelo_inurba_marseille","lat":43.29447,"lon":5.39762,"is_reserved":false,"is_disabled":false,"rental_uris":{"android":"levelo://app?vid=380aa70e-b568-4044-9571-2f99d393b4a7","ios":"levelo://app?vid=380aa70e-b568-4044-9571-2f99d393b4a7"},"vehicle_type_id":"4","last_reported":1761080954,"current_range_meters":10800,"station_id":"ce4bh3h2rcd13ifvqdo0","pricing_plan_id":"cebpf4jnsgd1na2vs0mg"},{"bike_id":"e77631a5-cc04-47ec-80b0-a9edf60dd602","system_id":"levelo_inurba_marseille","lat":43.283462,"lon":5.381002,"is_reserved":false,"is_disabled":false,"rental_uris":{"android":"levelo://app?vid=e77631a5-cc04-47ec-80b0-a9edf60dd602","ios":"levelo://app?vid=e77631a5-cc04-47ec-80b0-a9edf60dd602"},"vehicle_type_id":"4","last_reported":1761080954,"current_range_meters":10800,"station_id":"ce4bh412rcd13ifvqdr0","pricing_plan_id":"cebpf4jnsgd1na2vs0mg"},{"bike_id":"62d24c96-42b0-41ae-ac9e-db7d8d58cee0","system_id":"levelo_inurba_marseille","lat":43.2456,"lon":5.39521,"is_reserved":false,"is_disabled":false,"rental_uris":{"android":"levelo://app?vid=62d24c96-42b0-41ae-ac9e-db7d8d58cee0","ios":"levelo://app?vid=62d24c96-42b0-41ae-ac9e-db7d8d58cee0"},"vehicle_type_id":"4","last_reported":1761080954,"current_range_meters":10800,"station_id":"ce4bhlp2rcd13ifvqgjg","pricing_plan_id":"cebpf4jnsgd1na2vs0mg"},{"bike_id":"83933163-fad8-44b5-9f90-b50cf024ca56","system_id":"levelo_inurba_marseille","lat":43.290149,"lon":5.386338,"is_reserved":false,"is_disabled":false,"rental_uris":{"android":"levelo://app?vid=83933163-fad8-44b5-9f90-b50cf024ca56","ios":"levelo://app?vid=83933163-fad8-44b5-9f90-b50cf024ca56"},"vehicle_type_id":"4","last_reported":1761080954,"current_range_meters":11200,"station_id":"ce4bh4p2rcd13ifvqe0g","pricing_plan_id":"cebpf4jnsgd1na2vs0mg"},{"bike_id":"b1e01f76-34b6-4521-a483-ac2e8db39d64","system_id":"levelo_inurba_marseille","lat":43.29527,"lon":5.38538,"is_reserved":false,"is_disabled":false,"rental_uris":{"android":"levelo://app?vid=b1e01f76-34b6-4521-a483-ac2e8db39d64","ios":"levelo://app?vid=b1e01f76-34b6-4521-a483-ac2e8db39d64"},"vehicle_type_id":"4","last_reported":1761080954,"current_range_meters":11200,"station_id":"ce4bgih2rcd13ifvqba0","pricing_plan_id":"cebpf4jnsgd1na2vs0mg"},{"bike_id":"2f09c01d-689c-4521-97af-b4ef07cad168","system_id":"levelo_inurba_marseille","lat":43.22562,"lon":5.41612,"is_reserved":false,"is_disabled":false,"rental_uris":{"android":"levelo://app?vid=2f09c01d-689c-4521-97af-b4ef07cad168","ios":"levelo://app?vid=2f09c01d-689c-4521-97af-b4ef07cad168"},"vehicle_type_id":"4","last_reported":1761080954,"current_range_meters":11200,"station_id":"st_d2o4gvlbi1j2169b742g","pricing_plan_id":"cebpf4jnsgd1na2vs0mg"},{"bike_id":"5df8d2bd-c3c3-45d4-b3bb-7cb639ab5c47","system_id":"levelo_inurba_marseille","lat":43.31754,"lon":5.38971,"is_reserved":false,"is_disabled":false,"rental_uris":{"android":"levelo://app?vid=5df8d2bd-c3c3-45d4-b3bb-7cb639ab5c47","ios":"levelo://app?vid=5df8d2bd-c3c3-45d4-b3bb-7cb639ab5c47"},"vehicle_type_id":"4","last_reported":1761080954,"current_range_meters":11200,"station_id":"ce4bhqp2rcd13ifvqhng","pricing_plan_id":"cebpf4jnsgd1na2vs0mg"},{"bike_id":"33ac3a37-e314-46ed-a3cb-93545f53343d","system_id":"levelo_inurba_marseille","lat":43.25016,"lon":5.38899,"is_reserved":false,"is_disabled":true,"rental_uris":{"android":"levelo://app?vid=33ac3a37-e314-46ed-a3cb-93545f53343d","ios":"levelo://app?vid=33ac3a37-e314-46ed-a3cb-93545f53343d"},"vehicle_type_id":"4","last_reported":1761080954,"current_range_meters":11600,"station_id":"ce4bhgp2rcd13ifvqfd0","pricing_plan_id":"cebpf4jnsgd1na2vs0mg"},{"bike_id":"f9901775-1852-4e93-a6c8-f343e646d38b","system_id":"levelo_inurba_marseille","lat":43.28661,"lon":5.36356,"is_reserved":false,"is_disabled":false,"rental_uris":{"android":"levelo://app?vid=f9901775-1852-4e93-a6c8-f343e646d38b","ios":"levelo://app?vid=f9901775-1852-4e93-a6c8-f343e646d38b"},"vehicle_type_id":"4","last_reported":1761080954,"current_range_meters":11600,"station_id":"ce4bhah2rcd13ifvqej0","pricing_plan_id":"cebpf4jnsgd1na2vs0mg"},{"bike_id":"b8457e49-45d1-4539-8d31-1eb0283df508","system_id":"levelo_inurba_marseille","lat":43.33152,"lon":5.3548,"is_reserved":false,"is_disabled":false,"rental_uris":{"android":"levelo://app?vid=b8457e49-45d1-4539-8d31-1eb0283df508","ios":"levelo://app?vid=b8457e49-45d1-4539-8d31-1eb0283df508"},"vehicle_type_id":"4","last_reported":1761080954,"current_range_meters":11600,"station_id":"","pricing_plan_id":"cebpf4jnsgd1na2vs0mg"},{"bike_id":"d0eb8e4b-399e-4828-a95e-3585dd183d76","system_id":"levelo_inurba_marseille","lat":43.23149,"lon":5.43721,"is_reserved":false,"is_disabled":false,"rental_uris":{"android":"levelo://app?vid=d0eb8e4b-399e-4828-a95e-3585dd183d76","ios":"levelo://app?vid=d0eb8e4b-399e-4828-a95e-3585dd183d76"},"vehicle_type_id":"4","last_reported":1761080954,"current_range_meters":11600,"station_id":"ce4bhmp2rcd13ifvqgog","pricing_plan_id":"cebpf4jnsgd1na2vs0mg"},{"bike_id":"be664b08-16e8-4c2d-aff3-3d7347790ff1","system_id":"levelo_inurba_marseille","lat":43.31992,"lon":5.38165,"is_reserved":false,"is_disabled":false,"rental_uris":{"android":"levelo://app?vid=be664b08-16e8-4c2d-aff3-3d7347790ff1","ios":"levelo://app?vid=be664b08-16e8-4c2d-aff3-3d7347790ff1"},"vehicle_type_id":"4","last_reported":1761080954,"current_range_meters":11600,"station_id":"ce4bhr12rcd13ifvqhpg","pricing_plan_id":"cebpf4jnsgd1na2vs0mg"},{"bike_id":"872ccb9d-f99c-4bf7-ba84-b57eaac6389e","system_id":"levelo_inurba_marseille","lat":43.28704,"lon":5.37403,"is_reserved":false,"is_disabled":false,"rental_uris":{"android":"levelo://app?vid=872ccb9d-f99c-4bf7-ba84-b57eaac6389e","ios":"levelo://app?vid=872ccb9d-f99c-4bf7-ba84-b57eaac6389e"},"vehicle_type_id":"4","last_reported":1761080954,"current_range_meters":11600,"station_id":"ce4bh3p2rcd13ifvqdq0","pricing_plan_id":"cebpf4jnsgd1na2vs0mg"},{"bike_id":"4a374ea4-f38e-4b47-a5b9-fb89fd6e24b3","system_id":"levelo_inurba_marseille","lat":43.29228,"lon":5.36065,"is_reserved":false,"is_disabled":false,"rental_uris":{"android":"levelo://app?vid=4a374ea4-f38e-4b47-a5b9-fb89fd6e24b3","ios":"levelo://app?vid=4a374ea4-f38e-4b47-a5b9-fb89fd6e24b3"},"vehicle_type_id":"4","last_reported":1761080954,"current_range_meters":12000,"station_id":"ce4bhbh2rcd13ifvqeqg","pricing_plan_id":"cebpf4jnsgd1na2vs0mg"},{"bike_id":"1f04cf15-33bf-4f34-a140-1634c0f669d3","system_id":"levelo_inurba_marseille","lat":43.24666,"lon":5.38162,"is_reserved":false,"is_disabled":false,"rental_uris":{"android":"levelo://app?vid=1f04cf15-33bf-4f34-a140-1634c0f669d3","ios":"levelo://app?vid=1f04cf15-33bf-4f34-a140-1634c0f669d3"},"vehicle_type_id":"4","last_reported":1761080954,"current_range_meters":12000,"station_id":"ce4bhih2rcd13ifvqfr0","pricing_plan_id":"cebpf4jnsgd1na2vs0mg"},{"bike_id":"b9b3aa64-d38a-4db7-8ebd-f1c2f50a2b1e","system_id":"levelo_inurba_marseille","lat":43.31172,"lon":5.38714,"is_reserved":false,"is_disabled":false,"rental_uris":{"android":"levelo://app?vid=b9b3aa64-d38a-4db7-8ebd-f1c2f50a2b1e","ios":"levelo://app?vid=b9b3aa64-d38a-4db7-8ebd-f1c2f50a2b1e"},"vehicle_type_id":"4","last_reported":1761080954,"current_range_meters":12000,"station_id":"ce4bgv12rcd13ifvqcp0","pricing_plan_id":"cebpf4jnsgd1na2vs0mg"},{"bike_id":"4c0a5d73-60b7-4822-a290-6e489f4a946f","system_id":"levelo_inurba_marseille","lat":43.284753,"lon":5.385439,"is_reserved":false,"is_disabled":true,"rental_uris":{"android":"levelo://app?vid=4c0a5d73-60b7-4822-a290-6e489f4a946f","ios":"levelo://app?vid=4c0a5d73-60b7-4822-a290-6e489f4a946f"},"vehicle_type_id":"4","last_reported":1761080954,"current_range_meters":12000,"station_id":"ce4bh8p2rcd13ifvqeb0","pricing_plan_id":"cebpf4jnsgd1na2vs0mg"},{"bike_id":"9c66d846-8b54-49d0-8106-53a3ee1dfc56","system_id":"levelo_inurba_marseille","lat":43.29053,"lon":5.35909,"is_reserved":false,"is_disabled":false,"rental_uris":{"android":"levelo://app?vid=9c66d846-8b54-49d0-8106-53a3ee1dfc56","ios":"levelo://app?vid=9c66d846-8b54-49d0-8106-53a3ee1dfc56"},"vehicle_type_id":"4","last_reported":1761080954,"current_range_meters":12000,"station_id":"ce4bha92rcd13ifvqeg0","pricing_plan_id":"cebpf4jnsgd1na2vs0mg"},{"bike_id":"78327b65-47bd-4c2e-9cc4-09a68e3a500b","system_id":"levelo_inurba_marseille","lat":43.28983,"lon":5.36643,"is_reserved":false,"is_disabled":false,"rental_uris":{"android":"levelo://app?vid=78327b65-47bd-4c2e-9cc4-09a68e3a500b","ios":"levelo://app?vid=78327b65-47bd-4c2e-9cc4-09a68e3a500b"},"vehicle_type_id":"4","last_reported":1761080954,"current_range_meters":12000,"station_id":"","pricing_plan_id":"cebpf4jnsgd1na2vs0mg"},{"bike_id":"18896e9d-9835-4d47-b9cd-0f2330fa8368","system_id":"levelo_inurba_marseille","lat":43.24661,"lon":5.38166,"is_reserved":false,"is_disabled":false,"rental_uris":{"android":"levelo://app?vid=18896e9d-9835-4d47-b9cd-0f2330fa8368","ios":"levelo://app?vid=18896e9d-9835-4d47-b9cd-0f2330fa8368"},"vehicle_type_id":"4","last_reported":1761080954,"current_range_meters":12400,"station_id":"ce4bhih2rcd13ifvqfr0","pricing_plan_id":"cebpf4jnsgd1na2vs0mg"},{"bike_id":"b047a8d6-1e45-45ee-b80b-62194dcb8a5c","system_id":"levelo_inurba_marseille","lat":43.2866,"lon":5.36352,"is_reserved":false,"is_disabled":false,"rental_uris":{"android":"levelo://app?vid=b047a8d6-1e45-45ee-b80b-62194dcb8a5c","ios":"levelo://app?vid=b047a8d6-1e45-45ee-b80b-62194dcb8a5c"},"vehicle_type_id":"4","last_reported":1761080954,"current_range_meters":12400,"station_id":"ce4bhah2rcd13ifvqej0","pricing_plan_id":"cebpf4jnsgd1na2vs0mg"},{"bike_id":"0b30e03d-67bd-4ebb-8f7f-3e90efdd8518","system_id":"levelo_inurba_marseille","lat":43.32358,"lon":5.38889,"is_reserved":false,"is_disabled":false,"rental_uris":{"android":"levelo://app?vid=0b30e03d-67bd-4ebb-8f7f-3e90efdd8518","ios":"levelo://app?vid=0b30e03d-67bd-4ebb-8f7f-3e90efdd8518"},"vehicle_type_id":"4","last_reported":1761080954,"current_range_meters":12400,"station_id":"ce4bhqp2rcd13ifvqhog","pricing_plan_id":"cebpf4jnsgd1na2vs0mg"},{"bike_id":"1c3f929b-9404-4238-be16-5939b872255f","system_id":"levelo_inurba_marseille","lat":43.318178,"lon":5.423959,"is_reserved":false,"is_disabled":false,"rental_uris":{"android":"levelo://app?vid=1c3f929b-9404-4238-be16-5939b872255f","ios":"levelo://app?vid=1c3f929b-9404-4238-be16-5939b872255f"},"vehicle_type_id":"4","last_reported":1761080954,"current_range_meters":12800,"station_id":"ce4bhp92rcd13ifvqhbg","pricing_plan_id":"cebpf4jnsgd1na2vs0mg"},{"bike_id":"22c660ad-ddf4-4958-a393-4acd861a2ace","system_id":"levelo_inurba_marseille","lat":43.280955,"lon":5.377941,"is_reserved":false,"is_disabled":false,"rental_uris":{"android":"levelo://app?vid=22c660ad-ddf4-4958-a393-4acd861a2ace","ios":"levelo://app?vid=22c660ad-ddf4-4958-a393-4acd861a2ace"},"vehicle_type_id":"4","last_reported":1761080954,"current_range_meters":12800,"station_id":"ce4bha12rcd13ifvqee0","pricing_plan_id":"cebpf4jnsgd1na2vs0mg"},{"bike_id":"aa295059-e006-4eb1-a261-47f6b61e2c33","system_id":"levelo_inurba_marseille","lat":43.25932,"lon":5.409163,"is_reserved":false,"is_disabled":false,"rental_uris":{"android":"levelo://app?vid=aa295059-e006-4eb1-a261-47f6b61e2c33","ios":"levelo://app?vid=aa295059-e006-4eb1-a261-47f6b61e2c33"},"vehicle_type_id":"4","last_reported":1761080954,"current_range_meters":12800,"station_id":"ce4bhm92rcd13ifvqglg","pricing_plan_id":"cebpf4jnsgd1na2vs0mg"},{"bike_id":"cfcab709-f9dc-4dd9-a614-1ea7fc544c6d","system_id":"levelo_inurba_marseille","lat":43.2762,"lon":5.36105,"is_reserved":false,"is_disabled":false,"rental_uris":{"android":"levelo://app?vid=cfcab709-f9dc-4dd9-a614-1ea7fc544c6d","ios":"levelo://app?vid=cfcab709-f9dc-4dd9-a614-1ea7fc544c6d"},"vehicle_type_id":"4","last_reported":1761080954,"current_range_meters":12800,"station_id":"ce4bgj92rcd13ifvqbe0","pricing_plan_id":"cebpf4jnsgd1na2vs0mg"},{"bike_id":"785c2316-a56c-4d34-a783-cb92c5d66a88","system_id":"levelo_inurba_marseille","lat":43.275925,"lon":5.384035,"is_reserved":false,"is_disabled":false,"rental_uris":{"android":"levelo://app?vid=785c2316-a56c-4d34-a783-cb92c5d66a88","ios":"levelo://app?vid=785c2316-a56c-4d34-a783-cb92c5d66a88"},"vehicle_type_id":"4","last_reported":1761080954,"current_range_meters":12800,"station_id":"ce4bhh92rcd13ifvqfi0","pricing_plan_id":"cebpf4jnsgd1na2vs0mg"},{"bike_id":"f5e3fa22-f735-433e-9043-e88d06a2b7f2","system_id":"levelo_inurba_marseille","lat":43.292835,"lon":5.410386,"is_reserved":false,"is_disabled":false,"rental_uris":{"android":"levelo://app?vid=f5e3fa22-f735-433e-9043-e88d06a2b7f2","ios":"levelo://app?vid=f5e3fa22-f735-433e-9043-e88d06a2b7f2"},"vehicle_type_id":"4","last_reported":1761080954,"current_range_meters":12800,"station_id":"ce4bh192rcd13ifvqdc0","pricing_plan_id":"cebpf4jnsgd1na2vs0mg"},{"bike_id":"fa116aed-3add-4757-92c6-e9191b64248c","system_id":"levelo_inurba_marseille","lat":43.2962,"lon":5.37156,"is_reserved":false,"is_disabled":false,"rental_uris":{"android":"levelo://app?vid=fa116aed-3add-4757-92c6-e9191b64248c","ios":"levelo://app?vid=fa116aed-3add-4757-92c6-e9191b64248c"},"vehicle_type_id":"4","last_reported":1761080954,"current_range_meters":13600,"station_id":"ce4bgnh2rcd13ifvqc0g","pricing_plan_id":"cebpf4jnsgd1na2vs0mg"},{"bike_id":"c36da182-8f4a-40c4-8fc0-fd9045defeff","system_id":"levelo_inurba_marseille","lat":43.23196,"lon":5.39983,"is_reserved":false,"is_disabled":false,"rental_uris":{"android":"levelo://app?vid=c36da182-8f4a-40c4-8fc0-fd9045defeff","ios":"levelo://app?vid=c36da182-8f4a-40c4-8fc0-fd9045defeff"},"vehicle_type_id":"4","last_reported":1761080954,"current_range_meters":13600,"station_id":"ce4bhn12rcd13ifvqgqg","pricing_plan_id":"cebpf4jnsgd1na2vs0mg"},{"bike_id":"d38bb17a-4ac6-4da6-829b-fc2ffe260364","system_id":"levelo_inurba_marseille","lat":43.31891,"lon":5.40743,"is_reserved":false,"is_disabled":true,"rental_uris":{"android":"levelo://app?vid=d38bb17a-4ac6-4da6-829b-fc2ffe260364","ios":"levelo://app?vid=d38bb17a-4ac6-4da6-829b-fc2ffe260364"},"vehicle_type_id":"4","last_reported":1761080954,"current_range_meters":13600,"station_id":"ce4bhq12rcd13ifvqhig","pricing_plan_id":"cebpf4jnsgd1na2vs0mg"},{"bike_id":"ee83e065-d9fc-44f0-9d9f-6da9daf8092d","system_id":"levelo_inurba_marseille","lat":43.29543,"lon":5.38537,"is_reserved":false,"is_disabled":false,"rental_uris":{"android":"levelo://app?vid=ee83e065-d9fc-44f0-9d9f-6da9daf8092d","ios":"levelo://app?vid=ee83e065-d9fc-44f0-9d9f-6da9daf8092d"},"vehicle_type_id":"4","last_reported":1761080954,"current_range_meters":13600,"station_id":"ce4bgih2rcd13ifvqba0","pricing_plan_id":"cebpf4jnsgd1na2vs0mg"},{"bike_id":"77f5b891-81b4-4d86-8920-e7f705c3abfc","system_id":"levelo_inurba_marseille","lat":43.24667,"lon":5.38144,"is_reserved":false,"is_disabled":false,"rental_uris":{"android":"levelo://app?vid=77f5b891-81b4-4d86-8920-e7f705c3abfc","ios":"levelo://app?vid=77f5b891-81b4-4d86-8920-e7f705c3abfc"},"vehicle_type_id":"4","last_reported":1761080954,"current_range_meters":13600,"station_id":"ce4bhih2rcd13ifvqfr0","pricing_plan_id":"cebpf4jnsgd1na2vs0mg"},{"bike_id":"050e0292-4fab-40c8-925e-41fe8741d54c","system_id":"levelo_inurba_marseille","lat":43.28925,"lon":5.38383,"is_reserved":false,"is_disabled":false,"rental_uris":{"android":"levelo://app?vid=050e0292-4fab-40c8-925e-41fe8741d54c","ios":"levelo://app?vid=050e0292-4fab-40c8-925e-41fe8741d54c"},"vehicle_type_id":"4","last_reported":1761080954,"current_range_meters":14000,"station_id":"ce4bh612rcd13ifvqe6g","pricing_plan_id":"cebpf4jnsgd1na2vs0mg"},{"bike_id":"3201e625-69d5-420e-838c-f4c3f44666ef","system_id":"levelo_inurba_marseille","lat":43.33796,"lon":5.37435,"is_reserved":false,"is_disabled":false,"rental_uris":{"android":"levelo://app?vid=3201e625-69d5-420e-838c-f4c3f44666ef","ios":"levelo://app?vid=3201e625-69d5-420e-838c-f4c3f44666ef"},"vehicle_type_id":"4","last_reported":1761080954,"current_range_meters":14000,"station_id":"","pricing_plan_id":"cebpf4jnsgd1na2vs0mg"},{"bike_id":"62c15caa-5f10-4cd4-8ef6-8d3eb2f2da83","system_id":"levelo_inurba_marseille","lat":43.29562,"lon":5.37504,"is_reserved":false,"is_disabled":false,"rental_uris":{"android":"levelo://app?vid=62c15caa-5f10-4cd4-8ef6-8d3eb2f2da83","ios":"levelo://app?vid=62c15caa-5f10-4cd4-8ef6-8d3eb2f2da83"},"vehicle_type_id":"4","last_reported":1761080954,"current_range_meters":14000,"station_id":"ce4bgh92rcd13ifvqb50","pricing_plan_id":"cebpf4jnsgd1na2vs0mg"},{"bike_id":"bfb49ac8-7cd7-4abf-87fe-e5eac64a56b2","system_id":"levelo_inurba_marseille","lat":43.23962,"lon":5.3663,"is_reserved":false,"is_disabled":false,"rental_uris":{"android":"levelo://app?vid=bfb49ac8-7cd7-4abf-87fe-e5eac64a56b2","ios":"levelo://app?vid=bfb49ac8-7cd7-4abf-87fe-e5eac64a56b2"},"vehicle_type_id":"4","last_reported":1761080954,"current_range_meters":14000,"station_id":"ce4bhi12rcd13ifvqfp0","pricing_plan_id":"cebpf4jnsgd1na2vs0mg"},{"bike_id":"323bf2de-3bb4-4b4c-b330-b19ea807dbf5","system_id":"levelo_inurba_marseille","lat":43.31069,"lon":5.38341,"is_reserved":false,"is_disabled":true,"rental_uris":{"android":"levelo://app?vid=323bf2de-3bb4-4b4c-b330-b19ea807dbf5","ios":"levelo://app?vid=323bf2de-3bb4-4b4c-b330-b19ea807dbf5"},"vehicle_type_id":"4","last_reported":1761080954,"current_range_meters":14000,"station_id":"ce4bgv92rcd13ifvqcr0","pricing_plan_id":"cebpf4jnsgd1na2vs0mg"},{"bike_id":"02f7835e-8895-43db-bc46-dc0659a292d5","system_id":"levelo_inurba_marseille","lat":43.29331,"lon":5.3707,"is_reserved":false,"is_disabled":false,"rental_uris":{"android":"levelo://app?vid=02f7835e-8895-43db-bc46-dc0659a292d5","ios":"levelo://app?vid=02f7835e-8895-43db-bc46-dc0659a292d5"},"vehicle_type_id":"4","last_reported":1761080954,"current_range_meters":14000,"station_id":"","pricing_plan_id":"cebpf4jnsgd1na2vs0mg"},{"bike_id":"f34e9f92-99c3-46c7-a02c-1b0491512b0d","system_id":"levelo_inurba_marseille","lat":43.299316,"lon":5.365522,"is_reserved":false,"is_disabled":false,"rental_uris":{"android":"levelo://app?vid=f34e9f92-99c3-46c7-a02c-1b0491512b0d","ios":"levelo://app?vid=f34e9f92-99c3-46c7-a02c-1b0491512b0d"},"vehicle_type_id":"4","last_reported":1761080954,"current_range_meters":14000,"station_id":"ce4bgm92rcd13ifvqbr0","pricing_plan_id":"cebpf4jnsgd1na2vs0mg"},{"bike_id":"d83ba3b5-f05f-4b3f-995a-05ad1a505367","system_id":"levelo_inurba_marseille","lat":43.3172,"lon":5.42399,"is_reserved":false,"is_disabled":false,"rental_uris":{"android":"levelo://app?vid=d83ba3b5-f05f-4b3f-995a-05ad1a505367","ios":"levelo://app?vid=d83ba3b5-f05f-4b3f-995a-05ad1a505367"},"vehicle_type_id":"4","last_reported":1761080954,"current_range_meters":14400,"station_id":"ce4bhp92rcd13ifvqhbg","pricing_plan_id":"cebpf4jnsgd1na2vs0mg"},{"bike_id":"e158b5e3-0b91-4f03-9493-a8035b21b767","system_id":"levelo_inurba_marseille","lat":43.317565,"lon":5.390135,"is_reserved":false,"is_disabled":false,"rental_uris":{"android":"levelo://app?vid=e158b5e3-0b91-4f03-9493-a8035b21b767","ios":"levelo://app?vid=e158b5e3-0b91-4f03-9493-a8035b21b767"},"vehicle_type_id":"4","last_reported":1761080954,"current_range_meters":14400,"station_id":"ce4bhqp2rcd13ifvqhng","pricing_plan_id":"cebpf4jnsgd1na2vs0mg"},{"bike_id":"2c20ce77-04c5-4eed-a053-801c8e8d1b46","system_id":"levelo_inurba_marseille","lat":43.24077,"lon":5.37748,"is_reserved":false,"is_disabled":false,"rental_uris":{"android":"levelo://app?vid=2c20ce77-04c5-4eed-a053-801c8e8d1b46","ios":"levelo://app?vid=2c20ce77-04c5-4eed-a053-801c8e8d1b46"},"vehicle_type_id":"4","last_reported":1761080954,"current_range_meters":14400,"station_id":"ce4bhnp2rcd13ifvqgvg","pricing_plan_id":"cebpf4jnsgd1na2vs0mg"},{"bike_id":"4859d202-5dad-49c9-9955-c92097024800","system_id":"levelo_inurba_marseille","lat":43.29534,"lon":5.38537,"is_reserved":false,"is_disabled":false,"rental_uris":{"android":"levelo://app?vid=4859d202-5dad-49c9-9955-c92097024800","ios":"levelo://app?vid=4859d202-5dad-49c9-9955-c92097024800"},"vehicle_type_id":"4","last_reported":1761080954,"current_range_meters":14400,"station_id":"ce4bgih2rcd13ifvqba0","pricing_plan_id":"cebpf4jnsgd1na2vs0mg"},{"bike_id":"89dd87c4-c8d0-4de7-8902-2b0447e67475","system_id":"levelo_inurba_marseille","lat":43.31232,"lon":5.36877,"is_reserved":false,"is_disabled":false,"rental_uris":{"android":"levelo://app?vid=89dd87c4-c8d0-4de7-8902-2b0447e67475","ios":"levelo://app?vid=89dd87c4-c8d0-4de7-8902-2b0447e67475"},"vehicle_type_id":"4","last_reported":1761080954,"current_range_meters":14800,"station_id":"","pricing_plan_id":"cebpf4jnsgd1na2vs0mg"},{"bike_id":"087fdbd0-bb13-4e28-9af0-ae64407e5515","system_id":"levelo_inurba_marseille","lat":43.3122,"lon":5.3687,"is_reserved":false,"is_disabled":false,"rental_uris":{"android":"levelo://app?vid=087fdbd0-bb13-4e28-9af0-ae64407e5515","ios":"levelo://app?vid=087fdbd0-bb13-4e28-9af0-ae64407e5515"},"vehicle_type_id":"4","last_reported":1761080954,"current_range_meters":15200,"station_id":"ce4bgl92rcd13ifvqbq0","pricing_plan_id":"cebpf4jnsgd1na2vs0mg"},{"bike_id":"c128dfca-f404-4093-91b1-6aae90369a21","system_id":"levelo_inurba_marseille","lat":43.30633,"lon":5.40094,"is_reserved":false,"is_disabled":false,"rental_uris":{"android":"levelo://app?vid=c128dfca-f404-4093-91b1-6aae90369a21","ios":"levelo://app?vid=c128dfca-f404-4093-91b1-6aae90369a21"},"vehicle_type_id":"4","last_reported":1761080954,"current_range_meters":15200,"station_id":"ce4bh112rcd13ifvqda0","pricing_plan_id":"cebpf4jnsgd1na2vs0mg"},{"bike_id":"146c2516-bef0-44a7-b04d-fb80b55a97f2","system_id":"levelo_inurba_marseille","lat":43.3013,"lon":5.43118,"is_reserved":false,"is_disabled":false,"rental_uris":{"android":"levelo://app?vid=146c2516-bef0-44a7-b04d-fb80b55a97f2","ios":"levelo://app?vid=146c2516-bef0-44a7-b04d-fb80b55a97f2"},"vehicle_type_id":"4","last_reported":1761080954,"current_range_meters":15200,"station_id":"st_d3js3co5814s73ftftug","pricing_plan_id":"cebpf4jnsgd1na2vs0mg"},{"bike_id":"64d9e813-4fd3-4955-9199-a35ddf1a26f6","system_id":"levelo_inurba_marseille","lat":43.2417,"lon":5.36392,"is_reserved":false,"is_disabled":false,"rental_uris":{"android":"levelo://app?vid=64d9e813-4fd3-4955-9199-a35ddf1a26f6","ios":"levelo://app?vid=64d9e813-4fd3-4955-9199-a35ddf1a26f6"},"vehicle_type_id":"4","last_reported":1761080954,"current_range_meters":15200,"station_id":"cpo36qri1sfpv3e86is0","pricing_plan_id":"cebpf4jnsgd1na2vs0mg"},{"bike_id":"a630ed88-3f05-4926-bbab-8387ab6b6a28","system_id":"levelo_inurba_marseille","lat":43.2315,"lon":5.437,"is_reserved":false,"is_disabled":true,"rental_uris":{"android":"levelo://app?vid=a630ed88-3f05-4926-bbab-8387ab6b6a28","ios":"levelo://app?vid=a630ed88-3f05-4926-bbab-8387ab6b6a28"},"vehicle_type_id":"4","last_reported":1761080954,"current_range_meters":15200,"station_id":"ce4bhmp2rcd13ifvqgog","pricing_plan_id":"cebpf4jnsgd1na2vs0mg"},{"bike_id":"4e7e8f57-06ea-4923-b3c1-ea91802d5920","system_id":"levelo_inurba_marseille","lat":43.28007,"lon":5.41613,"is_reserved":false,"is_disabled":false,"rental_uris":{"android":"levelo://app?vid=4e7e8f57-06ea-4923-b3c1-ea91802d5920","ios":"levelo://app?vid=4e7e8f57-06ea-4923-b3c1-ea91802d5920"},"vehicle_type_id":"4","last_reported":1761080954,"current_range_meters":15200,"station_id":"ce4bho12rcd13ifvqh1g","pricing_plan_id":"cebpf4jnsgd1na2vs0mg"},{"bike_id":"ebe488b1-06cb-4b11-a16d-766dd25be857","system_id":"levelo_inurba_marseille","lat":43.28428,"lon":5.39193,"is_reserved":false,"is_disabled":false,"rental_uris":{"android":"levelo://app?vid=ebe488b1-06cb-4b11-a16d-766dd25be857","ios":"levelo://app?vid=ebe488b1-06cb-4b11-a16d-766dd25be857"},"vehicle_type_id":"4","last_reported":1761080954,"current_range_meters":15200,"station_id":"ce4bhoh2rcd13ifvqh5g","pricing_plan_id":"cebpf4jnsgd1na2vs0mg"},{"bike_id":"b88d1a85-d511-495d-8ac8-fcf30d5084de","system_id":"levelo_inurba_marseille","lat":43.29781,"lon":5.3934,"is_reserved":false,"is_disabled":false,"rental_uris":{"android":"levelo://app?vid=b88d1a85-d511-495d-8ac8-fcf30d5084de","ios":"levelo://app?vid=b88d1a85-d511-495d-8ac8-fcf30d5084de"},"vehicle_type_id":"4","last_reported":1761080954,"current_range_meters":15200,"station_id":"chh1huq6cuj3fo74tm60","pricing_plan_id":"cebpf4jnsgd1na2vs0mg"},{"bike_id":"1ea7422d-eeef-462c-bed2-bd1623780668","system_id":"levelo_inurba_marseille","lat":43.24659,"lon":5.38166,"is_reserved":false,"is_disabled":false,"rental_uris":{"android":"levelo://app?vid=1ea7422d-eeef-462c-bed2-bd1623780668","ios":"levelo://app?vid=1ea7422d-eeef-462c-bed2-bd1623780668"},"vehicle_type_id":"4","last_reported":1761080954,"current_range_meters":16000,"station_id":"ce4bhih2rcd13ifvqfr0","pricing_plan_id":"cebpf4jnsgd1na2vs0mg"},{"bike_id":"bcac21ff-5f96-434a-bbd3-f15b93d38d84","system_id":"levelo_inurba_marseille","lat":43.280642,"lon":5.352788,"is_reserved":false,"is_disabled":false,"rental_uris":{"android":"levelo://app?vid=bcac21ff-5f96-434a-bbd3-f15b93d38d84","ios":"levelo://app?vid=bcac21ff-5f96-434a-bbd3-f15b93d38d84"},"vehicle_type_id":"4","last_reported":1761080954,"current_range_meters":16000,"station_id":"","pricing_plan_id":"cebpf4jnsgd1na2vs0mg"},{"bike_id":"4970dc4d-8cf1-4f95-a468-969a12174cf8","system_id":"levelo_inurba_marseille","lat":43.28034,"lon":5.36946,"is_reserved":false,"is_disabled":false,"rental_uris":{"android":"levelo://app?vid=4970dc4d-8cf1-4f95-a468-969a12174cf8","ios":"levelo://app?vid=4970dc4d-8cf1-4f95-a468-969a12174cf8"},"vehicle_type_id":"4","last_reported":1761080954,"current_range_meters":16000,"station_id":"ce4bha12rcd13ifvqef0","pricing_plan_id":"cebpf4jnsgd1na2vs0mg"},{"bike_id":"4d49c897-b0fd-4635-a1c9-89d76ebe8453","system_id":"levelo_inurba_marseille","lat":43.29541,"lon":5.38532,"is_reserved":false,"is_disabled":false,"rental_uris":{"android":"levelo://app?vid=4d49c897-b0fd-4635-a1c9-89d76ebe8453","ios":"levelo://app?vid=4d49c897-b0fd-4635-a1c9-89d76ebe8453"},"vehicle_type_id":"4","last_reported":1761080954,"current_range_meters":16000,"station_id":"ce4bgih2rcd13ifvqba0","pricing_plan_id":"cebpf4jnsgd1na2vs0mg"},{"bike_id":"5f0c4e6e-8342-4b95-87f4-4062bdcd73ed","system_id":"levelo_inurba_marseille","lat":43.29421,"lon":5.38625,"is_reserved":false,"is_disabled":false,"rental_uris":{"android":"levelo://app?vid=5f0c4e6e-8342-4b95-87f4-4062bdcd73ed","ios":"levelo://app?vid=5f0c4e6e-8342-4b95-87f4-4062bdcd73ed"},"vehicle_type_id":"4","last_reported":1761080954,"current_range_meters":16000,"station_id":"","pricing_plan_id":"cebpf4jnsgd1na2vs0mg"},{"bike_id":"fc1bc7a0-b184-4250-aa8b-f4ac3d63bf77","system_id":"levelo_inurba_marseille","lat":43.26229,"lon":5.40451,"is_reserved":false,"is_disabled":false,"rental_uris":{"android":"levelo://app?vid=fc1bc7a0-b184-4250-aa8b-f4ac3d63bf77","ios":"levelo://app?vid=fc1bc7a0-b184-4250-aa8b-f4ac3d63bf77"},"vehicle_type_id":"4","last_reported":1761080954,"current_range_meters":16000,"station_id":"ce4bhmh2rcd13ifvqgmg","pricing_plan_id":"cebpf4jnsgd1na2vs0mg"},{"bike_id":"8e450164-be31-4840-a1a5-cc41e38f4af4","system_id":"levelo_inurba_marseille","lat":43.24667,"lon":5.38153,"is_reserved":false,"is_disabled":false,"rental_uris":{"android":"levelo://app?vid=8e450164-be31-4840-a1a5-cc41e38f4af4","ios":"levelo://app?vid=8e450164-be31-4840-a1a5-cc41e38f4af4"},"vehicle_type_id":"4","last_reported":1761080954,"current_range_meters":16000,"station_id":"ce4bhih2rcd13ifvqfr0","pricing_plan_id":"cebpf4jnsgd1na2vs0mg"},{"bike_id":"e97fdad0-6b2d-4ae0-8462-b73762c6c8da","system_id":"levelo_inurba_marseille","lat":43.24675,"lon":5.38157,"is_reserved":false,"is_disabled":false,"rental_uris":{"android":"levelo://app?vid=e97fdad0-6b2d-4ae0-8462-b73762c6c8da","ios":"levelo://app?vid=e97fdad0-6b2d-4ae0-8462-b73762c6c8da"},"vehicle_type_id":"4","last_reported":1761080954,"current_range_meters":16400,"station_id":"ce4bhih2rcd13ifvqfr0","pricing_plan_id":"cebpf4jnsgd1na2vs0mg"},{"bike_id":"c94f41c6-743f-4248-941c-574f989b12b4","system_id":"levelo_inurba_marseille","lat":43.28276,"lon":5.35071,"is_reserved":false,"is_disabled":false,"rental_uris":{"android":"levelo://app?vid=c94f41c6-743f-4248-941c-574f989b12b4","ios":"levelo://app?vid=c94f41c6-743f-4248-941c-574f989b12b4"},"vehicle_type_id":"4","last_reported":1761080954,"current_range_meters":16400,"station_id":"ce4bhbp2rcd13ifvqerg","pricing_plan_id":"cebpf4jnsgd1na2vs0mg"},{"bike_id":"2630da69-35bf-48d5-a333-08dbf071eb16","system_id":"levelo_inurba_marseille","lat":43.28843,"lon":5.35822,"is_reserved":false,"is_disabled":false,"rental_uris":{"android":"levelo://app?vid=2630da69-35bf-48d5-a333-08dbf071eb16","ios":"levelo://app?vid=2630da69-35bf-48d5-a333-08dbf071eb16"},"vehicle_type_id":"4","last_reported":1761080954,"current_range_meters":16400,"station_id":"ce4bhb12rcd13ifvqem0","pricing_plan_id":"cebpf4jnsgd1na2vs0mg"},{"bike_id":"23d6a212-ff7f-450b-95e3-06f76be2ff8e","system_id":"levelo_inurba_marseille","lat":43.28076,"lon":5.39647,"is_reserved":false,"is_disabled":false,"rental_uris":{"android":"levelo://app?vid=23d6a212-ff7f-450b-95e3-06f76be2ff8e","ios":"levelo://app?vid=23d6a212-ff7f-450b-95e3-06f76be2ff8e"},"vehicle_type_id":"4","last_reported":1761080954,"current_range_meters":16400,"station_id":"ce4bho12rcd13ifvqh2g","pricing_plan_id":"cebpf4jnsgd1na2vs0mg"},{"bike_id":"0fc4d80c-3f3e-407d-a23c-7b085437a9a8","system_id":"levelo_inurba_marseille","lat":43.2657,"lon":5.37306,"is_reserved":false,"is_disabled":false,"rental_uris":{"android":"levelo://app?vid=0fc4d80c-3f3e-407d-a23c-7b085437a9a8","ios":"levelo://app?vid=0fc4d80c-3f3e-407d-a23c-7b085437a9a8"},"vehicle_type_id":"4","last_reported":1761080954,"current_range_meters":16400,"station_id":"ce4bhg12rcd13ifvqf70","pricing_plan_id":"cebpf4jnsgd1na2vs0mg"},{"bike_id":"e97cee2c-2821-4589-ad0d-39b7b7c16139","system_id":"levelo_inurba_marseille","lat":43.296167,"lon":5.377186,"is_reserved":false,"is_disabled":true,"rental_uris":{"android":"levelo://app?vid=e97cee2c-2821-4589-ad0d-39b7b7c16139","ios":"levelo://app?vid=e97cee2c-2821-4589-ad0d-39b7b7c16139"},"vehicle_type_id":"4","last_reported":1761080954,"current_range_meters":16400,"station_id":"ce4bgi92rcd13ifvqb90","pricing_plan_id":"cebpf4jnsgd1na2vs0mg"},{"bike_id":"6692e090-9792-45dd-b639-89e41212fa24","system_id":"levelo_inurba_marseille","lat":43.31306,"lon":5.38475,"is_reserved":false,"is_disabled":true,"rental_uris":{"android":"levelo://app?vid=6692e090-9792-45dd-b639-89e41212fa24","ios":"levelo://app?vid=6692e090-9792-45dd-b639-89e41212fa24"},"vehicle_type_id":"4","last_reported":1761080954,"current_range_meters":16400,"station_id":"","pricing_plan_id":"cebpf4jnsgd1na2vs0mg"},{"bike_id":"46e71a08-7e6c-4660-87ec-495dba3c6628","system_id":"levelo_inurba_marseille","lat":43.296622,"lon":5.36256,"is_reserved":false,"is_disabled":false,"rental_uris":{"android":"levelo://app?vid=46e71a08-7e6c-4660-87ec-495dba3c6628","ios":"levelo://app?vid=46e71a08-7e6c-4660-87ec-495dba3c6628"},"vehicle_type_id":"4","last_reported":1761080954,"current_range_meters":16400,"station_id":"","pricing_plan_id":"cebpf4jnsgd1na2vs0mg"},{"bike_id":"2f1a7d43-6bcf-41d7-8d23-ebde3846745a","system_id":"levelo_inurba_marseille","lat":43.29026,"lon":5.38645,"is_reserved":false,"is_disabled":false,"rental_uris":{"android":"levelo://app?vid=2f1a7d43-6bcf-41d7-8d23-ebde3846745a","ios":"levelo://app?vid=2f1a7d43-6bcf-41d7-8d23-ebde3846745a"},"vehicle_type_id":"4","last_reported":1761080954,"current_range_meters":16400,"station_id":"ce4bh4p2rcd13ifvqe0g","pricing_plan_id":"cebpf4jnsgd1na2vs0mg"},{"bike_id":"a0eb47f9-a594-42df-913d-732b5c65fd0a","system_id":"levelo_inurba_marseille","lat":43.30431,"lon":5.38892,"is_reserved":false,"is_disabled":false,"rental_uris":{"android":"levelo://app?vid=a0eb47f9-a594-42df-913d-732b5c65fd0a","ios":"levelo://app?vid=a0eb47f9-a594-42df-913d-732b5c65fd0a"},"vehicle_type_id":"4","last_reported":1761080954,"current_range_meters":16400,"station_id":"ce4bgk12rcd13ifvqbi0","pricing_plan_id":"cebpf4jnsgd1na2vs0mg"},{"bike_id":"514ad054-b977-4c83-b3b2-5efab75fc872","system_id":"levelo_inurba_marseille","lat":43.24367,"lon":5.39147,"is_reserved":false,"is_disabled":false,"rental_uris":{"android":"levelo://app?vid=514ad054-b977-4c83-b3b2-5efab75fc872","ios":"levelo://app?vid=514ad054-b977-4c83-b3b2-5efab75fc872"},"vehicle_type_id":"4","last_reported":1761080954,"current_range_meters":16400,"station_id":"","pricing_plan_id":"cebpf4jnsgd1na2vs0mg"},{"bike_id":"37d01fc8-4b4d-4652-a489-1254eb9d4c80","system_id":"levelo_inurba_marseille","lat":43.34076,"lon":5.40411,"is_reserved":false,"is_disabled":false,"rental_uris":{"android":"levelo://app?vid=37d01fc8-4b4d-4652-a489-1254eb9d4c80","ios":"levelo://app?vid=37d01fc8-4b4d-4652-a489-1254eb9d4c80"},"vehicle_type_id":"4","last_reported":1761080954,"current_range_meters":16400,"station_id":"","pricing_plan_id":"cebpf4jnsgd1na2vs0mg"},{"bike_id":"52fc1b07-b469-40c4-ab71-836b0d777500","system_id":"levelo_inurba_marseille","lat":43.28663,"lon":5.38673,"is_reserved":false,"is_disabled":false,"rental_uris":{"android":"levelo://app?vid=52fc1b07-b469-40c4-ab71-836b0d777500","ios":"levelo://app?vid=52fc1b07-b469-40c4-ab71-836b0d777500"},"vehicle_type_id":"4","last_reported":1761080954,"current_range_meters":16400,"station_id":"ce4bh492rcd13ifvqdug","pricing_plan_id":"cebpf4jnsgd1na2vs0mg"},{"bike_id":"b869754e-ab30-4b29-93e2-c3b579cde905","system_id":"levelo_inurba_marseille","lat":43.27054,"lon":5.38289,"is_reserved":false,"is_disabled":false,"rental_uris":{"android":"levelo://app?vid=b869754e-ab30-4b29-93e2-c3b579cde905","ios":"levelo://app?vid=b869754e-ab30-4b29-93e2-c3b579cde905"},"vehicle_type_id":"4","last_reported":1761080954,"current_range_meters":16400,"station_id":"st_d3n2fo6cfp8s73cte1j0","pricing_plan_id":"cebpf4jnsgd1na2vs0mg"},{"bike_id":"d00f4c2a-3594-49b4-b41c-198467814d53","system_id":"levelo_inurba_marseille","lat":43.24069,"lon":5.37742,"is_reserved":false,"is_disabled":false,"rental_uris":{"android":"levelo://app?vid=d00f4c2a-3594-49b4-b41c-198467814d53","ios":"levelo://app?vid=d00f4c2a-3594-49b4-b41c-198467814d53"},"vehicle_type_id":"4","last_reported":1761080954,"current_range_meters":16800,"station_id":"ce4bhnp2rcd13ifvqgvg","pricing_plan_id":"cebpf4jnsgd1na2vs0mg"},{"bike_id":"db1a7f8f-d353-4aed-8a73-36c61800a82c","system_id":"levelo_inurba_marseille","lat":43.2867,"lon":5.386695,"is_reserved":false,"is_disabled":false,"rental_uris":{"android":"levelo://app?vid=db1a7f8f-d353-4aed-8a73-36c61800a82c","ios":"levelo://app?vid=db1a7f8f-d353-4aed-8a73-36c61800a82c"},"vehicle_type_id":"4","last_reported":1761080954,"current_range_meters":16800,"station_id":"ce4bh492rcd13ifvqdug","pricing_plan_id":"cebpf4jnsgd1na2vs0mg"},{"bike_id":"396aaa55-c35f-41fc-8337-93bac25c9dde","system_id":"levelo_inurba_marseille","lat":43.29218,"lon":5.35503,"is_reserved":false,"is_disabled":false,"rental_uris":{"android":"levelo://app?vid=396aaa55-c35f-41fc-8337-93bac25c9dde","ios":"levelo://app?vid=396aaa55-c35f-41fc-8337-93bac25c9dde"},"vehicle_type_id":"4","last_reported":1761080954,"current_range_meters":16800,"station_id":"","pricing_plan_id":"cebpf4jnsgd1na2vs0mg"},{"bike_id":"464bd8a3-6573-4884-b980-774e68ad4ab1","system_id":"levelo_inurba_marseille","lat":43.271787,"lon":5.409868,"is_reserved":false,"is_disabled":false,"rental_uris":{"android":"levelo://app?vid=464bd8a3-6573-4884-b980-774e68ad4ab1","ios":"levelo://app?vid=464bd8a3-6573-4884-b980-774e68ad4ab1"},"vehicle_type_id":"4","last_reported":1761080954,"current_range_meters":16800,"station_id":"ce4bhl12rcd13ifvqgf0","pricing_plan_id":"cebpf4jnsgd1na2vs0mg"},{"bike_id":"53c6235b-6e0c-4c8b-8256-bfcb035bd976","system_id":"levelo_inurba_marseille","lat":43.2846,"lon":5.38438,"is_reserved":false,"is_disabled":false,"rental_uris":{"android":"levelo://app?vid=53c6235b-6e0c-4c8b-8256-bfcb035bd976","ios":"levelo://app?vid=53c6235b-6e0c-4c8b-8256-bfcb035bd976"},"vehicle_type_id":"4","last_reported":1761080954,"current_range_meters":16800,"station_id":"ce4bh512rcd13ifvqe3g","pricing_plan_id":"cebpf4jnsgd1na2vs0mg"},{"bike_id":"308f8cba-b1f6-4e99-be2f-64867b2154b0","system_id":"levelo_inurba_marseille","lat":43.28698,"lon":5.37388,"is_reserved":false,"is_disabled":false,"rental_uris":{"android":"levelo://app?vid=308f8cba-b1f6-4e99-be2f-64867b2154b0","ios":"levelo://app?vid=308f8cba-b1f6-4e99-be2f-64867b2154b0"},"vehicle_type_id":"4","last_reported":1761080954,"current_range_meters":16800,"station_id":"ce4bh3p2rcd13ifvqdq0","pricing_plan_id":"cebpf4jnsgd1na2vs0mg"},{"bike_id":"a03e674e-6b92-4f08-91a0-49a582814e89","system_id":"levelo_inurba_marseille","lat":43.24178,"lon":5.397278,"is_reserved":false,"is_disabled":true,"rental_uris":{"android":"levelo://app?vid=a03e674e-6b92-4f08-91a0-49a582814e89","ios":"levelo://app?vid=a03e674e-6b92-4f08-91a0-49a582814e89"},"vehicle_type_id":"4","last_reported":1761080954,"current_range_meters":16800,"station_id":"ce4bhn12rcd13ifvqgpg","pricing_plan_id":"cebpf4jnsgd1na2vs0mg"},{"bike_id":"1076dde3-8639-4cf4-bcda-71235bfc34ae","system_id":"levelo_inurba_marseille","lat":43.29532,"lon":5.38542,"is_reserved":false,"is_disabled":false,"rental_uris":{"android":"levelo://app?vid=1076dde3-8639-4cf4-bcda-71235bfc34ae","ios":"levelo://app?vid=1076dde3-8639-4cf4-bcda-71235bfc34ae"},"vehicle_type_id":"4","last_reported":1761080954,"current_range_meters":17200,"station_id":"ce4bgih2rcd13ifvqba0","pricing_plan_id":"cebpf4jnsgd1na2vs0mg"},{"bike_id":"c3ea6a13-2909-4818-a4ac-ba6b4120ef87","system_id":"levelo_inurba_marseille","lat":43.295281,"lon":5.385363,"is_reserved":false,"is_disabled":false,"rental_uris":{"android":"levelo://app?vid=c3ea6a13-2909-4818-a4ac-ba6b4120ef87","ios":"levelo://app?vid=c3ea6a13-2909-4818-a4ac-ba6b4120ef87"},"vehicle_type_id":"4","last_reported":1761080954,"current_range_meters":17200,"station_id":"ce4bgih2rcd13ifvqba0","pricing_plan_id":"cebpf4jnsgd1na2vs0mg"},{"bike_id":"a423b03e-f128-4cd8-a887-8c4aea2d522b","system_id":"levelo_inurba_marseille","lat":43.24688,"lon":5.38142,"is_reserved":false,"is_disabled":false,"rental_uris":{"android":"levelo://app?vid=a423b03e-f128-4cd8-a887-8c4aea2d522b","ios":"levelo://app?vid=a423b03e-f128-4cd8-a887-8c4aea2d522b"},"vehicle_type_id":"4","last_reported":1761080954,"current_range_meters":17200,"station_id":"ce4bhih2rcd13ifvqfr0","pricing_plan_id":"cebpf4jnsgd1na2vs0mg"},{"bike_id":"2f2afaa0-2d28-48b9-b514-876a5e7d38c4","system_id":"levelo_inurba_marseille","lat":43.28219,"lon":5.39056,"is_reserved":false,"is_disabled":false,"rental_uris":{"android":"levelo://app?vid=2f2afaa0-2d28-48b9-b514-876a5e7d38c4","ios":"levelo://app?vid=2f2afaa0-2d28-48b9-b514-876a5e7d38c4"},"vehicle_type_id":"4","last_reported":1761080954,"current_range_meters":17200,"station_id":"ce4bhn92rcd13ifvqgsg","pricing_plan_id":"cebpf4jnsgd1na2vs0mg"},{"bike_id":"55c7a453-1df8-47bd-b584-9d37339773fa","system_id":"levelo_inurba_marseille","lat":43.32167,"lon":5.3884,"is_reserved":false,"is_disabled":false,"rental_uris":{"android":"levelo://app?vid=55c7a453-1df8-47bd-b584-9d37339773fa","ios":"levelo://app?vid=55c7a453-1df8-47bd-b584-9d37339773fa"},"vehicle_type_id":"4","last_reported":1761080954,"current_range_meters":17200,"station_id":"","pricing_plan_id":"cebpf4jnsgd1na2vs0mg"},{"bike_id":"0fcb097a-da7e-421a-af94-af87c3557481","system_id":"levelo_inurba_marseille","lat":43.29485,"lon":5.43307,"is_reserved":false,"is_disabled":false,"rental_uris":{"android":"levelo://app?vid=0fcb097a-da7e-421a-af94-af87c3557481","ios":"levelo://app?vid=0fcb097a-da7e-421a-af94-af87c3557481"},"vehicle_type_id":"4","last_reported":1761080954,"current_range_meters":17200,"station_id":"st_d3j5ugp08ojc73fj9d10","pricing_plan_id":"cebpf4jnsgd1na2vs0mg"},{"bike_id":"431d1b90-a61f-4e77-9edc-43bc7e93ecb0","system_id":"levelo_inurba_marseille","lat":43.3024,"lon":5.40076,"is_reserved":false,"is_disabled":false,"rental_uris":{"android":"levelo://app?vid=431d1b90-a61f-4e77-9edc-43bc7e93ecb0","ios":"levelo://app?vid=431d1b90-a61f-4e77-9edc-43bc7e93ecb0"},"vehicle_type_id":"4","last_reported":1761080954,"current_range_meters":17200,"station_id":"ce4bgvh2rcd13ifvqcs0","pricing_plan_id":"cebpf4jnsgd1na2vs0mg"},{"bike_id":"1ae4f4ba-cdf3-4681-97bc-7048fb9fbd77","system_id":"levelo_inurba_marseille","lat":43.27817,"lon":5.39217,"is_reserved":false,"is_disabled":false,"rental_uris":{"android":"levelo://app?vid=1ae4f4ba-cdf3-4681-97bc-7048fb9fbd77","ios":"levelo://app?vid=1ae4f4ba-cdf3-4681-97bc-7048fb9fbd77"},"vehicle_type_id":"4","last_reported":1761080954,"current_range_meters":17200,"station_id":"ce4bhjp2rcd13ifvqga0","pricing_plan_id":"cebpf4jnsgd1na2vs0mg"},{"bike_id":"754aee5d-8026-44a2-907b-e5b25dc582da","system_id":"levelo_inurba_marseille","lat":43.28862,"lon":5.39306,"is_reserved":false,"is_disabled":false,"rental_uris":{"android":"levelo://app?vid=754aee5d-8026-44a2-907b-e5b25dc582da","ios":"levelo://app?vid=754aee5d-8026-44a2-907b-e5b25dc582da"},"vehicle_type_id":"4","last_reported":1761080954,"current_range_meters":17200,"station_id":"ce4bh2p2rcd13ifvqdi0","pricing_plan_id":"cebpf4jnsgd1na2vs0mg"},{"bike_id":"e0807e04-f7b8-4ea4-a3f9-f6baf8c84c9f","system_id":"levelo_inurba_marseille","lat":43.28038,"lon":5.36946,"is_reserved":false,"is_disabled":false,"rental_uris":{"android":"levelo://app?vid=e0807e04-f7b8-4ea4-a3f9-f6baf8c84c9f","ios":"levelo://app?vid=e0807e04-f7b8-4ea4-a3f9-f6baf8c84c9f"},"vehicle_type_id":"4","last_reported":1761080954,"current_range_meters":17200,"station_id":"ce4bha12rcd13ifvqef0","pricing_plan_id":"cebpf4jnsgd1na2vs0mg"},{"bike_id":"5b2fb394-b654-4cda-abea-19d87e1a4938","system_id":"levelo_inurba_marseille","lat":43.240822,"lon":5.377519,"is_reserved":false,"is_disabled":false,"rental_uris":{"android":"levelo://app?vid=5b2fb394-b654-4cda-abea-19d87e1a4938","ios":"levelo://app?vid=5b2fb394-b654-4cda-abea-19d87e1a4938"},"vehicle_type_id":"4","last_reported":1761080954,"current_range_meters":17600,"station_id":"ce4bhnp2rcd13ifvqgvg","pricing_plan_id":"cebpf4jnsgd1na2vs0mg"},{"bike_id":"b61e6817-4496-4ad7-ab43-b524af2e26e5","system_id":"levelo_inurba_marseille","lat":43.2866,"lon":5.38661,"is_reserved":false,"is_disabled":false,"rental_uris":{"android":"levelo://app?vid=b61e6817-4496-4ad7-ab43-b524af2e26e5","ios":"levelo://app?vid=b61e6817-4496-4ad7-ab43-b524af2e26e5"},"vehicle_type_id":"4","last_reported":1761080954,"current_range_meters":17600,"station_id":"","pricing_plan_id":"cebpf4jnsgd1na2vs0mg"},{"bike_id":"07e992db-48e1-481b-a50e-3b491cfc1455","system_id":"levelo_inurba_marseille","lat":43.31991,"lon":5.41291,"is_reserved":false,"is_disabled":false,"rental_uris":{"android":"levelo://app?vid=07e992db-48e1-481b-a50e-3b491cfc1455","ios":"levelo://app?vid=07e992db-48e1-481b-a50e-3b491cfc1455"},"vehicle_type_id":"4","last_reported":1761080954,"current_range_meters":17600,"station_id":"","pricing_plan_id":"cebpf4jnsgd1na2vs0mg"},{"bike_id":"b60abccb-de88-4ed4-ba45-b9d122d23ed4","system_id":"levelo_inurba_marseille","lat":43.29563,"lon":5.39963,"is_reserved":false,"is_disabled":false,"rental_uris":{"android":"levelo://app?vid=b60abccb-de88-4ed4-ba45-b9d122d23ed4","ios":"levelo://app?vid=b60abccb-de88-4ed4-ba45-b9d122d23ed4"},"vehicle_type_id":"4","last_reported":1761080954,"current_range_meters":17600,"station_id":"ce4bh312rcd13ifvqdj0","pricing_plan_id":"cebpf4jnsgd1na2vs0mg"},{"bike_id":"eebaff45-f078-4c97-b906-b4e2a47c3dc4","system_id":"levelo_inurba_marseille","lat":43.29754,"lon":5.38722,"is_reserved":false,"is_disabled":false,"rental_uris":{"android":"levelo://app?vid=eebaff45-f078-4c97-b906-b4e2a47c3dc4","ios":"levelo://app?vid=eebaff45-f078-4c97-b906-b4e2a47c3dc4"},"vehicle_type_id":"4","last_reported":1761080954,"current_range_meters":17600,"station_id":"","pricing_plan_id":"cebpf4jnsgd1na2vs0mg"},{"bike_id":"8517d2ad-4627-4d5c-b43d-563f1cd29009","system_id":"levelo_inurba_marseille","lat":43.30451,"lon":5.36846,"is_reserved":false,"is_disabled":false,"rental_uris":{"android":"levelo://app?vid=8517d2ad-4627-4d5c-b43d-563f1cd29009","ios":"levelo://app?vid=8517d2ad-4627-4d5c-b43d-563f1cd29009"},"vehicle_type_id":"4","last_reported":1761080954,"current_range_meters":18000,"station_id":"","pricing_plan_id":"cebpf4jnsgd1na2vs0mg"},{"bike_id":"09438769-f7b8-4321-99f5-2a5ce4383407","system_id":"levelo_inurba_marseille","lat":43.31177,"lon":5.38729,"is_reserved":false,"is_disabled":false,"rental_uris":{"android":"levelo://app?vid=09438769-f7b8-4321-99f5-2a5ce4383407","ios":"levelo://app?vid=09438769-f7b8-4321-99f5-2a5ce4383407"},"vehicle_type_id":"4","last_reported":1761080954,"current_range_meters":18000,"station_id":"ce4bgv12rcd13ifvqcp0","pricing_plan_id":"cebpf4jnsgd1na2vs0mg"},{"bike_id":"bbd08cf4-31da-4d68-b46e-697f80190f23","system_id":"levelo_inurba_marseille","lat":43.27185,"lon":5.40978,"is_reserved":false,"is_disabled":false,"rental_uris":{"android":"levelo://app?vid=bbd08cf4-31da-4d68-b46e-697f80190f23","ios":"levelo://app?vid=bbd08cf4-31da-4d68-b46e-697f80190f23"},"vehicle_type_id":"4","last_reported":1761080954,"current_range_meters":18000,"station_id":"ce4bhl12rcd13ifvqgf0","pricing_plan_id":"cebpf4jnsgd1na2vs0mg"},{"bike_id":"82d8c071-0d4a-4415-a54a-1102982760bb","system_id":"levelo_inurba_marseille","lat":43.30645,"lon":5.40101,"is_reserved":false,"is_disabled":false,"rental_uris":{"android":"levelo://app?vid=82d8c071-0d4a-4415-a54a-1102982760bb","ios":"levelo://app?vid=82d8c071-0d4a-4415-a54a-1102982760bb"},"vehicle_type_id":"4","last_reported":1761080954,"current_range_meters":18000,"station_id":"ce4bh112rcd13ifvqda0","pricing_plan_id":"cebpf4jnsgd1na2vs0mg"},{"bike_id":"ca9ec66b-e4f4-4b30-93ef-0865bce333e4","system_id":"levelo_inurba_marseille","lat":43.29533,"lon":5.3854,"is_reserved":false,"is_disabled":false,"rental_uris":{"android":"levelo://app?vid=ca9ec66b-e4f4-4b30-93ef-0865bce333e4","ios":"levelo://app?vid=ca9ec66b-e4f4-4b30-93ef-0865bce333e4"},"vehicle_type_id":"4","last_reported":1761080954,"current_range_meters":18000,"station_id":"ce4bgih2rcd13ifvqba0","pricing_plan_id":"cebpf4jnsgd1na2vs0mg"},{"bike_id":"0289d540-3ab2-4058-8d5f-f384081982dd","system_id":"levelo_inurba_marseille","lat":43.29545,"lon":5.38539,"is_reserved":false,"is_disabled":false,"rental_uris":{"android":"levelo://app?vid=0289d540-3ab2-4058-8d5f-f384081982dd","ios":"levelo://app?vid=0289d540-3ab2-4058-8d5f-f384081982dd"},"vehicle_type_id":"4","last_reported":1761080954,"current_range_meters":18800,"station_id":"ce4bgih2rcd13ifvqba0","pricing_plan_id":"cebpf4jnsgd1na2vs0mg"},{"bike_id":"618a9c44-e479-45b6-b144-58d3228e3132","system_id":"levelo_inurba_marseille","lat":43.24659,"lon":5.38922,"is_reserved":false,"is_disabled":false,"rental_uris":{"android":"levelo://app?vid=618a9c44-e479-45b6-b144-58d3228e3132","ios":"levelo://app?vid=618a9c44-e479-45b6-b144-58d3228e3132"},"vehicle_type_id":"4","last_reported":1761080954,"current_range_meters":18800,"station_id":"ce4bhg12rcd13ifvqf60","pricing_plan_id":"cebpf4jnsgd1na2vs0mg"},{"bike_id":"31fb1b5e-834a-4e32-a60a-cab56b1c9165","system_id":"levelo_inurba_marseille","lat":43.29519,"lon":5.39407,"is_reserved":false,"is_disabled":false,"rental_uris":{"android":"levelo://app?vid=31fb1b5e-834a-4e32-a60a-cab56b1c9165","ios":"levelo://app?vid=31fb1b5e-834a-4e32-a60a-cab56b1c9165"},"vehicle_type_id":"4","last_reported":1761080954,"current_range_meters":18800,"station_id":"ce4bh292rcd13ifvqdf0","pricing_plan_id":"cebpf4jnsgd1na2vs0mg"},{"bike_id":"0bfa1008-b1d1-4f95-81ce-2f09bf25d6ec","system_id":"levelo_inurba_marseille","lat":43.28786,"lon":5.38557,"is_reserved":false,"is_disabled":false,"rental_uris":{"android":"levelo://app?vid=0bfa1008-b1d1-4f95-81ce-2f09bf25d6ec","ios":"levelo://app?vid=0bfa1008-b1d1-4f95-81ce-2f09bf25d6ec"},"vehicle_type_id":"4","last_reported":1761080954,"current_range_meters":18800,"station_id":"","pricing_plan_id":"cebpf4jnsgd1na2vs0mg"},{"bike_id":"f6823600-d722-46ff-87e9-418d94cd90bb","system_id":"levelo_inurba_marseille","lat":43.304594,"lon":5.379071,"is_reserved":false,"is_disabled":false,"rental_uris":{"android":"levelo://app?vid=f6823600-d722-46ff-87e9-418d94cd90bb","ios":"levelo://app?vid=f6823600-d722-46ff-87e9-418d94cd90bb"},"vehicle_type_id":"4","last_reported":1761080954,"current_range_meters":18800,"station_id":"ce4bgup2rcd13ifvqcn0","pricing_plan_id":"cebpf4jnsgd1na2vs0mg"},{"bike_id":"dfab2aee-fa0f-4edc-ba1a-453183342d6e","system_id":"levelo_inurba_marseille","lat":43.28109,"lon":5.37853,"is_reserved":false,"is_disabled":false,"rental_uris":{"android":"levelo://app?vid=dfab2aee-fa0f-4edc-ba1a-453183342d6e","ios":"levelo://app?vid=dfab2aee-fa0f-4edc-ba1a-453183342d6e"},"vehicle_type_id":"4","last_reported":1761080954,"current_range_meters":18800,"station_id":"ce4bha12rcd13ifvqee0","pricing_plan_id":"cebpf4jnsgd1na2vs0mg"},{"bike_id":"415179a7-2d88-422a-bebd-ab5d5bf72e3d","system_id":"levelo_inurba_marseille","lat":43.31989,"lon":5.38154,"is_reserved":false,"is_disabled":false,"rental_uris":{"android":"levelo://app?vid=415179a7-2d88-422a-bebd-ab5d5bf72e3d","ios":"levelo://app?vid=415179a7-2d88-422a-bebd-ab5d5bf72e3d"},"vehicle_type_id":"4","last_reported":1761080954,"current_range_meters":18800,"station_id":"ce4bhr12rcd13ifvqhpg","pricing_plan_id":"cebpf4jnsgd1na2vs0mg"},{"bike_id":"3d7013be-dfe4-430a-97e8-197a834810ee","system_id":"levelo_inurba_marseille","lat":43.2465,"lon":5.38909,"is_reserved":false,"is_disabled":false,"rental_uris":{"android":"levelo://app?vid=3d7013be-dfe4-430a-97e8-197a834810ee","ios":"levelo://app?vid=3d7013be-dfe4-430a-97e8-197a834810ee"},"vehicle_type_id":"4","last_reported":1761080954,"current_range_meters":19200,"station_id":"ce4bhg12rcd13ifvqf60","pricing_plan_id":"cebpf4jnsgd1na2vs0mg"},{"bike_id":"9870a68d-ae62-4bec-82c3-a7443a850bdc","system_id":"levelo_inurba_marseille","lat":43.31289,"lon":5.37785,"is_reserved":false,"is_disabled":false,"rental_uris":{"android":"levelo://app?vid=9870a68d-ae62-4bec-82c3-a7443a850bdc","ios":"levelo://app?vid=9870a68d-ae62-4bec-82c3-a7443a850bdc"},"vehicle_type_id":"4","last_reported":1761080954,"current_range_meters":19200,"station_id":"","pricing_plan_id":"cebpf4jnsgd1na2vs0mg"},{"bike_id":"a7852824-e2a4-479b-99b4-cb953138df6f","system_id":"levelo_inurba_marseille","lat":43.22931,"lon":5.35375,"is_reserved":false,"is_disabled":false,"rental_uris":{"android":"levelo://app?vid=a7852824-e2a4-479b-99b4-cb953138df6f","ios":"levelo://app?vid=a7852824-e2a4-479b-99b4-cb953138df6f"},"vehicle_type_id":"4","last_reported":1761080954,"current_range_meters":19200,"station_id":"cpo3532slgdg3j2ikp40","pricing_plan_id":"cebpf4jnsgd1na2vs0mg"},{"bike_id":"d599766f-13ba-4ccb-9669-3db338b97e3c","system_id":"levelo_inurba_marseille","lat":43.31113,"lon":5.377628,"is_reserved":false,"is_disabled":false,"rental_uris":{"android":"levelo://app?vid=d599766f-13ba-4ccb-9669-3db338b97e3c","ios":"levelo://app?vid=d599766f-13ba-4ccb-9669-3db338b97e3c"},"vehicle_type_id":"4","last_reported":1761080954,"current_range_meters":19200,"station_id":"ce4bgt92rcd13ifvqcg0","pricing_plan_id":"cebpf4jnsgd1na2vs0mg"},{"bike_id":"e01c0407-9fea-4afc-844a-8e1d738fcda5","system_id":"levelo_inurba_marseille","lat":43.24201,"lon":5.36362,"is_reserved":false,"is_disabled":false,"rental_uris":{"android":"levelo://app?vid=e01c0407-9fea-4afc-844a-8e1d738fcda5","ios":"levelo://app?vid=e01c0407-9fea-4afc-844a-8e1d738fcda5"},"vehicle_type_id":"4","last_reported":1761080954,"current_range_meters":19200,"station_id":"cpo36qri1sfpv3e86is0","pricing_plan_id":"cebpf4jnsgd1na2vs0mg"},{"bike_id":"6003e7b4-0db9-4a2a-a64e-5c04746430c3","system_id":"levelo_inurba_marseille","lat":43.30926,"lon":5.40133,"is_reserved":false,"is_disabled":false,"rental_uris":{"android":"levelo://app?vid=6003e7b4-0db9-4a2a-a64e-5c04746430c3","ios":"levelo://app?vid=6003e7b4-0db9-4a2a-a64e-5c04746430c3"},"vehicle_type_id":"4","last_reported":1761080954,"current_range_meters":19200,"station_id":"ce4bgvp2rcd13ifvqct0","pricing_plan_id":"cebpf4jnsgd1na2vs0mg"},{"bike_id":"ee94b253-5a8f-4b7c-b21d-91c3ee7e7c96","system_id":"levelo_inurba_marseille","lat":43.28721,"lon":5.37938,"is_reserved":false,"is_disabled":true,"rental_uris":{"android":"levelo://app?vid=ee94b253-5a8f-4b7c-b21d-91c3ee7e7c96","ios":"levelo://app?vid=ee94b253-5a8f-4b7c-b21d-91c3ee7e7c96"},"vehicle_type_id":"4","last_reported":1761080954,"current_range_meters":19200,"station_id":"ce4bh9p2rcd13ifvqec0","pricing_plan_id":"cebpf4jnsgd1na2vs0mg"},{"bike_id":"9d8bcd8e-8ecf-425f-98ef-b7c9398172e2","system_id":"levelo_inurba_marseille","lat":43.32347,"lon":5.36704,"is_reserved":false,"is_disabled":false,"rental_uris":{"android":"levelo://app?vid=9d8bcd8e-8ecf-425f-98ef-b7c9398172e2","ios":"levelo://app?vid=9d8bcd8e-8ecf-425f-98ef-b7c9398172e2"},"vehicle_type_id":"4","last_reported":1761080954,"current_range_meters":19200,"station_id":"","pricing_plan_id":"cebpf4jnsgd1na2vs0mg"},{"bike_id":"98e308ba-c366-4ae3-b56c-096955d0f9df","system_id":"levelo_inurba_marseille","lat":43.27921,"lon":5.39577,"is_reserved":false,"is_disabled":false,"rental_uris":{"android":"levelo://app?vid=98e308ba-c366-4ae3-b56c-096955d0f9df","ios":"levelo://app?vid=98e308ba-c366-4ae3-b56c-096955d0f9df"},"vehicle_type_id":"4","last_reported":1761080954,"current_range_meters":19200,"station_id":"ce4bhf92rcd13ifvqf40","pricing_plan_id":"cebpf4jnsgd1na2vs0mg"},{"bike_id":"ed9a2c07-23de-4d24-841d-399ddaf4c792","system_id":"levelo_inurba_marseille","lat":43.265657,"lon":5.390053,"is_reserved":false,"is_disabled":false,"rental_uris":{"android":"levelo://app?vid=ed9a2c07-23de-4d24-841d-399ddaf4c792","ios":"levelo://app?vid=ed9a2c07-23de-4d24-841d-399ddaf4c792"},"vehicle_type_id":"4","last_reported":1761080954,"current_range_meters":19200,"station_id":"ce4bhe12rcd13ifvqf30","pricing_plan_id":"cebpf4jnsgd1na2vs0mg"},{"bike_id":"2a2679b5-3271-4ead-b3d9-9b422dc19eec","system_id":"levelo_inurba_marseille","lat":43.29575,"lon":5.3998,"is_reserved":false,"is_disabled":false,"rental_uris":{"android":"levelo://app?vid=2a2679b5-3271-4ead-b3d9-9b422dc19eec","ios":"levelo://app?vid=2a2679b5-3271-4ead-b3d9-9b422dc19eec"},"vehicle_type_id":"4","last_reported":1761080954,"current_range_meters":19600,"station_id":"ce4bh312rcd13ifvqdj0","pricing_plan_id":"cebpf4jnsgd1na2vs0mg"},{"bike_id":"47f9f32f-3085-4621-9470-2a5b89da6fa0","system_id":"levelo_inurba_marseille","lat":43.27574,"lon":5.38415,"is_reserved":false,"is_disabled":false,"rental_uris":{"android":"levelo://app?vid=47f9f32f-3085-4621-9470-2a5b89da6fa0","ios":"levelo://app?vid=47f9f32f-3085-4621-9470-2a5b89da6fa0"},"vehicle_type_id":"4","last_reported":1761080954,"current_range_meters":19600,"station_id":"ce4bhh92rcd13ifvqfi0","pricing_plan_id":"cebpf4jnsgd1na2vs0mg"},{"bike_id":"89d8739f-4b8e-4f60-8f43-e495253557db","system_id":"levelo_inurba_marseille","lat":43.28545,"lon":5.44104,"is_reserved":false,"is_disabled":false,"rental_uris":{"android":"levelo://app?vid=89d8739f-4b8e-4f60-8f43-e495253557db","ios":"levelo://app?vid=89d8739f-4b8e-4f60-8f43-e495253557db"},"vehicle_type_id":"4","last_reported":1761080954,"current_range_meters":19600,"station_id":"st_d3j3df2ikq2c7380ej80","pricing_plan_id":"cebpf4jnsgd1na2vs0mg"},{"bike_id":"2308a577-f4cd-428b-93ba-91b6159eb25d","system_id":"levelo_inurba_marseille","lat":43.25119,"lon":5.40318,"is_reserved":false,"is_disabled":false,"rental_uris":{"android":"levelo://app?vid=2308a577-f4cd-428b-93ba-91b6159eb25d","ios":"levelo://app?vid=2308a577-f4cd-428b-93ba-91b6159eb25d"},"vehicle_type_id":"4","last_reported":1761080954,"current_range_meters":19600,"station_id":"ce4bhlh2rcd13ifvqgig","pricing_plan_id":"cebpf4jnsgd1na2vs0mg"},{"bike_id":"52438bed-ba84-4272-a049-4a51b480069c","system_id":"levelo_inurba_marseille","lat":43.33598,"lon":5.40988,"is_reserved":false,"is_disabled":false,"rental_uris":{"android":"levelo://app?vid=52438bed-ba84-4272-a049-4a51b480069c","ios":"levelo://app?vid=52438bed-ba84-4272-a049-4a51b480069c"},"vehicle_type_id":"4","last_reported":1761080954,"current_range_meters":19600,"station_id":"ce4bhqh2rcd13ifvqhmg","pricing_plan_id":"cebpf4jnsgd1na2vs0mg"},{"bike_id":"bcd66d32-5d50-47d9-84c1-43a45bec083f","system_id":"levelo_inurba_marseille","lat":43.28344,"lon":5.38109,"is_reserved":false,"is_disabled":false,"rental_uris":{"android":"levelo://app?vid=bcd66d32-5d50-47d9-84c1-43a45bec083f","ios":"levelo://app?vid=bcd66d32-5d50-47d9-84c1-43a45bec083f"},"vehicle_type_id":"4","last_reported":1761080954,"current_range_meters":19600,"station_id":"ce4bh412rcd13ifvqdr0","pricing_plan_id":"cebpf4jnsgd1na2vs0mg"},{"bike_id":"7c86cd41-0d7c-439c-a272-a4550010fdaf","system_id":"levelo_inurba_marseille","lat":43.25711,"lon":5.41119,"is_reserved":false,"is_disabled":true,"rental_uris":{"android":"levelo://app?vid=7c86cd41-0d7c-439c-a272-a4550010fdaf","ios":"levelo://app?vid=7c86cd41-0d7c-439c-a272-a4550010fdaf"},"vehicle_type_id":"4","last_reported":1761080954,"current_range_meters":19600,"station_id":"ce4bhkp2rcd13ifvqgd0","pricing_plan_id":"cebpf4jnsgd1na2vs0mg"},{"bike_id":"a79c6bd1-700c-48dd-854c-b0af28c99022","system_id":"levelo_inurba_marseille","lat":43.24632,"lon":5.43144,"is_reserved":false,"is_disabled":false,"rental_uris":{"android":"levelo://app?vid=a79c6bd1-700c-48dd-854c-b0af28c99022","ios":"levelo://app?vid=a79c6bd1-700c-48dd-854c-b0af28c99022"},"vehicle_type_id":"4","last_reported":1761080954,"current_range_meters":19600,"station_id":"st_d2m6c4gdas8pm72e190g","pricing_plan_id":"cebpf4jnsgd1na2vs0mg"},{"bike_id":"f49a30d4-adb6-4243-9f1b-e41328b19b7e","system_id":"levelo_inurba_marseille","lat":43.29534,"lon":5.38543,"is_reserved":false,"is_disabled":false,"rental_uris":{"android":"levelo://app?vid=f49a30d4-adb6-4243-9f1b-e41328b19b7e","ios":"levelo://app?vid=f49a30d4-adb6-4243-9f1b-e41328b19b7e"},"vehicle_type_id":"4","last_reported":1761080954,"current_range_meters":19600,"station_id":"ce4bgih2rcd13ifvqba0","pricing_plan_id":"cebpf4jnsgd1na2vs0mg"},{"bike_id":"c0856c99-f19e-421e-a1ae-2896239c7192","system_id":"levelo_inurba_marseille","lat":43.31332,"lon":5.39694,"is_reserved":false,"is_disabled":false,"rental_uris":{"android":"levelo://app?vid=c0856c99-f19e-421e-a1ae-2896239c7192","ios":"levelo://app?vid=c0856c99-f19e-421e-a1ae-2896239c7192"},"vehicle_type_id":"4","last_reported":1761080954,"current_range_meters":19600,"station_id":"ce4bgvp2rcd13ifvqcu0","pricing_plan_id":"cebpf4jnsgd1na2vs0mg"},{"bike_id":"7232bb60-2fbd-40fd-9d41-97ab2f0d9f37","system_id":"levelo_inurba_marseille","lat":43.24092,"lon":5.41347,"is_reserved":false,"is_disabled":false,"rental_uris":{"android":"levelo://app?vid=7232bb60-2fbd-40fd-9d41-97ab2f0d9f37","ios":"levelo://app?vid=7232bb60-2fbd-40fd-9d41-97ab2f0d9f37"},"vehicle_type_id":"4","last_reported":1761080954,"current_range_meters":20000,"station_id":"","pricing_plan_id":"cebpf4jnsgd1na2vs0mg"},{"bike_id":"fabe01e6-e39a-42c6-bb68-6378fe2a2d01","system_id":"levelo_inurba_marseille","lat":43.27953,"lon":5.4104,"is_reserved":false,"is_disabled":false,"rental_uris":{"android":"levelo://app?vid=fabe01e6-e39a-42c6-bb68-6378fe2a2d01","ios":"levelo://app?vid=fabe01e6-e39a-42c6-bb68-6378fe2a2d01"},"vehicle_type_id":"4","last_reported":1761080954,"current_range_meters":20000,"station_id":"ce4bhnp2rcd13ifvqh0g","pricing_plan_id":"cebpf4jnsgd1na2vs0mg"},{"bike_id":"c8c0fa58-a519-4343-9887-b0c694f93aef","system_id":"levelo_inurba_marseille","lat":43.288607,"lon":5.425117,"is_reserved":false,"is_disabled":false,"rental_uris":{"android":"levelo://app?vid=c8c0fa58-a519-4343-9887-b0c694f93aef","ios":"levelo://app?vid=c8c0fa58-a519-4343-9887-b0c694f93aef"},"vehicle_type_id":"4","last_reported":1761080954,"current_range_meters":20000,"station_id":"st_d3b462108ojc7389ooeg","pricing_plan_id":"cebpf4jnsgd1na2vs0mg"},{"bike_id":"0ec4ef5d-d495-417b-9bb4-a7234e30b1f5","system_id":"levelo_inurba_marseille","lat":43.24548,"lon":5.39509,"is_reserved":false,"is_disabled":true,"rental_uris":{"android":"levelo://app?vid=0ec4ef5d-d495-417b-9bb4-a7234e30b1f5","ios":"levelo://app?vid=0ec4ef5d-d495-417b-9bb4-a7234e30b1f5"},"vehicle_type_id":"4","last_reported":1761080954,"current_range_meters":20000,"station_id":"ce4bhlp2rcd13ifvqgjg","pricing_plan_id":"cebpf4jnsgd1na2vs0mg"},{"bike_id":"9d7f3a6e-0b4c-41cd-9b1c-7b029025d66d","system_id":"levelo_inurba_marseille","lat":43.28164,"lon":5.4262,"is_reserved":false,"is_disabled":false,"rental_uris":{"android":"levelo://app?vid=9d7f3a6e-0b4c-41cd-9b1c-7b029025d66d","ios":"levelo://app?vid=9d7f3a6e-0b4c-41cd-9b1c-7b029025d66d"},"vehicle_type_id":"4","last_reported":1761080954,"current_range_meters":20000,"station_id":"ce4bhnh2rcd13ifvqgug","pricing_plan_id":"cebpf4jnsgd1na2vs0mg"},{"bike_id":"47872406-060e-41a7-8b75-5c72652f38a6","system_id":"levelo_inurba_marseille","lat":43.28244,"lon":5.39114,"is_reserved":false,"is_disabled":false,"rental_uris":{"android":"levelo://app?vid=47872406-060e-41a7-8b75-5c72652f38a6","ios":"levelo://app?vid=47872406-060e-41a7-8b75-5c72652f38a6"},"vehicle_type_id":"4","last_reported":1761080954,"current_range_meters":20000,"station_id":"ce4bhn92rcd13ifvqgsg","pricing_plan_id":"cebpf4jnsgd1na2vs0mg"},{"bike_id":"940ea6a2-8336-4fd3-bafd-9bfb9547b6d3","system_id":"levelo_inurba_marseille","lat":43.24386,"lon":5.37048,"is_reserved":false,"is_disabled":false,"rental_uris":{"android":"levelo://app?vid=940ea6a2-8336-4fd3-bafd-9bfb9547b6d3","ios":"levelo://app?vid=940ea6a2-8336-4fd3-bafd-9bfb9547b6d3"},"vehicle_type_id":"4","last_reported":1761080954,"current_range_meters":20000,"station_id":"ce4bhhh2rcd13ifvqfk0","pricing_plan_id":"cebpf4jnsgd1na2vs0mg"},{"bike_id":"f943f823-d9e2-4f69-9794-8ee1bed89cda","system_id":"levelo_inurba_marseille","lat":43.24166,"lon":5.36398,"is_reserved":false,"is_disabled":false,"rental_uris":{"android":"levelo://app?vid=f943f823-d9e2-4f69-9794-8ee1bed89cda","ios":"levelo://app?vid=f943f823-d9e2-4f69-9794-8ee1bed89cda"},"vehicle_type_id":"4","last_reported":1761080954,"current_range_meters":20000,"station_id":"cpo36qri1sfpv3e86is0","pricing_plan_id":"cebpf4jnsgd1na2vs0mg"},{"bike_id":"9174a51d-a97c-40e5-b99d-5846b1af1049","system_id":"levelo_inurba_marseille","lat":43.29436,"lon":5.39759,"is_reserved":false,"is_disabled":false,"rental_uris":{"android":"levelo://app?vid=9174a51d-a97c-40e5-b99d-5846b1af1049","ios":"levelo://app?vid=9174a51d-a97c-40e5-b99d-5846b1af1049"},"vehicle_type_id":"4","last_reported":1761080954,"current_range_meters":20000,"station_id":"ce4bh3h2rcd13ifvqdo0","pricing_plan_id":"cebpf4jnsgd1na2vs0mg"},{"bike_id":"b3b13e92-d401-45af-ad84-a41c7bbeb5fe","system_id":"levelo_inurba_marseille","lat":43.30986,"lon":5.37502,"is_reserved":false,"is_disabled":false,"rental_uris":{"android":"levelo://app?vid=b3b13e92-d401-45af-ad84-a41c7bbeb5fe","ios":"levelo://app?vid=b3b13e92-d401-45af-ad84-a41c7bbeb5fe"},"vehicle_type_id":"4","last_reported":1761080954,"current_range_meters":20000,"station_id":"","pricing_plan_id":"cebpf4jnsgd1na2vs0mg"},{"bike_id":"34130888-7081-4e94-827a-c12d43393837","system_id":"levelo_inurba_marseille","lat":43.23786,"lon":5.36626,"is_reserved":false,"is_disabled":false,"rental_uris":{"android":"levelo://app?vid=34130888-7081-4e94-827a-c12d43393837","ios":"levelo://app?vid=34130888-7081-4e94-827a-c12d43393837"},"vehicle_type_id":"4","last_reported":1761080954,"current_range_meters":20000,"station_id":"st_d3nk18o9ro0c73en2l3g","pricing_plan_id":"cebpf4jnsgd1na2vs0mg"},{"bike_id":"b78ccf64-461e-4994-9f5c-be844b45e1f0","system_id":"levelo_inurba_marseille","lat":43.30958,"lon":5.40048,"is_reserved":false,"is_disabled":false,"rental_uris":{"android":"levelo://app?vid=b78ccf64-461e-4994-9f5c-be844b45e1f0","ios":"levelo://app?vid=b78ccf64-461e-4994-9f5c-be844b45e1f0"},"vehicle_type_id":"4","last_reported":1761080954,"current_range_meters":20000,"station_id":"ce4bgvp2rcd13ifvqct0","pricing_plan_id":"cebpf4jnsgd1na2vs0mg"},{"bike_id":"e9722733-533b-418e-9199-b83c3e9f55bb","system_id":"levelo_inurba_marseille","lat":43.284549,"lon":5.380759,"is_reserved":false,"is_disabled":false,"rental_uris":{"android":"levelo://app?vid=e9722733-533b-418e-9199-b83c3e9f55bb","ios":"levelo://app?vid=e9722733-533b-418e-9199-b83c3e9f55bb"},"vehicle_type_id":"4","last_reported":1761080954,"current_range_meters":20000,"station_id":"ce4bh412rcd13ifvqdr0","pricing_plan_id":"cebpf4jnsgd1na2vs0mg"},{"bike_id":"60b3cb20-c5ef-4d52-9a7a-339c2b52328b","system_id":"levelo_inurba_marseille","lat":43.26496,"lon":5.3956,"is_reserved":false,"is_disabled":false,"rental_uris":{"android":"levelo://app?vid=60b3cb20-c5ef-4d52-9a7a-339c2b52328b","ios":"levelo://app?vid=60b3cb20-c5ef-4d52-9a7a-339c2b52328b"},"vehicle_type_id":"4","last_reported":1761080954,"current_range_meters":20000,"station_id":"ce4bhi12rcd13ifvqfq0","pricing_plan_id":"cebpf4jnsgd1na2vs0mg"},{"bike_id":"509b6f20-1b7e-4a72-a249-75f1729775b2","system_id":"levelo_inurba_marseille","lat":43.31111,"lon":5.3778,"is_reserved":false,"is_disabled":false,"rental_uris":{"android":"levelo://app?vid=509b6f20-1b7e-4a72-a249-75f1729775b2","ios":"levelo://app?vid=509b6f20-1b7e-4a72-a249-75f1729775b2"},"vehicle_type_id":"4","last_reported":1761080954,"current_range_meters":20000,"station_id":"ce4bgt92rcd13ifvqcg0","pricing_plan_id":"cebpf4jnsgd1na2vs0mg"},{"bike_id":"f9ed1a01-3e78-406d-9ea0-9f83da472a65","system_id":"levelo_inurba_marseille","lat":43.29258,"lon":5.40912,"is_reserved":false,"is_disabled":false,"rental_uris":{"android":"levelo://app?vid=f9ed1a01-3e78-406d-9ea0-9f83da472a65","ios":"levelo://app?vid=f9ed1a01-3e78-406d-9ea0-9f83da472a65"},"vehicle_type_id":"4","last_reported":1761080954,"current_range_meters":20000,"station_id":"ce4bh192rcd13ifvqdc0","pricing_plan_id":"cebpf4jnsgd1na2vs0mg"},{"bike_id":"6cb13ad7-4051-45ec-99f1-4c86765e0ca5","system_id":"levelo_inurba_marseille","lat":43.298023,"lon":5.381016,"is_reserved":false,"is_disabled":false,"rental_uris":{"android":"levelo://app?vid=6cb13ad7-4051-45ec-99f1-4c86765e0ca5","ios":"levelo://app?vid=6cb13ad7-4051-45ec-99f1-4c86765e0ca5"},"vehicle_type_id":"4","last_reported":1761080954,"current_range_meters":20400,"station_id":"ce4bgip2rcd13ifvqbb0","pricing_plan_id":"cebpf4jnsgd1na2vs0mg"},{"bike_id":"eac6dfb0-75be-4965-8311-5f4d257d09d8","system_id":"levelo_inurba_marseille","lat":43.29784,"lon":5.39351,"is_reserved":false,"is_disabled":false,"rental_uris":{"android":"levelo://app?vid=eac6dfb0-75be-4965-8311-5f4d257d09d8","ios":"levelo://app?vid=eac6dfb0-75be-4965-8311-5f4d257d09d8"},"vehicle_type_id":"4","last_reported":1761080954,"current_range_meters":20400,"station_id":"chh1huq6cuj3fo74tm60","pricing_plan_id":"cebpf4jnsgd1na2vs0mg"},{"bike_id":"61525fe3-26d4-4c5c-a075-e59599c296c4","system_id":"levelo_inurba_marseille","lat":43.31419,"lon":5.39292,"is_reserved":false,"is_disabled":false,"rental_uris":{"android":"levelo://app?vid=61525fe3-26d4-4c5c-a075-e59599c296c4","ios":"levelo://app?vid=61525fe3-26d4-4c5c-a075-e59599c296c4"},"vehicle_type_id":"4","last_reported":1761080954,"current_range_meters":20400,"station_id":"","pricing_plan_id":"cebpf4jnsgd1na2vs0mg"},{"bike_id":"53e8f805-53df-4804-875d-4bbc0bc8b461","system_id":"levelo_inurba_marseille","lat":43.2782,"lon":5.4069,"is_reserved":false,"is_disabled":false,"rental_uris":{"android":"levelo://app?vid=53e8f805-53df-4804-875d-4bbc0bc8b461","ios":"levelo://app?vid=53e8f805-53df-4804-875d-4bbc0bc8b461"},"vehicle_type_id":"4","last_reported":1761080954,"current_range_meters":20400,"station_id":"ce4bhnh2rcd13ifvqgtg","pricing_plan_id":"cebpf4jnsgd1na2vs0mg"},{"bike_id":"62f0a2f8-d352-4580-a096-e8ce56ffccdb","system_id":"levelo_inurba_marseille","lat":43.32123,"lon":5.36791,"is_reserved":false,"is_disabled":false,"rental_uris":{"android":"levelo://app?vid=62f0a2f8-d352-4580-a096-e8ce56ffccdb","ios":"levelo://app?vid=62f0a2f8-d352-4580-a096-e8ce56ffccdb"},"vehicle_type_id":"4","last_reported":1761080954,"current_range_meters":20400,"station_id":"ce4bhrh2rcd13ifvqhug","pricing_plan_id":"cebpf4jnsgd1na2vs0mg"},{"bike_id":"39a6a27f-e091-462b-b668-4d4d415aa680","system_id":"levelo_inurba_marseille","lat":43.31162,"lon":5.38728,"is_reserved":false,"is_disabled":false,"rental_uris":{"android":"levelo://app?vid=39a6a27f-e091-462b-b668-4d4d415aa680","ios":"levelo://app?vid=39a6a27f-e091-462b-b668-4d4d415aa680"},"vehicle_type_id":"4","last_reported":1761080954,"current_range_meters":20400,"station_id":"ce4bgv12rcd13ifvqcp0","pricing_plan_id":"cebpf4jnsgd1na2vs0mg"},{"bike_id":"205a1994-d98a-42ee-a2a9-7548fdcc1a21","system_id":"levelo_inurba_marseille","lat":43.30527,"lon":5.36558,"is_reserved":false,"is_disabled":false,"rental_uris":{"android":"levelo://app?vid=205a1994-d98a-42ee-a2a9-7548fdcc1a21","ios":"levelo://app?vid=205a1994-d98a-42ee-a2a9-7548fdcc1a21"},"vehicle_type_id":"4","last_reported":1761080954,"current_range_meters":20400,"station_id":"","pricing_plan_id":"cebpf4jnsgd1na2vs0mg"},{"bike_id":"2bba9597-4ef9-4402-967f-62d2f783e345","system_id":"levelo_inurba_marseille","lat":43.30089,"lon":5.39071,"is_reserved":false,"is_disabled":false,"rental_uris":{"android":"levelo://app?vid=2bba9597-4ef9-4402-967f-62d2f783e345","ios":"levelo://app?vid=2bba9597-4ef9-4402-967f-62d2f783e345"},"vehicle_type_id":"4","last_reported":1761080954,"current_range_meters":20400,"station_id":"ce4bh192rcd13ifvqdb0","pricing_plan_id":"cebpf4jnsgd1na2vs0mg"},{"bike_id":"37d3381c-9481-443f-8f5f-41455a3081dd","system_id":"levelo_inurba_marseille","lat":43.3374,"lon":5.362,"is_reserved":false,"is_disabled":true,"rental_uris":{"android":"levelo://app?vid=37d3381c-9481-443f-8f5f-41455a3081dd","ios":"levelo://app?vid=37d3381c-9481-443f-8f5f-41455a3081dd"},"vehicle_type_id":"4","last_reported":1761080954,"current_range_meters":20400,"station_id":"","pricing_plan_id":"cebpf4jnsgd1na2vs0mg"},{"bike_id":"a33e3547-244a-40df-a819-5a67468300d7","system_id":"levelo_inurba_marseille","lat":43.30142,"lon":5.38783,"is_reserved":false,"is_disabled":false,"rental_uris":{"android":"levelo://app?vid=a33e3547-244a-40df-a819-5a67468300d7","ios":"levelo://app?vid=a33e3547-244a-40df-a819-5a67468300d7"},"vehicle_type_id":"4","last_reported":1761080954,"current_range_meters":20800,"station_id":"ce4bghh2rcd13ifvqb60","pricing_plan_id":"cebpf4jnsgd1na2vs0mg"},{"bike_id":"6dedb052-20a2-44cd-aeba-04edee226593","system_id":"levelo_inurba_marseille","lat":43.22573,"lon":5.4162,"is_reserved":false,"is_disabled":false,"rental_uris":{"android":"levelo://app?vid=6dedb052-20a2-44cd-aeba-04edee226593","ios":"levelo://app?vid=6dedb052-20a2-44cd-aeba-04edee226593"},"vehicle_type_id":"4","last_reported":1761080954,"current_range_meters":20800,"station_id":"st_d2o4gvlbi1j2169b742g","pricing_plan_id":"cebpf4jnsgd1na2vs0mg"},{"bike_id":"f04e3ab5-ced7-4af8-b997-19eceefb150c","system_id":"levelo_inurba_marseille","lat":43.296143,"lon":5.37154,"is_reserved":false,"is_disabled":false,"rental_uris":{"android":"levelo://app?vid=f04e3ab5-ced7-4af8-b997-19eceefb150c","ios":"levelo://app?vid=f04e3ab5-ced7-4af8-b997-19eceefb150c"},"vehicle_type_id":"4","last_reported":1761080954,"current_range_meters":20800,"station_id":"ce4bgnh2rcd13ifvqc0g","pricing_plan_id":"cebpf4jnsgd1na2vs0mg"},{"bike_id":"fc088b50-e903-4413-b68e-3a2b8a695866","system_id":"levelo_inurba_marseille","lat":43.24631,"lon":5.43143,"is_reserved":false,"is_disabled":false,"rental_uris":{"android":"levelo://app?vid=fc088b50-e903-4413-b68e-3a2b8a695866","ios":"levelo://app?vid=fc088b50-e903-4413-b68e-3a2b8a695866"},"vehicle_type_id":"4","last_reported":1761080954,"current_range_meters":20800,"station_id":"st_d2m6c4gdas8pm72e190g","pricing_plan_id":"cebpf4jnsgd1na2vs0mg"},{"bike_id":"96900344-0f35-43d7-bb9f-033a68c2d7f2","system_id":"levelo_inurba_marseille","lat":43.30584,"lon":5.37219,"is_reserved":false,"is_disabled":true,"rental_uris":{"android":"levelo://app?vid=96900344-0f35-43d7-bb9f-033a68c2d7f2","ios":"levelo://app?vid=96900344-0f35-43d7-bb9f-033a68c2d7f2"},"vehicle_type_id":"4","last_reported":1761080954,"current_range_meters":20800,"station_id":"ce4bgqh2rcd13ifvqc4g","pricing_plan_id":"cebpf4jnsgd1na2vs0mg"},{"bike_id":"bda3ed1a-3199-4eb8-8229-577855d09dbb","system_id":"levelo_inurba_marseille","lat":43.3163,"lon":5.37876,"is_reserved":false,"is_disabled":false,"rental_uris":{"android":"levelo://app?vid=bda3ed1a-3199-4eb8-8229-577855d09dbb","ios":"levelo://app?vid=bda3ed1a-3199-4eb8-8229-577855d09dbb"},"vehicle_type_id":"4","last_reported":1761080954,"current_range_meters":20800,"station_id":"","pricing_plan_id":"cebpf4jnsgd1na2vs0mg"},{"bike_id":"de72d7d9-1a8a-4e16-8700-83632985e44d","system_id":"levelo_inurba_marseille","lat":43.299194,"lon":5.374763,"is_reserved":false,"is_disabled":false,"rental_uris":{"android":"levelo://app?vid=de72d7d9-1a8a-4e16-8700-83632985e44d","ios":"levelo://app?vid=de72d7d9-1a8a-4e16-8700-83632985e44d"},"vehicle_type_id":"4","last_reported":1761080954,"current_range_meters":20800,"station_id":"ce4bgjh2rcd13ifvqbg0","pricing_plan_id":"cebpf4jnsgd1na2vs0mg"},{"bike_id":"c48e1c5a-c54f-42bc-8855-3270216d7354","system_id":"levelo_inurba_marseille","lat":43.29528,"lon":5.38536,"is_reserved":false,"is_disabled":false,"rental_uris":{"android":"levelo://app?vid=c48e1c5a-c54f-42bc-8855-3270216d7354","ios":"levelo://app?vid=c48e1c5a-c54f-42bc-8855-3270216d7354"},"vehicle_type_id":"4","last_reported":1761080954,"current_range_meters":20800,"station_id":"ce4bgih2rcd13ifvqba0","pricing_plan_id":"cebpf4jnsgd1na2vs0mg"},{"bike_id":"cb85aad8-d890-4063-b7d1-2432b3cc6db5","system_id":"levelo_inurba_marseille","lat":43.28347,"lon":5.381,"is_reserved":false,"is_disabled":false,"rental_uris":{"android":"levelo://app?vid=cb85aad8-d890-4063-b7d1-2432b3cc6db5","ios":"levelo://app?vid=cb85aad8-d890-4063-b7d1-2432b3cc6db5"},"vehicle_type_id":"4","last_reported":1761080954,"current_range_meters":20800,"station_id":"ce4bh412rcd13ifvqdr0","pricing_plan_id":"cebpf4jnsgd1na2vs0mg"},{"bike_id":"80b11061-11ed-4305-bfc8-d78e1631b667","system_id":"levelo_inurba_marseille","lat":43.29919,"lon":5.37468,"is_reserved":false,"is_disabled":false,"rental_uris":{"android":"levelo://app?vid=80b11061-11ed-4305-bfc8-d78e1631b667","ios":"levelo://app?vid=80b11061-11ed-4305-bfc8-d78e1631b667"},"vehicle_type_id":"4","last_reported":1761080954,"current_range_meters":20800,"station_id":"ce4bgjh2rcd13ifvqbg0","pricing_plan_id":"cebpf4jnsgd1na2vs0mg"},{"bike_id":"559315b4-5ae1-4ebf-8567-218de93e617f","system_id":"levelo_inurba_marseille","lat":43.301435,"lon":5.387799,"is_reserved":false,"is_disabled":false,"rental_uris":{"android":"levelo://app?vid=559315b4-5ae1-4ebf-8567-218de93e617f","ios":"levelo://app?vid=559315b4-5ae1-4ebf-8567-218de93e617f"},"vehicle_type_id":"4","last_reported":1761080954,"current_range_meters":20800,"station_id":"ce4bghh2rcd13ifvqb60","pricing_plan_id":"cebpf4jnsgd1na2vs0mg"},{"bike_id":"9225b383-9698-440b-bc47-cf3b5ffb3cb2","system_id":"levelo_inurba_marseille","lat":43.31337,"lon":5.39673,"is_reserved":false,"is_disabled":false,"rental_uris":{"android":"levelo://app?vid=9225b383-9698-440b-bc47-cf3b5ffb3cb2","ios":"levelo://app?vid=9225b383-9698-440b-bc47-cf3b5ffb3cb2"},"vehicle_type_id":"4","last_reported":1761080954,"current_range_meters":20800,"station_id":"ce4bgvp2rcd13ifvqcu0","pricing_plan_id":"cebpf4jnsgd1na2vs0mg"},{"bike_id":"e5028a4d-025a-41c7-8b58-958687977dd4","system_id":"levelo_inurba_marseille","lat":43.29927,"lon":5.38841,"is_reserved":false,"is_disabled":false,"rental_uris":{"android":"levelo://app?vid=e5028a4d-025a-41c7-8b58-958687977dd4","ios":"levelo://app?vid=e5028a4d-025a-41c7-8b58-958687977dd4"},"vehicle_type_id":"4","last_reported":1761080954,"current_range_meters":21600,"station_id":"","pricing_plan_id":"cebpf4jnsgd1na2vs0mg"},{"bike_id":"9ba320bb-a319-4194-b38c-0c81bc4f0720","system_id":"levelo_inurba_marseille","lat":43.28831,"lon":5.35864,"is_reserved":false,"is_disabled":false,"rental_uris":{"android":"levelo://app?vid=9ba320bb-a319-4194-b38c-0c81bc4f0720","ios":"levelo://app?vid=9ba320bb-a319-4194-b38c-0c81bc4f0720"},"vehicle_type_id":"4","last_reported":1761080954,"current_range_meters":21600,"station_id":"ce4bhb12rcd13ifvqem0","pricing_plan_id":"cebpf4jnsgd1na2vs0mg"},{"bike_id":"98552c82-c336-432d-8e57-32303a14aa77","system_id":"levelo_inurba_marseille","lat":43.3081,"lon":5.38155,"is_reserved":false,"is_disabled":false,"rental_uris":{"android":"levelo://app?vid=98552c82-c336-432d-8e57-32303a14aa77","ios":"levelo://app?vid=98552c82-c336-432d-8e57-32303a14aa77"},"vehicle_type_id":"4","last_reported":1761080954,"current_range_meters":21600,"station_id":"ce4bgt12rcd13ifvqce0","pricing_plan_id":"cebpf4jnsgd1na2vs0mg"},{"bike_id":"07400bae-6660-48e7-b291-4f4876e146d8","system_id":"levelo_inurba_marseille","lat":43.3108,"lon":5.42429,"is_reserved":false,"is_disabled":true,"rental_uris":{"android":"levelo://app?vid=07400bae-6660-48e7-b291-4f4876e146d8","ios":"levelo://app?vid=07400bae-6660-48e7-b291-4f4876e146d8"},"vehicle_type_id":"4","last_reported":1761080954,"current_range_meters":21600,"station_id":"ce4bhp92rcd13ifvqhag","pricing_plan_id":"cebpf4jnsgd1na2vs0mg"},{"bike_id":"77f95169-f9be-4f42-8dbc-2881374ef5f1","system_id":"levelo_inurba_marseille","lat":43.292923,"lon":5.401116,"is_reserved":false,"is_disabled":false,"rental_uris":{"android":"levelo://app?vid=77f95169-f9be-4f42-8dbc-2881374ef5f1","ios":"levelo://app?vid=77f95169-f9be-4f42-8dbc-2881374ef5f1"},"vehicle_type_id":"4","last_reported":1761080954,"current_range_meters":21600,"station_id":"ce4bh312rcd13ifvqdk0","pricing_plan_id":"cebpf4jnsgd1na2vs0mg"},{"bike_id":"75eebb0f-2447-4bf8-b846-45b5b359059b","system_id":"levelo_inurba_marseille","lat":43.33761,"lon":5.37485,"is_reserved":false,"is_disabled":false,"rental_uris":{"android":"levelo://app?vid=75eebb0f-2447-4bf8-b846-45b5b359059b","ios":"levelo://app?vid=75eebb0f-2447-4bf8-b846-45b5b359059b"},"vehicle_type_id":"4","last_reported":1761080954,"current_range_meters":21600,"station_id":"","pricing_plan_id":"cebpf4jnsgd1na2vs0mg"},{"bike_id":"6a78da9c-5942-4898-8ffc-64c9513c6c75","system_id":"levelo_inurba_marseille","lat":43.28852,"lon":5.39298,"is_reserved":false,"is_disabled":false,"rental_uris":{"android":"levelo://app?vid=6a78da9c-5942-4898-8ffc-64c9513c6c75","ios":"levelo://app?vid=6a78da9c-5942-4898-8ffc-64c9513c6c75"},"vehicle_type_id":"4","last_reported":1761080954,"current_range_meters":21600,"station_id":"ce4bh2p2rcd13ifvqdi0","pricing_plan_id":"cebpf4jnsgd1na2vs0mg"},{"bike_id":"cffdb36e-06b9-4668-bbca-5cfd08613d9c","system_id":"levelo_inurba_marseille","lat":43.26055,"lon":5.39385,"is_reserved":false,"is_disabled":false,"rental_uris":{"android":"levelo://app?vid=cffdb36e-06b9-4668-bbca-5cfd08613d9c","ios":"levelo://app?vid=cffdb36e-06b9-4668-bbca-5cfd08613d9c"},