{"last_updated":1728061663,"ttl":60,"version":"2.2","data":{"bikes":[{"bike_id":"16517d3a-f3ef-4612-afa3-60a3009f02a5","system_id":"levelo_inurba_marseille","lat":43.28934,"lon":5.36638,"is_reserved":false,"is_disabled":false,"rental_uris":{"android":"levelo://app?vid=16517d3a-f3ef-4612-afa3-60a3009f02a5","ios":"levelo://app?vid=16517d3a-f3ef-4612-afa3-60a3009f02a5"},"vehicle_type_id":"4","last_reported":1728061663,"current_range_meters":24400,"station_id":"ce4bhap2rcd13ifvqek0","pricing_plan_id":"cebpf4jnsgd1na2vs0mg"},{"bike_id":"40ddeb56-afeb-414a-b821-3ce837b2f039","system_id":"levelo_inurba_marseille","lat":43.3236,"lon":5.38864,"is_reserved":false,"is_disabled":false,"rental_uris":{"android":"levelo://app?vid=40ddeb56-afeb-414a-b821-3ce837b2f039","ios":"levelo://app?vid=40ddeb56-afeb-414a-b821-3ce837b2f039"},"vehicle_type_id":"4","last_reported":1728061663,"current_range_meters":34800,"station_id":"ce4bhqp2rcd13ifvqhog","pricing_plan_id":"cebpf4jnsgd1na2vs0mg"},{"bike_id":"7d14ffcd-701f-423c-995d-258cdca29bd1","system_id":"levelo_inurba_marseille","lat":43.31988,"lon":5.38143,"is_reserved":false,"is_disabled":false,"rental_uris":{"android":"levelo://app?vid=7d14ffcd-701f-423c-995d-258cdca29bd1","ios":"levelo://app?vid=7d14ffcd-701f-423c-995d-258cdca29bd1"},"vehicle_type_id":"4","last_reported":1728061663,"current_range_meters":26000,"station_id":"ce4bhr12rcd13ifvqhpg","pricing_plan_id":"cebpf4jnsgd1na2vs0mg"},{"bike_id":"8a3a6925-54af-415d-a586-6b46aa2932dd","system_id":"levelo_inurba_marseille","lat":43.31269,"lon":5.36853,"is_reserved":false,"is_disabled":false,"rental_uris":{"android":"levelo://app?vid=8a3a6925-54af-415d-a586-6b46aa2932dd","ios":"levelo://app?vid=8a3a6925-54af-415d-a586-6b46aa2932dd"},"vehicle_type_id":"4","last_reported":1728061663,"current_range_meters":38400,"station_id":"","pricing_plan_id":"cebpf4jnsgd1na2vs0mg"},{"bike_id":"b2b337d3-80bd-4d84-92c7-3ebcc370f110","system_id":"levelo_inurba_marseille","lat":43.28855,"lon":5.35855,"is_reserved":false,"is_disabled":false,"rental_uris":{"android":"levelo://app?vid=b2b337d3-80bd-4d84-92c7-3ebcc370f110","ios":"levelo://app?vid=b2b337d3-80bd-4d84-92c7-3ebcc370f110"},"vehicle_type_id":"4","last_reported":1728061663,"current_range_meters":25600,"station_id":"ce4bhb12rcd13ifvqem0","pricing_plan_id":"cebpf4jnsgd1na2vs0mg"},{"bike_id":"0ab31a2b-100e-46ba-8518-e3de7fc7122e","system_id":"levelo_inurba_marseille","lat":43.33749,"lon":5.37445,"is_reserved":false,"is_disabled":false,"rental_uris":{"android":"levelo://app?vid=0ab31a2b-100e-46ba-8518-e3de7fc7122e","ios":"levelo://app?vid=0ab31a2b-100e-46ba-8518-e3de7fc7122e"},"vehicle_type_id":"4","last_reported":1728061663,"current_range_meters":36800,"station_id":"","pricing_plan_id":"cebpf4jnsgd1na2vs0mg"},{"bike_id":"756088e4-bd38-4606-aa6f-cbbf1461af00","system_id":"levelo_inurba_marseille","lat":43.22936,"lon":5.35378,"is_reserved":false,"is_disabled":false,"rental_uris":{"android":"levelo://app?vid=756088e4-bd38-4606-aa6f-cbbf1461af00","ios":"levelo://app?vid=756088e4-bd38-4606-aa6f-cbbf1461af00"},"vehicle_type_id":"4","last_reported":1728061663,"current_range_meters":11200,"station_id":"cpo3532slgdg3j2ikp40","pricing_plan_id":"cebpf4jnsgd1na2vs0mg"},{"bike_id":"96d1a34d-a83c-47ea-95f2-198ef4c3ce19","system_id":"levelo_inurba_marseille","lat":43.2738,"lon":5.36253,"is_reserved":false,"is_disabled":false,"rental_uris":{"android":"levelo://app?vid=96d1a34d-a83c-47ea-95f2-198ef4c3ce19","ios":"levelo://app?vid=96d1a34d-a83c-47ea-95f2-198ef4c3ce19"},"vehicle_type_id":"4","last_reported":1728061663,"current_range_meters":24000,"station_id":"ce4bhbh2rcd13ifvqeo0","pricing_plan_id":"cebpf4jnsgd1na2vs0mg"},{"bike_id":"d8080315-7183-4b7c-8aca-4d9ded222fc3","system_id":"levelo_inurba_marseille","lat":43.275462,"lon":5.38435,"is_reserved":false,"is_disabled":false,"rental_uris":{"android":"levelo://app?vid=d8080315-7183-4b7c-8aca-4d9ded222fc3","ios":"levelo://app?vid=d8080315-7183-4b7c-8aca-4d9ded222fc3"},"vehicle_type_id":"4","last_reported":1728061663,"current_range_meters":38000,"station_id":"ce4bhh92rcd13ifvqfi0","pricing_plan_id":"cebpf4jnsgd1na2vs0mg"},{"bike_id":"e4a60b1a-8449-460e-bdb8-eaa39ece2616","system_id":"levelo_inurba_marseille","lat":43.30123,"lon":5.38785,"is_reserved":false,"is_disabled":false,"rental_uris":{"android":"levelo://app?vid=e4a60b1a-8449-460e-bdb8-eaa39ece2616","ios":"levelo://app?vid=e4a60b1a-8449-460e-bdb8-eaa39ece2616"},"vehicle_type_id":"4","last_reported":1728061663,"current_range_meters":10800,"station_id":"ce4bghh2rcd13ifvqb60","pricing_plan_id":"cebpf4jnsgd1na2vs0mg"},{"bike_id":"b7de9bed-2028-4017-b395-57833214fc5b","system_id":"levelo_inurba_marseille","lat":43.28476,"lon":5.384229,"is_reserved":false,"is_disabled":false,"rental_uris":{"android":"levelo://app?vid=b7de9bed-2028-4017-b395-57833214fc5b","ios":"levelo://app?vid=b7de9bed-2028-4017-b395-57833214fc5b"},"vehicle_type_id":"4","last_reported":1728061663,"current_range_meters":19600,"station_id":"ce4bh512rcd13ifvqe3g","pricing_plan_id":"cebpf4jnsgd1na2vs0mg"},{"bike_id":"1b7e9898-6024-4b36-a358-8021607ee9fa","system_id":"levelo_inurba_marseille","lat":43.27667,"lon":5.38877,"is_reserved":false,"is_disabled":false,"rental_uris":{"android":"levelo://app?vid=1b7e9898-6024-4b36-a358-8021607ee9fa","ios":"levelo://app?vid=1b7e9898-6024-4b36-a358-8021607ee9fa"},"vehicle_type_id":"4","last_reported":1728061663,"current_range_meters":6000,"station_id":"ce4bhi12rcd13ifvqfo0","pricing_plan_id":"cebpf4jnsgd1na2vs0mg"},{"bike_id":"c3765099-2dd9-4d5b-b287-ee92e5a2e48a","system_id":"levelo_inurba_marseille","lat":43.292267,"lon":5.360581,"is_reserved":false,"is_disabled":false,"rental_uris":{"android":"levelo://app?vid=c3765099-2dd9-4d5b-b287-ee92e5a2e48a","ios":"levelo://app?vid=c3765099-2dd9-4d5b-b287-ee92e5a2e48a"},"vehicle_type_id":"4","last_reported":1728061663,"current_range_meters":24000,"station_id":"ce4bhbh2rcd13ifvqeqg","pricing_plan_id":"cebpf4jnsgd1na2vs0mg"},{"bike_id":"e1496217-c799-4d7d-832d-dd18a556c998","system_id":"levelo_inurba_marseille","lat":43.31997,"lon":5.38177,"is_reserved":false,"is_disabled":false,"rental_uris":{"android":"levelo://app?vid=e1496217-c799-4d7d-832d-dd18a556c998","ios":"levelo://app?vid=e1496217-c799-4d7d-832d-dd18a556c998"},"vehicle_type_id":"4","last_reported":1728061663,"current_range_meters":29600,"station_id":"ce4bhr12rcd13ifvqhpg","pricing_plan_id":"cebpf4jnsgd1na2vs0mg"},{"bike_id":"e353cb12-3135-48e6-baca-b92129025821","system_id":"levelo_inurba_marseille","lat":43.32537,"lon":5.41463,"is_reserved":false,"is_disabled":false,"rental_uris":{"android":"levelo://app?vid=e353cb12-3135-48e6-baca-b92129025821","ios":"levelo://app?vid=e353cb12-3135-48e6-baca-b92129025821"},"vehicle_type_id":"4","last_reported":1728061663,"current_range_meters":16400,"station_id":"ce4bhq12rcd13ifvqhhg","pricing_plan_id":"cebpf4jnsgd1na2vs0mg"},{"bike_id":"5c2a8f15-517d-44a8-8899-b5494f8a5f31","system_id":"levelo_inurba_marseille","lat":43.29308,"lon":5.37195,"is_reserved":false,"is_disabled":false,"rental_uris":{"android":"levelo://app?vid=5c2a8f15-517d-44a8-8899-b5494f8a5f31","ios":"levelo://app?vid=5c2a8f15-517d-44a8-8899-b5494f8a5f31"},"vehicle_type_id":"4","last_reported":1728061663,"current_range_meters":38800,"station_id":"ce4bgh92rcd13ifvqb40","pricing_plan_id":"cebpf4jnsgd1na2vs0mg"},{"bike_id":"594217d7-ca5d-46e2-b492-7b3c3a57840e","system_id":"levelo_inurba_marseille","lat":43.28845,"lon":5.35856,"is_reserved":false,"is_disabled":false,"rental_uris":{"android":"levelo://app?vid=594217d7-ca5d-46e2-b492-7b3c3a57840e","ios":"levelo://app?vid=594217d7-ca5d-46e2-b492-7b3c3a57840e"},"vehicle_type_id":"4","last_reported":1728061663,"current_range_meters":36800,"station_id":"ce4bhb12rcd13ifvqem0","pricing_plan_id":"cebpf4jnsgd1na2vs0mg"},{"bike_id":"e6b2df58-b4a0-4aec-933d-a62e42f34d34","system_id":"levelo_inurba_marseille","lat":43.33723,"lon":5.39199,"is_reserved":false,"is_disabled":false,"rental_uris":{"android":"levelo://app?vid=e6b2df58-b4a0-4aec-933d-a62e42f34d34","ios":"levelo://app?vid=e6b2df58-b4a0-4aec-933d-a62e42f34d34"},"vehicle_type_id":"4","last_reported":1728061663,"current_range_meters":18800,"station_id":"ce4bhr92rcd13ifvqhsg","pricing_plan_id":"cebpf4jnsgd1na2vs0mg"},{"bike_id":"19e79497-4ecf-4aea-9e37-1cce995c27cd","system_id":"levelo_inurba_marseille","lat":43.32335,"lon":5.40628,"is_reserved":false,"is_disabled":false,"rental_uris":{"android":"levelo://app?vid=19e79497-4ecf-4aea-9e37-1cce995c27cd","ios":"levelo://app?vid=19e79497-4ecf-4aea-9e37-1cce995c27cd"},"vehicle_type_id":"4","last_reported":1728061663,"current_range_meters":6800,"station_id":"ce4bhq92rcd13ifvqhjg","pricing_plan_id":"cebpf4jnsgd1na2vs0mg"},{"bike_id":"de49b86e-d906-430d-be0c-1e2f3fa732c2","system_id":"levelo_inurba_marseille","lat":43.30127,"lon":5.398575,"is_reserved":false,"is_disabled":false,"rental_uris":{"android":"levelo://app?vid=de49b86e-d906-430d-be0c-1e2f3fa732c2","ios":"levelo://app?vid=de49b86e-d906-430d-be0c-1e2f3fa732c2"},"vehicle_type_id":"4","last_reported":1728061663,"current_range_meters":22400,"station_id":"ce4bh112rcd13ifvqda0","pricing_plan_id":"cebpf4jnsgd1na2vs0mg"},{"bike_id":"d77938b7-ff1e-465c-a8b9-4b07085a5cc9","system_id":"levelo_inurba_marseille","lat":43.2307,"lon":5.35496,"is_reserved":false,"is_disabled":false,"rental_uris":{"android":"levelo://app?vid=d77938b7-ff1e-465c-a8b9-4b07085a5cc9","ios":"levelo://app?vid=d77938b7-ff1e-465c-a8b9-4b07085a5cc9"},"vehicle_type_id":"4","last_reported":1728061663,"current_range_meters":19200,"station_id":"cpo3342slgdg3j2ifvpg","pricing_plan_id":"cebpf4jnsgd1na2vs0mg"},{"bike_id":"4971a4ad-e6d5-4a02-88ff-e2a9874398f0","system_id":"levelo_inurba_marseille","lat":43.24194,"lon":5.36522,"is_reserved":false,"is_disabled":false,"rental_uris":{"android":"levelo://app?vid=4971a4ad-e6d5-4a02-88ff-e2a9874398f0","ios":"levelo://app?vid=4971a4ad-e6d5-4a02-88ff-e2a9874398f0"},"vehicle_type_id":"4","last_reported":1728061663,"current_range_meters":10000,"station_id":"cpo36qri1sfpv3e86is0","pricing_plan_id":"cebpf4jnsgd1na2vs0mg"},{"bike_id":"566a9cf0-f209-4c9f-9e1e-a43a024de395","system_id":"levelo_inurba_marseille","lat":43.27382,"lon":5.3626,"is_reserved":false,"is_disabled":false,"rental_uris":{"android":"levelo://app?vid=566a9cf0-f209-4c9f-9e1e-a43a024de395","ios":"levelo://app?vid=566a9cf0-f209-4c9f-9e1e-a43a024de395"},"vehicle_type_id":"4","last_reported":1728061663,"current_range_meters":24800,"station_id":"ce4bhbh2rcd13ifvqeo0","pricing_plan_id":"cebpf4jnsgd1na2vs0mg"},{"bike_id":"b73551f1-4737-42f3-8efd-5f2fca843848","system_id":"levelo_inurba_marseille","lat":43.29907,"lon":5.43681,"is_reserved":false,"is_disabled":false,"rental_uris":{"android":"levelo://app?vid=b73551f1-4737-42f3-8efd-5f2fca843848","ios":"levelo://app?vid=b73551f1-4737-42f3-8efd-5f2fca843848"},"vehicle_type_id":"4","last_reported":1728061663,"current_range_meters":16800,"station_id":"ce4bhpp2rcd13ifvqhfg","pricing_plan_id":"cebpf4jnsgd1na2vs0mg"},{"bike_id":"9e57d33e-0f4f-4bf1-b5b4-28599a657e09","system_id":"levelo_inurba_marseille","lat":43.28418,"lon":5.34991,"is_reserved":false,"is_disabled":false,"rental_uris":{"android":"levelo://app?vid=9e57d33e-0f4f-4bf1-b5b4-28599a657e09","ios":"levelo://app?vid=9e57d33e-0f4f-4bf1-b5b4-28599a657e09"},"vehicle_type_id":"4","last_reported":1728061663,"current_range_meters":3600,"station_id":"ce4bhbh2rcd13ifvqepg","pricing_plan_id":"cebpf4jnsgd1na2vs0mg"},{"bike_id":"bea39150-1e51-4810-96cb-c2ed0f364cc0","system_id":"levelo_inurba_marseille","lat":43.29883,"lon":5.3891,"is_reserved":false,"is_disabled":false,"rental_uris":{"android":"levelo://app?vid=bea39150-1e51-4810-96cb-c2ed0f364cc0","ios":"levelo://app?vid=bea39150-1e51-4810-96cb-c2ed0f364cc0"},"vehicle_type_id":"4","last_reported":1728061663,"current_range_meters":8800,"station_id":"ce4bh392rcd13ifvqdl0","pricing_plan_id":"cebpf4jnsgd1na2vs0mg"},{"bike_id":"e07069dd-8b4f-4c95-9e84-6f5162f886c9","system_id":"levelo_inurba_marseille","lat":43.24999,"lon":5.38929,"is_reserved":false,"is_disabled":false,"rental_uris":{"android":"levelo://app?vid=e07069dd-8b4f-4c95-9e84-6f5162f886c9","ios":"levelo://app?vid=e07069dd-8b4f-4c95-9e84-6f5162f886c9"},"vehicle_type_id":"4","last_reported":1728061663,"current_range_meters":4800,"station_id":"ce4bhgp2rcd13ifvqfd0","pricing_plan_id":"cebpf4jnsgd1na2vs0mg"},{"bike_id":"e46829ef-3f66-43fb-9028-92f7f9a4f90d","system_id":"levelo_inurba_marseille","lat":43.28152,"lon":5.42649,"is_reserved":false,"is_disabled":false,"rental_uris":{"android":"levelo://app?vid=e46829ef-3f66-43fb-9028-92f7f9a4f90d","ios":"levelo://app?vid=e46829ef-3f66-43fb-9028-92f7f9a4f90d"},"vehicle_type_id":"4","last_reported":1728061663,"current_range_meters":32400,"station_id":"ce4bhnh2rcd13ifvqgug","pricing_plan_id":"cebpf4jnsgd1na2vs0mg"},{"bike_id":"793d2750-bec6-4f68-b94e-62b61c9353a4","system_id":"levelo_inurba_marseille","lat":43.3088,"lon":5.37188,"is_reserved":false,"is_disabled":false,"rental_uris":{"android":"levelo://app?vid=793d2750-bec6-4f68-b94e-62b61c9353a4","ios":"levelo://app?vid=793d2750-bec6-4f68-b94e-62b61c9353a4"},"vehicle_type_id":"4","last_reported":1728061663,"current_range_meters":36800,"station_id":"ce4bguh2rcd13ifvqckg","pricing_plan_id":"cebpf4jnsgd1na2vs0mg"},{"bike_id":"aba834c5-9611-41fc-9b0e-4c96bf1d26da","system_id":"levelo_inurba_marseille","lat":43.28409,"lon":5.37518,"is_reserved":false,"is_disabled":false,"rental_uris":{"android":"levelo://app?vid=aba834c5-9611-41fc-9b0e-4c96bf1d26da","ios":"levelo://app?vid=aba834c5-9611-41fc-9b0e-4c96bf1d26da"},"vehicle_type_id":"4","last_reported":1728061663,"current_range_meters":2800,"station_id":"ce4bh412rcd13ifvqds0","pricing_plan_id":"cebpf4jnsgd1na2vs0mg"},{"bike_id":"790d9bd8-c418-4380-b17a-c8ef0a18975e","system_id":"levelo_inurba_marseille","lat":43.2861,"lon":5.35105,"is_reserved":false,"is_disabled":false,"rental_uris":{"android":"levelo://app?vid=790d9bd8-c418-4380-b17a-c8ef0a18975e","ios":"levelo://app?vid=790d9bd8-c418-4380-b17a-c8ef0a18975e"},"vehicle_type_id":"4","last_reported":1728061663,"current_range_meters":16400,"station_id":"ce4bhch2rcd13ifvqeug","pricing_plan_id":"cebpf4jnsgd1na2vs0mg"},{"bike_id":"06c8346a-637c-4849-a1da-4b25e29c3d75","system_id":"levelo_inurba_marseille","lat":43.245911,"lon":5.395273,"is_reserved":false,"is_disabled":false,"rental_uris":{"android":"levelo://app?vid=06c8346a-637c-4849-a1da-4b25e29c3d75","ios":"levelo://app?vid=06c8346a-637c-4849-a1da-4b25e29c3d75"},"vehicle_type_id":"4","last_reported":1728061663,"current_range_meters":28400,"station_id":"ce4bhlp2rcd13ifvqgjg","pricing_plan_id":"cebpf4jnsgd1na2vs0mg"},{"bike_id":"dd956da7-8b4f-4640-a190-051caf0d945c","system_id":"levelo_inurba_marseille","lat":43.28428,"lon":5.34993,"is_reserved":false,"is_disabled":false,"rental_uris":{"android":"levelo://app?vid=dd956da7-8b4f-4640-a190-051caf0d945c","ios":"levelo://app?vid=dd956da7-8b4f-4640-a190-051caf0d945c"},"vehicle_type_id":"4","last_reported":1728061663,"current_range_meters":36400,"station_id":"ce4bhbh2rcd13ifvqepg","pricing_plan_id":"cebpf4jnsgd1na2vs0mg"},{"bike_id":"b8217c8f-92a4-47e6-96fc-626571965d9c","system_id":"levelo_inurba_marseille","lat":43.29677,"lon":5.37285,"is_reserved":false,"is_disabled":false,"rental_uris":{"android":"levelo://app?vid=b8217c8f-92a4-47e6-96fc-626571965d9c","ios":"levelo://app?vid=b8217c8f-92a4-47e6-96fc-626571965d9c"},"vehicle_type_id":"4","last_reported":1728061663,"current_range_meters":35200,"station_id":"ce4bgk12rcd13ifvqbj0","pricing_plan_id":"cebpf4jnsgd1na2vs0mg"},{"bike_id":"6102bacc-0bb3-4c79-854a-2d4ec81b21c1","system_id":"levelo_inurba_marseille","lat":43.31724,"lon":5.42396,"is_reserved":false,"is_disabled":false,"rental_uris":{"android":"levelo://app?vid=6102bacc-0bb3-4c79-854a-2d4ec81b21c1","ios":"levelo://app?vid=6102bacc-0bb3-4c79-854a-2d4ec81b21c1"},"vehicle_type_id":"4","last_reported":1728061663,"current_range_meters":38800,"station_id":"ce4bhp92rcd13ifvqhbg","pricing_plan_id":"cebpf4jnsgd1na2vs0mg"},{"bike_id":"6f9ea692-b854-4466-8783-f86828c11080","system_id":"levelo_inurba_marseille","lat":43.32538,"lon":5.41463,"is_reserved":false,"is_disabled":false,"rental_uris":{"android":"levelo://app?vid=6f9ea692-b854-4466-8783-f86828c11080","ios":"levelo://app?vid=6f9ea692-b854-4466-8783-f86828c11080"},"vehicle_type_id":"4","last_reported":1728061663,"current_range_meters":39200,"station_id":"ce4bhq12rcd13ifvqhhg","pricing_plan_id":"cebpf4jnsgd1na2vs0mg"},{"bike_id":"2a18827c-587e-4b05-9d80-f5f36f117044","system_id":"levelo_inurba_marseille","lat":43.29579,"lon":5.36743,"is_reserved":false,"is_disabled":false,"rental_uris":{"android":"levelo://app?vid=2a18827c-587e-4b05-9d80-f5f36f117044","ios":"levelo://app?vid=2a18827c-587e-4b05-9d80-f5f36f117044"},"vehicle_type_id":"4","last_reported":1728061663,"current_range_meters":38800,"station_id":"ce4bgph2rcd13ifvqc2g","pricing_plan_id":"cebpf4jnsgd1na2vs0mg"},{"bike_id":"274606a2-b61c-44ea-9139-24cfbb128793","system_id":"levelo_inurba_marseille","lat":43.29026,"lon":5.38649,"is_reserved":false,"is_disabled":false,"rental_uris":{"android":"levelo://app?vid=274606a2-b61c-44ea-9139-24cfbb128793","ios":"levelo://app?vid=274606a2-b61c-44ea-9139-24cfbb128793"},"vehicle_type_id":"4","last_reported":1728061663,"current_range_meters":12000,"station_id":"ce4bh4p2rcd13ifvqe0g","pricing_plan_id":"cebpf4jnsgd1na2vs0mg"},{"bike_id":"1a1d5d28-b4c5-4e7d-b4e8-952ef4473356","system_id":"levelo_inurba_marseille","lat":43.2795,"lon":5.41055,"is_reserved":false,"is_disabled":false,"rental_uris":{"android":"levelo://app?vid=1a1d5d28-b4c5-4e7d-b4e8-952ef4473356","ios":"levelo://app?vid=1a1d5d28-b4c5-4e7d-b4e8-952ef4473356"},"vehicle_type_id":"4","last_reported":1728061663,"current_range_meters":23200,"station_id":"ce4bhnp2rcd13ifvqh0g","pricing_plan_id":"cebpf4jnsgd1na2vs0mg"},{"bike_id":"e6311d41-962d-4b57-bc54-dd1308fe18e9","system_id":"levelo_inurba_marseille","lat":43.2817,"lon":5.42843,"is_reserved":false,"is_disabled":false,"rental_uris":{"android":"levelo://app?vid=e6311d41-962d-4b57-bc54-dd1308fe18e9","ios":"levelo://app?vid=e6311d41-962d-4b57-bc54-dd1308fe18e9"},"vehicle_type_id":"4","last_reported":1728061663,"current_range_meters":9200,"station_id":"ce4bhnh2rcd13ifvqgug","pricing_plan_id":"cebpf4jnsgd1na2vs0mg"},{"bike_id":"e08c062f-61a2-493a-875d-6e296e2965d6","system_id":"levelo_inurba_marseille","lat":43.33739,"lon":5.37451,"is_reserved":false,"is_disabled":false,"rental_uris":{"android":"levelo://app?vid=e08c062f-61a2-493a-875d-6e296e2965d6","ios":"levelo://app?vid=e08c062f-61a2-493a-875d-6e296e2965d6"},"vehicle_type_id":"4","last_reported":1728061663,"current_range_meters":34000,"station_id":"","pricing_plan_id":"cebpf4jnsgd1na2vs0mg"},{"bike_id":"9525efaf-cb49-4d84-832f-0d1601ae3301","system_id":"levelo_inurba_marseille","lat":43.281545,"lon":5.426499,"is_reserved":false,"is_disabled":false,"rental_uris":{"android":"levelo://app?vid=9525efaf-cb49-4d84-832f-0d1601ae3301","ios":"levelo://app?vid=9525efaf-cb49-4d84-832f-0d1601ae3301"},"vehicle_type_id":"4","last_reported":1728061663,"current_range_meters":26800,"station_id":"ce4bhnh2rcd13ifvqgug","pricing_plan_id":"cebpf4jnsgd1na2vs0mg"},{"bike_id":"d2940846-8984-465b-bbaa-9e158fa700fd","system_id":"levelo_inurba_marseille","lat":43.23963,"lon":5.36645,"is_reserved":false,"is_disabled":false,"rental_uris":{"android":"levelo://app?vid=d2940846-8984-465b-bbaa-9e158fa700fd","ios":"levelo://app?vid=d2940846-8984-465b-bbaa-9e158fa700fd"},"vehicle_type_id":"4","last_reported":1728061663,"current_range_meters":20800,"station_id":"ce4bhi12rcd13ifvqfp0","pricing_plan_id":"cebpf4jnsgd1na2vs0mg"},{"bike_id":"ca114be5-3eee-4373-9671-9b08474d56cb","system_id":"levelo_inurba_marseille","lat":43.30417,"lon":5.41293,"is_reserved":false,"is_disabled":false,"rental_uris":{"android":"levelo://app?vid=ca114be5-3eee-4373-9671-9b08474d56cb","ios":"levelo://app?vid=ca114be5-3eee-4373-9671-9b08474d56cb"},"vehicle_type_id":"4","last_reported":1728061663,"current_range_meters":8800,"station_id":"ce4bhop2rcd13ifvqh8g","pricing_plan_id":"cebpf4jnsgd1na2vs0mg"},{"bike_id":"9261acd9-5c1c-49f7-b599-22d793d78c68","system_id":"levelo_inurba_marseille","lat":43.31691,"lon":5.40463,"is_reserved":false,"is_disabled":false,"rental_uris":{"android":"levelo://app?vid=9261acd9-5c1c-49f7-b599-22d793d78c68","ios":"levelo://app?vid=9261acd9-5c1c-49f7-b599-22d793d78c68"},"vehicle_type_id":"4","last_reported":1728061663,"current_range_meters":10000,"station_id":"ce4bh012rcd13ifvqd00","pricing_plan_id":"cebpf4jnsgd1na2vs0mg"},{"bike_id":"528d1cd2-f177-4cc2-b07f-78001540d578","system_id":"levelo_inurba_marseille","lat":43.23966,"lon":5.36631,"is_reserved":false,"is_disabled":false,"rental_uris":{"android":"levelo://app?vid=528d1cd2-f177-4cc2-b07f-78001540d578","ios":"levelo://app?vid=528d1cd2-f177-4cc2-b07f-78001540d578"},"vehicle_type_id":"4","last_reported":1728061663,"current_range_meters":4000,"station_id":"ce4bhi12rcd13ifvqfp0","pricing_plan_id":"cebpf4jnsgd1na2vs0mg"},{"bike_id":"395e6711-03de-4ca7-81bc-616d296fac31","system_id":"levelo_inurba_marseille","lat":43.2738,"lon":5.36252,"is_reserved":false,"is_disabled":false,"rental_uris":{"android":"levelo://app?vid=395e6711-03de-4ca7-81bc-616d296fac31","ios":"levelo://app?vid=395e6711-03de-4ca7-81bc-616d296fac31"},"vehicle_type_id":"4","last_reported":1728061663,"current_range_meters":19200,"station_id":"ce4bhbh2rcd13ifvqeo0","pricing_plan_id":"cebpf4jnsgd1na2vs0mg"},{"bike_id":"fd872ba7-9877-4e67-9269-d8995abba644","system_id":"levelo_inurba_marseille","lat":43.22936,"lon":5.35378,"is_reserved":false,"is_disabled":false,"rental_uris":{"android":"levelo://app?vid=fd872ba7-9877-4e67-9269-d8995abba644","ios":"levelo://app?vid=fd872ba7-9877-4e67-9269-d8995abba644"},"vehicle_type_id":"4","last_reported":1728061663,"current_range_meters":19200,"station_id":"cpo3532slgdg3j2ikp40","pricing_plan_id":"cebpf4jnsgd1na2vs0mg"},{"bike_id":"fe6b6779-6442-4bdf-a461-ceb7f0a1c2be","system_id":"levelo_inurba_marseille","lat":43.29973,"lon":5.37184,"is_reserved":false,"is_disabled":false,"rental_uris":{"android":"levelo://app?vid=fe6b6779-6442-4bdf-a461-ceb7f0a1c2be","ios":"levelo://app?vid=fe6b6779-6442-4bdf-a461-ceb7f0a1c2be"},"vehicle_type_id":"4","last_reported":1728061663,"current_range_meters":9600,"station_id":"ce4bgr92rcd13ifvqc7g","pricing_plan_id":"cebpf4jnsgd1na2vs0mg"},{"bike_id":"4b961ea2-ab36-434b-97bc-1d50f909b105","system_id":"levelo_inurba_marseille","lat":43.27209,"lon":5.39184,"is_reserved":false,"is_disabled":false,"rental_uris":{"android":"levelo://app?vid=4b961ea2-ab36-434b-97bc-1d50f909b105","ios":"levelo://app?vid=4b961ea2-ab36-434b-97bc-1d50f909b105"},"vehicle_type_id":"4","last_reported":1728061663,"current_range_meters":20800,"station_id":"ce4bhhp2rcd13ifvqfm0","pricing_plan_id":"cebpf4jnsgd1na2vs0mg"},{"bike_id":"a7842cce-a67d-4a7d-8610-50d3c5150b40","system_id":"levelo_inurba_marseille","lat":43.32365,"lon":5.38885,"is_reserved":false,"is_disabled":false,"rental_uris":{"android":"levelo://app?vid=a7842cce-a67d-4a7d-8610-50d3c5150b40","ios":"levelo://app?vid=a7842cce-a67d-4a7d-8610-50d3c5150b40"},"vehicle_type_id":"4","last_reported":1728061663,"current_range_meters":36400,"station_id":"ce4bhqp2rcd13ifvqhog","pricing_plan_id":"cebpf4jnsgd1na2vs0mg"},{"bike_id":"c56c2ea5-1d56-4be1-9925-f0c662934559","system_id":"levelo_inurba_marseille","lat":43.31317,"lon":5.39702,"is_reserved":false,"is_disabled":false,"rental_uris":{"android":"levelo://app?vid=c56c2ea5-1d56-4be1-9925-f0c662934559","ios":"levelo://app?vid=c56c2ea5-1d56-4be1-9925-f0c662934559"},"vehicle_type_id":"4","last_reported":1728061663,"current_range_meters":5600,"station_id":"ce4bgvp2rcd13ifvqcu0","pricing_plan_id":"cebpf4jnsgd1na2vs0mg"},{"bike_id":"7d19365b-d52b-4462-88b2-358e1a21e4bc","system_id":"levelo_inurba_marseille","lat":43.279448,"lon":5.406182,"is_reserved":false,"is_disabled":false,"rental_uris":{"android":"levelo://app?vid=7d19365b-d52b-4462-88b2-358e1a21e4bc","ios":"levelo://app?vid=7d19365b-d52b-4462-88b2-358e1a21e4bc"},"vehicle_type_id":"4","last_reported":1728061663,"current_range_meters":27600,"station_id":"ce4bhnh2rcd13ifvqgtg","pricing_plan_id":"cebpf4jnsgd1na2vs0mg"},{"bike_id":"1cf311fc-8ecc-43e2-a7a5-a0b7c79f4001","system_id":"levelo_inurba_marseille","lat":43.28615,"lon":5.35104,"is_reserved":false,"is_disabled":false,"rental_uris":{"android":"levelo://app?vid=1cf311fc-8ecc-43e2-a7a5-a0b7c79f4001","ios":"levelo://app?vid=1cf311fc-8ecc-43e2-a7a5-a0b7c79f4001"},"vehicle_type_id":"4","last_reported":1728061663,"current_range_meters":27200,"station_id":"ce4bhch2rcd13ifvqeug","pricing_plan_id":"cebpf4jnsgd1na2vs0mg"},{"bike_id":"65e411ac-f336-4f62-ac3d-576503865245","system_id":"levelo_inurba_marseille","lat":43.33023,"lon":5.39039,"is_reserved":false,"is_disabled":false,"rental_uris":{"android":"levelo://app?vid=65e411ac-f336-4f62-ac3d-576503865245","ios":"levelo://app?vid=65e411ac-f336-4f62-ac3d-576503865245"},"vehicle_type_id":"4","last_reported":1728061663,"current_range_meters":22400,"station_id":"ce4bhr92rcd13ifvqhrg","pricing_plan_id":"cebpf4jnsgd1na2vs0mg"},{"bike_id":"50e6aeb8-7e25-4c09-9781-24c9f5d23dff","system_id":"levelo_inurba_marseille","lat":43.33747,"lon":5.37447,"is_reserved":false,"is_disabled":false,"rental_uris":{"android":"levelo://app?vid=50e6aeb8-7e25-4c09-9781-24c9f5d23dff","ios":"levelo://app?vid=50e6aeb8-7e25-4c09-9781-24c9f5d23dff"},"vehicle_type_id":"4","last_reported":1728061663,"current_range_meters":31200,"station_id":"","pricing_plan_id":"cebpf4jnsgd1na2vs0mg"},{"bike_id":"b7bcd165-9a8c-4a48-9c22-f02fdf118c85","system_id":"levelo_inurba_marseille","lat":43.28409,"lon":5.37524,"is_reserved":false,"is_disabled":false,"rental_uris":{"android":"levelo://app?vid=b7bcd165-9a8c-4a48-9c22-f02fdf118c85","ios":"levelo://app?vid=b7bcd165-9a8c-4a48-9c22-f02fdf118c85"},"vehicle_type_id":"4","last_reported":1728061663,"current_range_meters":9200,"station_id":"ce4bh412rcd13ifvqds0","pricing_plan_id":"cebpf4jnsgd1na2vs0mg"},{"bike_id":"8ea2686b-6388-4664-899a-0282e4affaad","system_id":"levelo_inurba_marseille","lat":43.28658,"lon":5.38668,"is_reserved":false,"is_disabled":false,"rental_uris":{"android":"levelo://app?vid=8ea2686b-6388-4664-899a-0282e4affaad","ios":"levelo://app?vid=8ea2686b-6388-4664-899a-0282e4affaad"},"vehicle_type_id":"4","last_reported":1728061663,"current_range_meters":16000,"station_id":"ce4bh492rcd13ifvqdug","pricing_plan_id":"cebpf4jnsgd1na2vs0mg"},{"bike_id":"83438011-0acf-4e11-8f3d-605fb7425ece","system_id":"levelo_inurba_marseille","lat":43.29779,"lon":5.39338,"is_reserved":false,"is_disabled":false,"rental_uris":{"android":"levelo://app?vid=83438011-0acf-4e11-8f3d-605fb7425ece","ios":"levelo://app?vid=83438011-0acf-4e11-8f3d-605fb7425ece"},"vehicle_type_id":"4","last_reported":1728061663,"current_range_meters":37600,"station_id":"chh1huq6cuj3fo74tm60","pricing_plan_id":"cebpf4jnsgd1na2vs0mg"},{"bike_id":"5fb5bb24-e866-4097-9080-cb83f270597c","system_id":"levelo_inurba_marseille","lat":43.31991,"lon":5.38164,"is_reserved":false,"is_disabled":false,"rental_uris":{"android":"levelo://app?vid=5fb5bb24-e866-4097-9080-cb83f270597c","ios":"levelo://app?vid=5fb5bb24-e866-4097-9080-cb83f270597c"},"vehicle_type_id":"4","last_reported":1728061663,"current_range_meters":37600,"station_id":"ce4bhr12rcd13ifvqhpg","pricing_plan_id":"cebpf4jnsgd1na2vs0mg"},{"bike_id":"626c468c-0a9a-4627-b650-393de33283fa","system_id":"levelo_inurba_marseille","lat":43.27286,"lon":5.38553,"is_reserved":false,"is_disabled":false,"rental_uris":{"android":"levelo://app?vid=626c468c-0a9a-4627-b650-393de33283fa","ios":"levelo://app?vid=626c468c-0a9a-4627-b650-393de33283fa"},"vehicle_type_id":"4","last_reported":1728061663,"current_range_meters":4400,"station_id":"ce4bhh92rcd13ifvqfh0","pricing_plan_id":"cebpf4jnsgd1na2vs0mg"},{"bike_id":"6ce60676-3f86-4aaa-a5df-572436c32ad4","system_id":"levelo_inurba_marseille","lat":43.23197,"lon":5.35557,"is_reserved":false,"is_disabled":false,"rental_uris":{"android":"levelo://app?vid=6ce60676-3f86-4aaa-a5df-572436c32ad4","ios":"levelo://app?vid=6ce60676-3f86-4aaa-a5df-572436c32ad4"},"vehicle_type_id":"4","last_reported":1728061663,"current_range_meters":13600,"station_id":"ce4bhu92rcd13ifvqi70","pricing_plan_id":"cebpf4jnsgd1na2vs0mg"},{"bike_id":"53f8447d-2525-4d32-adc9-1cf597c8d796","system_id":"levelo_inurba_marseille","lat":43.31708,"lon":5.43692,"is_reserved":false,"is_disabled":false,"rental_uris":{"android":"levelo://app?vid=53f8447d-2525-4d32-adc9-1cf597c8d796","ios":"levelo://app?vid=53f8447d-2525-4d32-adc9-1cf597c8d796"},"vehicle_type_id":"4","last_reported":1728061663,"current_range_meters":7200,"station_id":"ce4bhp92rcd13ifvqhcg","pricing_plan_id":"cebpf4jnsgd1na2vs0mg"},{"bike_id":"22ea0dbd-d4fd-4bc3-9549-0fcdc44843e0","system_id":"levelo_inurba_marseille","lat":43.28429,"lon":5.3499,"is_reserved":false,"is_disabled":false,"rental_uris":{"android":"levelo://app?vid=22ea0dbd-d4fd-4bc3-9549-0fcdc44843e0","ios":"levelo://app?vid=22ea0dbd-d4fd-4bc3-9549-0fcdc44843e0"},"vehicle_type_id":"4","last_reported":1728061663,"current_range_meters":8000,"station_id":"ce4bhbh2rcd13ifvqepg","pricing_plan_id":"cebpf4jnsgd1na2vs0mg"},{"bike_id":"d358f5ec-98e8-4d5a-85b1-cdc5b18c0eb4","system_id":"levelo_inurba_marseille","lat":43.26677,"lon":5.38271,"is_reserved":false,"is_disabled":false,"rental_uris":{"android":"levelo://app?vid=d358f5ec-98e8-4d5a-85b1-cdc5b18c0eb4","ios":"levelo://app?vid=d358f5ec-98e8-4d5a-85b1-cdc5b18c0eb4"},"vehicle_type_id":"4","last_reported":1728061663,"current_range_meters":6000,"station_id":"ce4bhg92rcd13ifvqf90","pricing_plan_id":"cebpf4jnsgd1na2vs0mg"},{"bike_id":"a8274e66-f619-465e-9f11-083eca5b8b64","system_id":"levelo_inurba_marseille","lat":43.30796,"lon":5.43528,"is_reserved":false,"is_disabled":false,"rental_uris":{"android":"levelo://app?vid=a8274e66-f619-465e-9f11-083eca5b8b64","ios":"levelo://app?vid=a8274e66-f619-465e-9f11-083eca5b8b64"},"vehicle_type_id":"4","last_reported":1728061663,"current_range_meters":17600,"station_id":"ce4bhph2rcd13ifvqheg","pricing_plan_id":"cebpf4jnsgd1na2vs0mg"},{"bike_id":"c192c8d0-4167-48fe-8efd-0164c68ee8c6","system_id":"levelo_inurba_marseille","lat":43.32033,"lon":5.41547,"is_reserved":false,"is_disabled":false,"rental_uris":{"android":"levelo://app?vid=c192c8d0-4167-48fe-8efd-0164c68ee8c6","ios":"levelo://app?vid=c192c8d0-4167-48fe-8efd-0164c68ee8c6"},"vehicle_type_id":"4","last_reported":1728061663,"current_range_meters":25600,"station_id":"ce4bhq92rcd13ifvqhkg","pricing_plan_id":"cebpf4jnsgd1na2vs0mg"},{"bike_id":"ac491eed-1fef-4832-b4ca-d42b5b54f337","system_id":"levelo_inurba_marseille","lat":43.28414,"lon":5.34985,"is_reserved":false,"is_disabled":false,"rental_uris":{"android":"levelo://app?vid=ac491eed-1fef-4832-b4ca-d42b5b54f337","ios":"levelo://app?vid=ac491eed-1fef-4832-b4ca-d42b5b54f337"},"vehicle_type_id":"4","last_reported":1728061663,"current_range_meters":36400,"station_id":"ce4bhbh2rcd13ifvqepg","pricing_plan_id":"cebpf4jnsgd1na2vs0mg"},{"bike_id":"74d91a6f-c9c6-4a59-bce2-08570165d92a","system_id":"levelo_inurba_marseille","lat":43.23191,"lon":5.35552,"is_reserved":false,"is_disabled":false,"rental_uris":{"android":"levelo://app?vid=74d91a6f-c9c6-4a59-bce2-08570165d92a","ios":"levelo://app?vid=74d91a6f-c9c6-4a59-bce2-08570165d92a"},"vehicle_type_id":"4","last_reported":1728061663,"current_range_meters":35200,"station_id":"ce4bhu92rcd13ifvqi70","pricing_plan_id":"cebpf4jnsgd1na2vs0mg"},{"bike_id":"bb5f5452-4b9b-417d-b148-b396a874f3d9","system_id":"levelo_inurba_marseille","lat":43.33755,"lon":5.37429,"is_reserved":false,"is_disabled":false,"rental_uris":{"android":"levelo://app?vid=bb5f5452-4b9b-417d-b148-b396a874f3d9","ios":"levelo://app?vid=bb5f5452-4b9b-417d-b148-b396a874f3d9"},"vehicle_type_id":"4","last_reported":1728061663,"current_range_meters":36000,"station_id":"","pricing_plan_id":"cebpf4jnsgd1na2vs0mg"},{"bike_id":"9fee1af6-d129-418e-b24e-8d9ee9b61037","system_id":"levelo_inurba_marseille","lat":43.30895,"lon":5.37199,"is_reserved":false,"is_disabled":false,"rental_uris":{"android":"levelo://app?vid=9fee1af6-d129-418e-b24e-8d9ee9b61037","ios":"levelo://app?vid=9fee1af6-d129-418e-b24e-8d9ee9b61037"},"vehicle_type_id":"4","last_reported":1728061663,"current_range_meters":36800,"station_id":"ce4bguh2rcd13ifvqckg","pricing_plan_id":"cebpf4jnsgd1na2vs0mg"},{"bike_id":"364c6e35-9ac3-4ea6-b01b-b6a378366ce5","system_id":"levelo_inurba_marseille","lat":43.25092,"lon":5.39517,"is_reserved":false,"is_disabled":false,"rental_uris":{"android":"levelo://app?vid=364c6e35-9ac3-4ea6-b01b-b6a378366ce5","ios":"levelo://app?vid=364c6e35-9ac3-4ea6-b01b-b6a378366ce5"},"vehicle_type_id":"4","last_reported":1728061663,"current_range_meters":4400,"station_id":"ce4bhm12rcd13ifvqgkg","pricing_plan_id":"cebpf4jnsgd1na2vs0mg"},{"bike_id":"3e5bc7d5-4bd2-4251-9146-4a744b088a97","system_id":"levelo_inurba_marseille","lat":43.27422,"lon":5.39417,"is_reserved":false,"is_disabled":false,"rental_uris":{"android":"levelo://app?vid=3e5bc7d5-4bd2-4251-9146-4a744b088a97","ios":"levelo://app?vid=3e5bc7d5-4bd2-4251-9146-4a744b088a97"},"vehicle_type_id":"4","last_reported":1728061663,"current_range_meters":3600,"station_id":"ce4bhdp2rcd13ifvqf20","pricing_plan_id":"cebpf4jnsgd1na2vs0mg"},{"bike_id":"d7a0298f-5c2b-438d-ab05-5d6a7ac83160","system_id":"levelo_inurba_marseille","lat":43.30795,"lon":5.4353,"is_reserved":false,"is_disabled":false,"rental_uris":{"android":"levelo://app?vid=d7a0298f-5c2b-438d-ab05-5d6a7ac83160","ios":"levelo://app?vid=d7a0298f-5c2b-438d-ab05-5d6a7ac83160"},"vehicle_type_id":"4","last_reported":1728061663,"current_range_meters":38800,"station_id":"ce4bhph2rcd13ifvqheg","pricing_plan_id":"cebpf4jnsgd1na2vs0mg"},{"bike_id":"74b43f7c-45ac-484e-b877-bf20e626a89f","system_id":"levelo_inurba_marseille","lat":43.28355,"lon":5.38104,"is_reserved":false,"is_disabled":false,"rental_uris":{"android":"levelo://app?vid=74b43f7c-45ac-484e-b877-bf20e626a89f","ios":"levelo://app?vid=74b43f7c-45ac-484e-b877-bf20e626a89f"},"vehicle_type_id":"4","last_reported":1728061663,"current_range_meters":17200,"station_id":"ce4bh412rcd13ifvqdr0","pricing_plan_id":"cebpf4jnsgd1na2vs0mg"},{"bike_id":"f4390843-cc84-49dd-a6e3-c3edead52403","system_id":"levelo_inurba_marseille","lat":43.28926,"lon":5.38401,"is_reserved":false,"is_disabled":false,"rental_uris":{"android":"levelo://app?vid=f4390843-cc84-49dd-a6e3-c3edead52403","ios":"levelo://app?vid=f4390843-cc84-49dd-a6e3-c3edead52403"},"vehicle_type_id":"4","last_reported":1728061663,"current_range_meters":35200,"station_id":"ce4bh612rcd13ifvqe6g","pricing_plan_id":"cebpf4jnsgd1na2vs0mg"},{"bike_id":"b10c30a0-b259-422f-868e-13ec51bde383","system_id":"levelo_inurba_marseille","lat":43.29027,"lon":5.37561,"is_reserved":false,"is_disabled":false,"rental_uris":{"android":"levelo://app?vid=b10c30a0-b259-422f-868e-13ec51bde383","ios":"levelo://app?vid=b10c30a0-b259-422f-868e-13ec51bde383"},"vehicle_type_id":"4","last_reported":1728061663,"current_range_meters":24400,"station_id":"ce4bh692rcd13ifvqe90","pricing_plan_id":"cebpf4jnsgd1na2vs0mg"},{"bike_id":"4243ae41-7428-4d0b-afbe-a30ac0047a4d","system_id":"levelo_inurba_marseille","lat":43.27498,"lon":5.42464,"is_reserved":false,"is_disabled":false,"rental_uris":{"android":"levelo://app?vid=4243ae41-7428-4d0b-afbe-a30ac0047a4d","ios":"levelo://app?vid=4243ae41-7428-4d0b-afbe-a30ac0047a4d"},"vehicle_type_id":"4","last_reported":1728061663,"current_range_meters":39200,"station_id":"ce4bhn92rcd13ifvqgrg","pricing_plan_id":"cebpf4jnsgd1na2vs0mg"},{"bike_id":"85af7456-d5b3-4715-a584-c8f2f95d0056","system_id":"levelo_inurba_marseille","lat":43.27208,"lon":5.39178,"is_reserved":false,"is_disabled":false,"rental_uris":{"android":"levelo://app?vid=85af7456-d5b3-4715-a584-c8f2f95d0056","ios":"levelo://app?vid=85af7456-d5b3-4715-a584-c8f2f95d0056"},"vehicle_type_id":"4","last_reported":1728061663,"current_range_meters":6400,"station_id":"ce4bhhp2rcd13ifvqfm0","pricing_plan_id":"cebpf4jnsgd1na2vs0mg"},{"bike_id":"6edb6a1f-c151-4ec9-9308-f41e759a4b31","system_id":"levelo_inurba_marseille","lat":43.25481,"lon":5.37648,"is_reserved":false,"is_disabled":false,"rental_uris":{"android":"levelo://app?vid=6edb6a1f-c151-4ec9-9308-f41e759a4b31","ios":"levelo://app?vid=6edb6a1f-c151-4ec9-9308-f41e759a4b31"},"vehicle_type_id":"4","last_reported":1728061663,"current_range_meters":20000,"station_id":"ce4bhh12rcd13ifvqff0","pricing_plan_id":"cebpf4jnsgd1na2vs0mg"},{"bike_id":"23044d62-038e-4916-90bc-fa3fc5f24530","system_id":"levelo_inurba_marseille","lat":43.2782,"lon":5.40718,"is_reserved":false,"is_disabled":false,"rental_uris":{"android":"levelo://app?vid=23044d62-038e-4916-90bc-fa3fc5f24530","ios":"levelo://app?vid=23044d62-038e-4916-90bc-fa3fc5f24530"},"vehicle_type_id":"4","last_reported":1728061663,"current_range_meters":38800,"station_id":"ce4bhnh2rcd13ifvqgtg","pricing_plan_id":"cebpf4jnsgd1na2vs0mg"},{"bike_id":"1f0e1297-d78f-4cf9-a61b-a64221dd9f81","system_id":"levelo_inurba_marseille","lat":43.29781,"lon":5.39328,"is_reserved":false,"is_disabled":false,"rental_uris":{"android":"levelo://app?vid=1f0e1297-d78f-4cf9-a61b-a64221dd9f81","ios":"levelo://app?vid=1f0e1297-d78f-4cf9-a61b-a64221dd9f81"},"vehicle_type_id":"4","last_reported":1728061663,"current_range_meters":38400,"station_id":"chh1huq6cuj3fo74tm60","pricing_plan_id":"cebpf4jnsgd1na2vs0mg"},{"bike_id":"24ee6943-3659-41fc-b937-844a583c47b8","system_id":"levelo_inurba_marseille","lat":43.27429,"lon":5.39413,"is_reserved":false,"is_disabled":false,"rental_uris":{"android":"levelo://app?vid=24ee6943-3659-41fc-b937-844a583c47b8","ios":"levelo://app?vid=24ee6943-3659-41fc-b937-844a583c47b8"},"vehicle_type_id":"4","last_reported":1728061663,"current_range_meters":39200,"station_id":"ce4bhdp2rcd13ifvqf20","pricing_plan_id":"cebpf4jnsgd1na2vs0mg"},{"bike_id":"149df3d4-2bac-4b47-b0b0-caa020d5e1f5","system_id":"levelo_inurba_marseille","lat":43.2293,"lon":5.35379,"is_reserved":false,"is_disabled":false,"rental_uris":{"android":"levelo://app?vid=149df3d4-2bac-4b47-b0b0-caa020d5e1f5","ios":"levelo://app?vid=149df3d4-2bac-4b47-b0b0-caa020d5e1f5"},"vehicle_type_id":"4","last_reported":1728061663,"current_range_meters":19600,"station_id":"cpo3532slgdg3j2ikp40","pricing_plan_id":"cebpf4jnsgd1na2vs0mg"},{"bike_id":"0e119803-8e26-456c-bd45-e8ad7cbac65c","system_id":"levelo_inurba_marseille","lat":43.30793,"lon":5.38167,"is_reserved":false,"is_disabled":false,"rental_uris":{"android":"levelo://app?vid=0e119803-8e26-456c-bd45-e8ad7cbac65c","ios":"levelo://app?vid=0e119803-8e26-456c-bd45-e8ad7cbac65c"},"vehicle_type_id":"4","last_reported":1728061663,"current_range_meters":20000,"station_id":"ce4bgt12rcd13ifvqce0","pricing_plan_id":"cebpf4jnsgd1na2vs0mg"},{"bike_id":"fd9b0959-3a2d-4fdc-a9dc-8082da45edc2","system_id":"levelo_inurba_marseille","lat":43.25574,"lon":5.38232,"is_reserved":false,"is_disabled":false,"rental_uris":{"android":"levelo://app?vid=fd9b0959-3a2d-4fdc-a9dc-8082da45edc2","ios":"levelo://app?vid=fd9b0959-3a2d-4fdc-a9dc-8082da45edc2"},"vehicle_type_id":"4","last_reported":1728061663,"current_range_meters":16800,"station_id":"ce4bhih2rcd13ifvqfs0","pricing_plan_id":"cebpf4jnsgd1na2vs0mg"},{"bike_id":"77c59eab-5250-44c4-be86-099c0defe9c4","system_id":"levelo_inurba_marseille","lat":43.33738,"lon":5.37445,"is_reserved":false,"is_disabled":false,"rental_uris":{"android":"levelo://app?vid=77c59eab-5250-44c4-be86-099c0defe9c4","ios":"levelo://app?vid=77c59eab-5250-44c4-be86-099c0defe9c4"},"vehicle_type_id":"4","last_reported":1728061663,"current_range_meters":30000,"station_id":"","pricing_plan_id":"cebpf4jnsgd1na2vs0mg"},{"bike_id":"128da046-415b-4832-9d53-aba8960dc49a","system_id":"levelo_inurba_marseille","lat":43.29004,"lon":5.35621,"is_reserved":false,"is_disabled":false,"rental_uris":{"android":"levelo://app?vid=128da046-415b-4832-9d53-aba8960dc49a","ios":"levelo://app?vid=128da046-415b-4832-9d53-aba8960dc49a"},"vehicle_type_id":"4","last_reported":1728061663,"current_range_meters":38800,"station_id":"ce4bhb92rcd13ifvqen0","pricing_plan_id":"cebpf4jnsgd1na2vs0mg"},{"bike_id":"3893b791-314f-4ae8-ba1c-d9df595b61a3","system_id":"levelo_inurba_marseille","lat":43.25002,"lon":5.38924,"is_reserved":false,"is_disabled":false,"rental_uris":{"android":"levelo://app?vid=3893b791-314f-4ae8-ba1c-d9df595b61a3","ios":"levelo://app?vid=3893b791-314f-4ae8-ba1c-d9df595b61a3"},"vehicle_type_id":"4","last_reported":1728061663,"current_range_meters":4400,"station_id":"ce4bhgp2rcd13ifvqfd0","pricing_plan_id":"cebpf4jnsgd1na2vs0mg"},{"bike_id":"84b07b81-8a90-4e9c-96ec-461a75726f5b","system_id":"levelo_inurba_marseille","lat":43.32004,"lon":5.38157,"is_reserved":false,"is_disabled":false,"rental_uris":{"android":"levelo://app?vid=84b07b81-8a90-4e9c-96ec-461a75726f5b","ios":"levelo://app?vid=84b07b81-8a90-4e9c-96ec-461a75726f5b"},"vehicle_type_id":"4","last_reported":1728061663,"current_range_meters":10000,"station_id":"ce4bhr12rcd13ifvqhpg","pricing_plan_id":"cebpf4jnsgd1na2vs0mg"},{"bike_id":"5c10480e-1f2b-4571-adc0-8c71917c45e2","system_id":"levelo_inurba_marseille","lat":43.30086,"lon":5.3907,"is_reserved":false,"is_disabled":false,"rental_uris":{"android":"levelo://app?vid=5c10480e-1f2b-4571-adc0-8c71917c45e2","ios":"levelo://app?vid=5c10480e-1f2b-4571-adc0-8c71917c45e2"},"vehicle_type_id":"4","last_reported":1728061663,"current_range_meters":30400,"station_id":"ce4bh192rcd13ifvqdb0","pricing_plan_id":"cebpf4jnsgd1na2vs0mg"},{"bike_id":"39005140-edd1-4474-9466-e0dc5621ceba","system_id":"levelo_inurba_marseille","lat":43.30638,"lon":5.40106,"is_reserved":false,"is_disabled":false,"rental_uris":{"android":"levelo://app?vid=39005140-edd1-4474-9466-e0dc5621ceba","ios":"levelo://app?vid=39005140-edd1-4474-9466-e0dc5621ceba"},"vehicle_type_id":"4","last_reported":1728061663,"current_range_meters":20800,"station_id":"ce4bh112rcd13ifvqda0","pricing_plan_id":"cebpf4jnsgd1na2vs0mg"},{"bike_id":"715ee97c-db66-4c47-b272-2580351da436","system_id":"levelo_inurba_marseille","lat":43.28149,"lon":5.42654,"is_reserved":false,"is_disabled":false,"rental_uris":{"android":"levelo://app?vid=715ee97c-db66-4c47-b272-2580351da436","ios":"levelo://app?vid=715ee97c-db66-4c47-b272-2580351da436"},"vehicle_type_id":"4","last_reported":1728061663,"current_range_meters":16000,"station_id":"ce4bhnh2rcd13ifvqgug","pricing_plan_id":"cebpf4jnsgd1na2vs0mg"},{"bike_id":"8a09a3f6-7664-4141-bdd0-148895af394d","system_id":"levelo_inurba_marseille","lat":43.24805,"lon":5.37458,"is_reserved":false,"is_disabled":false,"rental_uris":{"android":"levelo://app?vid=8a09a3f6-7664-4141-bdd0-148895af394d","ios":"levelo://app?vid=8a09a3f6-7664-4141-bdd0-148895af394d"},"vehicle_type_id":"4","last_reported":1728061663,"current_range_meters":8800,"station_id":"ce4bhgh2rcd13ifvqfb0","pricing_plan_id":"cebpf4jnsgd1na2vs0mg"},{"bike_id":"b417a8d0-1fac-4a2b-9294-35cea48e57c1","system_id":"levelo_inurba_marseille","lat":43.33021,"lon":5.39046,"is_reserved":false,"is_disabled":false,"rental_uris":{"android":"levelo://app?vid=b417a8d0-1fac-4a2b-9294-35cea48e57c1","ios":"levelo://app?vid=b417a8d0-1fac-4a2b-9294-35cea48e57c1"},"vehicle_type_id":"4","last_reported":1728061663,"current_range_meters":30800,"station_id":"ce4bhr92rcd13ifvqhrg","pricing_plan_id":"cebpf4jnsgd1na2vs0mg"},{"bike_id":"46cadb82-0568-4469-a28a-88f0152390d7","system_id":"levelo_inurba_marseille","lat":43.29584,"lon":5.37505,"is_reserved":false,"is_disabled":false,"rental_uris":{"android":"levelo://app?vid=46cadb82-0568-4469-a28a-88f0152390d7","ios":"levelo://app?vid=46cadb82-0568-4469-a28a-88f0152390d7"},"vehicle_type_id":"4","last_reported":1728061663,"current_range_meters":24800,"station_id":"ce4bgh92rcd13ifvqb50","pricing_plan_id":"cebpf4jnsgd1na2vs0mg"},{"bike_id":"ef147a6b-32d1-441f-a0f3-2f3956b6b98a","system_id":"levelo_inurba_marseille","lat":43.26811,"lon":5.40263,"is_reserved":false,"is_disabled":false,"rental_uris":{"android":"levelo://app?vid=ef147a6b-32d1-441f-a0f3-2f3956b6b98a","ios":"levelo://app?vid=ef147a6b-32d1-441f-a0f3-2f3956b6b98a"},"vehicle_type_id":"4","last_reported":1728061663,"current_range_meters":28800,"station_id":"ce501612rcd8frsf0b60","pricing_plan_id":"cebpf4jnsgd1na2vs0mg"},{"bike_id":"dfa0df88-02ba-4535-beaf-e3e25ff4b2f4","system_id":"levelo_inurba_marseille","lat":43.29522,"lon":5.39033,"is_reserved":false,"is_disabled":false,"rental_uris":{"android":"levelo://app?vid=dfa0df88-02ba-4535-beaf-e3e25ff4b2f4","ios":"levelo://app?vid=dfa0df88-02ba-4535-beaf-e3e25ff4b2f4"},"vehicle_type_id":"4","last_reported":1728061663,"current_range_meters":4400,"station_id":"ce4bh3p2rcd13ifvqdp0","pricing_plan_id":"cebpf4jnsgd1na2vs0mg"},{"bike_id":"6caa861d-aab3-4c0b-b2df-bc45a1246b68","system_id":"levelo_inurba_marseille","lat":43.290852,"lon":5.371614,"is_reserved":false,"is_disabled":false,"rental_uris":{"android":"levelo://app?vid=6caa861d-aab3-4c0b-b2df-bc45a1246b68","ios":"levelo://app?vid=6caa861d-aab3-4c0b-b2df-bc45a1246b68"},"vehicle_type_id":"4","last_reported":1728061663,"current_range_meters":3600,"station_id":"ce4bh5p2rcd13ifvqe4g","pricing_plan_id":"cebpf4jnsgd1na2vs0mg"},{"bike_id":"b712c0ca-7d29-4f62-a09f-9360d03c56f0","system_id":"levelo_inurba_marseille","lat":43.27942,"lon":5.41051,"is_reserved":false,"is_disabled":false,"rental_uris":{"android":"levelo://app?vid=b712c0ca-7d29-4f62-a09f-9360d03c56f0","ios":"levelo://app?vid=b712c0ca-7d29-4f62-a09f-9360d03c56f0"},"vehicle_type_id":"4","last_reported":1728061663,"current_range_meters":38800,"station_id":"ce4bhnp2rcd13ifvqh0g","pricing_plan_id":"cebpf4jnsgd1na2vs0mg"},{"bike_id":"d9513a24-3235-43a7-b9a5-1c5cfe37603f","system_id":"levelo_inurba_marseille","lat":43.23056,"lon":5.35493,"is_reserved":false,"is_disabled":false,"rental_uris":{"android":"levelo://app?vid=d9513a24-3235-43a7-b9a5-1c5cfe37603f","ios":"levelo://app?vid=d9513a24-3235-43a7-b9a5-1c5cfe37603f"},"vehicle_type_id":"4","last_reported":1728061663,"current_range_meters":24800,"station_id":"cpo3342slgdg3j2ifvpg","pricing_plan_id":"cebpf4jnsgd1na2vs0mg"},{"bike_id":"009d6d0e-c1a8-4ddc-b330-ebf04e9c45b9","system_id":"levelo_inurba_marseille","lat":43.29904,"lon":5.43666,"is_reserved":false,"is_disabled":false,"rental_uris":{"android":"levelo://app?vid=009d6d0e-c1a8-4ddc-b330-ebf04e9c45b9","ios":"levelo://app?vid=009d6d0e-c1a8-4ddc-b330-ebf04e9c45b9"},"vehicle_type_id":"4","last_reported":1728061663,"current_range_meters":25600,"station_id":"ce4bhpp2rcd13ifvqhfg","pricing_plan_id":"cebpf4jnsgd1na2vs0mg"},{"bike_id":"9635f674-e72b-49a6-864f-901a12804f62","system_id":"levelo_inurba_marseille","lat":43.24649,"lon":5.38895,"is_reserved":false,"is_disabled":false,"rental_uris":{"android":"levelo://app?vid=9635f674-e72b-49a6-864f-901a12804f62","ios":"levelo://app?vid=9635f674-e72b-49a6-864f-901a12804f62"},"vehicle_type_id":"4","last_reported":1728061663,"current_range_meters":19200,"station_id":"ce4bhg12rcd13ifvqf60","pricing_plan_id":"cebpf4jnsgd1na2vs0mg"},{"bike_id":"a153c6f9-9172-46f0-bcdc-96d6a38b0a33","system_id":"levelo_inurba_marseille","lat":43.2315,"lon":5.43714,"is_reserved":false,"is_disabled":false,"rental_uris":{"android":"levelo://app?vid=a153c6f9-9172-46f0-bcdc-96d6a38b0a33","ios":"levelo://app?vid=a153c6f9-9172-46f0-bcdc-96d6a38b0a33"},"vehicle_type_id":"4","last_reported":1728061663,"current_range_meters":11600,"station_id":"ce4bhmp2rcd13ifvqgog","pricing_plan_id":"cebpf4jnsgd1na2vs0mg"},{"bike_id":"4e0c83a2-b0c3-4894-8559-e509681998d3","system_id":"levelo_inurba_marseille","lat":43.31116,"lon":5.38328,"is_reserved":false,"is_disabled":false,"rental_uris":{"android":"levelo://app?vid=4e0c83a2-b0c3-4894-8559-e509681998d3","ios":"levelo://app?vid=4e0c83a2-b0c3-4894-8559-e509681998d3"},"vehicle_type_id":"4","last_reported":1728061663,"current_range_meters":22000,"station_id":"ce4bgv92rcd13ifvqcr0","pricing_plan_id":"cebpf4jnsgd1na2vs0mg"},{"bike_id":"e7305f57-4c84-4c76-b8ce-52555d1986d7","system_id":"levelo_inurba_marseille","lat":43.24078,"lon":5.3776,"is_reserved":false,"is_disabled":false,"rental_uris":{"android":"levelo://app?vid=e7305f57-4c84-4c76-b8ce-52555d1986d7","ios":"levelo://app?vid=e7305f57-4c84-4c76-b8ce-52555d1986d7"},"vehicle_type_id":"4","last_reported":1728061663,"current_range_meters":33200,"station_id":"ce4bhnp2rcd13ifvqgvg","pricing_plan_id":"cebpf4jnsgd1na2vs0mg"},{"bike_id":"fbeeeb08-228f-44d9-877d-ae59bd47622a","system_id":"levelo_inurba_marseille","lat":43.26933,"lon":5.40261,"is_reserved":false,"is_disabled":false,"rental_uris":{"android":"levelo://app?vid=fbeeeb08-228f-44d9-877d-ae59bd47622a","ios":"levelo://app?vid=fbeeeb08-228f-44d9-877d-ae59bd47622a"},"vehicle_type_id":"4","last_reported":1728061663,"current_range_meters":36800,"station_id":"ce4bhkp2rcd13ifvqgd0","pricing_plan_id":"cebpf4jnsgd1na2vs0mg"},{"bike_id":"745956e2-85a4-4e28-8a9f-f9dc9abb062e","system_id":"levelo_inurba_marseille","lat":43.28789,"lon":5.37363,"is_reserved":false,"is_disabled":false,"rental_uris":{"android":"levelo://app?vid=745956e2-85a4-4e28-8a9f-f9dc9abb062e","ios":"levelo://app?vid=745956e2-85a4-4e28-8a9f-f9dc9abb062e"},"vehicle_type_id":"4","last_reported":1728061663,"current_range_meters":36400,"station_id":"","pricing_plan_id":"cebpf4jnsgd1na2vs0mg"},{"bike_id":"059229b0-8c08-45d6-bdd0-785ac74d5f34","system_id":"levelo_inurba_marseille","lat":43.24804,"lon":5.37458,"is_reserved":false,"is_disabled":false,"rental_uris":{"android":"levelo://app?vid=059229b0-8c08-45d6-bdd0-785ac74d5f34","ios":"levelo://app?vid=059229b0-8c08-45d6-bdd0-785ac74d5f34"},"vehicle_type_id":"4","last_reported":1728061663,"current_range_meters":6800,"station_id":"ce4bhgh2rcd13ifvqfb0","pricing_plan_id":"cebpf4jnsgd1na2vs0mg"},{"bike_id":"4e5012d3-097e-4752-930f-fc706eefd5c7","system_id":"levelo_inurba_marseille","lat":43.26941,"lon":5.40252,"is_reserved":false,"is_disabled":false,"rental_uris":{"android":"levelo://app?vid=4e5012d3-097e-4752-930f-fc706eefd5c7","ios":"levelo://app?vid=4e5012d3-097e-4752-930f-fc706eefd5c7"},"vehicle_type_id":"4","last_reported":1728061663,"current_range_meters":8800,"station_id":"cjm6bp8fraef2m0cb0m0","pricing_plan_id":"cebpf4jnsgd1na2vs0mg"},{"bike_id":"3c2d2204-8e63-4611-8774-dd53b9c47a40","system_id":"levelo_inurba_marseille","lat":43.25574,"lon":5.3824,"is_reserved":false,"is_disabled":false,"rental_uris":{"android":"levelo://app?vid=3c2d2204-8e63-4611-8774-dd53b9c47a40","ios":"levelo://app?vid=3c2d2204-8e63-4611-8774-dd53b9c47a40"},"vehicle_type_id":"4","last_reported":1728061663,"current_range_meters":24000,"station_id":"ce4bhih2rcd13ifvqfs0","pricing_plan_id":"cebpf4jnsgd1na2vs0mg"},{"bike_id":"fd67db3d-cfc6-4457-99c9-b1cfb05a9bdf","system_id":"levelo_inurba_marseille","lat":43.23065,"lon":5.35496,"is_reserved":false,"is_disabled":false,"rental_uris":{"android":"levelo://app?vid=fd67db3d-cfc6-4457-99c9-b1cfb05a9bdf","ios":"levelo://app?vid=fd67db3d-cfc6-4457-99c9-b1cfb05a9bdf"},"vehicle_type_id":"4","last_reported":1728061663,"current_range_meters":20800,"station_id":"cpo3342slgdg3j2ifvpg","pricing_plan_id":"cebpf4jnsgd1na2vs0mg"},{"bike_id":"aa5001f8-40e0-4c83-bfed-eb0a81941210","system_id":"levelo_inurba_marseille","lat":43.31082,"lon":5.42431,"is_reserved":false,"is_disabled":false,"rental_uris":{"android":"levelo://app?vid=aa5001f8-40e0-4c83-bfed-eb0a81941210","ios":"levelo://app?vid=aa5001f8-40e0-4c83-bfed-eb0a81941210"},"vehicle_type_id":"4","last_reported":1728061663,"current_range_meters":16000,"station_id":"ce4bhp92rcd13ifvqhag","pricing_plan_id":"cebpf4jnsgd1na2vs0mg"},{"bike_id":"bac6f78b-b6d1-4311-8cd9-015089b3d3fc","system_id":"levelo_inurba_marseille","lat":43.265517,"lon":5.372873,"is_reserved":false,"is_disabled":false,"rental_uris":{"android":"levelo://app?vid=bac6f78b-b6d1-4311-8cd9-015089b3d3fc","ios":"levelo://app?vid=bac6f78b-b6d1-4311-8cd9-015089b3d3fc"},"vehicle_type_id":"4","last_reported":1728061663,"current_range_meters":20000,"station_id":"ce4bhg12rcd13ifvqf70","pricing_plan_id":"cebpf4jnsgd1na2vs0mg"},{"bike_id":"05430923-5252-4785-924c-f762c863d2cc","system_id":"levelo_inurba_marseille","lat":43.30793,"lon":5.38175,"is_reserved":false,"is_disabled":false,"rental_uris":{"android":"levelo://app?vid=05430923-5252-4785-924c-f762c863d2cc","ios":"levelo://app?vid=05430923-5252-4785-924c-f762c863d2cc"},"vehicle_type_id":"4","last_reported":1728061663,"current_range_meters":36800,"station_id":"ce4bgt12rcd13ifvqce0","pricing_plan_id":"cebpf4jnsgd1na2vs0mg"},{"bike_id":"83768de4-71c9-444f-ab38-881464b812ef","system_id":"levelo_inurba_marseille","lat":43.24657,"lon":5.38166,"is_reserved":false,"is_disabled":false,"rental_uris":{"android":"levelo://app?vid=83768de4-71c9-444f-ab38-881464b812ef","ios":"levelo://app?vid=83768de4-71c9-444f-ab38-881464b812ef"},"vehicle_type_id":"4","last_reported":1728061663,"current_range_meters":23200,"station_id":"ce4bhih2rcd13ifvqfr0","pricing_plan_id":"cebpf4jnsgd1na2vs0mg"},{"bike_id":"152cb6de-89ff-44e0-bac8-1bb58f5c98e2","system_id":"levelo_inurba_marseille","lat":43.31165,"lon":5.38712,"is_reserved":false,"is_disabled":false,"rental_uris":{"android":"levelo://app?vid=152cb6de-89ff-44e0-bac8-1bb58f5c98e2","ios":"levelo://app?vid=152cb6de-89ff-44e0-bac8-1bb58f5c98e2"},"vehicle_type_id":"4","last_reported":1728061663,"current_range_meters":9200,"station_id":"ce4bgv12rcd13ifvqcp0","pricing_plan_id":"cebpf4jnsgd1na2vs0mg"},{"bike_id":"4fc6bf0b-3ac0-4dcd-b9fe-9d8969a555e0","system_id":"levelo_inurba_marseille","lat":43.25865,"lon":5.399,"is_reserved":false,"is_disabled":false,"rental_uris":{"android":"levelo://app?vid=4fc6bf0b-3ac0-4dcd-b9fe-9d8969a555e0","ios":"levelo://app?vid=4fc6bf0b-3ac0-4dcd-b9fe-9d8969a555e0"},"vehicle_type_id":"4","last_reported":1728061663,"current_range_meters":19200,"station_id":"ce4bhl92rcd13ifvqghg","pricing_plan_id":"cebpf4jnsgd1na2vs0mg"},{"bike_id":"ccc2afb8-4dc9-48cc-b95b-fc6beead1ce4","system_id":"levelo_inurba_marseille","lat":43.297846,"lon":5.371105,"is_reserved":false,"is_disabled":false,"rental_uris":{"android":"levelo://app?vid=ccc2afb8-4dc9-48cc-b95b-fc6beead1ce4","ios":"levelo://app?vid=ccc2afb8-4dc9-48cc-b95b-fc6beead1ce4"},"vehicle_type_id":"4","last_reported":1728061663,"current_range_meters":21600,"station_id":"ce4bh192rcd13ifvqdb0","pricing_plan_id":"cebpf4jnsgd1na2vs0mg"},{"bike_id":"bdefae95-7cc5-4880-bfcb-b1af39586be0","system_id":"levelo_inurba_marseille","lat":43.3266,"lon":5.40997,"is_reserved":false,"is_disabled":false,"rental_uris":{"android":"levelo://app?vid=bdefae95-7cc5-4880-bfcb-b1af39586be0","ios":"levelo://app?vid=bdefae95-7cc5-4880-bfcb-b1af39586be0"},"vehicle_type_id":"4","last_reported":1728061663,"current_range_meters":38000,"station_id":"ce4bhpp2rcd13ifvqhgg","pricing_plan_id":"cebpf4jnsgd1na2vs0mg"},{"bike_id":"de8f09b8-ad68-4ec9-8ce4-fe4cf048eee7","system_id":"levelo_inurba_marseille","lat":43.25573,"lon":5.38239,"is_reserved":false,"is_disabled":false,"rental_uris":{"android":"levelo://app?vid=de8f09b8-ad68-4ec9-8ce4-fe4cf048eee7","ios":"levelo://app?vid=de8f09b8-ad68-4ec9-8ce4-fe4cf048eee7"},"vehicle_type_id":"4","last_reported":1728061663,"current_range_meters":17600,"station_id":"ce4bhih2rcd13ifvqfs0","pricing_plan_id":"cebpf4jnsgd1na2vs0mg"},{"bike_id":"9af82405-af07-44f7-a5a1-eff778ad171c","system_id":"levelo_inurba_marseille","lat":43.24485,"lon":5.37406,"is_reserved":false,"is_disabled":false,"rental_uris":{"android":"levelo://app?vid=9af82405-af07-44f7-a5a1-eff778ad171c","ios":"levelo://app?vid=9af82405-af07-44f7-a5a1-eff778ad171c"},"vehicle_type_id":"4","last_reported":1728061663,"current_range_meters":38800,"station_id":"ce4bhnp2rcd13ifvqgvg","pricing_plan_id":"cebpf4jnsgd1na2vs0mg"},{"bike_id":"0f9b5d22-6aa7-46d9-9a63-87d3d937bb27","system_id":"levelo_inurba_marseille","lat":43.2959,"lon":5.38095,"is_reserved":false,"is_disabled":false,"rental_uris":{"android":"levelo://app?vid=0f9b5d22-6aa7-46d9-9a63-87d3d937bb27","ios":"levelo://app?vid=0f9b5d22-6aa7-46d9-9a63-87d3d937bb27"},"vehicle_type_id":"4","last_reported":1728061663,"current_range_meters":30800,"station_id":"ce4bgl12rcd13ifvqbo0","pricing_plan_id":"cebpf4jnsgd1na2vs0mg"},{"bike_id":"1e9e701f-fb8e-430e-be7f-54907f1b9076","system_id":"levelo_inurba_marseille","lat":43.33023,"lon":5.39043,"is_reserved":false,"is_disabled":false,"rental_uris":{"android":"levelo://app?vid=1e9e701f-fb8e-430e-be7f-54907f1b9076","ios":"levelo://app?vid=1e9e701f-fb8e-430e-be7f-54907f1b9076"},"vehicle_type_id":"4","last_reported":1728061663,"current_range_meters":26000,"station_id":"ce4bhr92rcd13ifvqhrg","pricing_plan_id":"cebpf4jnsgd1na2vs0mg"},{"bike_id":"26f290bb-1447-4f43-ab6d-1590e2a06a4b","system_id":"levelo_inurba_marseille","lat":43.31452,"lon":5.37389,"is_reserved":false,"is_disabled":false,"rental_uris":{"android":"levelo://app?vid=26f290bb-1447-4f43-ab6d-1590e2a06a4b","ios":"levelo://app?vid=26f290bb-1447-4f43-ab6d-1590e2a06a4b"},"vehicle_type_id":"4","last_reported":1728061663,"current_range_meters":38400,"station_id":"ce4bgt12rcd13ifvqcd0","pricing_plan_id":"cebpf4jnsgd1na2vs0mg"},{"bike_id":"8f223d29-bb15-49b3-8856-7db7db7694cb","system_id":"levelo_inurba_marseille","lat":43.258177,"lon":5.394364,"is_reserved":false,"is_disabled":false,"rental_uris":{"android":"levelo://app?vid=8f223d29-bb15-49b3-8856-7db7db7694cb","ios":"levelo://app?vid=8f223d29-bb15-49b3-8856-7db7db7694cb"},"vehicle_type_id":"4","last_reported":1728061663,"current_range_meters":16800,"station_id":"ce4bhip2rcd13ifvqft0","pricing_plan_id":"cebpf4jnsgd1na2vs0mg"},{"bike_id":"ead15650-09b2-4c11-bd0d-e1a5dfbb571d","system_id":"levelo_inurba_marseille","lat":43.31893,"lon":5.40738,"is_reserved":false,"is_disabled":false,"rental_uris":{"android":"levelo://app?vid=ead15650-09b2-4c11-bd0d-e1a5dfbb571d","ios":"levelo://app?vid=ead15650-09b2-4c11-bd0d-e1a5dfbb571d"},"vehicle_type_id":"4","last_reported":1728061663,"current_range_meters":17600,"station_id":"ce4bhq12rcd13ifvqhig","pricing_plan_id":"cebpf4jnsgd1na2vs0mg"},{"bike_id":"4198bf59-92bb-43b6-946a-9a6ab86645b9","system_id":"levelo_inurba_marseille","lat":43.29881,"lon":5.38899,"is_reserved":false,"is_disabled":false,"rental_uris":{"android":"levelo://app?vid=4198bf59-92bb-43b6-946a-9a6ab86645b9","ios":"levelo://app?vid=4198bf59-92bb-43b6-946a-9a6ab86645b9"},"vehicle_type_id":"4","last_reported":1728061663,"current_range_meters":16800,"station_id":"ce4bgj12rcd13ifvqbc0","pricing_plan_id":"cebpf4jnsgd1na2vs0mg"},{"bike_id":"56f53b8b-890b-49c8-9833-a36290a5ebe1","system_id":"levelo_inurba_marseille","lat":43.31083,"lon":5.42437,"is_reserved":false,"is_disabled":false,"rental_uris":{"android":"levelo://app?vid=56f53b8b-890b-49c8-9833-a36290a5ebe1","ios":"levelo://app?vid=56f53b8b-890b-49c8-9833-a36290a5ebe1"},"vehicle_type_id":"4","last_reported":1728061663,"current_range_meters":30800,"station_id":"ce4bhp92rcd13ifvqhag","pricing_plan_id":"cebpf4jnsgd1na2vs0mg"},{"bike_id":"039b31d8-e458-485a-ad5b-8b864f2e060e","system_id":"levelo_inurba_marseille","lat":43.28669,"lon":5.38671,"is_reserved":false,"is_disabled":false,"rental_uris":{"android":"levelo://app?vid=039b31d8-e458-485a-ad5b-8b864f2e060e","ios":"levelo://app?vid=039b31d8-e458-485a-ad5b-8b864f2e060e"},"vehicle_type_id":"4","last_reported":1728061663,"current_range_meters":10000,"station_id":"ce4bh492rcd13ifvqdug","pricing_plan_id":"cebpf4jnsgd1na2vs0mg"},{"bike_id":"5b0a6d7f-c426-454a-82ad-28e2608bee63","system_id":"levelo_inurba_marseille","lat":43.3233,"lon":5.38689,"is_reserved":false,"is_disabled":false,"rental_uris":{"android":"levelo://app?vid=5b0a6d7f-c426-454a-82ad-28e2608bee63","ios":"levelo://app?vid=5b0a6d7f-c426-454a-82ad-28e2608bee63"},"vehicle_type_id":"4","last_reported":1728061663,"current_range_meters":24800,"station_id":"","pricing_plan_id":"cebpf4jnsgd1na2vs0mg"},{"bike_id":"f741f27f-3e79-4f1a-8773-33feaf895a7c","system_id":"levelo_inurba_marseille","lat":43.25498,"lon":5.37651,"is_reserved":false,"is_disabled":false,"rental_uris":{"android":"levelo://app?vid=f741f27f-3e79-4f1a-8773-33feaf895a7c","ios":"levelo://app?vid=f741f27f-3e79-4f1a-8773-33feaf895a7c"},"vehicle_type_id":"4","last_reported":1728061663,"current_range_meters":9600,"station_id":"ce4bhh12rcd13ifvqff0","pricing_plan_id":"cebpf4jnsgd1na2vs0mg"},{"bike_id":"30302c66-7d59-478a-889f-ee3401fa18c3","system_id":"levelo_inurba_marseille","lat":43.33595,"lon":5.41045,"is_reserved":false,"is_disabled":false,"rental_uris":{"android":"levelo://app?vid=30302c66-7d59-478a-889f-ee3401fa18c3","ios":"levelo://app?vid=30302c66-7d59-478a-889f-ee3401fa18c3"},"vehicle_type_id":"4","last_reported":1728061663,"current_range_meters":16400,"station_id":"ce4bhqh2rcd13ifvqhmg","pricing_plan_id":"cebpf4jnsgd1na2vs0mg"},{"bike_id":"5116a39f-5db7-438d-8ba9-7d364f940461","system_id":"levelo_inurba_marseille","lat":43.315058,"lon":5.373299,"is_reserved":false,"is_disabled":false,"rental_uris":{"android":"levelo://app?vid=5116a39f-5db7-438d-8ba9-7d364f940461","ios":"levelo://app?vid=5116a39f-5db7-438d-8ba9-7d364f940461"},"vehicle_type_id":"4","last_reported":1728061663,"current_range_meters":32000,"station_id":"ce4bgt12rcd13ifvqcd0","pricing_plan_id":"cebpf4jnsgd1na2vs0mg"},{"bike_id":"9f20634d-525d-452d-8c93-57b3664cc507","system_id":"levelo_inurba_marseille","lat":43.26559,"lon":5.39018,"is_reserved":false,"is_disabled":false,"rental_uris":{"android":"levelo://app?vid=9f20634d-525d-452d-8c93-57b3664cc507","ios":"levelo://app?vid=9f20634d-525d-452d-8c93-57b3664cc507"},"vehicle_type_id":"4","last_reported":1728061663,"current_range_meters":10800,"station_id":"ce4bhe12rcd13ifvqf30","pricing_plan_id":"cebpf4jnsgd1na2vs0mg"},{"bike_id":"b6a817d8-5787-46a3-898e-0b46c75fc481","system_id":"levelo_inurba_marseille","lat":43.32965,"lon":5.40344,"is_reserved":false,"is_disabled":false,"rental_uris":{"android":"levelo://app?vid=b6a817d8-5787-46a3-898e-0b46c75fc481","ios":"levelo://app?vid=b6a817d8-5787-46a3-898e-0b46c75fc481"},"vehicle_type_id":"4","last_reported":1728061663,"current_range_meters":9600,"station_id":"","pricing_plan_id":"cebpf4jnsgd1na2vs0mg"},{"bike_id":"991857db-908b-4057-bf32-7535d089c7e5","system_id":"levelo_inurba_marseille","lat":43.300568,"lon":5.386395,"is_reserved":false,"is_disabled":false,"rental_uris":{"android":"levelo://app?vid=991857db-908b-4057-bf32-7535d089c7e5","ios":"levelo://app?vid=991857db-908b-4057-bf32-7535d089c7e5"},"vehicle_type_id":"4","last_reported":1728061663,"current_range_meters":35200,"station_id":"ce4bghh2rcd13ifvqb60","pricing_plan_id":"cebpf4jnsgd1na2vs0mg"},{"bike_id":"51b3f3fb-8c50-4421-8e22-3643f9d5bbb8","system_id":"levelo_inurba_marseille","lat":43.31172,"lon":5.38723,"is_reserved":false,"is_disabled":false,"rental_uris":{"android":"levelo://app?vid=51b3f3fb-8c50-4421-8e22-3643f9d5bbb8","ios":"levelo://app?vid=51b3f3fb-8c50-4421-8e22-3643f9d5bbb8"},"vehicle_type_id":"4","last_reported":1728061663,"current_range_meters":28800,"station_id":"ce4bgv12rcd13ifvqcp0","pricing_plan_id":"cebpf4jnsgd1na2vs0mg"},{"bike_id":"64bd957e-b978-44cb-a85c-928d627d24ec","system_id":"levelo_inurba_marseille","lat":43.35583,"lon":5.3593,"is_reserved":false,"is_disabled":false,"rental_uris":{"android":"levelo://app?vid=64bd957e-b978-44cb-a85c-928d627d24ec","ios":"levelo://app?vid=64bd957e-b978-44cb-a85c-928d627d24ec"},"vehicle_type_id":"4","last_reported":1728061663,"current_range_meters":11200,"station_id":"","pricing_plan_id":"cebpf4jnsgd1na2vs0mg"},{"bike_id":"6219e7fd-5be9-417c-814e-449a4e64f5a0","system_id":"levelo_inurba_marseille","lat":43.26558,"lon":5.37289,"is_reserved":false,"is_disabled":false,"rental_uris":{"android":"levelo://app?vid=6219e7fd-5be9-417c-814e-449a4e64f5a0","ios":"levelo://app?vid=6219e7fd-5be9-417c-814e-449a4e64f5a0"},"vehicle_type_id":"4","last_reported":1728061663,"current_range_meters":30800,"station_id":"ce4bhg12rcd13ifvqf70","pricing_plan_id":"cebpf4jnsgd1na2vs0mg"},{"bike_id":"b093a88e-ff81-4e55-b2a3-b1012baa03c0","system_id":"levelo_inurba_marseille","lat":43.26062,"lon":5.39398,"is_reserved":false,"is_disabled":false,"rental_uris":{"android":"levelo://app?vid=b093a88e-ff81-4e55-b2a3-b1012baa03c0","ios":"levelo://app?vid=b093a88e-ff81-4e55-b2a3-b1012baa03c0"},"vehicle_type_id":"4","last_reported":1728061663,"current_range_meters":4800,"station_id":"ce4bhh92rcd13ifvqfj0","pricing_plan_id":"cebpf4jnsgd1na2vs0mg"},{"bike_id":"c6f873cc-4970-4997-828b-ed86f1e2adb1","system_id":"levelo_inurba_marseille","lat":43.24175,"lon":5.39709,"is_reserved":false,"is_disabled":false,"rental_uris":{"android":"levelo://app?vid=c6f873cc-4970-4997-828b-ed86f1e2adb1","ios":"levelo://app?vid=c6f873cc-4970-4997-828b-ed86f1e2adb1"},"vehicle_type_id":"4","last_reported":1728061663,"current_range_meters":13600,"station_id":"ce4bhn12rcd13ifvqgpg","pricing_plan_id":"cebpf4jnsgd1na2vs0mg"},{"bike_id":"6d679b6b-38e0-4f37-8caf-d0dfb3677fc5","system_id":"levelo_inurba_marseille","lat":43.2293,"lon":5.35381,"is_reserved":false,"is_disabled":false,"rental_uris":{"android":"levelo://app?vid=6d679b6b-38e0-4f37-8caf-d0dfb3677fc5","ios":"levelo://app?vid=6d679b6b-38e0-4f37-8caf-d0dfb3677fc5"},"vehicle_type_id":"4","last_reported":1728061663,"current_range_meters":17600,"station_id":"cpo3532slgdg3j2ikp40","pricing_plan_id":"cebpf4jnsgd1na2vs0mg"},{"bike_id":"0acc7598-dc9c-49af-a041-96513a1b682a","system_id":"levelo_inurba_marseille","lat":43.24998,"lon":5.38927,"is_reserved":false,"is_disabled":false,"rental_uris":{"android":"levelo://app?vid=0acc7598-dc9c-49af-a041-96513a1b682a","ios":"levelo://app?vid=0acc7598-dc9c-49af-a041-96513a1b682a"},"vehicle_type_id":"4","last_reported":1728061663,"current_range_meters":33200,"station_id":"ce4bhgp2rcd13ifvqfd0","pricing_plan_id":"cebpf4jnsgd1na2vs0mg"},{"bike_id":"337a11da-e011-4338-8077-673dbe1904b3","system_id":"levelo_inurba_marseille","lat":43.2707,"lon":5.42283,"is_reserved":false,"is_disabled":false,"rental_uris":{"android":"levelo://app?vid=337a11da-e011-4338-8077-673dbe1904b3","ios":"levelo://app?vid=337a11da-e011-4338-8077-673dbe1904b3"},"vehicle_type_id":"4","last_reported":1728061663,"current_range_meters":38000,"station_id":"ce4bhk92rcd13ifvqgb0","pricing_plan_id":"cebpf4jnsgd1na2vs0mg"},{"bike_id":"42715632-e225-47f3-813c-9451f24e5700","system_id":"levelo_inurba_marseille","lat":43.2319,"lon":5.35558,"is_reserved":false,"is_disabled":false,"rental_uris":{"android":"levelo://app?vid=42715632-e225-47f3-813c-9451f24e5700","ios":"levelo://app?vid=42715632-e225-47f3-813c-9451f24e5700"},"vehicle_type_id":"4","last_reported":1728061663,"current_range_meters":12800,"station_id":"ce4bhu92rcd13ifvqi70","pricing_plan_id":"cebpf4jnsgd1na2vs0mg"},{"bike_id":"c9bc2ab5-94d0-41ec-864d-76a29197e805","system_id":"levelo_inurba_marseille","lat":43.30194,"lon":5.36634,"is_reserved":false,"is_disabled":false,"rental_uris":{"android":"levelo://app?vid=c9bc2ab5-94d0-41ec-864d-76a29197e805","ios":"levelo://app?vid=c9bc2ab5-94d0-41ec-864d-76a29197e805"},"vehicle_type_id":"4","last_reported":1728061663,"current_range_meters":20800,"station_id":"ce4bgrh2rcd13ifvqc8g","pricing_plan_id":"cebpf4jnsgd1na2vs0mg"},{"bike_id":"ed0afaed-f916-4854-994b-95ae46c87002","system_id":"levelo_inurba_marseille","lat":43.24665,"lon":5.38166,"is_reserved":false,"is_disabled":false,"rental_uris":{"android":"levelo://app?vid=ed0afaed-f916-4854-994b-95ae46c87002","ios":"levelo://app?vid=ed0afaed-f916-4854-994b-95ae46c87002"},"vehicle_type_id":"4","last_reported":1728061663,"current_range_meters":3200,"station_id":"ce4bhih2rcd13ifvqfr0","pricing_plan_id":"cebpf4jnsgd1na2vs0mg"},{"bike_id":"9c6ceacf-46aa-4972-8a1c-69fbeaf93293","system_id":"levelo_inurba_marseille","lat":43.31751,"lon":5.39029,"is_reserved":false,"is_disabled":false,"rental_uris":{"android":"levelo://app?vid=9c6ceacf-46aa-4972-8a1c-69fbeaf93293","ios":"levelo://app?vid=9c6ceacf-46aa-4972-8a1c-69fbeaf93293"},"vehicle_type_id":"4","last_reported":1728061663,"current_range_meters":10800,"station_id":"ce4bhqp2rcd13ifvqhng","pricing_plan_id":"cebpf4jnsgd1na2vs0mg"},{"bike_id":"aa52df7a-6036-4b51-b89d-4900cec91c4c","system_id":"levelo_inurba_marseille","lat":43.28426,"lon":5.34988,"is_reserved":false,"is_disabled":false,"rental_uris":{"android":"levelo://app?vid=aa52df7a-6036-4b51-b89d-4900cec91c4c","ios":"levelo://app?vid=aa52df7a-6036-4b51-b89d-4900cec91c4c"},"vehicle_type_id":"4","last_reported":1728061663,"current_range_meters":38800,"station_id":"ce4bhbh2rcd13ifvqepg","pricing_plan_id":"cebpf4jnsgd1na2vs0mg"},{"bike_id":"27ebe0fc-e930-4f08-b0dd-688fadfd5154","system_id":"levelo_inurba_marseille","lat":43.25717,"lon":5.41115,"is_reserved":false,"is_disabled":false,"rental_uris":{"android":"levelo://app?vid=27ebe0fc-e930-4f08-b0dd-688fadfd5154","ios":"levelo://app?vid=27ebe0fc-e930-4f08-b0dd-688fadfd5154"},"vehicle_type_id":"4","last_reported":1728061663,"current_range_meters":15200,"station_id":"ce4bhkp2rcd13ifvqgd0","pricing_plan_id":"cebpf4jnsgd1na2vs0mg"},{"bike_id":"18b9e795-8b52-4e2b-ac5d-7e5e9c197845","system_id":"levelo_inurba_marseille","lat":43.2707,"lon":5.42285,"is_reserved":false,"is_disabled":false,"rental_uris":{"android":"levelo://app?vid=18b9e795-8b52-4e2b-ac5d-7e5e9c197845","ios":"levelo://app?vid=18b9e795-8b52-4e2b-ac5d-7e5e9c197845"},"vehicle_type_id":"4","last_reported":1728061663,"current_range_meters":12400,"station_id":"ce4bhk92rcd13ifvqgb0","pricing_plan_id":"cebpf4jnsgd1na2vs0mg"},{"bike_id":"a235d2aa-b6ed-4a68-a32d-2fbf4514563c","system_id":"levelo_inurba_marseille","lat":43.29623,"lon":5.37715,"is_reserved":false,"is_disabled":false,"rental_uris":{"android":"levelo://app?vid=a235d2aa-b6ed-4a68-a32d-2fbf4514563c","ios":"levelo://app?vid=a235d2aa-b6ed-4a68-a32d-2fbf4514563c"},"vehicle_type_id":"4","last_reported":1728061663,"current_range_meters":6400,"station_id":"ce4bgi92rcd13ifvqb90","pricing_plan_id":"cebpf4jnsgd1na2vs0mg"},{"bike_id":"17d39ff3-62e9-4987-b9c8-4f781359ef10","system_id":"levelo_inurba_marseille","lat":43.27642,"lon":5.38911,"is_reserved":false,"is_disabled":false,"rental_uris":{"android":"levelo://app?vid=17d39ff3-62e9-4987-b9c8-4f781359ef10","ios":"levelo://app?vid=17d39ff3-62e9-4987-b9c8-4f781359ef10"},"vehicle_type_id":"4","last_reported":1728061663,"current_range_meters":24800,"station_id":"ce4bhi12rcd13ifvqfo0","pricing_plan_id":"cebpf4jnsgd1na2vs0mg"},{"bike_id":"085d600b-63ed-4b1e-959f-cc4adfe2d205","system_id":"levelo_inurba_marseille","lat":43.28999,"lon":5.35618,"is_reserved":false,"is_disabled":false,"rental_uris":{"android":"levelo://app?vid=085d600b-63ed-4b1e-959f-cc4adfe2d205","ios":"levelo://app?vid=085d600b-63ed-4b1e-959f-cc4adfe2d205"},"vehicle_type_id":"4","last_reported":1728061663,"current_range_meters":34000,"station_id":"ce4bhb92rcd13ifvqen0","pricing_plan_id":"cebpf4jnsgd1na2vs0mg"},{"bike_id":"d50f9a3d-8a9a-4a6d-a7de-ba1d211d824c","system_id":"levelo_inurba_marseille","lat":43.28152,"lon":5.42647,"is_reserved":false,"is_disabled":false,"rental_uris":{"android":"levelo://app?vid=d50f9a3d-8a9a-4a6d-a7de-ba1d211d824c","ios":"levelo://app?vid=d50f9a3d-8a9a-4a6d-a7de-ba1d211d824c"},"vehicle_type_id":"4","last_reported":1728061663,"current_range_meters":2000,"station_id":"ce4bhnh2rcd13ifvqgug","pricing_plan_id":"cebpf4jnsgd1na2vs0mg"},{"bike_id":"e315600c-3ff8-4893-abe5-0c310d48465d","system_id":"levelo_inurba_marseille","lat":43.33762,"lon":5.37428,"is_reserved":false,"is_disabled":false,"rental_uris":{"android":"levelo://app?vid=e315600c-3ff8-4893-abe5-0c310d48465d","ios":"levelo://app?vid=e315600c-3ff8-4893-abe5-0c310d48465d"},"vehicle_type_id":"4","last_reported":1728061663,"current_range_meters":37600,"station_id":"","pricing_plan_id":"cebpf4jnsgd1na2vs0mg"},{"bike_id":"034dc804-c316-4d92-9f40-9da4fab58a7c","system_id":"levelo_inurba_marseille","lat":43.27159,"lon":5.38481,"is_reserved":false,"is_disabled":false,"rental_uris":{"android":"levelo://app?vid=034dc804-c316-4d92-9f40-9da4fab58a7c","ios":"levelo://app?vid=034dc804-c316-4d92-9f40-9da4fab58a7c"},"vehicle_type_id":"4","last_reported":1728061663,"current_range_meters":12800,"station_id":"ce4bhjp2rcd13ifvqg90","pricing_plan_id":"cebpf4jnsgd1na2vs0mg"},{"bike_id":"2b1957ff-5b9b-4bb0-b783-018ea8bd20cb","system_id":"levelo_inurba_marseille","lat":43.24649,"lon":5.38894,"is_reserved":false,"is_disabled":false,"rental_uris":{"android":"levelo://app?vid=2b1957ff-5b9b-4bb0-b783-018ea8bd20cb","ios":"levelo://app?vid=2b1957ff-5b9b-4bb0-b783-018ea8bd20cb"},"vehicle_type_id":"4","last_reported":1728061663,"current_range_meters":4800,"station_id":"ce4bhg12rcd13ifvqf60","pricing_plan_id":"cebpf4jnsgd1na2vs0mg"},{"bike_id":"d0f9c3f2-ff94-4abe-a40a-0bcffad16736","system_id":"levelo_inurba_marseille","lat":43.29075,"lon":5.37172,"is_reserved":false,"is_disabled":false,"rental_uris":{"android":"levelo://app?vid=d0f9c3f2-ff94-4abe-a40a-0bcffad16736","ios":"levelo://app?vid=d0f9c3f2-ff94-4abe-a40a-0bcffad16736"},"vehicle_type_id":"4","last_reported":1728061663,"current_range_meters":32800,"station_id":"ce4bh5p2rcd13ifvqe4g","pricing_plan_id":"cebpf4jnsgd1na2vs0mg"},{"bike_id":"7a3a5f4c-fc1d-425c-98fb-d2710aa6c3ad","system_id":"levelo_inurba_marseille","lat":43.30142,"lon":5.37417,"is_reserved":false,"is_disabled":false,"rental_uris":{"android":"levelo://app?vid=7a3a5f4c-fc1d-425c-98fb-d2710aa6c3ad","ios":"levelo://app?vid=7a3a5f4c-fc1d-425c-98fb-d2710aa6c3ad"},"vehicle_type_id":"4","last_reported":1728061663,"current_range_meters":11600,"station_id":"ce4bgs92rcd13ifvqcc0","pricing_plan_id":"cebpf4jnsgd1na2vs0mg"},{"bike_id":"ed93992f-4f9a-49dc-9db5-db97e32e70d9","system_id":"levelo_inurba_marseille","lat":43.26556,"lon":5.37296,"is_reserved":false,"is_disabled":false,"rental_uris":{"android":"levelo://app?vid=ed93992f-4f9a-49dc-9db5-db97e32e70d9","ios":"levelo://app?vid=ed93992f-4f9a-49dc-9db5-db97e32e70d9"},"vehicle_type_id":"4","last_reported":1728061663,"current_range_meters":30000,"station_id":"ce4bhg12rcd13ifvqf70","pricing_plan_id":"cebpf4jnsgd1na2vs0mg"},{"bike_id":"fc055ccb-fc6a-4604-ba9c-abd084cc9f0e","system_id":"levelo_inurba_marseille","lat":43.29225,"lon":5.36072,"is_reserved":false,"is_disabled":false,"rental_uris":{"android":"levelo://app?vid=fc055ccb-fc6a-4604-ba9c-abd084cc9f0e","ios":"levelo://app?vid=fc055ccb-fc6a-4604-ba9c-abd084cc9f0e"},"vehicle_type_id":"4","last_reported":1728061663,"current_range_meters":3600,"station_id":"ce4bhbh2rcd13ifvqeqg","pricing_plan_id":"cebpf4jnsgd1na2vs0mg"},{"bike_id":"0f310745-dd27-4862-90b0-54739b07d55d","system_id":"levelo_inurba_marseille","lat":43.2558,"lon":5.3824,"is_reserved":false,"is_disabled":false,"rental_uris":{"android":"levelo://app?vid=0f310745-dd27-4862-90b0-54739b07d55d","ios":"levelo://app?vid=0f310745-dd27-4862-90b0-54739b07d55d"},"vehicle_type_id":"4","last_reported":1728061663,"current_range_meters":5600,"station_id":"ce4bhih2rcd13ifvqfs0","pricing_plan_id":"cebpf4jnsgd1na2vs0mg"},{"bike_id":"740aa9b1-bf7f-495f-b4b6-8c44676bc674","system_id":"levelo_inurba_marseille","lat":43.33756,"lon":5.37447,"is_reserved":false,"is_disabled":false,"rental_uris":{"android":"levelo://app?vid=740aa9b1-bf7f-495f-b4b6-8c44676bc674","ios":"levelo://app?vid=740aa9b1-bf7f-495f-b4b6-8c44676bc674"},"vehicle_type_id":"4","last_reported":1728061663,"current_range_meters":8000,"station_id":"","pricing_plan_id":"cebpf4jnsgd1na2vs0mg"},{"bike_id":"77b9203a-0842-4b45-acd8-ada92dfc3441","system_id":"levelo_inurba_marseille","lat":43.29909,"lon":5.38194,"is_reserved":false,"is_disabled":false,"rental_uris":{"android":"levelo://app?vid=77b9203a-0842-4b45-acd8-ada92dfc3441","ios":"levelo://app?vid=77b9203a-0842-4b45-acd8-ada92dfc3441"},"vehicle_type_id":"4","last_reported":1728061663,"current_range_meters":17200,"station_id":"ce4bgj12rcd13ifvqbc0","pricing_plan_id":"cebpf4jnsgd1na2vs0mg"},{"bike_id":"8c61526c-2d67-4b1a-8f32-0018924d753f","system_id":"levelo_inurba_marseille","lat":43.337444,"lon":5.374475,"is_reserved":false,"is_disabled":false,"rental_uris":{"android":"levelo://app?vid=8c61526c-2d67-4b1a-8f32-0018924d753f","ios":"levelo://app?vid=8c61526c-2d67-4b1a-8f32-0018924d753f"},"vehicle_type_id":"4","last_reported":1728061663,"current_range_meters":38400,"station_id":"","pricing_plan_id":"cebpf4jnsgd1na2vs0mg"},{"bike_id":"223aaa60-2b32-4669-8b7a-42d0f5f37c31","system_id":"levelo_inurba_marseille","lat":43.28155,"lon":5.42648,"is_reserved":false,"is_disabled":false,"rental_uris":{"android":"levelo://app?vid=223aaa60-2b32-4669-8b7a-42d0f5f37c31","ios":"levelo://app?vid=223aaa60-2b32-4669-8b7a-42d0f5f37c31"},"vehicle_type_id":"4","last_reported":1728061663,"current_range_meters":24400,"station_id":"ce4bhnh2rcd13ifvqgug","pricing_plan_id":"cebpf4jnsgd1na2vs0mg"},{"bike_id":"8fe297ad-eb06-48ff-9c20-30f7da1054fa","system_id":"levelo_inurba_marseille","lat":43.26207,"lon":5.37447,"is_reserved":false,"is_disabled":false,"rental_uris":{"android":"levelo://app?vid=8fe297ad-eb06-48ff-9c20-30f7da1054fa","ios":"levelo://app?vid=8fe297ad-eb06-48ff-9c20-30f7da1054fa"},"vehicle_type_id":"4","last_reported":1728061663,"current_range_meters":38400,"station_id":"ce4bhgp2rcd13ifvqfc0","pricing_plan_id":"cebpf4jnsgd1na2vs0mg"},{"bike_id":"3904fad0-653b-4b99-b9da-b86f7c45d378","system_id":"levelo_inurba_marseille","lat":43.26682,"lon":5.38272,"is_reserved":false,"is_disabled":false,"rental_uris":{"android":"levelo://app?vid=3904fad0-653b-4b99-b9da-b86f7c45d378","ios":"levelo://app?vid=3904fad0-653b-4b99-b9da-b86f7c45d378"},"vehicle_type_id":"4","last_reported":1728061663,"current_range_meters":30000,"station_id":"ce4bhg92rcd13ifvqf90","pricing_plan_id":"cebpf4jnsgd1na2vs0mg"},{"bike_id":"e0a8d429-c373-4af2-9689-508579c8bcca","system_id":"levelo_inurba_marseille","lat":43.26191,"lon":5.3745,"is_reserved":false,"is_disabled":false,"rental_uris":{"android":"levelo://app?vid=e0a8d429-c373-4af2-9689-508579c8bcca","ios":"levelo://app?vid=e0a8d429-c373-4af2-9689-508579c8bcca"},"vehicle_type_id":"4","last_reported":1728061663,"current_range_meters":24000,"station_id":"ce4bhgp2rcd13ifvqfc0","pricing_plan_id":"cebpf4jnsgd1na2vs0mg"},{"bike_id":"6b315d99-3ae8-4acd-8c24-9531c7a83eb8","system_id":"levelo_inurba_marseille","lat":43.23063,"lon":5.35493,"is_reserved":false,"is_disabled":false,"rental_uris":{"android":"levelo://app?vid=6b315d99-3ae8-4acd-8c24-9531c7a83eb8","ios":"levelo://app?vid=6b315d99-3ae8-4acd-8c24-9531c7a83eb8"},"vehicle_type_id":"4","last_reported":1728061663,"current_range_meters":18000,"station_id":"cpo3342slgdg3j2ifvpg","pricing_plan_id":"cebpf4jnsgd1na2vs0mg"},{"bike_id":"d26e4c8e-6154-43fe-9bb3-8cfbcdb85e0a","system_id":"levelo_inurba_marseille","lat":43.30333,"lon":5.37048,"is_reserved":false,"is_disabled":false,"rental_uris":{"android":"levelo://app?vid=d26e4c8e-6154-43fe-9bb3-8cfbcdb85e0a","ios":"levelo://app?vid=d26e4c8e-6154-43fe-9bb3-8cfbcdb85e0a"},"vehicle_type_id":"4","last_reported":1728061663,"current_range_meters":6400,"station_id":"","pricing_plan_id":"cebpf4jnsgd1na2vs0mg"},{"bike_id":"c912529b-3357-447f-a7c3-15371681a568","system_id":"levelo_inurba_marseille","lat":43.29575,"lon":5.37507,"is_reserved":false,"is_disabled":false,"rental_uris":{"android":"levelo://app?vid=c912529b-3357-447f-a7c3-15371681a568","ios":"levelo://app?vid=c912529b-3357-447f-a7c3-15371681a568"},"vehicle_type_id":"4","last_reported":1728061663,"current_range_meters":39200,"station_id":"ce4bgh92rcd13ifvqb50","pricing_plan_id":"cebpf4jnsgd1na2vs0mg"},{"bike_id":"55188226-ff9f-45e8-99b6-3c0c54d286d9","system_id":"levelo_inurba_marseille","lat":43.284375,"lon":5.366386,"is_reserved":false,"is_disabled":false,"rental_uris":{"android":"levelo://app?vid=55188226-ff9f-45e8-99b6-3c0c54d286d9","ios":"levelo://app?vid=55188226-ff9f-45e8-99b6-3c0c54d286d9"},"vehicle_type_id":"4","last_reported":1728061663,"current_range_meters":7200,"station_id":"ce4bhbp2rcd13ifvqerg","pricing_plan_id":"cebpf4jnsgd1na2vs0mg"},{"bike_id":"27d2100b-ecea-4bd4-ab7e-beac966a32b3","system_id":"levelo_inurba_marseille","lat":43.295993,"lon":5.381061,"is_reserved":false,"is_disabled":false,"rental_uris":{"android":"levelo://app?vid=27d2100b-ecea-4bd4-ab7e-beac966a32b3","ios":"levelo://app?vid=27d2100b-ecea-4bd4-ab7e-beac966a32b3"},"vehicle_type_id":"4","last_reported":1728061663,"current_range_meters":19600,"station_id":"ce4bgl12rcd13ifvqbo0","pricing_plan_id":"cebpf4jnsgd1na2vs0mg"},{"bike_id":"8bd5252c-6294-43a1-863d-f1c0353c0ace","system_id":"levelo_inurba_marseille","lat":43.25577,"lon":5.38235,"is_reserved":false,"is_disabled":false,"rental_uris":{"android":"levelo://app?vid=8bd5252c-6294-43a1-863d-f1c0353c0ace","ios":"levelo://app?vid=8bd5252c-6294-43a1-863d-f1c0353c0ace"},"vehicle_type_id":"4","last_reported":1728061663,"current_range_meters":32800,"station_id":"ce4bhih2rcd13ifvqfs0","pricing_plan_id":"cebpf4jnsgd1na2vs0mg"},{"bike_id":"ce29f782-97e3-4de7-96c1-58dca013b3d8","system_id":"levelo_inurba_marseille","lat":43.27172,"lon":5.41,"is_reserved":false,"is_disabled":false,"rental_uris":{"android":"levelo://app?vid=ce29f782-97e3-4de7-96c1-58dca013b3d8","ios":"levelo://app?vid=ce29f782-97e3-4de7-96c1-58dca013b3d8"},"vehicle_type_id":"4","last_reported":1728061663,"current_range_meters":4800,"station_id":"ce4bhl12rcd13ifvqgf0","pricing_plan_id":"cebpf4jnsgd1na2vs0mg"},{"bike_id":"6617a40d-4d6d-4a77-897c-b2b69287f0c7","system_id":"levelo_inurba_marseille","lat":43.29688,"lon":5.37299,"is_reserved":false,"is_disabled":false,"rental_uris":{"android":"levelo://app?vid=6617a40d-4d6d-4a77-897c-b2b69287f0c7","ios":"levelo://app?vid=6617a40d-4d6d-4a77-897c-b2b69287f0c7"},"vehicle_type_id":"4","last_reported":1728061663,"current_range_meters":11600,"station_id":"ce4bgk12rcd13ifvqbj0","pricing_plan_id":"cebpf4jnsgd1na2vs0mg"},{"bike_id":"c979528c-f86e-4100-947c-f265fda30def","system_id":"levelo_inurba_marseille","lat":43.29868,"lon":5.39741,"is_reserved":false,"is_disabled":false,"rental_uris":{"android":"levelo://app?vid=c979528c-f86e-4100-947c-f265fda30def","ios":"levelo://app?vid=c979528c-f86e-4100-947c-f265fda30def"},"vehicle_type_id":"4","last_reported":1728061663,"current_range_meters":12400,"station_id":"ce4bh0h2rcd13ifvqd50","pricing_plan_id":"cebpf4jnsgd1na2vs0mg"},{"bike_id":"9a4212d4-dfbb-45d0-9670-69900c1c2395","system_id":"levelo_inurba_marseille","lat":43.31723,"lon":5.37165,"is_reserved":false,"is_disabled":false,"rental_uris":{"android":"levelo://app?vid=9a4212d4-dfbb-45d0-9670-69900c1c2395","ios":"levelo://app?vid=9a4212d4-dfbb-45d0-9670-69900c1c2395"},"vehicle_type_id":"4","last_reported":1728061663,"current_range_meters":16400,"station_id":"","pricing_plan_id":"cebpf4jnsgd1na2vs0mg"},{"bike_id":"18e39a3f-f78e-4e3c-8396-9f8397f3964e","system_id":"levelo_inurba_marseille","lat":43.33025,"lon":5.39037,"is_reserved":false,"is_disabled":false,"rental_uris":{"android":"levelo://app?vid=18e39a3f-f78e-4e3c-8396-9f8397f3964e","ios":"levelo://app?vid=18e39a3f-f78e-4e3c-8396-9f8397f3964e"},"vehicle_type_id":"4","last_reported":1728061663,"current_range_meters":4400,"station_id":"ce4bhr92rcd13ifvqhrg","pricing_plan_id":"cebpf4jnsgd1na2vs0mg"},{"bike_id":"500bea7d-78ab-4ed7-9f50-b832d715aacd","system_id":"levelo_inurba_marseille","lat":43.29278,"lon":5.40118,"is_reserved":false,"is_disabled":false,"rental_uris":{"android":"levelo://app?vid=500bea7d-78ab-4ed7-9f50-b832d715aacd","ios":"levelo://app?vid=500bea7d-78ab-4ed7-9f50-b832d715aacd"},"vehicle_type_id":"4","last_reported":1728061663,"current_range_meters":38400,"station_id":"ce4bh312rcd13ifvqdk0","pricing_plan_id":"cebpf4jnsgd1na2vs0mg"},{"bike_id":"b40d1d79-9534-4295-a180-b7962fa0979f","system_id":"levelo_inurba_marseille","lat":43.28265,"lon":5.35065,"is_reserved":false,"is_disabled":false,"rental_uris":{"android":"levelo://app?vid=b40d1d79-9534-4295-a180-b7962fa0979f","ios":"levelo://app?vid=b40d1d79-9534-4295-a180-b7962fa0979f"},"vehicle_type_id":"4","last_reported":1728061663,"current_range_meters":1600,"station_id":"ce4bhbp2rcd13ifvqerg","pricing_plan_id":"cebpf4jnsgd1na2vs0mg"},{"bike_id":"87dbcfac-a352-4e9a-b02f-707f526fd230","system_id":"levelo_inurba_marseille","lat":43.33766,"lon":5.37446,"is_reserved":false,"is_disabled":false,"rental_uris":{"android":"levelo://app?vid=87dbcfac-a352-4e9a-b02f-707f526fd230","ios":"levelo://app?vid=87dbcfac-a352-4e9a-b02f-707f526fd230"},"vehicle_type_id":"4","last_reported":1728061663,"current_range_meters":36000,"station_id":"","pricing_plan_id":"cebpf4jnsgd1na2vs0mg"},{"bike_id":"b1e82195-8737-4b91-8d76-5ccf5899abaf","system_id":"levelo_inurba_marseille","lat":43.287939,"lon":5.360941,"is_reserved":false,"is_disabled":false,"rental_uris":{"android":"levelo://app?vid=b1e82195-8737-4b91-8d76-5ccf5899abaf","ios":"levelo://app?vid=b1e82195-8737-4b91-8d76-5ccf5899abaf"},"vehicle_type_id":"4","last_reported":1728061663,"current_range_meters":17200,"station_id":"","pricing_plan_id":"cebpf4jnsgd1na2vs0mg"},{"bike_id":"0be5f9ea-b88f-41d7-8b6d-9197fa443399","system_id":"levelo_inurba_marseille","lat":43.25001,"lon":5.38923,"is_reserved":false,"is_disabled":false,"rental_uris":{"android":"levelo://app?vid=0be5f9ea-b88f-41d7-8b6d-9197fa443399","ios":"levelo://app?vid=0be5f9ea-b88f-41d7-8b6d-9197fa443399"},"vehicle_type_id":"4","last_reported":1728061663,"current_range_meters":36400,"station_id":"ce4bhgp2rcd13ifvqfd0","pricing_plan_id":"cebpf4jnsgd1na2vs0mg"},{"bike_id":"523d596c-627f-448e-8829-b20c631f5b7c","system_id":"levelo_inurba_marseille","lat":43.30123,"lon":5.39857,"is_reserved":false,"is_disabled":false,"rental_uris":{"android":"levelo://app?vid=523d596c-627f-448e-8829-b20c631f5b7c","ios":"levelo://app?vid=523d596c-627f-448e-8829-b20c631f5b7c"},"vehicle_type_id":"4","last_reported":1728061663,"current_range_meters":3200,"station_id":"ce4bh0h2rcd13ifvqd40","pricing_plan_id":"cebpf4jnsgd1na2vs0mg"},{"bike_id":"7a381991-9616-4f16-b042-5b935c5c62b4","system_id":"levelo_inurba_marseille","lat":43.24656,"lon":5.38165,"is_reserved":false,"is_disabled":false,"rental_uris":{"android":"levelo://app?vid=7a381991-9616-4f16-b042-5b935c5c62b4","ios":"levelo://app?vid=7a381991-9616-4f16-b042-5b935c5c62b4"},"vehicle_type_id":"4","last_reported":1728061663,"current_range_meters":16800,"station_id":"ce4bhih2rcd13ifvqfr0","pricing_plan_id":"cebpf4jnsgd1na2vs0mg"},{"bike_id":"fac85e5e-7249-4399-90fd-2f54b2f8ec4e","system_id":"levelo_inurba_marseille","lat":43.26804,"lon":5.4027,"is_reserved":false,"is_disabled":false,"rental_uris":{"android":"levelo://app?vid=fac85e5e-7249-4399-90fd-2f54b2f8ec4e","ios":"levelo://app?vid=fac85e5e-7249-4399-90fd-2f54b2f8ec4e"},"vehicle_type_id":"4","last_reported":1728061663,"current_range_meters":16800,"station_id":"ce501612rcd8frsf0b60","pricing_plan_id":"cebpf4jnsgd1na2vs0mg"},{"bike_id":"f3540ef4-38de-4ce5-ae02-4daf27889149","system_id":"levelo_inurba_marseille","lat":43.30797,"lon":5.43525,"is_reserved":false,"is_disabled":false,"rental_uris":{"android":"levelo://app?vid=f3540ef4-38de-4ce5-ae02-4daf27889149","ios":"levelo://app?vid=f3540ef4-38de-4ce5-ae02-4daf27889149"},"vehicle_type_id":"4","last_reported":1728061663,"current_range_meters":17200,"station_id":"ce4bhph2rcd13ifvqheg","pricing_plan_id":"cebpf4jnsgd1na2vs0mg"},{"bike_id":"d23a4f03-6ec0-4ece-81ea-75a978d5b687","system_id":"levelo_inurba_marseille","lat":43.33771,"lon":5.37426,"is_reserved":false,"is_disabled":false,"rental_uris":{"android":"levelo://app?vid=d23a4f03-6ec0-4ece-81ea-75a978d5b687","ios":"levelo://app?vid=d23a4f03-6ec0-4ece-81ea-75a978d5b687"},"vehicle_type_id":"4","last_reported":1728061663,"current_range_meters":38800,"station_id":"","pricing_plan_id":"cebpf4jnsgd1na2vs0mg"},{"bike_id":"a78effc2-b56a-4370-95f4-2e42042c513f","system_id":"levelo_inurba_marseille","lat":43.24066,"lon":5.37767,"is_reserved":false,"is_disabled":false,"rental_uris":{"android":"levelo://app?vid=a78effc2-b56a-4370-95f4-2e42042c513f","ios":"levelo://app?vid=a78effc2-b56a-4370-95f4-2e42042c513f"},"vehicle_type_id":"4","last_reported":1728061663,"current_range_meters":22400,"station_id":"ce4bhnp2rcd13ifvqgvg","pricing_plan_id":"cebpf4jnsgd1na2vs0mg"},{"bike_id":"c59032dc-a2dd-47b6-a250-83ea91b42d2c","system_id":"levelo_inurba_marseille","lat":43.292297,"lon":5.360671,"is_reserved":false,"is_disabled":false,"rental_uris":{"android":"levelo://app?vid=c59032dc-a2dd-47b6-a250-83ea91b42d2c","ios":"levelo://app?vid=c59032dc-a2dd-47b6-a250-83ea91b42d2c"},"vehicle_type_id":"4","last_reported":1728061663,"current_range_meters":3200,"station_id":"ce4bhbh2rcd13ifvqeqg","pricing_plan_id":"cebpf4jnsgd1na2vs0mg"},{"bike_id":"3e009f35-33d5-480d-94d6-680270120596","system_id":"levelo_inurba_marseille","lat":43.32286,"lon":5.38279,"is_reserved":false,"is_disabled":false,"rental_uris":{"android":"levelo://app?vid=3e009f35-33d5-480d-94d6-680270120596","ios":"levelo://app?vid=3e009f35-33d5-480d-94d6-680270120596"},"vehicle_type_id":"4","last_reported":1728061663,"current_range_meters":28000,"station_id":"ce4bhr12rcd13ifvqhqg","pricing_plan_id":"cebpf4jnsgd1na2vs0mg"},{"bike_id":"dd45ebbe-327c-4cd7-b981-e624a2989d58","system_id":"levelo_inurba_marseille","lat":43.28419,"lon":5.35003,"is_reserved":false,"is_disabled":false,"rental_uris":{"android":"levelo://app?vid=dd45ebbe-327c-4cd7-b981-e624a2989d58","ios":"levelo://app?vid=dd45ebbe-327c-4cd7-b981-e624a2989d58"},"vehicle_type_id":"4","last_reported":1728061663,"current_range_meters":33200,"station_id":"ce4bhbh2rcd13ifvqepg","pricing_plan_id":"cebpf4jnsgd1na2vs0mg"},{"bike_id":"05c37b3a-d180-4f39-8a05-3a039b77b11c","system_id":"levelo_inurba_marseille","lat":43.28619,"lon":5.35104,"is_reserved":false,"is_disabled":false,"rental_uris":{"android":"levelo://app?vid=05c37b3a-d180-4f39-8a05-3a039b77b11c","ios":"levelo://app?vid=05c37b3a-d180-4f39-8a05-3a039b77b11c"},"vehicle_type_id":"4","last_reported":1728061663,"current_range_meters":38800,"station_id":"ce4bhch2rcd13ifvqeug","pricing_plan_id":"cebpf4jnsgd1na2vs0mg"},{"bike_id":"2fc5050f-b036-4255-a193-23eec2fec7cc","system_id":"levelo_inurba_marseille","lat":43.23061,"lon":5.35493,"is_reserved":false,"is_disabled":false,"rental_uris":{"android":"levelo://app?vid=2fc5050f-b036-4255-a193-23eec2fec7cc","ios":"levelo://app?vid=2fc5050f-b036-4255-a193-23eec2fec7cc"},"vehicle_type_id":"4","last_reported":1728061663,"current_range_meters":9200,"station_id":"cpo3342slgdg3j2ifvpg","pricing_plan_id":"cebpf4jnsgd1na2vs0mg"},{"bike_id":"26e7bb4c-58b9-491a-af39-160674b1c722","system_id":"levelo_inurba_marseille","lat":43.31711,"lon":5.43702,"is_reserved":false,"is_disabled":false,"rental_uris":{"android":"levelo://app?vid=26e7bb4c-58b9-491a-af39-160674b1c722","ios":"levelo://app?vid=26e7bb4c-58b9-491a-af39-160674b1c722"},"vehicle_type_id":"4","last_reported":1728061663,"current_range_meters":38000,"station_id":"ce4bhp92rcd13ifvqhcg","pricing_plan_id":"cebpf4jnsgd1na2vs0mg"},{"bike_id":"ab7f67b1-4bcb-4ea4-aa8e-d3b3c4b653e5","system_id":"levelo_inurba_marseille","lat":43.2293,"lon":5.35379,"is_reserved":false,"is_disabled":false,"rental_uris":{"android":"levelo://app?vid=ab7f67b1-4bcb-4ea4-aa8e-d3b3c4b653e5","ios":"levelo://app?vid=ab7f67b1-4bcb-4ea4-aa8e-d3b3c4b653e5"},"vehicle_type_id":"4","last_reported":1728061663,"current_range_meters":24800,"station_id":"cpo3532slgdg3j2ikp40","pricing_plan_id":"cebpf4jnsgd1na2vs0mg"},{"bike_id":"18797f7b-03ff-4561-b4b7-4a39b50c03f6","system_id":"levelo_inurba_marseille","lat":43.29901,"lon":5.43658,"is_reserved":false,"is_disabled":false,"rental_uris":{"android":"levelo://app?vid=18797f7b-03ff-4561-b4b7-4a39b50c03f6","ios":"levelo://app?vid=18797f7b-03ff-4561-b4b7-4a39b50c03f6"},"vehicle_type_id":"4","last_reported":1728061663,"current_range_meters":38400,"station_id":"ce4bhpp2rcd13ifvqhfg","pricing_plan_id":"cebpf4jnsgd1na2vs0mg"},{"bike_id":"dc0cb00a-c751-409f-bb67-4581837588c6","system_id":"levelo_inurba_marseille","lat":43.29905,"lon":5.43671,"is_reserved":false,"is_disabled":false,"rental_uris":{"android":"levelo://app?vid=dc0cb00a-c751-409f-bb67-4581837588c6","ios":"levelo://app?vid=dc0cb00a-c751-409f-bb67-4581837588c6"},"vehicle_type_id":"4","last_reported":1728061663,"current_range_meters":14000,"station_id":"ce4bhpp2rcd13ifvqhfg","pricing_plan_id":"cebpf4jnsgd1na2vs0mg"},{"bike_id":"8e45e5b5-c3d2-4750-bd14-0fc5daa657ab","system_id":"levelo_inurba_marseille","lat":43.31081,"lon":5.42429,"is_reserved":false,"is_disabled":false,"rental_uris":{"android":"levelo://app?vid=8e45e5b5-c3d2-4750-bd14-0fc5daa657ab","ios":"levelo://app?vid=8e45e5b5-c3d2-4750-bd14-0fc5daa657ab"},"vehicle_type_id":"4","last_reported":1728061663,"current_range_meters":38800,"station_id":"ce4bhp92rcd13ifvqhag","pricing_plan_id":"cebpf4jnsgd1na2vs0mg"},{"bike_id":"e8a22d61-a4e5-44b9-ae1c-467997732e96","system_id":"levelo_inurba_marseille","lat":43.28551,"lon":5.37437,"is_reserved":false,"is_disabled":false,"rental_uris":{"android":"levelo://app?vid=e8a22d61-a4e5-44b9-ae1c-467997732e96","ios":"levelo://app?vid=e8a22d61-a4e5-44b9-ae1c-467997732e96"},"vehicle_type_id":"4","last_reported":1728061663,"current_range_meters":28000,"station_id":"","pricing_plan_id":"cebpf4jnsgd1na2vs0mg"},{"bike_id":"5620b22c-d60f-4354-839e-837c719811f9","system_id":"levelo_inurba_marseille","lat":43.29578,"lon":5.3674,"is_reserved":false,"is_disabled":false,"rental_uris":{"android":"levelo://app?vid=5620b22c-d60f-4354-839e-837c719811f9","ios":"levelo://app?vid=5620b22c-d60f-4354-839e-837c719811f9"},"vehicle_type_id":"4","last_reported":1728061663,"current_range_meters":33600,"station_id":"ce4bgph2rcd13ifvqc2g","pricing_plan_id":"cebpf4jnsgd1na2vs0mg"},{"bike_id":"7338935e-ddaa-4d29-83ed-9b3a1fb86ccc","system_id":"levelo_inurba_marseille","lat":43.29688,"lon":5.37314,"is_reserved":false,"is_disabled":false,"rental_uris":{"android":"levelo://app?vid=7338935e-ddaa-4d29-83ed-9b3a1fb86ccc","ios":"levelo://app?vid=7338935e-ddaa-4d29-83ed-9b3a1fb86ccc"},"vehicle_type_id":"4","last_reported":1728061663,"current_range_meters":29600,"station_id":"ce4bgk12rcd13ifvqbj0","pricing_plan_id":"cebpf4jnsgd1na2vs0mg"},{"bike_id":"bdff5d54-aae5-45cb-9006-6db61a699e3f","system_id":"levelo_inurba_marseille","lat":43.29528,"lon":5.38554,"is_reserved":false,"is_disabled":false,"rental_uris":{"android":"levelo://app?vid=bdff5d54-aae5-45cb-9006-6db61a699e3f","ios":"levelo://app?vid=bdff5d54-aae5-45cb-9006-6db61a699e3f"},"vehicle_type_id":"4","last_reported":1728061663,"current_range_meters":6000,"station_id":"ce4bgih2rcd13ifvqba0","pricing_plan_id":"cebpf4jnsgd1na2vs0mg"},{"bike_id":"df999261-2de0-4ae5-b13c-82e0c157fc9a","system_id":"levelo_inurba_marseille","lat":43.23187,"lon":5.3556,"is_reserved":false,"is_disabled":false,"rental_uris":{"android":"levelo://app?vid=df999261-2de0-4ae5-b13c-82e0c157fc9a","ios":"levelo://app?vid=df999261-2de0-4ae5-b13c-82e0c157fc9a"},"vehicle_type_id":"4","last_reported":1728061663,"current_range_meters":19200,"station_id":"ce4bhu92rcd13ifvqi70","pricing_plan_id":"cebpf4jnsgd1na2vs0mg"},{"bike_id":"b6d5dc25-89bf-4181-97eb-7acf6e84b655","system_id":"levelo_inurba_marseille","lat":43.31728,"lon":5.42401,"is_reserved":false,"is_disabled":false,"rental_uris":{"android":"levelo://app?vid=b6d5dc25-89bf-4181-97eb-7acf6e84b655","ios":"levelo://app?vid=b6d5dc25-89bf-4181-97eb-7acf6e84b655"},"vehicle_type_id":"4","last_reported":1728061663,"current_range_meters":7200,"station_id":"ce4bhp92rcd13ifvqhbg","pricing_plan_id":"cebpf4jnsgd1na2vs0mg"},{"bike_id":"f8015bd0-6ec0-4057-b3a7-638250bac60c","system_id":"levelo_inurba_marseille","lat":43.32288,"lon":5.38275,"is_reserved":false,"is_disabled":false,"rental_uris":{"android":"levelo://app?vid=f8015bd0-6ec0-4057-b3a7-638250bac60c","ios":"levelo://app?vid=f8015bd0-6ec0-4057-b3a7-638250bac60c"},"vehicle_type_id":"4","last_reported":1728061663,"current_range_meters":5600,"station_id":"ce4bhr12rcd13ifvqhqg","pricing_plan_id":"cebpf4jnsgd1na2vs0mg"},{"bike_id":"d8da7b8d-e42c-45a4-ac93-4ea7b820f0c5","system_id":"levelo_inurba_marseille","lat":43.28726,"lon":5.36073,"is_reserved":false,"is_disabled":false,"rental_uris":{"android":"levelo://app?vid=d8da7b8d-e42c-45a4-ac93-4ea7b820f0c5","ios":"levelo://app?vid=d8da7b8d-e42c-45a4-ac93-4ea7b820f0c5"},"vehicle_type_id":"4","last_reported":1728061663,"current_range_meters":3200,"station_id":"cki0cbj6b192h4jlfktg","pricing_plan_id":"cebpf4jnsgd1na2vs0mg"},{"bike_id":"ba624d74-19a9-4d94-8033-34017a996129","system_id":"levelo_inurba_marseille","lat":43.33029,"lon":5.3904,"is_reserved":false,"is_disabled":false,"rental_uris":{"android":"levelo://app?vid=ba624d74-19a9-4d94-8033-34017a996129","ios":"levelo://app?vid=ba624d74-19a9-4d94-8033-34017a996129"},"vehicle_type_id":"4","last_reported":1728061663,"current_range_meters":24000,"station_id":"ce4bhr92rcd13ifvqhrg","pricing_plan_id":"cebpf4jnsgd1na2vs0mg"},{"bike_id":"6183cef9-7c1e-4fa5-a158-07ab61c3db9f","system_id":"levelo_inurba_marseille","lat":43.33024,"lon":5.39034,"is_reserved":false,"is_disabled":false,"rental_uris":{"android":"levelo://app?vid=6183cef9-7c1e-4fa5-a158-07ab61c3db9f","ios":"levelo://app?vid=6183cef9-7c1e-4fa5-a158-07ab61c3db9f"},"vehicle_type_id":"4","last_reported":1728061663,"current_range_meters":40000,"station_id":"ce4bhr92rcd13ifvqhrg","pricing_plan_id":"cebpf4jnsgd1na2vs0mg"},{"bike_id":"29bde43f-8163-4a6a-bbc8-8c18b7b0b1f2","system_id":"levelo_inurba_marseille","lat":43.28263,"lon":5.35062,"is_reserved":false,"is_disabled":false,"rental_uris":{"android":"levelo://app?vid=29bde43f-8163-4a6a-bbc8-8c18b7b0b1f2","ios":"levelo://app?vid=29bde43f-8163-4a6a-bbc8-8c18b7b0b1f2"},"vehicle_type_id":"4","last_reported":1728061663,"current_range_meters":33200,"station_id":"ce4bhbp2rcd13ifvqerg","pricing_plan_id":"cebpf4jnsgd1na2vs0mg"},{"bike_id":"7db5754b-1391-430c-9df7-a4bc37ac52a6","system_id":"levelo_inurba_marseille","lat":43.25574,"lon":5.38229,"is_reserved":false,"is_disabled":false,"rental_uris":{"android":"levelo://app?vid=7db5754b-1391-430c-9df7-a4bc37ac52a6","ios":"levelo://app?vid=7db5754b-1391-430c-9df7-a4bc37ac52a6"},"vehicle_type_id":"4","last_reported":1728061663,"current_range_meters":35600,"station_id":"ce4bhih2rcd13ifvqfs0","pricing_plan_id":"cebpf4jnsgd1na2vs0mg"},{"bike_id":"0634771e-f5f2-4e57-89ce-c66e7713da09","system_id":"levelo_inurba_marseille","lat":43.28665,"lon":5.38672,"is_reserved":false,"is_disabled":false,"rental_uris":{"android":"levelo://app?vid=0634771e-f5f2-4e57-89ce-c66e7713da09","ios":"levelo://app?vid=0634771e-f5f2-4e57-89ce-c66e7713da09"},"vehicle_type_id":"4","last_reported":1728061663,"current_range_meters":6000,"station_id":"ce4bh492rcd13ifvqdug","pricing_plan_id":"cebpf4jnsgd1na2vs0mg"},{"bike_id":"91946638-a6c6-454d-aaa2-94e2629c258e","system_id":"levelo_inurba_marseille","lat":43.28265,"lon":5.35081,"is_reserved":false,"is_disabled":false,"rental_uris":{"android":"levelo://app?vid=91946638-a6c6-454d-aaa2-94e2629c258e","ios":"levelo://app?vid=91946638-a6c6-454d-aaa2-94e2629c258e"},"vehicle_type_id":"4","last_reported":1728061663,"current_range_meters":2000,"station_id":"ce4bhbp2rcd13ifvqerg","pricing_plan_id":"cebpf4jnsgd1na2vs0mg"},{"bike_id":"c1aceef1-d04b-4ce8-92b2-cf36e518fe50","system_id":"levelo_inurba_marseille","lat":43.28426,"lon":5.34988,"is_reserved":false,"is_disabled":false,"rental_uris":{"android":"levelo://app?vid=c1aceef1-d04b-4ce8-92b2-cf36e518fe50","ios":"levelo://app?vid=c1aceef1-d04b-4ce8-92b2-cf36e518fe50"},"vehicle_type_id":"4","last_reported":1728061663,"current_range_meters":22000,"station_id":"ce4bhbh2rcd13ifvqepg","pricing_plan_id":"cebpf4jnsgd1na2vs0mg"},{"bike_id":"982b2e2e-c030-4f51-bf74-68c8b96f8384","system_id":"levelo_inurba_marseille","lat":43.29902,"lon":5.43674,"is_reserved":false,"is_disabled":false,"rental_uris":{"android":"levelo://app?vid=982b2e2e-c030-4f51-bf74-68c8b96f8384","ios":"levelo://app?vid=982b2e2e-c030-4f51-bf74-68c8b96f8384"},"vehicle_type_id":"4","last_reported":1728061663,"current_range_meters":8000,"station_id":"ce4bhpp2rcd13ifvqhfg","pricing_plan_id":"cebpf4jnsgd1na2vs0mg"},