{"last_updated":1748240184,"ttl":60,"version":"2.2","data":{"bikes":[{"bike_id":"7a64ee88-a427-4341-aef9-ad40b9faadd0","system_id":"levelo_inurba_marseille","lat":43.28213,"lon":5.39068,"is_reserved":false,"is_disabled":false,"rental_uris":{"android":"levelo://app?vid=7a64ee88-a427-4341-aef9-ad40b9faadd0","ios":"levelo://app?vid=7a64ee88-a427-4341-aef9-ad40b9faadd0"},"vehicle_type_id":"4","last_reported":1748240184,"current_range_meters":2800,"station_id":"","pricing_plan_id":"cebpf4jnsgd1na2vs0mg"},{"bike_id":"1b36ebd6-1179-4f9e-8999-61f1463d8e5c","system_id":"levelo_inurba_marseille","lat":43.253463,"lon":5.393551,"is_reserved":false,"is_disabled":false,"rental_uris":{"android":"levelo://app?vid=1b36ebd6-1179-4f9e-8999-61f1463d8e5c","ios":"levelo://app?vid=1b36ebd6-1179-4f9e-8999-61f1463d8e5c"},"vehicle_type_id":"4","last_reported":1748240184,"current_range_meters":2800,"station_id":"","pricing_plan_id":"cebpf4jnsgd1na2vs0mg"},{"bike_id":"43948e8e-fb2f-4861-887a-9f2942244d51","system_id":"levelo_inurba_marseille","lat":43.2936,"lon":5.40269,"is_reserved":false,"is_disabled":false,"rental_uris":{"android":"levelo://app?vid=43948e8e-fb2f-4861-887a-9f2942244d51","ios":"levelo://app?vid=43948e8e-fb2f-4861-887a-9f2942244d51"},"vehicle_type_id":"4","last_reported":1748240184,"current_range_meters":3200,"station_id":"","pricing_plan_id":"cebpf4jnsgd1na2vs0mg"},{"bike_id":"87dc1d45-464b-416b-81d6-10b093bfc1ae","system_id":"levelo_inurba_marseille","lat":43.27093,"lon":5.42265,"is_reserved":false,"is_disabled":false,"rental_uris":{"android":"levelo://app?vid=87dc1d45-464b-416b-81d6-10b093bfc1ae","ios":"levelo://app?vid=87dc1d45-464b-416b-81d6-10b093bfc1ae"},"vehicle_type_id":"4","last_reported":1748240184,"current_range_meters":3200,"station_id":"ce4bhk92rcd13ifvqgb0","pricing_plan_id":"cebpf4jnsgd1na2vs0mg"},{"bike_id":"04aff09d-30da-4fe9-81d9-495d0c5a354f","system_id":"levelo_inurba_marseille","lat":43.28943,"lon":5.39597,"is_reserved":false,"is_disabled":false,"rental_uris":{"android":"levelo://app?vid=04aff09d-30da-4fe9-81d9-495d0c5a354f","ios":"levelo://app?vid=04aff09d-30da-4fe9-81d9-495d0c5a354f"},"vehicle_type_id":"4","last_reported":1748240184,"current_range_meters":3200,"station_id":"ce4bh3h2rcd13ifvqdn0","pricing_plan_id":"cebpf4jnsgd1na2vs0mg"},{"bike_id":"cbc7dc03-7b3b-450e-95e0-0591829d4ed2","system_id":"levelo_inurba_marseille","lat":43.28865,"lon":5.39312,"is_reserved":false,"is_disabled":false,"rental_uris":{"android":"levelo://app?vid=cbc7dc03-7b3b-450e-95e0-0591829d4ed2","ios":"levelo://app?vid=cbc7dc03-7b3b-450e-95e0-0591829d4ed2"},"vehicle_type_id":"4","last_reported":1748240184,"current_range_meters":3200,"station_id":"ce4bh2p2rcd13ifvqdi0","pricing_plan_id":"cebpf4jnsgd1na2vs0mg"},{"bike_id":"0ddf2b5a-1565-4aab-be09-ecef369e20f0","system_id":"levelo_inurba_marseille","lat":43.29896,"lon":5.38117,"is_reserved":false,"is_disabled":false,"rental_uris":{"android":"levelo://app?vid=0ddf2b5a-1565-4aab-be09-ecef369e20f0","ios":"levelo://app?vid=0ddf2b5a-1565-4aab-be09-ecef369e20f0"},"vehicle_type_id":"4","last_reported":1748240184,"current_range_meters":3600,"station_id":"ce4bgj12rcd13ifvqbc0","pricing_plan_id":"cebpf4jnsgd1na2vs0mg"},{"bike_id":"3b49418a-4eb4-4204-a554-606f881690aa","system_id":"levelo_inurba_marseille","lat":43.261924,"lon":5.374476,"is_reserved":false,"is_disabled":true,"rental_uris":{"android":"levelo://app?vid=3b49418a-4eb4-4204-a554-606f881690aa","ios":"levelo://app?vid=3b49418a-4eb4-4204-a554-606f881690aa"},"vehicle_type_id":"4","last_reported":1748240184,"current_range_meters":3600,"station_id":"ce4bhgp2rcd13ifvqfc0","pricing_plan_id":"cebpf4jnsgd1na2vs0mg"},{"bike_id":"12ce5012-e749-4cdb-b2a6-14f8521b031f","system_id":"levelo_inurba_marseille","lat":43.273422,"lon":5.361547,"is_reserved":false,"is_disabled":false,"rental_uris":{"android":"levelo://app?vid=12ce5012-e749-4cdb-b2a6-14f8521b031f","ios":"levelo://app?vid=12ce5012-e749-4cdb-b2a6-14f8521b031f"},"vehicle_type_id":"4","last_reported":1748240184,"current_range_meters":3600,"station_id":"","pricing_plan_id":"cebpf4jnsgd1na2vs0mg"},{"bike_id":"6971abbb-1201-4a44-b044-a7d6fbc5e02c","system_id":"levelo_inurba_marseille","lat":43.31884,"lon":5.40737,"is_reserved":false,"is_disabled":false,"rental_uris":{"android":"levelo://app?vid=6971abbb-1201-4a44-b044-a7d6fbc5e02c","ios":"levelo://app?vid=6971abbb-1201-4a44-b044-a7d6fbc5e02c"},"vehicle_type_id":"4","last_reported":1748240184,"current_range_meters":3200,"station_id":"ce4bhq12rcd13ifvqhig","pricing_plan_id":"cebpf4jnsgd1na2vs0mg"},{"bike_id":"3581c28c-41f2-4cb7-b494-0448776c0438","system_id":"levelo_inurba_marseille","lat":43.2962,"lon":5.36023,"is_reserved":false,"is_disabled":false,"rental_uris":{"android":"levelo://app?vid=3581c28c-41f2-4cb7-b494-0448776c0438","ios":"levelo://app?vid=3581c28c-41f2-4cb7-b494-0448776c0438"},"vehicle_type_id":"4","last_reported":1748240184,"current_range_meters":4000,"station_id":"","pricing_plan_id":"cebpf4jnsgd1na2vs0mg"},{"bike_id":"7095683f-3da8-4b38-bb14-4c6590f2ed62","system_id":"levelo_inurba_marseille","lat":43.24072,"lon":5.37757,"is_reserved":false,"is_disabled":false,"rental_uris":{"android":"levelo://app?vid=7095683f-3da8-4b38-bb14-4c6590f2ed62","ios":"levelo://app?vid=7095683f-3da8-4b38-bb14-4c6590f2ed62"},"vehicle_type_id":"4","last_reported":1748240184,"current_range_meters":4000,"station_id":"ce4bhnp2rcd13ifvqgvg","pricing_plan_id":"cebpf4jnsgd1na2vs0mg"},{"bike_id":"84b1d1a2-2301-4f7e-8fde-ecd5a1274476","system_id":"levelo_inurba_marseille","lat":43.270845,"lon":5.422791,"is_reserved":false,"is_disabled":false,"rental_uris":{"android":"levelo://app?vid=84b1d1a2-2301-4f7e-8fde-ecd5a1274476","ios":"levelo://app?vid=84b1d1a2-2301-4f7e-8fde-ecd5a1274476"},"vehicle_type_id":"4","last_reported":1748240184,"current_range_meters":4000,"station_id":"ce4bhk92rcd13ifvqgb0","pricing_plan_id":"cebpf4jnsgd1na2vs0mg"},{"bike_id":"88ac5a91-56d3-4573-b0f2-5c6bbb7d986b","system_id":"levelo_inurba_marseille","lat":43.261155,"lon":5.397194,"is_reserved":false,"is_disabled":false,"rental_uris":{"android":"levelo://app?vid=88ac5a91-56d3-4573-b0f2-5c6bbb7d986b","ios":"levelo://app?vid=88ac5a91-56d3-4573-b0f2-5c6bbb7d986b"},"vehicle_type_id":"4","last_reported":1748240184,"current_range_meters":4000,"station_id":"","pricing_plan_id":"cebpf4jnsgd1na2vs0mg"},{"bike_id":"14ecccef-c44a-45ab-8ad1-e20261fd970a","system_id":"levelo_inurba_marseille","lat":43.29001,"lon":5.35615,"is_reserved":false,"is_disabled":false,"rental_uris":{"android":"levelo://app?vid=14ecccef-c44a-45ab-8ad1-e20261fd970a","ios":"levelo://app?vid=14ecccef-c44a-45ab-8ad1-e20261fd970a"},"vehicle_type_id":"4","last_reported":1748240184,"current_range_meters":3600,"station_id":"ce4bhb92rcd13ifvqen0","pricing_plan_id":"cebpf4jnsgd1na2vs0mg"},{"bike_id":"bac4d4f2-cbac-4aef-88fb-c759c7b96d6f","system_id":"levelo_inurba_marseille","lat":43.26951,"lon":5.38621,"is_reserved":false,"is_disabled":true,"rental_uris":{"android":"levelo://app?vid=bac4d4f2-cbac-4aef-88fb-c759c7b96d6f","ios":"levelo://app?vid=bac4d4f2-cbac-4aef-88fb-c759c7b96d6f"},"vehicle_type_id":"4","last_reported":1748240184,"current_range_meters":4400,"station_id":"ce4bhh92rcd13ifvqfh0","pricing_plan_id":"cebpf4jnsgd1na2vs0mg"},{"bike_id":"8151f140-4793-4659-94aa-4a4bc4d7aec3","system_id":"levelo_inurba_marseille","lat":43.30135,"lon":5.37419,"is_reserved":false,"is_disabled":false,"rental_uris":{"android":"levelo://app?vid=8151f140-4793-4659-94aa-4a4bc4d7aec3","ios":"levelo://app?vid=8151f140-4793-4659-94aa-4a4bc4d7aec3"},"vehicle_type_id":"4","last_reported":1748240184,"current_range_meters":4400,"station_id":"ce4bgs92rcd13ifvqcc0","pricing_plan_id":"cebpf4jnsgd1na2vs0mg"},{"bike_id":"2716d0cd-7fbc-4d04-a0a7-7eb4818c9999","system_id":"levelo_inurba_marseille","lat":43.31484,"lon":5.3731,"is_reserved":false,"is_disabled":false,"rental_uris":{"android":"levelo://app?vid=2716d0cd-7fbc-4d04-a0a7-7eb4818c9999","ios":"levelo://app?vid=2716d0cd-7fbc-4d04-a0a7-7eb4818c9999"},"vehicle_type_id":"4","last_reported":1748240184,"current_range_meters":4400,"station_id":"ce4bgt12rcd13ifvqcd0","pricing_plan_id":"cebpf4jnsgd1na2vs0mg"},{"bike_id":"4d18815d-035b-4827-a51e-58638fcfdfa3","system_id":"levelo_inurba_marseille","lat":43.23184,"lon":5.40009,"is_reserved":false,"is_disabled":true,"rental_uris":{"android":"levelo://app?vid=4d18815d-035b-4827-a51e-58638fcfdfa3","ios":"levelo://app?vid=4d18815d-035b-4827-a51e-58638fcfdfa3"},"vehicle_type_id":"4","last_reported":1748240184,"current_range_meters":4800,"station_id":"ce4bhn12rcd13ifvqgqg","pricing_plan_id":"cebpf4jnsgd1na2vs0mg"},{"bike_id":"fc8c72ad-ca61-42c6-ae90-f61b57e45328","system_id":"levelo_inurba_marseille","lat":43.27897,"lon":5.41854,"is_reserved":false,"is_disabled":false,"rental_uris":{"android":"levelo://app?vid=fc8c72ad-ca61-42c6-ae90-f61b57e45328","ios":"levelo://app?vid=fc8c72ad-ca61-42c6-ae90-f61b57e45328"},"vehicle_type_id":"4","last_reported":1748240184,"current_range_meters":4800,"station_id":"","pricing_plan_id":"cebpf4jnsgd1na2vs0mg"},{"bike_id":"aeb9ef90-389d-4ef3-899b-0a0feff09a32","system_id":"levelo_inurba_marseille","lat":43.313548,"lon":5.380424,"is_reserved":false,"is_disabled":false,"rental_uris":{"android":"levelo://app?vid=aeb9ef90-389d-4ef3-899b-0a0feff09a32","ios":"levelo://app?vid=aeb9ef90-389d-4ef3-899b-0a0feff09a32"},"vehicle_type_id":"4","last_reported":1748240184,"current_range_meters":4800,"station_id":"","pricing_plan_id":"cebpf4jnsgd1na2vs0mg"},{"bike_id":"c3693970-0173-4f48-86b7-b4226fbb898a","system_id":"levelo_inurba_marseille","lat":43.23199,"lon":5.355502,"is_reserved":false,"is_disabled":false,"rental_uris":{"android":"levelo://app?vid=c3693970-0173-4f48-86b7-b4226fbb898a","ios":"levelo://app?vid=c3693970-0173-4f48-86b7-b4226fbb898a"},"vehicle_type_id":"4","last_reported":1748240184,"current_range_meters":4800,"station_id":"ce4bhu92rcd13ifvqi70","pricing_plan_id":"cebpf4jnsgd1na2vs0mg"},{"bike_id":"beb247fd-8ef9-4f28-a88a-72599a3bc36a","system_id":"levelo_inurba_marseille","lat":43.29208,"lon":5.39306,"is_reserved":false,"is_disabled":false,"rental_uris":{"android":"levelo://app?vid=beb247fd-8ef9-4f28-a88a-72599a3bc36a","ios":"levelo://app?vid=beb247fd-8ef9-4f28-a88a-72599a3bc36a"},"vehicle_type_id":"4","last_reported":1748240184,"current_range_meters":4800,"station_id":"ce4bh192rcd13ifvqdd0","pricing_plan_id":"cebpf4jnsgd1na2vs0mg"},{"bike_id":"1c5a617d-4f21-48b7-9bc7-a90b3befee40","system_id":"levelo_inurba_marseille","lat":43.28942,"lon":5.39636,"is_reserved":false,"is_disabled":false,"rental_uris":{"android":"levelo://app?vid=1c5a617d-4f21-48b7-9bc7-a90b3befee40","ios":"levelo://app?vid=1c5a617d-4f21-48b7-9bc7-a90b3befee40"},"vehicle_type_id":"4","last_reported":1748240184,"current_range_meters":4800,"station_id":"ce4bh3h2rcd13ifvqdn0","pricing_plan_id":"cebpf4jnsgd1na2vs0mg"},{"bike_id":"8c489452-33ec-40fb-804e-08b0bc9dcc81","system_id":"levelo_inurba_marseille","lat":43.314342,"lon":5.373517,"is_reserved":false,"is_disabled":true,"rental_uris":{"android":"levelo://app?vid=8c489452-33ec-40fb-804e-08b0bc9dcc81","ios":"levelo://app?vid=8c489452-33ec-40fb-804e-08b0bc9dcc81"},"vehicle_type_id":"4","last_reported":1748240184,"current_range_meters":4800,"station_id":"","pricing_plan_id":"cebpf4jnsgd1na2vs0mg"},{"bike_id":"a66fd331-46e1-43d0-aa14-90321cefe8e0","system_id":"levelo_inurba_marseille","lat":43.29848,"lon":5.36285,"is_reserved":false,"is_disabled":false,"rental_uris":{"android":"levelo://app?vid=a66fd331-46e1-43d0-aa14-90321cefe8e0","ios":"levelo://app?vid=a66fd331-46e1-43d0-aa14-90321cefe8e0"},"vehicle_type_id":"4","last_reported":1748240184,"current_range_meters":4800,"station_id":"ce4bgpp2rcd13ifvqc3g","pricing_plan_id":"cebpf4jnsgd1na2vs0mg"},{"bike_id":"9e63335a-2dc0-4a9e-b7c0-1f542d8ece3b","system_id":"levelo_inurba_marseille","lat":43.33189,"lon":5.37909,"is_reserved":false,"is_disabled":true,"rental_uris":{"android":"levelo://app?vid=9e63335a-2dc0-4a9e-b7c0-1f542d8ece3b","ios":"levelo://app?vid=9e63335a-2dc0-4a9e-b7c0-1f542d8ece3b"},"vehicle_type_id":"4","last_reported":1748240184,"current_range_meters":6000,"station_id":"","pricing_plan_id":"cebpf4jnsgd1na2vs0mg"},{"bike_id":"0023d24a-16fb-41b1-a73b-c30e864ce7c7","system_id":"levelo_inurba_marseille","lat":43.2603,"lon":5.3755,"is_reserved":false,"is_disabled":false,"rental_uris":{"android":"levelo://app?vid=0023d24a-16fb-41b1-a73b-c30e864ce7c7","ios":"levelo://app?vid=0023d24a-16fb-41b1-a73b-c30e864ce7c7"},"vehicle_type_id":"4","last_reported":1748240184,"current_range_meters":6000,"station_id":"ce4bhgh2rcd13ifvqfa0","pricing_plan_id":"cebpf4jnsgd1na2vs0mg"},{"bike_id":"59d7c488-d4f9-4dac-a2b6-02ab617f711b","system_id":"levelo_inurba_marseille","lat":43.32535,"lon":5.41429,"is_reserved":false,"is_disabled":false,"rental_uris":{"android":"levelo://app?vid=59d7c488-d4f9-4dac-a2b6-02ab617f711b","ios":"levelo://app?vid=59d7c488-d4f9-4dac-a2b6-02ab617f711b"},"vehicle_type_id":"4","last_reported":1748240184,"current_range_meters":6000,"station_id":"ce4bhq12rcd13ifvqhhg","pricing_plan_id":"cebpf4jnsgd1na2vs0mg"},{"bike_id":"be056168-c1af-471e-b724-1992cbce9c45","system_id":"levelo_inurba_marseille","lat":43.292738,"lon":5.401097,"is_reserved":false,"is_disabled":false,"rental_uris":{"android":"levelo://app?vid=be056168-c1af-471e-b724-1992cbce9c45","ios":"levelo://app?vid=be056168-c1af-471e-b724-1992cbce9c45"},"vehicle_type_id":"4","last_reported":1748240184,"current_range_meters":6000,"station_id":"ce4bh312rcd13ifvqdk0","pricing_plan_id":"cebpf4jnsgd1na2vs0mg"},{"bike_id":"4639b282-bd40-44f7-b1b1-8cb07eca63b4","system_id":"levelo_inurba_marseille","lat":43.31341,"lon":5.3672,"is_reserved":false,"is_disabled":false,"rental_uris":{"android":"levelo://app?vid=4639b282-bd40-44f7-b1b1-8cb07eca63b4","ios":"levelo://app?vid=4639b282-bd40-44f7-b1b1-8cb07eca63b4"},"vehicle_type_id":"4","last_reported":1748240184,"current_range_meters":6000,"station_id":"ce4bgr92rcd13ifvqc6g","pricing_plan_id":"cebpf4jnsgd1na2vs0mg"},{"bike_id":"b72ccfd1-35cf-4b02-9c1a-90aef7c74e5f","system_id":"levelo_inurba_marseille","lat":43.24861,"lon":5.441968,"is_reserved":false,"is_disabled":false,"rental_uris":{"android":"levelo://app?vid=b72ccfd1-35cf-4b02-9c1a-90aef7c74e5f","ios":"levelo://app?vid=b72ccfd1-35cf-4b02-9c1a-90aef7c74e5f"},"vehicle_type_id":"4","last_reported":1748240184,"current_range_meters":6000,"station_id":"","pricing_plan_id":"cebpf4jnsgd1na2vs0mg"},{"bike_id":"e8fa7405-1174-4ec6-ac79-104273598283","system_id":"levelo_inurba_marseille","lat":43.30649,"lon":5.40047,"is_reserved":false,"is_disabled":true,"rental_uris":{"android":"levelo://app?vid=e8fa7405-1174-4ec6-ac79-104273598283","ios":"levelo://app?vid=e8fa7405-1174-4ec6-ac79-104273598283"},"vehicle_type_id":"4","last_reported":1748240184,"current_range_meters":6400,"station_id":"ce4bh112rcd13ifvqda0","pricing_plan_id":"cebpf4jnsgd1na2vs0mg"},{"bike_id":"da453a88-f81b-4e0f-9781-5a7f6c1d364c","system_id":"levelo_inurba_marseille","lat":43.337499,"lon":5.374469,"is_reserved":false,"is_disabled":false,"rental_uris":{"android":"levelo://app?vid=da453a88-f81b-4e0f-9781-5a7f6c1d364c","ios":"levelo://app?vid=da453a88-f81b-4e0f-9781-5a7f6c1d364c"},"vehicle_type_id":"4","last_reported":1748240184,"current_range_meters":6400,"station_id":"","pricing_plan_id":"cebpf4jnsgd1na2vs0mg"},{"bike_id":"4d12b1b8-68e2-4a8d-9823-72e375906347","system_id":"levelo_inurba_marseille","lat":43.283386,"lon":5.380999,"is_reserved":false,"is_disabled":false,"rental_uris":{"android":"levelo://app?vid=4d12b1b8-68e2-4a8d-9823-72e375906347","ios":"levelo://app?vid=4d12b1b8-68e2-4a8d-9823-72e375906347"},"vehicle_type_id":"4","last_reported":1748240184,"current_range_meters":6400,"station_id":"ce4bh392rcd13ifvqdm0","pricing_plan_id":"cebpf4jnsgd1na2vs0mg"},{"bike_id":"d9fa0449-e47c-4bbe-a91c-4939cab5d888","system_id":"levelo_inurba_marseille","lat":43.285207,"lon":5.426168,"is_reserved":false,"is_disabled":false,"rental_uris":{"android":"levelo://app?vid=d9fa0449-e47c-4bbe-a91c-4939cab5d888","ios":"levelo://app?vid=d9fa0449-e47c-4bbe-a91c-4939cab5d888"},"vehicle_type_id":"4","last_reported":1748240184,"current_range_meters":6400,"station_id":"","pricing_plan_id":"cebpf4jnsgd1na2vs0mg"},{"bike_id":"c3289047-8b25-4e99-8a60-2e24493769f4","system_id":"levelo_inurba_marseille","lat":43.284768,"lon":5.384156,"is_reserved":false,"is_disabled":false,"rental_uris":{"android":"levelo://app?vid=c3289047-8b25-4e99-8a60-2e24493769f4","ios":"levelo://app?vid=c3289047-8b25-4e99-8a60-2e24493769f4"},"vehicle_type_id":"4","last_reported":1748240184,"current_range_meters":6400,"station_id":"ce4bh512rcd13ifvqe3g","pricing_plan_id":"cebpf4jnsgd1na2vs0mg"},{"bike_id":"105d56f3-e8cf-41b8-b0d9-5038295cb631","system_id":"levelo_inurba_marseille","lat":43.212,"lon":5.35081,"is_reserved":false,"is_disabled":false,"rental_uris":{"android":"levelo://app?vid=105d56f3-e8cf-41b8-b0d9-5038295cb631","ios":"levelo://app?vid=105d56f3-e8cf-41b8-b0d9-5038295cb631"},"vehicle_type_id":"4","last_reported":1748240184,"current_range_meters":6400,"station_id":"","pricing_plan_id":"cebpf4jnsgd1na2vs0mg"},{"bike_id":"b3836e6a-b05b-4ba7-ae61-833bde9258fe","system_id":"levelo_inurba_marseille","lat":43.32933,"lon":5.45188,"is_reserved":false,"is_disabled":false,"rental_uris":{"android":"levelo://app?vid=b3836e6a-b05b-4ba7-ae61-833bde9258fe","ios":"levelo://app?vid=b3836e6a-b05b-4ba7-ae61-833bde9258fe"},"vehicle_type_id":"4","last_reported":1748240184,"current_range_meters":6400,"station_id":"","pricing_plan_id":"cebpf4jnsgd1na2vs0mg"},{"bike_id":"877332a5-0bb0-444e-a919-7d1c696f453a","system_id":"levelo_inurba_marseille","lat":43.28394,"lon":5.3752,"is_reserved":false,"is_disabled":false,"rental_uris":{"android":"levelo://app?vid=877332a5-0bb0-444e-a919-7d1c696f453a","ios":"levelo://app?vid=877332a5-0bb0-444e-a919-7d1c696f453a"},"vehicle_type_id":"4","last_reported":1748240184,"current_range_meters":6800,"station_id":"ce4bh412rcd13ifvqds0","pricing_plan_id":"cebpf4jnsgd1na2vs0mg"},{"bike_id":"d7ab41ec-159d-4e91-ad66-69e96c91aacd","system_id":"levelo_inurba_marseille","lat":43.230486,"lon":5.355001,"is_reserved":false,"is_disabled":true,"rental_uris":{"android":"levelo://app?vid=d7ab41ec-159d-4e91-ad66-69e96c91aacd","ios":"levelo://app?vid=d7ab41ec-159d-4e91-ad66-69e96c91aacd"},"vehicle_type_id":"4","last_reported":1748240184,"current_range_meters":6800,"station_id":"cpo3342slgdg3j2ifvpg","pricing_plan_id":"cebpf4jnsgd1na2vs0mg"},{"bike_id":"764aa4a5-fdf1-45d2-8d85-f92b7302018b","system_id":"levelo_inurba_marseille","lat":43.32166,"lon":5.44041,"is_reserved":false,"is_disabled":false,"rental_uris":{"android":"levelo://app?vid=764aa4a5-fdf1-45d2-8d85-f92b7302018b","ios":"levelo://app?vid=764aa4a5-fdf1-45d2-8d85-f92b7302018b"},"vehicle_type_id":"4","last_reported":1748240184,"current_range_meters":6800,"station_id":"","pricing_plan_id":"cebpf4jnsgd1na2vs0mg"},{"bike_id":"4c572631-4468-404e-b6c2-dd4a4b3174f2","system_id":"levelo_inurba_marseille","lat":43.28827,"lon":5.36358,"is_reserved":false,"is_disabled":false,"rental_uris":{"android":"levelo://app?vid=4c572631-4468-404e-b6c2-dd4a4b3174f2","ios":"levelo://app?vid=4c572631-4468-404e-b6c2-dd4a4b3174f2"},"vehicle_type_id":"4","last_reported":1748240184,"current_range_meters":6800,"station_id":"","pricing_plan_id":"cebpf4jnsgd1na2vs0mg"},{"bike_id":"c1450594-a07e-481e-8ce6-065c5ef09f24","system_id":"levelo_inurba_marseille","lat":43.24677,"lon":5.38153,"is_reserved":false,"is_disabled":true,"rental_uris":{"android":"levelo://app?vid=c1450594-a07e-481e-8ce6-065c5ef09f24","ios":"levelo://app?vid=c1450594-a07e-481e-8ce6-065c5ef09f24"},"vehicle_type_id":"4","last_reported":1748240184,"current_range_meters":6800,"station_id":"ce4bhih2rcd13ifvqfr0","pricing_plan_id":"cebpf4jnsgd1na2vs0mg"},{"bike_id":"71c6f6c5-aa0d-40e2-801d-9f6d35dc2ebc","system_id":"levelo_inurba_marseille","lat":43.27996,"lon":5.41659,"is_reserved":false,"is_disabled":false,"rental_uris":{"android":"levelo://app?vid=71c6f6c5-aa0d-40e2-801d-9f6d35dc2ebc","ios":"levelo://app?vid=71c6f6c5-aa0d-40e2-801d-9f6d35dc2ebc"},"vehicle_type_id":"4","last_reported":1748240184,"current_range_meters":7200,"station_id":"ce4bho12rcd13ifvqh1g","pricing_plan_id":"cebpf4jnsgd1na2vs0mg"},{"bike_id":"985dfe2e-48ab-4438-8b44-7034bccf028e","system_id":"levelo_inurba_marseille","lat":43.27002,"lon":5.39857,"is_reserved":false,"is_disabled":false,"rental_uris":{"android":"levelo://app?vid=985dfe2e-48ab-4438-8b44-7034bccf028e","ios":"levelo://app?vid=985dfe2e-48ab-4438-8b44-7034bccf028e"},"vehicle_type_id":"4","last_reported":1748240184,"current_range_meters":7200,"station_id":"","pricing_plan_id":"cebpf4jnsgd1na2vs0mg"},{"bike_id":"50f5b41f-1056-49f8-9704-b216b083e4c5","system_id":"levelo_inurba_marseille","lat":43.30164,"lon":5.38073,"is_reserved":false,"is_disabled":false,"rental_uris":{"android":"levelo://app?vid=50f5b41f-1056-49f8-9704-b216b083e4c5","ios":"levelo://app?vid=50f5b41f-1056-49f8-9704-b216b083e4c5"},"vehicle_type_id":"4","last_reported":1748240184,"current_range_meters":7200,"station_id":"ce4bgjp2rcd13ifvqbh0","pricing_plan_id":"cebpf4jnsgd1na2vs0mg"},{"bike_id":"7f97512c-f16b-42a5-9f70-d15b36e522a4","system_id":"levelo_inurba_marseille","lat":43.316905,"lon":5.40475,"is_reserved":false,"is_disabled":false,"rental_uris":{"android":"levelo://app?vid=7f97512c-f16b-42a5-9f70-d15b36e522a4","ios":"levelo://app?vid=7f97512c-f16b-42a5-9f70-d15b36e522a4"},"vehicle_type_id":"4","last_reported":1748240184,"current_range_meters":6800,"station_id":"ce4bh012rcd13ifvqd00","pricing_plan_id":"cebpf4jnsgd1na2vs0mg"},{"bike_id":"0034e007-f5f1-44d1-9969-6b5e7e2a0461","system_id":"levelo_inurba_marseille","lat":43.231864,"lon":5.399843,"is_reserved":false,"is_disabled":false,"rental_uris":{"android":"levelo://app?vid=0034e007-f5f1-44d1-9969-6b5e7e2a0461","ios":"levelo://app?vid=0034e007-f5f1-44d1-9969-6b5e7e2a0461"},"vehicle_type_id":"4","last_reported":1748240184,"current_range_meters":7200,"station_id":"ce4bhn12rcd13ifvqgqg","pricing_plan_id":"cebpf4jnsgd1na2vs0mg"},{"bike_id":"485f273b-98d9-4b2a-82e0-7e0b44b2ede8","system_id":"levelo_inurba_marseille","lat":43.301523,"lon":5.380878,"is_reserved":false,"is_disabled":false,"rental_uris":{"android":"levelo://app?vid=485f273b-98d9-4b2a-82e0-7e0b44b2ede8","ios":"levelo://app?vid=485f273b-98d9-4b2a-82e0-7e0b44b2ede8"},"vehicle_type_id":"4","last_reported":1748240184,"current_range_meters":8000,"station_id":"ce4bgjp2rcd13ifvqbh0","pricing_plan_id":"cebpf4jnsgd1na2vs0mg"},{"bike_id":"489786c9-53a6-48ce-b179-c7dfd9d046f2","system_id":"levelo_inurba_marseille","lat":43.28165,"lon":5.42638,"is_reserved":false,"is_disabled":false,"rental_uris":{"android":"levelo://app?vid=489786c9-53a6-48ce-b179-c7dfd9d046f2","ios":"levelo://app?vid=489786c9-53a6-48ce-b179-c7dfd9d046f2"},"vehicle_type_id":"4","last_reported":1748240184,"current_range_meters":8000,"station_id":"ce4bhnh2rcd13ifvqgug","pricing_plan_id":"cebpf4jnsgd1na2vs0mg"},{"bike_id":"750f6585-193a-4477-948c-580515d42c9e","system_id":"levelo_inurba_marseille","lat":43.32248,"lon":5.43955,"is_reserved":false,"is_disabled":false,"rental_uris":{"android":"levelo://app?vid=750f6585-193a-4477-948c-580515d42c9e","ios":"levelo://app?vid=750f6585-193a-4477-948c-580515d42c9e"},"vehicle_type_id":"4","last_reported":1748240184,"current_range_meters":8000,"station_id":"","pricing_plan_id":"cebpf4jnsgd1na2vs0mg"},{"bike_id":"0a263450-e142-4451-8361-08e83e2883e8","system_id":"levelo_inurba_marseille","lat":43.279914,"lon":5.416689,"is_reserved":false,"is_disabled":false,"rental_uris":{"android":"levelo://app?vid=0a263450-e142-4451-8361-08e83e2883e8","ios":"levelo://app?vid=0a263450-e142-4451-8361-08e83e2883e8"},"vehicle_type_id":"4","last_reported":1748240184,"current_range_meters":8000,"station_id":"ce4bho12rcd13ifvqh1g","pricing_plan_id":"cebpf4jnsgd1na2vs0mg"},{"bike_id":"6abb9ab4-3976-4e3e-b994-f2f72ee02055","system_id":"levelo_inurba_marseille","lat":43.31792,"lon":5.36798,"is_reserved":false,"is_disabled":false,"rental_uris":{"android":"levelo://app?vid=6abb9ab4-3976-4e3e-b994-f2f72ee02055","ios":"levelo://app?vid=6abb9ab4-3976-4e3e-b994-f2f72ee02055"},"vehicle_type_id":"4","last_reported":1748240184,"current_range_meters":8000,"station_id":"","pricing_plan_id":"cebpf4jnsgd1na2vs0mg"},{"bike_id":"53be9881-dd03-4bff-9df9-c7e3456d7b7a","system_id":"levelo_inurba_marseille","lat":43.30922,"lon":5.4014,"is_reserved":false,"is_disabled":false,"rental_uris":{"android":"levelo://app?vid=53be9881-dd03-4bff-9df9-c7e3456d7b7a","ios":"levelo://app?vid=53be9881-dd03-4bff-9df9-c7e3456d7b7a"},"vehicle_type_id":"4","last_reported":1748240184,"current_range_meters":8000,"station_id":"ce4bgvp2rcd13ifvqct0","pricing_plan_id":"cebpf4jnsgd1na2vs0mg"},{"bike_id":"9ca94ac2-b851-41db-a04b-0d74f369c598","system_id":"levelo_inurba_marseille","lat":43.33601,"lon":5.41028,"is_reserved":false,"is_disabled":false,"rental_uris":{"android":"levelo://app?vid=9ca94ac2-b851-41db-a04b-0d74f369c598","ios":"levelo://app?vid=9ca94ac2-b851-41db-a04b-0d74f369c598"},"vehicle_type_id":"4","last_reported":1748240184,"current_range_meters":8400,"station_id":"ce4bhqh2rcd13ifvqhmg","pricing_plan_id":"cebpf4jnsgd1na2vs0mg"},{"bike_id":"203aa19c-5810-43bb-8440-63b0d6edbf94","system_id":"levelo_inurba_marseille","lat":43.24077,"lon":5.37793,"is_reserved":false,"is_disabled":false,"rental_uris":{"android":"levelo://app?vid=203aa19c-5810-43bb-8440-63b0d6edbf94","ios":"levelo://app?vid=203aa19c-5810-43bb-8440-63b0d6edbf94"},"vehicle_type_id":"4","last_reported":1748240184,"current_range_meters":8400,"station_id":"ce4bhnp2rcd13ifvqgvg","pricing_plan_id":"cebpf4jnsgd1na2vs0mg"},{"bike_id":"f87c886d-bd33-43f0-a47c-b7988cbc1ea1","system_id":"levelo_inurba_marseille","lat":43.27531,"lon":5.42632,"is_reserved":false,"is_disabled":false,"rental_uris":{"android":"levelo://app?vid=f87c886d-bd33-43f0-a47c-b7988cbc1ea1","ios":"levelo://app?vid=f87c886d-bd33-43f0-a47c-b7988cbc1ea1"},"vehicle_type_id":"4","last_reported":1748240184,"current_range_meters":8400,"station_id":"ce4bhn92rcd13ifvqgrg","pricing_plan_id":"cebpf4jnsgd1na2vs0mg"},{"bike_id":"b2481e92-81b3-44e8-b36f-4f554a3e5626","system_id":"levelo_inurba_marseille","lat":43.29543,"lon":5.38536,"is_reserved":false,"is_disabled":true,"rental_uris":{"android":"levelo://app?vid=b2481e92-81b3-44e8-b36f-4f554a3e5626","ios":"levelo://app?vid=b2481e92-81b3-44e8-b36f-4f554a3e5626"},"vehicle_type_id":"4","last_reported":1748240184,"current_range_meters":8400,"station_id":"ce4bgih2rcd13ifvqba0","pricing_plan_id":"cebpf4jnsgd1na2vs0mg"},{"bike_id":"5abb8a77-fbf0-4d21-805b-29790cff0e49","system_id":"levelo_inurba_marseille","lat":43.31089,"lon":5.424651,"is_reserved":false,"is_disabled":false,"rental_uris":{"android":"levelo://app?vid=5abb8a77-fbf0-4d21-805b-29790cff0e49","ios":"levelo://app?vid=5abb8a77-fbf0-4d21-805b-29790cff0e49"},"vehicle_type_id":"4","last_reported":1748240184,"current_range_meters":8400,"station_id":"ce4bhp92rcd13ifvqhag","pricing_plan_id":"cebpf4jnsgd1na2vs0mg"},{"bike_id":"cc86d008-27da-409d-b63d-2d35d462ff29","system_id":"levelo_inurba_marseille","lat":43.3149,"lon":5.37307,"is_reserved":false,"is_disabled":false,"rental_uris":{"android":"levelo://app?vid=cc86d008-27da-409d-b63d-2d35d462ff29","ios":"levelo://app?vid=cc86d008-27da-409d-b63d-2d35d462ff29"},"vehicle_type_id":"4","last_reported":1748240184,"current_range_meters":8800,"station_id":"ce4bgt12rcd13ifvqcd0","pricing_plan_id":"cebpf4jnsgd1na2vs0mg"},{"bike_id":"54a3bbf5-ebe4-4594-9532-519c0897eb70","system_id":"levelo_inurba_marseille","lat":43.29975,"lon":5.41325,"is_reserved":false,"is_disabled":true,"rental_uris":{"android":"levelo://app?vid=54a3bbf5-ebe4-4594-9532-519c0897eb70","ios":"levelo://app?vid=54a3bbf5-ebe4-4594-9532-519c0897eb70"},"vehicle_type_id":"4","last_reported":1748240184,"current_range_meters":8800,"station_id":"ce4bhp12rcd13ifvqh9g","pricing_plan_id":"cebpf4jnsgd1na2vs0mg"},{"bike_id":"099f8385-290b-4c6b-b9ea-9ef83d288682","system_id":"levelo_inurba_marseille","lat":43.26789,"lon":5.39411,"is_reserved":false,"is_disabled":false,"rental_uris":{"android":"levelo://app?vid=099f8385-290b-4c6b-b9ea-9ef83d288682","ios":"levelo://app?vid=099f8385-290b-4c6b-b9ea-9ef83d288682"},"vehicle_type_id":"4","last_reported":1748240184,"current_range_meters":8800,"station_id":"ce4bhh12rcd13ifvqfg0","pricing_plan_id":"cebpf4jnsgd1na2vs0mg"},{"bike_id":"ad35d7fa-a2c3-4e55-aac0-809f81c12d57","system_id":"levelo_inurba_marseille","lat":43.23069,"lon":5.35535,"is_reserved":false,"is_disabled":false,"rental_uris":{"android":"levelo://app?vid=ad35d7fa-a2c3-4e55-aac0-809f81c12d57","ios":"levelo://app?vid=ad35d7fa-a2c3-4e55-aac0-809f81c12d57"},"vehicle_type_id":"4","last_reported":1748240184,"current_range_meters":8800,"station_id":"cpo3342slgdg3j2ifvpg","pricing_plan_id":"cebpf4jnsgd1na2vs0mg"},{"bike_id":"b6c82712-4761-4fda-8249-24477ebcbcb4","system_id":"levelo_inurba_marseille","lat":43.279401,"lon":5.410401,"is_reserved":false,"is_disabled":false,"rental_uris":{"android":"levelo://app?vid=b6c82712-4761-4fda-8249-24477ebcbcb4","ios":"levelo://app?vid=b6c82712-4761-4fda-8249-24477ebcbcb4"},"vehicle_type_id":"4","last_reported":1748240184,"current_range_meters":8800,"station_id":"ce4bhnp2rcd13ifvqh0g","pricing_plan_id":"cebpf4jnsgd1na2vs0mg"},{"bike_id":"ab485184-dee6-4278-8ed8-78cb97c31dd5","system_id":"levelo_inurba_marseille","lat":43.2921,"lon":5.35824,"is_reserved":false,"is_disabled":false,"rental_uris":{"android":"levelo://app?vid=ab485184-dee6-4278-8ed8-78cb97c31dd5","ios":"levelo://app?vid=ab485184-dee6-4278-8ed8-78cb97c31dd5"},"vehicle_type_id":"4","last_reported":1748240184,"current_range_meters":9200,"station_id":"","pricing_plan_id":"cebpf4jnsgd1na2vs0mg"},{"bike_id":"a05b93c6-6205-4622-bce4-f2539801ac5e","system_id":"levelo_inurba_marseille","lat":43.30606,"lon":5.39365,"is_reserved":false,"is_disabled":false,"rental_uris":{"android":"levelo://app?vid=a05b93c6-6205-4622-bce4-f2539801ac5e","ios":"levelo://app?vid=a05b93c6-6205-4622-bce4-f2539801ac5e"},"vehicle_type_id":"4","last_reported":1748240184,"current_range_meters":9200,"station_id":"ce4bh0p2rcd13ifvqd80","pricing_plan_id":"cebpf4jnsgd1na2vs0mg"},{"bike_id":"7f0b3323-77a1-43c6-a91f-7eae2ece8cc3","system_id":"levelo_inurba_marseille","lat":43.316566,"lon":5.389608,"is_reserved":false,"is_disabled":false,"rental_uris":{"android":"levelo://app?vid=7f0b3323-77a1-43c6-a91f-7eae2ece8cc3","ios":"levelo://app?vid=7f0b3323-77a1-43c6-a91f-7eae2ece8cc3"},"vehicle_type_id":"4","last_reported":1748240184,"current_range_meters":9200,"station_id":"","pricing_plan_id":"cebpf4jnsgd1na2vs0mg"},{"bike_id":"e9496718-b841-4999-823d-28c5bee5d6f1","system_id":"levelo_inurba_marseille","lat":43.265303,"lon":5.39002,"is_reserved":false,"is_disabled":false,"rental_uris":{"android":"levelo://app?vid=e9496718-b841-4999-823d-28c5bee5d6f1","ios":"levelo://app?vid=e9496718-b841-4999-823d-28c5bee5d6f1"},"vehicle_type_id":"4","last_reported":1748240184,"current_range_meters":9200,"station_id":"ce4bhe12rcd13ifvqf30","pricing_plan_id":"cebpf4jnsgd1na2vs0mg"},{"bike_id":"f93b74c5-5226-4250-aaa8-c7e610f5fc0b","system_id":"levelo_inurba_marseille","lat":43.27064,"lon":5.42271,"is_reserved":false,"is_disabled":false,"rental_uris":{"android":"levelo://app?vid=f93b74c5-5226-4250-aaa8-c7e610f5fc0b","ios":"levelo://app?vid=f93b74c5-5226-4250-aaa8-c7e610f5fc0b"},"vehicle_type_id":"4","last_reported":1748240184,"current_range_meters":9200,"station_id":"ce4bhk92rcd13ifvqgb0","pricing_plan_id":"cebpf4jnsgd1na2vs0mg"},{"bike_id":"7d3bd24a-e5f9-4754-8ec6-3ba44c9c4f5b","system_id":"levelo_inurba_marseille","lat":43.24804,"lon":5.37464,"is_reserved":false,"is_disabled":false,"rental_uris":{"android":"levelo://app?vid=7d3bd24a-e5f9-4754-8ec6-3ba44c9c4f5b","ios":"levelo://app?vid=7d3bd24a-e5f9-4754-8ec6-3ba44c9c4f5b"},"vehicle_type_id":"4","last_reported":1748240184,"current_range_meters":9200,"station_id":"ce4bhgh2rcd13ifvqfb0","pricing_plan_id":"cebpf4jnsgd1na2vs0mg"},{"bike_id":"5246419a-b38f-4b13-a777-56519cb0afde","system_id":"levelo_inurba_marseille","lat":43.308886,"lon":5.37195,"is_reserved":false,"is_disabled":false,"rental_uris":{"android":"levelo://app?vid=5246419a-b38f-4b13-a777-56519cb0afde","ios":"levelo://app?vid=5246419a-b38f-4b13-a777-56519cb0afde"},"vehicle_type_id":"4","last_reported":1748240184,"current_range_meters":9200,"station_id":"ce4bguh2rcd13ifvqckg","pricing_plan_id":"cebpf4jnsgd1na2vs0mg"},{"bike_id":"78084e65-0f8a-4a63-bf1c-3fbde80b370d","system_id":"levelo_inurba_marseille","lat":43.29439,"lon":5.43376,"is_reserved":false,"is_disabled":true,"rental_uris":{"android":"levelo://app?vid=78084e65-0f8a-4a63-bf1c-3fbde80b370d","ios":"levelo://app?vid=78084e65-0f8a-4a63-bf1c-3fbde80b370d"},"vehicle_type_id":"4","last_reported":1748240184,"current_range_meters":9200,"station_id":"","pricing_plan_id":"cebpf4jnsgd1na2vs0mg"},{"bike_id":"8c24a1cc-9755-4ef3-aee7-aeff472999dc","system_id":"levelo_inurba_marseille","lat":43.282718,"lon":5.350865,"is_reserved":false,"is_disabled":true,"rental_uris":{"android":"levelo://app?vid=8c24a1cc-9755-4ef3-aee7-aeff472999dc","ios":"levelo://app?vid=8c24a1cc-9755-4ef3-aee7-aeff472999dc"},"vehicle_type_id":"4","last_reported":1748240184,"current_range_meters":9200,"station_id":"ce4bhbp2rcd13ifvqerg","pricing_plan_id":"cebpf4jnsgd1na2vs0mg"},{"bike_id":"dabc077c-bf8d-431d-a5ea-dcd441e9b7b1","system_id":"levelo_inurba_marseille","lat":43.24873,"lon":5.39721,"is_reserved":false,"is_disabled":false,"rental_uris":{"android":"levelo://app?vid=dabc077c-bf8d-431d-a5ea-dcd441e9b7b1","ios":"levelo://app?vid=dabc077c-bf8d-431d-a5ea-dcd441e9b7b1"},"vehicle_type_id":"4","last_reported":1748240184,"current_range_meters":9200,"station_id":"","pricing_plan_id":"cebpf4jnsgd1na2vs0mg"},{"bike_id":"45d16b63-9733-421c-9709-9f91d7fee841","system_id":"levelo_inurba_marseille","lat":43.29036,"lon":5.39967,"is_reserved":false,"is_disabled":false,"rental_uris":{"android":"levelo://app?vid=45d16b63-9733-421c-9709-9f91d7fee841","ios":"levelo://app?vid=45d16b63-9733-421c-9709-9f91d7fee841"},"vehicle_type_id":"4","last_reported":1748240184,"current_range_meters":9200,"station_id":"ce4bh392rcd13ifvqdm0","pricing_plan_id":"cebpf4jnsgd1na2vs0mg"},{"bike_id":"4ecde69a-3a34-421d-8f3c-6a8fe1837c97","system_id":"levelo_inurba_marseille","lat":43.25721,"lon":5.41104,"is_reserved":false,"is_disabled":false,"rental_uris":{"android":"levelo://app?vid=4ecde69a-3a34-421d-8f3c-6a8fe1837c97","ios":"levelo://app?vid=4ecde69a-3a34-421d-8f3c-6a8fe1837c97"},"vehicle_type_id":"4","last_reported":1748240184,"current_range_meters":9600,"station_id":"ce4bhkp2rcd13ifvqgd0","pricing_plan_id":"cebpf4jnsgd1na2vs0mg"},{"bike_id":"5e5dac88-2958-4a06-9510-bdfbf9cef837","system_id":"levelo_inurba_marseille","lat":43.27179,"lon":5.40977,"is_reserved":false,"is_disabled":false,"rental_uris":{"android":"levelo://app?vid=5e5dac88-2958-4a06-9510-bdfbf9cef837","ios":"levelo://app?vid=5e5dac88-2958-4a06-9510-bdfbf9cef837"},"vehicle_type_id":"4","last_reported":1748240184,"current_range_meters":9600,"station_id":"ce4bhl12rcd13ifvqgf0","pricing_plan_id":"cebpf4jnsgd1na2vs0mg"},{"bike_id":"473cdad8-e86f-436c-900c-612ff8b20c12","system_id":"levelo_inurba_marseille","lat":43.31726,"lon":5.4367,"is_reserved":false,"is_disabled":true,"rental_uris":{"android":"levelo://app?vid=473cdad8-e86f-436c-900c-612ff8b20c12","ios":"levelo://app?vid=473cdad8-e86f-436c-900c-612ff8b20c12"},"vehicle_type_id":"4","last_reported":1748240184,"current_range_meters":9600,"station_id":"ce4bhp92rcd13ifvqhcg","pricing_plan_id":"cebpf4jnsgd1na2vs0mg"},{"bike_id":"27932d45-ef7e-41cf-bfc7-b29d7ccd111d","system_id":"levelo_inurba_marseille","lat":43.295973,"lon":5.381489,"is_reserved":false,"is_disabled":false,"rental_uris":{"android":"levelo://app?vid=27932d45-ef7e-41cf-bfc7-b29d7ccd111d","ios":"levelo://app?vid=27932d45-ef7e-41cf-bfc7-b29d7ccd111d"},"vehicle_type_id":"4","last_reported":1748240184,"current_range_meters":9600,"station_id":"ce4bgl12rcd13ifvqbo0","pricing_plan_id":"cebpf4jnsgd1na2vs0mg"},{"bike_id":"5aa5e23d-21b2-41ca-9e77-c0c017f76361","system_id":"levelo_inurba_marseille","lat":43.23522,"lon":5.40394,"is_reserved":false,"is_disabled":false,"rental_uris":{"android":"levelo://app?vid=5aa5e23d-21b2-41ca-9e77-c0c017f76361","ios":"levelo://app?vid=5aa5e23d-21b2-41ca-9e77-c0c017f76361"},"vehicle_type_id":"4","last_reported":1748240184,"current_range_meters":9600,"station_id":"","pricing_plan_id":"cebpf4jnsgd1na2vs0mg"},{"bike_id":"fb8a5899-9381-4f53-ae55-95564e4af8b9","system_id":"levelo_inurba_marseille","lat":43.29271,"lon":5.40142,"is_reserved":false,"is_disabled":false,"rental_uris":{"android":"levelo://app?vid=fb8a5899-9381-4f53-ae55-95564e4af8b9","ios":"levelo://app?vid=fb8a5899-9381-4f53-ae55-95564e4af8b9"},"vehicle_type_id":"4","last_reported":1748240184,"current_range_meters":9600,"station_id":"ce4bh312rcd13ifvqdk0","pricing_plan_id":"cebpf4jnsgd1na2vs0mg"},{"bike_id":"eea78b61-2063-42e5-876f-57b72ee0916e","system_id":"levelo_inurba_marseille","lat":43.30371,"lon":5.42475,"is_reserved":false,"is_disabled":false,"rental_uris":{"android":"levelo://app?vid=eea78b61-2063-42e5-876f-57b72ee0916e","ios":"levelo://app?vid=eea78b61-2063-42e5-876f-57b72ee0916e"},"vehicle_type_id":"4","last_reported":1748240184,"current_range_meters":9600,"station_id":"ce4bhoh2rcd13ifvqh6g","pricing_plan_id":"cebpf4jnsgd1na2vs0mg"},{"bike_id":"7ca757bd-bea4-434b-8b7d-816f79fd9de7","system_id":"levelo_inurba_marseille","lat":43.30249,"lon":5.40059,"is_reserved":false,"is_disabled":false,"rental_uris":{"android":"levelo://app?vid=7ca757bd-bea4-434b-8b7d-816f79fd9de7","ios":"levelo://app?vid=7ca757bd-bea4-434b-8b7d-816f79fd9de7"},"vehicle_type_id":"4","last_reported":1748240184,"current_range_meters":9600,"station_id":"ce4bgvh2rcd13ifvqcs0","pricing_plan_id":"cebpf4jnsgd1na2vs0mg"},{"bike_id":"83ad7a20-5e0f-4da6-b016-33ad483df1ae","system_id":"levelo_inurba_marseille","lat":43.307928,"lon":5.376607,"is_reserved":false,"is_disabled":false,"rental_uris":{"android":"levelo://app?vid=83ad7a20-5e0f-4da6-b016-33ad483df1ae","ios":"levelo://app?vid=83ad7a20-5e0f-4da6-b016-33ad483df1ae"},"vehicle_type_id":"4","last_reported":1748240184,"current_range_meters":9600,"station_id":"ce4bgv92rcd13ifvqcq0","pricing_plan_id":"cebpf4jnsgd1na2vs0mg"},{"bike_id":"068a5942-5c8a-49b5-a494-0d6e3bbd2837","system_id":"levelo_inurba_marseille","lat":43.33606,"lon":5.41028,"is_reserved":false,"is_disabled":false,"rental_uris":{"android":"levelo://app?vid=068a5942-5c8a-49b5-a494-0d6e3bbd2837","ios":"levelo://app?vid=068a5942-5c8a-49b5-a494-0d6e3bbd2837"},"vehicle_type_id":"4","last_reported":1748240184,"current_range_meters":10000,"station_id":"ce4bhqh2rcd13ifvqhmg","pricing_plan_id":"cebpf4jnsgd1na2vs0mg"},{"bike_id":"1df243d4-9d75-4f9c-bac9-eb6fb81d141a","system_id":"levelo_inurba_marseille","lat":43.283926,"lon":5.384958,"is_reserved":false,"is_disabled":false,"rental_uris":{"android":"levelo://app?vid=1df243d4-9d75-4f9c-bac9-eb6fb81d141a","ios":"levelo://app?vid=1df243d4-9d75-4f9c-bac9-eb6fb81d141a"},"vehicle_type_id":"4","last_reported":1748240184,"current_range_meters":10000,"station_id":"ce4bh512rcd13ifvqe3g","pricing_plan_id":"cebpf4jnsgd1na2vs0mg"},{"bike_id":"f943e205-9bac-4c62-b54f-daee6801a2c9","system_id":"levelo_inurba_marseille","lat":43.284902,"lon":5.385557,"is_reserved":false,"is_disabled":false,"rental_uris":{"android":"levelo://app?vid=f943e205-9bac-4c62-b54f-daee6801a2c9","ios":"levelo://app?vid=f943e205-9bac-4c62-b54f-daee6801a2c9"},"vehicle_type_id":"4","last_reported":1748240184,"current_range_meters":10000,"station_id":"ce4bh8p2rcd13ifvqeb0","pricing_plan_id":"cebpf4jnsgd1na2vs0mg"},{"bike_id":"dc5af9f7-7931-47bb-b92a-d6d9da1ff218","system_id":"levelo_inurba_marseille","lat":43.2749,"lon":5.42456,"is_reserved":false,"is_disabled":false,"rental_uris":{"android":"levelo://app?vid=dc5af9f7-7931-47bb-b92a-d6d9da1ff218","ios":"levelo://app?vid=dc5af9f7-7931-47bb-b92a-d6d9da1ff218"},"vehicle_type_id":"4","last_reported":1748240184,"current_range_meters":6400,"station_id":"ce4bhn92rcd13ifvqgrg","pricing_plan_id":"cebpf4jnsgd1na2vs0mg"},{"bike_id":"cceac0e5-9143-4c76-92c8-e1f03b19323e","system_id":"levelo_inurba_marseille","lat":43.290071,"lon":5.386734,"is_reserved":false,"is_disabled":false,"rental_uris":{"android":"levelo://app?vid=cceac0e5-9143-4c76-92c8-e1f03b19323e","ios":"levelo://app?vid=cceac0e5-9143-4c76-92c8-e1f03b19323e"},"vehicle_type_id":"4","last_reported":1748240184,"current_range_meters":9600,"station_id":"ce4bh4p2rcd13ifvqe0g","pricing_plan_id":"cebpf4jnsgd1na2vs0mg"},{"bike_id":"cb6b56c9-30b2-469c-a425-c7d6b5766ad3","system_id":"levelo_inurba_marseille","lat":43.30147,"lon":5.3742,"is_reserved":false,"is_disabled":false,"rental_uris":{"android":"levelo://app?vid=cb6b56c9-30b2-469c-a425-c7d6b5766ad3","ios":"levelo://app?vid=cb6b56c9-30b2-469c-a425-c7d6b5766ad3"},"vehicle_type_id":"4","last_reported":1748240184,"current_range_meters":10000,"station_id":"ce4bgs92rcd13ifvqcc0","pricing_plan_id":"cebpf4jnsgd1na2vs0mg"},{"bike_id":"fc56555b-396d-4667-b896-0ad86036e39e","system_id":"levelo_inurba_marseille","lat":43.259057,"lon":5.38039,"is_reserved":false,"is_disabled":false,"rental_uris":{"android":"levelo://app?vid=fc56555b-396d-4667-b896-0ad86036e39e","ios":"levelo://app?vid=fc56555b-396d-4667-b896-0ad86036e39e"},"vehicle_type_id":"4","last_reported":1748240184,"current_range_meters":10800,"station_id":"","pricing_plan_id":"cebpf4jnsgd1na2vs0mg"},{"bike_id":"253b3b17-68d6-420d-8d9a-7767e509688e","system_id":"levelo_inurba_marseille","lat":43.217522,"lon":5.346228,"is_reserved":false,"is_disabled":false,"rental_uris":{"android":"levelo://app?vid=253b3b17-68d6-420d-8d9a-7767e509688e","ios":"levelo://app?vid=253b3b17-68d6-420d-8d9a-7767e509688e"},"vehicle_type_id":"4","last_reported":1748240184,"current_range_meters":10800,"station_id":"st_cvj6r9ubvosntc0bgbag","pricing_plan_id":"cebpf4jnsgd1na2vs0mg"},{"bike_id":"d7d43624-a641-4381-92fc-49cd4e58cb5d","system_id":"levelo_inurba_marseille","lat":43.284245,"lon":5.349877,"is_reserved":false,"is_disabled":true,"rental_uris":{"android":"levelo://app?vid=d7d43624-a641-4381-92fc-49cd4e58cb5d","ios":"levelo://app?vid=d7d43624-a641-4381-92fc-49cd4e58cb5d"},"vehicle_type_id":"4","last_reported":1748240184,"current_range_meters":10800,"station_id":"ce4bhbh2rcd13ifvqepg","pricing_plan_id":"cebpf4jnsgd1na2vs0mg"},{"bike_id":"fb14966c-dc81-4839-a094-ab8c755c3e53","system_id":"levelo_inurba_marseille","lat":43.28691,"lon":5.38721,"is_reserved":false,"is_disabled":false,"rental_uris":{"android":"levelo://app?vid=fb14966c-dc81-4839-a094-ab8c755c3e53","ios":"levelo://app?vid=fb14966c-dc81-4839-a094-ab8c755c3e53"},"vehicle_type_id":"4","last_reported":1748240184,"current_range_meters":10800,"station_id":"ce4bh492rcd13ifvqdug","pricing_plan_id":"cebpf4jnsgd1na2vs0mg"},{"bike_id":"886bc3b4-6582-42d5-9e8a-651c1180a374","system_id":"levelo_inurba_marseille","lat":43.26565,"lon":5.40322,"is_reserved":false,"is_disabled":false,"rental_uris":{"android":"levelo://app?vid=886bc3b4-6582-42d5-9e8a-651c1180a374","ios":"levelo://app?vid=886bc3b4-6582-42d5-9e8a-651c1180a374"},"vehicle_type_id":"4","last_reported":1748240184,"current_range_meters":10800,"station_id":"","pricing_plan_id":"cebpf4jnsgd1na2vs0mg"},{"bike_id":"6cbaf781-b9b1-4c6f-9079-c3f68f511316","system_id":"levelo_inurba_marseille","lat":43.286951,"lon":5.374043,"is_reserved":false,"is_disabled":false,"rental_uris":{"android":"levelo://app?vid=6cbaf781-b9b1-4c6f-9079-c3f68f511316","ios":"levelo://app?vid=6cbaf781-b9b1-4c6f-9079-c3f68f511316"},"vehicle_type_id":"4","last_reported":1748240184,"current_range_meters":10800,"station_id":"ce4bh3p2rcd13ifvqdq0","pricing_plan_id":"cebpf4jnsgd1na2vs0mg"},{"bike_id":"079c7469-6271-4a87-bc0c-d5d3c60c4291","system_id":"levelo_inurba_marseille","lat":43.279448,"lon":5.410429,"is_reserved":false,"is_disabled":false,"rental_uris":{"android":"levelo://app?vid=079c7469-6271-4a87-bc0c-d5d3c60c4291","ios":"levelo://app?vid=079c7469-6271-4a87-bc0c-d5d3c60c4291"},"vehicle_type_id":"4","last_reported":1748240184,"current_range_meters":10800,"station_id":"ce4bhnp2rcd13ifvqh0g","pricing_plan_id":"cebpf4jnsgd1na2vs0mg"},{"bike_id":"6ab9cb3b-08a3-42f5-9055-d00d4973737f","system_id":"levelo_inurba_marseille","lat":43.28719,"lon":5.3793,"is_reserved":false,"is_disabled":false,"rental_uris":{"android":"levelo://app?vid=6ab9cb3b-08a3-42f5-9055-d00d4973737f","ios":"levelo://app?vid=6ab9cb3b-08a3-42f5-9055-d00d4973737f"},"vehicle_type_id":"4","last_reported":1748240184,"current_range_meters":10800,"station_id":"ce4bh9p2rcd13ifvqec0","pricing_plan_id":"cebpf4jnsgd1na2vs0mg"},{"bike_id":"5cdab094-c384-4931-b539-611ae09828f0","system_id":"levelo_inurba_marseille","lat":43.24546,"lon":5.39518,"is_reserved":false,"is_disabled":false,"rental_uris":{"android":"levelo://app?vid=5cdab094-c384-4931-b539-611ae09828f0","ios":"levelo://app?vid=5cdab094-c384-4931-b539-611ae09828f0"},"vehicle_type_id":"4","last_reported":1748240184,"current_range_meters":10800,"station_id":"ce4bhlp2rcd13ifvqgjg","pricing_plan_id":"cebpf4jnsgd1na2vs0mg"},{"bike_id":"874fba91-fbda-4288-b17f-8759eec81e80","system_id":"levelo_inurba_marseille","lat":43.27094,"lon":5.42257,"is_reserved":false,"is_disabled":false,"rental_uris":{"android":"levelo://app?vid=874fba91-fbda-4288-b17f-8759eec81e80","ios":"levelo://app?vid=874fba91-fbda-4288-b17f-8759eec81e80"},"vehicle_type_id":"4","last_reported":1748240184,"current_range_meters":10800,"station_id":"ce4bhk92rcd13ifvqgb0","pricing_plan_id":"cebpf4jnsgd1na2vs0mg"},{"bike_id":"a4aef2b9-b7e8-4e2d-8340-592d28bc6c85","system_id":"levelo_inurba_marseille","lat":43.337579,"lon":5.374318,"is_reserved":false,"is_disabled":false,"rental_uris":{"android":"levelo://app?vid=a4aef2b9-b7e8-4e2d-8340-592d28bc6c85","ios":"levelo://app?vid=a4aef2b9-b7e8-4e2d-8340-592d28bc6c85"},"vehicle_type_id":"4","last_reported":1748240184,"current_range_meters":11200,"station_id":"","pricing_plan_id":"cebpf4jnsgd1na2vs0mg"},{"bike_id":"cbf26803-fda2-4881-b78f-0384a24a47ce","system_id":"levelo_inurba_marseille","lat":43.31354,"lon":5.38485,"is_reserved":false,"is_disabled":false,"rental_uris":{"android":"levelo://app?vid=cbf26803-fda2-4881-b78f-0384a24a47ce","ios":"levelo://app?vid=cbf26803-fda2-4881-b78f-0384a24a47ce"},"vehicle_type_id":"4","last_reported":1748240184,"current_range_meters":10800,"station_id":"ce4bgt92rcd13ifvqcf0","pricing_plan_id":"cebpf4jnsgd1na2vs0mg"},{"bike_id":"1dfee792-c42c-4907-b3eb-1eeef94c4523","system_id":"levelo_inurba_marseille","lat":43.291,"lon":5.42606,"is_reserved":false,"is_disabled":true,"rental_uris":{"android":"levelo://app?vid=1dfee792-c42c-4907-b3eb-1eeef94c4523","ios":"levelo://app?vid=1dfee792-c42c-4907-b3eb-1eeef94c4523"},"vehicle_type_id":"4","last_reported":1748240184,"current_range_meters":11200,"station_id":"","pricing_plan_id":"cebpf4jnsgd1na2vs0mg"},{"bike_id":"681595d0-ee8e-4aad-8b0d-090b0d619a09","system_id":"levelo_inurba_marseille","lat":43.25002,"lon":5.38932,"is_reserved":false,"is_disabled":false,"rental_uris":{"android":"levelo://app?vid=681595d0-ee8e-4aad-8b0d-090b0d619a09","ios":"levelo://app?vid=681595d0-ee8e-4aad-8b0d-090b0d619a09"},"vehicle_type_id":"4","last_reported":1748240184,"current_range_meters":10800,"station_id":"ce4bhgp2rcd13ifvqfd0","pricing_plan_id":"cebpf4jnsgd1na2vs0mg"},{"bike_id":"cae21904-e520-4883-9fd2-f71a4b78c472","system_id":"levelo_inurba_marseille","lat":43.29357,"lon":5.37829,"is_reserved":false,"is_disabled":false,"rental_uris":{"android":"levelo://app?vid=cae21904-e520-4883-9fd2-f71a4b78c472","ios":"levelo://app?vid=cae21904-e520-4883-9fd2-f71a4b78c472"},"vehicle_type_id":"4","last_reported":1748240184,"current_range_meters":10800,"station_id":"ce4bgjh2rcd13ifvqbf0","pricing_plan_id":"cebpf4jnsgd1na2vs0mg"},{"bike_id":"bd96d8fe-1470-4855-baf7-e1cb5b1faab3","system_id":"levelo_inurba_marseille","lat":43.27052,"lon":5.40258,"is_reserved":false,"is_disabled":false,"rental_uris":{"android":"levelo://app?vid=bd96d8fe-1470-4855-baf7-e1cb5b1faab3","ios":"levelo://app?vid=bd96d8fe-1470-4855-baf7-e1cb5b1faab3"},"vehicle_type_id":"4","last_reported":1748240184,"current_range_meters":11200,"station_id":"ce4bhk92rcd13ifvqgc0","pricing_plan_id":"cebpf4jnsgd1na2vs0mg"},{"bike_id":"31cf1bc8-6be4-4129-9e81-80d9052e347e","system_id":"levelo_inurba_marseille","lat":43.32538,"lon":5.4147,"is_reserved":false,"is_disabled":false,"rental_uris":{"android":"levelo://app?vid=31cf1bc8-6be4-4129-9e81-80d9052e347e","ios":"levelo://app?vid=31cf1bc8-6be4-4129-9e81-80d9052e347e"},"vehicle_type_id":"4","last_reported":1748240184,"current_range_meters":11200,"station_id":"ce4bhq12rcd13ifvqhhg","pricing_plan_id":"cebpf4jnsgd1na2vs0mg"},{"bike_id":"a51538e0-45e2-44c7-8fa6-e0f7e9ea0448","system_id":"levelo_inurba_marseille","lat":43.27492,"lon":5.42437,"is_reserved":false,"is_disabled":false,"rental_uris":{"android":"levelo://app?vid=a51538e0-45e2-44c7-8fa6-e0f7e9ea0448","ios":"levelo://app?vid=a51538e0-45e2-44c7-8fa6-e0f7e9ea0448"},"vehicle_type_id":"4","last_reported":1748240184,"current_range_meters":11600,"station_id":"","pricing_plan_id":"cebpf4jnsgd1na2vs0mg"},{"bike_id":"e5040cc6-5912-44c1-a358-57f34154615c","system_id":"levelo_inurba_marseille","lat":43.28099,"lon":5.38659,"is_reserved":false,"is_disabled":false,"rental_uris":{"android":"levelo://app?vid=e5040cc6-5912-44c1-a358-57f34154615c","ios":"levelo://app?vid=e5040cc6-5912-44c1-a358-57f34154615c"},"vehicle_type_id":"4","last_reported":1748240184,"current_range_meters":11600,"station_id":"","pricing_plan_id":"cebpf4jnsgd1na2vs0mg"},{"bike_id":"41d795fd-6b15-4eca-98cc-80356500dbfe","system_id":"levelo_inurba_marseille","lat":43.2417,"lon":5.36398,"is_reserved":false,"is_disabled":false,"rental_uris":{"android":"levelo://app?vid=41d795fd-6b15-4eca-98cc-80356500dbfe","ios":"levelo://app?vid=41d795fd-6b15-4eca-98cc-80356500dbfe"},"vehicle_type_id":"4","last_reported":1748240184,"current_range_meters":11600,"station_id":"cpo36qri1sfpv3e86is0","pricing_plan_id":"cebpf4jnsgd1na2vs0mg"},{"bike_id":"b744080c-dd77-486d-9609-00c9cf60c1ad","system_id":"levelo_inurba_marseille","lat":43.23692,"lon":5.39072,"is_reserved":false,"is_disabled":false,"rental_uris":{"android":"levelo://app?vid=b744080c-dd77-486d-9609-00c9cf60c1ad","ios":"levelo://app?vid=b744080c-dd77-486d-9609-00c9cf60c1ad"},"vehicle_type_id":"4","last_reported":1748240184,"current_range_meters":11600,"station_id":"","pricing_plan_id":"cebpf4jnsgd1na2vs0mg"},{"bike_id":"f6c6d614-57aa-42d2-bd57-8b2141b94c79","system_id":"levelo_inurba_marseille","lat":43.25733,"lon":5.41096,"is_reserved":false,"is_disabled":false,"rental_uris":{"android":"levelo://app?vid=f6c6d614-57aa-42d2-bd57-8b2141b94c79","ios":"levelo://app?vid=f6c6d614-57aa-42d2-bd57-8b2141b94c79"},"vehicle_type_id":"4","last_reported":1748240184,"current_range_meters":11600,"station_id":"ce4bhkp2rcd13ifvqgd0","pricing_plan_id":"cebpf4jnsgd1na2vs0mg"},{"bike_id":"87a1c70e-19f2-4a6f-af4c-58dbe3350997","system_id":"levelo_inurba_marseille","lat":43.3254,"lon":5.414257,"is_reserved":false,"is_disabled":false,"rental_uris":{"android":"levelo://app?vid=87a1c70e-19f2-4a6f-af4c-58dbe3350997","ios":"levelo://app?vid=87a1c70e-19f2-4a6f-af4c-58dbe3350997"},"vehicle_type_id":"4","last_reported":1748240184,"current_range_meters":11600,"station_id":"ce4bhq12rcd13ifvqhhg","pricing_plan_id":"cebpf4jnsgd1na2vs0mg"},{"bike_id":"e41b3690-094d-4d60-9011-434d3b98795a","system_id":"levelo_inurba_marseille","lat":43.28688,"lon":5.39993,"is_reserved":false,"is_disabled":false,"rental_uris":{"android":"levelo://app?vid=e41b3690-094d-4d60-9011-434d3b98795a","ios":"levelo://app?vid=e41b3690-094d-4d60-9011-434d3b98795a"},"vehicle_type_id":"4","last_reported":1748240184,"current_range_meters":12000,"station_id":"ce4bho92rcd13ifvqh3g","pricing_plan_id":"cebpf4jnsgd1na2vs0mg"},{"bike_id":"7023b486-8893-4546-a463-dd6a94ccd3f3","system_id":"levelo_inurba_marseille","lat":43.281089,"lon":5.378266,"is_reserved":false,"is_disabled":false,"rental_uris":{"android":"levelo://app?vid=7023b486-8893-4546-a463-dd6a94ccd3f3","ios":"levelo://app?vid=7023b486-8893-4546-a463-dd6a94ccd3f3"},"vehicle_type_id":"4","last_reported":1748240184,"current_range_meters":12000,"station_id":"ce4bha12rcd13ifvqee0","pricing_plan_id":"cebpf4jnsgd1na2vs0mg"},{"bike_id":"e024ee27-4c70-4e72-b905-b6d95c8f88c3","system_id":"levelo_inurba_marseille","lat":43.29775,"lon":5.39345,"is_reserved":false,"is_disabled":false,"rental_uris":{"android":"levelo://app?vid=e024ee27-4c70-4e72-b905-b6d95c8f88c3","ios":"levelo://app?vid=e024ee27-4c70-4e72-b905-b6d95c8f88c3"},"vehicle_type_id":"4","last_reported":1748240184,"current_range_meters":11600,"station_id":"chh1huq6cuj3fo74tm60","pricing_plan_id":"cebpf4jnsgd1na2vs0mg"},{"bike_id":"b6d50979-2cbe-4572-83a9-35365a60bd44","system_id":"levelo_inurba_marseille","lat":43.27022,"lon":5.39318,"is_reserved":false,"is_disabled":false,"rental_uris":{"android":"levelo://app?vid=b6d50979-2cbe-4572-83a9-35365a60bd44","ios":"levelo://app?vid=b6d50979-2cbe-4572-83a9-35365a60bd44"},"vehicle_type_id":"4","last_reported":1748240184,"current_range_meters":12000,"station_id":"","pricing_plan_id":"cebpf4jnsgd1na2vs0mg"},{"bike_id":"6a4612f8-d511-472f-9784-e69bac545256","system_id":"levelo_inurba_marseille","lat":43.29018,"lon":5.36627,"is_reserved":false,"is_disabled":false,"rental_uris":{"android":"levelo://app?vid=6a4612f8-d511-472f-9784-e69bac545256","ios":"levelo://app?vid=6a4612f8-d511-472f-9784-e69bac545256"},"vehicle_type_id":"4","last_reported":1748240184,"current_range_meters":12000,"station_id":"","pricing_plan_id":"cebpf4jnsgd1na2vs0mg"},{"bike_id":"c09f3b14-08e4-4d3e-8e7c-25d11426c4bf","system_id":"levelo_inurba_marseille","lat":43.28782,"lon":5.481931,"is_reserved":false,"is_disabled":false,"rental_uris":{"android":"levelo://app?vid=c09f3b14-08e4-4d3e-8e7c-25d11426c4bf","ios":"levelo://app?vid=c09f3b14-08e4-4d3e-8e7c-25d11426c4bf"},"vehicle_type_id":"4","last_reported":1748240184,"current_range_meters":12000,"station_id":"","pricing_plan_id":"cebpf4jnsgd1na2vs0mg"},{"bike_id":"16ab6103-b803-493d-8f2a-dc69da196a97","system_id":"levelo_inurba_marseille","lat":43.27177,"lon":5.40993,"is_reserved":false,"is_disabled":false,"rental_uris":{"android":"levelo://app?vid=16ab6103-b803-493d-8f2a-dc69da196a97","ios":"levelo://app?vid=16ab6103-b803-493d-8f2a-dc69da196a97"},"vehicle_type_id":"4","last_reported":1748240184,"current_range_meters":12400,"station_id":"ce4bhl12rcd13ifvqgf0","pricing_plan_id":"cebpf4jnsgd1na2vs0mg"},{"bike_id":"a1cad742-c462-4135-a3f0-0311fa3b7596","system_id":"levelo_inurba_marseille","lat":43.292974,"lon":5.374547,"is_reserved":false,"is_disabled":true,"rental_uris":{"android":"levelo://app?vid=a1cad742-c462-4135-a3f0-0311fa3b7596","ios":"levelo://app?vid=a1cad742-c462-4135-a3f0-0311fa3b7596"},"vehicle_type_id":"4","last_reported":1748240184,"current_range_meters":12400,"station_id":"ce4bgi12rcd13ifvqb70","pricing_plan_id":"cebpf4jnsgd1na2vs0mg"},{"bike_id":"88dab9a2-6899-4608-a445-e022c6d5109e","system_id":"levelo_inurba_marseille","lat":43.30145,"lon":5.38078,"is_reserved":false,"is_disabled":false,"rental_uris":{"android":"levelo://app?vid=88dab9a2-6899-4608-a445-e022c6d5109e","ios":"levelo://app?vid=88dab9a2-6899-4608-a445-e022c6d5109e"},"vehicle_type_id":"4","last_reported":1748240184,"current_range_meters":12400,"station_id":"ce4bgjp2rcd13ifvqbh0","pricing_plan_id":"cebpf4jnsgd1na2vs0mg"},{"bike_id":"e38b04f7-29c0-43e3-a304-e78ae32b0a4d","system_id":"levelo_inurba_marseille","lat":43.22502,"lon":5.34779,"is_reserved":false,"is_disabled":false,"rental_uris":{"android":"levelo://app?vid=e38b04f7-29c0-43e3-a304-e78ae32b0a4d","ios":"levelo://app?vid=e38b04f7-29c0-43e3-a304-e78ae32b0a4d"},"vehicle_type_id":"4","last_reported":1748240184,"current_range_meters":12400,"station_id":"","pricing_plan_id":"cebpf4jnsgd1na2vs0mg"},{"bike_id":"18ffc3f0-f700-44a6-930b-8675a62b7c62","system_id":"levelo_inurba_marseille","lat":43.307836,"lon":5.376537,"is_reserved":false,"is_disabled":true,"rental_uris":{"android":"levelo://app?vid=18ffc3f0-f700-44a6-930b-8675a62b7c62","ios":"levelo://app?vid=18ffc3f0-f700-44a6-930b-8675a62b7c62"},"vehicle_type_id":"4","last_reported":1748240184,"current_range_meters":12800,"station_id":"ce4bgv92rcd13ifvqcq0","pricing_plan_id":"cebpf4jnsgd1na2vs0mg"},{"bike_id":"c632d31f-143a-49ea-8440-64a54ef9a7e3","system_id":"levelo_inurba_marseille","lat":43.30466,"lon":5.37909,"is_reserved":false,"is_disabled":false,"rental_uris":{"android":"levelo://app?vid=c632d31f-143a-49ea-8440-64a54ef9a7e3","ios":"levelo://app?vid=c632d31f-143a-49ea-8440-64a54ef9a7e3"},"vehicle_type_id":"4","last_reported":1748240184,"current_range_meters":12800,"station_id":"ce4bgup2rcd13ifvqcn0","pricing_plan_id":"cebpf4jnsgd1na2vs0mg"},{"bike_id":"29bff24e-c898-49da-9ffa-90cdf1d535e8","system_id":"levelo_inurba_marseille","lat":43.295064,"lon":5.394027,"is_reserved":false,"is_disabled":true,"rental_uris":{"android":"levelo://app?vid=29bff24e-c898-49da-9ffa-90cdf1d535e8","ios":"levelo://app?vid=29bff24e-c898-49da-9ffa-90cdf1d535e8"},"vehicle_type_id":"4","last_reported":1748240184,"current_range_meters":12800,"station_id":"ce4bh292rcd13ifvqdf0","pricing_plan_id":"cebpf4jnsgd1na2vs0mg"},{"bike_id":"b4f55865-d2c7-4348-8cd8-a5f681fde877","system_id":"levelo_inurba_marseille","lat":43.29602,"lon":5.37524,"is_reserved":false,"is_disabled":true,"rental_uris":{"android":"levelo://app?vid=b4f55865-d2c7-4348-8cd8-a5f681fde877","ios":"levelo://app?vid=b4f55865-d2c7-4348-8cd8-a5f681fde877"},"vehicle_type_id":"4","last_reported":1748240184,"current_range_meters":12800,"station_id":"ce4bgh92rcd13ifvqb50","pricing_plan_id":"cebpf4jnsgd1na2vs0mg"},{"bike_id":"e6edbb3c-3cca-4f02-b483-734348479651","system_id":"levelo_inurba_marseille","lat":43.28971,"lon":5.36609,"is_reserved":false,"is_disabled":false,"rental_uris":{"android":"levelo://app?vid=e6edbb3c-3cca-4f02-b483-734348479651","ios":"levelo://app?vid=e6edbb3c-3cca-4f02-b483-734348479651"},"vehicle_type_id":"4","last_reported":1748240184,"current_range_meters":12800,"station_id":"","pricing_plan_id":"cebpf4jnsgd1na2vs0mg"},{"bike_id":"530bbe3c-9943-40a0-b2ab-5031f93ebaf7","system_id":"levelo_inurba_marseille","lat":43.287129,"lon":5.379536,"is_reserved":false,"is_disabled":false,"rental_uris":{"android":"levelo://app?vid=530bbe3c-9943-40a0-b2ab-5031f93ebaf7","ios":"levelo://app?vid=530bbe3c-9943-40a0-b2ab-5031f93ebaf7"},"vehicle_type_id":"4","last_reported":1748240184,"current_range_meters":13600,"station_id":"ce4bh9p2rcd13ifvqec0","pricing_plan_id":"cebpf4jnsgd1na2vs0mg"},{"bike_id":"149da10d-6eaa-4811-88f1-d1dead375b83","system_id":"levelo_inurba_marseille","lat":43.29555,"lon":5.39381,"is_reserved":false,"is_disabled":false,"rental_uris":{"android":"levelo://app?vid=149da10d-6eaa-4811-88f1-d1dead375b83","ios":"levelo://app?vid=149da10d-6eaa-4811-88f1-d1dead375b83"},"vehicle_type_id":"4","last_reported":1748240184,"current_range_meters":13600,"station_id":"ce4bh292rcd13ifvqdf0","pricing_plan_id":"cebpf4jnsgd1na2vs0mg"},{"bike_id":"f0db987f-7a9b-45df-8e26-1d773e43b6e4","system_id":"levelo_inurba_marseille","lat":43.317145,"lon":5.436982,"is_reserved":false,"is_disabled":false,"rental_uris":{"android":"levelo://app?vid=f0db987f-7a9b-45df-8e26-1d773e43b6e4","ios":"levelo://app?vid=f0db987f-7a9b-45df-8e26-1d773e43b6e4"},"vehicle_type_id":"4","last_reported":1748240184,"current_range_meters":13600,"station_id":"ce4bhp92rcd13ifvqhcg","pricing_plan_id":"cebpf4jnsgd1na2vs0mg"},{"bike_id":"5148f8b2-1ecb-4c76-b37d-928f8d5cde64","system_id":"levelo_inurba_marseille","lat":43.32323,"lon":5.36787,"is_reserved":false,"is_disabled":false,"rental_uris":{"android":"levelo://app?vid=5148f8b2-1ecb-4c76-b37d-928f8d5cde64","ios":"levelo://app?vid=5148f8b2-1ecb-4c76-b37d-928f8d5cde64"},"vehicle_type_id":"4","last_reported":1748240184,"current_range_meters":13600,"station_id":"ce4bhsh2rcd13ifvqi2g","pricing_plan_id":"cebpf4jnsgd1na2vs0mg"},{"bike_id":"ea4d74dd-d824-412e-aad3-33347858b8a9","system_id":"levelo_inurba_marseille","lat":43.30256,"lon":5.40045,"is_reserved":false,"is_disabled":false,"rental_uris":{"android":"levelo://app?vid=ea4d74dd-d824-412e-aad3-33347858b8a9","ios":"levelo://app?vid=ea4d74dd-d824-412e-aad3-33347858b8a9"},"vehicle_type_id":"4","last_reported":1748240184,"current_range_meters":13600,"station_id":"ce4bgvh2rcd13ifvqcs0","pricing_plan_id":"cebpf4jnsgd1na2vs0mg"},{"bike_id":"4ef899f0-3200-4631-95b1-dadbaa04c417","system_id":"levelo_inurba_marseille","lat":43.291937,"lon":5.357957,"is_reserved":false,"is_disabled":true,"rental_uris":{"android":"levelo://app?vid=4ef899f0-3200-4631-95b1-dadbaa04c417","ios":"levelo://app?vid=4ef899f0-3200-4631-95b1-dadbaa04c417"},"vehicle_type_id":"4","last_reported":1748240184,"current_range_meters":13600,"station_id":"ce4bhb12rcd13ifvqel0","pricing_plan_id":"cebpf4jnsgd1na2vs0mg"},{"bike_id":"36204aed-e765-4609-8644-a806aa704d20","system_id":"levelo_inurba_marseille","lat":43.24081,"lon":5.3775,"is_reserved":false,"is_disabled":false,"rental_uris":{"android":"levelo://app?vid=36204aed-e765-4609-8644-a806aa704d20","ios":"levelo://app?vid=36204aed-e765-4609-8644-a806aa704d20"},"vehicle_type_id":"4","last_reported":1748240184,"current_range_meters":13600,"station_id":"ce4bhnp2rcd13ifvqgvg","pricing_plan_id":"cebpf4jnsgd1na2vs0mg"},{"bike_id":"1a0998e5-8bb9-474f-a827-53cad24c9e8f","system_id":"levelo_inurba_marseille","lat":43.3204,"lon":5.44968,"is_reserved":false,"is_disabled":false,"rental_uris":{"android":"levelo://app?vid=1a0998e5-8bb9-474f-a827-53cad24c9e8f","ios":"levelo://app?vid=1a0998e5-8bb9-474f-a827-53cad24c9e8f"},"vehicle_type_id":"4","last_reported":1748240184,"current_range_meters":14000,"station_id":"","pricing_plan_id":"cebpf4jnsgd1na2vs0mg"},{"bike_id":"36fa0e2c-281e-441e-847d-b93503ba6146","system_id":"levelo_inurba_marseille","lat":43.284573,"lon":5.358867,"is_reserved":false,"is_disabled":true,"rental_uris":{"android":"levelo://app?vid=36fa0e2c-281e-441e-847d-b93503ba6146","ios":"levelo://app?vid=36fa0e2c-281e-441e-847d-b93503ba6146"},"vehicle_type_id":"4","last_reported":1748240184,"current_range_meters":14000,"station_id":"ce4bhah2rcd13ifvqei0","pricing_plan_id":"cebpf4jnsgd1na2vs0mg"},{"bike_id":"f9a19947-a09b-4fc8-b7b9-470c94f2c7c9","system_id":"levelo_inurba_marseille","lat":43.273187,"lon":5.390713,"is_reserved":false,"is_disabled":false,"rental_uris":{"android":"levelo://app?vid=f9a19947-a09b-4fc8-b7b9-470c94f2c7c9","ios":"levelo://app?vid=f9a19947-a09b-4fc8-b7b9-470c94f2c7c9"},"vehicle_type_id":"4","last_reported":1748240184,"current_range_meters":14000,"station_id":"","pricing_plan_id":"cebpf4jnsgd1na2vs0mg"},{"bike_id":"393bb026-2978-44df-b6d2-3150874b2dc1","system_id":"levelo_inurba_marseille","lat":43.31714,"lon":5.37776,"is_reserved":false,"is_disabled":false,"rental_uris":{"android":"levelo://app?vid=393bb026-2978-44df-b6d2-3150874b2dc1","ios":"levelo://app?vid=393bb026-2978-44df-b6d2-3150874b2dc1"},"vehicle_type_id":"4","last_reported":1748240184,"current_range_meters":14000,"station_id":"ce4bgth2rcd13ifvqch0","pricing_plan_id":"cebpf4jnsgd1na2vs0mg"},{"bike_id":"6f1c556a-957e-483e-b58e-5e6baa2722a6","system_id":"levelo_inurba_marseille","lat":43.24803,"lon":5.37448,"is_reserved":false,"is_disabled":true,"rental_uris":{"android":"levelo://app?vid=6f1c556a-957e-483e-b58e-5e6baa2722a6","ios":"levelo://app?vid=6f1c556a-957e-483e-b58e-5e6baa2722a6"},"vehicle_type_id":"4","last_reported":1748240184,"current_range_meters":14000,"station_id":"ce4bhgh2rcd13ifvqfb0","pricing_plan_id":"cebpf4jnsgd1na2vs0mg"},{"bike_id":"35070d47-8864-49c7-a023-dc0cc96b9ab6","system_id":"levelo_inurba_marseille","lat":43.23057,"lon":5.35485,"is_reserved":false,"is_disabled":false,"rental_uris":{"android":"levelo://app?vid=35070d47-8864-49c7-a023-dc0cc96b9ab6","ios":"levelo://app?vid=35070d47-8864-49c7-a023-dc0cc96b9ab6"},"vehicle_type_id":"4","last_reported":1748240184,"current_range_meters":14000,"station_id":"cpo3342slgdg3j2ifvpg","pricing_plan_id":"cebpf4jnsgd1na2vs0mg"},{"bike_id":"ae6e6868-2635-4f49-b7c1-b03759c58ec7","system_id":"levelo_inurba_marseille","lat":43.272781,"lon":5.415922,"is_reserved":false,"is_disabled":false,"rental_uris":{"android":"levelo://app?vid=ae6e6868-2635-4f49-b7c1-b03759c58ec7","ios":"levelo://app?vid=ae6e6868-2635-4f49-b7c1-b03759c58ec7"},"vehicle_type_id":"4","last_reported":1748240184,"current_range_meters":14400,"station_id":"","pricing_plan_id":"cebpf4jnsgd1na2vs0mg"},{"bike_id":"d359bf4f-fcde-4075-b8cf-15cfcaa5c5d3","system_id":"levelo_inurba_marseille","lat":43.29263,"lon":5.3684,"is_reserved":false,"is_disabled":false,"rental_uris":{"android":"levelo://app?vid=d359bf4f-fcde-4075-b8cf-15cfcaa5c5d3","ios":"levelo://app?vid=d359bf4f-fcde-4075-b8cf-15cfcaa5c5d3"},"vehicle_type_id":"4","last_reported":1748240184,"current_range_meters":14400,"station_id":"ce4bhbp2rcd13ifvqesg","pricing_plan_id":"cebpf4jnsgd1na2vs0mg"},{"bike_id":"a415f20b-0acd-4f82-802a-47d93002e01b","system_id":"levelo_inurba_marseille","lat":43.31885,"lon":5.40737,"is_reserved":false,"is_disabled":false,"rental_uris":{"android":"levelo://app?vid=a415f20b-0acd-4f82-802a-47d93002e01b","ios":"levelo://app?vid=a415f20b-0acd-4f82-802a-47d93002e01b"},"vehicle_type_id":"4","last_reported":1748240184,"current_range_meters":14400,"station_id":"ce4bhq12rcd13ifvqhig","pricing_plan_id":"cebpf4jnsgd1na2vs0mg"},{"bike_id":"82558161-9867-4ec7-ac29-8a332b466f7a","system_id":"levelo_inurba_marseille","lat":43.309233,"lon":5.401614,"is_reserved":false,"is_disabled":false,"rental_uris":{"android":"levelo://app?vid=82558161-9867-4ec7-ac29-8a332b466f7a","ios":"levelo://app?vid=82558161-9867-4ec7-ac29-8a332b466f7a"},"vehicle_type_id":"4","last_reported":1748240184,"current_range_meters":14800,"station_id":"ce4bgvp2rcd13ifvqct0","pricing_plan_id":"cebpf4jnsgd1na2vs0mg"},{"bike_id":"c636587a-4feb-4216-8bef-48c303a326c7","system_id":"levelo_inurba_marseille","lat":43.30476,"lon":5.37904,"is_reserved":false,"is_disabled":false,"rental_uris":{"android":"levelo://app?vid=c636587a-4feb-4216-8bef-48c303a326c7","ios":"levelo://app?vid=c636587a-4feb-4216-8bef-48c303a326c7"},"vehicle_type_id":"4","last_reported":1748240184,"current_range_meters":14800,"station_id":"ce4bgup2rcd13ifvqcn0","pricing_plan_id":"cebpf4jnsgd1na2vs0mg"},{"bike_id":"49c1dc73-1887-4f54-9192-10595c8ff05c","system_id":"levelo_inurba_marseille","lat":43.2549,"lon":5.37658,"is_reserved":false,"is_disabled":false,"rental_uris":{"android":"levelo://app?vid=49c1dc73-1887-4f54-9192-10595c8ff05c","ios":"levelo://app?vid=49c1dc73-1887-4f54-9192-10595c8ff05c"},"vehicle_type_id":"4","last_reported":1748240184,"current_range_meters":14800,"station_id":"ce4bhh12rcd13ifvqff0","pricing_plan_id":"cebpf4jnsgd1na2vs0mg"},{"bike_id":"f8221895-ab5f-46e7-b177-153a00098359","system_id":"levelo_inurba_marseille","lat":43.21755,"lon":5.34614,"is_reserved":false,"is_disabled":true,"rental_uris":{"android":"levelo://app?vid=f8221895-ab5f-46e7-b177-153a00098359","ios":"levelo://app?vid=f8221895-ab5f-46e7-b177-153a00098359"},"vehicle_type_id":"4","last_reported":1748240184,"current_range_meters":14800,"station_id":"st_cvj6r9ubvosntc0bgbag","pricing_plan_id":"cebpf4jnsgd1na2vs0mg"},{"bike_id":"4443286a-c1bd-478e-bb42-fb9895a5ff6c","system_id":"levelo_inurba_marseille","lat":43.274916,"lon":5.424538,"is_reserved":false,"is_disabled":false,"rental_uris":{"android":"levelo://app?vid=4443286a-c1bd-478e-bb42-fb9895a5ff6c","ios":"levelo://app?vid=4443286a-c1bd-478e-bb42-fb9895a5ff6c"},"vehicle_type_id":"4","last_reported":1748240184,"current_range_meters":15200,"station_id":"","pricing_plan_id":"cebpf4jnsgd1na2vs0mg"},{"bike_id":"c7f6985e-4ae6-44a7-9a4f-5818470e9c1a","system_id":"levelo_inurba_marseille","lat":43.30472,"lon":5.37902,"is_reserved":false,"is_disabled":false,"rental_uris":{"android":"levelo://app?vid=c7f6985e-4ae6-44a7-9a4f-5818470e9c1a","ios":"levelo://app?vid=c7f6985e-4ae6-44a7-9a4f-5818470e9c1a"},"vehicle_type_id":"4","last_reported":1748240184,"current_range_meters":15200,"station_id":"ce4bgup2rcd13ifvqcn0","pricing_plan_id":"cebpf4jnsgd1na2vs0mg"},{"bike_id":"86f82f3d-6e53-431b-81ca-074675ada05b","system_id":"levelo_inurba_marseille","lat":43.307781,"lon":5.376487,"is_reserved":false,"is_disabled":false,"rental_uris":{"android":"levelo://app?vid=86f82f3d-6e53-431b-81ca-074675ada05b","ios":"levelo://app?vid=86f82f3d-6e53-431b-81ca-074675ada05b"},"vehicle_type_id":"4","last_reported":1748240184,"current_range_meters":15200,"station_id":"ce4bgv92rcd13ifvqcq0","pricing_plan_id":"cebpf4jnsgd1na2vs0mg"},{"bike_id":"34ffc6fe-38af-4bc3-86c8-742ab3b6ded8","system_id":"levelo_inurba_marseille","lat":43.30323,"lon":5.40448,"is_reserved":false,"is_disabled":true,"rental_uris":{"android":"levelo://app?vid=34ffc6fe-38af-4bc3-86c8-742ab3b6ded8","ios":"levelo://app?vid=34ffc6fe-38af-4bc3-86c8-742ab3b6ded8"},"vehicle_type_id":"4","last_reported":1748240184,"current_range_meters":15200,"station_id":"ce4bh012rcd13ifvqd10","pricing_plan_id":"cebpf4jnsgd1na2vs0mg"},{"bike_id":"e12cf9a5-32bf-4674-8805-346516a1c5d1","system_id":"levelo_inurba_marseille","lat":43.307894,"lon":5.376484,"is_reserved":false,"is_disabled":false,"rental_uris":{"android":"levelo://app?vid=e12cf9a5-32bf-4674-8805-346516a1c5d1","ios":"levelo://app?vid=e12cf9a5-32bf-4674-8805-346516a1c5d1"},"vehicle_type_id":"4","last_reported":1748240184,"current_range_meters":15200,"station_id":"ce4bgv92rcd13ifvqcq0","pricing_plan_id":"cebpf4jnsgd1na2vs0mg"},{"bike_id":"b73fb798-5eef-47be-b230-d7813f569e50","system_id":"levelo_inurba_marseille","lat":43.29803,"lon":5.38126,"is_reserved":false,"is_disabled":true,"rental_uris":{"android":"levelo://app?vid=b73fb798-5eef-47be-b230-d7813f569e50","ios":"levelo://app?vid=b73fb798-5eef-47be-b230-d7813f569e50"},"vehicle_type_id":"4","last_reported":1748240184,"current_range_meters":16000,"station_id":"ce4bgip2rcd13ifvqbb0","pricing_plan_id":"cebpf4jnsgd1na2vs0mg"},{"bike_id":"36d76392-6b56-442a-a88c-cd871eaf090c","system_id":"levelo_inurba_marseille","lat":43.30609,"lon":5.39337,"is_reserved":false,"is_disabled":true,"rental_uris":{"android":"levelo://app?vid=36d76392-6b56-442a-a88c-cd871eaf090c","ios":"levelo://app?vid=36d76392-6b56-442a-a88c-cd871eaf090c"},"vehicle_type_id":"4","last_reported":1748240184,"current_range_meters":16000,"station_id":"ce4bh0p2rcd13ifvqd80","pricing_plan_id":"cebpf4jnsgd1na2vs0mg"},{"bike_id":"f88e6484-accf-464d-9a61-96f01a1d7bf9","system_id":"levelo_inurba_marseille","lat":43.32101,"lon":5.36764,"is_reserved":false,"is_disabled":false,"rental_uris":{"android":"levelo://app?vid=f88e6484-accf-464d-9a61-96f01a1d7bf9","ios":"levelo://app?vid=f88e6484-accf-464d-9a61-96f01a1d7bf9"},"vehicle_type_id":"4","last_reported":1748240184,"current_range_meters":16000,"station_id":"ce4bhrh2rcd13ifvqhug","pricing_plan_id":"cebpf4jnsgd1na2vs0mg"},{"bike_id":"f78dbaec-0539-499d-bf77-edfba6763f09","system_id":"levelo_inurba_marseille","lat":43.30162,"lon":5.38079,"is_reserved":false,"is_disabled":false,"rental_uris":{"android":"levelo://app?vid=f78dbaec-0539-499d-bf77-edfba6763f09","ios":"levelo://app?vid=f78dbaec-0539-499d-bf77-edfba6763f09"},"vehicle_type_id":"4","last_reported":1748240184,"current_range_meters":16000,"station_id":"ce4bgjp2rcd13ifvqbh0","pricing_plan_id":"cebpf4jnsgd1na2vs0mg"},{"bike_id":"5835b5b0-33f0-4a92-aba8-2d23d2c21e8d","system_id":"levelo_inurba_marseille","lat":43.273766,"lon":5.362494,"is_reserved":false,"is_disabled":true,"rental_uris":{"android":"levelo://app?vid=5835b5b0-33f0-4a92-aba8-2d23d2c21e8d","ios":"levelo://app?vid=5835b5b0-33f0-4a92-aba8-2d23d2c21e8d"},"vehicle_type_id":"4","last_reported":1748240184,"current_range_meters":16000,"station_id":"ce4bhbh2rcd13ifvqeo0","pricing_plan_id":"cebpf4jnsgd1na2vs0mg"},{"bike_id":"1a775a5e-1792-4706-b4f6-ec50ef749d53","system_id":"levelo_inurba_marseille","lat":43.255796,"lon":5.38223,"is_reserved":false,"is_disabled":false,"rental_uris":{"android":"levelo://app?vid=1a775a5e-1792-4706-b4f6-ec50ef749d53","ios":"levelo://app?vid=1a775a5e-1792-4706-b4f6-ec50ef749d53"},"vehicle_type_id":"4","last_reported":1748240184,"current_range_meters":16000,"station_id":"ce4bhih2rcd13ifvqfs0","pricing_plan_id":"cebpf4jnsgd1na2vs0mg"},{"bike_id":"b1eb3a72-30c0-4f8b-b129-72af4111c29c","system_id":"levelo_inurba_marseille","lat":43.274993,"lon":5.424663,"is_reserved":false,"is_disabled":false,"rental_uris":{"android":"levelo://app?vid=b1eb3a72-30c0-4f8b-b129-72af4111c29c","ios":"levelo://app?vid=b1eb3a72-30c0-4f8b-b129-72af4111c29c"},"vehicle_type_id":"4","last_reported":1748240184,"current_range_meters":16000,"station_id":"","pricing_plan_id":"cebpf4jnsgd1na2vs0mg"},{"bike_id":"c00abe40-2113-4d29-8e72-a841dce58b38","system_id":"levelo_inurba_marseille","lat":43.285533,"lon":5.385019,"is_reserved":false,"is_disabled":false,"rental_uris":{"android":"levelo://app?vid=c00abe40-2113-4d29-8e72-a841dce58b38","ios":"levelo://app?vid=c00abe40-2113-4d29-8e72-a841dce58b38"},"vehicle_type_id":"4","last_reported":1748240184,"current_range_meters":16000,"station_id":"","pricing_plan_id":"cebpf4jnsgd1na2vs0mg"},{"bike_id":"5d9b1af1-f977-4a30-b2a5-33040eae71a9","system_id":"levelo_inurba_marseille","lat":43.22507,"lon":5.34784,"is_reserved":false,"is_disabled":false,"rental_uris":{"android":"levelo://app?vid=5d9b1af1-f977-4a30-b2a5-33040eae71a9","ios":"levelo://app?vid=5d9b1af1-f977-4a30-b2a5-33040eae71a9"},"vehicle_type_id":"4","last_reported":1748240184,"current_range_meters":16000,"station_id":"st_cvj5dfep6f1abm77gieg","pricing_plan_id":"cebpf4jnsgd1na2vs0mg"},{"bike_id":"79358a9d-8fbe-4ee9-9fb7-0b4d49580d8e","system_id":"levelo_inurba_marseille","lat":43.2992,"lon":5.37484,"is_reserved":false,"is_disabled":false,"rental_uris":{"android":"levelo://app?vid=79358a9d-8fbe-4ee9-9fb7-0b4d49580d8e","ios":"levelo://app?vid=79358a9d-8fbe-4ee9-9fb7-0b4d49580d8e"},"vehicle_type_id":"4","last_reported":1748240184,"current_range_meters":16000,"station_id":"ce4bgjh2rcd13ifvqbg0","pricing_plan_id":"cebpf4jnsgd1na2vs0mg"},{"bike_id":"1238d8e6-f0c7-43e3-9cd6-fc0ab14bca79","system_id":"levelo_inurba_marseille","lat":43.29973,"lon":5.38467,"is_reserved":false,"is_disabled":false,"rental_uris":{"android":"levelo://app?vid=1238d8e6-f0c7-43e3-9cd6-fc0ab14bca79","ios":"levelo://app?vid=1238d8e6-f0c7-43e3-9cd6-fc0ab14bca79"},"vehicle_type_id":"4","last_reported":1748240184,"current_range_meters":16000,"station_id":"ce4bgj92rcd13ifvqbd0","pricing_plan_id":"cebpf4jnsgd1na2vs0mg"},{"bike_id":"02d93c50-d0c3-4eef-97b2-f7b19eca064f","system_id":"levelo_inurba_marseille","lat":43.290148,"lon":5.372623,"is_reserved":false,"is_disabled":true,"rental_uris":{"android":"levelo://app?vid=02d93c50-d0c3-4eef-97b2-f7b19eca064f","ios":"levelo://app?vid=02d93c50-d0c3-4eef-97b2-f7b19eca064f"},"vehicle_type_id":"4","last_reported":1748240184,"current_range_meters":16000,"station_id":"","pricing_plan_id":"cebpf4jnsgd1na2vs0mg"},{"bike_id":"de4f922a-15bf-46b9-a7bf-d208f7b26502","system_id":"levelo_inurba_marseille","lat":43.33722,"lon":5.39177,"is_reserved":false,"is_disabled":false,"rental_uris":{"android":"levelo://app?vid=de4f922a-15bf-46b9-a7bf-d208f7b26502","ios":"levelo://app?vid=de4f922a-15bf-46b9-a7bf-d208f7b26502"},"vehicle_type_id":"4","last_reported":1748240184,"current_range_meters":16000,"station_id":"ce4bhr92rcd13ifvqhsg","pricing_plan_id":"cebpf4jnsgd1na2vs0mg"},{"bike_id":"6ef27e84-462a-46f9-afe5-e09b209cc7f0","system_id":"levelo_inurba_marseille","lat":43.331163,"lon":5.362069,"is_reserved":false,"is_disabled":false,"rental_uris":{"android":"levelo://app?vid=6ef27e84-462a-46f9-afe5-e09b209cc7f0","ios":"levelo://app?vid=6ef27e84-462a-46f9-afe5-e09b209cc7f0"},"vehicle_type_id":"4","last_reported":1748240184,"current_range_meters":16400,"station_id":"","pricing_plan_id":"cebpf4jnsgd1na2vs0mg"},{"bike_id":"d5658925-7a88-4989-8de6-5e98b3f857f6","system_id":"levelo_inurba_marseille","lat":43.33593,"lon":5.40977,"is_reserved":false,"is_disabled":false,"rental_uris":{"android":"levelo://app?vid=d5658925-7a88-4989-8de6-5e98b3f857f6","ios":"levelo://app?vid=d5658925-7a88-4989-8de6-5e98b3f857f6"},"vehicle_type_id":"4","last_reported":1748240184,"current_range_meters":16400,"station_id":"","pricing_plan_id":"cebpf4jnsgd1na2vs0mg"},{"bike_id":"21e01477-1427-4d05-a65a-71deaa0beff9","system_id":"levelo_inurba_marseille","lat":43.28618,"lon":5.35119,"is_reserved":false,"is_disabled":true,"rental_uris":{"android":"levelo://app?vid=21e01477-1427-4d05-a65a-71deaa0beff9","ios":"levelo://app?vid=21e01477-1427-4d05-a65a-71deaa0beff9"},"vehicle_type_id":"4","last_reported":1748240184,"current_range_meters":16400,"station_id":"ce4bhch2rcd13ifvqeug","pricing_plan_id":"cebpf4jnsgd1na2vs0mg"},{"bike_id":"f5b1aa50-af32-4b67-af03-fc8d46feddb5","system_id":"levelo_inurba_marseille","lat":43.292694,"lon":5.401271,"is_reserved":false,"is_disabled":false,"rental_uris":{"android":"levelo://app?vid=f5b1aa50-af32-4b67-af03-fc8d46feddb5","ios":"levelo://app?vid=f5b1aa50-af32-4b67-af03-fc8d46feddb5"},"vehicle_type_id":"4","last_reported":1748240184,"current_range_meters":16400,"station_id":"","pricing_plan_id":"cebpf4jnsgd1na2vs0mg"},{"bike_id":"949664e4-ff0a-4d5d-be33-4d871ee08edc","system_id":"levelo_inurba_marseille","lat":43.2319,"lon":5.39995,"is_reserved":false,"is_disabled":true,"rental_uris":{"android":"levelo://app?vid=949664e4-ff0a-4d5d-be33-4d871ee08edc","ios":"levelo://app?vid=949664e4-ff0a-4d5d-be33-4d871ee08edc"},"vehicle_type_id":"4","last_reported":1748240184,"current_range_meters":16400,"station_id":"ce4bhn12rcd13ifvqgqg","pricing_plan_id":"cebpf4jnsgd1na2vs0mg"},{"bike_id":"a3d7609d-023d-4547-b682-9dd639c4422d","system_id":"levelo_inurba_marseille","lat":43.31373,"lon":5.3849,"is_reserved":false,"is_disabled":true,"rental_uris":{"android":"levelo://app?vid=a3d7609d-023d-4547-b682-9dd639c4422d","ios":"levelo://app?vid=a3d7609d-023d-4547-b682-9dd639c4422d"},"vehicle_type_id":"4","last_reported":1748240184,"current_range_meters":16800,"station_id":"ce4bgt92rcd13ifvqcf0","pricing_plan_id":"cebpf4jnsgd1na2vs0mg"},{"bike_id":"659fb1c9-6fb3-4b0d-bcc1-5918e907ce59","system_id":"levelo_inurba_marseille","lat":43.31076,"lon":5.38374,"is_reserved":false,"is_disabled":false,"rental_uris":{"android":"levelo://app?vid=659fb1c9-6fb3-4b0d-bcc1-5918e907ce59","ios":"levelo://app?vid=659fb1c9-6fb3-4b0d-bcc1-5918e907ce59"},"vehicle_type_id":"4","last_reported":1748240184,"current_range_meters":16800,"station_id":"ce4bgv92rcd13ifvqcr0","pricing_plan_id":"cebpf4jnsgd1na2vs0mg"},{"bike_id":"f5ba0502-3cc5-4fc0-bca6-a71bd9b211a6","system_id":"levelo_inurba_marseille","lat":43.302469,"lon":5.400738,"is_reserved":false,"is_disabled":false,"rental_uris":{"android":"levelo://app?vid=f5ba0502-3cc5-4fc0-bca6-a71bd9b211a6","ios":"levelo://app?vid=f5ba0502-3cc5-4fc0-bca6-a71bd9b211a6"},"vehicle_type_id":"4","last_reported":1748240184,"current_range_meters":16800,"station_id":"ce4bgvh2rcd13ifvqcs0","pricing_plan_id":"cebpf4jnsgd1na2vs0mg"},{"bike_id":"829d5a7b-a281-4035-8670-d541acbf4ae1","system_id":"levelo_inurba_marseille","lat":43.272083,"lon":5.391964,"is_reserved":false,"is_disabled":true,"rental_uris":{"android":"levelo://app?vid=829d5a7b-a281-4035-8670-d541acbf4ae1","ios":"levelo://app?vid=829d5a7b-a281-4035-8670-d541acbf4ae1"},"vehicle_type_id":"4","last_reported":1748240184,"current_range_meters":16800,"station_id":"ce4bhhp2rcd13ifvqfm0","pricing_plan_id":"cebpf4jnsgd1na2vs0mg"},{"bike_id":"e6c65de3-7d92-4979-809c-6677188473c0","system_id":"levelo_inurba_marseille","lat":43.337587,"lon":5.374316,"is_reserved":false,"is_disabled":false,"rental_uris":{"android":"levelo://app?vid=e6c65de3-7d92-4979-809c-6677188473c0","ios":"levelo://app?vid=e6c65de3-7d92-4979-809c-6677188473c0"},"vehicle_type_id":"4","last_reported":1748240184,"current_range_meters":16800,"station_id":"","pricing_plan_id":"cebpf4jnsgd1na2vs0mg"},{"bike_id":"24490955-9c89-462e-bc37-df7b58699236","system_id":"levelo_inurba_marseille","lat":43.291002,"lon":5.381611,"is_reserved":false,"is_disabled":true,"rental_uris":{"android":"levelo://app?vid=24490955-9c89-462e-bc37-df7b58699236","ios":"levelo://app?vid=24490955-9c89-462e-bc37-df7b58699236"},"vehicle_type_id":"4","last_reported":1748240184,"current_range_meters":16800,"station_id":"ce4bh512rcd13ifvqe2g","pricing_plan_id":"cebpf4jnsgd1na2vs0mg"},{"bike_id":"35948759-5fe7-4d5a-9932-c8ab8708a757","system_id":"levelo_inurba_marseille","lat":43.243979,"lon":5.370736,"is_reserved":false,"is_disabled":true,"rental_uris":{"android":"levelo://app?vid=35948759-5fe7-4d5a-9932-c8ab8708a757","ios":"levelo://app?vid=35948759-5fe7-4d5a-9932-c8ab8708a757"},"vehicle_type_id":"4","last_reported":1748240184,"current_range_meters":16800,"station_id":"ce4bhhh2rcd13ifvqfk0","pricing_plan_id":"cebpf4jnsgd1na2vs0mg"},{"bike_id":"1ddddcb6-2861-42be-9aef-ac75cfbcc3ea","system_id":"levelo_inurba_marseille","lat":43.29933,"lon":5.36551,"is_reserved":false,"is_disabled":false,"rental_uris":{"android":"levelo://app?vid=1ddddcb6-2861-42be-9aef-ac75cfbcc3ea","ios":"levelo://app?vid=1ddddcb6-2861-42be-9aef-ac75cfbcc3ea"},"vehicle_type_id":"4","last_reported":1748240184,"current_range_meters":16800,"station_id":"ce4bgm92rcd13ifvqbr0","pricing_plan_id":"cebpf4jnsgd1na2vs0mg"},{"bike_id":"c30702be-0998-439a-a2aa-00dca7724acb","system_id":"levelo_inurba_marseille","lat":43.31333,"lon":5.39686,"is_reserved":false,"is_disabled":false,"rental_uris":{"android":"levelo://app?vid=c30702be-0998-439a-a2aa-00dca7724acb","ios":"levelo://app?vid=c30702be-0998-439a-a2aa-00dca7724acb"},"vehicle_type_id":"4","last_reported":1748240184,"current_range_meters":16800,"station_id":"ce4bgvp2rcd13ifvqcu0","pricing_plan_id":"cebpf4jnsgd1na2vs0mg"},{"bike_id":"7c1d476f-d6d9-49be-9af4-dd93998d71fd","system_id":"levelo_inurba_marseille","lat":43.30539,"lon":5.36725,"is_reserved":false,"is_disabled":false,"rental_uris":{"android":"levelo://app?vid=7c1d476f-d6d9-49be-9af4-dd93998d71fd","ios":"levelo://app?vid=7c1d476f-d6d9-49be-9af4-dd93998d71fd"},"vehicle_type_id":"4","last_reported":1748240184,"current_range_meters":16800,"station_id":"ce4bgrp2rcd13ifvqc9g","pricing_plan_id":"cebpf4jnsgd1na2vs0mg"},{"bike_id":"2a046dee-b3af-48c9-9659-b7d30ba20af5","system_id":"levelo_inurba_marseille","lat":43.243283,"lon":5.37995,"is_reserved":false,"is_disabled":false,"rental_uris":{"android":"levelo://app?vid=2a046dee-b3af-48c9-9659-b7d30ba20af5","ios":"levelo://app?vid=2a046dee-b3af-48c9-9659-b7d30ba20af5"},"vehicle_type_id":"4","last_reported":1748240184,"current_range_meters":16800,"station_id":"","pricing_plan_id":"cebpf4jnsgd1na2vs0mg"},{"bike_id":"6a84eee3-edad-46fd-a8d6-679b97fdfe12","system_id":"levelo_inurba_marseille","lat":43.23046,"lon":5.355018,"is_reserved":false,"is_disabled":false,"rental_uris":{"android":"levelo://app?vid=6a84eee3-edad-46fd-a8d6-679b97fdfe12","ios":"levelo://app?vid=6a84eee3-edad-46fd-a8d6-679b97fdfe12"},"vehicle_type_id":"4","last_reported":1748240184,"current_range_meters":17200,"station_id":"cpo3342slgdg3j2ifvpg","pricing_plan_id":"cebpf4jnsgd1na2vs0mg"},{"bike_id":"b9c6f7aa-eeb7-4b50-8a0f-1842bd3705a6","system_id":"levelo_inurba_marseille","lat":43.2573,"lon":5.41084,"is_reserved":false,"is_disabled":false,"rental_uris":{"android":"levelo://app?vid=b9c6f7aa-eeb7-4b50-8a0f-1842bd3705a6","ios":"levelo://app?vid=b9c6f7aa-eeb7-4b50-8a0f-1842bd3705a6"},"vehicle_type_id":"4","last_reported":1748240184,"current_range_meters":17200,"station_id":"ce4bhkp2rcd13ifvqgd0","pricing_plan_id":"cebpf4jnsgd1na2vs0mg"},{"bike_id":"3b1381ba-6012-4323-8a4c-d536c160e653","system_id":"levelo_inurba_marseille","lat":43.258659,"lon":5.398984,"is_reserved":false,"is_disabled":true,"rental_uris":{"android":"levelo://app?vid=3b1381ba-6012-4323-8a4c-d536c160e653","ios":"levelo://app?vid=3b1381ba-6012-4323-8a4c-d536c160e653"},"vehicle_type_id":"4","last_reported":1748240184,"current_range_meters":17200,"station_id":"ce4bhl92rcd13ifvqghg","pricing_plan_id":"cebpf4jnsgd1na2vs0mg"},{"bike_id":"2b8a34be-a8c3-4f33-9540-d60a2546719f","system_id":"levelo_inurba_marseille","lat":43.292206,"lon":5.360488,"is_reserved":false,"is_disabled":false,"rental_uris":{"android":"levelo://app?vid=2b8a34be-a8c3-4f33-9540-d60a2546719f","ios":"levelo://app?vid=2b8a34be-a8c3-4f33-9540-d60a2546719f"},"vehicle_type_id":"4","last_reported":1748240184,"current_range_meters":17200,"station_id":"","pricing_plan_id":"cebpf4jnsgd1na2vs0mg"},{"bike_id":"af026f05-5253-4b1e-9ece-8682b2e2ae39","system_id":"levelo_inurba_marseille","lat":43.29043,"lon":5.399514,"is_reserved":false,"is_disabled":false,"rental_uris":{"android":"levelo://app?vid=af026f05-5253-4b1e-9ece-8682b2e2ae39","ios":"levelo://app?vid=af026f05-5253-4b1e-9ece-8682b2e2ae39"},"vehicle_type_id":"4","last_reported":1748240184,"current_range_meters":17200,"station_id":"ce4bh392rcd13ifvqdm0","pricing_plan_id":"cebpf4jnsgd1na2vs0mg"},{"bike_id":"83b2b4f6-5e72-4923-a91c-e0183dbe7d56","system_id":"levelo_inurba_marseille","lat":43.289428,"lon":5.366332,"is_reserved":false,"is_disabled":false,"rental_uris":{"android":"levelo://app?vid=83b2b4f6-5e72-4923-a91c-e0183dbe7d56","ios":"levelo://app?vid=83b2b4f6-5e72-4923-a91c-e0183dbe7d56"},"vehicle_type_id":"4","last_reported":1748240184,"current_range_meters":17200,"station_id":"","pricing_plan_id":"cebpf4jnsgd1na2vs0mg"},{"bike_id":"85efa91f-972b-4823-9ff9-759601b0dd88","system_id":"levelo_inurba_marseille","lat":43.300765,"lon":5.40403,"is_reserved":false,"is_disabled":false,"rental_uris":{"android":"levelo://app?vid=85efa91f-972b-4823-9ff9-759601b0dd88","ios":"levelo://app?vid=85efa91f-972b-4823-9ff9-759601b0dd88"},"vehicle_type_id":"4","last_reported":1748240184,"current_range_meters":17200,"station_id":"","pricing_plan_id":"cebpf4jnsgd1na2vs0mg"},{"bike_id":"b173454c-a819-4f20-b904-0761ea294ffc","system_id":"levelo_inurba_marseille","lat":43.28034,"lon":5.36932,"is_reserved":false,"is_disabled":true,"rental_uris":{"android":"levelo://app?vid=b173454c-a819-4f20-b904-0761ea294ffc","ios":"levelo://app?vid=b173454c-a819-4f20-b904-0761ea294ffc"},"vehicle_type_id":"4","last_reported":1748240184,"current_range_meters":17200,"station_id":"ce4bha12rcd13ifvqef0","pricing_plan_id":"cebpf4jnsgd1na2vs0mg"},{"bike_id":"0b563614-8072-4508-a50f-3596390f6162","system_id":"levelo_inurba_marseille","lat":43.30192,"lon":5.38142,"is_reserved":false,"is_disabled":false,"rental_uris":{"android":"levelo://app?vid=0b563614-8072-4508-a50f-3596390f6162","ios":"levelo://app?vid=0b563614-8072-4508-a50f-3596390f6162"},"vehicle_type_id":"4","last_reported":1748240184,"current_range_meters":17200,"station_id":"","pricing_plan_id":"cebpf4jnsgd1na2vs0mg"},{"bike_id":"64d1cf52-c3d5-490d-ba21-6429c784d2d7","system_id":"levelo_inurba_marseille","lat":43.27052,"lon":5.40271,"is_reserved":false,"is_disabled":false,"rental_uris":{"android":"levelo://app?vid=64d1cf52-c3d5-490d-ba21-6429c784d2d7","ios":"levelo://app?vid=64d1cf52-c3d5-490d-ba21-6429c784d2d7"},"vehicle_type_id":"4","last_reported":1748240184,"current_range_meters":17200,"station_id":"ce4bhk92rcd13ifvqgc0","pricing_plan_id":"cebpf4jnsgd1na2vs0mg"},{"bike_id":"3308328c-3291-426e-8856-b62808096a46","system_id":"levelo_inurba_marseille","lat":43.30591,"lon":5.39358,"is_reserved":false,"is_disabled":false,"rental_uris":{"android":"levelo://app?vid=3308328c-3291-426e-8856-b62808096a46","ios":"levelo://app?vid=3308328c-3291-426e-8856-b62808096a46"},"vehicle_type_id":"4","last_reported":1748240184,"current_range_meters":17200,"station_id":"ce4bh0p2rcd13ifvqd80","pricing_plan_id":"cebpf4jnsgd1na2vs0mg"},{"bike_id":"6b482028-512e-4dbe-b943-3138dd0f6f46","system_id":"levelo_inurba_marseille","lat":43.296874,"lon":5.368805,"is_reserved":false,"is_disabled":false,"rental_uris":{"android":"levelo://app?vid=6b482028-512e-4dbe-b943-3138dd0f6f46","ios":"levelo://app?vid=6b482028-512e-4dbe-b943-3138dd0f6f46"},"vehicle_type_id":"4","last_reported":1748240184,"current_range_meters":17200,"station_id":"","pricing_plan_id":"cebpf4jnsgd1na2vs0mg"},{"bike_id":"e1e46b8b-b34f-4d42-a91f-b9e6a015af37","system_id":"levelo_inurba_marseille","lat":43.30247,"lon":5.40061,"is_reserved":false,"is_disabled":false,"rental_uris":{"android":"levelo://app?vid=e1e46b8b-b34f-4d42-a91f-b9e6a015af37","ios":"levelo://app?vid=e1e46b8b-b34f-4d42-a91f-b9e6a015af37"},"vehicle_type_id":"4","last_reported":1748240184,"current_range_meters":17200,"station_id":"ce4bgvh2rcd13ifvqcs0","pricing_plan_id":"cebpf4jnsgd1na2vs0mg"},{"bike_id":"2c8e2dc4-a1d6-467b-8ed1-97660453c375","system_id":"levelo_inurba_marseille","lat":43.28709,"lon":5.38644,"is_reserved":false,"is_disabled":false,"rental_uris":{"android":"levelo://app?vid=2c8e2dc4-a1d6-467b-8ed1-97660453c375","ios":"levelo://app?vid=2c8e2dc4-a1d6-467b-8ed1-97660453c375"},"vehicle_type_id":"4","last_reported":1748240184,"current_range_meters":17600,"station_id":"","pricing_plan_id":"cebpf4jnsgd1na2vs0mg"},{"bike_id":"7ece2224-bbc9-41be-b279-457383278953","system_id":"levelo_inurba_marseille","lat":43.25495,"lon":5.37658,"is_reserved":false,"is_disabled":false,"rental_uris":{"android":"levelo://app?vid=7ece2224-bbc9-41be-b279-457383278953","ios":"levelo://app?vid=7ece2224-bbc9-41be-b279-457383278953"},"vehicle_type_id":"4","last_reported":1748240184,"current_range_meters":17600,"station_id":"ce4bhh12rcd13ifvqff0","pricing_plan_id":"cebpf4jnsgd1na2vs0mg"},{"bike_id":"1ade0356-92d6-49de-b765-7372fe8f372f","system_id":"levelo_inurba_marseille","lat":43.27214,"lon":5.39182,"is_reserved":false,"is_disabled":false,"rental_uris":{"android":"levelo://app?vid=1ade0356-92d6-49de-b765-7372fe8f372f","ios":"levelo://app?vid=1ade0356-92d6-49de-b765-7372fe8f372f"},"vehicle_type_id":"4","last_reported":1748240184,"current_range_meters":17600,"station_id":"ce4bhhp2rcd13ifvqfm0","pricing_plan_id":"cebpf4jnsgd1na2vs0mg"},{"bike_id":"988c87df-de4e-4fd5-ae71-67014b73ab44","system_id":"levelo_inurba_marseille","lat":43.27208,"lon":5.39176,"is_reserved":false,"is_disabled":false,"rental_uris":{"android":"levelo://app?vid=988c87df-de4e-4fd5-ae71-67014b73ab44","ios":"levelo://app?vid=988c87df-de4e-4fd5-ae71-67014b73ab44"},"vehicle_type_id":"4","last_reported":1748240184,"current_range_meters":17200,"station_id":"ce4bhhp2rcd13ifvqfm0","pricing_plan_id":"cebpf4jnsgd1na2vs0mg"},{"bike_id":"3f7a6a90-474e-489f-a15a-9b76a4c02074","system_id":"levelo_inurba_marseille","lat":43.23196,"lon":5.35536,"is_reserved":false,"is_disabled":false,"rental_uris":{"android":"levelo://app?vid=3f7a6a90-474e-489f-a15a-9b76a4c02074","ios":"levelo://app?vid=3f7a6a90-474e-489f-a15a-9b76a4c02074"},"vehicle_type_id":"4","last_reported":1748240184,"current_range_meters":17600,"station_id":"ce4bhu92rcd13ifvqi70","pricing_plan_id":"cebpf4jnsgd1na2vs0mg"},{"bike_id":"e1e97358-0bd9-47f5-bde7-2d5f52fc76c5","system_id":"levelo_inurba_marseille","lat":43.25811,"lon":5.39424,"is_reserved":false,"is_disabled":false,"rental_uris":{"android":"levelo://app?vid=e1e97358-0bd9-47f5-bde7-2d5f52fc76c5","ios":"levelo://app?vid=e1e97358-0bd9-47f5-bde7-2d5f52fc76c5"},"vehicle_type_id":"4","last_reported":1748240184,"current_range_meters":18000,"station_id":"ce4bhip2rcd13ifvqft0","pricing_plan_id":"cebpf4jnsgd1na2vs0mg"},{"bike_id":"8dd88446-c109-43b3-a107-2b4a6e1b330a","system_id":"levelo_inurba_marseille","lat":43.3172,"lon":5.43693,"is_reserved":false,"is_disabled":false,"rental_uris":{"android":"levelo://app?vid=8dd88446-c109-43b3-a107-2b4a6e1b330a","ios":"levelo://app?vid=8dd88446-c109-43b3-a107-2b4a6e1b330a"},"vehicle_type_id":"4","last_reported":1748240184,"current_range_meters":18000,"station_id":"ce4bhp92rcd13ifvqhcg","pricing_plan_id":"cebpf4jnsgd1na2vs0mg"},{"bike_id":"d2bb6332-08b7-4002-8387-234070e3cf63","system_id":"levelo_inurba_marseille","lat":43.23958,"lon":5.36621,"is_reserved":false,"is_disabled":false,"rental_uris":{"android":"levelo://app?vid=d2bb6332-08b7-4002-8387-234070e3cf63","ios":"levelo://app?vid=d2bb6332-08b7-4002-8387-234070e3cf63"},"vehicle_type_id":"4","last_reported":1748240184,"current_range_meters":18000,"station_id":"ce4bhi12rcd13ifvqfp0","pricing_plan_id":"cebpf4jnsgd1na2vs0mg"},{"bike_id":"ceb81090-b40e-47dd-bc35-8598d269ef58","system_id":"levelo_inurba_marseille","lat":43.26663,"lon":5.38431,"is_reserved":false,"is_disabled":false,"rental_uris":{"android":"levelo://app?vid=ceb81090-b40e-47dd-bc35-8598d269ef58","ios":"levelo://app?vid=ceb81090-b40e-47dd-bc35-8598d269ef58"},"vehicle_type_id":"4","last_reported":1748240184,"current_range_meters":18800,"station_id":"","pricing_plan_id":"cebpf4jnsgd1na2vs0mg"},{"bike_id":"f28bcdc0-d251-4a73-87b0-ff8941b8463c","system_id":"levelo_inurba_marseille","lat":43.292994,"lon":5.371992,"is_reserved":false,"is_disabled":false,"rental_uris":{"android":"levelo://app?vid=f28bcdc0-d251-4a73-87b0-ff8941b8463c","ios":"levelo://app?vid=f28bcdc0-d251-4a73-87b0-ff8941b8463c"},"vehicle_type_id":"4","last_reported":1748240184,"current_range_meters":18800,"station_id":"ce4bgh92rcd13ifvqb40","pricing_plan_id":"cebpf4jnsgd1na2vs0mg"},{"bike_id":"dbbc3087-ad3b-473b-9341-4e6aa0da5126","system_id":"levelo_inurba_marseille","lat":43.246312,"lon":5.393423,"is_reserved":false,"is_disabled":false,"rental_uris":{"android":"levelo://app?vid=dbbc3087-ad3b-473b-9341-4e6aa0da5126","ios":"levelo://app?vid=dbbc3087-ad3b-473b-9341-4e6aa0da5126"},"vehicle_type_id":"4","last_reported":1748240184,"current_range_meters":18800,"station_id":"","pricing_plan_id":"cebpf4jnsgd1na2vs0mg"},{"bike_id":"a188ad5d-727d-4571-a76b-b8e1639c3ea2","system_id":"levelo_inurba_marseille","lat":43.29774,"lon":5.371124,"is_reserved":false,"is_disabled":true,"rental_uris":{"android":"levelo://app?vid=a188ad5d-727d-4571-a76b-b8e1639c3ea2","ios":"levelo://app?vid=a188ad5d-727d-4571-a76b-b8e1639c3ea2"},"vehicle_type_id":"4","last_reported":1748240184,"current_range_meters":18800,"station_id":"ce4bgop2rcd13ifvqc1g","pricing_plan_id":"cebpf4jnsgd1na2vs0mg"},{"bike_id":"30e949a6-9a21-45c6-8b78-d17c7d943515","system_id":"levelo_inurba_marseille","lat":43.27496,"lon":5.42463,"is_reserved":false,"is_disabled":false,"rental_uris":{"android":"levelo://app?vid=30e949a6-9a21-45c6-8b78-d17c7d943515","ios":"levelo://app?vid=30e949a6-9a21-45c6-8b78-d17c7d943515"},"vehicle_type_id":"4","last_reported":1748240184,"current_range_meters":18800,"station_id":"ce4bhn92rcd13ifvqgrg","pricing_plan_id":"cebpf4jnsgd1na2vs0mg"},{"bike_id":"b429fe88-fd36-4077-b2a9-0f230c771e9f","system_id":"levelo_inurba_marseille","lat":43.251098,"lon":5.403186,"is_reserved":false,"is_disabled":false,"rental_uris":{"android":"levelo://app?vid=b429fe88-fd36-4077-b2a9-0f230c771e9f","ios":"levelo://app?vid=b429fe88-fd36-4077-b2a9-0f230c771e9f"},"vehicle_type_id":"4","last_reported":1748240184,"current_range_meters":18800,"station_id":"ce4bhlh2rcd13ifvqgig","pricing_plan_id":"cebpf4jnsgd1na2vs0mg"},{"bike_id":"5bda06d9-872f-4fe8-aa0c-4086cd2e5dce","system_id":"levelo_inurba_marseille","lat":43.29587,"lon":5.38064,"is_reserved":false,"is_disabled":false,"rental_uris":{"android":"levelo://app?vid=5bda06d9-872f-4fe8-aa0c-4086cd2e5dce","ios":"levelo://app?vid=5bda06d9-872f-4fe8-aa0c-4086cd2e5dce"},"vehicle_type_id":"4","last_reported":1748240184,"current_range_meters":18800,"station_id":"ce4bgl12rcd13ifvqbo0","pricing_plan_id":"cebpf4jnsgd1na2vs0mg"},{"bike_id":"f66616df-5f00-413b-8d9d-8075202220ab","system_id":"levelo_inurba_marseille","lat":43.27609,"lon":5.36092,"is_reserved":false,"is_disabled":true,"rental_uris":{"android":"levelo://app?vid=f66616df-5f00-413b-8d9d-8075202220ab","ios":"levelo://app?vid=f66616df-5f00-413b-8d9d-8075202220ab"},"vehicle_type_id":"4","last_reported":1748240184,"current_range_meters":18800,"station_id":"ce4bgj92rcd13ifvqbe0","pricing_plan_id":"cebpf4jnsgd1na2vs0mg"},{"bike_id":"f1f45967-5c63-43d3-8309-e5add10a4686","system_id":"levelo_inurba_marseille","lat":43.327905,"lon":5.403218,"is_reserved":false,"is_disabled":false,"rental_uris":{"android":"levelo://app?vid=f1f45967-5c63-43d3-8309-e5add10a4686","ios":"levelo://app?vid=f1f45967-5c63-43d3-8309-e5add10a4686"},"vehicle_type_id":"4","last_reported":1748240184,"current_range_meters":18800,"station_id":"ce4bhr92rcd13ifvqhrg","pricing_plan_id":"cebpf4jnsgd1na2vs0mg"},{"bike_id":"dff8f252-c6ce-4519-b205-3e0252f4d630","system_id":"levelo_inurba_marseille","lat":43.25086,"lon":5.39489,"is_reserved":false,"is_disabled":false,"rental_uris":{"android":"levelo://app?vid=dff8f252-c6ce-4519-b205-3e0252f4d630","ios":"levelo://app?vid=dff8f252-c6ce-4519-b205-3e0252f4d630"},"vehicle_type_id":"4","last_reported":1748240184,"current_range_meters":18800,"station_id":"ce4bhm12rcd13ifvqgkg","pricing_plan_id":"cebpf4jnsgd1na2vs0mg"},{"bike_id":"55ba7493-3586-4587-8478-86b21b18b1f2","system_id":"levelo_inurba_marseille","lat":43.29307,"lon":5.37194,"is_reserved":false,"is_disabled":false,"rental_uris":{"android":"levelo://app?vid=55ba7493-3586-4587-8478-86b21b18b1f2","ios":"levelo://app?vid=55ba7493-3586-4587-8478-86b21b18b1f2"},"vehicle_type_id":"4","last_reported":1748240184,"current_range_meters":19200,"station_id":"ce4bgh92rcd13ifvqb40","pricing_plan_id":"cebpf4jnsgd1na2vs0mg"},{"bike_id":"f17dae75-c78e-4a5b-9321-e184c854606d","system_id":"levelo_inurba_marseille","lat":43.31997,"lon":5.41516,"is_reserved":false,"is_disabled":false,"rental_uris":{"android":"levelo://app?vid=f17dae75-c78e-4a5b-9321-e184c854606d","ios":"levelo://app?vid=f17dae75-c78e-4a5b-9321-e184c854606d"},"vehicle_type_id":"4","last_reported":1748240184,"current_range_meters":19200,"station_id":"ce4bhq92rcd13ifvqhkg","pricing_plan_id":"cebpf4jnsgd1na2vs0mg"},{"bike_id":"d8006cfd-7ef4-45e2-93b9-51b28fa50a01","system_id":"levelo_inurba_marseille","lat":43.28155,"lon":5.42642,"is_reserved":false,"is_disabled":false,"rental_uris":{"android":"levelo://app?vid=d8006cfd-7ef4-45e2-93b9-51b28fa50a01","ios":"levelo://app?vid=d8006cfd-7ef4-45e2-93b9-51b28fa50a01"},"vehicle_type_id":"4","last_reported":1748240184,"current_range_meters":19200,"station_id":"ce4bhnh2rcd13ifvqgug","pricing_plan_id":"cebpf4jnsgd1na2vs0mg"},{"bike_id":"eca9cbff-621b-43f0-9dfd-12c5a0e154c7","system_id":"levelo_inurba_marseille","lat":43.289343,"lon":5.36634,"is_reserved":false,"is_disabled":false,"rental_uris":{"android":"levelo://app?vid=eca9cbff-621b-43f0-9dfd-12c5a0e154c7","ios":"levelo://app?vid=eca9cbff-621b-43f0-9dfd-12c5a0e154c7"},"vehicle_type_id":"4","last_reported":1748240184,"current_range_meters":19200,"station_id":"ce4bhap2rcd13ifvqek0","pricing_plan_id":"cebpf4jnsgd1na2vs0mg"},{"bike_id":"2296b000-9418-4e25-b3a0-ff6599969b36","system_id":"levelo_inurba_marseille","lat":43.28824,"lon":5.35247,"is_reserved":false,"is_disabled":false,"rental_uris":{"android":"levelo://app?vid=2296b000-9418-4e25-b3a0-ff6599969b36","ios":"levelo://app?vid=2296b000-9418-4e25-b3a0-ff6599969b36"},"vehicle_type_id":"4","last_reported":1748240184,"current_range_meters":19600,"station_id":"","pricing_plan_id":"cebpf4jnsgd1na2vs0mg"},{"bike_id":"44eca9e0-8e24-4304-9d4d-a070fbf6a159","system_id":"levelo_inurba_marseille","lat":43.217425,"lon":5.346109,"is_reserved":false,"is_disabled":true,"rental_uris":{"android":"levelo://app?vid=44eca9e0-8e24-4304-9d4d-a070fbf6a159","ios":"levelo://app?vid=44eca9e0-8e24-4304-9d4d-a070fbf6a159"},"vehicle_type_id":"4","last_reported":1748240184,"current_range_meters":19600,"station_id":"st_cvj6r9ubvosntc0bgbag","pricing_plan_id":"cebpf4jnsgd1na2vs0mg"},{"bike_id":"acb8df19-93de-4272-8ba6-362b18f0b1a2","system_id":"levelo_inurba_marseille","lat":43.26568,"lon":5.39007,"is_reserved":false,"is_disabled":false,"rental_uris":{"android":"levelo://app?vid=acb8df19-93de-4272-8ba6-362b18f0b1a2","ios":"levelo://app?vid=acb8df19-93de-4272-8ba6-362b18f0b1a2"},"vehicle_type_id":"4","last_reported":1748240184,"current_range_meters":19600,"station_id":"ce4bhe12rcd13ifvqf30","pricing_plan_id":"cebpf4jnsgd1na2vs0mg"},