{"last_updated":1707376072,"ttl":30,"version":"2.2","data":{"bikes":[{"bike_id":"606c53e8-7189-4696-97f4-73f7a141e00a","system_id":"levelo_inurba_marseille","lat":43.313391,"lon":5.36706,"is_reserved":false,"is_disabled":false,"rental_uris":{"android":"levelo://app?vid=606c53e8-7189-4696-97f4-73f7a141e00a","ios":"levelo://app?vid=606c53e8-7189-4696-97f4-73f7a141e00a"},"vehicle_type_id":"4","last_reported":1707376072,"current_range_meters":21200,"station_id":"ce4bgr92rcd13ifvqc6g","pricing_plan_id":"free"},{"bike_id":"1ccab257-1e4b-4cfc-bbc2-37cf896bcef4","system_id":"levelo_inurba_marseille","lat":43.312239,"lon":5.368562,"is_reserved":false,"is_disabled":false,"rental_uris":{"android":"levelo://app?vid=1ccab257-1e4b-4cfc-bbc2-37cf896bcef4","ios":"levelo://app?vid=1ccab257-1e4b-4cfc-bbc2-37cf896bcef4"},"vehicle_type_id":"4","last_reported":1707376072,"current_range_meters":27600,"station_id":"ce4bgl92rcd13ifvqbq0","pricing_plan_id":"free"},{"bike_id":"629f2941-cf0f-4e8e-b1c5-0c230a9f7969","system_id":"levelo_inurba_marseille","lat":43.312239,"lon":5.368562,"is_reserved":false,"is_disabled":false,"rental_uris":{"android":"levelo://app?vid=629f2941-cf0f-4e8e-b1c5-0c230a9f7969","ios":"levelo://app?vid=629f2941-cf0f-4e8e-b1c5-0c230a9f7969"},"vehicle_type_id":"4","last_reported":1707376072,"current_range_meters":24400,"station_id":"ce4bgl92rcd13ifvqbq0","pricing_plan_id":"free"},{"bike_id":"415a737b-5197-4a42-9762-82ff2a403e22","system_id":"levelo_inurba_marseille","lat":43.312239,"lon":5.368562,"is_reserved":false,"is_disabled":false,"rental_uris":{"android":"levelo://app?vid=415a737b-5197-4a42-9762-82ff2a403e22","ios":"levelo://app?vid=415a737b-5197-4a42-9762-82ff2a403e22"},"vehicle_type_id":"4","last_reported":1707376072,"current_range_meters":26800,"station_id":"ce4bgl92rcd13ifvqbq0","pricing_plan_id":"free"},{"bike_id":"b3858e71-55c2-48cd-b492-e8931f0ca1a2","system_id":"levelo_inurba_marseille","lat":43.31236,"lon":5.36885,"is_reserved":false,"is_disabled":false,"rental_uris":{"android":"levelo://app?vid=b3858e71-55c2-48cd-b492-e8931f0ca1a2","ios":"levelo://app?vid=b3858e71-55c2-48cd-b492-e8931f0ca1a2"},"vehicle_type_id":"4","last_reported":1707376072,"current_range_meters":28800,"station_id":"ce4bgl92rcd13ifvqbq0","pricing_plan_id":"free"},{"bike_id":"15bfa2e3-7f48-4a0c-9039-96f71b72d4f4","system_id":"levelo_inurba_marseille","lat":43.309076,"lon":5.368465,"is_reserved":false,"is_disabled":false,"rental_uris":{"android":"levelo://app?vid=15bfa2e3-7f48-4a0c-9039-96f71b72d4f4","ios":"levelo://app?vid=15bfa2e3-7f48-4a0c-9039-96f71b72d4f4"},"vehicle_type_id":"4","last_reported":1707376072,"current_range_meters":25600,"station_id":"ce4bgn92rcd13ifvqbvg","pricing_plan_id":"free"},{"bike_id":"4343e8ef-fc98-4d0b-8dd4-973ad20d95d7","system_id":"levelo_inurba_marseille","lat":43.309076,"lon":5.368465,"is_reserved":false,"is_disabled":false,"rental_uris":{"android":"levelo://app?vid=4343e8ef-fc98-4d0b-8dd4-973ad20d95d7","ios":"levelo://app?vid=4343e8ef-fc98-4d0b-8dd4-973ad20d95d7"},"vehicle_type_id":"4","last_reported":1707376072,"current_range_meters":4400,"station_id":"ce4bgn92rcd13ifvqbvg","pricing_plan_id":"free"},{"bike_id":"6329d9c0-2534-4c01-ade0-263aa00a537a","system_id":"levelo_inurba_marseille","lat":43.314811,"lon":5.373103,"is_reserved":false,"is_disabled":false,"rental_uris":{"android":"levelo://app?vid=6329d9c0-2534-4c01-ade0-263aa00a537a","ios":"levelo://app?vid=6329d9c0-2534-4c01-ade0-263aa00a537a"},"vehicle_type_id":"4","last_reported":1707376072,"current_range_meters":3200,"station_id":"ce4bgt12rcd13ifvqcd0","pricing_plan_id":"free"},{"bike_id":"64b46dcb-8445-4cfd-b65b-91cddaace2c4","system_id":"levelo_inurba_marseille","lat":43.314811,"lon":5.373103,"is_reserved":false,"is_disabled":false,"rental_uris":{"android":"levelo://app?vid=64b46dcb-8445-4cfd-b65b-91cddaace2c4","ios":"levelo://app?vid=64b46dcb-8445-4cfd-b65b-91cddaace2c4"},"vehicle_type_id":"4","last_reported":1707376072,"current_range_meters":31600,"station_id":"ce4bgt12rcd13ifvqcd0","pricing_plan_id":"free"},{"bike_id":"d3638b0b-57c2-4fc2-8c72-f9bdca0ab8a9","system_id":"levelo_inurba_marseille","lat":43.314811,"lon":5.373103,"is_reserved":false,"is_disabled":false,"rental_uris":{"android":"levelo://app?vid=d3638b0b-57c2-4fc2-8c72-f9bdca0ab8a9","ios":"levelo://app?vid=d3638b0b-57c2-4fc2-8c72-f9bdca0ab8a9"},"vehicle_type_id":"4","last_reported":1707376072,"current_range_meters":11200,"station_id":"ce4bgt12rcd13ifvqcd0","pricing_plan_id":"free"},{"bike_id":"93b291b2-b511-4941-9916-fd15f766551b","system_id":"levelo_inurba_marseille","lat":43.314811,"lon":5.373103,"is_reserved":false,"is_disabled":false,"rental_uris":{"android":"levelo://app?vid=93b291b2-b511-4941-9916-fd15f766551b","ios":"levelo://app?vid=93b291b2-b511-4941-9916-fd15f766551b"},"vehicle_type_id":"4","last_reported":1707376072,"current_range_meters":31200,"station_id":"ce4bgt12rcd13ifvqcd0","pricing_plan_id":"free"},{"bike_id":"a080f8cb-ee74-4adb-98f5-74d2eec6f88c","system_id":"levelo_inurba_marseille","lat":43.314811,"lon":5.373103,"is_reserved":false,"is_disabled":false,"rental_uris":{"android":"levelo://app?vid=a080f8cb-ee74-4adb-98f5-74d2eec6f88c","ios":"levelo://app?vid=a080f8cb-ee74-4adb-98f5-74d2eec6f88c"},"vehicle_type_id":"4","last_reported":1707376072,"current_range_meters":20800,"station_id":"ce4bgt12rcd13ifvqcd0","pricing_plan_id":"free"},{"bike_id":"1bb67238-2d7b-4ef2-87e7-9d4c203bbb8a","system_id":"levelo_inurba_marseille","lat":43.314811,"lon":5.373104,"is_reserved":false,"is_disabled":false,"rental_uris":{"android":"levelo://app?vid=1bb67238-2d7b-4ef2-87e7-9d4c203bbb8a","ios":"levelo://app?vid=1bb67238-2d7b-4ef2-87e7-9d4c203bbb8a"},"vehicle_type_id":"4","last_reported":1707376072,"current_range_meters":23600,"station_id":"ce4bgt12rcd13ifvqcd0","pricing_plan_id":"free"},{"bike_id":"a8b10323-9f64-4e96-9ba6-7bbcb9804565","system_id":"levelo_inurba_marseille","lat":43.309039,"lon":5.371797,"is_reserved":false,"is_disabled":false,"rental_uris":{"android":"levelo://app?vid=a8b10323-9f64-4e96-9ba6-7bbcb9804565","ios":"levelo://app?vid=a8b10323-9f64-4e96-9ba6-7bbcb9804565"},"vehicle_type_id":"4","last_reported":1707376072,"current_range_meters":21200,"station_id":"ce4bguh2rcd13ifvqckg","pricing_plan_id":"free"},{"bike_id":"5b7b444a-9991-4ed7-8c6e-b568e00b5de8","system_id":"levelo_inurba_marseille","lat":43.309039,"lon":5.371797,"is_reserved":false,"is_disabled":false,"rental_uris":{"android":"levelo://app?vid=5b7b444a-9991-4ed7-8c6e-b568e00b5de8","ios":"levelo://app?vid=5b7b444a-9991-4ed7-8c6e-b568e00b5de8"},"vehicle_type_id":"4","last_reported":1707376072,"current_range_meters":16000,"station_id":"ce4bguh2rcd13ifvqckg","pricing_plan_id":"free"},{"bike_id":"aa7b8b63-4385-4b0e-bbe7-3cf978a702ab","system_id":"levelo_inurba_marseille","lat":43.309039,"lon":5.371797,"is_reserved":false,"is_disabled":false,"rental_uris":{"android":"levelo://app?vid=aa7b8b63-4385-4b0e-bbe7-3cf978a702ab","ios":"levelo://app?vid=aa7b8b63-4385-4b0e-bbe7-3cf978a702ab"},"vehicle_type_id":"4","last_reported":1707376072,"current_range_meters":5600,"station_id":"ce4bguh2rcd13ifvqckg","pricing_plan_id":"free"},{"bike_id":"191c6d4d-0572-4f08-a13f-58d20c0a2393","system_id":"levelo_inurba_marseille","lat":43.305714,"lon":5.365633,"is_reserved":false,"is_disabled":false,"rental_uris":{"android":"levelo://app?vid=191c6d4d-0572-4f08-a13f-58d20c0a2393","ios":"levelo://app?vid=191c6d4d-0572-4f08-a13f-58d20c0a2393"},"vehicle_type_id":"4","last_reported":1707376072,"current_range_meters":26800,"station_id":"ce4bgs12rcd13ifvqcag","pricing_plan_id":"free"},{"bike_id":"dd50e3c5-1d86-4b6b-b83c-7e24098c4b7e","system_id":"levelo_inurba_marseille","lat":43.305714,"lon":5.365633,"is_reserved":false,"is_disabled":false,"rental_uris":{"android":"levelo://app?vid=dd50e3c5-1d86-4b6b-b83c-7e24098c4b7e","ios":"levelo://app?vid=dd50e3c5-1d86-4b6b-b83c-7e24098c4b7e"},"vehicle_type_id":"4","last_reported":1707376072,"current_range_meters":7200,"station_id":"ce4bgs12rcd13ifvqcag","pricing_plan_id":"free"},{"bike_id":"e78c7b3a-0cf9-4201-8c1e-8fcf833f7fa7","system_id":"levelo_inurba_marseille","lat":43.305989,"lon":5.37225,"is_reserved":false,"is_disabled":false,"rental_uris":{"android":"levelo://app?vid=e78c7b3a-0cf9-4201-8c1e-8fcf833f7fa7","ios":"levelo://app?vid=e78c7b3a-0cf9-4201-8c1e-8fcf833f7fa7"},"vehicle_type_id":"4","last_reported":1707376072,"current_range_meters":29600,"station_id":"ce4bgqh2rcd13ifvqc4g","pricing_plan_id":"free"},{"bike_id":"220af37b-b80f-422a-8c30-05f265714174","system_id":"levelo_inurba_marseille","lat":43.305989,"lon":5.37225,"is_reserved":false,"is_disabled":false,"rental_uris":{"android":"levelo://app?vid=220af37b-b80f-422a-8c30-05f265714174","ios":"levelo://app?vid=220af37b-b80f-422a-8c30-05f265714174"},"vehicle_type_id":"4","last_reported":1707376072,"current_range_meters":26800,"station_id":"ce4bgqh2rcd13ifvqc4g","pricing_plan_id":"free"},{"bike_id":"488fa1ea-5e75-440c-bb66-9486fba077df","system_id":"levelo_inurba_marseille","lat":43.311152,"lon":5.377577,"is_reserved":false,"is_disabled":false,"rental_uris":{"android":"levelo://app?vid=488fa1ea-5e75-440c-bb66-9486fba077df","ios":"levelo://app?vid=488fa1ea-5e75-440c-bb66-9486fba077df"},"vehicle_type_id":"4","last_reported":1707376072,"current_range_meters":26400,"station_id":"ce4bgt92rcd13ifvqcg0","pricing_plan_id":"free"},{"bike_id":"5ef1d511-7c73-4a12-8a9b-f98d5b228b5f","system_id":"levelo_inurba_marseille","lat":43.311232,"lon":5.377601,"is_reserved":false,"is_disabled":false,"rental_uris":{"android":"levelo://app?vid=5ef1d511-7c73-4a12-8a9b-f98d5b228b5f","ios":"levelo://app?vid=5ef1d511-7c73-4a12-8a9b-f98d5b228b5f"},"vehicle_type_id":"4","last_reported":1707376072,"current_range_meters":22400,"station_id":"ce4bgt92rcd13ifvqcg0","pricing_plan_id":"free"},{"bike_id":"81979041-c2ef-4c72-a037-5fa94cb70df0","system_id":"levelo_inurba_marseille","lat":43.311131,"lon":5.377651,"is_reserved":false,"is_disabled":false,"rental_uris":{"android":"levelo://app?vid=81979041-c2ef-4c72-a037-5fa94cb70df0","ios":"levelo://app?vid=81979041-c2ef-4c72-a037-5fa94cb70df0"},"vehicle_type_id":"4","last_reported":1707376072,"current_range_meters":27200,"station_id":"ce4bgt92rcd13ifvqcg0","pricing_plan_id":"free"},{"bike_id":"92f15798-2644-4a1c-a732-ddaafe927e2f","system_id":"levelo_inurba_marseille","lat":43.311125,"lon":5.377624,"is_reserved":false,"is_disabled":false,"rental_uris":{"android":"levelo://app?vid=92f15798-2644-4a1c-a732-ddaafe927e2f","ios":"levelo://app?vid=92f15798-2644-4a1c-a732-ddaafe927e2f"},"vehicle_type_id":"4","last_reported":1707376072,"current_range_meters":30800,"station_id":"ce4bgt92rcd13ifvqcg0","pricing_plan_id":"free"},{"bike_id":"26f727fb-8aae-447b-8089-322bd437378f","system_id":"levelo_inurba_marseille","lat":43.31124,"lon":5.37769,"is_reserved":false,"is_disabled":false,"rental_uris":{"android":"levelo://app?vid=26f727fb-8aae-447b-8089-322bd437378f","ios":"levelo://app?vid=26f727fb-8aae-447b-8089-322bd437378f"},"vehicle_type_id":"4","last_reported":1707376072,"current_range_meters":16400,"station_id":"ce4bgt92rcd13ifvqcg0","pricing_plan_id":"free"},{"bike_id":"0ac9af8d-d5d4-4061-adc4-a9ada27760d4","system_id":"levelo_inurba_marseille","lat":43.311131,"lon":5.377651,"is_reserved":false,"is_disabled":false,"rental_uris":{"android":"levelo://app?vid=0ac9af8d-d5d4-4061-adc4-a9ada27760d4","ios":"levelo://app?vid=0ac9af8d-d5d4-4061-adc4-a9ada27760d4"},"vehicle_type_id":"4","last_reported":1707376072,"current_range_meters":17600,"station_id":"ce4bgt92rcd13ifvqcg0","pricing_plan_id":"free"},{"bike_id":"fd746d96-02d4-4723-8afb-33bda9dd5d78","system_id":"levelo_inurba_marseille","lat":43.311125,"lon":5.377624,"is_reserved":false,"is_disabled":false,"rental_uris":{"android":"levelo://app?vid=fd746d96-02d4-4723-8afb-33bda9dd5d78","ios":"levelo://app?vid=fd746d96-02d4-4723-8afb-33bda9dd5d78"},"vehicle_type_id":"4","last_reported":1707376072,"current_range_meters":30000,"station_id":"ce4bgt92rcd13ifvqcg0","pricing_plan_id":"free"},{"bike_id":"fbbb94ff-c155-431e-829e-8d9b67104fa9","system_id":"levelo_inurba_marseille","lat":43.311125,"lon":5.377624,"is_reserved":false,"is_disabled":false,"rental_uris":{"android":"levelo://app?vid=fbbb94ff-c155-431e-829e-8d9b67104fa9","ios":"levelo://app?vid=fbbb94ff-c155-431e-829e-8d9b67104fa9"},"vehicle_type_id":"4","last_reported":1707376072,"current_range_meters":27200,"station_id":"ce4bgt92rcd13ifvqcg0","pricing_plan_id":"free"},{"bike_id":"9c962f83-0df9-4127-a33f-e7ab72674999","system_id":"levelo_inurba_marseille","lat":43.311125,"lon":5.377624,"is_reserved":false,"is_disabled":false,"rental_uris":{"android":"levelo://app?vid=9c962f83-0df9-4127-a33f-e7ab72674999","ios":"levelo://app?vid=9c962f83-0df9-4127-a33f-e7ab72674999"},"vehicle_type_id":"4","last_reported":1707376072,"current_range_meters":32000,"station_id":"ce4bgt92rcd13ifvqcg0","pricing_plan_id":"free"},{"bike_id":"9937762b-8eb6-4ef5-87da-c9896b2af489","system_id":"levelo_inurba_marseille","lat":43.307945,"lon":5.376487,"is_reserved":false,"is_disabled":false,"rental_uris":{"android":"levelo://app?vid=9937762b-8eb6-4ef5-87da-c9896b2af489","ios":"levelo://app?vid=9937762b-8eb6-4ef5-87da-c9896b2af489"},"vehicle_type_id":"4","last_reported":1707376072,"current_range_meters":4800,"station_id":"ce4bgv92rcd13ifvqcq0","pricing_plan_id":"free"},{"bike_id":"fd3a0f6b-970a-4543-b6f6-e7b635128345","system_id":"levelo_inurba_marseille","lat":43.307945,"lon":5.376487,"is_reserved":false,"is_disabled":false,"rental_uris":{"android":"levelo://app?vid=fd3a0f6b-970a-4543-b6f6-e7b635128345","ios":"levelo://app?vid=fd3a0f6b-970a-4543-b6f6-e7b635128345"},"vehicle_type_id":"4","last_reported":1707376072,"current_range_meters":0,"station_id":"ce4bgv92rcd13ifvqcq0","pricing_plan_id":"free"},{"bike_id":"f0b73710-61ad-49ff-954a-f1ca710e2d23","system_id":"levelo_inurba_marseille","lat":43.307784,"lon":5.376485,"is_reserved":false,"is_disabled":false,"rental_uris":{"android":"levelo://app?vid=f0b73710-61ad-49ff-954a-f1ca710e2d23","ios":"levelo://app?vid=f0b73710-61ad-49ff-954a-f1ca710e2d23"},"vehicle_type_id":"4","last_reported":1707376072,"current_range_meters":26800,"station_id":"","pricing_plan_id":"free"},{"bike_id":"87c72dd8-67bf-44ed-b685-b3826c2cf094","system_id":"levelo_inurba_marseille","lat":43.307945,"lon":5.376487,"is_reserved":false,"is_disabled":false,"rental_uris":{"android":"levelo://app?vid=87c72dd8-67bf-44ed-b685-b3826c2cf094","ios":"levelo://app?vid=87c72dd8-67bf-44ed-b685-b3826c2cf094"},"vehicle_type_id":"4","last_reported":1707376072,"current_range_meters":4000,"station_id":"ce4bgv92rcd13ifvqcq0","pricing_plan_id":"free"},{"bike_id":"b48cd66c-c5f4-46ed-a137-9dcdea512bbf","system_id":"levelo_inurba_marseille","lat":43.307945,"lon":5.376487,"is_reserved":false,"is_disabled":false,"rental_uris":{"android":"levelo://app?vid=b48cd66c-c5f4-46ed-a137-9dcdea512bbf","ios":"levelo://app?vid=b48cd66c-c5f4-46ed-a137-9dcdea512bbf"},"vehicle_type_id":"4","last_reported":1707376072,"current_range_meters":25600,"station_id":"ce4bgv92rcd13ifvqcq0","pricing_plan_id":"free"},{"bike_id":"a81193de-32f3-4a33-b708-cf1afb14cbfb","system_id":"levelo_inurba_marseille","lat":43.307945,"lon":5.376487,"is_reserved":false,"is_disabled":false,"rental_uris":{"android":"levelo://app?vid=a81193de-32f3-4a33-b708-cf1afb14cbfb","ios":"levelo://app?vid=a81193de-32f3-4a33-b708-cf1afb14cbfb"},"vehicle_type_id":"4","last_reported":1707376072,"current_range_meters":32000,"station_id":"ce4bgv92rcd13ifvqcq0","pricing_plan_id":"free"},{"bike_id":"2115dd1f-7cd9-4253-b0f3-d001e9751255","system_id":"levelo_inurba_marseille","lat":43.307945,"lon":5.376487,"is_reserved":false,"is_disabled":false,"rental_uris":{"android":"levelo://app?vid=2115dd1f-7cd9-4253-b0f3-d001e9751255","ios":"levelo://app?vid=2115dd1f-7cd9-4253-b0f3-d001e9751255"},"vehicle_type_id":"4","last_reported":1707376072,"current_range_meters":24400,"station_id":"ce4bgv92rcd13ifvqcq0","pricing_plan_id":"free"},{"bike_id":"b0f54b1a-8d6b-4a5a-a981-fb3003f4233b","system_id":"levelo_inurba_marseille","lat":43.303046,"lon":5.368981,"is_reserved":false,"is_disabled":false,"rental_uris":{"android":"levelo://app?vid=b0f54b1a-8d6b-4a5a-a981-fb3003f4233b","ios":"levelo://app?vid=b0f54b1a-8d6b-4a5a-a981-fb3003f4233b"},"vehicle_type_id":"4","last_reported":1707376072,"current_range_meters":31200,"station_id":"ce4bgqh2rcd13ifvqc5g","pricing_plan_id":"free"},{"bike_id":"dca02982-a8ca-4f8f-99aa-c4c50c3dc6cf","system_id":"levelo_inurba_marseille","lat":43.32225,"lon":5.37024,"is_reserved":false,"is_disabled":false,"rental_uris":{"android":"levelo://app?vid=dca02982-a8ca-4f8f-99aa-c4c50c3dc6cf","ios":"levelo://app?vid=dca02982-a8ca-4f8f-99aa-c4c50c3dc6cf"},"vehicle_type_id":"4","last_reported":1707376072,"current_range_meters":29200,"station_id":"","pricing_plan_id":"free"},{"bike_id":"4f83c7fc-28e6-4670-9b61-a28f7cb5d420","system_id":"levelo_inurba_marseille","lat":43.303046,"lon":5.368981,"is_reserved":false,"is_disabled":false,"rental_uris":{"android":"levelo://app?vid=4f83c7fc-28e6-4670-9b61-a28f7cb5d420","ios":"levelo://app?vid=4f83c7fc-28e6-4670-9b61-a28f7cb5d420"},"vehicle_type_id":"4","last_reported":1707376072,"current_range_meters":30000,"station_id":"ce4bgqh2rcd13ifvqc5g","pricing_plan_id":"free"},{"bike_id":"2e2ec72b-63cc-43b7-9bb8-8839d1bd2f03","system_id":"levelo_inurba_marseille","lat":43.301939,"lon":5.366286,"is_reserved":false,"is_disabled":false,"rental_uris":{"android":"levelo://app?vid=2e2ec72b-63cc-43b7-9bb8-8839d1bd2f03","ios":"levelo://app?vid=2e2ec72b-63cc-43b7-9bb8-8839d1bd2f03"},"vehicle_type_id":"4","last_reported":1707376072,"current_range_meters":28400,"station_id":"ce4bgrh2rcd13ifvqc8g","pricing_plan_id":"free"},{"bike_id":"47d3762e-628a-404a-a766-990451430dea","system_id":"levelo_inurba_marseille","lat":43.301939,"lon":5.366286,"is_reserved":false,"is_disabled":false,"rental_uris":{"android":"levelo://app?vid=47d3762e-628a-404a-a766-990451430dea","ios":"levelo://app?vid=47d3762e-628a-404a-a766-990451430dea"},"vehicle_type_id":"4","last_reported":1707376072,"current_range_meters":10000,"station_id":"ce4bgrh2rcd13ifvqc8g","pricing_plan_id":"free"},{"bike_id":"d567fd1d-193d-4caa-b53e-317014ec5a0d","system_id":"levelo_inurba_marseille","lat":43.301939,"lon":5.366286,"is_reserved":false,"is_disabled":false,"rental_uris":{"android":"levelo://app?vid=d567fd1d-193d-4caa-b53e-317014ec5a0d","ios":"levelo://app?vid=d567fd1d-193d-4caa-b53e-317014ec5a0d"},"vehicle_type_id":"4","last_reported":1707376072,"current_range_meters":28800,"station_id":"ce4bgrh2rcd13ifvqc8g","pricing_plan_id":"free"},{"bike_id":"453b1dc8-0f96-4a1a-bc91-8e4e055a92b9","system_id":"levelo_inurba_marseille","lat":43.30791,"lon":5.38157,"is_reserved":false,"is_disabled":false,"rental_uris":{"android":"levelo://app?vid=453b1dc8-0f96-4a1a-bc91-8e4e055a92b9","ios":"levelo://app?vid=453b1dc8-0f96-4a1a-bc91-8e4e055a92b9"},"vehicle_type_id":"4","last_reported":1707376072,"current_range_meters":0,"station_id":"ce4bgt12rcd13ifvqce0","pricing_plan_id":"free"},{"bike_id":"d9c1cb6b-cd4f-46c7-81f1-0aca74fa24d7","system_id":"levelo_inurba_marseille","lat":43.304606,"lon":5.379026,"is_reserved":false,"is_disabled":false,"rental_uris":{"android":"levelo://app?vid=d9c1cb6b-cd4f-46c7-81f1-0aca74fa24d7","ios":"levelo://app?vid=d9c1cb6b-cd4f-46c7-81f1-0aca74fa24d7"},"vehicle_type_id":"4","last_reported":1707376072,"current_range_meters":27200,"station_id":"ce4bgup2rcd13ifvqcn0","pricing_plan_id":"free"},{"bike_id":"cefbd606-5392-414d-aa23-998301cb402d","system_id":"levelo_inurba_marseille","lat":43.304606,"lon":5.379026,"is_reserved":false,"is_disabled":false,"rental_uris":{"android":"levelo://app?vid=cefbd606-5392-414d-aa23-998301cb402d","ios":"levelo://app?vid=cefbd606-5392-414d-aa23-998301cb402d"},"vehicle_type_id":"4","last_reported":1707376072,"current_range_meters":22000,"station_id":"ce4bgup2rcd13ifvqcn0","pricing_plan_id":"free"},{"bike_id":"ddf2fbdd-3b6f-4fb9-ba6b-3f636409bd04","system_id":"levelo_inurba_marseille","lat":43.304606,"lon":5.379026,"is_reserved":false,"is_disabled":false,"rental_uris":{"android":"levelo://app?vid=ddf2fbdd-3b6f-4fb9-ba6b-3f636409bd04","ios":"levelo://app?vid=ddf2fbdd-3b6f-4fb9-ba6b-3f636409bd04"},"vehicle_type_id":"4","last_reported":1707376072,"current_range_meters":2000,"station_id":"ce4bgup2rcd13ifvqcn0","pricing_plan_id":"free"},{"bike_id":"8e38650e-6d1e-4e7a-85aa-c30c414c3d09","system_id":"levelo_inurba_marseille","lat":43.304606,"lon":5.379026,"is_reserved":false,"is_disabled":false,"rental_uris":{"android":"levelo://app?vid=8e38650e-6d1e-4e7a-85aa-c30c414c3d09","ios":"levelo://app?vid=8e38650e-6d1e-4e7a-85aa-c30c414c3d09"},"vehicle_type_id":"4","last_reported":1707376072,"current_range_meters":10400,"station_id":"ce4bgup2rcd13ifvqcn0","pricing_plan_id":"free"},{"bike_id":"e23b1893-ee09-43a9-a45f-abffa31e5603","system_id":"levelo_inurba_marseille","lat":43.304606,"lon":5.379026,"is_reserved":false,"is_disabled":false,"rental_uris":{"android":"levelo://app?vid=e23b1893-ee09-43a9-a45f-abffa31e5603","ios":"levelo://app?vid=e23b1893-ee09-43a9-a45f-abffa31e5603"},"vehicle_type_id":"4","last_reported":1707376072,"current_range_meters":27600,"station_id":"ce4bgup2rcd13ifvqcn0","pricing_plan_id":"free"},{"bike_id":"7717f2bd-4159-4d33-b890-1b1501b294ef","system_id":"levelo_inurba_marseille","lat":43.304606,"lon":5.379026,"is_reserved":false,"is_disabled":false,"rental_uris":{"android":"levelo://app?vid=7717f2bd-4159-4d33-b890-1b1501b294ef","ios":"levelo://app?vid=7717f2bd-4159-4d33-b890-1b1501b294ef"},"vehicle_type_id":"4","last_reported":1707376072,"current_range_meters":25600,"station_id":"ce4bgup2rcd13ifvqcn0","pricing_plan_id":"free"},{"bike_id":"2fc73f8b-d9d2-4a2f-b389-e2f644e8d3d1","system_id":"levelo_inurba_marseille","lat":43.304606,"lon":5.379026,"is_reserved":false,"is_disabled":false,"rental_uris":{"android":"levelo://app?vid=2fc73f8b-d9d2-4a2f-b389-e2f644e8d3d1","ios":"levelo://app?vid=2fc73f8b-d9d2-4a2f-b389-e2f644e8d3d1"},"vehicle_type_id":"4","last_reported":1707376072,"current_range_meters":27600,"station_id":"ce4bgup2rcd13ifvqcn0","pricing_plan_id":"free"},{"bike_id":"4281f711-8929-40b8-a296-0bd6970c46da","system_id":"levelo_inurba_marseille","lat":43.304606,"lon":5.379026,"is_reserved":false,"is_disabled":false,"rental_uris":{"android":"levelo://app?vid=4281f711-8929-40b8-a296-0bd6970c46da","ios":"levelo://app?vid=4281f711-8929-40b8-a296-0bd6970c46da"},"vehicle_type_id":"4","last_reported":1707376072,"current_range_meters":11200,"station_id":"ce4bgup2rcd13ifvqcn0","pricing_plan_id":"free"},{"bike_id":"87e563d9-ed76-48f5-b133-5a6fa34d3a3b","system_id":"levelo_inurba_marseille","lat":43.304606,"lon":5.379026,"is_reserved":false,"is_disabled":false,"rental_uris":{"android":"levelo://app?vid=87e563d9-ed76-48f5-b133-5a6fa34d3a3b","ios":"levelo://app?vid=87e563d9-ed76-48f5-b133-5a6fa34d3a3b"},"vehicle_type_id":"4","last_reported":1707376072,"current_range_meters":20400,"station_id":"ce4bgup2rcd13ifvqcn0","pricing_plan_id":"free"},{"bike_id":"2245115e-23fd-40ea-9611-39418068f143","system_id":"levelo_inurba_marseille","lat":43.304606,"lon":5.379026,"is_reserved":false,"is_disabled":false,"rental_uris":{"android":"levelo://app?vid=2245115e-23fd-40ea-9611-39418068f143","ios":"levelo://app?vid=2245115e-23fd-40ea-9611-39418068f143"},"vehicle_type_id":"4","last_reported":1707376072,"current_range_meters":26400,"station_id":"ce4bgup2rcd13ifvqcn0","pricing_plan_id":"free"},{"bike_id":"179f9628-d153-4740-bc8e-73c95b715a05","system_id":"levelo_inurba_marseille","lat":43.304606,"lon":5.379026,"is_reserved":false,"is_disabled":false,"rental_uris":{"android":"levelo://app?vid=179f9628-d153-4740-bc8e-73c95b715a05","ios":"levelo://app?vid=179f9628-d153-4740-bc8e-73c95b715a05"},"vehicle_type_id":"4","last_reported":1707376072,"current_range_meters":28800,"station_id":"ce4bgup2rcd13ifvqcn0","pricing_plan_id":"free"},{"bike_id":"e3ce45c0-ea14-4d09-8203-782c3d5b066f","system_id":"levelo_inurba_marseille","lat":43.304606,"lon":5.379026,"is_reserved":false,"is_disabled":false,"rental_uris":{"android":"levelo://app?vid=e3ce45c0-ea14-4d09-8203-782c3d5b066f","ios":"levelo://app?vid=e3ce45c0-ea14-4d09-8203-782c3d5b066f"},"vehicle_type_id":"4","last_reported":1707376072,"current_range_meters":18800,"station_id":"ce4bgup2rcd13ifvqcn0","pricing_plan_id":"free"},{"bike_id":"f5e266bb-ae3a-4695-9056-80236b4ee0b5","system_id":"levelo_inurba_marseille","lat":43.304606,"lon":5.379026,"is_reserved":false,"is_disabled":false,"rental_uris":{"android":"levelo://app?vid=f5e266bb-ae3a-4695-9056-80236b4ee0b5","ios":"levelo://app?vid=f5e266bb-ae3a-4695-9056-80236b4ee0b5"},"vehicle_type_id":"4","last_reported":1707376072,"current_range_meters":20400,"station_id":"ce4bgup2rcd13ifvqcn0","pricing_plan_id":"free"},{"bike_id":"d3bbaa1c-bd42-4480-83af-1675f959224a","system_id":"levelo_inurba_marseille","lat":43.322688,"lon":5.376072,"is_reserved":false,"is_disabled":false,"rental_uris":{"android":"levelo://app?vid=d3bbaa1c-bd42-4480-83af-1675f959224a","ios":"levelo://app?vid=d3bbaa1c-bd42-4480-83af-1675f959224a"},"vehicle_type_id":"4","last_reported":1707376072,"current_range_meters":11600,"station_id":"","pricing_plan_id":"free"},{"bike_id":"626dfc05-d293-4920-b43f-c3f1fcaa3a56","system_id":"levelo_inurba_marseille","lat":43.304606,"lon":5.379026,"is_reserved":false,"is_disabled":false,"rental_uris":{"android":"levelo://app?vid=626dfc05-d293-4920-b43f-c3f1fcaa3a56","ios":"levelo://app?vid=626dfc05-d293-4920-b43f-c3f1fcaa3a56"},"vehicle_type_id":"4","last_reported":1707376072,"current_range_meters":28400,"station_id":"ce4bgup2rcd13ifvqcn0","pricing_plan_id":"free"},{"bike_id":"d363008c-2da9-454a-82bd-c0c62e3f4d70","system_id":"levelo_inurba_marseille","lat":43.304606,"lon":5.379026,"is_reserved":false,"is_disabled":false,"rental_uris":{"android":"levelo://app?vid=d363008c-2da9-454a-82bd-c0c62e3f4d70","ios":"levelo://app?vid=d363008c-2da9-454a-82bd-c0c62e3f4d70"},"vehicle_type_id":"4","last_reported":1707376072,"current_range_meters":6800,"station_id":"ce4bgup2rcd13ifvqcn0","pricing_plan_id":"free"},{"bike_id":"1bfcfec2-e815-4996-b066-13ba1558616f","system_id":"levelo_inurba_marseille","lat":43.304606,"lon":5.379026,"is_reserved":false,"is_disabled":false,"rental_uris":{"android":"levelo://app?vid=1bfcfec2-e815-4996-b066-13ba1558616f","ios":"levelo://app?vid=1bfcfec2-e815-4996-b066-13ba1558616f"},"vehicle_type_id":"4","last_reported":1707376072,"current_range_meters":30800,"station_id":"ce4bgup2rcd13ifvqcn0","pricing_plan_id":"free"},{"bike_id":"554af180-630a-47b8-8b55-d691438ca012","system_id":"levelo_inurba_marseille","lat":43.304606,"lon":5.379026,"is_reserved":false,"is_disabled":false,"rental_uris":{"android":"levelo://app?vid=554af180-630a-47b8-8b55-d691438ca012","ios":"levelo://app?vid=554af180-630a-47b8-8b55-d691438ca012"},"vehicle_type_id":"4","last_reported":1707376072,"current_range_meters":19600,"station_id":"ce4bgup2rcd13ifvqcn0","pricing_plan_id":"free"},{"bike_id":"98e1ecf9-b24c-42f3-afe9-94ee1c18f257","system_id":"levelo_inurba_marseille","lat":43.304606,"lon":5.379026,"is_reserved":false,"is_disabled":false,"rental_uris":{"android":"levelo://app?vid=98e1ecf9-b24c-42f3-afe9-94ee1c18f257","ios":"levelo://app?vid=98e1ecf9-b24c-42f3-afe9-94ee1c18f257"},"vehicle_type_id":"4","last_reported":1707376072,"current_range_meters":25200,"station_id":"ce4bgup2rcd13ifvqcn0","pricing_plan_id":"free"},{"bike_id":"e1983840-815d-42da-b797-f8205a82a33c","system_id":"levelo_inurba_marseille","lat":43.304606,"lon":5.379026,"is_reserved":false,"is_disabled":false,"rental_uris":{"android":"levelo://app?vid=e1983840-815d-42da-b797-f8205a82a33c","ios":"levelo://app?vid=e1983840-815d-42da-b797-f8205a82a33c"},"vehicle_type_id":"4","last_reported":1707376072,"current_range_meters":24400,"station_id":"ce4bgup2rcd13ifvqcn0","pricing_plan_id":"free"},{"bike_id":"3b641d85-7b96-41d1-ad89-bc997168c3cb","system_id":"levelo_inurba_marseille","lat":43.304606,"lon":5.379026,"is_reserved":false,"is_disabled":false,"rental_uris":{"android":"levelo://app?vid=3b641d85-7b96-41d1-ad89-bc997168c3cb","ios":"levelo://app?vid=3b641d85-7b96-41d1-ad89-bc997168c3cb"},"vehicle_type_id":"4","last_reported":1707376072,"current_range_meters":26800,"station_id":"ce4bgup2rcd13ifvqcn0","pricing_plan_id":"free"},{"bike_id":"7b75260a-25bd-4e3a-b1fc-99d60244850f","system_id":"levelo_inurba_marseille","lat":43.304606,"lon":5.379026,"is_reserved":false,"is_disabled":false,"rental_uris":{"android":"levelo://app?vid=7b75260a-25bd-4e3a-b1fc-99d60244850f","ios":"levelo://app?vid=7b75260a-25bd-4e3a-b1fc-99d60244850f"},"vehicle_type_id":"4","last_reported":1707376072,"current_range_meters":20800,"station_id":"ce4bgup2rcd13ifvqcn0","pricing_plan_id":"free"},{"bike_id":"9ca839c3-2ab8-4d31-99ab-dc8c34ebfc7a","system_id":"levelo_inurba_marseille","lat":43.304683,"lon":5.379123,"is_reserved":false,"is_disabled":false,"rental_uris":{"android":"levelo://app?vid=9ca839c3-2ab8-4d31-99ab-dc8c34ebfc7a","ios":"levelo://app?vid=9ca839c3-2ab8-4d31-99ab-dc8c34ebfc7a"},"vehicle_type_id":"4","last_reported":1707376072,"current_range_meters":24400,"station_id":"","pricing_plan_id":"free"},{"bike_id":"ebaf1725-ea72-4a14-a43c-f25f675b3258","system_id":"levelo_inurba_marseille","lat":43.304606,"lon":5.379026,"is_reserved":false,"is_disabled":false,"rental_uris":{"android":"levelo://app?vid=ebaf1725-ea72-4a14-a43c-f25f675b3258","ios":"levelo://app?vid=ebaf1725-ea72-4a14-a43c-f25f675b3258"},"vehicle_type_id":"4","last_reported":1707376072,"current_range_meters":11600,"station_id":"ce4bgup2rcd13ifvqcn0","pricing_plan_id":"free"},{"bike_id":"7569f4c4-2d60-4619-8f62-8551b1714a40","system_id":"levelo_inurba_marseille","lat":43.304606,"lon":5.379026,"is_reserved":false,"is_disabled":false,"rental_uris":{"android":"levelo://app?vid=7569f4c4-2d60-4619-8f62-8551b1714a40","ios":"levelo://app?vid=7569f4c4-2d60-4619-8f62-8551b1714a40"},"vehicle_type_id":"4","last_reported":1707376072,"current_range_meters":31600,"station_id":"ce4bgup2rcd13ifvqcn0","pricing_plan_id":"free"},{"bike_id":"d361b408-8427-4b6a-9568-9e34d15115fb","system_id":"levelo_inurba_marseille","lat":43.304606,"lon":5.379026,"is_reserved":false,"is_disabled":false,"rental_uris":{"android":"levelo://app?vid=d361b408-8427-4b6a-9568-9e34d15115fb","ios":"levelo://app?vid=d361b408-8427-4b6a-9568-9e34d15115fb"},"vehicle_type_id":"4","last_reported":1707376072,"current_range_meters":27200,"station_id":"ce4bgup2rcd13ifvqcn0","pricing_plan_id":"free"},{"bike_id":"dae41490-aab3-485a-9ad0-1a96e77d37d7","system_id":"levelo_inurba_marseille","lat":43.304606,"lon":5.379026,"is_reserved":false,"is_disabled":false,"rental_uris":{"android":"levelo://app?vid=dae41490-aab3-485a-9ad0-1a96e77d37d7","ios":"levelo://app?vid=dae41490-aab3-485a-9ad0-1a96e77d37d7"},"vehicle_type_id":"4","last_reported":1707376072,"current_range_meters":26400,"station_id":"ce4bgup2rcd13ifvqcn0","pricing_plan_id":"free"},{"bike_id":"5294c374-b851-4852-bafe-b9c7538458d8","system_id":"levelo_inurba_marseille","lat":43.304606,"lon":5.379026,"is_reserved":false,"is_disabled":false,"rental_uris":{"android":"levelo://app?vid=5294c374-b851-4852-bafe-b9c7538458d8","ios":"levelo://app?vid=5294c374-b851-4852-bafe-b9c7538458d8"},"vehicle_type_id":"4","last_reported":1707376072,"current_range_meters":26800,"station_id":"ce4bgup2rcd13ifvqcn0","pricing_plan_id":"free"},{"bike_id":"1211b8ad-c4e7-4b83-b07b-5675e77be47f","system_id":"levelo_inurba_marseille","lat":43.304606,"lon":5.379026,"is_reserved":false,"is_disabled":false,"rental_uris":{"android":"levelo://app?vid=1211b8ad-c4e7-4b83-b07b-5675e77be47f","ios":"levelo://app?vid=1211b8ad-c4e7-4b83-b07b-5675e77be47f"},"vehicle_type_id":"4","last_reported":1707376072,"current_range_meters":24400,"station_id":"ce4bgup2rcd13ifvqcn0","pricing_plan_id":"free"},{"bike_id":"88f7ef2e-9840-41f8-b193-671b9c463e72","system_id":"levelo_inurba_marseille","lat":43.304606,"lon":5.379026,"is_reserved":false,"is_disabled":false,"rental_uris":{"android":"levelo://app?vid=88f7ef2e-9840-41f8-b193-671b9c463e72","ios":"levelo://app?vid=88f7ef2e-9840-41f8-b193-671b9c463e72"},"vehicle_type_id":"4","last_reported":1707376072,"current_range_meters":26400,"station_id":"ce4bgup2rcd13ifvqcn0","pricing_plan_id":"free"},{"bike_id":"2393d986-20d0-44f6-b104-77b9c795e77d","system_id":"levelo_inurba_marseille","lat":43.304606,"lon":5.379026,"is_reserved":false,"is_disabled":false,"rental_uris":{"android":"levelo://app?vid=2393d986-20d0-44f6-b104-77b9c795e77d","ios":"levelo://app?vid=2393d986-20d0-44f6-b104-77b9c795e77d"},"vehicle_type_id":"4","last_reported":1707376072,"current_range_meters":27600,"station_id":"ce4bgup2rcd13ifvqcn0","pricing_plan_id":"free"},{"bike_id":"6ace32e8-e9c5-4038-928f-6da8c7652570","system_id":"levelo_inurba_marseille","lat":43.304606,"lon":5.379026,"is_reserved":false,"is_disabled":false,"rental_uris":{"android":"levelo://app?vid=6ace32e8-e9c5-4038-928f-6da8c7652570","ios":"levelo://app?vid=6ace32e8-e9c5-4038-928f-6da8c7652570"},"vehicle_type_id":"4","last_reported":1707376072,"current_range_meters":22400,"station_id":"ce4bgup2rcd13ifvqcn0","pricing_plan_id":"free"},{"bike_id":"c0376c11-1e39-47ff-8a49-9f844d21e156","system_id":"levelo_inurba_marseille","lat":43.304606,"lon":5.379026,"is_reserved":false,"is_disabled":false,"rental_uris":{"android":"levelo://app?vid=c0376c11-1e39-47ff-8a49-9f844d21e156","ios":"levelo://app?vid=c0376c11-1e39-47ff-8a49-9f844d21e156"},"vehicle_type_id":"4","last_reported":1707376072,"current_range_meters":16800,"station_id":"ce4bgup2rcd13ifvqcn0","pricing_plan_id":"free"},{"bike_id":"0858aba1-92d9-4772-97f1-8acec76f1fe1","system_id":"levelo_inurba_marseille","lat":43.304606,"lon":5.379026,"is_reserved":false,"is_disabled":false,"rental_uris":{"android":"levelo://app?vid=0858aba1-92d9-4772-97f1-8acec76f1fe1","ios":"levelo://app?vid=0858aba1-92d9-4772-97f1-8acec76f1fe1"},"vehicle_type_id":"4","last_reported":1707376072,"current_range_meters":22800,"station_id":"ce4bgup2rcd13ifvqcn0","pricing_plan_id":"free"},{"bike_id":"4d89a9f1-8124-4c8d-ae75-29f6a0ae3070","system_id":"levelo_inurba_marseille","lat":43.304278,"lon":5.388868,"is_reserved":false,"is_disabled":false,"rental_uris":{"android":"levelo://app?vid=4d89a9f1-8124-4c8d-ae75-29f6a0ae3070","ios":"levelo://app?vid=4d89a9f1-8124-4c8d-ae75-29f6a0ae3070"},"vehicle_type_id":"4","last_reported":1707376072,"current_range_meters":20400,"station_id":"ce4bgk12rcd13ifvqbi0","pricing_plan_id":"free"},{"bike_id":"dd506e9f-12b7-4844-8e1a-a1111f8eac7f","system_id":"levelo_inurba_marseille","lat":43.304606,"lon":5.379026,"is_reserved":false,"is_disabled":false,"rental_uris":{"android":"levelo://app?vid=dd506e9f-12b7-4844-8e1a-a1111f8eac7f","ios":"levelo://app?vid=dd506e9f-12b7-4844-8e1a-a1111f8eac7f"},"vehicle_type_id":"4","last_reported":1707376072,"current_range_meters":10000,"station_id":"ce4bgup2rcd13ifvqcn0","pricing_plan_id":"free"},{"bike_id":"4c986c0e-677f-42d8-ac86-56cbb48ef519","system_id":"levelo_inurba_marseille","lat":43.304606,"lon":5.379026,"is_reserved":false,"is_disabled":false,"rental_uris":{"android":"levelo://app?vid=4c986c0e-677f-42d8-ac86-56cbb48ef519","ios":"levelo://app?vid=4c986c0e-677f-42d8-ac86-56cbb48ef519"},"vehicle_type_id":"4","last_reported":1707376072,"current_range_meters":10000,"station_id":"ce4bgup2rcd13ifvqcn0","pricing_plan_id":"free"},{"bike_id":"26191430-4784-40f6-939e-242f455e928e","system_id":"levelo_inurba_marseille","lat":43.304606,"lon":5.379026,"is_reserved":false,"is_disabled":false,"rental_uris":{"android":"levelo://app?vid=26191430-4784-40f6-939e-242f455e928e","ios":"levelo://app?vid=26191430-4784-40f6-939e-242f455e928e"},"vehicle_type_id":"4","last_reported":1707376072,"current_range_meters":8800,"station_id":"ce4bgup2rcd13ifvqcn0","pricing_plan_id":"free"},{"bike_id":"396cd2ab-7744-4b11-9c9a-b8ad04957a8a","system_id":"levelo_inurba_marseille","lat":43.304606,"lon":5.379026,"is_reserved":false,"is_disabled":false,"rental_uris":{"android":"levelo://app?vid=396cd2ab-7744-4b11-9c9a-b8ad04957a8a","ios":"levelo://app?vid=396cd2ab-7744-4b11-9c9a-b8ad04957a8a"},"vehicle_type_id":"4","last_reported":1707376072,"current_range_meters":30400,"station_id":"ce4bgup2rcd13ifvqcn0","pricing_plan_id":"free"},{"bike_id":"605f62f9-77f8-4587-ab19-ffc1dab3756e","system_id":"levelo_inurba_marseille","lat":43.324771,"lon":5.36557,"is_reserved":false,"is_disabled":false,"rental_uris":{"android":"levelo://app?vid=605f62f9-77f8-4587-ab19-ffc1dab3756e","ios":"levelo://app?vid=605f62f9-77f8-4587-ab19-ffc1dab3756e"},"vehicle_type_id":"4","last_reported":1707376072,"current_range_meters":15600,"station_id":"ce4bhs12rcd13ifvqhvg","pricing_plan_id":"free"},{"bike_id":"9d2ab8b0-1a69-42ab-ad8e-148f03cc733a","system_id":"levelo_inurba_marseille","lat":43.304606,"lon":5.379026,"is_reserved":false,"is_disabled":false,"rental_uris":{"android":"levelo://app?vid=9d2ab8b0-1a69-42ab-ad8e-148f03cc733a","ios":"levelo://app?vid=9d2ab8b0-1a69-42ab-ad8e-148f03cc733a"},"vehicle_type_id":"4","last_reported":1707376072,"current_range_meters":24800,"station_id":"ce4bgup2rcd13ifvqcn0","pricing_plan_id":"free"},{"bike_id":"ed3caa2a-53fb-4f4e-add2-cf0299730f7c","system_id":"levelo_inurba_marseille","lat":43.304606,"lon":5.379026,"is_reserved":false,"is_disabled":false,"rental_uris":{"android":"levelo://app?vid=ed3caa2a-53fb-4f4e-add2-cf0299730f7c","ios":"levelo://app?vid=ed3caa2a-53fb-4f4e-add2-cf0299730f7c"},"vehicle_type_id":"4","last_reported":1707376072,"current_range_meters":20000,"station_id":"ce4bgup2rcd13ifvqcn0","pricing_plan_id":"free"},{"bike_id":"f54136ce-51a0-402b-8d25-4d089d0c9f4c","system_id":"levelo_inurba_marseille","lat":43.304606,"lon":5.379026,"is_reserved":false,"is_disabled":false,"rental_uris":{"android":"levelo://app?vid=f54136ce-51a0-402b-8d25-4d089d0c9f4c","ios":"levelo://app?vid=f54136ce-51a0-402b-8d25-4d089d0c9f4c"},"vehicle_type_id":"4","last_reported":1707376072,"current_range_meters":22800,"station_id":"ce4bgup2rcd13ifvqcn0","pricing_plan_id":"free"},{"bike_id":"97f71f75-d414-4d74-9636-20377fab8590","system_id":"levelo_inurba_marseille","lat":43.324771,"lon":5.36557,"is_reserved":false,"is_disabled":false,"rental_uris":{"android":"levelo://app?vid=97f71f75-d414-4d74-9636-20377fab8590","ios":"levelo://app?vid=97f71f75-d414-4d74-9636-20377fab8590"},"vehicle_type_id":"4","last_reported":1707376072,"current_range_meters":24000,"station_id":"ce4bhs12rcd13ifvqhvg","pricing_plan_id":"free"},{"bike_id":"5e3f4117-bf71-4295-8fac-b33a9c44e6b6","system_id":"levelo_inurba_marseille","lat":43.324771,"lon":5.36557,"is_reserved":false,"is_disabled":false,"rental_uris":{"android":"levelo://app?vid=5e3f4117-bf71-4295-8fac-b33a9c44e6b6","ios":"levelo://app?vid=5e3f4117-bf71-4295-8fac-b33a9c44e6b6"},"vehicle_type_id":"4","last_reported":1707376072,"current_range_meters":16800,"station_id":"ce4bhs12rcd13ifvqhvg","pricing_plan_id":"free"},{"bike_id":"b52dbe09-98ed-484e-9fb0-2c1709bfa5d3","system_id":"levelo_inurba_marseille","lat":43.324771,"lon":5.36557,"is_reserved":false,"is_disabled":false,"rental_uris":{"android":"levelo://app?vid=b52dbe09-98ed-484e-9fb0-2c1709bfa5d3","ios":"levelo://app?vid=b52dbe09-98ed-484e-9fb0-2c1709bfa5d3"},"vehicle_type_id":"4","last_reported":1707376072,"current_range_meters":31200,"station_id":"ce4bhs12rcd13ifvqhvg","pricing_plan_id":"free"},{"bike_id":"903b91a7-a630-45ae-83d2-70f7d82e18c2","system_id":"levelo_inurba_marseille","lat":43.324771,"lon":5.36557,"is_reserved":false,"is_disabled":false,"rental_uris":{"android":"levelo://app?vid=903b91a7-a630-45ae-83d2-70f7d82e18c2","ios":"levelo://app?vid=903b91a7-a630-45ae-83d2-70f7d82e18c2"},"vehicle_type_id":"4","last_reported":1707376072,"current_range_meters":23600,"station_id":"ce4bhs12rcd13ifvqhvg","pricing_plan_id":"free"},{"bike_id":"91c66a19-a3c7-49c3-af5d-2beaa8d69313","system_id":"levelo_inurba_marseille","lat":43.324771,"lon":5.36557,"is_reserved":false,"is_disabled":false,"rental_uris":{"android":"levelo://app?vid=91c66a19-a3c7-49c3-af5d-2beaa8d69313","ios":"levelo://app?vid=91c66a19-a3c7-49c3-af5d-2beaa8d69313"},"vehicle_type_id":"4","last_reported":1707376072,"current_range_meters":12000,"station_id":"ce4bhs12rcd13ifvqhvg","pricing_plan_id":"free"},{"bike_id":"54816f03-0b1e-4fc0-91bf-20b8803389d5","system_id":"levelo_inurba_marseille","lat":43.324771,"lon":5.36557,"is_reserved":false,"is_disabled":false,"rental_uris":{"android":"levelo://app?vid=54816f03-0b1e-4fc0-91bf-20b8803389d5","ios":"levelo://app?vid=54816f03-0b1e-4fc0-91bf-20b8803389d5"},"vehicle_type_id":"4","last_reported":1707376072,"current_range_meters":1600,"station_id":"ce4bhs12rcd13ifvqhvg","pricing_plan_id":"free"},{"bike_id":"02c4093b-d4fb-4b05-92f8-24587293fbac","system_id":"levelo_inurba_marseille","lat":43.324771,"lon":5.36557,"is_reserved":false,"is_disabled":false,"rental_uris":{"android":"levelo://app?vid=02c4093b-d4fb-4b05-92f8-24587293fbac","ios":"levelo://app?vid=02c4093b-d4fb-4b05-92f8-24587293fbac"},"vehicle_type_id":"4","last_reported":1707376072,"current_range_meters":25200,"station_id":"ce4bhs12rcd13ifvqhvg","pricing_plan_id":"free"},{"bike_id":"733df0c1-a41a-4b42-9f29-8f6e7d4b6b5a","system_id":"levelo_inurba_marseille","lat":43.299222,"lon":5.365554,"is_reserved":false,"is_disabled":false,"rental_uris":{"android":"levelo://app?vid=733df0c1-a41a-4b42-9f29-8f6e7d4b6b5a","ios":"levelo://app?vid=733df0c1-a41a-4b42-9f29-8f6e7d4b6b5a"},"vehicle_type_id":"4","last_reported":1707376072,"current_range_meters":26400,"station_id":"ce4bgm92rcd13ifvqbr0","pricing_plan_id":"free"},{"bike_id":"8abe8364-6348-4328-b905-1b32f9a18944","system_id":"levelo_inurba_marseille","lat":43.29967,"lon":5.37169,"is_reserved":false,"is_disabled":false,"rental_uris":{"android":"levelo://app?vid=8abe8364-6348-4328-b905-1b32f9a18944","ios":"levelo://app?vid=8abe8364-6348-4328-b905-1b32f9a18944"},"vehicle_type_id":"4","last_reported":1707376072,"current_range_meters":21600,"station_id":"","pricing_plan_id":"free"},{"bike_id":"d73908e2-2bfd-489b-804e-d4e95fac72d2","system_id":"levelo_inurba_marseille","lat":43.326525,"lon":5.36078,"is_reserved":false,"is_disabled":false,"rental_uris":{"android":"levelo://app?vid=d73908e2-2bfd-489b-804e-d4e95fac72d2","ios":"levelo://app?vid=d73908e2-2bfd-489b-804e-d4e95fac72d2"},"vehicle_type_id":"4","last_reported":1707376072,"current_range_meters":7600,"station_id":"","pricing_plan_id":"free"},{"bike_id":"e5f0a3af-912a-49a9-bdac-a2b0c3b61b5f","system_id":"levelo_inurba_marseille","lat":43.305364,"lon":5.384119,"is_reserved":false,"is_disabled":false,"rental_uris":{"android":"levelo://app?vid=e5f0a3af-912a-49a9-bdac-a2b0c3b61b5f","ios":"levelo://app?vid=e5f0a3af-912a-49a9-bdac-a2b0c3b61b5f"},"vehicle_type_id":"4","last_reported":1707376072,"current_range_meters":21200,"station_id":"ce4bgg92rcd13ifvqb30","pricing_plan_id":"free"},{"bike_id":"3c92d113-90e3-4ead-833f-e0f3b58380ba","system_id":"levelo_inurba_marseille","lat":43.311722,"lon":5.387247,"is_reserved":false,"is_disabled":false,"rental_uris":{"android":"levelo://app?vid=3c92d113-90e3-4ead-833f-e0f3b58380ba","ios":"levelo://app?vid=3c92d113-90e3-4ead-833f-e0f3b58380ba"},"vehicle_type_id":"4","last_reported":1707376072,"current_range_meters":16800,"station_id":"ce4bgv12rcd13ifvqcp0","pricing_plan_id":"free"},{"bike_id":"7e1b2a77-71b5-4003-b54e-450ad3f3f9d1","system_id":"levelo_inurba_marseille","lat":43.322872,"lon":5.382756,"is_reserved":false,"is_disabled":false,"rental_uris":{"android":"levelo://app?vid=7e1b2a77-71b5-4003-b54e-450ad3f3f9d1","ios":"levelo://app?vid=7e1b2a77-71b5-4003-b54e-450ad3f3f9d1"},"vehicle_type_id":"4","last_reported":1707376072,"current_range_meters":31600,"station_id":"ce4bhr12rcd13ifvqhqg","pricing_plan_id":"free"},{"bike_id":"d1923a4f-017a-41c0-84f4-1e4b038d3761","system_id":"levelo_inurba_marseille","lat":43.322872,"lon":5.382756,"is_reserved":false,"is_disabled":false,"rental_uris":{"android":"levelo://app?vid=d1923a4f-017a-41c0-84f4-1e4b038d3761","ios":"levelo://app?vid=d1923a4f-017a-41c0-84f4-1e4b038d3761"},"vehicle_type_id":"4","last_reported":1707376072,"current_range_meters":1200,"station_id":"ce4bhr12rcd13ifvqhqg","pricing_plan_id":"free"},{"bike_id":"eefe6e9a-bb51-44f7-a644-f94de5a43093","system_id":"levelo_inurba_marseille","lat":43.322872,"lon":5.382756,"is_reserved":false,"is_disabled":false,"rental_uris":{"android":"levelo://app?vid=eefe6e9a-bb51-44f7-a644-f94de5a43093","ios":"levelo://app?vid=eefe6e9a-bb51-44f7-a644-f94de5a43093"},"vehicle_type_id":"4","last_reported":1707376072,"current_range_meters":28000,"station_id":"ce4bhr12rcd13ifvqhqg","pricing_plan_id":"free"},{"bike_id":"da8f4a65-afb5-422f-b14f-25324e504801","system_id":"levelo_inurba_marseille","lat":43.32821,"lon":5.36674,"is_reserved":false,"is_disabled":false,"rental_uris":{"android":"levelo://app?vid=da8f4a65-afb5-422f-b14f-25324e504801","ios":"levelo://app?vid=da8f4a65-afb5-422f-b14f-25324e504801"},"vehicle_type_id":"4","last_reported":1707376072,"current_range_meters":30000,"station_id":"ce4bhs92rcd13ifvqi0g","pricing_plan_id":"free"},{"bike_id":"e89be0ea-23aa-420a-ade4-64dabef6c3f8","system_id":"levelo_inurba_marseille","lat":43.328371,"lon":5.366909,"is_reserved":false,"is_disabled":false,"rental_uris":{"android":"levelo://app?vid=e89be0ea-23aa-420a-ade4-64dabef6c3f8","ios":"levelo://app?vid=e89be0ea-23aa-420a-ade4-64dabef6c3f8"},"vehicle_type_id":"4","last_reported":1707376072,"current_range_meters":31200,"station_id":"ce4bhs92rcd13ifvqi0g","pricing_plan_id":"free"},{"bike_id":"443158a4-b2d1-4f72-871e-cb6ab69b2349","system_id":"levelo_inurba_marseille","lat":43.328371,"lon":5.366909,"is_reserved":false,"is_disabled":false,"rental_uris":{"android":"levelo://app?vid=443158a4-b2d1-4f72-871e-cb6ab69b2349","ios":"levelo://app?vid=443158a4-b2d1-4f72-871e-cb6ab69b2349"},"vehicle_type_id":"4","last_reported":1707376072,"current_range_meters":14000,"station_id":"ce4bhs92rcd13ifvqi0g","pricing_plan_id":"free"},{"bike_id":"a7419435-a9ed-4605-8cb8-2d126ac84fda","system_id":"levelo_inurba_marseille","lat":43.328371,"lon":5.366909,"is_reserved":false,"is_disabled":false,"rental_uris":{"android":"levelo://app?vid=a7419435-a9ed-4605-8cb8-2d126ac84fda","ios":"levelo://app?vid=a7419435-a9ed-4605-8cb8-2d126ac84fda"},"vehicle_type_id":"4","last_reported":1707376072,"current_range_meters":7200,"station_id":"ce4bhs92rcd13ifvqi0g","pricing_plan_id":"free"},{"bike_id":"34590167-fe14-46fb-865e-25a9200f8af6","system_id":"levelo_inurba_marseille","lat":43.328371,"lon":5.366909,"is_reserved":false,"is_disabled":false,"rental_uris":{"android":"levelo://app?vid=34590167-fe14-46fb-865e-25a9200f8af6","ios":"levelo://app?vid=34590167-fe14-46fb-865e-25a9200f8af6"},"vehicle_type_id":"4","last_reported":1707376072,"current_range_meters":15600,"station_id":"ce4bhs92rcd13ifvqi0g","pricing_plan_id":"free"},{"bike_id":"274a2af4-c037-4ec1-858f-d9b8c2850364","system_id":"levelo_inurba_marseille","lat":43.297163,"lon":5.365866,"is_reserved":false,"is_disabled":false,"rental_uris":{"android":"levelo://app?vid=274a2af4-c037-4ec1-858f-d9b8c2850364","ios":"levelo://app?vid=274a2af4-c037-4ec1-858f-d9b8c2850364"},"vehicle_type_id":"4","last_reported":1707376072,"current_range_meters":24400,"station_id":"ce4bgn12rcd13ifvqbt0","pricing_plan_id":"free"},{"bike_id":"a02a6664-df41-425e-bd0e-2689ec765b8b","system_id":"levelo_inurba_marseille","lat":43.297163,"lon":5.365866,"is_reserved":false,"is_disabled":false,"rental_uris":{"android":"levelo://app?vid=a02a6664-df41-425e-bd0e-2689ec765b8b","ios":"levelo://app?vid=a02a6664-df41-425e-bd0e-2689ec765b8b"},"vehicle_type_id":"4","last_reported":1707376072,"current_range_meters":23200,"station_id":"ce4bgn12rcd13ifvqbt0","pricing_plan_id":"free"},{"bike_id":"349e8674-b27b-4168-8884-57b6118ed993","system_id":"levelo_inurba_marseille","lat":43.29921,"lon":5.38142,"is_reserved":false,"is_disabled":false,"rental_uris":{"android":"levelo://app?vid=349e8674-b27b-4168-8884-57b6118ed993","ios":"levelo://app?vid=349e8674-b27b-4168-8884-57b6118ed993"},"vehicle_type_id":"4","last_reported":1707376072,"current_range_meters":30400,"station_id":"","pricing_plan_id":"free"},{"bike_id":"09a309b8-8931-4ff1-8c94-d9824972c080","system_id":"levelo_inurba_marseille","lat":43.299028,"lon":5.381509,"is_reserved":false,"is_disabled":false,"rental_uris":{"android":"levelo://app?vid=09a309b8-8931-4ff1-8c94-d9824972c080","ios":"levelo://app?vid=09a309b8-8931-4ff1-8c94-d9824972c080"},"vehicle_type_id":"4","last_reported":1707376072,"current_range_meters":26400,"station_id":"ce4bgj12rcd13ifvqbc0","pricing_plan_id":"free"},{"bike_id":"b203bcb6-6b51-417e-918c-392b8898061c","system_id":"levelo_inurba_marseille","lat":43.299028,"lon":5.381509,"is_reserved":false,"is_disabled":false,"rental_uris":{"android":"levelo://app?vid=b203bcb6-6b51-417e-918c-392b8898061c","ios":"levelo://app?vid=b203bcb6-6b51-417e-918c-392b8898061c"},"vehicle_type_id":"4","last_reported":1707376072,"current_range_meters":800,"station_id":"ce4bgj12rcd13ifvqbc0","pricing_plan_id":"free"},{"bike_id":"3e958a35-a4c7-466f-8be0-61188249af24","system_id":"levelo_inurba_marseille","lat":43.29905,"lon":5.38138,"is_reserved":false,"is_disabled":false,"rental_uris":{"android":"levelo://app?vid=3e958a35-a4c7-466f-8be0-61188249af24","ios":"levelo://app?vid=3e958a35-a4c7-466f-8be0-61188249af24"},"vehicle_type_id":"4","last_reported":1707376072,"current_range_meters":30400,"station_id":"","pricing_plan_id":"free"},{"bike_id":"f0bf1dc0-cf50-4f32-9774-089a40b7091e","system_id":"levelo_inurba_marseille","lat":43.299028,"lon":5.381509,"is_reserved":false,"is_disabled":false,"rental_uris":{"android":"levelo://app?vid=f0bf1dc0-cf50-4f32-9774-089a40b7091e","ios":"levelo://app?vid=f0bf1dc0-cf50-4f32-9774-089a40b7091e"},"vehicle_type_id":"4","last_reported":1707376072,"current_range_meters":31200,"station_id":"ce4bgj12rcd13ifvqbc0","pricing_plan_id":"free"},{"bike_id":"b393e380-9b9a-4239-8934-e30e3f7bac4e","system_id":"levelo_inurba_marseille","lat":43.31736,"lon":5.390046,"is_reserved":false,"is_disabled":false,"rental_uris":{"android":"levelo://app?vid=b393e380-9b9a-4239-8934-e30e3f7bac4e","ios":"levelo://app?vid=b393e380-9b9a-4239-8934-e30e3f7bac4e"},"vehicle_type_id":"4","last_reported":1707376072,"current_range_meters":8000,"station_id":"ce4bhqp2rcd13ifvqhng","pricing_plan_id":"free"},{"bike_id":"a65680f1-b3cf-4a61-b0ee-2a9e0277a0af","system_id":"levelo_inurba_marseille","lat":43.317564,"lon":5.390133,"is_reserved":false,"is_disabled":false,"rental_uris":{"android":"levelo://app?vid=a65680f1-b3cf-4a61-b0ee-2a9e0277a0af","ios":"levelo://app?vid=a65680f1-b3cf-4a61-b0ee-2a9e0277a0af"},"vehicle_type_id":"4","last_reported":1707376072,"current_range_meters":10000,"station_id":"ce4bhqp2rcd13ifvqhng","pricing_plan_id":"free"},{"bike_id":"5c02251e-b841-4294-b127-9fff8d72f820","system_id":"levelo_inurba_marseille","lat":43.317557,"lon":5.390173,"is_reserved":false,"is_disabled":false,"rental_uris":{"android":"levelo://app?vid=5c02251e-b841-4294-b127-9fff8d72f820","ios":"levelo://app?vid=5c02251e-b841-4294-b127-9fff8d72f820"},"vehicle_type_id":"4","last_reported":1707376072,"current_range_meters":30400,"station_id":"ce4bhqp2rcd13ifvqhng","pricing_plan_id":"free"},{"bike_id":"36530bef-b0a9-4557-bc82-752d439888bc","system_id":"levelo_inurba_marseille","lat":43.317618,"lon":5.390129,"is_reserved":false,"is_disabled":false,"rental_uris":{"android":"levelo://app?vid=36530bef-b0a9-4557-bc82-752d439888bc","ios":"levelo://app?vid=36530bef-b0a9-4557-bc82-752d439888bc"},"vehicle_type_id":"4","last_reported":1707376072,"current_range_meters":12400,"station_id":"ce4bhqp2rcd13ifvqhng","pricing_plan_id":"free"},{"bike_id":"8236458b-34ca-49b5-ab60-c4f12ac61945","system_id":"levelo_inurba_marseille","lat":43.31762,"lon":5.39013,"is_reserved":false,"is_disabled":false,"rental_uris":{"android":"levelo://app?vid=8236458b-34ca-49b5-ab60-c4f12ac61945","ios":"levelo://app?vid=8236458b-34ca-49b5-ab60-c4f12ac61945"},"vehicle_type_id":"4","last_reported":1707376072,"current_range_meters":8000,"station_id":"ce4bhqp2rcd13ifvqhng","pricing_plan_id":"free"},{"bike_id":"5803286d-bc09-4cb9-b050-80f335e1e221","system_id":"levelo_inurba_marseille","lat":43.317557,"lon":5.390173,"is_reserved":false,"is_disabled":false,"rental_uris":{"android":"levelo://app?vid=5803286d-bc09-4cb9-b050-80f335e1e221","ios":"levelo://app?vid=5803286d-bc09-4cb9-b050-80f335e1e221"},"vehicle_type_id":"4","last_reported":1707376072,"current_range_meters":19600,"station_id":"ce4bhqp2rcd13ifvqhng","pricing_plan_id":"free"},{"bike_id":"28bba395-38ae-46b0-8bda-5604032e994c","system_id":"levelo_inurba_marseille","lat":43.31761,"lon":5.39016,"is_reserved":false,"is_disabled":false,"rental_uris":{"android":"levelo://app?vid=28bba395-38ae-46b0-8bda-5604032e994c","ios":"levelo://app?vid=28bba395-38ae-46b0-8bda-5604032e994c"},"vehicle_type_id":"4","last_reported":1707376072,"current_range_meters":12400,"station_id":"ce4bhqp2rcd13ifvqhng","pricing_plan_id":"free"},{"bike_id":"f9e71f25-83c3-4ad2-95f8-b63267492ced","system_id":"levelo_inurba_marseille","lat":43.317557,"lon":5.390173,"is_reserved":false,"is_disabled":false,"rental_uris":{"android":"levelo://app?vid=f9e71f25-83c3-4ad2-95f8-b63267492ced","ios":"levelo://app?vid=f9e71f25-83c3-4ad2-95f8-b63267492ced"},"vehicle_type_id":"4","last_reported":1707376072,"current_range_meters":26400,"station_id":"ce4bhqp2rcd13ifvqhng","pricing_plan_id":"free"},{"bike_id":"e0cd914f-af19-41c2-ab1e-750b2d25e600","system_id":"levelo_inurba_marseille","lat":43.298037,"lon":5.381066,"is_reserved":false,"is_disabled":false,"rental_uris":{"android":"levelo://app?vid=e0cd914f-af19-41c2-ab1e-750b2d25e600","ios":"levelo://app?vid=e0cd914f-af19-41c2-ab1e-750b2d25e600"},"vehicle_type_id":"4","last_reported":1707376072,"current_range_meters":31200,"station_id":"ce4bgip2rcd13ifvqbb0","pricing_plan_id":"free"},{"bike_id":"e8d4bcde-5323-4a19-bb8c-fb475b95b1bf","system_id":"levelo_inurba_marseille","lat":43.298037,"lon":5.381066,"is_reserved":false,"is_disabled":false,"rental_uris":{"android":"levelo://app?vid=e8d4bcde-5323-4a19-bb8c-fb475b95b1bf","ios":"levelo://app?vid=e8d4bcde-5323-4a19-bb8c-fb475b95b1bf"},"vehicle_type_id":"4","last_reported":1707376072,"current_range_meters":32000,"station_id":"ce4bgip2rcd13ifvqbb0","pricing_plan_id":"free"},{"bike_id":"fc276ed7-a65b-4dfd-85ca-e57d999ca381","system_id":"levelo_inurba_marseille","lat":43.298137,"lon":5.380971,"is_reserved":false,"is_disabled":false,"rental_uris":{"android":"levelo://app?vid=fc276ed7-a65b-4dfd-85ca-e57d999ca381","ios":"levelo://app?vid=fc276ed7-a65b-4dfd-85ca-e57d999ca381"},"vehicle_type_id":"4","last_reported":1707376072,"current_range_meters":27600,"station_id":"ce4bgip2rcd13ifvqbb0","pricing_plan_id":"free"},{"bike_id":"47adb29a-f046-47f7-9147-28b5098c3f9c","system_id":"levelo_inurba_marseille","lat":43.298037,"lon":5.381066,"is_reserved":false,"is_disabled":false,"rental_uris":{"android":"levelo://app?vid=47adb29a-f046-47f7-9147-28b5098c3f9c","ios":"levelo://app?vid=47adb29a-f046-47f7-9147-28b5098c3f9c"},"vehicle_type_id":"4","last_reported":1707376072,"current_range_meters":27600,"station_id":"ce4bgip2rcd13ifvqbb0","pricing_plan_id":"free"},{"bike_id":"88d39b2f-dc3e-4756-bf31-544a1ad6411a","system_id":"levelo_inurba_marseille","lat":43.298037,"lon":5.381066,"is_reserved":false,"is_disabled":false,"rental_uris":{"android":"levelo://app?vid=88d39b2f-dc3e-4756-bf31-544a1ad6411a","ios":"levelo://app?vid=88d39b2f-dc3e-4756-bf31-544a1ad6411a"},"vehicle_type_id":"4","last_reported":1707376072,"current_range_meters":25600,"station_id":"ce4bgip2rcd13ifvqbb0","pricing_plan_id":"free"},{"bike_id":"4b0905f0-0c25-4c56-83a7-329cdfd75ae1","system_id":"levelo_inurba_marseille","lat":43.298037,"lon":5.381066,"is_reserved":false,"is_disabled":false,"rental_uris":{"android":"levelo://app?vid=4b0905f0-0c25-4c56-83a7-329cdfd75ae1","ios":"levelo://app?vid=4b0905f0-0c25-4c56-83a7-329cdfd75ae1"},"vehicle_type_id":"4","last_reported":1707376072,"current_range_meters":14400,"station_id":"ce4bgip2rcd13ifvqbb0","pricing_plan_id":"free"},{"bike_id":"5ad29120-2de5-46b3-ad38-e8ed1c4d1302","system_id":"levelo_inurba_marseille","lat":43.304274,"lon":5.388873,"is_reserved":false,"is_disabled":false,"rental_uris":{"android":"levelo://app?vid=5ad29120-2de5-46b3-ad38-e8ed1c4d1302","ios":"levelo://app?vid=5ad29120-2de5-46b3-ad38-e8ed1c4d1302"},"vehicle_type_id":"4","last_reported":1707376072,"current_range_meters":27600,"station_id":"ce4bgk12rcd13ifvqbi0","pricing_plan_id":"free"},{"bike_id":"9ce36ead-f6cf-4300-a6c7-41403928be72","system_id":"levelo_inurba_marseille","lat":43.298037,"lon":5.381066,"is_reserved":false,"is_disabled":false,"rental_uris":{"android":"levelo://app?vid=9ce36ead-f6cf-4300-a6c7-41403928be72","ios":"levelo://app?vid=9ce36ead-f6cf-4300-a6c7-41403928be72"},"vehicle_type_id":"4","last_reported":1707376072,"current_range_meters":31600,"station_id":"ce4bgip2rcd13ifvqbb0","pricing_plan_id":"free"},{"bike_id":"9d9937ab-7ef1-493d-b22f-27e972dced55","system_id":"levelo_inurba_marseille","lat":43.304274,"lon":5.388873,"is_reserved":false,"is_disabled":false,"rental_uris":{"android":"levelo://app?vid=9d9937ab-7ef1-493d-b22f-27e972dced55","ios":"levelo://app?vid=9d9937ab-7ef1-493d-b22f-27e972dced55"},"vehicle_type_id":"4","last_reported":1707376072,"current_range_meters":27600,"station_id":"ce4bgk12rcd13ifvqbi0","pricing_plan_id":"free"},{"bike_id":"0c7a66f0-9026-43c9-8ea6-08771af4e664","system_id":"levelo_inurba_marseille","lat":43.296272,"lon":5.377105,"is_reserved":false,"is_disabled":false,"rental_uris":{"android":"levelo://app?vid=0c7a66f0-9026-43c9-8ea6-08771af4e664","ios":"levelo://app?vid=0c7a66f0-9026-43c9-8ea6-08771af4e664"},"vehicle_type_id":"4","last_reported":1707376072,"current_range_meters":29600,"station_id":"ce4bgi92rcd13ifvqb90","pricing_plan_id":"free"},{"bike_id":"6273f8ed-c2df-4bb3-9d28-2269b756d2ac","system_id":"levelo_inurba_marseille","lat":43.30431,"lon":5.38892,"is_reserved":false,"is_disabled":false,"rental_uris":{"android":"levelo://app?vid=6273f8ed-c2df-4bb3-9d28-2269b756d2ac","ios":"levelo://app?vid=6273f8ed-c2df-4bb3-9d28-2269b756d2ac"},"vehicle_type_id":"4","last_reported":1707376072,"current_range_meters":23200,"station_id":"ce4bgk12rcd13ifvqbi0","pricing_plan_id":"free"},{"bike_id":"336bbf2c-1ed8-4592-9ff8-ff5828555d2c","system_id":"levelo_inurba_marseille","lat":43.29624,"lon":5.37718,"is_reserved":false,"is_disabled":false,"rental_uris":{"android":"levelo://app?vid=336bbf2c-1ed8-4592-9ff8-ff5828555d2c","ios":"levelo://app?vid=336bbf2c-1ed8-4592-9ff8-ff5828555d2c"},"vehicle_type_id":"4","last_reported":1707376072,"current_range_meters":27600,"station_id":"ce4bgi92rcd13ifvqb90","pricing_plan_id":"free"},{"bike_id":"cb26e0a5-ee4e-4022-b872-bcc190e8e0f7","system_id":"levelo_inurba_marseille","lat":43.29608,"lon":5.37718,"is_reserved":false,"is_disabled":false,"rental_uris":{"android":"levelo://app?vid=cb26e0a5-ee4e-4022-b872-bcc190e8e0f7","ios":"levelo://app?vid=cb26e0a5-ee4e-4022-b872-bcc190e8e0f7"},"vehicle_type_id":"4","last_reported":1707376072,"current_range_meters":31200,"station_id":"ce4bgi92rcd13ifvqb90","pricing_plan_id":"free"},{"bike_id":"b033ec92-937b-4388-962c-3f23b402509c","system_id":"levelo_inurba_marseille","lat":43.295279,"lon":5.375048,"is_reserved":false,"is_disabled":false,"rental_uris":{"android":"levelo://app?vid=b033ec92-937b-4388-962c-3f23b402509c","ios":"levelo://app?vid=b033ec92-937b-4388-962c-3f23b402509c"},"vehicle_type_id":"4","last_reported":1707376072,"current_range_meters":4800,"station_id":"ce4bgkp2rcd13ifvqbmg","pricing_plan_id":"free"},{"bike_id":"6fe53fba-9a62-41b0-b1a4-0d6ad36ca41f","system_id":"levelo_inurba_marseille","lat":43.295279,"lon":5.375048,"is_reserved":false,"is_disabled":false,"rental_uris":{"android":"levelo://app?vid=6fe53fba-9a62-41b0-b1a4-0d6ad36ca41f","ios":"levelo://app?vid=6fe53fba-9a62-41b0-b1a4-0d6ad36ca41f"},"vehicle_type_id":"4","last_reported":1707376072,"current_range_meters":7600,"station_id":"ce4bgkp2rcd13ifvqbmg","pricing_plan_id":"free"},{"bike_id":"8af25674-7119-43b3-b314-9121961cfd93","system_id":"levelo_inurba_marseille","lat":43.299724,"lon":5.384848,"is_reserved":false,"is_disabled":false,"rental_uris":{"android":"levelo://app?vid=8af25674-7119-43b3-b314-9121961cfd93","ios":"levelo://app?vid=8af25674-7119-43b3-b314-9121961cfd93"},"vehicle_type_id":"4","last_reported":1707376072,"current_range_meters":7600,"station_id":"ce4bgj92rcd13ifvqbd0","pricing_plan_id":"free"},{"bike_id":"de1a05a7-8f93-4542-8980-3ebc319d380e","system_id":"levelo_inurba_marseille","lat":43.29602,"lon":5.381084,"is_reserved":false,"is_disabled":false,"rental_uris":{"android":"levelo://app?vid=de1a05a7-8f93-4542-8980-3ebc319d380e","ios":"levelo://app?vid=de1a05a7-8f93-4542-8980-3ebc319d380e"},"vehicle_type_id":"4","last_reported":1707376072,"current_range_meters":22400,"station_id":"ce4bgl12rcd13ifvqbo0","pricing_plan_id":"free"},{"bike_id":"cc6530d2-5676-4593-9ee5-59ecbcd8f6a5","system_id":"levelo_inurba_marseille","lat":43.323615,"lon":5.388789,"is_reserved":false,"is_disabled":false,"rental_uris":{"android":"levelo://app?vid=cc6530d2-5676-4593-9ee5-59ecbcd8f6a5","ios":"levelo://app?vid=cc6530d2-5676-4593-9ee5-59ecbcd8f6a5"},"vehicle_type_id":"4","last_reported":1707376072,"current_range_meters":16800,"station_id":"ce4bhqp2rcd13ifvqhog","pricing_plan_id":"free"},{"bike_id":"55769c3e-d570-4ade-829b-4a0316d221aa","system_id":"levelo_inurba_marseille","lat":43.323614,"lon":5.388794,"is_reserved":false,"is_disabled":false,"rental_uris":{"android":"levelo://app?vid=55769c3e-d570-4ade-829b-4a0316d221aa","ios":"levelo://app?vid=55769c3e-d570-4ade-829b-4a0316d221aa"},"vehicle_type_id":"4","last_reported":1707376072,"current_range_meters":16000,"station_id":"ce4bhqp2rcd13ifvqhog","pricing_plan_id":"free"},{"bike_id":"1518e53d-eb94-4406-bc34-6493c7c75fd6","system_id":"levelo_inurba_marseille","lat":43.3236,"lon":5.38883,"is_reserved":false,"is_disabled":false,"rental_uris":{"android":"levelo://app?vid=1518e53d-eb94-4406-bc34-6493c7c75fd6","ios":"levelo://app?vid=1518e53d-eb94-4406-bc34-6493c7c75fd6"},"vehicle_type_id":"4","last_reported":1707376072,"current_range_meters":21600,"station_id":"ce4bhqp2rcd13ifvqhog","pricing_plan_id":"free"},{"bike_id":"5e50ee70-3337-4b6e-b826-f714f66407b2","system_id":"levelo_inurba_marseille","lat":43.32359,"lon":5.38884,"is_reserved":false,"is_disabled":false,"rental_uris":{"android":"levelo://app?vid=5e50ee70-3337-4b6e-b826-f714f66407b2","ios":"levelo://app?vid=5e50ee70-3337-4b6e-b826-f714f66407b2"},"vehicle_type_id":"4","last_reported":1707376072,"current_range_meters":15200,"station_id":"ce4bhqp2rcd13ifvqhog","pricing_plan_id":"free"},{"bike_id":"2699b29a-e584-4936-892c-96f311fc0314","system_id":"levelo_inurba_marseille","lat":43.32363,"lon":5.38881,"is_reserved":false,"is_disabled":false,"rental_uris":{"android":"levelo://app?vid=2699b29a-e584-4936-892c-96f311fc0314","ios":"levelo://app?vid=2699b29a-e584-4936-892c-96f311fc0314"},"vehicle_type_id":"4","last_reported":1707376072,"current_range_meters":27200,"station_id":"ce4bhqp2rcd13ifvqhog","pricing_plan_id":"free"},{"bike_id":"27e7d923-81e0-4c18-9a4b-aeb5de43f55c","system_id":"levelo_inurba_marseille","lat":43.323639,"lon":5.38882,"is_reserved":false,"is_disabled":false,"rental_uris":{"android":"levelo://app?vid=27e7d923-81e0-4c18-9a4b-aeb5de43f55c","ios":"levelo://app?vid=27e7d923-81e0-4c18-9a4b-aeb5de43f55c"},"vehicle_type_id":"4","last_reported":1707376072,"current_range_meters":11600,"station_id":"ce4bhqp2rcd13ifvqhog","pricing_plan_id":"free"},{"bike_id":"a08a26fe-546a-4630-aced-98e496243792","system_id":"levelo_inurba_marseille","lat":43.323668,"lon":5.388829,"is_reserved":false,"is_disabled":false,"rental_uris":{"android":"levelo://app?vid=a08a26fe-546a-4630-aced-98e496243792","ios":"levelo://app?vid=a08a26fe-546a-4630-aced-98e496243792"},"vehicle_type_id":"4","last_reported":1707376072,"current_range_meters":20000,"station_id":"ce4bhqp2rcd13ifvqhog","pricing_plan_id":"free"},{"bike_id":"69e0ab03-3f4e-4375-b305-57e86da379c2","system_id":"levelo_inurba_marseille","lat":43.32365,"lon":5.38885,"is_reserved":false,"is_disabled":false,"rental_uris":{"android":"levelo://app?vid=69e0ab03-3f4e-4375-b305-57e86da379c2","ios":"levelo://app?vid=69e0ab03-3f4e-4375-b305-57e86da379c2"},"vehicle_type_id":"4","last_reported":1707376072,"current_range_meters":22800,"station_id":"ce4bhqp2rcd13ifvqhog","pricing_plan_id":"free"},{"bike_id":"86ad35e0-f5e5-4c9f-a223-6a4fe40edd63","system_id":"levelo_inurba_marseille","lat":43.323632,"lon":5.388878,"is_reserved":false,"is_disabled":false,"rental_uris":{"android":"levelo://app?vid=86ad35e0-f5e5-4c9f-a223-6a4fe40edd63","ios":"levelo://app?vid=86ad35e0-f5e5-4c9f-a223-6a4fe40edd63"},"vehicle_type_id":"4","last_reported":1707376072,"current_range_meters":31200,"station_id":"ce4bhqp2rcd13ifvqhog","pricing_plan_id":"free"},{"bike_id":"f186256c-d044-4bcc-9759-fe03d97cc836","system_id":"levelo_inurba_marseille","lat":43.29602,"lon":5.381084,"is_reserved":false,"is_disabled":false,"rental_uris":{"android":"levelo://app?vid=f186256c-d044-4bcc-9759-fe03d97cc836","ios":"levelo://app?vid=f186256c-d044-4bcc-9759-fe03d97cc836"},"vehicle_type_id":"4","last_reported":1707376072,"current_range_meters":30000,"station_id":"ce4bgl12rcd13ifvqbo0","pricing_plan_id":"free"},{"bike_id":"7289b738-6260-4a9f-9a7b-26d82fe267a5","system_id":"levelo_inurba_marseille","lat":43.29602,"lon":5.381084,"is_reserved":false,"is_disabled":false,"rental_uris":{"android":"levelo://app?vid=7289b738-6260-4a9f-9a7b-26d82fe267a5","ios":"levelo://app?vid=7289b738-6260-4a9f-9a7b-26d82fe267a5"},"vehicle_type_id":"4","last_reported":1707376072,"current_range_meters":29600,"station_id":"ce4bgl12rcd13ifvqbo0","pricing_plan_id":"free"},{"bike_id":"e73058b1-bd91-451c-b7f6-d23bc3a5ba23","system_id":"levelo_inurba_marseille","lat":43.29602,"lon":5.381084,"is_reserved":false,"is_disabled":false,"rental_uris":{"android":"levelo://app?vid=e73058b1-bd91-451c-b7f6-d23bc3a5ba23","ios":"levelo://app?vid=e73058b1-bd91-451c-b7f6-d23bc3a5ba23"},"vehicle_type_id":"4","last_reported":1707376072,"current_range_meters":4800,"station_id":"ce4bgl12rcd13ifvqbo0","pricing_plan_id":"free"},{"bike_id":"5ee7cdfe-3ff0-4b1a-938d-4dbaaf931cc2","system_id":"levelo_inurba_marseille","lat":43.29602,"lon":5.381084,"is_reserved":false,"is_disabled":false,"rental_uris":{"android":"levelo://app?vid=5ee7cdfe-3ff0-4b1a-938d-4dbaaf931cc2","ios":"levelo://app?vid=5ee7cdfe-3ff0-4b1a-938d-4dbaaf931cc2"},"vehicle_type_id":"4","last_reported":1707376072,"current_range_meters":11200,"station_id":"ce4bgl12rcd13ifvqbo0","pricing_plan_id":"free"},{"bike_id":"f3c62f2a-a866-4ee5-aeeb-8170dfe4f131","system_id":"levelo_inurba_marseille","lat":43.305994,"lon":5.393687,"is_reserved":false,"is_disabled":false,"rental_uris":{"android":"levelo://app?vid=f3c62f2a-a866-4ee5-aeeb-8170dfe4f131","ios":"levelo://app?vid=f3c62f2a-a866-4ee5-aeeb-8170dfe4f131"},"vehicle_type_id":"4","last_reported":1707376072,"current_range_meters":23600,"station_id":"ce4bh0p2rcd13ifvqd80","pricing_plan_id":"free"},{"bike_id":"57b9d4c5-1819-4962-b687-dc4eb257d9fc","system_id":"levelo_inurba_marseille","lat":43.292749,"lon":5.368402,"is_reserved":false,"is_disabled":false,"rental_uris":{"android":"levelo://app?vid=57b9d4c5-1819-4962-b687-dc4eb257d9fc","ios":"levelo://app?vid=57b9d4c5-1819-4962-b687-dc4eb257d9fc"},"vehicle_type_id":"4","last_reported":1707376072,"current_range_meters":11600,"station_id":"ce4bhbp2rcd13ifvqesg","pricing_plan_id":"free"},{"bike_id":"58ce6322-a791-48f0-8bcc-95a1314180fc","system_id":"levelo_inurba_marseille","lat":43.29543,"lon":5.38168,"is_reserved":false,"is_disabled":false,"rental_uris":{"android":"levelo://app?vid=58ce6322-a791-48f0-8bcc-95a1314180fc","ios":"levelo://app?vid=58ce6322-a791-48f0-8bcc-95a1314180fc"},"vehicle_type_id":"4","last_reported":1707376072,"current_range_meters":4000,"station_id":"","pricing_plan_id":"free"},{"bike_id":"e78db64e-4614-425d-b6bd-44b8a9ad86bf","system_id":"levelo_inurba_marseille","lat":43.305921,"lon":5.393502,"is_reserved":false,"is_disabled":false,"rental_uris":{"android":"levelo://app?vid=e78db64e-4614-425d-b6bd-44b8a9ad86bf","ios":"levelo://app?vid=e78db64e-4614-425d-b6bd-44b8a9ad86bf"},"vehicle_type_id":"4","last_reported":1707376072,"current_range_meters":26400,"station_id":"ce4bh0p2rcd13ifvqd80","pricing_plan_id":"free"},{"bike_id":"446e8f51-0a08-4d44-9361-9910d2ce86ee","system_id":"levelo_inurba_marseille","lat":43.30602,"lon":5.39359,"is_reserved":false,"is_disabled":false,"rental_uris":{"android":"levelo://app?vid=446e8f51-0a08-4d44-9361-9910d2ce86ee","ios":"levelo://app?vid=446e8f51-0a08-4d44-9361-9910d2ce86ee"},"vehicle_type_id":"4","last_reported":1707376072,"current_range_meters":28000,"station_id":"ce4bh0p2rcd13ifvqd80","pricing_plan_id":"free"},{"bike_id":"33846bf6-b80d-4686-bf18-ad6b53022ae3","system_id":"levelo_inurba_marseille","lat":43.305994,"lon":5.393687,"is_reserved":false,"is_disabled":false,"rental_uris":{"android":"levelo://app?vid=33846bf6-b80d-4686-bf18-ad6b53022ae3","ios":"levelo://app?vid=33846bf6-b80d-4686-bf18-ad6b53022ae3"},"vehicle_type_id":"4","last_reported":1707376072,"current_range_meters":30400,"station_id":"ce4bh0p2rcd13ifvqd80","pricing_plan_id":"free"},{"bike_id":"fe715ea0-e381-4b87-8f7a-1d237f7ce137","system_id":"levelo_inurba_marseille","lat":43.305942,"lon":5.393562,"is_reserved":false,"is_disabled":false,"rental_uris":{"android":"levelo://app?vid=fe715ea0-e381-4b87-8f7a-1d237f7ce137","ios":"levelo://app?vid=fe715ea0-e381-4b87-8f7a-1d237f7ce137"},"vehicle_type_id":"4","last_reported":1707376072,"current_range_meters":5200,"station_id":"ce4bh0p2rcd13ifvqd80","pricing_plan_id":"free"},{"bike_id":"e2ea60f4-4535-4e95-ac5b-7be869e36f2e","system_id":"levelo_inurba_marseille","lat":43.305994,"lon":5.393687,"is_reserved":false,"is_disabled":false,"rental_uris":{"android":"levelo://app?vid=e2ea60f4-4535-4e95-ac5b-7be869e36f2e","ios":"levelo://app?vid=e2ea60f4-4535-4e95-ac5b-7be869e36f2e"},"vehicle_type_id":"4","last_reported":1707376072,"current_range_meters":25600,"station_id":"ce4bh0p2rcd13ifvqd80","pricing_plan_id":"free"},{"bike_id":"8474491f-2b78-44a1-9b26-0c3d45211380","system_id":"levelo_inurba_marseille","lat":43.30596,"lon":5.39358,"is_reserved":false,"is_disabled":false,"rental_uris":{"android":"levelo://app?vid=8474491f-2b78-44a1-9b26-0c3d45211380","ios":"levelo://app?vid=8474491f-2b78-44a1-9b26-0c3d45211380"},"vehicle_type_id":"4","last_reported":1707376072,"current_range_meters":18000,"station_id":"ce4bh0p2rcd13ifvqd80","pricing_plan_id":"free"},{"bike_id":"6d06211f-c234-4938-890f-f52c3fe1780f","system_id":"levelo_inurba_marseille","lat":43.305926,"lon":5.393568,"is_reserved":false,"is_disabled":false,"rental_uris":{"android":"levelo://app?vid=6d06211f-c234-4938-890f-f52c3fe1780f","ios":"levelo://app?vid=6d06211f-c234-4938-890f-f52c3fe1780f"},"vehicle_type_id":"4","last_reported":1707376072,"current_range_meters":9200,"station_id":"ce4bh0p2rcd13ifvqd80","pricing_plan_id":"free"},{"bike_id":"42ce91ba-4c5f-4e4a-a72f-7b46b857bdf5","system_id":"levelo_inurba_marseille","lat":43.305994,"lon":5.393687,"is_reserved":false,"is_disabled":false,"rental_uris":{"android":"levelo://app?vid=42ce91ba-4c5f-4e4a-a72f-7b46b857bdf5","ios":"levelo://app?vid=42ce91ba-4c5f-4e4a-a72f-7b46b857bdf5"},"vehicle_type_id":"4","last_reported":1707376072,"current_range_meters":27200,"station_id":"ce4bh0p2rcd13ifvqd80","pricing_plan_id":"free"},{"bike_id":"cc40dcaf-b183-410a-bd1b-c5b34c283d24","system_id":"levelo_inurba_marseille","lat":43.305994,"lon":5.393687,"is_reserved":false,"is_disabled":false,"rental_uris":{"android":"levelo://app?vid=cc40dcaf-b183-410a-bd1b-c5b34c283d24","ios":"levelo://app?vid=cc40dcaf-b183-410a-bd1b-c5b34c283d24"},"vehicle_type_id":"4","last_reported":1707376072,"current_range_meters":28800,"station_id":"ce4bh0p2rcd13ifvqd80","pricing_plan_id":"free"},{"bike_id":"0bcc047b-05aa-45e9-89e7-11c2be139d97","system_id":"levelo_inurba_marseille","lat":43.305994,"lon":5.393687,"is_reserved":false,"is_disabled":false,"rental_uris":{"android":"levelo://app?vid=0bcc047b-05aa-45e9-89e7-11c2be139d97","ios":"levelo://app?vid=0bcc047b-05aa-45e9-89e7-11c2be139d97"},"vehicle_type_id":"4","last_reported":1707376072,"current_range_meters":30400,"station_id":"ce4bh0p2rcd13ifvqd80","pricing_plan_id":"free"},{"bike_id":"6182320e-2601-41c0-be21-238cb3d015f9","system_id":"levelo_inurba_marseille","lat":43.30593,"lon":5.3936,"is_reserved":false,"is_disabled":false,"rental_uris":{"android":"levelo://app?vid=6182320e-2601-41c0-be21-238cb3d015f9","ios":"levelo://app?vid=6182320e-2601-41c0-be21-238cb3d015f9"},"vehicle_type_id":"4","last_reported":1707376072,"current_range_meters":31200,"station_id":"ce4bh0p2rcd13ifvqd80","pricing_plan_id":"free"},{"bike_id":"ecbe290d-ab6f-44a0-a820-bef9221f64b4","system_id":"levelo_inurba_marseille","lat":43.305958,"lon":5.393618,"is_reserved":false,"is_disabled":false,"rental_uris":{"android":"levelo://app?vid=ecbe290d-ab6f-44a0-a820-bef9221f64b4","ios":"levelo://app?vid=ecbe290d-ab6f-44a0-a820-bef9221f64b4"},"vehicle_type_id":"4","last_reported":1707376072,"current_range_meters":28400,"station_id":"ce4bh0p2rcd13ifvqd80","pricing_plan_id":"free"},{"bike_id":"5cd83bac-db26-47ea-b811-6d534fac0a19","system_id":"levelo_inurba_marseille","lat":43.305994,"lon":5.393687,"is_reserved":false,"is_disabled":false,"rental_uris":{"android":"levelo://app?vid=5cd83bac-db26-47ea-b811-6d534fac0a19","ios":"levelo://app?vid=5cd83bac-db26-47ea-b811-6d534fac0a19"},"vehicle_type_id":"4","last_reported":1707376072,"current_range_meters":31600,"station_id":"ce4bh0p2rcd13ifvqd80","pricing_plan_id":"free"},{"bike_id":"a748206f-ace3-493e-962a-3c340c90637c","system_id":"levelo_inurba_marseille","lat":43.305994,"lon":5.393687,"is_reserved":false,"is_disabled":false,"rental_uris":{"android":"levelo://app?vid=a748206f-ace3-493e-962a-3c340c90637c","ios":"levelo://app?vid=a748206f-ace3-493e-962a-3c340c90637c"},"vehicle_type_id":"4","last_reported":1707376072,"current_range_meters":22400,"station_id":"ce4bh0p2rcd13ifvqd80","pricing_plan_id":"free"},{"bike_id":"5827ae2c-f02a-4941-b493-a14bd81962fd","system_id":"levelo_inurba_marseille","lat":43.305994,"lon":5.393687,"is_reserved":false,"is_disabled":false,"rental_uris":{"android":"levelo://app?vid=5827ae2c-f02a-4941-b493-a14bd81962fd","ios":"levelo://app?vid=5827ae2c-f02a-4941-b493-a14bd81962fd"},"vehicle_type_id":"4","last_reported":1707376072,"current_range_meters":20800,"station_id":"ce4bh0p2rcd13ifvqd80","pricing_plan_id":"free"},{"bike_id":"d76569c9-fe00-4e5a-b072-039d8c13b628","system_id":"levelo_inurba_marseille","lat":43.305994,"lon":5.393687,"is_reserved":false,"is_disabled":false,"rental_uris":{"android":"levelo://app?vid=d76569c9-fe00-4e5a-b072-039d8c13b628","ios":"levelo://app?vid=d76569c9-fe00-4e5a-b072-039d8c13b628"},"vehicle_type_id":"4","last_reported":1707376072,"current_range_meters":25200,"station_id":"ce4bh0p2rcd13ifvqd80","pricing_plan_id":"free"},{"bike_id":"4439aa78-fe00-47c7-9564-d257a6922d4c","system_id":"levelo_inurba_marseille","lat":43.292311,"lon":5.360731,"is_reserved":false,"is_disabled":false,"rental_uris":{"android":"levelo://app?vid=4439aa78-fe00-47c7-9564-d257a6922d4c","ios":"levelo://app?vid=4439aa78-fe00-47c7-9564-d257a6922d4c"},"vehicle_type_id":"4","last_reported":1707376072,"current_range_meters":0,"station_id":"ce4bhbh2rcd13ifvqeqg","pricing_plan_id":"free"},{"bike_id":"a3cbbaf7-9efd-4fae-8c9c-ab3f50b89f37","system_id":"levelo_inurba_marseille","lat":43.29227,"lon":5.36059,"is_reserved":false,"is_disabled":false,"rental_uris":{"android":"levelo://app?vid=a3cbbaf7-9efd-4fae-8c9c-ab3f50b89f37","ios":"levelo://app?vid=a3cbbaf7-9efd-4fae-8c9c-ab3f50b89f37"},"vehicle_type_id":"4","last_reported":1707376072,"current_range_meters":13600,"station_id":"ce4bhbh2rcd13ifvqeqg","pricing_plan_id":"free"},{"bike_id":"17b0492d-bc12-4104-92c8-8b2ecb967342","system_id":"levelo_inurba_marseille","lat":43.292311,"lon":5.360731,"is_reserved":false,"is_disabled":false,"rental_uris":{"android":"levelo://app?vid=17b0492d-bc12-4104-92c8-8b2ecb967342","ios":"levelo://app?vid=17b0492d-bc12-4104-92c8-8b2ecb967342"},"vehicle_type_id":"4","last_reported":1707376072,"current_range_meters":17600,"station_id":"ce4bhbh2rcd13ifvqeqg","pricing_plan_id":"free"},{"bike_id":"4fd8ed16-247e-46ac-ad60-c940c5aa7a6a","system_id":"levelo_inurba_marseille","lat":43.29225,"lon":5.36065,"is_reserved":false,"is_disabled":false,"rental_uris":{"android":"levelo://app?vid=4fd8ed16-247e-46ac-ad60-c940c5aa7a6a","ios":"levelo://app?vid=4fd8ed16-247e-46ac-ad60-c940c5aa7a6a"},"vehicle_type_id":"4","last_reported":1707376072,"current_range_meters":28000,"station_id":"ce4bhbh2rcd13ifvqeqg","pricing_plan_id":"free"},{"bike_id":"08cd87a2-2694-4ece-8fc3-3e6c69919d7c","system_id":"levelo_inurba_marseille","lat":43.292311,"lon":5.360731,"is_reserved":false,"is_disabled":false,"rental_uris":{"android":"levelo://app?vid=08cd87a2-2694-4ece-8fc3-3e6c69919d7c","ios":"levelo://app?vid=08cd87a2-2694-4ece-8fc3-3e6c69919d7c"},"vehicle_type_id":"4","last_reported":1707376072,"current_range_meters":26400,"station_id":"ce4bhbh2rcd13ifvqeqg","pricing_plan_id":"free"},{"bike_id":"12835e54-73ec-41fd-b772-20fac025e404","system_id":"levelo_inurba_marseille","lat":43.292311,"lon":5.360731,"is_reserved":false,"is_disabled":false,"rental_uris":{"android":"levelo://app?vid=12835e54-73ec-41fd-b772-20fac025e404","ios":"levelo://app?vid=12835e54-73ec-41fd-b772-20fac025e404"},"vehicle_type_id":"4","last_reported":1707376072,"current_range_meters":11200,"station_id":"ce4bhbh2rcd13ifvqeqg","pricing_plan_id":"free"},{"bike_id":"f8242733-a00c-4c6f-97da-a1fadbef41e7","system_id":"levelo_inurba_marseille","lat":43.298764,"lon":5.388973,"is_reserved":false,"is_disabled":false,"rental_uris":{"android":"levelo://app?vid=f8242733-a00c-4c6f-97da-a1fadbef41e7","ios":"levelo://app?vid=f8242733-a00c-4c6f-97da-a1fadbef41e7"},"vehicle_type_id":"4","last_reported":1707376072,"current_range_meters":26400,"station_id":"ce4bh392rcd13ifvqdl0","pricing_plan_id":"free"},{"bike_id":"3421bd0a-fb69-47fe-80d5-c8c74a188917","system_id":"levelo_inurba_marseille","lat":43.298764,"lon":5.388973,"is_reserved":false,"is_disabled":false,"rental_uris":{"android":"levelo://app?vid=3421bd0a-fb69-47fe-80d5-c8c74a188917","ios":"levelo://app?vid=3421bd0a-fb69-47fe-80d5-c8c74a188917"},"vehicle_type_id":"4","last_reported":1707376072,"current_range_meters":31600,"station_id":"ce4bh392rcd13ifvqdl0","pricing_plan_id":"free"},{"bike_id":"8d28ee92-21e7-4457-a194-7dee2d2636e6","system_id":"levelo_inurba_marseille","lat":43.291994,"lon":5.357886,"is_reserved":false,"is_disabled":false,"rental_uris":{"android":"levelo://app?vid=8d28ee92-21e7-4457-a194-7dee2d2636e6","ios":"levelo://app?vid=8d28ee92-21e7-4457-a194-7dee2d2636e6"},"vehicle_type_id":"4","last_reported":1707376072,"current_range_meters":31200,"station_id":"ce4bhb12rcd13ifvqel0","pricing_plan_id":"free"},{"bike_id":"c522e384-33f4-4712-a52c-9ba65fe63c49","system_id":"levelo_inurba_marseille","lat":43.309038,"lon":5.396546,"is_reserved":false,"is_disabled":false,"rental_uris":{"android":"levelo://app?vid=c522e384-33f4-4712-a52c-9ba65fe63c49","ios":"levelo://app?vid=c522e384-33f4-4712-a52c-9ba65fe63c49"},"vehicle_type_id":"4","last_reported":1707376072,"current_range_meters":31600,"station_id":"ce4bh012rcd13ifvqcv0","pricing_plan_id":"free"},{"bike_id":"670ef743-7e2e-43f4-82d3-cbd2f89370c0","system_id":"levelo_inurba_marseille","lat":43.309038,"lon":5.396546,"is_reserved":false,"is_disabled":false,"rental_uris":{"android":"levelo://app?vid=670ef743-7e2e-43f4-82d3-cbd2f89370c0","ios":"levelo://app?vid=670ef743-7e2e-43f4-82d3-cbd2f89370c0"},"vehicle_type_id":"4","last_reported":1707376072,"current_range_meters":30800,"station_id":"ce4bh012rcd13ifvqcv0","pricing_plan_id":"free"},{"bike_id":"941c74bd-ad54-4774-a96e-320b07d6fc6c","system_id":"levelo_inurba_marseille","lat":43.291864,"lon":5.358071,"is_reserved":false,"is_disabled":false,"rental_uris":{"android":"levelo://app?vid=941c74bd-ad54-4774-a96e-320b07d6fc6c","ios":"levelo://app?vid=941c74bd-ad54-4774-a96e-320b07d6fc6c"},"vehicle_type_id":"4","last_reported":1707376072,"current_range_meters":8800,"station_id":"ce4bhb12rcd13ifvqel0","pricing_plan_id":"free"},{"bike_id":"1208384b-28cd-48eb-885b-5275ed2d1258","system_id":"levelo_inurba_marseille","lat":43.309038,"lon":5.396546,"is_reserved":false,"is_disabled":false,"rental_uris":{"android":"levelo://app?vid=1208384b-28cd-48eb-885b-5275ed2d1258","ios":"levelo://app?vid=1208384b-28cd-48eb-885b-5275ed2d1258"},"vehicle_type_id":"4","last_reported":1707376072,"current_range_meters":26000,"station_id":"ce4bh012rcd13ifvqcv0","pricing_plan_id":"free"},{"bike_id":"a2ebf09c-3d6c-4125-b4f3-f0768691e011","system_id":"levelo_inurba_marseille","lat":43.291829,"lon":5.357991,"is_reserved":false,"is_disabled":false,"rental_uris":{"android":"levelo://app?vid=a2ebf09c-3d6c-4125-b4f3-f0768691e011","ios":"levelo://app?vid=a2ebf09c-3d6c-4125-b4f3-f0768691e011"},"vehicle_type_id":"4","last_reported":1707376072,"current_range_meters":800,"station_id":"ce4bhb12rcd13ifvqel0","pricing_plan_id":"free"},{"bike_id":"dcec8aa4-69c5-42e5-b388-5df5637dcad2","system_id":"levelo_inurba_marseille","lat":43.3089,"lon":5.39656,"is_reserved":false,"is_disabled":false,"rental_uris":{"android":"levelo://app?vid=dcec8aa4-69c5-42e5-b388-5df5637dcad2","ios":"levelo://app?vid=dcec8aa4-69c5-42e5-b388-5df5637dcad2"},"vehicle_type_id":"4","last_reported":1707376072,"current_range_meters":27200,"station_id":"","pricing_plan_id":"free"},{"bike_id":"8ec5bdd7-00f7-4116-b8e1-a22ad9b50462","system_id":"levelo_inurba_marseille","lat":43.29884,"lon":5.3903,"is_reserved":false,"is_disabled":false,"rental_uris":{"android":"levelo://app?vid=8ec5bdd7-00f7-4116-b8e1-a22ad9b50462","ios":"levelo://app?vid=8ec5bdd7-00f7-4116-b8e1-a22ad9b50462"},"vehicle_type_id":"4","last_reported":1707376072,"current_range_meters":1600,"station_id":"","pricing_plan_id":"free"},{"bike_id":"6dff9a63-05d5-4f8b-8a8d-3eaa9ade624b","system_id":"levelo_inurba_marseille","lat":43.29529,"lon":5.385581,"is_reserved":false,"is_disabled":false,"rental_uris":{"android":"levelo://app?vid=6dff9a63-05d5-4f8b-8a8d-3eaa9ade624b","ios":"levelo://app?vid=6dff9a63-05d5-4f8b-8a8d-3eaa9ade624b"},"vehicle_type_id":"4","last_reported":1707376072,"current_range_meters":26400,"station_id":"ce4bgih2rcd13ifvqba0","pricing_plan_id":"free"},{"bike_id":"ca86c228-50dc-4ebb-b3d0-864bc3e3b17a","system_id":"levelo_inurba_marseille","lat":43.2901,"lon":5.381269,"is_reserved":false,"is_disabled":false,"rental_uris":{"android":"levelo://app?vid=ca86c228-50dc-4ebb-b3d0-864bc3e3b17a","ios":"levelo://app?vid=ca86c228-50dc-4ebb-b3d0-864bc3e3b17a"},"vehicle_type_id":"4","last_reported":1707376072,"current_range_meters":22800,"station_id":"ce4bh4p2rcd13ifvqe1g","pricing_plan_id":"free"},{"bike_id":"e33025f2-8592-4c87-ae9d-e9338cc9bd19","system_id":"levelo_inurba_marseille","lat":43.302008,"lon":5.394694,"is_reserved":false,"is_disabled":false,"rental_uris":{"android":"levelo://app?vid=e33025f2-8592-4c87-ae9d-e9338cc9bd19","ios":"levelo://app?vid=e33025f2-8592-4c87-ae9d-e9338cc9bd19"},"vehicle_type_id":"4","last_reported":1707376072,"current_range_meters":28000,"station_id":"ce4bh0p2rcd13ifvqd70","pricing_plan_id":"free"},{"bike_id":"16e30c40-f1fa-4500-b59f-27ec4bb13718","system_id":"levelo_inurba_marseille","lat":43.302008,"lon":5.394694,"is_reserved":false,"is_disabled":false,"rental_uris":{"android":"levelo://app?vid=16e30c40-f1fa-4500-b59f-27ec4bb13718","ios":"levelo://app?vid=16e30c40-f1fa-4500-b59f-27ec4bb13718"},"vehicle_type_id":"4","last_reported":1707376072,"current_range_meters":16400,"station_id":"ce4bh0p2rcd13ifvqd70","pricing_plan_id":"free"},{"bike_id":"0ba421f9-f305-4af3-96ff-332ea0dbb2ad","system_id":"levelo_inurba_marseille","lat":43.302008,"lon":5.394694,"is_reserved":false,"is_disabled":false,"rental_uris":{"android":"levelo://app?vid=0ba421f9-f305-4af3-96ff-332ea0dbb2ad","ios":"levelo://app?vid=0ba421f9-f305-4af3-96ff-332ea0dbb2ad"},"vehicle_type_id":"4","last_reported":1707376072,"current_range_meters":18400,"station_id":"ce4bh0p2rcd13ifvqd70","pricing_plan_id":"free"},{"bike_id":"e07d57d8-7acf-4301-982d-dd6b934dd67a","system_id":"levelo_inurba_marseille","lat":43.302008,"lon":5.394694,"is_reserved":false,"is_disabled":false,"rental_uris":{"android":"levelo://app?vid=e07d57d8-7acf-4301-982d-dd6b934dd67a","ios":"levelo://app?vid=e07d57d8-7acf-4301-982d-dd6b934dd67a"},"vehicle_type_id":"4","last_reported":1707376072,"current_range_meters":24400,"station_id":"ce4bh0p2rcd13ifvqd70","pricing_plan_id":"free"},{"bike_id":"60a7ca0b-3232-4d3a-a1e1-e689864f329e","system_id":"levelo_inurba_marseille","lat":43.302008,"lon":5.394694,"is_reserved":false,"is_disabled":false,"rental_uris":{"android":"levelo://app?vid=60a7ca0b-3232-4d3a-a1e1-e689864f329e","ios":"levelo://app?vid=60a7ca0b-3232-4d3a-a1e1-e689864f329e"},"vehicle_type_id":"4","last_reported":1707376072,"current_range_meters":28400,"station_id":"ce4bh0p2rcd13ifvqd70","pricing_plan_id":"free"},{"bike_id":"476fee6e-004f-4066-8091-621d229b65b5","system_id":"levelo_inurba_marseille","lat":43.302008,"lon":5.394694,"is_reserved":false,"is_disabled":false,"rental_uris":{"android":"levelo://app?vid=476fee6e-004f-4066-8091-621d229b65b5","ios":"levelo://app?vid=476fee6e-004f-4066-8091-621d229b65b5"},"vehicle_type_id":"4","last_reported":1707376072,"current_range_meters":0,"station_id":"ce4bh0p2rcd13ifvqd70","pricing_plan_id":"free"},{"bike_id":"7ec918ad-e515-4a84-8ad4-e8d4b3851ec2","system_id":"levelo_inurba_marseille","lat":43.29498,"lon":5.38673,"is_reserved":false,"is_disabled":false,"rental_uris":{"android":"levelo://app?vid=7ec918ad-e515-4a84-8ad4-e8d4b3851ec2","ios":"levelo://app?vid=7ec918ad-e515-4a84-8ad4-e8d4b3851ec2"},"vehicle_type_id":"4","last_reported":1707376072,"current_range_meters":20800,"station_id":"","pricing_plan_id":"free"},{"bike_id":"47827bae-d29d-4a45-a6ac-1acefd8fe9fe","system_id":"levelo_inurba_marseille","lat":43.290624,"lon":5.359245,"is_reserved":false,"is_disabled":false,"rental_uris":{"android":"levelo://app?vid=47827bae-d29d-4a45-a6ac-1acefd8fe9fe","ios":"levelo://app?vid=47827bae-d29d-4a45-a6ac-1acefd8fe9fe"},"vehicle_type_id":"4","last_reported":1707376072,"current_range_meters":30400,"station_id":"ce4bha92rcd13ifvqeg0","pricing_plan_id":"free"},{"bike_id":"6b9755d7-e339-4a5e-9ad9-53fed7a6b3cb","system_id":"levelo_inurba_marseille","lat":43.289468,"lon":5.363719,"is_reserved":false,"is_disabled":false,"rental_uris":{"android":"levelo://app?vid=6b9755d7-e339-4a5e-9ad9-53fed7a6b3cb","ios":"levelo://app?vid=6b9755d7-e339-4a5e-9ad9-53fed7a6b3cb"},"vehicle_type_id":"4","last_reported":1707376072,"current_range_meters":31200,"station_id":"ce4bhc92rcd13ifvqetg","pricing_plan_id":"free"},{"bike_id":"6e40bfeb-cd5c-49fa-9177-a80195aadcb2","system_id":"levelo_inurba_marseille","lat":43.289184,"lon":5.366408,"is_reserved":false,"is_disabled":false,"rental_uris":{"android":"levelo://app?vid=6e40bfeb-cd5c-49fa-9177-a80195aadcb2","ios":"levelo://app?vid=6e40bfeb-cd5c-49fa-9177-a80195aadcb2"},"vehicle_type_id":"4","last_reported":1707376072,"current_range_meters":22400,"station_id":"ce4bhap2rcd13ifvqek0","pricing_plan_id":"free"},{"bike_id":"1fbf54c3-b677-4da3-9483-a25d91d93bd7","system_id":"levelo_inurba_marseille","lat":43.289184,"lon":5.366408,"is_reserved":false,"is_disabled":false,"rental_uris":{"android":"levelo://app?vid=1fbf54c3-b677-4da3-9483-a25d91d93bd7","ios":"levelo://app?vid=1fbf54c3-b677-4da3-9483-a25d91d93bd7"},"vehicle_type_id":"4","last_reported":1707376072,"current_range_meters":30000,"station_id":"ce4bhap2rcd13ifvqek0","pricing_plan_id":"free"},{"bike_id":"0628374e-acbe-4760-9fb7-208b4133b709","system_id":"levelo_inurba_marseille","lat":43.289468,"lon":5.363719,"is_reserved":false,"is_disabled":false,"rental_uris":{"android":"levelo://app?vid=0628374e-acbe-4760-9fb7-208b4133b709","ios":"levelo://app?vid=0628374e-acbe-4760-9fb7-208b4133b709"},"vehicle_type_id":"4","last_reported":1707376072,"current_range_meters":21200,"station_id":"ce4bhc92rcd13ifvqetg","pricing_plan_id":"free"},{"bike_id":"13e3c4ae-956a-44aa-90a1-de84504c3d76","system_id":"levelo_inurba_marseille","lat":43.289184,"lon":5.366408,"is_reserved":false,"is_disabled":false,"rental_uris":{"android":"levelo://app?vid=13e3c4ae-956a-44aa-90a1-de84504c3d76","ios":"levelo://app?vid=13e3c4ae-956a-44aa-90a1-de84504c3d76"},"vehicle_type_id":"4","last_reported":1707376072,"current_range_meters":20400,"station_id":"ce4bhap2rcd13ifvqek0","pricing_plan_id":"free"},{"bike_id":"d9adc15c-b93b-49d1-ac3c-50d713f8f9ed","system_id":"levelo_inurba_marseille","lat":43.289425,"lon":5.36396,"is_reserved":false,"is_disabled":false,"rental_uris":{"android":"levelo://app?vid=d9adc15c-b93b-49d1-ac3c-50d713f8f9ed","ios":"levelo://app?vid=d9adc15c-b93b-49d1-ac3c-50d713f8f9ed"},"vehicle_type_id":"4","last_reported":1707376072,"current_range_meters":30000,"station_id":"ce4bhc92rcd13ifvqetg","pricing_plan_id":"free"},{"bike_id":"2099ffc5-3307-4baf-b1bb-910694d1e7ba","system_id":"levelo_inurba_marseille","lat":43.289184,"lon":5.366408,"is_reserved":false,"is_disabled":false,"rental_uris":{"android":"levelo://app?vid=2099ffc5-3307-4baf-b1bb-910694d1e7ba","ios":"levelo://app?vid=2099ffc5-3307-4baf-b1bb-910694d1e7ba"},"vehicle_type_id":"4","last_reported":1707376072,"current_range_meters":28000,"station_id":"ce4bhap2rcd13ifvqek0","pricing_plan_id":"free"},{"bike_id":"147c5320-588d-43f1-87f1-31f28d0a4799","system_id":"levelo_inurba_marseille","lat":43.3043,"lon":5.39741,"is_reserved":false,"is_disabled":false,"rental_uris":{"android":"levelo://app?vid=147c5320-588d-43f1-87f1-31f28d0a4799","ios":"levelo://app?vid=147c5320-588d-43f1-87f1-31f28d0a4799"},"vehicle_type_id":"4","last_reported":1707376072,"current_range_meters":13600,"station_id":"","pricing_plan_id":"free"},{"bike_id":"c36b2376-5801-4404-9474-0c6d2a969c5c","system_id":"levelo_inurba_marseille","lat":43.304274,"lon":5.397513,"is_reserved":false,"is_disabled":false,"rental_uris":{"android":"levelo://app?vid=c36b2376-5801-4404-9474-0c6d2a969c5c","ios":"levelo://app?vid=c36b2376-5801-4404-9474-0c6d2a969c5c"},"vehicle_type_id":"4","last_reported":1707376072,"current_range_meters":24400,"station_id":"ce4bh092rcd13ifvqd20","pricing_plan_id":"free"},{"bike_id":"848229f6-446d-48df-8ed0-07a067c23cae","system_id":"levelo_inurba_marseille","lat":43.290103,"lon":5.356114,"is_reserved":false,"is_disabled":false,"rental_uris":{"android":"levelo://app?vid=848229f6-446d-48df-8ed0-07a067c23cae","ios":"levelo://app?vid=848229f6-446d-48df-8ed0-07a067c23cae"},"vehicle_type_id":"4","last_reported":1707376072,"current_range_meters":30400,"station_id":"ce4bhb92rcd13ifvqen0","pricing_plan_id":"free"},{"bike_id":"33e11670-3c50-4de6-9ea4-95c6a792c4ea","system_id":"levelo_inurba_marseille","lat":43.290103,"lon":5.356114,"is_reserved":false,"is_disabled":false,"rental_uris":{"android":"levelo://app?vid=33e11670-3c50-4de6-9ea4-95c6a792c4ea","ios":"levelo://app?vid=33e11670-3c50-4de6-9ea4-95c6a792c4ea"},"vehicle_type_id":"4","last_reported":1707376072,"current_range_meters":31600,"station_id":"ce4bhb92rcd13ifvqen0","pricing_plan_id":"free"},{"bike_id":"e3b9aa30-2647-46b2-b5b7-95e893c8f3b0","system_id":"levelo_inurba_marseille","lat":43.290042,"lon":5.35607,"is_reserved":false,"is_disabled":false,"rental_uris":{"android":"levelo://app?vid=e3b9aa30-2647-46b2-b5b7-95e893c8f3b0","ios":"levelo://app?vid=e3b9aa30-2647-46b2-b5b7-95e893c8f3b0"},"vehicle_type_id":"4","last_reported":1707376072,"current_range_meters":29600,"station_id":"ce4bhb92rcd13ifvqen0","pricing_plan_id":"free"},{"bike_id":"4289fc24-a0e0-4978-9607-0a6f88007d15","system_id":"levelo_inurba_marseille","lat":43.290104,"lon":5.356111,"is_reserved":false,"is_disabled":false,"rental_uris":{"android":"levelo://app?vid=4289fc24-a0e0-4978-9607-0a6f88007d15","ios":"levelo://app?vid=4289fc24-a0e0-4978-9607-0a6f88007d15"},"vehicle_type_id":"4","last_reported":1707376072,"current_range_meters":5600,"station_id":"ce4bhb92rcd13ifvqen0","pricing_plan_id":"free"},{"bike_id":"9bc86460-f133-494e-96d1-8db19a5a3fcf","system_id":"levelo_inurba_marseille","lat":43.290104,"lon":5.356111,"is_reserved":false,"is_disabled":false,"rental_uris":{"android":"levelo://app?vid=9bc86460-f133-494e-96d1-8db19a5a3fcf","ios":"levelo://app?vid=9bc86460-f133-494e-96d1-8db19a5a3fcf"},"vehicle_type_id":"4","last_reported":1707376072,"current_range_meters":32000,"station_id":"ce4bhb92rcd13ifvqen0","pricing_plan_id":"free"},{"bike_id":"983e5d93-f9cf-4847-aabd-7e375e3f3a77","system_id":"levelo_inurba_marseille","lat":43.290995,"lon":5.381361,"is_reserved":false,"is_disabled":false,"rental_uris":{"android":"levelo://app?vid=983e5d93-f9cf-4847-aabd-7e375e3f3a77","ios":"levelo://app?vid=983e5d93-f9cf-4847-aabd-7e375e3f3a77"},"vehicle_type_id":"4","last_reported":1707376072,"current_range_meters":22400,"station_id":"ce4bh512rcd13ifvqe2g","pricing_plan_id":"free"},{"bike_id":"69de7de9-bfd8-4617-93a4-0e489bcd7d66","system_id":"levelo_inurba_marseille","lat":43.290995,"lon":5.381361,"is_reserved":false,"is_disabled":false,"rental_uris":{"android":"levelo://app?vid=69de7de9-bfd8-4617-93a4-0e489bcd7d66","ios":"levelo://app?vid=69de7de9-bfd8-4617-93a4-0e489bcd7d66"},"vehicle_type_id":"4","last_reported":1707376072,"current_range_meters":19200,"station_id":"ce4bh512rcd13ifvqe2g","pricing_plan_id":"free"},{"bike_id":"91a59bb4-5245-4c2e-a2e1-7ddd14d5faeb","system_id":"levelo_inurba_marseille","lat":43.289743,"lon":5.378304,"is_reserved":false,"is_disabled":false,"rental_uris":{"android":"levelo://app?vid=91a59bb4-5245-4c2e-a2e1-7ddd14d5faeb","ios":"levelo://app?vid=91a59bb4-5245-4c2e-a2e1-7ddd14d5faeb"},"vehicle_type_id":"4","last_reported":1707376072,"current_range_meters":24800,"station_id":"ce4bh9p2rcd13ifvqed0","pricing_plan_id":"free"},{"bike_id":"86f1131b-5df9-42d1-9c1c-daed3655d0c5","system_id":"levelo_inurba_marseille","lat":43.290995,"lon":5.381361,"is_reserved":false,"is_disabled":false,"rental_uris":{"android":"levelo://app?vid=86f1131b-5df9-42d1-9c1c-daed3655d0c5","ios":"levelo://app?vid=86f1131b-5df9-42d1-9c1c-daed3655d0c5"},"vehicle_type_id":"4","last_reported":1707376072,"current_range_meters":24400,"station_id":"ce4bh512rcd13ifvqe2g","pricing_plan_id":"free"},{"bike_id":"aa67bfe4-e9d1-4ca0-8c91-732c593402d0","system_id":"levelo_inurba_marseille","lat":43.289743,"lon":5.378304,"is_reserved":false,"is_disabled":false,"rental_uris":{"android":"levelo://app?vid=aa67bfe4-e9d1-4ca0-8c91-732c593402d0","ios":"levelo://app?vid=aa67bfe4-e9d1-4ca0-8c91-732c593402d0"},"vehicle_type_id":"4","last_reported":1707376072,"current_range_meters":19200,"station_id":"ce4bh9p2rcd13ifvqed0","pricing_plan_id":"free"},{"bike_id":"db11a1a4-129b-4f4b-b01d-08f19754f074","system_id":"levelo_inurba_marseille","lat":43.289741,"lon":5.378306,"is_reserved":false,"is_disabled":false,"rental_uris":{"android":"levelo://app?vid=db11a1a4-129b-4f4b-b01d-08f19754f074","ios":"levelo://app?vid=db11a1a4-129b-4f4b-b01d-08f19754f074"},"vehicle_type_id":"4","last_reported":1707376072,"current_range_meters":28400,"station_id":"ce4bh9p2rcd13ifvqed0","pricing_plan_id":"free"},{"bike_id":"6eabe077-2849-47a8-8abe-001d3af6a89b","system_id":"levelo_inurba_marseille","lat":43.33015,"lon":5.39037,"is_reserved":false,"is_disabled":false,"rental_uris":{"android":"levelo://app?vid=6eabe077-2849-47a8-8abe-001d3af6a89b","ios":"levelo://app?vid=6eabe077-2849-47a8-8abe-001d3af6a89b"},"vehicle_type_id":"4","last_reported":1707376072,"current_range_meters":30000,"station_id":"ce4bhr92rcd13ifvqhrg","pricing_plan_id":"free"},{"bike_id":"292b7074-f1db-467e-8ad2-0bb2e8306f5b","system_id":"levelo_inurba_marseille","lat":43.297774,"lon":5.393367,"is_reserved":false,"is_disabled":false,"rental_uris":{"android":"levelo://app?vid=292b7074-f1db-467e-8ad2-0bb2e8306f5b","ios":"levelo://app?vid=292b7074-f1db-467e-8ad2-0bb2e8306f5b"},"vehicle_type_id":"4","last_reported":1707376072,"current_range_meters":24800,"station_id":"chh1huq6cuj3fo74tm60","pricing_plan_id":"free"},{"bike_id":"d432315a-c86f-42be-839e-2aec43941741","system_id":"levelo_inurba_marseille","lat":43.33016,"lon":5.39037,"is_reserved":false,"is_disabled":false,"rental_uris":{"android":"levelo://app?vid=d432315a-c86f-42be-839e-2aec43941741","ios":"levelo://app?vid=d432315a-c86f-42be-839e-2aec43941741"},"vehicle_type_id":"4","last_reported":1707376072,"current_range_meters":18400,"station_id":"ce4bhr92rcd13ifvqhrg","pricing_plan_id":"free"},{"bike_id":"16b020b0-4d01-4f53-9930-892b5695a42b","system_id":"levelo_inurba_marseille","lat":43.289743,"lon":5.378304,"is_reserved":false,"is_disabled":false,"rental_uris":{"android":"levelo://app?vid=16b020b0-4d01-4f53-9930-892b5695a42b","ios":"levelo://app?vid=16b020b0-4d01-4f53-9930-892b5695a42b"},"vehicle_type_id":"4","last_reported":1707376072,"current_range_meters":32000,"station_id":"ce4bh9p2rcd13ifvqed0","pricing_plan_id":"free"},{"bike_id":"1196fb32-b9a1-4b52-acce-cc61e25ed67f","system_id":"levelo_inurba_marseille","lat":43.33017,"lon":5.39038,"is_reserved":false,"is_disabled":false,"rental_uris":{"android":"levelo://app?vid=1196fb32-b9a1-4b52-acce-cc61e25ed67f","ios":"levelo://app?vid=1196fb32-b9a1-4b52-acce-cc61e25ed67f"},"vehicle_type_id":"4","last_reported":1707376072,"current_range_meters":31200,"station_id":"ce4bhr92rcd13ifvqhrg","pricing_plan_id":"free"},{"bike_id":"62ca35d7-f049-4885-9fd9-beb6af1eb797","system_id":"levelo_inurba_marseille","lat":43.33021,"lon":5.39036,"is_reserved":false,"is_disabled":false,"rental_uris":{"android":"levelo://app?vid=62ca35d7-f049-4885-9fd9-beb6af1eb797","ios":"levelo://app?vid=62ca35d7-f049-4885-9fd9-beb6af1eb797"},"vehicle_type_id":"4","last_reported":1707376072,"current_range_meters":30000,"station_id":"ce4bhr92rcd13ifvqhrg","pricing_plan_id":"free"},{"bike_id":"b54844f1-0f37-4254-bb93-2455935b3cad","system_id":"levelo_inurba_marseille","lat":43.33024,"lon":5.39032,"is_reserved":false,"is_disabled":false,"rental_uris":{"android":"levelo://app?vid=b54844f1-0f37-4254-bb93-2455935b3cad","ios":"levelo://app?vid=b54844f1-0f37-4254-bb93-2455935b3cad"},"vehicle_type_id":"4","last_reported":1707376072,"current_range_meters":19600,"station_id":"ce4bhr92rcd13ifvqhrg","pricing_plan_id":"free"},{"bike_id":"ba7895df-fdf0-43d4-b40a-e7e64d29137d","system_id":"levelo_inurba_marseille","lat":43.330442,"lon":5.389148,"is_reserved":false,"is_disabled":false,"rental_uris":{"android":"levelo://app?vid=ba7895df-fdf0-43d4-b40a-e7e64d29137d","ios":"levelo://app?vid=ba7895df-fdf0-43d4-b40a-e7e64d29137d"},"vehicle_type_id":"4","last_reported":1707376072,"current_range_meters":14400,"station_id":"ce4bhr92rcd13ifvqhrg","pricing_plan_id":"free"},{"bike_id":"e66d35bb-3444-47f6-8a8e-aa756460f589","system_id":"levelo_inurba_marseille","lat":43.33019,"lon":5.39041,"is_reserved":false,"is_disabled":false,"rental_uris":{"android":"levelo://app?vid=e66d35bb-3444-47f6-8a8e-aa756460f589","ios":"levelo://app?vid=e66d35bb-3444-47f6-8a8e-aa756460f589"},"vehicle_type_id":"4","last_reported":1707376072,"current_range_meters":13200,"station_id":"ce4bhr92rcd13ifvqhrg","pricing_plan_id":"free"},{"bike_id":"3b1148a6-dcc2-4d9c-b598-be05542a9cae","system_id":"levelo_inurba_marseille","lat":43.330238,"lon":5.390348,"is_reserved":false,"is_disabled":false,"rental_uris":{"android":"levelo://app?vid=3b1148a6-dcc2-4d9c-b598-be05542a9cae","ios":"levelo://app?vid=3b1148a6-dcc2-4d9c-b598-be05542a9cae"},"vehicle_type_id":"4","last_reported":1707376072,"current_range_meters":20800,"station_id":"ce4bhr92rcd13ifvqhrg","pricing_plan_id":"free"},