{"last_updated":1721671840,"ttl":30,"version":"2.2","data":{"bikes":[{"bike_id":"a2610bec-28cf-4e46-bfa7-b619ea248969","system_id":"levelo_inurba_marseille","lat":43.31257,"lon":5.36767,"is_reserved":false,"is_disabled":false,"rental_uris":{"android":"levelo://app?vid=a2610bec-28cf-4e46-bfa7-b619ea248969","ios":"levelo://app?vid=a2610bec-28cf-4e46-bfa7-b619ea248969"},"vehicle_type_id":"4","last_reported":1721671840,"current_range_meters":11600,"station_id":"","pricing_plan_id":"cebpf4jnsgd1na2vs0mg"},{"bike_id":"d8671fde-6107-49b4-b807-9a36e4a66318","system_id":"levelo_inurba_marseille","lat":43.313391,"lon":5.36706,"is_reserved":false,"is_disabled":false,"rental_uris":{"android":"levelo://app?vid=d8671fde-6107-49b4-b807-9a36e4a66318","ios":"levelo://app?vid=d8671fde-6107-49b4-b807-9a36e4a66318"},"vehicle_type_id":"4","last_reported":1721671840,"current_range_meters":19200,"station_id":"ce4bgr92rcd13ifvqc6g","pricing_plan_id":"cebpf4jnsgd1na2vs0mg"},{"bike_id":"aa578223-1125-4641-9004-1787a3932e85","system_id":"levelo_inurba_marseille","lat":43.309034,"lon":5.371783,"is_reserved":false,"is_disabled":false,"rental_uris":{"android":"levelo://app?vid=aa578223-1125-4641-9004-1787a3932e85","ios":"levelo://app?vid=aa578223-1125-4641-9004-1787a3932e85"},"vehicle_type_id":"4","last_reported":1721671840,"current_range_meters":0,"station_id":"ce4bguh2rcd13ifvqckg","pricing_plan_id":"cebpf4jnsgd1na2vs0mg"},{"bike_id":"3719e2a1-d08c-4f72-b9e2-1715bfd585d2","system_id":"levelo_inurba_marseille","lat":43.305596,"lon":5.365807,"is_reserved":false,"is_disabled":false,"rental_uris":{"android":"levelo://app?vid=3719e2a1-d08c-4f72-b9e2-1715bfd585d2","ios":"levelo://app?vid=3719e2a1-d08c-4f72-b9e2-1715bfd585d2"},"vehicle_type_id":"4","last_reported":1721671840,"current_range_meters":2000,"station_id":"","pricing_plan_id":"cebpf4jnsgd1na2vs0mg"},{"bike_id":"0475fc04-30a6-4927-99f5-1b025aeece76","system_id":"levelo_inurba_marseille","lat":43.31564,"lon":5.376464,"is_reserved":false,"is_disabled":false,"rental_uris":{"android":"levelo://app?vid=0475fc04-30a6-4927-99f5-1b025aeece76","ios":"levelo://app?vid=0475fc04-30a6-4927-99f5-1b025aeece76"},"vehicle_type_id":"4","last_reported":1721671840,"current_range_meters":3200,"station_id":"","pricing_plan_id":"cebpf4jnsgd1na2vs0mg"},{"bike_id":"f412971c-23fe-4a87-a962-03023ce9277e","system_id":"levelo_inurba_marseille","lat":43.30777,"lon":5.37474,"is_reserved":false,"is_disabled":false,"rental_uris":{"android":"levelo://app?vid=f412971c-23fe-4a87-a962-03023ce9277e","ios":"levelo://app?vid=f412971c-23fe-4a87-a962-03023ce9277e"},"vehicle_type_id":"4","last_reported":1721671840,"current_range_meters":31200,"station_id":"","pricing_plan_id":"cebpf4jnsgd1na2vs0mg"},{"bike_id":"b1782258-075e-4693-9259-5a9c5b75b074","system_id":"levelo_inurba_marseille","lat":43.305989,"lon":5.37225,"is_reserved":false,"is_disabled":false,"rental_uris":{"android":"levelo://app?vid=b1782258-075e-4693-9259-5a9c5b75b074","ios":"levelo://app?vid=b1782258-075e-4693-9259-5a9c5b75b074"},"vehicle_type_id":"4","last_reported":1721671840,"current_range_meters":17600,"station_id":"ce4bgqh2rcd13ifvqc4g","pricing_plan_id":"cebpf4jnsgd1na2vs0mg"},{"bike_id":"f0cfcaa2-db56-43f3-b6b9-7f9f5dabb4af","system_id":"levelo_inurba_marseille","lat":43.305989,"lon":5.37225,"is_reserved":false,"is_disabled":false,"rental_uris":{"android":"levelo://app?vid=f0cfcaa2-db56-43f3-b6b9-7f9f5dabb4af","ios":"levelo://app?vid=f0cfcaa2-db56-43f3-b6b9-7f9f5dabb4af"},"vehicle_type_id":"4","last_reported":1721671840,"current_range_meters":7600,"station_id":"ce4bgqh2rcd13ifvqc4g","pricing_plan_id":"cebpf4jnsgd1na2vs0mg"},{"bike_id":"da5ba2a8-4047-4364-bba4-fdb40906a181","system_id":"levelo_inurba_marseille","lat":43.30595,"lon":5.37234,"is_reserved":false,"is_disabled":false,"rental_uris":{"android":"levelo://app?vid=da5ba2a8-4047-4364-bba4-fdb40906a181","ios":"levelo://app?vid=da5ba2a8-4047-4364-bba4-fdb40906a181"},"vehicle_type_id":"4","last_reported":1721671840,"current_range_meters":15200,"station_id":"ce4bgqh2rcd13ifvqc4g","pricing_plan_id":"cebpf4jnsgd1na2vs0mg"},{"bike_id":"df68f7a4-e42a-4c82-9f53-43976d7f4256","system_id":"levelo_inurba_marseille","lat":43.305368,"lon":5.367343,"is_reserved":false,"is_disabled":false,"rental_uris":{"android":"levelo://app?vid=df68f7a4-e42a-4c82-9f53-43976d7f4256","ios":"levelo://app?vid=df68f7a4-e42a-4c82-9f53-43976d7f4256"},"vehicle_type_id":"4","last_reported":1721671840,"current_range_meters":0,"station_id":"ce4bgrp2rcd13ifvqc9g","pricing_plan_id":"cebpf4jnsgd1na2vs0mg"},{"bike_id":"935debec-bc12-4685-a241-6ade3b71bec0","system_id":"levelo_inurba_marseille","lat":43.31142,"lon":5.37994,"is_reserved":false,"is_disabled":false,"rental_uris":{"android":"levelo://app?vid=935debec-bc12-4685-a241-6ade3b71bec0","ios":"levelo://app?vid=935debec-bc12-4685-a241-6ade3b71bec0"},"vehicle_type_id":"4","last_reported":1721671840,"current_range_meters":4000,"station_id":"","pricing_plan_id":"cebpf4jnsgd1na2vs0mg"},{"bike_id":"afbc9676-b536-4d4a-acbe-48a1641ecc8d","system_id":"levelo_inurba_marseille","lat":43.315323,"lon":5.38042,"is_reserved":false,"is_disabled":false,"rental_uris":{"android":"levelo://app?vid=afbc9676-b536-4d4a-acbe-48a1641ecc8d","ios":"levelo://app?vid=afbc9676-b536-4d4a-acbe-48a1641ecc8d"},"vehicle_type_id":"4","last_reported":1721671840,"current_range_meters":1200,"station_id":"ce4bhsp2rcd13ifvqi50","pricing_plan_id":"cebpf4jnsgd1na2vs0mg"},{"bike_id":"1283e0a3-ed2f-4d23-a97a-b8bedca354bd","system_id":"levelo_inurba_marseille","lat":43.301939,"lon":5.366286,"is_reserved":false,"is_disabled":false,"rental_uris":{"android":"levelo://app?vid=1283e0a3-ed2f-4d23-a97a-b8bedca354bd","ios":"levelo://app?vid=1283e0a3-ed2f-4d23-a97a-b8bedca354bd"},"vehicle_type_id":"4","last_reported":1721671840,"current_range_meters":0,"station_id":"ce4bgrh2rcd13ifvqc8g","pricing_plan_id":"cebpf4jnsgd1na2vs0mg"},{"bike_id":"286b9fcd-94f1-44f1-ae65-6d626f1aae00","system_id":"levelo_inurba_marseille","lat":43.308012,"lon":5.381511,"is_reserved":false,"is_disabled":false,"rental_uris":{"android":"levelo://app?vid=286b9fcd-94f1-44f1-ae65-6d626f1aae00","ios":"levelo://app?vid=286b9fcd-94f1-44f1-ae65-6d626f1aae00"},"vehicle_type_id":"4","last_reported":1721671840,"current_range_meters":0,"station_id":"ce4bgt12rcd13ifvqce0","pricing_plan_id":"cebpf4jnsgd1na2vs0mg"},{"bike_id":"97272dd1-52b9-47a4-bf9a-344ea2ff188f","system_id":"levelo_inurba_marseille","lat":43.308012,"lon":5.381511,"is_reserved":false,"is_disabled":false,"rental_uris":{"android":"levelo://app?vid=97272dd1-52b9-47a4-bf9a-344ea2ff188f","ios":"levelo://app?vid=97272dd1-52b9-47a4-bf9a-344ea2ff188f"},"vehicle_type_id":"4","last_reported":1721671840,"current_range_meters":6000,"station_id":"ce4bgt12rcd13ifvqce0","pricing_plan_id":"cebpf4jnsgd1na2vs0mg"},{"bike_id":"55a14ea6-0cf3-48f0-ad3c-83aee248e23f","system_id":"levelo_inurba_marseille","lat":43.304606,"lon":5.379026,"is_reserved":false,"is_disabled":false,"rental_uris":{"android":"levelo://app?vid=55a14ea6-0cf3-48f0-ad3c-83aee248e23f","ios":"levelo://app?vid=55a14ea6-0cf3-48f0-ad3c-83aee248e23f"},"vehicle_type_id":"4","last_reported":1721671840,"current_range_meters":0,"station_id":"ce4bgup2rcd13ifvqcn0","pricing_plan_id":"cebpf4jnsgd1na2vs0mg"},{"bike_id":"383a67b4-d852-49d8-8d6a-ee1ecb44a164","system_id":"levelo_inurba_marseille","lat":43.324771,"lon":5.36557,"is_reserved":false,"is_disabled":false,"rental_uris":{"android":"levelo://app?vid=383a67b4-d852-49d8-8d6a-ee1ecb44a164","ios":"levelo://app?vid=383a67b4-d852-49d8-8d6a-ee1ecb44a164"},"vehicle_type_id":"4","last_reported":1721671840,"current_range_meters":31200,"station_id":"ce4bhs12rcd13ifvqhvg","pricing_plan_id":"cebpf4jnsgd1na2vs0mg"},{"bike_id":"1f4533b3-e703-403a-b03b-cd00a38d2954","system_id":"levelo_inurba_marseille","lat":43.324884,"lon":5.365826,"is_reserved":false,"is_disabled":false,"rental_uris":{"android":"levelo://app?vid=1f4533b3-e703-403a-b03b-cd00a38d2954","ios":"levelo://app?vid=1f4533b3-e703-403a-b03b-cd00a38d2954"},"vehicle_type_id":"4","last_reported":1721671840,"current_range_meters":30400,"station_id":"ce4bhs12rcd13ifvqhvg","pricing_plan_id":"cebpf4jnsgd1na2vs0mg"},{"bike_id":"9c67fd1e-1fa8-4eac-91b6-930c8d56f14b","system_id":"levelo_inurba_marseille","lat":43.310804,"lon":5.38359,"is_reserved":false,"is_disabled":false,"rental_uris":{"android":"levelo://app?vid=9c67fd1e-1fa8-4eac-91b6-930c8d56f14b","ios":"levelo://app?vid=9c67fd1e-1fa8-4eac-91b6-930c8d56f14b"},"vehicle_type_id":"4","last_reported":1721671840,"current_range_meters":4400,"station_id":"ce4bgv92rcd13ifvqcr0","pricing_plan_id":"cebpf4jnsgd1na2vs0mg"},{"bike_id":"5ca19d10-6e61-402f-bf45-d88723c1f204","system_id":"levelo_inurba_marseille","lat":43.30143,"lon":5.37413,"is_reserved":false,"is_disabled":false,"rental_uris":{"android":"levelo://app?vid=5ca19d10-6e61-402f-bf45-d88723c1f204","ios":"levelo://app?vid=5ca19d10-6e61-402f-bf45-d88723c1f204"},"vehicle_type_id":"4","last_reported":1721671840,"current_range_meters":8400,"station_id":"ce4bgs92rcd13ifvqcc0","pricing_plan_id":"cebpf4jnsgd1na2vs0mg"},{"bike_id":"9d58747a-4018-4b03-b208-1e2af2731497","system_id":"levelo_inurba_marseille","lat":43.30143,"lon":5.37413,"is_reserved":false,"is_disabled":false,"rental_uris":{"android":"levelo://app?vid=9d58747a-4018-4b03-b208-1e2af2731497","ios":"levelo://app?vid=9d58747a-4018-4b03-b208-1e2af2731497"},"vehicle_type_id":"4","last_reported":1721671840,"current_range_meters":13600,"station_id":"ce4bgs92rcd13ifvqcc0","pricing_plan_id":"cebpf4jnsgd1na2vs0mg"},{"bike_id":"2adfee55-5c2b-4d21-a521-4854ccad155c","system_id":"levelo_inurba_marseille","lat":43.30143,"lon":5.37413,"is_reserved":false,"is_disabled":false,"rental_uris":{"android":"levelo://app?vid=2adfee55-5c2b-4d21-a521-4854ccad155c","ios":"levelo://app?vid=2adfee55-5c2b-4d21-a521-4854ccad155c"},"vehicle_type_id":"4","last_reported":1721671840,"current_range_meters":29200,"station_id":"ce4bgs92rcd13ifvqcc0","pricing_plan_id":"cebpf4jnsgd1na2vs0mg"},{"bike_id":"3b87ed4a-9f87-48d8-8021-fc31eb498e84","system_id":"levelo_inurba_marseille","lat":43.301429,"lon":5.37413,"is_reserved":false,"is_disabled":false,"rental_uris":{"android":"levelo://app?vid=3b87ed4a-9f87-48d8-8021-fc31eb498e84","ios":"levelo://app?vid=3b87ed4a-9f87-48d8-8021-fc31eb498e84"},"vehicle_type_id":"4","last_reported":1721671840,"current_range_meters":18400,"station_id":"ce4bgs92rcd13ifvqcc0","pricing_plan_id":"cebpf4jnsgd1na2vs0mg"},{"bike_id":"b22c3d17-4d38-4800-bf69-927bb72ae759","system_id":"levelo_inurba_marseille","lat":43.30606,"lon":5.38209,"is_reserved":false,"is_disabled":false,"rental_uris":{"android":"levelo://app?vid=b22c3d17-4d38-4800-bf69-927bb72ae759","ios":"levelo://app?vid=b22c3d17-4d38-4800-bf69-927bb72ae759"},"vehicle_type_id":"4","last_reported":1721671840,"current_range_meters":26000,"station_id":"","pricing_plan_id":"cebpf4jnsgd1na2vs0mg"},{"bike_id":"793f8a27-8a9c-4af8-a51c-fe1715e1de18","system_id":"levelo_inurba_marseille","lat":43.299724,"lon":5.371829,"is_reserved":false,"is_disabled":false,"rental_uris":{"android":"levelo://app?vid=793f8a27-8a9c-4af8-a51c-fe1715e1de18","ios":"levelo://app?vid=793f8a27-8a9c-4af8-a51c-fe1715e1de18"},"vehicle_type_id":"4","last_reported":1721671840,"current_range_meters":0,"station_id":"ce4bgr92rcd13ifvqc7g","pricing_plan_id":"cebpf4jnsgd1na2vs0mg"},{"bike_id":"f07d5e96-4617-46af-aca0-175fc1b278f0","system_id":"levelo_inurba_marseille","lat":43.299724,"lon":5.371829,"is_reserved":false,"is_disabled":false,"rental_uris":{"android":"levelo://app?vid=f07d5e96-4617-46af-aca0-175fc1b278f0","ios":"levelo://app?vid=f07d5e96-4617-46af-aca0-175fc1b278f0"},"vehicle_type_id":"4","last_reported":1721671840,"current_range_meters":7600,"station_id":"ce4bgr92rcd13ifvqc7g","pricing_plan_id":"cebpf4jnsgd1na2vs0mg"},{"bike_id":"3600a95a-f085-48e2-966c-897fccd68eda","system_id":"levelo_inurba_marseille","lat":43.30117,"lon":5.37781,"is_reserved":false,"is_disabled":false,"rental_uris":{"android":"levelo://app?vid=3600a95a-f085-48e2-966c-897fccd68eda","ios":"levelo://app?vid=3600a95a-f085-48e2-966c-897fccd68eda"},"vehicle_type_id":"4","last_reported":1721671840,"current_range_meters":15600,"station_id":"","pricing_plan_id":"cebpf4jnsgd1na2vs0mg"},{"bike_id":"d8178d09-6200-4019-bb99-5504fe873069","system_id":"levelo_inurba_marseille","lat":43.305364,"lon":5.384119,"is_reserved":false,"is_disabled":false,"rental_uris":{"android":"levelo://app?vid=d8178d09-6200-4019-bb99-5504fe873069","ios":"levelo://app?vid=d8178d09-6200-4019-bb99-5504fe873069"},"vehicle_type_id":"4","last_reported":1721671840,"current_range_meters":9200,"station_id":"ce4bgg92rcd13ifvqb30","pricing_plan_id":"cebpf4jnsgd1na2vs0mg"},{"bike_id":"b42ed1c7-5226-4245-b73d-48b90e973c1b","system_id":"levelo_inurba_marseille","lat":43.299243,"lon":5.37481,"is_reserved":false,"is_disabled":false,"rental_uris":{"android":"levelo://app?vid=b42ed1c7-5226-4245-b73d-48b90e973c1b","ios":"levelo://app?vid=b42ed1c7-5226-4245-b73d-48b90e973c1b"},"vehicle_type_id":"4","last_reported":1721671840,"current_range_meters":28000,"station_id":"ce4bgjh2rcd13ifvqbg0","pricing_plan_id":"cebpf4jnsgd1na2vs0mg"},{"bike_id":"a0e02097-a07e-48b3-8b0c-191d2e0cca42","system_id":"levelo_inurba_marseille","lat":43.298433,"lon":5.362774,"is_reserved":false,"is_disabled":false,"rental_uris":{"android":"levelo://app?vid=a0e02097-a07e-48b3-8b0c-191d2e0cca42","ios":"levelo://app?vid=a0e02097-a07e-48b3-8b0c-191d2e0cca42"},"vehicle_type_id":"4","last_reported":1721671840,"current_range_meters":2400,"station_id":"ce4bgpp2rcd13ifvqc3g","pricing_plan_id":"cebpf4jnsgd1na2vs0mg"},{"bike_id":"647592ed-920c-4789-aaac-1a03aa5919bb","system_id":"levelo_inurba_marseille","lat":43.298433,"lon":5.362774,"is_reserved":false,"is_disabled":false,"rental_uris":{"android":"levelo://app?vid=647592ed-920c-4789-aaac-1a03aa5919bb","ios":"levelo://app?vid=647592ed-920c-4789-aaac-1a03aa5919bb"},"vehicle_type_id":"4","last_reported":1721671840,"current_range_meters":1600,"station_id":"ce4bgpp2rcd13ifvqc3g","pricing_plan_id":"cebpf4jnsgd1na2vs0mg"},{"bike_id":"cd6a3336-9aa0-4d1e-88d3-48a0e878ea53","system_id":"levelo_inurba_marseille","lat":43.31181,"lon":5.38711,"is_reserved":false,"is_disabled":false,"rental_uris":{"android":"levelo://app?vid=cd6a3336-9aa0-4d1e-88d3-48a0e878ea53","ios":"levelo://app?vid=cd6a3336-9aa0-4d1e-88d3-48a0e878ea53"},"vehicle_type_id":"4","last_reported":1721671840,"current_range_meters":0,"station_id":"ce4bgv12rcd13ifvqcp0","pricing_plan_id":"cebpf4jnsgd1na2vs0mg"},{"bike_id":"3de558ef-b815-445d-abb9-731addbd01d2","system_id":"levelo_inurba_marseille","lat":43.311722,"lon":5.387247,"is_reserved":false,"is_disabled":false,"rental_uris":{"android":"levelo://app?vid=3de558ef-b815-445d-abb9-731addbd01d2","ios":"levelo://app?vid=3de558ef-b815-445d-abb9-731addbd01d2"},"vehicle_type_id":"4","last_reported":1721671840,"current_range_meters":0,"station_id":"ce4bgv12rcd13ifvqcp0","pricing_plan_id":"cebpf4jnsgd1na2vs0mg"},{"bike_id":"36fc7147-2218-4319-a6f9-c5a407e1bd99","system_id":"levelo_inurba_marseille","lat":43.311722,"lon":5.387247,"is_reserved":false,"is_disabled":false,"rental_uris":{"android":"levelo://app?vid=36fc7147-2218-4319-a6f9-c5a407e1bd99","ios":"levelo://app?vid=36fc7147-2218-4319-a6f9-c5a407e1bd99"},"vehicle_type_id":"4","last_reported":1721671840,"current_range_meters":2000,"station_id":"ce4bgv12rcd13ifvqcp0","pricing_plan_id":"cebpf4jnsgd1na2vs0mg"},{"bike_id":"3d0a25f2-54fd-474d-89eb-c5f7d4c81d64","system_id":"levelo_inurba_marseille","lat":43.322872,"lon":5.382756,"is_reserved":false,"is_disabled":false,"rental_uris":{"android":"levelo://app?vid=3d0a25f2-54fd-474d-89eb-c5f7d4c81d64","ios":"levelo://app?vid=3d0a25f2-54fd-474d-89eb-c5f7d4c81d64"},"vehicle_type_id":"4","last_reported":1721671840,"current_range_meters":20800,"station_id":"ce4bhr12rcd13ifvqhqg","pricing_plan_id":"cebpf4jnsgd1na2vs0mg"},{"bike_id":"3198afba-1e22-4226-bfdf-ce414f4d5e7e","system_id":"levelo_inurba_marseille","lat":43.32288,"lon":5.38279,"is_reserved":false,"is_disabled":false,"rental_uris":{"android":"levelo://app?vid=3198afba-1e22-4226-bfdf-ce414f4d5e7e","ios":"levelo://app?vid=3198afba-1e22-4226-bfdf-ce414f4d5e7e"},"vehicle_type_id":"4","last_reported":1721671840,"current_range_meters":27200,"station_id":"ce4bhr12rcd13ifvqhqg","pricing_plan_id":"cebpf4jnsgd1na2vs0mg"},{"bike_id":"98130cc7-b273-4dee-89a1-15b990d570f8","system_id":"levelo_inurba_marseille","lat":43.323007,"lon":5.382647,"is_reserved":false,"is_disabled":false,"rental_uris":{"android":"levelo://app?vid=98130cc7-b273-4dee-89a1-15b990d570f8","ios":"levelo://app?vid=98130cc7-b273-4dee-89a1-15b990d570f8"},"vehicle_type_id":"4","last_reported":1721671840,"current_range_meters":11200,"station_id":"ce4bhr12rcd13ifvqhqg","pricing_plan_id":"cebpf4jnsgd1na2vs0mg"},{"bike_id":"bd2438cd-719c-444e-8d8b-1167130d6394","system_id":"levelo_inurba_marseille","lat":43.311589,"lon":5.388013,"is_reserved":false,"is_disabled":false,"rental_uris":{"android":"levelo://app?vid=bd2438cd-719c-444e-8d8b-1167130d6394","ios":"levelo://app?vid=bd2438cd-719c-444e-8d8b-1167130d6394"},"vehicle_type_id":"4","last_reported":1721671840,"current_range_meters":0,"station_id":"ce4bgv12rcd13ifvqcp0","pricing_plan_id":"cebpf4jnsgd1na2vs0mg"},{"bike_id":"78022350-b0b5-483e-bc9d-de36abdc3d1d","system_id":"levelo_inurba_marseille","lat":43.29573,"lon":5.367355,"is_reserved":false,"is_disabled":false,"rental_uris":{"android":"levelo://app?vid=78022350-b0b5-483e-bc9d-de36abdc3d1d","ios":"levelo://app?vid=78022350-b0b5-483e-bc9d-de36abdc3d1d"},"vehicle_type_id":"4","last_reported":1721671840,"current_range_meters":4400,"station_id":"ce4bgph2rcd13ifvqc2g","pricing_plan_id":"cebpf4jnsgd1na2vs0mg"},{"bike_id":"874ab4e9-b864-493a-87a3-350c1a6abb70","system_id":"levelo_inurba_marseille","lat":43.296131,"lon":5.370773,"is_reserved":false,"is_disabled":false,"rental_uris":{"android":"levelo://app?vid=874ab4e9-b864-493a-87a3-350c1a6abb70","ios":"levelo://app?vid=874ab4e9-b864-493a-87a3-350c1a6abb70"},"vehicle_type_id":"4","last_reported":1721671840,"current_range_meters":0,"station_id":"ce4bgnh2rcd13ifvqc0g","pricing_plan_id":"cebpf4jnsgd1na2vs0mg"},{"bike_id":"b87ddc64-6ee1-454a-a6bc-20dcbc336ee1","system_id":"levelo_inurba_marseille","lat":43.296131,"lon":5.370791,"is_reserved":false,"is_disabled":false,"rental_uris":{"android":"levelo://app?vid=b87ddc64-6ee1-454a-a6bc-20dcbc336ee1","ios":"levelo://app?vid=b87ddc64-6ee1-454a-a6bc-20dcbc336ee1"},"vehicle_type_id":"4","last_reported":1721671840,"current_range_meters":0,"station_id":"ce4bgnh2rcd13ifvqc0g","pricing_plan_id":"cebpf4jnsgd1na2vs0mg"},{"bike_id":"2e7968d6-4abb-4485-87c4-d239ad20e08f","system_id":"levelo_inurba_marseille","lat":43.29573,"lon":5.367355,"is_reserved":false,"is_disabled":false,"rental_uris":{"android":"levelo://app?vid=2e7968d6-4abb-4485-87c4-d239ad20e08f","ios":"levelo://app?vid=2e7968d6-4abb-4485-87c4-d239ad20e08f"},"vehicle_type_id":"4","last_reported":1721671840,"current_range_meters":11600,"station_id":"ce4bgph2rcd13ifvqc2g","pricing_plan_id":"cebpf4jnsgd1na2vs0mg"},{"bike_id":"21d54910-b85e-49bc-9a0d-56ef678f3d65","system_id":"levelo_inurba_marseille","lat":43.29715,"lon":5.37699,"is_reserved":false,"is_disabled":false,"rental_uris":{"android":"levelo://app?vid=21d54910-b85e-49bc-9a0d-56ef678f3d65","ios":"levelo://app?vid=21d54910-b85e-49bc-9a0d-56ef678f3d65"},"vehicle_type_id":"4","last_reported":1721671840,"current_range_meters":9600,"station_id":"ce4bgkh2rcd13ifvqbl0","pricing_plan_id":"cebpf4jnsgd1na2vs0mg"},{"bike_id":"6481e595-ab17-4534-a707-ae6dc36ae34d","system_id":"levelo_inurba_marseille","lat":43.317557,"lon":5.390173,"is_reserved":false,"is_disabled":false,"rental_uris":{"android":"levelo://app?vid=6481e595-ab17-4534-a707-ae6dc36ae34d","ios":"levelo://app?vid=6481e595-ab17-4534-a707-ae6dc36ae34d"},"vehicle_type_id":"4","last_reported":1721671840,"current_range_meters":24800,"station_id":"ce4bhqp2rcd13ifvqhng","pricing_plan_id":"cebpf4jnsgd1na2vs0mg"},{"bike_id":"61dbb7ec-36fe-42e9-808b-d6e26ee30983","system_id":"levelo_inurba_marseille","lat":43.317557,"lon":5.390173,"is_reserved":false,"is_disabled":false,"rental_uris":{"android":"levelo://app?vid=61dbb7ec-36fe-42e9-808b-d6e26ee30983","ios":"levelo://app?vid=61dbb7ec-36fe-42e9-808b-d6e26ee30983"},"vehicle_type_id":"4","last_reported":1721671840,"current_range_meters":5600,"station_id":"ce4bhqp2rcd13ifvqhng","pricing_plan_id":"cebpf4jnsgd1na2vs0mg"},{"bike_id":"1ab57789-98a9-4463-a716-5ffa21842d27","system_id":"levelo_inurba_marseille","lat":43.298037,"lon":5.381066,"is_reserved":false,"is_disabled":false,"rental_uris":{"android":"levelo://app?vid=1ab57789-98a9-4463-a716-5ffa21842d27","ios":"levelo://app?vid=1ab57789-98a9-4463-a716-5ffa21842d27"},"vehicle_type_id":"4","last_reported":1721671840,"current_range_meters":0,"station_id":"ce4bgip2rcd13ifvqbb0","pricing_plan_id":"cebpf4jnsgd1na2vs0mg"},{"bike_id":"481d1345-71ac-43bc-a287-8eb847a5e8c3","system_id":"levelo_inurba_marseille","lat":43.295748,"lon":5.37522,"is_reserved":false,"is_disabled":false,"rental_uris":{"android":"levelo://app?vid=481d1345-71ac-43bc-a287-8eb847a5e8c3","ios":"levelo://app?vid=481d1345-71ac-43bc-a287-8eb847a5e8c3"},"vehicle_type_id":"4","last_reported":1721671840,"current_range_meters":0,"station_id":"ce4bgh92rcd13ifvqb50","pricing_plan_id":"cebpf4jnsgd1na2vs0mg"},{"bike_id":"5782d337-0705-45ad-9e1b-9cce1d57f94c","system_id":"levelo_inurba_marseille","lat":43.30444,"lon":5.38892,"is_reserved":false,"is_disabled":false,"rental_uris":{"android":"levelo://app?vid=5782d337-0705-45ad-9e1b-9cce1d57f94c","ios":"levelo://app?vid=5782d337-0705-45ad-9e1b-9cce1d57f94c"},"vehicle_type_id":"4","last_reported":1721671840,"current_range_meters":27600,"station_id":"","pricing_plan_id":"cebpf4jnsgd1na2vs0mg"},{"bike_id":"dc1b1beb-59cd-48ea-a779-3ed40ede0d53","system_id":"levelo_inurba_marseille","lat":43.30434,"lon":5.38894,"is_reserved":false,"is_disabled":false,"rental_uris":{"android":"levelo://app?vid=dc1b1beb-59cd-48ea-a779-3ed40ede0d53","ios":"levelo://app?vid=dc1b1beb-59cd-48ea-a779-3ed40ede0d53"},"vehicle_type_id":"4","last_reported":1721671840,"current_range_meters":28800,"station_id":"ce4bgk12rcd13ifvqbi0","pricing_plan_id":"cebpf4jnsgd1na2vs0mg"},{"bike_id":"45ab79f9-236f-49e9-a3f4-15a9df657e7c","system_id":"levelo_inurba_marseille","lat":43.296263,"lon":5.377094,"is_reserved":false,"is_disabled":false,"rental_uris":{"android":"levelo://app?vid=45ab79f9-236f-49e9-a3f4-15a9df657e7c","ios":"levelo://app?vid=45ab79f9-236f-49e9-a3f4-15a9df657e7c"},"vehicle_type_id":"4","last_reported":1721671840,"current_range_meters":0,"station_id":"ce4bgi92rcd13ifvqb90","pricing_plan_id":"cebpf4jnsgd1na2vs0mg"},{"bike_id":"e0aaf0a1-c7f9-4279-bcb3-24ed66393d59","system_id":"levelo_inurba_marseille","lat":43.299707,"lon":5.384859,"is_reserved":false,"is_disabled":false,"rental_uris":{"android":"levelo://app?vid=e0aaf0a1-c7f9-4279-bcb3-24ed66393d59","ios":"levelo://app?vid=e0aaf0a1-c7f9-4279-bcb3-24ed66393d59"},"vehicle_type_id":"4","last_reported":1721671840,"current_range_meters":31200,"station_id":"ce4bgj92rcd13ifvqbd0","pricing_plan_id":"cebpf4jnsgd1na2vs0mg"},{"bike_id":"ccc97a8e-08dc-4f54-9fed-9b663566b693","system_id":"levelo_inurba_marseille","lat":43.299724,"lon":5.384848,"is_reserved":false,"is_disabled":false,"rental_uris":{"android":"levelo://app?vid=ccc97a8e-08dc-4f54-9fed-9b663566b693","ios":"levelo://app?vid=ccc97a8e-08dc-4f54-9fed-9b663566b693"},"vehicle_type_id":"4","last_reported":1721671840,"current_range_meters":31200,"station_id":"ce4bgj92rcd13ifvqbd0","pricing_plan_id":"cebpf4jnsgd1na2vs0mg"},{"bike_id":"c8682c92-7f3a-4825-aa07-c9c3e19d7fcc","system_id":"levelo_inurba_marseille","lat":43.29673,"lon":5.3801,"is_reserved":false,"is_disabled":false,"rental_uris":{"android":"levelo://app?vid=c8682c92-7f3a-4825-aa07-c9c3e19d7fcc","ios":"levelo://app?vid=c8682c92-7f3a-4825-aa07-c9c3e19d7fcc"},"vehicle_type_id":"4","last_reported":1721671840,"current_range_meters":12800,"station_id":"","pricing_plan_id":"cebpf4jnsgd1na2vs0mg"},{"bike_id":"10d85473-3b58-4f82-a8bf-32664fbe7811","system_id":"levelo_inurba_marseille","lat":43.32364,"lon":5.38873,"is_reserved":false,"is_disabled":false,"rental_uris":{"android":"levelo://app?vid=10d85473-3b58-4f82-a8bf-32664fbe7811","ios":"levelo://app?vid=10d85473-3b58-4f82-a8bf-32664fbe7811"},"vehicle_type_id":"4","last_reported":1721671840,"current_range_meters":4800,"station_id":"ce4bhqp2rcd13ifvqhog","pricing_plan_id":"cebpf4jnsgd1na2vs0mg"},{"bike_id":"0d8d9d26-69b3-4c04-b064-050ddff29fcc","system_id":"levelo_inurba_marseille","lat":43.32519,"lon":5.38777,"is_reserved":false,"is_disabled":false,"rental_uris":{"android":"levelo://app?vid=0d8d9d26-69b3-4c04-b064-050ddff29fcc","ios":"levelo://app?vid=0d8d9d26-69b3-4c04-b064-050ddff29fcc"},"vehicle_type_id":"4","last_reported":1721671840,"current_range_meters":800,"station_id":"","pricing_plan_id":"cebpf4jnsgd1na2vs0mg"},{"bike_id":"a5304f86-eebe-4e94-93a2-2037cd390069","system_id":"levelo_inurba_marseille","lat":43.29602,"lon":5.381084,"is_reserved":false,"is_disabled":false,"rental_uris":{"android":"levelo://app?vid=a5304f86-eebe-4e94-93a2-2037cd390069","ios":"levelo://app?vid=a5304f86-eebe-4e94-93a2-2037cd390069"},"vehicle_type_id":"4","last_reported":1721671840,"current_range_meters":5600,"station_id":"ce4bgl12rcd13ifvqbo0","pricing_plan_id":"cebpf4jnsgd1na2vs0mg"},{"bike_id":"eac56918-37cb-46be-a3dc-f7959cb92f19","system_id":"levelo_inurba_marseille","lat":43.29602,"lon":5.381084,"is_reserved":false,"is_disabled":false,"rental_uris":{"android":"levelo://app?vid=eac56918-37cb-46be-a3dc-f7959cb92f19","ios":"levelo://app?vid=eac56918-37cb-46be-a3dc-f7959cb92f19"},"vehicle_type_id":"4","last_reported":1721671840,"current_range_meters":9200,"station_id":"ce4bgl12rcd13ifvqbo0","pricing_plan_id":"cebpf4jnsgd1na2vs0mg"},{"bike_id":"fb57b734-c637-459a-a244-b58a8d784dc6","system_id":"levelo_inurba_marseille","lat":43.29602,"lon":5.381084,"is_reserved":false,"is_disabled":false,"rental_uris":{"android":"levelo://app?vid=fb57b734-c637-459a-a244-b58a8d784dc6","ios":"levelo://app?vid=fb57b734-c637-459a-a244-b58a8d784dc6"},"vehicle_type_id":"4","last_reported":1721671840,"current_range_meters":0,"station_id":"ce4bgl12rcd13ifvqbo0","pricing_plan_id":"cebpf4jnsgd1na2vs0mg"},{"bike_id":"e08b50dd-c45d-44b9-866c-40276a9d555d","system_id":"levelo_inurba_marseille","lat":43.293259,"lon":5.371586,"is_reserved":false,"is_disabled":false,"rental_uris":{"android":"levelo://app?vid=e08b50dd-c45d-44b9-866c-40276a9d555d","ios":"levelo://app?vid=e08b50dd-c45d-44b9-866c-40276a9d555d"},"vehicle_type_id":"4","last_reported":1721671840,"current_range_meters":23200,"station_id":"ce4bgh92rcd13ifvqb40","pricing_plan_id":"cebpf4jnsgd1na2vs0mg"},{"bike_id":"f7daeb5a-3ff9-4060-9418-eb9cbff934a7","system_id":"levelo_inurba_marseille","lat":43.29278,"lon":5.36845,"is_reserved":false,"is_disabled":false,"rental_uris":{"android":"levelo://app?vid=f7daeb5a-3ff9-4060-9418-eb9cbff934a7","ios":"levelo://app?vid=f7daeb5a-3ff9-4060-9418-eb9cbff934a7"},"vehicle_type_id":"4","last_reported":1721671840,"current_range_meters":0,"station_id":"ce4bhbp2rcd13ifvqesg","pricing_plan_id":"cebpf4jnsgd1na2vs0mg"},{"bike_id":"c0b8d72e-5db6-41e3-b295-62e493d647d0","system_id":"levelo_inurba_marseille","lat":43.29272,"lon":5.3684,"is_reserved":false,"is_disabled":false,"rental_uris":{"android":"levelo://app?vid=c0b8d72e-5db6-41e3-b295-62e493d647d0","ios":"levelo://app?vid=c0b8d72e-5db6-41e3-b295-62e493d647d0"},"vehicle_type_id":"4","last_reported":1721671840,"current_range_meters":0,"station_id":"ce4bhbp2rcd13ifvqesg","pricing_plan_id":"cebpf4jnsgd1na2vs0mg"},{"bike_id":"e7a476d8-d659-4805-a524-ee322af5ffae","system_id":"levelo_inurba_marseille","lat":43.292749,"lon":5.368402,"is_reserved":false,"is_disabled":false,"rental_uris":{"android":"levelo://app?vid=e7a476d8-d659-4805-a524-ee322af5ffae","ios":"levelo://app?vid=e7a476d8-d659-4805-a524-ee322af5ffae"},"vehicle_type_id":"4","last_reported":1721671840,"current_range_meters":0,"station_id":"ce4bhbp2rcd13ifvqesg","pricing_plan_id":"cebpf4jnsgd1na2vs0mg"},{"bike_id":"0f07b656-f7c2-4eba-aac0-20f7cd5847a9","system_id":"levelo_inurba_marseille","lat":43.293249,"lon":5.371578,"is_reserved":false,"is_disabled":false,"rental_uris":{"android":"levelo://app?vid=0f07b656-f7c2-4eba-aac0-20f7cd5847a9","ios":"levelo://app?vid=0f07b656-f7c2-4eba-aac0-20f7cd5847a9"},"vehicle_type_id":"4","last_reported":1721671840,"current_range_meters":28000,"station_id":"ce4bgh92rcd13ifvqb40","pricing_plan_id":"cebpf4jnsgd1na2vs0mg"},{"bike_id":"09977b67-f733-4409-bdc2-79952b370c39","system_id":"levelo_inurba_marseille","lat":43.33058,"lon":5.379843,"is_reserved":false,"is_disabled":false,"rental_uris":{"android":"levelo://app?vid=09977b67-f733-4409-bdc2-79952b370c39","ios":"levelo://app?vid=09977b67-f733-4409-bdc2-79952b370c39"},"vehicle_type_id":"4","last_reported":1721671840,"current_range_meters":13600,"station_id":"","pricing_plan_id":"cebpf4jnsgd1na2vs0mg"},{"bike_id":"37d4dc96-e906-47d7-b802-e45db89b7b45","system_id":"levelo_inurba_marseille","lat":43.29302,"lon":5.37458,"is_reserved":false,"is_disabled":false,"rental_uris":{"android":"levelo://app?vid=37d4dc96-e906-47d7-b802-e45db89b7b45","ios":"levelo://app?vid=37d4dc96-e906-47d7-b802-e45db89b7b45"},"vehicle_type_id":"4","last_reported":1721671840,"current_range_meters":0,"station_id":"ce4bgi12rcd13ifvqb70","pricing_plan_id":"cebpf4jnsgd1na2vs0mg"},{"bike_id":"dc1d56b7-a49a-4e47-a922-4b7d7f045d41","system_id":"levelo_inurba_marseille","lat":43.3059,"lon":5.39349,"is_reserved":false,"is_disabled":false,"rental_uris":{"android":"levelo://app?vid=dc1d56b7-a49a-4e47-a922-4b7d7f045d41","ios":"levelo://app?vid=dc1d56b7-a49a-4e47-a922-4b7d7f045d41"},"vehicle_type_id":"4","last_reported":1721671840,"current_range_meters":0,"station_id":"ce4bh0p2rcd13ifvqd80","pricing_plan_id":"cebpf4jnsgd1na2vs0mg"},{"bike_id":"b09d2a2b-8789-47f0-a715-27df10a74ad5","system_id":"levelo_inurba_marseille","lat":43.29378,"lon":5.37855,"is_reserved":false,"is_disabled":false,"rental_uris":{"android":"levelo://app?vid=b09d2a2b-8789-47f0-a715-27df10a74ad5","ios":"levelo://app?vid=b09d2a2b-8789-47f0-a715-27df10a74ad5"},"vehicle_type_id":"4","last_reported":1721671840,"current_range_meters":0,"station_id":"ce4bgjh2rcd13ifvqbf0","pricing_plan_id":"cebpf4jnsgd1na2vs0mg"},{"bike_id":"af04769f-61f4-4286-9f0f-b684e19dcb2a","system_id":"levelo_inurba_marseille","lat":43.302992,"lon":5.392136,"is_reserved":false,"is_disabled":false,"rental_uris":{"android":"levelo://app?vid=af04769f-61f4-4286-9f0f-b684e19dcb2a","ios":"levelo://app?vid=af04769f-61f4-4286-9f0f-b684e19dcb2a"},"vehicle_type_id":"4","last_reported":1721671840,"current_range_meters":8000,"station_id":"ce4bgkh2rcd13ifvqbk0","pricing_plan_id":"cebpf4jnsgd1na2vs0mg"},{"bike_id":"b4481c06-fc7b-4784-bf62-a0d1b24fdedd","system_id":"levelo_inurba_marseille","lat":43.302992,"lon":5.392136,"is_reserved":false,"is_disabled":false,"rental_uris":{"android":"levelo://app?vid=b4481c06-fc7b-4784-bf62-a0d1b24fdedd","ios":"levelo://app?vid=b4481c06-fc7b-4784-bf62-a0d1b24fdedd"},"vehicle_type_id":"4","last_reported":1721671840,"current_range_meters":0,"station_id":"ce4bgkh2rcd13ifvqbk0","pricing_plan_id":"cebpf4jnsgd1na2vs0mg"},{"bike_id":"96246c26-77d0-4a4b-b503-fdd5edce6a9a","system_id":"levelo_inurba_marseille","lat":43.300852,"lon":5.390859,"is_reserved":false,"is_disabled":false,"rental_uris":{"android":"levelo://app?vid=96246c26-77d0-4a4b-b503-fdd5edce6a9a","ios":"levelo://app?vid=96246c26-77d0-4a4b-b503-fdd5edce6a9a"},"vehicle_type_id":"4","last_reported":1721671840,"current_range_meters":1200,"station_id":"ce4bh192rcd13ifvqdb0","pricing_plan_id":"cebpf4jnsgd1na2vs0mg"},{"bike_id":"888a8ee6-a0a7-4151-a276-c2b21adeafb2","system_id":"levelo_inurba_marseille","lat":43.292311,"lon":5.360731,"is_reserved":false,"is_disabled":false,"rental_uris":{"android":"levelo://app?vid=888a8ee6-a0a7-4151-a276-c2b21adeafb2","ios":"levelo://app?vid=888a8ee6-a0a7-4151-a276-c2b21adeafb2"},"vehicle_type_id":"4","last_reported":1721671840,"current_range_meters":0,"station_id":"ce4bhbh2rcd13ifvqeqg","pricing_plan_id":"cebpf4jnsgd1na2vs0mg"},{"bike_id":"8abe48b8-aef3-43e1-af8e-20e196cdd12b","system_id":"levelo_inurba_marseille","lat":43.29214,"lon":5.36049,"is_reserved":false,"is_disabled":false,"rental_uris":{"android":"levelo://app?vid=8abe48b8-aef3-43e1-af8e-20e196cdd12b","ios":"levelo://app?vid=8abe48b8-aef3-43e1-af8e-20e196cdd12b"},"vehicle_type_id":"4","last_reported":1721671840,"current_range_meters":31200,"station_id":"ce4bhbh2rcd13ifvqeqg","pricing_plan_id":"cebpf4jnsgd1na2vs0mg"},{"bike_id":"2fef63b7-c790-4f2f-85a2-118bb2517be1","system_id":"levelo_inurba_marseille","lat":43.291302,"lon":5.36978,"is_reserved":false,"is_disabled":false,"rental_uris":{"android":"levelo://app?vid=2fef63b7-c790-4f2f-85a2-118bb2517be1","ios":"levelo://app?vid=2fef63b7-c790-4f2f-85a2-118bb2517be1"},"vehicle_type_id":"4","last_reported":1721671840,"current_range_meters":0,"station_id":"","pricing_plan_id":"cebpf4jnsgd1na2vs0mg"},{"bike_id":"92abd45a-cd50-4fdf-ae3e-2b8fe37d3caa","system_id":"levelo_inurba_marseille","lat":43.292005,"lon":5.357875,"is_reserved":false,"is_disabled":false,"rental_uris":{"android":"levelo://app?vid=92abd45a-cd50-4fdf-ae3e-2b8fe37d3caa","ios":"levelo://app?vid=92abd45a-cd50-4fdf-ae3e-2b8fe37d3caa"},"vehicle_type_id":"4","last_reported":1721671840,"current_range_meters":2400,"station_id":"ce4bhb12rcd13ifvqel0","pricing_plan_id":"cebpf4jnsgd1na2vs0mg"},{"bike_id":"a4e2561a-014f-4193-848c-bb03def6313a","system_id":"levelo_inurba_marseille","lat":43.291994,"lon":5.357886,"is_reserved":false,"is_disabled":false,"rental_uris":{"android":"levelo://app?vid=a4e2561a-014f-4193-848c-bb03def6313a","ios":"levelo://app?vid=a4e2561a-014f-4193-848c-bb03def6313a"},"vehicle_type_id":"4","last_reported":1721671840,"current_range_meters":2000,"station_id":"ce4bhb12rcd13ifvqel0","pricing_plan_id":"cebpf4jnsgd1na2vs0mg"},{"bike_id":"56060e01-cd14-4a48-8559-5f70080dbfb6","system_id":"levelo_inurba_marseille","lat":43.292005,"lon":5.357875,"is_reserved":false,"is_disabled":false,"rental_uris":{"android":"levelo://app?vid=56060e01-cd14-4a48-8559-5f70080dbfb6","ios":"levelo://app?vid=56060e01-cd14-4a48-8559-5f70080dbfb6"},"vehicle_type_id":"4","last_reported":1721671840,"current_range_meters":23200,"station_id":"ce4bhb12rcd13ifvqel0","pricing_plan_id":"cebpf4jnsgd1na2vs0mg"},{"bike_id":"5eb5b267-b38c-48e9-bd9e-7baffee21c2b","system_id":"levelo_inurba_marseille","lat":43.291994,"lon":5.357886,"is_reserved":false,"is_disabled":false,"rental_uris":{"android":"levelo://app?vid=5eb5b267-b38c-48e9-bd9e-7baffee21c2b","ios":"levelo://app?vid=5eb5b267-b38c-48e9-bd9e-7baffee21c2b"},"vehicle_type_id":"4","last_reported":1721671840,"current_range_meters":31600,"station_id":"ce4bhb12rcd13ifvqel0","pricing_plan_id":"cebpf4jnsgd1na2vs0mg"},{"bike_id":"3c258dc4-6f95-44c7-a865-a9090fa992a9","system_id":"levelo_inurba_marseille","lat":43.292005,"lon":5.357875,"is_reserved":false,"is_disabled":false,"rental_uris":{"android":"levelo://app?vid=3c258dc4-6f95-44c7-a865-a9090fa992a9","ios":"levelo://app?vid=3c258dc4-6f95-44c7-a865-a9090fa992a9"},"vehicle_type_id":"4","last_reported":1721671840,"current_range_meters":400,"station_id":"ce4bhb12rcd13ifvqel0","pricing_plan_id":"cebpf4jnsgd1na2vs0mg"},{"bike_id":"ef72dea7-69fc-4578-9140-f182a12abb66","system_id":"levelo_inurba_marseille","lat":43.292005,"lon":5.357875,"is_reserved":false,"is_disabled":false,"rental_uris":{"android":"levelo://app?vid=ef72dea7-69fc-4578-9140-f182a12abb66","ios":"levelo://app?vid=ef72dea7-69fc-4578-9140-f182a12abb66"},"vehicle_type_id":"4","last_reported":1721671840,"current_range_meters":7600,"station_id":"ce4bhb12rcd13ifvqel0","pricing_plan_id":"cebpf4jnsgd1na2vs0mg"},{"bike_id":"73bba778-997e-45f4-a33e-4954b5b56a9d","system_id":"levelo_inurba_marseille","lat":43.29191,"lon":5.35792,"is_reserved":false,"is_disabled":false,"rental_uris":{"android":"levelo://app?vid=73bba778-997e-45f4-a33e-4954b5b56a9d","ios":"levelo://app?vid=73bba778-997e-45f4-a33e-4954b5b56a9d"},"vehicle_type_id":"4","last_reported":1721671840,"current_range_meters":22000,"station_id":"ce4bhb12rcd13ifvqel0","pricing_plan_id":"cebpf4jnsgd1na2vs0mg"},{"bike_id":"06b81210-9f5c-4fc1-88a6-483c92180bcb","system_id":"levelo_inurba_marseille","lat":43.29529,"lon":5.385581,"is_reserved":false,"is_disabled":false,"rental_uris":{"android":"levelo://app?vid=06b81210-9f5c-4fc1-88a6-483c92180bcb","ios":"levelo://app?vid=06b81210-9f5c-4fc1-88a6-483c92180bcb"},"vehicle_type_id":"4","last_reported":1721671840,"current_range_meters":28000,"station_id":"ce4bgih2rcd13ifvqba0","pricing_plan_id":"cebpf4jnsgd1na2vs0mg"},{"bike_id":"125fa516-aeca-402b-b68a-656356531623","system_id":"levelo_inurba_marseille","lat":43.309038,"lon":5.396546,"is_reserved":false,"is_disabled":false,"rental_uris":{"android":"levelo://app?vid=125fa516-aeca-402b-b68a-656356531623","ios":"levelo://app?vid=125fa516-aeca-402b-b68a-656356531623"},"vehicle_type_id":"4","last_reported":1721671840,"current_range_meters":25200,"station_id":"ce4bh012rcd13ifvqcv0","pricing_plan_id":"cebpf4jnsgd1na2vs0mg"},{"bike_id":"2550b5be-2d8f-4ce2-8aad-6d1cabf76186","system_id":"levelo_inurba_marseille","lat":43.29529,"lon":5.385581,"is_reserved":false,"is_disabled":false,"rental_uris":{"android":"levelo://app?vid=2550b5be-2d8f-4ce2-8aad-6d1cabf76186","ios":"levelo://app?vid=2550b5be-2d8f-4ce2-8aad-6d1cabf76186"},"vehicle_type_id":"4","last_reported":1721671840,"current_range_meters":21200,"station_id":"ce4bgih2rcd13ifvqba0","pricing_plan_id":"cebpf4jnsgd1na2vs0mg"},{"bike_id":"23bcd5ca-7988-42a0-8168-57e3cc9988f9","system_id":"levelo_inurba_marseille","lat":43.29529,"lon":5.385581,"is_reserved":false,"is_disabled":false,"rental_uris":{"android":"levelo://app?vid=23bcd5ca-7988-42a0-8168-57e3cc9988f9","ios":"levelo://app?vid=23bcd5ca-7988-42a0-8168-57e3cc9988f9"},"vehicle_type_id":"4","last_reported":1721671840,"current_range_meters":4000,"station_id":"ce4bgih2rcd13ifvqba0","pricing_plan_id":"cebpf4jnsgd1na2vs0mg"},{"bike_id":"72016633-9442-466b-860a-abe28842099c","system_id":"levelo_inurba_marseille","lat":43.29529,"lon":5.385581,"is_reserved":false,"is_disabled":false,"rental_uris":{"android":"levelo://app?vid=72016633-9442-466b-860a-abe28842099c","ios":"levelo://app?vid=72016633-9442-466b-860a-abe28842099c"},"vehicle_type_id":"4","last_reported":1721671840,"current_range_meters":22000,"station_id":"ce4bgih2rcd13ifvqba0","pricing_plan_id":"cebpf4jnsgd1na2vs0mg"},{"bike_id":"81e3f603-3735-4353-9704-540d2025a36c","system_id":"levelo_inurba_marseille","lat":43.290779,"lon":5.371482,"is_reserved":false,"is_disabled":false,"rental_uris":{"android":"levelo://app?vid=81e3f603-3735-4353-9704-540d2025a36c","ios":"levelo://app?vid=81e3f603-3735-4353-9704-540d2025a36c"},"vehicle_type_id":"4","last_reported":1721671840,"current_range_meters":400,"station_id":"ce4bh5p2rcd13ifvqe4g","pricing_plan_id":"cebpf4jnsgd1na2vs0mg"},{"bike_id":"a535a8b7-1e1e-40e6-868a-6f2ebf54f76c","system_id":"levelo_inurba_marseille","lat":43.29044,"lon":5.37047,"is_reserved":false,"is_disabled":false,"rental_uris":{"android":"levelo://app?vid=a535a8b7-1e1e-40e6-868a-6f2ebf54f76c","ios":"levelo://app?vid=a535a8b7-1e1e-40e6-868a-6f2ebf54f76c"},"vehicle_type_id":"4","last_reported":1721671840,"current_range_meters":6000,"station_id":"","pricing_plan_id":"cebpf4jnsgd1na2vs0mg"},{"bike_id":"a45b5d5a-1a51-40cb-a3b6-2abe75babec8","system_id":"levelo_inurba_marseille","lat":43.29436,"lon":5.38632,"is_reserved":false,"is_disabled":false,"rental_uris":{"android":"levelo://app?vid=a45b5d5a-1a51-40cb-a3b6-2abe75babec8","ios":"levelo://app?vid=a45b5d5a-1a51-40cb-a3b6-2abe75babec8"},"vehicle_type_id":"4","last_reported":1721671840,"current_range_meters":3200,"station_id":"ce4bh2h2rcd13ifvqdh0","pricing_plan_id":"cebpf4jnsgd1na2vs0mg"},{"bike_id":"e9c136d4-a446-442c-b6ec-eee537ca02dd","system_id":"levelo_inurba_marseille","lat":43.294153,"lon":5.386305,"is_reserved":false,"is_disabled":false,"rental_uris":{"android":"levelo://app?vid=e9c136d4-a446-442c-b6ec-eee537ca02dd","ios":"levelo://app?vid=e9c136d4-a446-442c-b6ec-eee537ca02dd"},"vehicle_type_id":"4","last_reported":1721671840,"current_range_meters":0,"station_id":"ce4bh2h2rcd13ifvqdh0","pricing_plan_id":"cebpf4jnsgd1na2vs0mg"},{"bike_id":"738761f0-cbba-4697-8ccb-9bca455a9d2b","system_id":"levelo_inurba_marseille","lat":43.294162,"lon":5.386292,"is_reserved":false,"is_disabled":false,"rental_uris":{"android":"levelo://app?vid=738761f0-cbba-4697-8ccb-9bca455a9d2b","ios":"levelo://app?vid=738761f0-cbba-4697-8ccb-9bca455a9d2b"},"vehicle_type_id":"4","last_reported":1721671840,"current_range_meters":4800,"station_id":"ce4bh2h2rcd13ifvqdh0","pricing_plan_id":"cebpf4jnsgd1na2vs0mg"},{"bike_id":"f2584d56-3d8f-4978-a463-12cacec96e9a","system_id":"levelo_inurba_marseille","lat":43.2942,"lon":5.38622,"is_reserved":false,"is_disabled":false,"rental_uris":{"android":"levelo://app?vid=f2584d56-3d8f-4978-a463-12cacec96e9a","ios":"levelo://app?vid=f2584d56-3d8f-4978-a463-12cacec96e9a"},"vehicle_type_id":"4","last_reported":1721671840,"current_range_meters":14800,"station_id":"ce4bh2h2rcd13ifvqdh0","pricing_plan_id":"cebpf4jnsgd1na2vs0mg"},{"bike_id":"a275e841-ab47-4055-b052-fef32de943f1","system_id":"levelo_inurba_marseille","lat":43.294162,"lon":5.386292,"is_reserved":false,"is_disabled":false,"rental_uris":{"android":"levelo://app?vid=a275e841-ab47-4055-b052-fef32de943f1","ios":"levelo://app?vid=a275e841-ab47-4055-b052-fef32de943f1"},"vehicle_type_id":"4","last_reported":1721671840,"current_range_meters":13200,"station_id":"ce4bh2h2rcd13ifvqdh0","pricing_plan_id":"cebpf4jnsgd1na2vs0mg"},{"bike_id":"0863ae01-d0f1-489f-90d8-92d70783db81","system_id":"levelo_inurba_marseille","lat":43.294153,"lon":5.386305,"is_reserved":false,"is_disabled":false,"rental_uris":{"android":"levelo://app?vid=0863ae01-d0f1-489f-90d8-92d70783db81","ios":"levelo://app?vid=0863ae01-d0f1-489f-90d8-92d70783db81"},"vehicle_type_id":"4","last_reported":1721671840,"current_range_meters":24400,"station_id":"ce4bh2h2rcd13ifvqdh0","pricing_plan_id":"cebpf4jnsgd1na2vs0mg"},{"bike_id":"4616861a-95cc-4f41-ac8f-711c560fe236","system_id":"levelo_inurba_marseille","lat":43.289468,"lon":5.363719,"is_reserved":false,"is_disabled":false,"rental_uris":{"android":"levelo://app?vid=4616861a-95cc-4f41-ac8f-711c560fe236","ios":"levelo://app?vid=4616861a-95cc-4f41-ac8f-711c560fe236"},"vehicle_type_id":"4","last_reported":1721671840,"current_range_meters":28000,"station_id":"ce4bhc92rcd13ifvqetg","pricing_plan_id":"cebpf4jnsgd1na2vs0mg"},{"bike_id":"8be30041-c5df-4d95-84ac-36d973e3e368","system_id":"levelo_inurba_marseille","lat":43.2895,"lon":5.3646,"is_reserved":false,"is_disabled":false,"rental_uris":{"android":"levelo://app?vid=8be30041-c5df-4d95-84ac-36d973e3e368","ios":"levelo://app?vid=8be30041-c5df-4d95-84ac-36d973e3e368"},"vehicle_type_id":"4","last_reported":1721671840,"current_range_meters":3200,"station_id":"","pricing_plan_id":"cebpf4jnsgd1na2vs0mg"},{"bike_id":"9c7db638-4287-4c5f-a9c6-33e256e00b69","system_id":"levelo_inurba_marseille","lat":43.289437,"lon":5.366353,"is_reserved":false,"is_disabled":false,"rental_uris":{"android":"levelo://app?vid=9c7db638-4287-4c5f-a9c6-33e256e00b69","ios":"levelo://app?vid=9c7db638-4287-4c5f-a9c6-33e256e00b69"},"vehicle_type_id":"4","last_reported":1721671840,"current_range_meters":0,"station_id":"ce4bhap2rcd13ifvqek0","pricing_plan_id":"cebpf4jnsgd1na2vs0mg"},{"bike_id":"b43e7e4c-9857-4774-941a-6c7a38899ba2","system_id":"levelo_inurba_marseille","lat":43.29416,"lon":5.38628,"is_reserved":false,"is_disabled":false,"rental_uris":{"android":"levelo://app?vid=b43e7e4c-9857-4774-941a-6c7a38899ba2","ios":"levelo://app?vid=b43e7e4c-9857-4774-941a-6c7a38899ba2"},"vehicle_type_id":"4","last_reported":1721671840,"current_range_meters":0,"station_id":"ce4bh2h2rcd13ifvqdh0","pricing_plan_id":"cebpf4jnsgd1na2vs0mg"},{"bike_id":"b0a60893-496f-420a-9884-1cc3c9cc2f48","system_id":"levelo_inurba_marseille","lat":43.289468,"lon":5.363719,"is_reserved":false,"is_disabled":false,"rental_uris":{"android":"levelo://app?vid=b0a60893-496f-420a-9884-1cc3c9cc2f48","ios":"levelo://app?vid=b0a60893-496f-420a-9884-1cc3c9cc2f48"},"vehicle_type_id":"4","last_reported":1721671840,"current_range_meters":19200,"station_id":"ce4bhc92rcd13ifvqetg","pricing_plan_id":"cebpf4jnsgd1na2vs0mg"},{"bike_id":"11783753-3480-47c1-a86e-ea9fadd1db28","system_id":"levelo_inurba_marseille","lat":43.294162,"lon":5.386292,"is_reserved":false,"is_disabled":false,"rental_uris":{"android":"levelo://app?vid=11783753-3480-47c1-a86e-ea9fadd1db28","ios":"levelo://app?vid=11783753-3480-47c1-a86e-ea9fadd1db28"},"vehicle_type_id":"4","last_reported":1721671840,"current_range_meters":4400,"station_id":"ce4bh2h2rcd13ifvqdh0","pricing_plan_id":"cebpf4jnsgd1na2vs0mg"},{"bike_id":"10c310d2-90b4-431e-8f2e-3338161c0f90","system_id":"levelo_inurba_marseille","lat":43.290104,"lon":5.356111,"is_reserved":false,"is_disabled":false,"rental_uris":{"android":"levelo://app?vid=10c310d2-90b4-431e-8f2e-3338161c0f90","ios":"levelo://app?vid=10c310d2-90b4-431e-8f2e-3338161c0f90"},"vehicle_type_id":"4","last_reported":1721671840,"current_range_meters":4800,"station_id":"ce4bhb92rcd13ifvqen0","pricing_plan_id":"cebpf4jnsgd1na2vs0mg"},{"bike_id":"2966e724-8322-4cd8-a8a0-e646561e1ac7","system_id":"levelo_inurba_marseille","lat":43.28938,"lon":5.36633,"is_reserved":false,"is_disabled":false,"rental_uris":{"android":"levelo://app?vid=2966e724-8322-4cd8-a8a0-e646561e1ac7","ios":"levelo://app?vid=2966e724-8322-4cd8-a8a0-e646561e1ac7"},"vehicle_type_id":"4","last_reported":1721671840,"current_range_meters":0,"station_id":"ce4bhap2rcd13ifvqek0","pricing_plan_id":"cebpf4jnsgd1na2vs0mg"},{"bike_id":"ab43f891-b8ef-4e5b-8935-a23911a2be70","system_id":"levelo_inurba_marseille","lat":43.294105,"lon":5.38633,"is_reserved":false,"is_disabled":false,"rental_uris":{"android":"levelo://app?vid=ab43f891-b8ef-4e5b-8935-a23911a2be70","ios":"levelo://app?vid=ab43f891-b8ef-4e5b-8935-a23911a2be70"},"vehicle_type_id":"4","last_reported":1721671840,"current_range_meters":1200,"station_id":"ce4bh2h2rcd13ifvqdh0","pricing_plan_id":"cebpf4jnsgd1na2vs0mg"},{"bike_id":"4ead8a42-cf57-4833-8137-e7fc65bbd6ab","system_id":"levelo_inurba_marseille","lat":43.289468,"lon":5.363719,"is_reserved":false,"is_disabled":false,"rental_uris":{"android":"levelo://app?vid=4ead8a42-cf57-4833-8137-e7fc65bbd6ab","ios":"levelo://app?vid=4ead8a42-cf57-4833-8137-e7fc65bbd6ab"},"vehicle_type_id":"4","last_reported":1721671840,"current_range_meters":13600,"station_id":"ce4bhc92rcd13ifvqetg","pricing_plan_id":"cebpf4jnsgd1na2vs0mg"},{"bike_id":"30ac96b6-7865-485d-8704-09ba36682d95","system_id":"levelo_inurba_marseille","lat":43.289184,"lon":5.366408,"is_reserved":false,"is_disabled":false,"rental_uris":{"android":"levelo://app?vid=30ac96b6-7865-485d-8704-09ba36682d95","ios":"levelo://app?vid=30ac96b6-7865-485d-8704-09ba36682d95"},"vehicle_type_id":"4","last_reported":1721671840,"current_range_meters":26000,"station_id":"ce4bhap2rcd13ifvqek0","pricing_plan_id":"cebpf4jnsgd1na2vs0mg"},{"bike_id":"7c5b7f43-7167-42a1-a471-a4bc30a16604","system_id":"levelo_inurba_marseille","lat":43.289468,"lon":5.363719,"is_reserved":false,"is_disabled":false,"rental_uris":{"android":"levelo://app?vid=7c5b7f43-7167-42a1-a471-a4bc30a16604","ios":"levelo://app?vid=7c5b7f43-7167-42a1-a471-a4bc30a16604"},"vehicle_type_id":"4","last_reported":1721671840,"current_range_meters":400,"station_id":"ce4bhc92rcd13ifvqetg","pricing_plan_id":"cebpf4jnsgd1na2vs0mg"},{"bike_id":"95a4806a-5cce-4871-9b13-0b725da8ab9d","system_id":"levelo_inurba_marseille","lat":43.28934,"lon":5.36632,"is_reserved":false,"is_disabled":false,"rental_uris":{"android":"levelo://app?vid=95a4806a-5cce-4871-9b13-0b725da8ab9d","ios":"levelo://app?vid=95a4806a-5cce-4871-9b13-0b725da8ab9d"},"vehicle_type_id":"4","last_reported":1721671840,"current_range_meters":0,"station_id":"ce4bhap2rcd13ifvqek0","pricing_plan_id":"cebpf4jnsgd1na2vs0mg"},{"bike_id":"15b6dbaf-f0a4-45a2-ba34-72fb8abd4ca5","system_id":"levelo_inurba_marseille","lat":43.289468,"lon":5.363719,"is_reserved":false,"is_disabled":false,"rental_uris":{"android":"levelo://app?vid=15b6dbaf-f0a4-45a2-ba34-72fb8abd4ca5","ios":"levelo://app?vid=15b6dbaf-f0a4-45a2-ba34-72fb8abd4ca5"},"vehicle_type_id":"4","last_reported":1721671840,"current_range_meters":3200,"station_id":"ce4bhc92rcd13ifvqetg","pricing_plan_id":"cebpf4jnsgd1na2vs0mg"},{"bike_id":"f3e91ed2-d09b-462c-80bf-0d01071ff441","system_id":"levelo_inurba_marseille","lat":43.289468,"lon":5.363719,"is_reserved":false,"is_disabled":false,"rental_uris":{"android":"levelo://app?vid=f3e91ed2-d09b-462c-80bf-0d01071ff441","ios":"levelo://app?vid=f3e91ed2-d09b-462c-80bf-0d01071ff441"},"vehicle_type_id":"4","last_reported":1721671840,"current_range_meters":0,"station_id":"ce4bhc92rcd13ifvqetg","pricing_plan_id":"cebpf4jnsgd1na2vs0mg"},{"bike_id":"72d574d1-5942-46f9-894a-2c8e4a99fee2","system_id":"levelo_inurba_marseille","lat":43.289384,"lon":5.363994,"is_reserved":false,"is_disabled":false,"rental_uris":{"android":"levelo://app?vid=72d574d1-5942-46f9-894a-2c8e4a99fee2","ios":"levelo://app?vid=72d574d1-5942-46f9-894a-2c8e4a99fee2"},"vehicle_type_id":"4","last_reported":1721671840,"current_range_meters":0,"station_id":"ce4bhc92rcd13ifvqetg","pricing_plan_id":"cebpf4jnsgd1na2vs0mg"},{"bike_id":"38ae46c8-7de8-4311-b4d3-4501124810fe","system_id":"levelo_inurba_marseille","lat":43.289468,"lon":5.363719,"is_reserved":false,"is_disabled":false,"rental_uris":{"android":"levelo://app?vid=38ae46c8-7de8-4311-b4d3-4501124810fe","ios":"levelo://app?vid=38ae46c8-7de8-4311-b4d3-4501124810fe"},"vehicle_type_id":"4","last_reported":1721671840,"current_range_meters":11200,"station_id":"ce4bhc92rcd13ifvqetg","pricing_plan_id":"cebpf4jnsgd1na2vs0mg"},{"bike_id":"ab0d166a-c4aa-4a2a-aa2d-7270dcf6e9cb","system_id":"levelo_inurba_marseille","lat":43.289468,"lon":5.363719,"is_reserved":false,"is_disabled":false,"rental_uris":{"android":"levelo://app?vid=ab0d166a-c4aa-4a2a-aa2d-7270dcf6e9cb","ios":"levelo://app?vid=ab0d166a-c4aa-4a2a-aa2d-7270dcf6e9cb"},"vehicle_type_id":"4","last_reported":1721671840,"current_range_meters":30000,"station_id":"ce4bhc92rcd13ifvqetg","pricing_plan_id":"cebpf4jnsgd1na2vs0mg"},{"bike_id":"1cbefc68-df7d-4316-8288-f267ca03463f","system_id":"levelo_inurba_marseille","lat":43.289468,"lon":5.363719,"is_reserved":false,"is_disabled":false,"rental_uris":{"android":"levelo://app?vid=1cbefc68-df7d-4316-8288-f267ca03463f","ios":"levelo://app?vid=1cbefc68-df7d-4316-8288-f267ca03463f"},"vehicle_type_id":"4","last_reported":1721671840,"current_range_meters":16800,"station_id":"ce4bhc92rcd13ifvqetg","pricing_plan_id":"cebpf4jnsgd1na2vs0mg"},{"bike_id":"11d8f5e3-9ee2-46d1-8ae1-cb48adf2f553","system_id":"levelo_inurba_marseille","lat":43.292644,"lon":5.384257,"is_reserved":false,"is_disabled":false,"rental_uris":{"android":"levelo://app?vid=11d8f5e3-9ee2-46d1-8ae1-cb48adf2f553","ios":"levelo://app?vid=11d8f5e3-9ee2-46d1-8ae1-cb48adf2f553"},"vehicle_type_id":"4","last_reported":1721671840,"current_range_meters":6000,"station_id":"ce4bh692rcd13ifvqea0","pricing_plan_id":"cebpf4jnsgd1na2vs0mg"},{"bike_id":"6b3fbdb7-f106-45b0-b9ac-f47bfd846db1","system_id":"levelo_inurba_marseille","lat":43.292642,"lon":5.384254,"is_reserved":false,"is_disabled":false,"rental_uris":{"android":"levelo://app?vid=6b3fbdb7-f106-45b0-b9ac-f47bfd846db1","ios":"levelo://app?vid=6b3fbdb7-f106-45b0-b9ac-f47bfd846db1"},"vehicle_type_id":"4","last_reported":1721671840,"current_range_meters":0,"station_id":"ce4bh692rcd13ifvqea0","pricing_plan_id":"cebpf4jnsgd1na2vs0mg"},{"bike_id":"6937f40a-c321-451f-8b81-baa81e5684fc","system_id":"levelo_inurba_marseille","lat":43.292642,"lon":5.384254,"is_reserved":false,"is_disabled":false,"rental_uris":{"android":"levelo://app?vid=6937f40a-c321-451f-8b81-baa81e5684fc","ios":"levelo://app?vid=6937f40a-c321-451f-8b81-baa81e5684fc"},"vehicle_type_id":"4","last_reported":1721671840,"current_range_meters":20800,"station_id":"ce4bh692rcd13ifvqea0","pricing_plan_id":"cebpf4jnsgd1na2vs0mg"},{"bike_id":"55fc5f90-50f6-48e8-990e-90b22b6c4777","system_id":"levelo_inurba_marseille","lat":43.30426,"lon":5.39739,"is_reserved":false,"is_disabled":false,"rental_uris":{"android":"levelo://app?vid=55fc5f90-50f6-48e8-990e-90b22b6c4777","ios":"levelo://app?vid=55fc5f90-50f6-48e8-990e-90b22b6c4777"},"vehicle_type_id":"4","last_reported":1721671840,"current_range_meters":0,"station_id":"ce4bh092rcd13ifvqd20","pricing_plan_id":"cebpf4jnsgd1na2vs0mg"},{"bike_id":"e93dfd74-0db3-498a-9ee0-ae7261823c20","system_id":"levelo_inurba_marseille","lat":43.292642,"lon":5.384254,"is_reserved":false,"is_disabled":false,"rental_uris":{"android":"levelo://app?vid=e93dfd74-0db3-498a-9ee0-ae7261823c20","ios":"levelo://app?vid=e93dfd74-0db3-498a-9ee0-ae7261823c20"},"vehicle_type_id":"4","last_reported":1721671840,"current_range_meters":10400,"station_id":"ce4bh692rcd13ifvqea0","pricing_plan_id":"cebpf4jnsgd1na2vs0mg"},{"bike_id":"a762fd04-58f6-44cf-85fa-2d19f3da09e6","system_id":"levelo_inurba_marseille","lat":43.304296,"lon":5.397513,"is_reserved":false,"is_disabled":false,"rental_uris":{"android":"levelo://app?vid=a762fd04-58f6-44cf-85fa-2d19f3da09e6","ios":"levelo://app?vid=a762fd04-58f6-44cf-85fa-2d19f3da09e6"},"vehicle_type_id":"4","last_reported":1721671840,"current_range_meters":800,"station_id":"ce4bh092rcd13ifvqd20","pricing_plan_id":"cebpf4jnsgd1na2vs0mg"},{"bike_id":"b61782b6-168e-41bb-b019-da7edbb020a9","system_id":"levelo_inurba_marseille","lat":43.29263,"lon":5.38448,"is_reserved":false,"is_disabled":false,"rental_uris":{"android":"levelo://app?vid=b61782b6-168e-41bb-b019-da7edbb020a9","ios":"levelo://app?vid=b61782b6-168e-41bb-b019-da7edbb020a9"},"vehicle_type_id":"4","last_reported":1721671840,"current_range_meters":0,"station_id":"ce4bh692rcd13ifvqea0","pricing_plan_id":"cebpf4jnsgd1na2vs0mg"},{"bike_id":"88a2121b-4ef1-4137-ba39-94136d8ccc08","system_id":"levelo_inurba_marseille","lat":43.292642,"lon":5.384254,"is_reserved":false,"is_disabled":false,"rental_uris":{"android":"levelo://app?vid=88a2121b-4ef1-4137-ba39-94136d8ccc08","ios":"levelo://app?vid=88a2121b-4ef1-4137-ba39-94136d8ccc08"},"vehicle_type_id":"4","last_reported":1721671840,"current_range_meters":400,"station_id":"ce4bh692rcd13ifvqea0","pricing_plan_id":"cebpf4jnsgd1na2vs0mg"},{"bike_id":"b3161a3b-d60a-40fa-9679-bc134e2fffe4","system_id":"levelo_inurba_marseille","lat":43.29007,"lon":5.35626,"is_reserved":false,"is_disabled":false,"rental_uris":{"android":"levelo://app?vid=b3161a3b-d60a-40fa-9679-bc134e2fffe4","ios":"levelo://app?vid=b3161a3b-d60a-40fa-9679-bc134e2fffe4"},"vehicle_type_id":"4","last_reported":1721671840,"current_range_meters":15200,"station_id":"ce4bhb92rcd13ifvqen0","pricing_plan_id":"cebpf4jnsgd1na2vs0mg"},{"bike_id":"98c6a1e1-c7db-4a14-a20b-980b4f0d5aa9","system_id":"levelo_inurba_marseille","lat":43.290104,"lon":5.356111,"is_reserved":false,"is_disabled":false,"rental_uris":{"android":"levelo://app?vid=98c6a1e1-c7db-4a14-a20b-980b4f0d5aa9","ios":"levelo://app?vid=98c6a1e1-c7db-4a14-a20b-980b4f0d5aa9"},"vehicle_type_id":"4","last_reported":1721671840,"current_range_meters":20400,"station_id":"ce4bhb92rcd13ifvqen0","pricing_plan_id":"cebpf4jnsgd1na2vs0mg"},{"bike_id":"c879c37f-1a26-4c89-b422-c4393239070b","system_id":"levelo_inurba_marseille","lat":43.29008,"lon":5.35609,"is_reserved":false,"is_disabled":false,"rental_uris":{"android":"levelo://app?vid=c879c37f-1a26-4c89-b422-c4393239070b","ios":"levelo://app?vid=c879c37f-1a26-4c89-b422-c4393239070b"},"vehicle_type_id":"4","last_reported":1721671840,"current_range_meters":0,"station_id":"ce4bhb92rcd13ifvqen0","pricing_plan_id":"cebpf4jnsgd1na2vs0mg"},{"bike_id":"24f32da7-e6f6-4b56-bd36-088732351774","system_id":"levelo_inurba_marseille","lat":43.290104,"lon":5.356111,"is_reserved":false,"is_disabled":false,"rental_uris":{"android":"levelo://app?vid=24f32da7-e6f6-4b56-bd36-088732351774","ios":"levelo://app?vid=24f32da7-e6f6-4b56-bd36-088732351774"},"vehicle_type_id":"4","last_reported":1721671840,"current_range_meters":19600,"station_id":"ce4bhb92rcd13ifvqen0","pricing_plan_id":"cebpf4jnsgd1na2vs0mg"},{"bike_id":"df15dbec-ac76-4951-8ba3-7d1aa6c346a2","system_id":"levelo_inurba_marseille","lat":43.290104,"lon":5.356111,"is_reserved":false,"is_disabled":false,"rental_uris":{"android":"levelo://app?vid=df15dbec-ac76-4951-8ba3-7d1aa6c346a2","ios":"levelo://app?vid=df15dbec-ac76-4951-8ba3-7d1aa6c346a2"},"vehicle_type_id":"4","last_reported":1721671840,"current_range_meters":17200,"station_id":"ce4bhb92rcd13ifvqen0","pricing_plan_id":"cebpf4jnsgd1na2vs0mg"},{"bike_id":"18e28605-55e7-40e0-b10c-da489f956e8d","system_id":"levelo_inurba_marseille","lat":43.29005,"lon":5.35614,"is_reserved":false,"is_disabled":false,"rental_uris":{"android":"levelo://app?vid=18e28605-55e7-40e0-b10c-da489f956e8d","ios":"levelo://app?vid=18e28605-55e7-40e0-b10c-da489f956e8d"},"vehicle_type_id":"4","last_reported":1721671840,"current_range_meters":2800,"station_id":"ce4bhb92rcd13ifvqen0","pricing_plan_id":"cebpf4jnsgd1na2vs0mg"},{"bike_id":"4924471a-ca4d-40ae-8d83-73bbfaf2f01c","system_id":"levelo_inurba_marseille","lat":43.29004,"lon":5.35617,"is_reserved":false,"is_disabled":false,"rental_uris":{"android":"levelo://app?vid=4924471a-ca4d-40ae-8d83-73bbfaf2f01c","ios":"levelo://app?vid=4924471a-ca4d-40ae-8d83-73bbfaf2f01c"},"vehicle_type_id":"4","last_reported":1721671840,"current_range_meters":30400,"station_id":"ce4bhb92rcd13ifvqen0","pricing_plan_id":"cebpf4jnsgd1na2vs0mg"},{"bike_id":"6989ab80-7041-4797-8a82-6f0fb3ca955e","system_id":"levelo_inurba_marseille","lat":43.295169,"lon":5.390426,"is_reserved":false,"is_disabled":false,"rental_uris":{"android":"levelo://app?vid=6989ab80-7041-4797-8a82-6f0fb3ca955e","ios":"levelo://app?vid=6989ab80-7041-4797-8a82-6f0fb3ca955e"},"vehicle_type_id":"4","last_reported":1721671840,"current_range_meters":26800,"station_id":"ce4bh3p2rcd13ifvqdp0","pricing_plan_id":"cebpf4jnsgd1na2vs0mg"},{"bike_id":"f869b3b5-1e75-4d3d-88a5-e36d93548ccc","system_id":"levelo_inurba_marseille","lat":43.295169,"lon":5.390426,"is_reserved":false,"is_disabled":false,"rental_uris":{"android":"levelo://app?vid=f869b3b5-1e75-4d3d-88a5-e36d93548ccc","ios":"levelo://app?vid=f869b3b5-1e75-4d3d-88a5-e36d93548ccc"},"vehicle_type_id":"4","last_reported":1721671840,"current_range_meters":400,"station_id":"ce4bh3p2rcd13ifvqdp0","pricing_plan_id":"cebpf4jnsgd1na2vs0mg"},{"bike_id":"60d24328-3bd7-42ed-948a-560b5ddf5b65","system_id":"levelo_inurba_marseille","lat":43.29531,"lon":5.39036,"is_reserved":false,"is_disabled":false,"rental_uris":{"android":"levelo://app?vid=60d24328-3bd7-42ed-948a-560b5ddf5b65","ios":"levelo://app?vid=60d24328-3bd7-42ed-948a-560b5ddf5b65"},"vehicle_type_id":"4","last_reported":1721671840,"current_range_meters":9200,"station_id":"ce4bh3p2rcd13ifvqdp0","pricing_plan_id":"cebpf4jnsgd1na2vs0mg"},{"bike_id":"5bd26abc-534a-4ad5-a9bb-5dc14e67e259","system_id":"levelo_inurba_marseille","lat":43.295169,"lon":5.390426,"is_reserved":false,"is_disabled":false,"rental_uris":{"android":"levelo://app?vid=5bd26abc-534a-4ad5-a9bb-5dc14e67e259","ios":"levelo://app?vid=5bd26abc-534a-4ad5-a9bb-5dc14e67e259"},"vehicle_type_id":"4","last_reported":1721671840,"current_range_meters":20000,"station_id":"ce4bh3p2rcd13ifvqdp0","pricing_plan_id":"cebpf4jnsgd1na2vs0mg"},{"bike_id":"e3a94db4-0088-4c6c-b921-9c7de04efd17","system_id":"levelo_inurba_marseille","lat":43.33017,"lon":5.39043,"is_reserved":false,"is_disabled":false,"rental_uris":{"android":"levelo://app?vid=e3a94db4-0088-4c6c-b921-9c7de04efd17","ios":"levelo://app?vid=e3a94db4-0088-4c6c-b921-9c7de04efd17"},"vehicle_type_id":"4","last_reported":1721671840,"current_range_meters":27200,"station_id":"ce4bhr92rcd13ifvqhrg","pricing_plan_id":"cebpf4jnsgd1na2vs0mg"},{"bike_id":"63334e39-55c3-4e46-970b-4cc8ffb5ad84","system_id":"levelo_inurba_marseille","lat":43.330442,"lon":5.389148,"is_reserved":false,"is_disabled":false,"rental_uris":{"android":"levelo://app?vid=63334e39-55c3-4e46-970b-4cc8ffb5ad84","ios":"levelo://app?vid=63334e39-55c3-4e46-970b-4cc8ffb5ad84"},"vehicle_type_id":"4","last_reported":1721671840,"current_range_meters":7200,"station_id":"ce4bhr92rcd13ifvqhrg","pricing_plan_id":"cebpf4jnsgd1na2vs0mg"},{"bike_id":"d844228c-73e2-400d-8057-a6998aa0637a","system_id":"levelo_inurba_marseille","lat":43.330442,"lon":5.389148,"is_reserved":false,"is_disabled":false,"rental_uris":{"android":"levelo://app?vid=d844228c-73e2-400d-8057-a6998aa0637a","ios":"levelo://app?vid=d844228c-73e2-400d-8057-a6998aa0637a"},"vehicle_type_id":"4","last_reported":1721671840,"current_range_meters":26800,"station_id":"ce4bhr92rcd13ifvqhrg","pricing_plan_id":"cebpf4jnsgd1na2vs0mg"},{"bike_id":"e16275fa-b087-4e21-9474-9f0ae48aa585","system_id":"levelo_inurba_marseille","lat":43.289743,"lon":5.378304,"is_reserved":false,"is_disabled":false,"rental_uris":{"android":"levelo://app?vid=e16275fa-b087-4e21-9474-9f0ae48aa585","ios":"levelo://app?vid=e16275fa-b087-4e21-9474-9f0ae48aa585"},"vehicle_type_id":"4","last_reported":1721671840,"current_range_meters":0,"station_id":"ce4bh9p2rcd13ifvqed0","pricing_plan_id":"cebpf4jnsgd1na2vs0mg"},{"bike_id":"d34d060d-37c0-4a8d-a02a-a07a0cd21a44","system_id":"levelo_inurba_marseille","lat":43.330442,"lon":5.389148,"is_reserved":false,"is_disabled":false,"rental_uris":{"android":"levelo://app?vid=d34d060d-37c0-4a8d-a02a-a07a0cd21a44","ios":"levelo://app?vid=d34d060d-37c0-4a8d-a02a-a07a0cd21a44"},"vehicle_type_id":"4","last_reported":1721671840,"current_range_meters":9200,"station_id":"ce4bhr92rcd13ifvqhrg","pricing_plan_id":"cebpf4jnsgd1na2vs0mg"},{"bike_id":"ac976ae7-8b8a-42a7-bd24-e07756d9ecbb","system_id":"levelo_inurba_marseille","lat":43.29115,"lon":5.38276,"is_reserved":false,"is_disabled":false,"rental_uris":{"android":"levelo://app?vid=ac976ae7-8b8a-42a7-bd24-e07756d9ecbb","ios":"levelo://app?vid=ac976ae7-8b8a-42a7-bd24-e07756d9ecbb"},"vehicle_type_id":"4","last_reported":1721671840,"current_range_meters":0,"station_id":"","pricing_plan_id":"cebpf4jnsgd1na2vs0mg"},{"bike_id":"9610e5a0-e1a4-4ae7-a009-1c177b2ceb74","system_id":"levelo_inurba_marseille","lat":43.2897,"lon":5.37836,"is_reserved":false,"is_disabled":false,"rental_uris":{"android":"levelo://app?vid=9610e5a0-e1a4-4ae7-a009-1c177b2ceb74","ios":"levelo://app?vid=9610e5a0-e1a4-4ae7-a009-1c177b2ceb74"},"vehicle_type_id":"4","last_reported":1721671840,"current_range_meters":0,"station_id":"ce4bh9p2rcd13ifvqed0","pricing_plan_id":"cebpf4jnsgd1na2vs0mg"},{"bike_id":"1f8838fa-6b20-4873-8db4-fc3fe63005c3","system_id":"levelo_inurba_marseille","lat":43.295169,"lon":5.390426,"is_reserved":false,"is_disabled":false,"rental_uris":{"android":"levelo://app?vid=1f8838fa-6b20-4873-8db4-fc3fe63005c3","ios":"levelo://app?vid=1f8838fa-6b20-4873-8db4-fc3fe63005c3"},"vehicle_type_id":"4","last_reported":1721671840,"current_range_meters":3600,"station_id":"ce4bh3p2rcd13ifvqdp0","pricing_plan_id":"cebpf4jnsgd1na2vs0mg"},{"bike_id":"db7346cb-212e-4d82-95e3-e815ab162370","system_id":"levelo_inurba_marseille","lat":43.310724,"lon":5.400928,"is_reserved":false,"is_disabled":false,"rental_uris":{"android":"levelo://app?vid=db7346cb-212e-4d82-95e3-e815ab162370","ios":"levelo://app?vid=db7346cb-212e-4d82-95e3-e815ab162370"},"vehicle_type_id":"4","last_reported":1721671840,"current_range_meters":30400,"station_id":"","pricing_plan_id":"cebpf4jnsgd1na2vs0mg"},{"bike_id":"cea683e1-97f9-4233-9930-b9e281992054","system_id":"levelo_inurba_marseille","lat":43.330442,"lon":5.389148,"is_reserved":false,"is_disabled":false,"rental_uris":{"android":"levelo://app?vid=cea683e1-97f9-4233-9930-b9e281992054","ios":"levelo://app?vid=cea683e1-97f9-4233-9930-b9e281992054"},"vehicle_type_id":"4","last_reported":1721671840,"current_range_meters":19200,"station_id":"ce4bhr92rcd13ifvqhrg","pricing_plan_id":"cebpf4jnsgd1na2vs0mg"},{"bike_id":"c34527b9-2848-4835-b68a-8b9144a2802e","system_id":"levelo_inurba_marseille","lat":43.288547,"lon":5.358533,"is_reserved":false,"is_disabled":false,"rental_uris":{"android":"levelo://app?vid=c34527b9-2848-4835-b68a-8b9144a2802e","ios":"levelo://app?vid=c34527b9-2848-4835-b68a-8b9144a2802e"},"vehicle_type_id":"4","last_reported":1721671840,"current_range_meters":0,"station_id":"ce4bhb12rcd13ifvqem0","pricing_plan_id":"cebpf4jnsgd1na2vs0mg"},{"bike_id":"5d52c335-ee00-4376-b972-366a55afa553","system_id":"levelo_inurba_marseille","lat":43.28856,"lon":5.358371,"is_reserved":false,"is_disabled":false,"rental_uris":{"android":"levelo://app?vid=5d52c335-ee00-4376-b972-366a55afa553","ios":"levelo://app?vid=5d52c335-ee00-4376-b972-366a55afa553"},"vehicle_type_id":"4","last_reported":1721671840,"current_range_meters":10400,"station_id":"ce4bhb12rcd13ifvqem0","pricing_plan_id":"cebpf4jnsgd1na2vs0mg"},{"bike_id":"6c934202-12d1-4038-a8d1-9e46af55bab3","system_id":"levelo_inurba_marseille","lat":43.28853,"lon":5.35836,"is_reserved":false,"is_disabled":false,"rental_uris":{"android":"levelo://app?vid=6c934202-12d1-4038-a8d1-9e46af55bab3","ios":"levelo://app?vid=6c934202-12d1-4038-a8d1-9e46af55bab3"},"vehicle_type_id":"4","last_reported":1721671840,"current_range_meters":0,"station_id":"ce4bhb12rcd13ifvqem0","pricing_plan_id":"cebpf4jnsgd1na2vs0mg"},{"bike_id":"21199813-4dfe-4c27-8a5d-528815474ba9","system_id":"levelo_inurba_marseille","lat":43.312609,"lon":5.401662,"is_reserved":false,"is_disabled":false,"rental_uris":{"android":"levelo://app?vid=21199813-4dfe-4c27-8a5d-528815474ba9","ios":"levelo://app?vid=21199813-4dfe-4c27-8a5d-528815474ba9"},"vehicle_type_id":"4","last_reported":1721671840,"current_range_meters":0,"station_id":"ce4bh092rcd13ifvqd30","pricing_plan_id":"cebpf4jnsgd1na2vs0mg"},{"bike_id":"192a866a-6f86-404d-812c-31129be9ed74","system_id":"levelo_inurba_marseille","lat":43.33746,"lon":5.37439,"is_reserved":false,"is_disabled":false,"rental_uris":{"android":"levelo://app?vid=192a866a-6f86-404d-812c-31129be9ed74","ios":"levelo://app?vid=192a866a-6f86-404d-812c-31129be9ed74"},"vehicle_type_id":"4","last_reported":1721671840,"current_range_meters":27200,"station_id":"","pricing_plan_id":"cebpf4jnsgd1na2vs0mg"},{"bike_id":"4eaef2c7-71f5-4744-ab23-cf70bd4039ee","system_id":"levelo_inurba_marseille","lat":43.33748,"lon":5.37449,"is_reserved":false,"is_disabled":false,"rental_uris":{"android":"levelo://app?vid=4eaef2c7-71f5-4744-ab23-cf70bd4039ee","ios":"levelo://app?vid=4eaef2c7-71f5-4744-ab23-cf70bd4039ee"},"vehicle_type_id":"4","last_reported":1721671840,"current_range_meters":24000,"station_id":"","pricing_plan_id":"cebpf4jnsgd1na2vs0mg"},{"bike_id":"d30176d3-57cf-4662-85ac-4d2def454fa4","system_id":"levelo_inurba_marseille","lat":43.337497,"lon":5.374523,"is_reserved":false,"is_disabled":false,"rental_uris":{"android":"levelo://app?vid=d30176d3-57cf-4662-85ac-4d2def454fa4","ios":"levelo://app?vid=d30176d3-57cf-4662-85ac-4d2def454fa4"},"vehicle_type_id":"4","last_reported":1721671840,"current_range_meters":26400,"station_id":"","pricing_plan_id":"cebpf4jnsgd1na2vs0mg"},{"bike_id":"2fa75b7e-def1-4555-95f4-25083259dc68","system_id":"levelo_inurba_marseille","lat":43.33752,"lon":5.37448,"is_reserved":false,"is_disabled":false,"rental_uris":{"android":"levelo://app?vid=2fa75b7e-def1-4555-95f4-25083259dc68","ios":"levelo://app?vid=2fa75b7e-def1-4555-95f4-25083259dc68"},"vehicle_type_id":"4","last_reported":1721671840,"current_range_meters":20800,"station_id":"","pricing_plan_id":"cebpf4jnsgd1na2vs0mg"},{"bike_id":"729da992-572f-4e25-b807-f56a27b5dd22","system_id":"levelo_inurba_marseille","lat":43.33752,"lon":5.37451,"is_reserved":false,"is_disabled":false,"rental_uris":{"android":"levelo://app?vid=729da992-572f-4e25-b807-f56a27b5dd22","ios":"levelo://app?vid=729da992-572f-4e25-b807-f56a27b5dd22"},"vehicle_type_id":"4","last_reported":1721671840,"current_range_meters":15600,"station_id":"","pricing_plan_id":"cebpf4jnsgd1na2vs0mg"},{"bike_id":"8aad4b3a-5383-408e-ab3c-637816395348","system_id":"levelo_inurba_marseille","lat":43.33751,"lon":5.3746,"is_reserved":false,"is_disabled":false,"rental_uris":{"android":"levelo://app?vid=8aad4b3a-5383-408e-ab3c-637816395348","ios":"levelo://app?vid=8aad4b3a-5383-408e-ab3c-637816395348"},"vehicle_type_id":"4","last_reported":1721671840,"current_range_meters":19600,"station_id":"","pricing_plan_id":"cebpf4jnsgd1na2vs0mg"},{"bike_id":"9f4f7a69-64d9-4e57-a016-472cdb89d3bd","system_id":"levelo_inurba_marseille","lat":43.3376,"lon":5.37451,"is_reserved":false,"is_disabled":false,"rental_uris":{"android":"levelo://app?vid=9f4f7a69-64d9-4e57-a016-472cdb89d3bd","ios":"levelo://app?vid=9f4f7a69-64d9-4e57-a016-472cdb89d3bd"},"vehicle_type_id":"4","last_reported":1721671840,"current_range_meters":21600,"station_id":"","pricing_plan_id":"cebpf4jnsgd1na2vs0mg"},{"bike_id":"5597d3ad-9e62-46fc-b8ff-1ca2163dbd74","system_id":"levelo_inurba_marseille","lat":43.33755,"lon":5.37483,"is_reserved":false,"is_disabled":false,"rental_uris":{"android":"levelo://app?vid=5597d3ad-9e62-46fc-b8ff-1ca2163dbd74","ios":"levelo://app?vid=5597d3ad-9e62-46fc-b8ff-1ca2163dbd74"},"vehicle_type_id":"4","last_reported":1721671840,"current_range_meters":21600,"station_id":"","pricing_plan_id":"cebpf4jnsgd1na2vs0mg"},{"bike_id":"91a5e691-c730-482f-af68-7a83591109a2","system_id":"levelo_inurba_marseille","lat":43.30642,"lon":5.401031,"is_reserved":false,"is_disabled":false,"rental_uris":{"android":"levelo://app?vid=91a5e691-c730-482f-af68-7a83591109a2","ios":"levelo://app?vid=91a5e691-c730-482f-af68-7a83591109a2"},"vehicle_type_id":"4","last_reported":1721671840,"current_range_meters":400,"station_id":"ce4bh112rcd13ifvqda0","pricing_plan_id":"cebpf4jnsgd1na2vs0mg"},{"bike_id":"7e466d92-0d0d-41d0-a972-3e310ec3da62","system_id":"levelo_inurba_marseille","lat":43.301117,"lon":5.398795,"is_reserved":false,"is_disabled":false,"rental_uris":{"android":"levelo://app?vid=7e466d92-0d0d-41d0-a972-3e310ec3da62","ios":"levelo://app?vid=7e466d92-0d0d-41d0-a972-3e310ec3da62"},"vehicle_type_id":"4","last_reported":1721671840,"current_range_meters":15200,"station_id":"ce4bh0h2rcd13ifvqd40","pricing_plan_id":"cebpf4jnsgd1na2vs0mg"},{"bike_id":"8639d1ad-31a4-4eb4-aaf7-449ab4ee31de","system_id":"levelo_inurba_marseille","lat":43.301117,"lon":5.398795,"is_reserved":false,"is_disabled":false,"rental_uris":{"android":"levelo://app?vid=8639d1ad-31a4-4eb4-aaf7-449ab4ee31de","ios":"levelo://app?vid=8639d1ad-31a4-4eb4-aaf7-449ab4ee31de"},"vehicle_type_id":"4","last_reported":1721671840,"current_range_meters":0,"station_id":"ce4bh0h2rcd13ifvqd40","pricing_plan_id":"cebpf4jnsgd1na2vs0mg"},{"bike_id":"03670571-db3c-4d50-bbb6-03009a5250df","system_id":"levelo_inurba_marseille","lat":43.28727,"lon":5.36078,"is_reserved":false,"is_disabled":false,"rental_uris":{"android":"levelo://app?vid=03670571-db3c-4d50-bbb6-03009a5250df","ios":"levelo://app?vid=03670571-db3c-4d50-bbb6-03009a5250df"},"vehicle_type_id":"4","last_reported":1721671840,"current_range_meters":13600,"station_id":"cki0cbj6b192h4jlfktg","pricing_plan_id":"cebpf4jnsgd1na2vs0mg"},{"bike_id":"a802ef09-fb23-453d-9e99-5a2357886a37","system_id":"levelo_inurba_marseille","lat":43.28727,"lon":5.36078,"is_reserved":false,"is_disabled":false,"rental_uris":{"android":"levelo://app?vid=a802ef09-fb23-453d-9e99-5a2357886a37","ios":"levelo://app?vid=a802ef09-fb23-453d-9e99-5a2357886a37"},"vehicle_type_id":"4","last_reported":1721671840,"current_range_meters":19200,"station_id":"cki0cbj6b192h4jlfktg","pricing_plan_id":"cebpf4jnsgd1na2vs0mg"},{"bike_id":"12001f8b-4ad5-46cf-9435-fd28ff5b6700","system_id":"levelo_inurba_marseille","lat":43.28727,"lon":5.36078,"is_reserved":false,"is_disabled":false,"rental_uris":{"android":"levelo://app?vid=12001f8b-4ad5-46cf-9435-fd28ff5b6700","ios":"levelo://app?vid=12001f8b-4ad5-46cf-9435-fd28ff5b6700"},"vehicle_type_id":"4","last_reported":1721671840,"current_range_meters":10400,"station_id":"cki0cbj6b192h4jlfktg","pricing_plan_id":"cebpf4jnsgd1na2vs0mg"},{"bike_id":"d37e8f64-fe3d-4636-89d9-28632b51af26","system_id":"levelo_inurba_marseille","lat":43.28727,"lon":5.36078,"is_reserved":false,"is_disabled":false,"rental_uris":{"android":"levelo://app?vid=d37e8f64-fe3d-4636-89d9-28632b51af26","ios":"levelo://app?vid=d37e8f64-fe3d-4636-89d9-28632b51af26"},"vehicle_type_id":"4","last_reported":1721671840,"current_range_meters":2400,"station_id":"cki0cbj6b192h4jlfktg","pricing_plan_id":"cebpf4jnsgd1na2vs0mg"},{"bike_id":"83e2ff14-eb8f-4b09-bb65-83e14f52b082","system_id":"levelo_inurba_marseille","lat":43.28724,"lon":5.36078,"is_reserved":false,"is_disabled":false,"rental_uris":{"android":"levelo://app?vid=83e2ff14-eb8f-4b09-bb65-83e14f52b082","ios":"levelo://app?vid=83e2ff14-eb8f-4b09-bb65-83e14f52b082"},"vehicle_type_id":"4","last_reported":1721671840,"current_range_meters":27200,"station_id":"","pricing_plan_id":"cebpf4jnsgd1na2vs0mg"},{"bike_id":"67e05690-1837-44bd-93a7-44aba1f9004c","system_id":"levelo_inurba_marseille","lat":43.28727,"lon":5.36078,"is_reserved":false,"is_disabled":false,"rental_uris":{"android":"levelo://app?vid=67e05690-1837-44bd-93a7-44aba1f9004c","ios":"levelo://app?vid=67e05690-1837-44bd-93a7-44aba1f9004c"},"vehicle_type_id":"4","last_reported":1721671840,"current_range_meters":400,"station_id":"cki0cbj6b192h4jlfktg","pricing_plan_id":"cebpf4jnsgd1na2vs0mg"},{"bike_id":"8dffd0ab-582d-4f45-9542-92713b8fc4bd","system_id":"levelo_inurba_marseille","lat":43.28675,"lon":5.36362,"is_reserved":false,"is_disabled":false,"rental_uris":{"android":"levelo://app?vid=8dffd0ab-582d-4f45-9542-92713b8fc4bd","ios":"levelo://app?vid=8dffd0ab-582d-4f45-9542-92713b8fc4bd"},"vehicle_type_id":"4","last_reported":1721671840,"current_range_meters":7200,"station_id":"","pricing_plan_id":"cebpf4jnsgd1na2vs0mg"},{"bike_id":"7f1a616d-e41f-4783-aff7-ec8fe8995318","system_id":"levelo_inurba_marseille","lat":43.286593,"lon":5.363346,"is_reserved":false,"is_disabled":false,"rental_uris":{"android":"levelo://app?vid=7f1a616d-e41f-4783-aff7-ec8fe8995318","ios":"levelo://app?vid=7f1a616d-e41f-4783-aff7-ec8fe8995318"},"vehicle_type_id":"4","last_reported":1721671840,"current_range_meters":20000,"station_id":"ce4bhah2rcd13ifvqej0","pricing_plan_id":"cebpf4jnsgd1na2vs0mg"},{"bike_id":"21863f93-e7eb-44f6-8f3c-c33da5105737","system_id":"levelo_inurba_marseille","lat":43.298791,"lon":5.397488,"is_reserved":false,"is_disabled":false,"rental_uris":{"android":"levelo://app?vid=21863f93-e7eb-44f6-8f3c-c33da5105737","ios":"levelo://app?vid=21863f93-e7eb-44f6-8f3c-c33da5105737"},"vehicle_type_id":"4","last_reported":1721671840,"current_range_meters":0,"station_id":"ce4bh0h2rcd13ifvqd50","pricing_plan_id":"cebpf4jnsgd1na2vs0mg"},{"bike_id":"512d517d-560e-4682-afbe-712e6800f3f5","system_id":"levelo_inurba_marseille","lat":43.286961,"lon":5.373785,"is_reserved":false,"is_disabled":false,"rental_uris":{"android":"levelo://app?vid=512d517d-560e-4682-afbe-712e6800f3f5","ios":"levelo://app?vid=512d517d-560e-4682-afbe-712e6800f3f5"},"vehicle_type_id":"4","last_reported":1721671840,"current_range_meters":7200,"station_id":"ce4bh3p2rcd13ifvqdq0","pricing_plan_id":"cebpf4jnsgd1na2vs0mg"},{"bike_id":"7428ec09-1352-4d5a-9635-ba7cc19f53b8","system_id":"levelo_inurba_marseille","lat":43.286961,"lon":5.373785,"is_reserved":false,"is_disabled":false,"rental_uris":{"android":"levelo://app?vid=7428ec09-1352-4d5a-9635-ba7cc19f53b8","ios":"levelo://app?vid=7428ec09-1352-4d5a-9635-ba7cc19f53b8"},"vehicle_type_id":"4","last_reported":1721671840,"current_range_meters":0,"station_id":"ce4bh3p2rcd13ifvqdq0","pricing_plan_id":"cebpf4jnsgd1na2vs0mg"},{"bike_id":"efbca819-766a-48e7-bdca-efbeb145a4f2","system_id":"levelo_inurba_marseille","lat":43.286961,"lon":5.373785,"is_reserved":false,"is_disabled":false,"rental_uris":{"android":"levelo://app?vid=efbca819-766a-48e7-bdca-efbeb145a4f2","ios":"levelo://app?vid=efbca819-766a-48e7-bdca-efbeb145a4f2"},"vehicle_type_id":"4","last_reported":1721671840,"current_range_meters":2800,"station_id":"ce4bh3p2rcd13ifvqdq0","pricing_plan_id":"cebpf4jnsgd1na2vs0mg"},{"bike_id":"bbd577dc-3ef4-42c6-8104-c019d7a9dda0","system_id":"levelo_inurba_marseille","lat":43.29526,"lon":5.39399,"is_reserved":false,"is_disabled":false,"rental_uris":{"android":"levelo://app?vid=bbd577dc-3ef4-42c6-8104-c019d7a9dda0","ios":"levelo://app?vid=bbd577dc-3ef4-42c6-8104-c019d7a9dda0"},"vehicle_type_id":"4","last_reported":1721671840,"current_range_meters":4400,"station_id":"","pricing_plan_id":"cebpf4jnsgd1na2vs0mg"},{"bike_id":"ff0a6e95-e441-4894-8099-3f5d418307a2","system_id":"levelo_inurba_marseille","lat":43.284217,"lon":5.349697,"is_reserved":false,"is_disabled":false,"rental_uris":{"android":"levelo://app?vid=ff0a6e95-e441-4894-8099-3f5d418307a2","ios":"levelo://app?vid=ff0a6e95-e441-4894-8099-3f5d418307a2"},"vehicle_type_id":"4","last_reported":1721671840,"current_range_meters":6000,"station_id":"ce4bhbh2rcd13ifvqepg","pricing_plan_id":"cebpf4jnsgd1na2vs0mg"},{"bike_id":"bb99f383-9efe-400a-a277-bbcdf5f21306","system_id":"levelo_inurba_marseille","lat":43.290342,"lon":5.386482,"is_reserved":false,"is_disabled":false,"rental_uris":{"android":"levelo://app?vid=bb99f383-9efe-400a-a277-bbcdf5f21306","ios":"levelo://app?vid=bb99f383-9efe-400a-a277-bbcdf5f21306"},"vehicle_type_id":"4","last_reported":1721671840,"current_range_meters":26000,"station_id":"ce4bh4p2rcd13ifvqe0g","pricing_plan_id":"cebpf4jnsgd1na2vs0mg"},{"bike_id":"d3403efc-5f8b-4121-b70f-337a5a20c8b4","system_id":"levelo_inurba_marseille","lat":43.30258,"lon":5.40071,"is_reserved":false,"is_disabled":false,"rental_uris":{"android":"levelo://app?vid=d3403efc-5f8b-4121-b70f-337a5a20c8b4","ios":"levelo://app?vid=d3403efc-5f8b-4121-b70f-337a5a20c8b4"},"vehicle_type_id":"4","last_reported":1721671840,"current_range_meters":0,"station_id":"ce4bgvh2rcd13ifvqcs0","pricing_plan_id":"cebpf4jnsgd1na2vs0mg"},{"bike_id":"b021df47-f6fd-4c3e-9c4e-b51963f5352b","system_id":"levelo_inurba_marseille","lat":43.29021,"lon":5.3864,"is_reserved":false,"is_disabled":false,"rental_uris":{"android":"levelo://app?vid=b021df47-f6fd-4c3e-9c4e-b51963f5352b","ios":"levelo://app?vid=b021df47-f6fd-4c3e-9c4e-b51963f5352b"},"vehicle_type_id":"4","last_reported":1721671840,"current_range_meters":27200,"station_id":"ce4bh4p2rcd13ifvqe0g","pricing_plan_id":"cebpf4jnsgd1na2vs0mg"},{"bike_id":"539af77c-a7ae-4c42-a584-606fd3fe1076","system_id":"levelo_inurba_marseille","lat":43.302759,"lon":5.400793,"is_reserved":false,"is_disabled":false,"rental_uris":{"android":"levelo://app?vid=539af77c-a7ae-4c42-a584-606fd3fe1076","ios":"levelo://app?vid=539af77c-a7ae-4c42-a584-606fd3fe1076"},"vehicle_type_id":"4","last_reported":1721671840,"current_range_meters":3200,"station_id":"ce4bgvh2rcd13ifvqcs0","pricing_plan_id":"cebpf4jnsgd1na2vs0mg"},{"bike_id":"57828fe8-7c71-4008-9b00-4e11011f53f2","system_id":"levelo_inurba_marseille","lat":43.302759,"lon":5.400793,"is_reserved":false,"is_disabled":false,"rental_uris":{"android":"levelo://app?vid=57828fe8-7c71-4008-9b00-4e11011f53f2","ios":"levelo://app?vid=57828fe8-7c71-4008-9b00-4e11011f53f2"},"vehicle_type_id":"4","last_reported":1721671840,"current_range_meters":0,"station_id":"ce4bgvh2rcd13ifvqcs0","pricing_plan_id":"cebpf4jnsgd1na2vs0mg"},{"bike_id":"f7c86b95-85b2-4ca6-81f1-1461a82c2520","system_id":"levelo_inurba_marseille","lat":43.286039,"lon":5.370681,"is_reserved":false,"is_disabled":false,"rental_uris":{"android":"levelo://app?vid=f7c86b95-85b2-4ca6-81f1-1461a82c2520","ios":"levelo://app?vid=f7c86b95-85b2-4ca6-81f1-1461a82c2520"},"vehicle_type_id":"4","last_reported":1721671840,"current_range_meters":8800,"station_id":"ce4bht12rcd13ifvqi60","pricing_plan_id":"cebpf4jnsgd1na2vs0mg"},{"bike_id":"34c51897-2c61-404e-b050-09e59d683336","system_id":"levelo_inurba_marseille","lat":43.317557,"lon":5.390173,"is_reserved":false,"is_disabled":false,"rental_uris":{"android":"levelo://app?vid=34c51897-2c61-404e-b050-09e59d683336","ios":"levelo://app?vid=34c51897-2c61-404e-b050-09e59d683336"},"vehicle_type_id":"4","last_reported":1721671840,"current_range_meters":16000,"station_id":"ce4bhqp2rcd13ifvqhng","pricing_plan_id":"cebpf4jnsgd1na2vs0mg"},{"bike_id":"7d356f49-aa8d-4db9-bcba-c275cd464a42","system_id":"levelo_inurba_marseille","lat":43.316821,"lon":5.404737,"is_reserved":false,"is_disabled":false,"rental_uris":{"android":"levelo://app?vid=7d356f49-aa8d-4db9-bcba-c275cd464a42","ios":"levelo://app?vid=7d356f49-aa8d-4db9-bcba-c275cd464a42"},"vehicle_type_id":"4","last_reported":1721671840,"current_range_meters":21200,"station_id":"ce4bh012rcd13ifvqd00","pricing_plan_id":"cebpf4jnsgd1na2vs0mg"},{"bike_id":"0321fbb6-be1d-412d-b2c9-60c5cb75fe21","system_id":"levelo_inurba_marseille","lat":43.316828,"lon":5.404723,"is_reserved":false,"is_disabled":false,"rental_uris":{"android":"levelo://app?vid=0321fbb6-be1d-412d-b2c9-60c5cb75fe21","ios":"levelo://app?vid=0321fbb6-be1d-412d-b2c9-60c5cb75fe21"},"vehicle_type_id":"4","last_reported":1721671840,"current_range_meters":0,"station_id":"ce4bh012rcd13ifvqd00","pricing_plan_id":"cebpf4jnsgd1na2vs0mg"},{"bike_id":"a024039e-74d6-4c8e-8d4e-d3d7ad54b80f","system_id":"levelo_inurba_marseille","lat":43.291994,"lon":5.392907,"is_reserved":false,"is_disabled":false,"rental_uris":{"android":"levelo://app?vid=a024039e-74d6-4c8e-8d4e-d3d7ad54b80f","ios":"levelo://app?vid=a024039e-74d6-4c8e-8d4e-d3d7ad54b80f"},"vehicle_type_id":"4","last_reported":1721671840,"current_range_meters":8000,"station_id":"ce4bh192rcd13ifvqdd0","pricing_plan_id":"cebpf4jnsgd1na2vs0mg"},{"bike_id":"0a3ed4f9-d85a-4676-bf47-bc679d66e19e","system_id":"levelo_inurba_marseille","lat":43.291994,"lon":5.392907,"is_reserved":false,"is_disabled":false,"rental_uris":{"android":"levelo://app?vid=0a3ed4f9-d85a-4676-bf47-bc679d66e19e","ios":"levelo://app?vid=0a3ed4f9-d85a-4676-bf47-bc679d66e19e"},"vehicle_type_id":"4","last_reported":1721671840,"current_range_meters":800,"station_id":"ce4bh192rcd13ifvqdd0","pricing_plan_id":"cebpf4jnsgd1na2vs0mg"},{"bike_id":"32d52625-69e3-4184-96b0-b600f3d66c50","system_id":"levelo_inurba_marseille","lat":43.291994,"lon":5.392907,"is_reserved":false,"is_disabled":false,"rental_uris":{"android":"levelo://app?vid=32d52625-69e3-4184-96b0-b600f3d66c50","ios":"levelo://app?vid=32d52625-69e3-4184-96b0-b600f3d66c50"},"vehicle_type_id":"4","last_reported":1721671840,"current_range_meters":6800,"station_id":"ce4bh192rcd13ifvqdd0","pricing_plan_id":"cebpf4jnsgd1na2vs0mg"},{"bike_id":"63a14751-7c21-45d9-bf48-6456beade1ed","system_id":"levelo_inurba_marseille","lat":43.284538,"lon":5.358657,"is_reserved":false,"is_disabled":false,"rental_uris":{"android":"levelo://app?vid=63a14751-7c21-45d9-bf48-6456beade1ed","ios":"levelo://app?vid=63a14751-7c21-45d9-bf48-6456beade1ed"},"vehicle_type_id":"4","last_reported":1721671840,"current_range_meters":14800,"station_id":"ce4bhah2rcd13ifvqei0","pricing_plan_id":"cebpf4jnsgd1na2vs0mg"},{"bike_id":"7fe19932-3f4a-485c-8800-08ac24e2f080","system_id":"levelo_inurba_marseille","lat":43.28465,"lon":5.35893,"is_reserved":false,"is_disabled":false,"rental_uris":{"android":"levelo://app?vid=7fe19932-3f4a-485c-8800-08ac24e2f080","ios":"levelo://app?vid=7fe19932-3f4a-485c-8800-08ac24e2f080"},"vehicle_type_id":"4","last_reported":1721671840,"current_range_meters":0,"station_id":"ce4bhah2rcd13ifvqei0","pricing_plan_id":"cebpf4jnsgd1na2vs0mg"},{"bike_id":"a1c09213-6f13-4121-9531-6c71af58cfe2","system_id":"levelo_inurba_marseille","lat":43.284534,"lon":5.358662,"is_reserved":false,"is_disabled":false,"rental_uris":{"android":"levelo://app?vid=a1c09213-6f13-4121-9531-6c71af58cfe2","ios":"levelo://app?vid=a1c09213-6f13-4121-9531-6c71af58cfe2"},"vehicle_type_id":"4","last_reported":1721671840,"current_range_meters":13600,"station_id":"ce4bhah2rcd13ifvqei0","pricing_plan_id":"cebpf4jnsgd1na2vs0mg"},{"bike_id":"83653189-8029-4deb-bd88-7df5dd98eb06","system_id":"levelo_inurba_marseille","lat":43.284534,"lon":5.358662,"is_reserved":false,"is_disabled":false,"rental_uris":{"android":"levelo://app?vid=83653189-8029-4deb-bd88-7df5dd98eb06","ios":"levelo://app?vid=83653189-8029-4deb-bd88-7df5dd98eb06"},"vehicle_type_id":"4","last_reported":1721671840,"current_range_meters":9600,"station_id":"ce4bhah2rcd13ifvqei0","pricing_plan_id":"cebpf4jnsgd1na2vs0mg"},{"bike_id":"79bf1594-1bc5-489c-9830-9e70e8225120","system_id":"levelo_inurba_marseille","lat":43.2945,"lon":5.39755,"is_reserved":false,"is_disabled":false,"rental_uris":{"android":"levelo://app?vid=79bf1594-1bc5-489c-9830-9e70e8225120","ios":"levelo://app?vid=79bf1594-1bc5-489c-9830-9e70e8225120"},"vehicle_type_id":"4","last_reported":1721671840,"current_range_meters":0,"station_id":"ce4bh3h2rcd13ifvqdo0","pricing_plan_id":"cebpf4jnsgd1na2vs0mg"},{"bike_id":"a45b82a6-d8b5-423b-8cb9-f208ef42e20e","system_id":"levelo_inurba_marseille","lat":43.2944,"lon":5.39753,"is_reserved":false,"is_disabled":false,"rental_uris":{"android":"levelo://app?vid=a45b82a6-d8b5-423b-8cb9-f208ef42e20e","ios":"levelo://app?vid=a45b82a6-d8b5-423b-8cb9-f208ef42e20e"},"vehicle_type_id":"4","last_reported":1721671840,"current_range_meters":0,"station_id":"ce4bh3h2rcd13ifvqdo0","pricing_plan_id":"cebpf4jnsgd1na2vs0mg"},{"bike_id":"9d453e24-875f-43eb-b422-2958280938ba","system_id":"levelo_inurba_marseille","lat":43.2862,"lon":5.35104,"is_reserved":false,"is_disabled":false,"rental_uris":{"android":"levelo://app?vid=9d453e24-875f-43eb-b422-2958280938ba","ios":"levelo://app?vid=9d453e24-875f-43eb-b422-2958280938ba"},"vehicle_type_id":"4","last_reported":1721671840,"current_range_meters":9200,"station_id":"ce4bhch2rcd13ifvqeug","pricing_plan_id":"cebpf4jnsgd1na2vs0mg"},{"bike_id":"8549d85c-6303-4af1-953e-a76279960a46","system_id":"levelo_inurba_marseille","lat":43.285856,"lon":5.350771,"is_reserved":false,"is_disabled":false,"rental_uris":{"android":"levelo://app?vid=8549d85c-6303-4af1-953e-a76279960a46","ios":"levelo://app?vid=8549d85c-6303-4af1-953e-a76279960a46"},"vehicle_type_id":"4","last_reported":1721671840,"current_range_meters":7600,"station_id":"ce4bhch2rcd13ifvqeug","pricing_plan_id":"cebpf4jnsgd1na2vs0mg"},{"bike_id":"31623910-801a-4fcd-b1c5-07997717ef6a","system_id":"levelo_inurba_marseille","lat":43.285856,"lon":5.350771,"is_reserved":false,"is_disabled":false,"rental_uris":{"android":"levelo://app?vid=31623910-801a-4fcd-b1c5-07997717ef6a","ios":"levelo://app?vid=31623910-801a-4fcd-b1c5-07997717ef6a"},"vehicle_type_id":"4","last_reported":1721671840,"current_range_meters":1600,"station_id":"ce4bhch2rcd13ifvqeug","pricing_plan_id":"cebpf4jnsgd1na2vs0mg"},{"bike_id":"c033af62-77f7-4d93-8331-85f1ddebaf6f","system_id":"levelo_inurba_marseille","lat":43.286145,"lon":5.35098,"is_reserved":false,"is_disabled":false,"rental_uris":{"android":"levelo://app?vid=c033af62-77f7-4d93-8331-85f1ddebaf6f","ios":"levelo://app?vid=c033af62-77f7-4d93-8331-85f1ddebaf6f"},"vehicle_type_id":"4","last_reported":1721671840,"current_range_meters":13600,"station_id":"ce4bhch2rcd13ifvqeug","pricing_plan_id":"cebpf4jnsgd1na2vs0mg"},{"bike_id":"62aee545-f2dd-479c-9457-0adad5eb5707","system_id":"levelo_inurba_marseille","lat":43.28614,"lon":5.35099,"is_reserved":false,"is_disabled":false,"rental_uris":{"android":"levelo://app?vid=62aee545-f2dd-479c-9457-0adad5eb5707","ios":"levelo://app?vid=62aee545-f2dd-479c-9457-0adad5eb5707"},"vehicle_type_id":"4","last_reported":1721671840,"current_range_meters":31200,"station_id":"ce4bhch2rcd13ifvqeug","pricing_plan_id":"cebpf4jnsgd1na2vs0mg"},{"bike_id":"5e8cff15-0284-4d10-9b5f-be1959994fa0","system_id":"levelo_inurba_marseille","lat":43.28609,"lon":5.35092,"is_reserved":false,"is_disabled":false,"rental_uris":{"android":"levelo://app?vid=5e8cff15-0284-4d10-9b5f-be1959994fa0","ios":"levelo://app?vid=5e8cff15-0284-4d10-9b5f-be1959994fa0"},"vehicle_type_id":"4","last_reported":1721671840,"current_range_meters":16800,"station_id":"ce4bhch2rcd13ifvqeug","pricing_plan_id":"cebpf4jnsgd1na2vs0mg"},{"bike_id":"84b1a022-c5a0-4484-9e9d-45bbbf9c8595","system_id":"levelo_inurba_marseille","lat":43.285848,"lon":5.350787,"is_reserved":false,"is_disabled":false,"rental_uris":{"android":"levelo://app?vid=84b1a022-c5a0-4484-9e9d-45bbbf9c8595","ios":"levelo://app?vid=84b1a022-c5a0-4484-9e9d-45bbbf9c8595"},"vehicle_type_id":"4","last_reported":1721671840,"current_range_meters":20000,"station_id":"ce4bhch2rcd13ifvqeug","pricing_plan_id":"cebpf4jnsgd1na2vs0mg"},{"bike_id":"7291ca4c-d485-467d-beaf-20f1d4f0b7c9","system_id":"levelo_inurba_marseille","lat":43.283998,"lon":5.375062,"is_reserved":false,"is_disabled":false,"rental_uris":{"android":"levelo://app?vid=7291ca4c-d485-467d-beaf-20f1d4f0b7c9","ios":"levelo://app?vid=7291ca4c-d485-467d-beaf-20f1d4f0b7c9"},"vehicle_type_id":"4","last_reported":1721671840,"current_range_meters":400,"station_id":"ce4bh412rcd13ifvqds0","pricing_plan_id":"cebpf4jnsgd1na2vs0mg"},{"bike_id":"66aeb607-067a-4f62-b8d8-34fd58f644ad","system_id":"levelo_inurba_marseille","lat":43.283998,"lon":5.375062,"is_reserved":false,"is_disabled":false,"rental_uris":{"android":"levelo://app?vid=66aeb607-067a-4f62-b8d8-34fd58f644ad","ios":"levelo://app?vid=66aeb607-067a-4f62-b8d8-34fd58f644ad"},"vehicle_type_id":"4","last_reported":1721671840,"current_range_meters":16800,"station_id":"ce4bh412rcd13ifvqds0","pricing_plan_id":"cebpf4jnsgd1na2vs0mg"},{"bike_id":"c6effa0a-5225-4d2c-98e7-ef0d59c8720d","system_id":"levelo_inurba_marseille","lat":43.283998,"lon":5.375062,"is_reserved":false,"is_disabled":false,"rental_uris":{"android":"levelo://app?vid=c6effa0a-5225-4d2c-98e7-ef0d59c8720d","ios":"levelo://app?vid=c6effa0a-5225-4d2c-98e7-ef0d59c8720d"},"vehicle_type_id":"4","last_reported":1721671840,"current_range_meters":27600,"station_id":"ce4bh412rcd13ifvqds0","pricing_plan_id":"cebpf4jnsgd1na2vs0mg"},{"bike_id":"59af06bb-8231-41e8-b658-f372e5dd1292","system_id":"levelo_inurba_marseille","lat":43.283998,"lon":5.375062,"is_reserved":false,"is_disabled":false,"rental_uris":{"android":"levelo://app?vid=59af06bb-8231-41e8-b658-f372e5dd1292","ios":"levelo://app?vid=59af06bb-8231-41e8-b658-f372e5dd1292"},"vehicle_type_id":"4","last_reported":1721671840,"current_range_meters":19200,"station_id":"ce4bh412rcd13ifvqds0","pricing_plan_id":"cebpf4jnsgd1na2vs0mg"},{"bike_id":"b59132bf-29ee-41ab-95a1-4a286d7ee49f","system_id":"levelo_inurba_marseille","lat":43.283998,"lon":5.375062,"is_reserved":false,"is_disabled":false,"rental_uris":{"android":"levelo://app?vid=b59132bf-29ee-41ab-95a1-4a286d7ee49f","ios":"levelo://app?vid=b59132bf-29ee-41ab-95a1-4a286d7ee49f"},"vehicle_type_id":"4","last_reported":1721671840,"current_range_meters":2400,"station_id":"ce4bh412rcd13ifvqds0","pricing_plan_id":"cebpf4jnsgd1na2vs0mg"},{"bike_id":"4c4f2980-9558-46b6-8d04-531725e1d353","system_id":"levelo_inurba_marseille","lat":43.283998,"lon":5.375062,"is_reserved":false,"is_disabled":false,"rental_uris":{"android":"levelo://app?vid=4c4f2980-9558-46b6-8d04-531725e1d353","ios":"levelo://app?vid=4c4f2980-9558-46b6-8d04-531725e1d353"},"vehicle_type_id":"4","last_reported":1721671840,"current_range_meters":27200,"station_id":"ce4bh412rcd13ifvqds0","pricing_plan_id":"cebpf4jnsgd1na2vs0mg"},{"bike_id":"40dc1443-fe45-4767-9e1c-f7752f2d0b98","system_id":"levelo_inurba_marseille","lat":43.283998,"lon":5.375062,"is_reserved":false,"is_disabled":false,"rental_uris":{"android":"levelo://app?vid=40dc1443-fe45-4767-9e1c-f7752f2d0b98","ios":"levelo://app?vid=40dc1443-fe45-4767-9e1c-f7752f2d0b98"},"vehicle_type_id":"4","last_reported":1721671840,"current_range_meters":24400,"station_id":"ce4bh412rcd13ifvqds0","pricing_plan_id":"cebpf4jnsgd1na2vs0mg"},{"bike_id":"a4ac0e5d-b42c-48dd-976e-83d75e110312","system_id":"levelo_inurba_marseille","lat":43.283998,"lon":5.375062,"is_reserved":false,"is_disabled":false,"rental_uris":{"android":"levelo://app?vid=a4ac0e5d-b42c-48dd-976e-83d75e110312","ios":"levelo://app?vid=a4ac0e5d-b42c-48dd-976e-83d75e110312"},"vehicle_type_id":"4","last_reported":1721671840,"current_range_meters":19600,"station_id":"ce4bh412rcd13ifvqds0","pricing_plan_id":"cebpf4jnsgd1na2vs0mg"},{"bike_id":"ff68075b-4a70-4e9c-b5c9-cfefa5078164","system_id":"levelo_inurba_marseille","lat":43.286595,"lon":5.386795,"is_reserved":false,"is_disabled":false,"rental_uris":{"android":"levelo://app?vid=ff68075b-4a70-4e9c-b5c9-cfefa5078164","ios":"levelo://app?vid=ff68075b-4a70-4e9c-b5c9-cfefa5078164"},"vehicle_type_id":"4","last_reported":1721671840,"current_range_meters":23200,"station_id":"ce4bh492rcd13ifvqdug","pricing_plan_id":"cebpf4jnsgd1na2vs0mg"},{"bike_id":"ecf70f86-2a87-4825-98e6-42db1f69efaa","system_id":"levelo_inurba_marseille","lat":43.286794,"lon":5.386584,"is_reserved":false,"is_disabled":false,"rental_uris":{"android":"levelo://app?vid=ecf70f86-2a87-4825-98e6-42db1f69efaa","ios":"levelo://app?vid=ecf70f86-2a87-4825-98e6-42db1f69efaa"},"vehicle_type_id":"4","last_reported":1721671840,"current_range_meters":0,"station_id":"ce4bh492rcd13ifvqdug","pricing_plan_id":"cebpf4jnsgd1na2vs0mg"},{"bike_id":"496516ae-82fe-4d68-aa16-81ff67a1ca79","system_id":"levelo_inurba_marseille","lat":43.286595,"lon":5.386795,"is_reserved":false,"is_disabled":false,"rental_uris":{"android":"levelo://app?vid=496516ae-82fe-4d68-aa16-81ff67a1ca79","ios":"levelo://app?vid=496516ae-82fe-4d68-aa16-81ff67a1ca79"},"vehicle_type_id":"4","last_reported":1721671840,"current_range_meters":0,"station_id":"ce4bh492rcd13ifvqdug","pricing_plan_id":"cebpf4jnsgd1na2vs0mg"},{"bike_id":"7f93fad5-3339-4c73-bc67-d992de188fd3","system_id":"levelo_inurba_marseille","lat":43.319179,"lon":5.407725,"is_reserved":false,"is_disabled":false,"rental_uris":{"android":"levelo://app?vid=7f93fad5-3339-4c73-bc67-d992de188fd3","ios":"levelo://app?vid=7f93fad5-3339-4c73-bc67-d992de188fd3"},"vehicle_type_id":"4","last_reported":1721671840,"current_range_meters":0,"station_id":"ce4bhq12rcd13ifvqhig","pricing_plan_id":"cebpf4jnsgd1na2vs0mg"},{"bike_id":"c79073f3-7d6a-4996-837e-167cdb685ace","system_id":"levelo_inurba_marseille","lat":43.283494,"lon":5.380945,"is_reserved":false,"is_disabled":false,"rental_uris":{"android":"levelo://app?vid=c79073f3-7d6a-4996-837e-167cdb685ace","ios":"levelo://app?vid=c79073f3-7d6a-4996-837e-167cdb685ace"},"vehicle_type_id":"4","last_reported":1721671840,"current_range_meters":0,"station_id":"ce4bh412rcd13ifvqdr0","pricing_plan_id":"cebpf4jnsgd1na2vs0mg"},{"bike_id":"5252b10a-3928-40b7-b0a6-88123f35c2d7","system_id":"levelo_inurba_marseille","lat":43.32338,"lon":5.40624,"is_reserved":false,"is_disabled":false,"rental_uris":{"android":"levelo://app?vid=5252b10a-3928-40b7-b0a6-88123f35c2d7","ios":"levelo://app?vid=5252b10a-3928-40b7-b0a6-88123f35c2d7"},"vehicle_type_id":"4","last_reported":1721671840,"current_range_meters":2400,"station_id":"ce4bhq92rcd13ifvqhjg","pricing_plan_id":"cebpf4jnsgd1na2vs0mg"},{"bike_id":"d39df1ae-877c-4ffb-88d5-aea178f8dbcb","system_id":"levelo_inurba_marseille","lat":43.28468,"lon":5.38408,"is_reserved":false,"is_disabled":false,"rental_uris":{"android":"levelo://app?vid=d39df1ae-877c-4ffb-88d5-aea178f8dbcb","ios":"levelo://app?vid=d39df1ae-877c-4ffb-88d5-aea178f8dbcb"},"vehicle_type_id":"4","last_reported":1721671840,"current_range_meters":0,"station_id":"ce4bh512rcd13ifvqe3g","pricing_plan_id":"cebpf4jnsgd1na2vs0mg"},{"bike_id":"805d71ba-5af3-49fe-bb9e-dae2bee3b331","system_id":"levelo_inurba_marseille","lat":43.284219,"lon":5.3497,"is_reserved":false,"is_disabled":false,"rental_uris":{"android":"levelo://app?vid=805d71ba-5af3-49fe-bb9e-dae2bee3b331","ios":"levelo://app?vid=805d71ba-5af3-49fe-bb9e-dae2bee3b331"},"vehicle_type_id":"4","last_reported":1721671840,"current_range_meters":31200,"station_id":"ce4bhbh2rcd13ifvqepg","pricing_plan_id":"cebpf4jnsgd1na2vs0mg"},{"bike_id":"539d8e09-3c12-4aa3-9666-f87d504eeb24","system_id":"levelo_inurba_marseille","lat":43.284776,"lon":5.385603,"is_reserved":false,"is_disabled":false,"rental_uris":{"android":"levelo://app?vid=539d8e09-3c12-4aa3-9666-f87d504eeb24","ios":"levelo://app?vid=539d8e09-3c12-4aa3-9666-f87d504eeb24"},"vehicle_type_id":"4","last_reported":1721671840,"current_range_meters":0,"station_id":"ce4bh8p2rcd13ifvqeb0","pricing_plan_id":"cebpf4jnsgd1na2vs0mg"},{"bike_id":"399f33e1-76e5-4274-8e4e-5a8f179b2c5e","system_id":"levelo_inurba_marseille","lat":43.284439,"lon":5.349639,"is_reserved":false,"is_disabled":false,"rental_uris":{"android":"levelo://app?vid=399f33e1-76e5-4274-8e4e-5a8f179b2c5e","ios":"levelo://app?vid=399f33e1-76e5-4274-8e4e-5a8f179b2c5e"},"vehicle_type_id":"4","last_reported":1721671840,"current_range_meters":2000,"station_id":"ce4bhch2rcd13ifvqeug","pricing_plan_id":"cebpf4jnsgd1na2vs0mg"},{"bike_id":"4fa0505e-8db3-492b-9b18-b4cdba3b5f6d","system_id":"levelo_inurba_marseille","lat":43.29454,"lon":5.401545,"is_reserved":false,"is_disabled":false,"rental_uris":{"android":"levelo://app?vid=4fa0505e-8db3-492b-9b18-b4cdba3b5f6d","ios":"levelo://app?vid=4fa0505e-8db3-492b-9b18-b4cdba3b5f6d"},"vehicle_type_id":"4","last_reported":1721671840,"current_range_meters":2800,"station_id":"","pricing_plan_id":"cebpf4jnsgd1na2vs0mg"},{"bike_id":"12f02e04-0016-4209-9c18-22b42c642609","system_id":"levelo_inurba_marseille","lat":43.284219,"lon":5.3497,"is_reserved":false,"is_disabled":false,"rental_uris":{"android":"levelo://app?vid=12f02e04-0016-4209-9c18-22b42c642609","ios":"levelo://app?vid=12f02e04-0016-4209-9c18-22b42c642609"},"vehicle_type_id":"4","last_reported":1721671840,"current_range_meters":31200,"station_id":"ce4bhbh2rcd13ifvqepg","pricing_plan_id":"cebpf4jnsgd1na2vs0mg"},{"bike_id":"2c2d6d6d-b636-436b-a079-9802a98bf6bc","system_id":"levelo_inurba_marseille","lat":43.28422,"lon":5.34989,"is_reserved":false,"is_disabled":false,"rental_uris":{"android":"levelo://app?vid=2c2d6d6d-b636-436b-a079-9802a98bf6bc","ios":"levelo://app?vid=2c2d6d6d-b636-436b-a079-9802a98bf6bc"},"vehicle_type_id":"4","last_reported":1721671840,"current_range_meters":31200,"station_id":"ce4bhbh2rcd13ifvqepg","pricing_plan_id":"cebpf4jnsgd1na2vs0mg"},{"bike_id":"7396f4e9-dd5f-40b8-a35c-85a48e2c7f6e","system_id":"levelo_inurba_marseille","lat":43.284214,"lon":5.349706,"is_reserved":false,"is_disabled":false,"rental_uris":{"android":"levelo://app?vid=7396f4e9-dd5f-40b8-a35c-85a48e2c7f6e","ios":"levelo://app?vid=7396f4e9-dd5f-40b8-a35c-85a48e2c7f6e"},"vehicle_type_id":"4","last_reported":1721671840,"current_range_meters":0,"station_id":"ce4bhbh2rcd13ifvqepg","pricing_plan_id":"cebpf4jnsgd1na2vs0mg"},{"bike_id":"c8aa9bd6-0172-4e3c-8bd3-3a8a9adb07fa","system_id":"levelo_inurba_marseille","lat":43.28422,"lon":5.34982,"is_reserved":false,"is_disabled":false,"rental_uris":{"android":"levelo://app?vid=c8aa9bd6-0172-4e3c-8bd3-3a8a9adb07fa","ios":"levelo://app?vid=c8aa9bd6-0172-4e3c-8bd3-3a8a9adb07fa"},"vehicle_type_id":"4","last_reported":1721671840,"current_range_meters":0,"station_id":"ce4bhbh2rcd13ifvqepg","pricing_plan_id":"cebpf4jnsgd1na2vs0mg"},{"bike_id":"28b5cb2f-9285-41fc-9f26-f95d42509c19","system_id":"levelo_inurba_marseille","lat":43.28419,"lon":5.34988,"is_reserved":false,"is_disabled":false,"rental_uris":{"android":"levelo://app?vid=28b5cb2f-9285-41fc-9f26-f95d42509c19","ios":"levelo://app?vid=28b5cb2f-9285-41fc-9f26-f95d42509c19"},"vehicle_type_id":"4","last_reported":1721671840,"current_range_meters":20000,"station_id":"ce4bhbh2rcd13ifvqepg","pricing_plan_id":"cebpf4jnsgd1na2vs0mg"},{"bike_id":"999705b7-59d7-4d6d-82d3-5cabad79ea0f","system_id":"levelo_inurba_marseille","lat":43.284219,"lon":5.3497,"is_reserved":false,"is_disabled":false,"rental_uris":{"android":"levelo://app?vid=999705b7-59d7-4d6d-82d3-5cabad79ea0f","ios":"levelo://app?vid=999705b7-59d7-4d6d-82d3-5cabad79ea0f"},"vehicle_type_id":"4","last_reported":1721671840,"current_range_meters":12000,"station_id":"ce4bhbh2rcd13ifvqepg","pricing_plan_id":"cebpf4jnsgd1na2vs0mg"},