{"last_updated":1761412088,"ttl":60,"version":"2.2","data":{"bikes":[{"bike_id":"cd8c35aa-96d2-47f0-aa30-8dc901f6a4a6","system_id":"levelo_inurba_marseille","lat":43.27972,"lon":5.38735,"is_reserved":false,"is_disabled":false,"rental_uris":{"android":"levelo://app?vid=cd8c35aa-96d2-47f0-aa30-8dc901f6a4a6","ios":"levelo://app?vid=cd8c35aa-96d2-47f0-aa30-8dc901f6a4a6"},"vehicle_type_id":"4","last_reported":1761412088,"current_range_meters":2800,"station_id":"ce4bhg12rcd13ifvqf80","pricing_plan_id":"cebpf4jnsgd1na2vs0mg"},{"bike_id":"e23ed880-b6a1-4ec4-b0a4-2eb6d153cf54","system_id":"levelo_inurba_marseille","lat":43.29031,"lon":5.39993,"is_reserved":false,"is_disabled":false,"rental_uris":{"android":"levelo://app?vid=e23ed880-b6a1-4ec4-b0a4-2eb6d153cf54","ios":"levelo://app?vid=e23ed880-b6a1-4ec4-b0a4-2eb6d153cf54"},"vehicle_type_id":"4","last_reported":1761412088,"current_range_meters":2800,"station_id":"ce4bh392rcd13ifvqdm0","pricing_plan_id":"cebpf4jnsgd1na2vs0mg"},{"bike_id":"0e2b3f61-f0db-4d5f-86b5-3473dbe7ca00","system_id":"levelo_inurba_marseille","lat":43.28854,"lon":5.39312,"is_reserved":false,"is_disabled":false,"rental_uris":{"android":"levelo://app?vid=0e2b3f61-f0db-4d5f-86b5-3473dbe7ca00","ios":"levelo://app?vid=0e2b3f61-f0db-4d5f-86b5-3473dbe7ca00"},"vehicle_type_id":"4","last_reported":1761412088,"current_range_meters":2800,"station_id":"ce4bh2p2rcd13ifvqdi0","pricing_plan_id":"cebpf4jnsgd1na2vs0mg"},{"bike_id":"139d020b-78f9-452a-b9f6-07a4ecc161b4","system_id":"levelo_inurba_marseille","lat":43.24547,"lon":5.39534,"is_reserved":false,"is_disabled":false,"rental_uris":{"android":"levelo://app?vid=139d020b-78f9-452a-b9f6-07a4ecc161b4","ios":"levelo://app?vid=139d020b-78f9-452a-b9f6-07a4ecc161b4"},"vehicle_type_id":"4","last_reported":1761412088,"current_range_meters":2800,"station_id":"ce4bhlp2rcd13ifvqgjg","pricing_plan_id":"cebpf4jnsgd1na2vs0mg"},{"bike_id":"38c5f765-8070-46ff-b724-214099a6da78","system_id":"levelo_inurba_marseille","lat":43.30265,"lon":5.40082,"is_reserved":false,"is_disabled":false,"rental_uris":{"android":"levelo://app?vid=38c5f765-8070-46ff-b724-214099a6da78","ios":"levelo://app?vid=38c5f765-8070-46ff-b724-214099a6da78"},"vehicle_type_id":"4","last_reported":1761412088,"current_range_meters":3200,"station_id":"ce4bgvh2rcd13ifvqcs0","pricing_plan_id":"cebpf4jnsgd1na2vs0mg"},{"bike_id":"33928321-f929-4e55-8c4b-72d4411b8340","system_id":"levelo_inurba_marseille","lat":43.32042,"lon":5.41552,"is_reserved":false,"is_disabled":false,"rental_uris":{"android":"levelo://app?vid=33928321-f929-4e55-8c4b-72d4411b8340","ios":"levelo://app?vid=33928321-f929-4e55-8c4b-72d4411b8340"},"vehicle_type_id":"4","last_reported":1761412088,"current_range_meters":3200,"station_id":"ce4bhq92rcd13ifvqhkg","pricing_plan_id":"cebpf4jnsgd1na2vs0mg"},{"bike_id":"c6772f30-6f8b-4d84-98c1-59d7db18f70b","system_id":"levelo_inurba_marseille","lat":43.30138,"lon":5.38778,"is_reserved":false,"is_disabled":false,"rental_uris":{"android":"levelo://app?vid=c6772f30-6f8b-4d84-98c1-59d7db18f70b","ios":"levelo://app?vid=c6772f30-6f8b-4d84-98c1-59d7db18f70b"},"vehicle_type_id":"4","last_reported":1761412088,"current_range_meters":3600,"station_id":"ce4bghh2rcd13ifvqb60","pricing_plan_id":"cebpf4jnsgd1na2vs0mg"},{"bike_id":"2b9b950d-3f8e-4f6b-9e2a-64f230ba8935","system_id":"levelo_inurba_marseille","lat":43.3093,"lon":5.40144,"is_reserved":false,"is_disabled":false,"rental_uris":{"android":"levelo://app?vid=2b9b950d-3f8e-4f6b-9e2a-64f230ba8935","ios":"levelo://app?vid=2b9b950d-3f8e-4f6b-9e2a-64f230ba8935"},"vehicle_type_id":"4","last_reported":1761412088,"current_range_meters":3600,"station_id":"ce4bgvp2rcd13ifvqct0","pricing_plan_id":"cebpf4jnsgd1na2vs0mg"},{"bike_id":"9493bf9b-b075-4f80-a98c-b8304d60c527","system_id":"levelo_inurba_marseille","lat":43.23184,"lon":5.39994,"is_reserved":false,"is_disabled":false,"rental_uris":{"android":"levelo://app?vid=9493bf9b-b075-4f80-a98c-b8304d60c527","ios":"levelo://app?vid=9493bf9b-b075-4f80-a98c-b8304d60c527"},"vehicle_type_id":"4","last_reported":1761412088,"current_range_meters":3600,"station_id":"ce4bhn12rcd13ifvqgqg","pricing_plan_id":"cebpf4jnsgd1na2vs0mg"},{"bike_id":"e027fbae-9bdf-4b7b-8daf-fde28ffd7c17","system_id":"levelo_inurba_marseille","lat":43.3128,"lon":5.40182,"is_reserved":false,"is_disabled":false,"rental_uris":{"android":"levelo://app?vid=e027fbae-9bdf-4b7b-8daf-fde28ffd7c17","ios":"levelo://app?vid=e027fbae-9bdf-4b7b-8daf-fde28ffd7c17"},"vehicle_type_id":"4","last_reported":1761412088,"current_range_meters":3600,"station_id":"ce4bh092rcd13ifvqd30","pricing_plan_id":"cebpf4jnsgd1na2vs0mg"},{"bike_id":"440714dd-a106-4ecd-a171-eeeb1addf8b1","system_id":"levelo_inurba_marseille","lat":43.23764,"lon":5.43581,"is_reserved":false,"is_disabled":false,"rental_uris":{"android":"levelo://app?vid=440714dd-a106-4ecd-a171-eeeb1addf8b1","ios":"levelo://app?vid=440714dd-a106-4ecd-a171-eeeb1addf8b1"},"vehicle_type_id":"4","last_reported":1761412088,"current_range_meters":3600,"station_id":"st_d2m6c4gdas8pm72e190g","pricing_plan_id":"cebpf4jnsgd1na2vs0mg"},{"bike_id":"e095789a-2afd-441c-acf3-6632b968a456","system_id":"levelo_inurba_marseille","lat":43.24582,"lon":5.39543,"is_reserved":false,"is_disabled":false,"rental_uris":{"android":"levelo://app?vid=e095789a-2afd-441c-acf3-6632b968a456","ios":"levelo://app?vid=e095789a-2afd-441c-acf3-6632b968a456"},"vehicle_type_id":"4","last_reported":1761412088,"current_range_meters":3600,"station_id":"ce4bhlp2rcd13ifvqgjg","pricing_plan_id":"cebpf4jnsgd1na2vs0mg"},{"bike_id":"69ea30e4-3885-4b30-a897-b941fb23f6d9","system_id":"levelo_inurba_marseille","lat":43.2781,"lon":5.40714,"is_reserved":false,"is_disabled":false,"rental_uris":{"android":"levelo://app?vid=69ea30e4-3885-4b30-a897-b941fb23f6d9","ios":"levelo://app?vid=69ea30e4-3885-4b30-a897-b941fb23f6d9"},"vehicle_type_id":"4","last_reported":1761412088,"current_range_meters":3600,"station_id":"ce4bhnh2rcd13ifvqgtg","pricing_plan_id":"cebpf4jnsgd1na2vs0mg"},{"bike_id":"0c0fabff-2c5b-4cfe-941c-5c98581d4ac1","system_id":"levelo_inurba_marseille","lat":43.243884,"lon":5.37059,"is_reserved":false,"is_disabled":false,"rental_uris":{"android":"levelo://app?vid=0c0fabff-2c5b-4cfe-941c-5c98581d4ac1","ios":"levelo://app?vid=0c0fabff-2c5b-4cfe-941c-5c98581d4ac1"},"vehicle_type_id":"4","last_reported":1761412088,"current_range_meters":3600,"station_id":"ce4bhhh2rcd13ifvqfk0","pricing_plan_id":"cebpf4jnsgd1na2vs0mg"},{"bike_id":"85afcb9d-9b6c-4a84-8c6c-3218f3337a86","system_id":"levelo_inurba_marseille","lat":43.24875,"lon":5.38969,"is_reserved":false,"is_disabled":false,"rental_uris":{"android":"levelo://app?vid=85afcb9d-9b6c-4a84-8c6c-3218f3337a86","ios":"levelo://app?vid=85afcb9d-9b6c-4a84-8c6c-3218f3337a86"},"vehicle_type_id":"4","last_reported":1761412088,"current_range_meters":4000,"station_id":"","pricing_plan_id":"cebpf4jnsgd1na2vs0mg"},{"bike_id":"04abc026-d781-4cf8-baae-58993437d89d","system_id":"levelo_inurba_marseille","lat":43.316892,"lon":5.404784,"is_reserved":false,"is_disabled":false,"rental_uris":{"android":"levelo://app?vid=04abc026-d781-4cf8-baae-58993437d89d","ios":"levelo://app?vid=04abc026-d781-4cf8-baae-58993437d89d"},"vehicle_type_id":"4","last_reported":1761412088,"current_range_meters":4000,"station_id":"ce4bh012rcd13ifvqd00","pricing_plan_id":"cebpf4jnsgd1na2vs0mg"},{"bike_id":"86dd806d-02de-4d95-ad66-3336a0a0a0ea","system_id":"levelo_inurba_marseille","lat":43.25726,"lon":5.41109,"is_reserved":false,"is_disabled":false,"rental_uris":{"android":"levelo://app?vid=86dd806d-02de-4d95-ad66-3336a0a0a0ea","ios":"levelo://app?vid=86dd806d-02de-4d95-ad66-3336a0a0a0ea"},"vehicle_type_id":"4","last_reported":1761412088,"current_range_meters":4000,"station_id":"ce4bhkp2rcd13ifvqgd0","pricing_plan_id":"cebpf4jnsgd1na2vs0mg"},{"bike_id":"d55a51e9-ea6f-4d2d-a566-dc3a3dc719ee","system_id":"levelo_inurba_marseille","lat":43.26198,"lon":5.37933,"is_reserved":false,"is_disabled":false,"rental_uris":{"android":"levelo://app?vid=d55a51e9-ea6f-4d2d-a566-dc3a3dc719ee","ios":"levelo://app?vid=d55a51e9-ea6f-4d2d-a566-dc3a3dc719ee"},"vehicle_type_id":"4","last_reported":1761412088,"current_range_meters":4000,"station_id":"ce4bhjp2rcd13ifvqg90","pricing_plan_id":"cebpf4jnsgd1na2vs0mg"},{"bike_id":"0a9a195f-091b-4c78-9715-e64a1f8d4956","system_id":"levelo_inurba_marseille","lat":43.290319,"lon":5.386453,"is_reserved":false,"is_disabled":false,"rental_uris":{"android":"levelo://app?vid=0a9a195f-091b-4c78-9715-e64a1f8d4956","ios":"levelo://app?vid=0a9a195f-091b-4c78-9715-e64a1f8d4956"},"vehicle_type_id":"4","last_reported":1761412088,"current_range_meters":4000,"station_id":"ce4bh4p2rcd13ifvqe0g","pricing_plan_id":"cebpf4jnsgd1na2vs0mg"},{"bike_id":"a25f0f2f-5bdf-4eee-9650-26ca5f80dc02","system_id":"levelo_inurba_marseille","lat":43.30884,"lon":5.3966,"is_reserved":false,"is_disabled":false,"rental_uris":{"android":"levelo://app?vid=a25f0f2f-5bdf-4eee-9650-26ca5f80dc02","ios":"levelo://app?vid=a25f0f2f-5bdf-4eee-9650-26ca5f80dc02"},"vehicle_type_id":"4","last_reported":1761412088,"current_range_meters":4400,"station_id":"ce4bh012rcd13ifvqcv0","pricing_plan_id":"cebpf4jnsgd1na2vs0mg"},{"bike_id":"e6a8c438-d2f2-41f4-8817-a5f5e559f2fa","system_id":"levelo_inurba_marseille","lat":43.275763,"lon":5.384364,"is_reserved":false,"is_disabled":false,"rental_uris":{"android":"levelo://app?vid=e6a8c438-d2f2-41f4-8817-a5f5e559f2fa","ios":"levelo://app?vid=e6a8c438-d2f2-41f4-8817-a5f5e559f2fa"},"vehicle_type_id":"4","last_reported":1761412088,"current_range_meters":4400,"station_id":"ce4bhh92rcd13ifvqfi0","pricing_plan_id":"cebpf4jnsgd1na2vs0mg"},{"bike_id":"323bf2de-3bb4-4b4c-b330-b19ea807dbf5","system_id":"levelo_inurba_marseille","lat":43.33,"lon":5.4295,"is_reserved":false,"is_disabled":false,"rental_uris":{"android":"levelo://app?vid=323bf2de-3bb4-4b4c-b330-b19ea807dbf5","ios":"levelo://app?vid=323bf2de-3bb4-4b4c-b330-b19ea807dbf5"},"vehicle_type_id":"4","last_reported":1761412088,"current_range_meters":4400,"station_id":"","pricing_plan_id":"cebpf4jnsgd1na2vs0mg"},{"bike_id":"17bd9fff-f8a7-45af-8120-cab272292f42","system_id":"levelo_inurba_marseille","lat":43.28477,"lon":5.48396,"is_reserved":false,"is_disabled":false,"rental_uris":{"android":"levelo://app?vid=17bd9fff-f8a7-45af-8120-cab272292f42","ios":"levelo://app?vid=17bd9fff-f8a7-45af-8120-cab272292f42"},"vehicle_type_id":"4","last_reported":1761412088,"current_range_meters":4400,"station_id":"st_d3svhcjqgbts73a3dn0g","pricing_plan_id":"cebpf4jnsgd1na2vs0mg"},{"bike_id":"bf92d05d-3bb4-466c-8299-5d53beb90eb7","system_id":"levelo_inurba_marseille","lat":43.2857,"lon":5.395,"is_reserved":false,"is_disabled":false,"rental_uris":{"android":"levelo://app?vid=bf92d05d-3bb4-466c-8299-5d53beb90eb7","ios":"levelo://app?vid=bf92d05d-3bb4-466c-8299-5d53beb90eb7"},"vehicle_type_id":"4","last_reported":1761412088,"current_range_meters":4400,"station_id":"ce4bh292rcd13ifvqdg0","pricing_plan_id":"cebpf4jnsgd1na2vs0mg"},{"bike_id":"e7f61167-a868-4336-ae10-de9e8c474ec7","system_id":"levelo_inurba_marseille","lat":43.21749,"lon":5.34609,"is_reserved":false,"is_disabled":false,"rental_uris":{"android":"levelo://app?vid=e7f61167-a868-4336-ae10-de9e8c474ec7","ios":"levelo://app?vid=e7f61167-a868-4336-ae10-de9e8c474ec7"},"vehicle_type_id":"4","last_reported":1761412088,"current_range_meters":4400,"station_id":"","pricing_plan_id":"cebpf4jnsgd1na2vs0mg"},{"bike_id":"4cac6df0-fc82-4d18-8a37-769ccee9cff3","system_id":"levelo_inurba_marseille","lat":43.28005,"lon":5.40028,"is_reserved":false,"is_disabled":false,"rental_uris":{"android":"levelo://app?vid=4cac6df0-fc82-4d18-8a37-769ccee9cff3","ios":"levelo://app?vid=4cac6df0-fc82-4d18-8a37-769ccee9cff3"},"vehicle_type_id":"4","last_reported":1761412088,"current_range_meters":4400,"station_id":"ce4bho92rcd13ifvqh4g","pricing_plan_id":"cebpf4jnsgd1na2vs0mg"},{"bike_id":"023a7cd5-06ec-4c80-b2af-fc64c9556585","system_id":"levelo_inurba_marseille","lat":43.24801,"lon":5.37452,"is_reserved":false,"is_disabled":false,"rental_uris":{"android":"levelo://app?vid=023a7cd5-06ec-4c80-b2af-fc64c9556585","ios":"levelo://app?vid=023a7cd5-06ec-4c80-b2af-fc64c9556585"},"vehicle_type_id":"4","last_reported":1761412088,"current_range_meters":4400,"station_id":"ce4bhgh2rcd13ifvqfb0","pricing_plan_id":"cebpf4jnsgd1na2vs0mg"},{"bike_id":"d26a45f4-6885-48af-a898-bc2b63c7813e","system_id":"levelo_inurba_marseille","lat":43.26683,"lon":5.38269,"is_reserved":false,"is_disabled":false,"rental_uris":{"android":"levelo://app?vid=d26a45f4-6885-48af-a898-bc2b63c7813e","ios":"levelo://app?vid=d26a45f4-6885-48af-a898-bc2b63c7813e"},"vehicle_type_id":"4","last_reported":1761412088,"current_range_meters":4800,"station_id":"ce4bhg92rcd13ifvqf90","pricing_plan_id":"cebpf4jnsgd1na2vs0mg"},{"bike_id":"e1298645-fb04-421e-8a07-900bb53fc882","system_id":"levelo_inurba_marseille","lat":43.28492,"lon":5.38418,"is_reserved":false,"is_disabled":false,"rental_uris":{"android":"levelo://app?vid=e1298645-fb04-421e-8a07-900bb53fc882","ios":"levelo://app?vid=e1298645-fb04-421e-8a07-900bb53fc882"},"vehicle_type_id":"4","last_reported":1761412088,"current_range_meters":4800,"station_id":"ce4bh512rcd13ifvqe3g","pricing_plan_id":"cebpf4jnsgd1na2vs0mg"},{"bike_id":"7add6761-1343-4478-8989-91faf7d49f01","system_id":"levelo_inurba_marseille","lat":43.25585,"lon":5.38247,"is_reserved":false,"is_disabled":false,"rental_uris":{"android":"levelo://app?vid=7add6761-1343-4478-8989-91faf7d49f01","ios":"levelo://app?vid=7add6761-1343-4478-8989-91faf7d49f01"},"vehicle_type_id":"4","last_reported":1761412088,"current_range_meters":4800,"station_id":"ce4bhih2rcd13ifvqfs0","pricing_plan_id":"cebpf4jnsgd1na2vs0mg"},{"bike_id":"0e878515-dd89-4f81-a07f-ce935c4e4a38","system_id":"levelo_inurba_marseille","lat":43.303864,"lon":5.38915,"is_reserved":false,"is_disabled":false,"rental_uris":{"android":"levelo://app?vid=0e878515-dd89-4f81-a07f-ce935c4e4a38","ios":"levelo://app?vid=0e878515-dd89-4f81-a07f-ce935c4e4a38"},"vehicle_type_id":"4","last_reported":1761412088,"current_range_meters":4800,"station_id":"ce4bgk12rcd13ifvqbi0","pricing_plan_id":"cebpf4jnsgd1na2vs0mg"},{"bike_id":"b1b78f8a-73dc-44fd-93d1-08c121143de9","system_id":"levelo_inurba_marseille","lat":43.26062,"lon":5.39402,"is_reserved":false,"is_disabled":false,"rental_uris":{"android":"levelo://app?vid=b1b78f8a-73dc-44fd-93d1-08c121143de9","ios":"levelo://app?vid=b1b78f8a-73dc-44fd-93d1-08c121143de9"},"vehicle_type_id":"4","last_reported":1761412088,"current_range_meters":5600,"station_id":"ce4bhh92rcd13ifvqfj0","pricing_plan_id":"cebpf4jnsgd1na2vs0mg"},{"bike_id":"d580972f-d071-4bb5-84d4-5cce6c8bda2e","system_id":"levelo_inurba_marseille","lat":43.284851,"lon":5.385405,"is_reserved":false,"is_disabled":false,"rental_uris":{"android":"levelo://app?vid=d580972f-d071-4bb5-84d4-5cce6c8bda2e","ios":"levelo://app?vid=d580972f-d071-4bb5-84d4-5cce6c8bda2e"},"vehicle_type_id":"4","last_reported":1761412088,"current_range_meters":5600,"station_id":"ce4bh8p2rcd13ifvqeb0","pricing_plan_id":"cebpf4jnsgd1na2vs0mg"},{"bike_id":"1bb462c8-c6ac-481c-85ee-3d988c168abb","system_id":"levelo_inurba_marseille","lat":43.316872,"lon":5.404794,"is_reserved":false,"is_disabled":false,"rental_uris":{"android":"levelo://app?vid=1bb462c8-c6ac-481c-85ee-3d988c168abb","ios":"levelo://app?vid=1bb462c8-c6ac-481c-85ee-3d988c168abb"},"vehicle_type_id":"4","last_reported":1761412088,"current_range_meters":5600,"station_id":"ce4bh012rcd13ifvqd00","pricing_plan_id":"cebpf4jnsgd1na2vs0mg"},{"bike_id":"24aa98b8-156d-43d1-a379-507d6e5820b0","system_id":"levelo_inurba_marseille","lat":43.29533,"lon":5.385397,"is_reserved":false,"is_disabled":false,"rental_uris":{"android":"levelo://app?vid=24aa98b8-156d-43d1-a379-507d6e5820b0","ios":"levelo://app?vid=24aa98b8-156d-43d1-a379-507d6e5820b0"},"vehicle_type_id":"4","last_reported":1761412088,"current_range_meters":5600,"station_id":"ce4bgih2rcd13ifvqba0","pricing_plan_id":"cebpf4jnsgd1na2vs0mg"},{"bike_id":"00fd3c6a-780c-49dc-9993-d4de69c9b57a","system_id":"levelo_inurba_marseille","lat":43.310738,"lon":5.37455,"is_reserved":false,"is_disabled":false,"rental_uris":{"android":"levelo://app?vid=00fd3c6a-780c-49dc-9993-d4de69c9b57a","ios":"levelo://app?vid=00fd3c6a-780c-49dc-9993-d4de69c9b57a"},"vehicle_type_id":"4","last_reported":1761412088,"current_range_meters":5600,"station_id":"","pricing_plan_id":"cebpf4jnsgd1na2vs0mg"},{"bike_id":"130b132e-192f-4656-ab4f-77877a58cf4c","system_id":"levelo_inurba_marseille","lat":43.30538,"lon":5.36732,"is_reserved":false,"is_disabled":false,"rental_uris":{"android":"levelo://app?vid=130b132e-192f-4656-ab4f-77877a58cf4c","ios":"levelo://app?vid=130b132e-192f-4656-ab4f-77877a58cf4c"},"vehicle_type_id":"4","last_reported":1761412088,"current_range_meters":5600,"station_id":"ce4bgrp2rcd13ifvqc9g","pricing_plan_id":"cebpf4jnsgd1na2vs0mg"},{"bike_id":"8b04e7d3-ae65-4c17-a722-f7c91cd35c00","system_id":"levelo_inurba_marseille","lat":43.29861,"lon":5.39736,"is_reserved":false,"is_disabled":false,"rental_uris":{"android":"levelo://app?vid=8b04e7d3-ae65-4c17-a722-f7c91cd35c00","ios":"levelo://app?vid=8b04e7d3-ae65-4c17-a722-f7c91cd35c00"},"vehicle_type_id":"4","last_reported":1761412088,"current_range_meters":5600,"station_id":"ce4bh0h2rcd13ifvqd50","pricing_plan_id":"cebpf4jnsgd1na2vs0mg"},{"bike_id":"c29e07e2-6df3-49df-846a-3a1cf6c08f8a","system_id":"levelo_inurba_marseille","lat":43.25511,"lon":5.37654,"is_reserved":false,"is_disabled":false,"rental_uris":{"android":"levelo://app?vid=c29e07e2-6df3-49df-846a-3a1cf6c08f8a","ios":"levelo://app?vid=c29e07e2-6df3-49df-846a-3a1cf6c08f8a"},"vehicle_type_id":"4","last_reported":1761412088,"current_range_meters":5600,"station_id":"ce4bhh12rcd13ifvqff0","pricing_plan_id":"cebpf4jnsgd1na2vs0mg"},{"bike_id":"293a35c3-4218-4cd6-baaa-1c5ecf48a267","system_id":"levelo_inurba_marseille","lat":43.30929,"lon":5.40139,"is_reserved":false,"is_disabled":false,"rental_uris":{"android":"levelo://app?vid=293a35c3-4218-4cd6-baaa-1c5ecf48a267","ios":"levelo://app?vid=293a35c3-4218-4cd6-baaa-1c5ecf48a267"},"vehicle_type_id":"4","last_reported":1761412088,"current_range_meters":5600,"station_id":"ce4bgvp2rcd13ifvqct0","pricing_plan_id":"cebpf4jnsgd1na2vs0mg"},{"bike_id":"8100ae99-77d8-4c9e-87ac-8d93113d43cd","system_id":"levelo_inurba_marseille","lat":43.28439,"lon":5.391979,"is_reserved":false,"is_disabled":false,"rental_uris":{"android":"levelo://app?vid=8100ae99-77d8-4c9e-87ac-8d93113d43cd","ios":"levelo://app?vid=8100ae99-77d8-4c9e-87ac-8d93113d43cd"},"vehicle_type_id":"4","last_reported":1761412088,"current_range_meters":6000,"station_id":"ce4bhoh2rcd13ifvqh5g","pricing_plan_id":"cebpf4jnsgd1na2vs0mg"},{"bike_id":"053fc12e-88bd-4057-8beb-ecf328a01982","system_id":"levelo_inurba_marseille","lat":43.30217,"lon":5.39467,"is_reserved":false,"is_disabled":false,"rental_uris":{"android":"levelo://app?vid=053fc12e-88bd-4057-8beb-ecf328a01982","ios":"levelo://app?vid=053fc12e-88bd-4057-8beb-ecf328a01982"},"vehicle_type_id":"4","last_reported":1761412088,"current_range_meters":6000,"station_id":"ce4bh0p2rcd13ifvqd70","pricing_plan_id":"cebpf4jnsgd1na2vs0mg"},{"bike_id":"154ca9a5-bdc9-49e0-b86a-700d7e101b87","system_id":"levelo_inurba_marseille","lat":43.297973,"lon":5.381165,"is_reserved":false,"is_disabled":false,"rental_uris":{"android":"levelo://app?vid=154ca9a5-bdc9-49e0-b86a-700d7e101b87","ios":"levelo://app?vid=154ca9a5-bdc9-49e0-b86a-700d7e101b87"},"vehicle_type_id":"4","last_reported":1761412088,"current_range_meters":6000,"station_id":"ce4bgip2rcd13ifvqbb0","pricing_plan_id":"cebpf4jnsgd1na2vs0mg"},{"bike_id":"6655c2ba-6e33-48b5-ab19-6cfc4da3a950","system_id":"levelo_inurba_marseille","lat":43.303214,"lon":5.40439,"is_reserved":false,"is_disabled":false,"rental_uris":{"android":"levelo://app?vid=6655c2ba-6e33-48b5-ab19-6cfc4da3a950","ios":"levelo://app?vid=6655c2ba-6e33-48b5-ab19-6cfc4da3a950"},"vehicle_type_id":"4","last_reported":1761412088,"current_range_meters":6000,"station_id":"cpo3342slgdg3j2ifvpg","pricing_plan_id":"cebpf4jnsgd1na2vs0mg"},{"bike_id":"b9764ed2-f91a-421e-b54e-d7527bd8af22","system_id":"levelo_inurba_marseille","lat":43.29811,"lon":5.36588,"is_reserved":false,"is_disabled":false,"rental_uris":{"android":"levelo://app?vid=b9764ed2-f91a-421e-b54e-d7527bd8af22","ios":"levelo://app?vid=b9764ed2-f91a-421e-b54e-d7527bd8af22"},"vehicle_type_id":"4","last_reported":1761412088,"current_range_meters":6000,"station_id":"","pricing_plan_id":"cebpf4jnsgd1na2vs0mg"},{"bike_id":"8bcacd78-80de-4026-af75-b37ebe3030fe","system_id":"levelo_inurba_marseille","lat":43.334756,"lon":5.404255,"is_reserved":false,"is_disabled":false,"rental_uris":{"android":"levelo://app?vid=8bcacd78-80de-4026-af75-b37ebe3030fe","ios":"levelo://app?vid=8bcacd78-80de-4026-af75-b37ebe3030fe"},"vehicle_type_id":"4","last_reported":1761412088,"current_range_meters":6000,"station_id":"","pricing_plan_id":"cebpf4jnsgd1na2vs0mg"},{"bike_id":"d4e2eb0d-8f7c-4e0a-abfa-bb6f7be86b89","system_id":"levelo_inurba_marseille","lat":43.231812,"lon":5.400116,"is_reserved":false,"is_disabled":false,"rental_uris":{"android":"levelo://app?vid=d4e2eb0d-8f7c-4e0a-abfa-bb6f7be86b89","ios":"levelo://app?vid=d4e2eb0d-8f7c-4e0a-abfa-bb6f7be86b89"},"vehicle_type_id":"4","last_reported":1761412088,"current_range_meters":6000,"station_id":"ce4bhn12rcd13ifvqgqg","pricing_plan_id":"cebpf4jnsgd1na2vs0mg"},{"bike_id":"6e657b51-8f8f-416e-8282-e3166f038ce2","system_id":"levelo_inurba_marseille","lat":43.2811,"lon":5.37842,"is_reserved":false,"is_disabled":false,"rental_uris":{"android":"levelo://app?vid=6e657b51-8f8f-416e-8282-e3166f038ce2","ios":"levelo://app?vid=6e657b51-8f8f-416e-8282-e3166f038ce2"},"vehicle_type_id":"4","last_reported":1761412088,"current_range_meters":6000,"station_id":"ce4bha12rcd13ifvqee0","pricing_plan_id":"cebpf4jnsgd1na2vs0mg"},{"bike_id":"bd65c37c-2a52-497e-8319-1bd01ee97516","system_id":"levelo_inurba_marseille","lat":43.23182,"lon":5.3999,"is_reserved":false,"is_disabled":false,"rental_uris":{"android":"levelo://app?vid=bd65c37c-2a52-497e-8319-1bd01ee97516","ios":"levelo://app?vid=bd65c37c-2a52-497e-8319-1bd01ee97516"},"vehicle_type_id":"4","last_reported":1761412088,"current_range_meters":6000,"station_id":"ce4bhn12rcd13ifvqgqg","pricing_plan_id":"cebpf4jnsgd1na2vs0mg"},{"bike_id":"55e1bf19-2ee0-4f89-8fbd-1b227453ba17","system_id":"levelo_inurba_marseille","lat":43.286057,"lon":5.370687,"is_reserved":false,"is_disabled":false,"rental_uris":{"android":"levelo://app?vid=55e1bf19-2ee0-4f89-8fbd-1b227453ba17","ios":"levelo://app?vid=55e1bf19-2ee0-4f89-8fbd-1b227453ba17"},"vehicle_type_id":"4","last_reported":1761412088,"current_range_meters":6000,"station_id":"ce4bht12rcd13ifvqi60","pricing_plan_id":"cebpf4jnsgd1na2vs0mg"},{"bike_id":"be6cc1ff-df0a-42b3-a807-af53e2381240","system_id":"levelo_inurba_marseille","lat":43.28364,"lon":5.38631,"is_reserved":false,"is_disabled":false,"rental_uris":{"android":"levelo://app?vid=be6cc1ff-df0a-42b3-a807-af53e2381240","ios":"levelo://app?vid=be6cc1ff-df0a-42b3-a807-af53e2381240"},"vehicle_type_id":"4","last_reported":1761412088,"current_range_meters":6400,"station_id":"ce4bh492rcd13ifvqdvg","pricing_plan_id":"cebpf4jnsgd1na2vs0mg"},{"bike_id":"2148c8c4-d420-41ca-b6fc-96f7549cb677","system_id":"levelo_inurba_marseille","lat":43.29977,"lon":5.3818,"is_reserved":false,"is_disabled":false,"rental_uris":{"android":"levelo://app?vid=2148c8c4-d420-41ca-b6fc-96f7549cb677","ios":"levelo://app?vid=2148c8c4-d420-41ca-b6fc-96f7549cb677"},"vehicle_type_id":"4","last_reported":1761412088,"current_range_meters":6400,"station_id":"","pricing_plan_id":"cebpf4jnsgd1na2vs0mg"},{"bike_id":"0f436dad-6214-4260-bc39-07b7ba175eb8","system_id":"levelo_inurba_marseille","lat":43.30306,"lon":5.39232,"is_reserved":false,"is_disabled":false,"rental_uris":{"android":"levelo://app?vid=0f436dad-6214-4260-bc39-07b7ba175eb8","ios":"levelo://app?vid=0f436dad-6214-4260-bc39-07b7ba175eb8"},"vehicle_type_id":"4","last_reported":1761412088,"current_range_meters":6400,"station_id":"ce4bgkh2rcd13ifvqbk0","pricing_plan_id":"cebpf4jnsgd1na2vs0mg"},{"bike_id":"e7bb7b19-03a2-4ce3-98bd-1068778ea96c","system_id":"levelo_inurba_marseille","lat":43.22921,"lon":5.35384,"is_reserved":false,"is_disabled":false,"rental_uris":{"android":"levelo://app?vid=e7bb7b19-03a2-4ce3-98bd-1068778ea96c","ios":"levelo://app?vid=e7bb7b19-03a2-4ce3-98bd-1068778ea96c"},"vehicle_type_id":"4","last_reported":1761412088,"current_range_meters":6400,"station_id":"cpo3532slgdg3j2ikp40","pricing_plan_id":"cebpf4jnsgd1na2vs0mg"},{"bike_id":"08f1509e-676b-4cfc-80d0-f8943ca48792","system_id":"levelo_inurba_marseille","lat":43.2963,"lon":5.40609,"is_reserved":false,"is_disabled":false,"rental_uris":{"android":"levelo://app?vid=08f1509e-676b-4cfc-80d0-f8943ca48792","ios":"levelo://app?vid=08f1509e-676b-4cfc-80d0-f8943ca48792"},"vehicle_type_id":"4","last_reported":1761412088,"current_range_meters":6400,"station_id":"ce4bh0h2rcd13ifvqd60","pricing_plan_id":"cebpf4jnsgd1na2vs0mg"},{"bike_id":"5d0bc863-cc04-40f8-917f-198ad842a4d0","system_id":"levelo_inurba_marseille","lat":43.31716,"lon":5.43713,"is_reserved":false,"is_disabled":false,"rental_uris":{"android":"levelo://app?vid=5d0bc863-cc04-40f8-917f-198ad842a4d0","ios":"levelo://app?vid=5d0bc863-cc04-40f8-917f-198ad842a4d0"},"vehicle_type_id":"4","last_reported":1761412088,"current_range_meters":6400,"station_id":"ce4bhp92rcd13ifvqhcg","pricing_plan_id":"cebpf4jnsgd1na2vs0mg"},{"bike_id":"cb14a91a-e5a7-4fa2-9c1d-b1acec3d3362","system_id":"levelo_inurba_marseille","lat":43.24161,"lon":5.36402,"is_reserved":false,"is_disabled":false,"rental_uris":{"android":"levelo://app?vid=cb14a91a-e5a7-4fa2-9c1d-b1acec3d3362","ios":"levelo://app?vid=cb14a91a-e5a7-4fa2-9c1d-b1acec3d3362"},"vehicle_type_id":"4","last_reported":1761412088,"current_range_meters":6400,"station_id":"cpo36qri1sfpv3e86is0","pricing_plan_id":"cebpf4jnsgd1na2vs0mg"},{"bike_id":"307a4d65-9a3b-4fbd-ae5d-25058e3ff562","system_id":"levelo_inurba_marseille","lat":43.31893,"lon":5.40707,"is_reserved":false,"is_disabled":false,"rental_uris":{"android":"levelo://app?vid=307a4d65-9a3b-4fbd-ae5d-25058e3ff562","ios":"levelo://app?vid=307a4d65-9a3b-4fbd-ae5d-25058e3ff562"},"vehicle_type_id":"4","last_reported":1761412088,"current_range_meters":6400,"station_id":"ce4bhq12rcd13ifvqhig","pricing_plan_id":"cebpf4jnsgd1na2vs0mg"},{"bike_id":"9c56588b-9727-48ab-adb6-8f4ca2c3d215","system_id":"levelo_inurba_marseille","lat":43.29877,"lon":5.39729,"is_reserved":false,"is_disabled":false,"rental_uris":{"android":"levelo://app?vid=9c56588b-9727-48ab-adb6-8f4ca2c3d215","ios":"levelo://app?vid=9c56588b-9727-48ab-adb6-8f4ca2c3d215"},"vehicle_type_id":"4","last_reported":1761412088,"current_range_meters":6400,"station_id":"ce4bh0h2rcd13ifvqd50","pricing_plan_id":"cebpf4jnsgd1na2vs0mg"},{"bike_id":"575efb12-7b12-4f03-93a1-37f6c5ef750e","system_id":"levelo_inurba_marseille","lat":43.297605,"lon":5.427818,"is_reserved":false,"is_disabled":false,"rental_uris":{"android":"levelo://app?vid=575efb12-7b12-4f03-93a1-37f6c5ef750e","ios":"levelo://app?vid=575efb12-7b12-4f03-93a1-37f6c5ef750e"},"vehicle_type_id":"4","last_reported":1761412088,"current_range_meters":6400,"station_id":"st_d3md5207bmas73dh9klg","pricing_plan_id":"cebpf4jnsgd1na2vs0mg"},{"bike_id":"ef9f94b6-49db-4195-b862-563223e2ba3d","system_id":"levelo_inurba_marseille","lat":43.21746,"lon":5.34606,"is_reserved":false,"is_disabled":false,"rental_uris":{"android":"levelo://app?vid=ef9f94b6-49db-4195-b862-563223e2ba3d","ios":"levelo://app?vid=ef9f94b6-49db-4195-b862-563223e2ba3d"},"vehicle_type_id":"4","last_reported":1761412088,"current_range_meters":6800,"station_id":"st_cvj6r9ubvosntc0bgbag","pricing_plan_id":"cebpf4jnsgd1na2vs0mg"},{"bike_id":"70212126-8aa6-43e1-83df-03185738b670","system_id":"levelo_inurba_marseille","lat":43.296155,"lon":5.377382,"is_reserved":false,"is_disabled":false,"rental_uris":{"android":"levelo://app?vid=70212126-8aa6-43e1-83df-03185738b670","ios":"levelo://app?vid=70212126-8aa6-43e1-83df-03185738b670"},"vehicle_type_id":"4","last_reported":1761412088,"current_range_meters":6800,"station_id":"ce4bgi92rcd13ifvqb90","pricing_plan_id":"cebpf4jnsgd1na2vs0mg"},{"bike_id":"9881c788-42a8-46f5-8ccc-580a73583155","system_id":"levelo_inurba_marseille","lat":43.32067,"lon":5.40919,"is_reserved":false,"is_disabled":false,"rental_uris":{"android":"levelo://app?vid=9881c788-42a8-46f5-8ccc-580a73583155","ios":"levelo://app?vid=9881c788-42a8-46f5-8ccc-580a73583155"},"vehicle_type_id":"4","last_reported":1761412088,"current_range_meters":6800,"station_id":"","pricing_plan_id":"cebpf4jnsgd1na2vs0mg"},{"bike_id":"4b70886e-b4de-468c-b68a-dc0175d3e66b","system_id":"levelo_inurba_marseille","lat":43.30906,"lon":5.40133,"is_reserved":false,"is_disabled":false,"rental_uris":{"android":"levelo://app?vid=4b70886e-b4de-468c-b68a-dc0175d3e66b","ios":"levelo://app?vid=4b70886e-b4de-468c-b68a-dc0175d3e66b"},"vehicle_type_id":"4","last_reported":1761412088,"current_range_meters":6800,"station_id":"ce4bgvp2rcd13ifvqct0","pricing_plan_id":"cebpf4jnsgd1na2vs0mg"},{"bike_id":"efea4a21-94cd-4724-a5bc-43c0e5daf8ad","system_id":"levelo_inurba_marseille","lat":43.279565,"lon":5.410539,"is_reserved":false,"is_disabled":false,"rental_uris":{"android":"levelo://app?vid=efea4a21-94cd-4724-a5bc-43c0e5daf8ad","ios":"levelo://app?vid=efea4a21-94cd-4724-a5bc-43c0e5daf8ad"},"vehicle_type_id":"4","last_reported":1761412088,"current_range_meters":7200,"station_id":"ce4bhbh2rcd13ifvqeo0","pricing_plan_id":"cebpf4jnsgd1na2vs0mg"},{"bike_id":"53881f93-48f1-4312-8257-bcb02eb6b29c","system_id":"levelo_inurba_marseille","lat":43.262,"lon":5.39702,"is_reserved":false,"is_disabled":false,"rental_uris":{"android":"levelo://app?vid=53881f93-48f1-4312-8257-bcb02eb6b29c","ios":"levelo://app?vid=53881f93-48f1-4312-8257-bcb02eb6b29c"},"vehicle_type_id":"4","last_reported":1761412088,"current_range_meters":7200,"station_id":"","pricing_plan_id":"cebpf4jnsgd1na2vs0mg"},{"bike_id":"8dd716e8-d875-4ed3-a98d-3d6e4bd8cba4","system_id":"levelo_inurba_marseille","lat":43.250678,"lon":5.375285,"is_reserved":false,"is_disabled":false,"rental_uris":{"android":"levelo://app?vid=8dd716e8-d875-4ed3-a98d-3d6e4bd8cba4","ios":"levelo://app?vid=8dd716e8-d875-4ed3-a98d-3d6e4bd8cba4"},"vehicle_type_id":"4","last_reported":1761412088,"current_range_meters":7200,"station_id":"ce4bhgh2rcd13ifvqfb0","pricing_plan_id":"cebpf4jnsgd1na2vs0mg"},{"bike_id":"2842f5fd-7b05-4b47-909c-5ee54d7d3bc5","system_id":"levelo_inurba_marseille","lat":43.32451,"lon":5.42795,"is_reserved":false,"is_disabled":false,"rental_uris":{"android":"levelo://app?vid=2842f5fd-7b05-4b47-909c-5ee54d7d3bc5","ios":"levelo://app?vid=2842f5fd-7b05-4b47-909c-5ee54d7d3bc5"},"vehicle_type_id":"4","last_reported":1761412088,"current_range_meters":7200,"station_id":"","pricing_plan_id":"cebpf4jnsgd1na2vs0mg"},{"bike_id":"da5ec092-2438-4dd2-a625-8fc0f3baf6af","system_id":"levelo_inurba_marseille","lat":43.33722,"lon":5.36287,"is_reserved":false,"is_disabled":false,"rental_uris":{"android":"levelo://app?vid=da5ec092-2438-4dd2-a625-8fc0f3baf6af","ios":"levelo://app?vid=da5ec092-2438-4dd2-a625-8fc0f3baf6af"},"vehicle_type_id":"4","last_reported":1761412088,"current_range_meters":7200,"station_id":"","pricing_plan_id":"cebpf4jnsgd1na2vs0mg"},{"bike_id":"fb0a086c-6067-4885-b2d7-cb780c9da13d","system_id":"levelo_inurba_marseille","lat":43.28469,"lon":5.38563,"is_reserved":false,"is_disabled":false,"rental_uris":{"android":"levelo://app?vid=fb0a086c-6067-4885-b2d7-cb780c9da13d","ios":"levelo://app?vid=fb0a086c-6067-4885-b2d7-cb780c9da13d"},"vehicle_type_id":"4","last_reported":1761412088,"current_range_meters":7200,"station_id":"ce4bh8p2rcd13ifvqeb0","pricing_plan_id":"cebpf4jnsgd1na2vs0mg"},{"bike_id":"e1a5306a-95f9-44e9-b27a-5e1911a10fa5","system_id":"levelo_inurba_marseille","lat":43.29868,"lon":5.39732,"is_reserved":false,"is_disabled":false,"rental_uris":{"android":"levelo://app?vid=e1a5306a-95f9-44e9-b27a-5e1911a10fa5","ios":"levelo://app?vid=e1a5306a-95f9-44e9-b27a-5e1911a10fa5"},"vehicle_type_id":"4","last_reported":1761412088,"current_range_meters":8000,"station_id":"ce4bh0h2rcd13ifvqd50","pricing_plan_id":"cebpf4jnsgd1na2vs0mg"},{"bike_id":"f9f2f691-0d7d-4143-b899-adc8073802d9","system_id":"levelo_inurba_marseille","lat":43.28697,"lon":5.37398,"is_reserved":false,"is_disabled":true,"rental_uris":{"android":"levelo://app?vid=f9f2f691-0d7d-4143-b899-adc8073802d9","ios":"levelo://app?vid=f9f2f691-0d7d-4143-b899-adc8073802d9"},"vehicle_type_id":"4","last_reported":1761412088,"current_range_meters":8000,"station_id":"ce4bh3p2rcd13ifvqdq0","pricing_plan_id":"cebpf4jnsgd1na2vs0mg"},{"bike_id":"b120e29c-b9be-4597-b5eb-1fae7e62f529","system_id":"levelo_inurba_marseille","lat":43.26495,"lon":5.39515,"is_reserved":false,"is_disabled":false,"rental_uris":{"android":"levelo://app?vid=b120e29c-b9be-4597-b5eb-1fae7e62f529","ios":"levelo://app?vid=b120e29c-b9be-4597-b5eb-1fae7e62f529"},"vehicle_type_id":"4","last_reported":1761412088,"current_range_meters":8000,"station_id":"","pricing_plan_id":"cebpf4jnsgd1na2vs0mg"},{"bike_id":"e35e1247-2ec0-4206-a360-6aaa534a130f","system_id":"levelo_inurba_marseille","lat":43.28474,"lon":5.48386,"is_reserved":false,"is_disabled":false,"rental_uris":{"android":"levelo://app?vid=e35e1247-2ec0-4206-a360-6aaa534a130f","ios":"levelo://app?vid=e35e1247-2ec0-4206-a360-6aaa534a130f"},"vehicle_type_id":"4","last_reported":1761412088,"current_range_meters":8000,"station_id":"st_d3svhcjqgbts73a3dn0g","pricing_plan_id":"cebpf4jnsgd1na2vs0mg"},{"bike_id":"ce742672-30e3-40b7-ae59-0c9783b9986b","system_id":"levelo_inurba_marseille","lat":43.29788,"lon":5.39322,"is_reserved":false,"is_disabled":false,"rental_uris":{"android":"levelo://app?vid=ce742672-30e3-40b7-ae59-0c9783b9986b","ios":"levelo://app?vid=ce742672-30e3-40b7-ae59-0c9783b9986b"},"vehicle_type_id":"4","last_reported":1761412088,"current_range_meters":8000,"station_id":"chh1huq6cuj3fo74tm60","pricing_plan_id":"cebpf4jnsgd1na2vs0mg"},{"bike_id":"18775031-3b0a-434d-9b68-c27a8ef4fedd","system_id":"levelo_inurba_marseille","lat":43.28683,"lon":5.38668,"is_reserved":false,"is_disabled":false,"rental_uris":{"android":"levelo://app?vid=18775031-3b0a-434d-9b68-c27a8ef4fedd","ios":"levelo://app?vid=18775031-3b0a-434d-9b68-c27a8ef4fedd"},"vehicle_type_id":"4","last_reported":1761412088,"current_range_meters":8000,"station_id":"ce4bh492rcd13ifvqdug","pricing_plan_id":"cebpf4jnsgd1na2vs0mg"},{"bike_id":"5f9debc0-c360-4a2e-b517-592e9a0c2818","system_id":"levelo_inurba_marseille","lat":43.32944,"lon":5.42792,"is_reserved":false,"is_disabled":false,"rental_uris":{"android":"levelo://app?vid=5f9debc0-c360-4a2e-b517-592e9a0c2818","ios":"levelo://app?vid=5f9debc0-c360-4a2e-b517-592e9a0c2818"},"vehicle_type_id":"4","last_reported":1761412088,"current_range_meters":8400,"station_id":"","pricing_plan_id":"cebpf4jnsgd1na2vs0mg"},{"bike_id":"827e5d1e-0e54-4d2f-bbbf-7db929a3f67b","system_id":"levelo_inurba_marseille","lat":43.29024,"lon":5.35627,"is_reserved":false,"is_disabled":false,"rental_uris":{"android":"levelo://app?vid=827e5d1e-0e54-4d2f-bbbf-7db929a3f67b","ios":"levelo://app?vid=827e5d1e-0e54-4d2f-bbbf-7db929a3f67b"},"vehicle_type_id":"4","last_reported":1761412088,"current_range_meters":8400,"station_id":"ce4bhb92rcd13ifvqen0","pricing_plan_id":"cebpf4jnsgd1na2vs0mg"},{"bike_id":"8c27ba7a-a6d2-4402-ac70-8c7708888262","system_id":"levelo_inurba_marseille","lat":43.29287,"lon":5.36854,"is_reserved":false,"is_disabled":false,"rental_uris":{"android":"levelo://app?vid=8c27ba7a-a6d2-4402-ac70-8c7708888262","ios":"levelo://app?vid=8c27ba7a-a6d2-4402-ac70-8c7708888262"},"vehicle_type_id":"4","last_reported":1761412088,"current_range_meters":8400,"station_id":"ce4bhbp2rcd13ifvqesg","pricing_plan_id":"cebpf4jnsgd1na2vs0mg"},{"bike_id":"6154dc34-f7b1-4ef5-be69-967de903b00b","system_id":"levelo_inurba_marseille","lat":43.23783,"lon":5.3664,"is_reserved":false,"is_disabled":false,"rental_uris":{"android":"levelo://app?vid=6154dc34-f7b1-4ef5-be69-967de903b00b","ios":"levelo://app?vid=6154dc34-f7b1-4ef5-be69-967de903b00b"},"vehicle_type_id":"4","last_reported":1761412088,"current_range_meters":8400,"station_id":"st_d3nk18o9ro0c73en2l3g","pricing_plan_id":"cebpf4jnsgd1na2vs0mg"},{"bike_id":"7401696a-ab58-4693-8823-a72a4a8e9102","system_id":"levelo_inurba_marseille","lat":43.28927,"lon":5.36632,"is_reserved":false,"is_disabled":false,"rental_uris":{"android":"levelo://app?vid=7401696a-ab58-4693-8823-a72a4a8e9102","ios":"levelo://app?vid=7401696a-ab58-4693-8823-a72a4a8e9102"},"vehicle_type_id":"4","last_reported":1761412088,"current_range_meters":8400,"station_id":"ce4bhap2rcd13ifvqek0","pricing_plan_id":"cebpf4jnsgd1na2vs0mg"},{"bike_id":"91b07bac-e3a9-4e84-864b-63b2dad0df59","system_id":"levelo_inurba_marseille","lat":43.316881,"lon":5.40478,"is_reserved":false,"is_disabled":false,"rental_uris":{"android":"levelo://app?vid=91b07bac-e3a9-4e84-864b-63b2dad0df59","ios":"levelo://app?vid=91b07bac-e3a9-4e84-864b-63b2dad0df59"},"vehicle_type_id":"4","last_reported":1761412088,"current_range_meters":8400,"station_id":"ce4bh012rcd13ifvqd00","pricing_plan_id":"cebpf4jnsgd1na2vs0mg"},{"bike_id":"38bae4b3-7406-494f-add6-18310d92b72a","system_id":"levelo_inurba_marseille","lat":43.23195,"lon":5.35552,"is_reserved":false,"is_disabled":false,"rental_uris":{"android":"levelo://app?vid=38bae4b3-7406-494f-add6-18310d92b72a","ios":"levelo://app?vid=38bae4b3-7406-494f-add6-18310d92b72a"},"vehicle_type_id":"4","last_reported":1761412088,"current_range_meters":8800,"station_id":"ce4bhu92rcd13ifvqi70","pricing_plan_id":"cebpf4jnsgd1na2vs0mg"},{"bike_id":"79e466c6-a9ea-471f-adb6-d69cb7dde655","system_id":"levelo_inurba_marseille","lat":43.30935,"lon":5.4015,"is_reserved":false,"is_disabled":false,"rental_uris":{"android":"levelo://app?vid=79e466c6-a9ea-471f-adb6-d69cb7dde655","ios":"levelo://app?vid=79e466c6-a9ea-471f-adb6-d69cb7dde655"},"vehicle_type_id":"4","last_reported":1761412088,"current_range_meters":8800,"station_id":"ce4bgvp2rcd13ifvqct0","pricing_plan_id":"cebpf4jnsgd1na2vs0mg"},{"bike_id":"fa063608-29c2-42ab-95b5-2fc82231eea9","system_id":"levelo_inurba_marseille","lat":43.2119,"lon":5.3507,"is_reserved":false,"is_disabled":true,"rental_uris":{"android":"levelo://app?vid=fa063608-29c2-42ab-95b5-2fc82231eea9","ios":"levelo://app?vid=fa063608-29c2-42ab-95b5-2fc82231eea9"},"vehicle_type_id":"4","last_reported":1761412088,"current_range_meters":8800,"station_id":"st_cvj6sg6p6f1abm77japg","pricing_plan_id":"cebpf4jnsgd1na2vs0mg"},{"bike_id":"be119745-dc36-4e85-a997-bfbf3cc7d588","system_id":"levelo_inurba_marseille","lat":43.29715,"lon":5.3661,"is_reserved":false,"is_disabled":false,"rental_uris":{"android":"levelo://app?vid=be119745-dc36-4e85-a997-bfbf3cc7d588","ios":"levelo://app?vid=be119745-dc36-4e85-a997-bfbf3cc7d588"},"vehicle_type_id":"4","last_reported":1761412088,"current_range_meters":9200,"station_id":"ce4bgn12rcd13ifvqbt0","pricing_plan_id":"cebpf4jnsgd1na2vs0mg"},{"bike_id":"6398fd05-47e5-41f8-95bf-116d17d1d757","system_id":"levelo_inurba_marseille","lat":43.292603,"lon":5.384447,"is_reserved":false,"is_disabled":false,"rental_uris":{"android":"levelo://app?vid=6398fd05-47e5-41f8-95bf-116d17d1d757","ios":"levelo://app?vid=6398fd05-47e5-41f8-95bf-116d17d1d757"},"vehicle_type_id":"4","last_reported":1761412088,"current_range_meters":9200,"station_id":"","pricing_plan_id":"cebpf4jnsgd1na2vs0mg"},{"bike_id":"ab097f15-aad4-45c1-872b-28a77488204a","system_id":"levelo_inurba_marseille","lat":43.29898,"lon":5.43675,"is_reserved":false,"is_disabled":false,"rental_uris":{"android":"levelo://app?vid=ab097f15-aad4-45c1-872b-28a77488204a","ios":"levelo://app?vid=ab097f15-aad4-45c1-872b-28a77488204a"},"vehicle_type_id":"4","last_reported":1761412088,"current_range_meters":9200,"station_id":"ce4bhpp2rcd13ifvqhfg","pricing_plan_id":"cebpf4jnsgd1na2vs0mg"},{"bike_id":"5b792551-86a8-4f5a-b31d-642624933d64","system_id":"levelo_inurba_marseille","lat":43.24555,"lon":5.39543,"is_reserved":false,"is_disabled":false,"rental_uris":{"android":"levelo://app?vid=5b792551-86a8-4f5a-b31d-642624933d64","ios":"levelo://app?vid=5b792551-86a8-4f5a-b31d-642624933d64"},"vehicle_type_id":"4","last_reported":1761412088,"current_range_meters":9200,"station_id":"ce4bhlp2rcd13ifvqgjg","pricing_plan_id":"cebpf4jnsgd1na2vs0mg"},{"bike_id":"315c2d49-c7e0-4ea4-b575-a6683c31c63f","system_id":"levelo_inurba_marseille","lat":43.301394,"lon":5.387771,"is_reserved":false,"is_disabled":false,"rental_uris":{"android":"levelo://app?vid=315c2d49-c7e0-4ea4-b575-a6683c31c63f","ios":"levelo://app?vid=315c2d49-c7e0-4ea4-b575-a6683c31c63f"},"vehicle_type_id":"4","last_reported":1761412088,"current_range_meters":9200,"station_id":"ce4bghh2rcd13ifvqb60","pricing_plan_id":"cebpf4jnsgd1na2vs0mg"},{"bike_id":"3b49fee4-b8f7-420a-8f6a-76b4f23d95c4","system_id":"levelo_inurba_marseille","lat":43.30224,"lon":5.39477,"is_reserved":false,"is_disabled":false,"rental_uris":{"android":"levelo://app?vid=3b49fee4-b8f7-420a-8f6a-76b4f23d95c4","ios":"levelo://app?vid=3b49fee4-b8f7-420a-8f6a-76b4f23d95c4"},"vehicle_type_id":"4","last_reported":1761412088,"current_range_meters":9200,"station_id":"ce4bh0p2rcd13ifvqd70","pricing_plan_id":"cebpf4jnsgd1na2vs0mg"},{"bike_id":"4dda77f9-7b11-4908-8ccc-726644603ae6","system_id":"levelo_inurba_marseille","lat":43.291992,"lon":5.393248,"is_reserved":false,"is_disabled":false,"rental_uris":{"android":"levelo://app?vid=4dda77f9-7b11-4908-8ccc-726644603ae6","ios":"levelo://app?vid=4dda77f9-7b11-4908-8ccc-726644603ae6"},"vehicle_type_id":"4","last_reported":1761412088,"current_range_meters":9200,"station_id":"ce4bh192rcd13ifvqdd0","pricing_plan_id":"cebpf4jnsgd1na2vs0mg"},{"bike_id":"7f731a90-b1ea-445a-a62d-a3690c85895d","system_id":"levelo_inurba_marseille","lat":43.33028,"lon":5.39048,"is_reserved":false,"is_disabled":false,"rental_uris":{"android":"levelo://app?vid=7f731a90-b1ea-445a-a62d-a3690c85895d","ios":"levelo://app?vid=7f731a90-b1ea-445a-a62d-a3690c85895d"},"vehicle_type_id":"4","last_reported":1761412088,"current_range_meters":9600,"station_id":"ce4bhr92rcd13ifvqhrg","pricing_plan_id":"cebpf4jnsgd1na2vs0mg"},{"bike_id":"076abe89-fa89-42ec-ba65-b9611f2f3be3","system_id":"levelo_inurba_marseille","lat":43.28484,"lon":5.38561,"is_reserved":false,"is_disabled":false,"rental_uris":{"android":"levelo://app?vid=076abe89-fa89-42ec-ba65-b9611f2f3be3","ios":"levelo://app?vid=076abe89-fa89-42ec-ba65-b9611f2f3be3"},"vehicle_type_id":"4","last_reported":1761412088,"current_range_meters":9600,"station_id":"ce4bh8p2rcd13ifvqeb0","pricing_plan_id":"cebpf4jnsgd1na2vs0mg"},{"bike_id":"70ed0ec6-c3b2-4bed-8e3a-8a2142610817","system_id":"levelo_inurba_marseille","lat":43.28612,"lon":5.35114,"is_reserved":false,"is_disabled":false,"rental_uris":{"android":"levelo://app?vid=70ed0ec6-c3b2-4bed-8e3a-8a2142610817","ios":"levelo://app?vid=70ed0ec6-c3b2-4bed-8e3a-8a2142610817"},"vehicle_type_id":"4","last_reported":1761412088,"current_range_meters":9600,"station_id":"ce4bhch2rcd13ifvqeug","pricing_plan_id":"cebpf4jnsgd1na2vs0mg"},{"bike_id":"4f5c5045-2f2c-4ab7-ad8b-eeba1d52fe66","system_id":"levelo_inurba_marseille","lat":43.29602,"lon":5.36594,"is_reserved":false,"is_disabled":false,"rental_uris":{"android":"levelo://app?vid=4f5c5045-2f2c-4ab7-ad8b-eeba1d52fe66","ios":"levelo://app?vid=4f5c5045-2f2c-4ab7-ad8b-eeba1d52fe66"},"vehicle_type_id":"4","last_reported":1761412088,"current_range_meters":9600,"station_id":"","pricing_plan_id":"cebpf4jnsgd1na2vs0mg"},{"bike_id":"e94f57f2-601c-4cad-a187-6e953770aa25","system_id":"levelo_inurba_marseille","lat":43.31187,"lon":5.37863,"is_reserved":false,"is_disabled":false,"rental_uris":{"android":"levelo://app?vid=e94f57f2-601c-4cad-a187-6e953770aa25","ios":"levelo://app?vid=e94f57f2-601c-4cad-a187-6e953770aa25"},"vehicle_type_id":"4","last_reported":1761412088,"current_range_meters":9600,"station_id":"","pricing_plan_id":"cebpf4jnsgd1na2vs0mg"},{"bike_id":"67edc04a-667c-446f-983c-f0dfe3f0ac76","system_id":"levelo_inurba_marseille","lat":43.23964,"lon":5.3663,"is_reserved":false,"is_disabled":false,"rental_uris":{"android":"levelo://app?vid=67edc04a-667c-446f-983c-f0dfe3f0ac76","ios":"levelo://app?vid=67edc04a-667c-446f-983c-f0dfe3f0ac76"},"vehicle_type_id":"4","last_reported":1761412088,"current_range_meters":9600,"station_id":"ce4bhi12rcd13ifvqfp0","pricing_plan_id":"cebpf4jnsgd1na2vs0mg"},{"bike_id":"39771eba-7abe-4188-a86a-cffe34de3109","system_id":"levelo_inurba_marseille","lat":43.30135,"lon":5.38789,"is_reserved":false,"is_disabled":false,"rental_uris":{"android":"levelo://app?vid=39771eba-7abe-4188-a86a-cffe34de3109","ios":"levelo://app?vid=39771eba-7abe-4188-a86a-cffe34de3109"},"vehicle_type_id":"4","last_reported":1761412088,"current_range_meters":9600,"station_id":"ce4bghh2rcd13ifvqb60","pricing_plan_id":"cebpf4jnsgd1na2vs0mg"},{"bike_id":"7d280a80-cd54-4776-b31b-8a691116a6a1","system_id":"levelo_inurba_marseille","lat":43.31711,"lon":5.40449,"is_reserved":false,"is_disabled":false,"rental_uris":{"android":"levelo://app?vid=7d280a80-cd54-4776-b31b-8a691116a6a1","ios":"levelo://app?vid=7d280a80-cd54-4776-b31b-8a691116a6a1"},"vehicle_type_id":"4","last_reported":1761412088,"current_range_meters":9600,"station_id":"ce4bh012rcd13ifvqd00","pricing_plan_id":"cebpf4jnsgd1na2vs0mg"},{"bike_id":"a3dd3594-897e-4876-bccc-292108b6b8df","system_id":"levelo_inurba_marseille","lat":43.29967,"lon":5.385,"is_reserved":false,"is_disabled":false,"rental_uris":{"android":"levelo://app?vid=a3dd3594-897e-4876-bccc-292108b6b8df","ios":"levelo://app?vid=a3dd3594-897e-4876-bccc-292108b6b8df"},"vehicle_type_id":"4","last_reported":1761412088,"current_range_meters":9600,"station_id":"ce4bgj92rcd13ifvqbd0","pricing_plan_id":"cebpf4jnsgd1na2vs0mg"},{"bike_id":"30404112-9744-4f52-8052-52243c394114","system_id":"levelo_inurba_marseille","lat":43.29306,"lon":5.37159,"is_reserved":false,"is_disabled":false,"rental_uris":{"android":"levelo://app?vid=30404112-9744-4f52-8052-52243c394114","ios":"levelo://app?vid=30404112-9744-4f52-8052-52243c394114"},"vehicle_type_id":"4","last_reported":1761412088,"current_range_meters":9600,"station_id":"ce4bgh92rcd13ifvqb40","pricing_plan_id":"cebpf4jnsgd1na2vs0mg"},{"bike_id":"df12db7f-d06b-4f32-9106-0cee53886db0","system_id":"levelo_inurba_marseille","lat":43.31582,"lon":5.38809,"is_reserved":false,"is_disabled":false,"rental_uris":{"android":"levelo://app?vid=df12db7f-d06b-4f32-9106-0cee53886db0","ios":"levelo://app?vid=df12db7f-d06b-4f32-9106-0cee53886db0"},"vehicle_type_id":"4","last_reported":1761412088,"current_range_meters":9600,"station_id":"","pricing_plan_id":"cebpf4jnsgd1na2vs0mg"},{"bike_id":"8f71ff82-4b04-44ea-8d3b-d8f79a2d57eb","system_id":"levelo_inurba_marseille","lat":43.24392,"lon":5.37048,"is_reserved":false,"is_disabled":false,"rental_uris":{"android":"levelo://app?vid=8f71ff82-4b04-44ea-8d3b-d8f79a2d57eb","ios":"levelo://app?vid=8f71ff82-4b04-44ea-8d3b-d8f79a2d57eb"},"vehicle_type_id":"4","last_reported":1761412088,"current_range_meters":10000,"station_id":"ce4bhhh2rcd13ifvqfk0","pricing_plan_id":"cebpf4jnsgd1na2vs0mg"},{"bike_id":"a35a4922-b803-4cd9-8623-7e895c294787","system_id":"levelo_inurba_marseille","lat":43.297974,"lon":5.382512,"is_reserved":false,"is_disabled":true,"rental_uris":{"android":"levelo://app?vid=a35a4922-b803-4cd9-8623-7e895c294787","ios":"levelo://app?vid=a35a4922-b803-4cd9-8623-7e895c294787"},"vehicle_type_id":"4","last_reported":1761412088,"current_range_meters":10000,"station_id":"","pricing_plan_id":"cebpf4jnsgd1na2vs0mg"},{"bike_id":"98944ac7-74ab-4b72-9b10-f380220011ce","system_id":"levelo_inurba_marseille","lat":43.30135,"lon":5.38781,"is_reserved":false,"is_disabled":false,"rental_uris":{"android":"levelo://app?vid=98944ac7-74ab-4b72-9b10-f380220011ce","ios":"levelo://app?vid=98944ac7-74ab-4b72-9b10-f380220011ce"},"vehicle_type_id":"4","last_reported":1761412088,"current_range_meters":10800,"station_id":"ce4bghh2rcd13ifvqb60","pricing_plan_id":"cebpf4jnsgd1na2vs0mg"},{"bike_id":"9d964ec4-c537-4f1d-b21c-451d3f46b1bf","system_id":"levelo_inurba_marseille","lat":43.29954,"lon":5.37831,"is_reserved":false,"is_disabled":false,"rental_uris":{"android":"levelo://app?vid=9d964ec4-c537-4f1d-b21c-451d3f46b1bf","ios":"levelo://app?vid=9d964ec4-c537-4f1d-b21c-451d3f46b1bf"},"vehicle_type_id":"4","last_reported":1761412088,"current_range_meters":10800,"station_id":"","pricing_plan_id":"cebpf4jnsgd1na2vs0mg"},{"bike_id":"664b8916-505e-4833-9c83-c2250fcf971e","system_id":"levelo_inurba_marseille","lat":43.27422,"lon":5.39418,"is_reserved":false,"is_disabled":false,"rental_uris":{"android":"levelo://app?vid=664b8916-505e-4833-9c83-c2250fcf971e","ios":"levelo://app?vid=664b8916-505e-4833-9c83-c2250fcf971e"},"vehicle_type_id":"4","last_reported":1761412088,"current_range_meters":11200,"station_id":"ce4bhdp2rcd13ifvqf20","pricing_plan_id":"cebpf4jnsgd1na2vs0mg"},{"bike_id":"420b6971-47e2-4c67-8bd0-faa4f00e5ca7","system_id":"levelo_inurba_marseille","lat":43.29983,"lon":5.41356,"is_reserved":false,"is_disabled":false,"rental_uris":{"android":"levelo://app?vid=420b6971-47e2-4c67-8bd0-faa4f00e5ca7","ios":"levelo://app?vid=420b6971-47e2-4c67-8bd0-faa4f00e5ca7"},"vehicle_type_id":"4","last_reported":1761412088,"current_range_meters":11200,"station_id":"ce4bhp12rcd13ifvqh9g","pricing_plan_id":"cebpf4jnsgd1na2vs0mg"},{"bike_id":"ef75096f-acd7-4506-9f83-7bbaa8ff2d05","system_id":"levelo_inurba_marseille","lat":43.21187,"lon":5.35073,"is_reserved":false,"is_disabled":false,"rental_uris":{"android":"levelo://app?vid=ef75096f-acd7-4506-9f83-7bbaa8ff2d05","ios":"levelo://app?vid=ef75096f-acd7-4506-9f83-7bbaa8ff2d05"},"vehicle_type_id":"4","last_reported":1761412088,"current_range_meters":11200,"station_id":"st_cvj6sg6p6f1abm77japg","pricing_plan_id":"cebpf4jnsgd1na2vs0mg"},{"bike_id":"45a4c771-d48b-44c9-9dd9-c1e7368a5b84","system_id":"levelo_inurba_marseille","lat":43.25498,"lon":5.3765,"is_reserved":false,"is_disabled":false,"rental_uris":{"android":"levelo://app?vid=45a4c771-d48b-44c9-9dd9-c1e7368a5b84","ios":"levelo://app?vid=45a4c771-d48b-44c9-9dd9-c1e7368a5b84"},"vehicle_type_id":"4","last_reported":1761412088,"current_range_meters":11200,"station_id":"ce4bhh12rcd13ifvqff0","pricing_plan_id":"cebpf4jnsgd1na2vs0mg"},{"bike_id":"f44695ee-39d5-48b2-acdf-f6004f2a5aea","system_id":"levelo_inurba_marseille","lat":43.31183,"lon":5.38723,"is_reserved":false,"is_disabled":false,"rental_uris":{"android":"levelo://app?vid=f44695ee-39d5-48b2-acdf-f6004f2a5aea","ios":"levelo://app?vid=f44695ee-39d5-48b2-acdf-f6004f2a5aea"},"vehicle_type_id":"4","last_reported":1761412088,"current_range_meters":11600,"station_id":"ce4bgv12rcd13ifvqcp0","pricing_plan_id":"cebpf4jnsgd1na2vs0mg"},{"bike_id":"41d45b45-3a52-4b5a-b2b3-1e62d5490ada","system_id":"levelo_inurba_marseille","lat":43.28534,"lon":5.44098,"is_reserved":false,"is_disabled":false,"rental_uris":{"android":"levelo://app?vid=41d45b45-3a52-4b5a-b2b3-1e62d5490ada","ios":"levelo://app?vid=41d45b45-3a52-4b5a-b2b3-1e62d5490ada"},"vehicle_type_id":"4","last_reported":1761412088,"current_range_meters":11600,"station_id":"st_d3j3df2ikq2c7380ej80","pricing_plan_id":"cebpf4jnsgd1na2vs0mg"},{"bike_id":"b107d725-6781-47f8-b690-e4b65b810560","system_id":"levelo_inurba_marseille","lat":43.316864,"lon":5.404802,"is_reserved":false,"is_disabled":false,"rental_uris":{"android":"levelo://app?vid=b107d725-6781-47f8-b690-e4b65b810560","ios":"levelo://app?vid=b107d725-6781-47f8-b690-e4b65b810560"},"vehicle_type_id":"4","last_reported":1761412088,"current_range_meters":11600,"station_id":"","pricing_plan_id":"cebpf4jnsgd1na2vs0mg"},{"bike_id":"b1de922a-0e25-4f00-a2a7-71a61772b6e4","system_id":"levelo_inurba_marseille","lat":43.279066,"lon":5.380192,"is_reserved":false,"is_disabled":false,"rental_uris":{"android":"levelo://app?vid=b1de922a-0e25-4f00-a2a7-71a61772b6e4","ios":"levelo://app?vid=b1de922a-0e25-4f00-a2a7-71a61772b6e4"},"vehicle_type_id":"4","last_reported":1761412088,"current_range_meters":11600,"station_id":"ce4bhf92rcd13ifvqf50","pricing_plan_id":"cebpf4jnsgd1na2vs0mg"},{"bike_id":"8be6a47c-9542-4fed-8109-f6d91a0f2b3f","system_id":"levelo_inurba_marseille","lat":43.29174,"lon":5.37161,"is_reserved":false,"is_disabled":false,"rental_uris":{"android":"levelo://app?vid=8be6a47c-9542-4fed-8109-f6d91a0f2b3f","ios":"levelo://app?vid=8be6a47c-9542-4fed-8109-f6d91a0f2b3f"},"vehicle_type_id":"4","last_reported":1761412088,"current_range_meters":11600,"station_id":"ce4bha92rcd13ifvqeh0","pricing_plan_id":"cebpf4jnsgd1na2vs0mg"},{"bike_id":"bbaf9d93-a4d4-4cf7-a118-e675d9bf905b","system_id":"levelo_inurba_marseille","lat":43.28717,"lon":5.36097,"is_reserved":false,"is_disabled":false,"rental_uris":{"android":"levelo://app?vid=bbaf9d93-a4d4-4cf7-a118-e675d9bf905b","ios":"levelo://app?vid=bbaf9d93-a4d4-4cf7-a118-e675d9bf905b"},"vehicle_type_id":"4","last_reported":1761412088,"current_range_meters":11600,"station_id":"cki0cbj6b192h4jlfktg","pricing_plan_id":"cebpf4jnsgd1na2vs0mg"},{"bike_id":"0277d1ee-b72d-44ed-a419-598130cf3f33","system_id":"levelo_inurba_marseille","lat":43.30151,"lon":5.38794,"is_reserved":false,"is_disabled":false,"rental_uris":{"android":"levelo://app?vid=0277d1ee-b72d-44ed-a419-598130cf3f33","ios":"levelo://app?vid=0277d1ee-b72d-44ed-a419-598130cf3f33"},"vehicle_type_id":"4","last_reported":1761412088,"current_range_meters":11600,"station_id":"ce4bghh2rcd13ifvqb60","pricing_plan_id":"cebpf4jnsgd1na2vs0mg"},{"bike_id":"41f3b2c6-c607-46f7-97fb-5ac71a087a64","system_id":"levelo_inurba_marseille","lat":43.24071,"lon":5.37767,"is_reserved":false,"is_disabled":false,"rental_uris":{"android":"levelo://app?vid=41f3b2c6-c607-46f7-97fb-5ac71a087a64","ios":"levelo://app?vid=41f3b2c6-c607-46f7-97fb-5ac71a087a64"},"vehicle_type_id":"4","last_reported":1761412088,"current_range_meters":12000,"station_id":"ce4bhnp2rcd13ifvqgvg","pricing_plan_id":"cebpf4jnsgd1na2vs0mg"},{"bike_id":"f775e7d5-20b8-46d9-9f9f-976fb2a061d1","system_id":"levelo_inurba_marseille","lat":43.289474,"lon":5.363903,"is_reserved":false,"is_disabled":false,"rental_uris":{"android":"levelo://app?vid=f775e7d5-20b8-46d9-9f9f-976fb2a061d1","ios":"levelo://app?vid=f775e7d5-20b8-46d9-9f9f-976fb2a061d1"},"vehicle_type_id":"4","last_reported":1761412088,"current_range_meters":12000,"station_id":"ce4bhc92rcd13ifvqetg","pricing_plan_id":"cebpf4jnsgd1na2vs0mg"},{"bike_id":"3310615f-aea1-494c-b320-aea612b2bbb0","system_id":"levelo_inurba_marseille","lat":43.24162,"lon":5.36392,"is_reserved":false,"is_disabled":false,"rental_uris":{"android":"levelo://app?vid=3310615f-aea1-494c-b320-aea612b2bbb0","ios":"levelo://app?vid=3310615f-aea1-494c-b320-aea612b2bbb0"},"vehicle_type_id":"4","last_reported":1761412088,"current_range_meters":12000,"station_id":"cpo36qri1sfpv3e86is0","pricing_plan_id":"cebpf4jnsgd1na2vs0mg"},{"bike_id":"43117888-69d1-4bc6-a73a-697554e4a08e","system_id":"levelo_inurba_marseille","lat":43.25264,"lon":5.37822,"is_reserved":false,"is_disabled":false,"rental_uris":{"android":"levelo://app?vid=43117888-69d1-4bc6-a73a-697554e4a08e","ios":"levelo://app?vid=43117888-69d1-4bc6-a73a-697554e4a08e"},"vehicle_type_id":"4","last_reported":1761412088,"current_range_meters":12400,"station_id":"","pricing_plan_id":"cebpf4jnsgd1na2vs0mg"},{"bike_id":"e53d34e1-6a96-4a4a-aff7-12a47b3db3b2","system_id":"levelo_inurba_marseille","lat":43.29755,"lon":5.42789,"is_reserved":false,"is_disabled":false,"rental_uris":{"android":"levelo://app?vid=e53d34e1-6a96-4a4a-aff7-12a47b3db3b2","ios":"levelo://app?vid=e53d34e1-6a96-4a4a-aff7-12a47b3db3b2"},"vehicle_type_id":"4","last_reported":1761412088,"current_range_meters":12400,"station_id":"st_d3md5207bmas73dh9klg","pricing_plan_id":"cebpf4jnsgd1na2vs0mg"},{"bike_id":"8e92164c-deff-4fbd-9f4e-43ff81933572","system_id":"levelo_inurba_marseille","lat":43.29836,"lon":5.42028,"is_reserved":false,"is_disabled":false,"rental_uris":{"android":"levelo://app?vid=8e92164c-deff-4fbd-9f4e-43ff81933572","ios":"levelo://app?vid=8e92164c-deff-4fbd-9f4e-43ff81933572"},"vehicle_type_id":"4","last_reported":1761412088,"current_range_meters":12400,"station_id":"","pricing_plan_id":"cebpf4jnsgd1na2vs0mg"},{"bike_id":"79d0da37-84bd-47cc-8f16-7c1b2b586f49","system_id":"levelo_inurba_marseille","lat":43.31696,"lon":5.40478,"is_reserved":false,"is_disabled":false,"rental_uris":{"android":"levelo://app?vid=79d0da37-84bd-47cc-8f16-7c1b2b586f49","ios":"levelo://app?vid=79d0da37-84bd-47cc-8f16-7c1b2b586f49"},"vehicle_type_id":"4","last_reported":1761412088,"current_range_meters":12400,"station_id":"ce4bh012rcd13ifvqd00","pricing_plan_id":"cebpf4jnsgd1na2vs0mg"},{"bike_id":"bb09cb0b-c8b9-4944-b922-31c454d040ed","system_id":"levelo_inurba_marseille","lat":43.299111,"lon":5.381322,"is_reserved":false,"is_disabled":true,"rental_uris":{"android":"levelo://app?vid=bb09cb0b-c8b9-4944-b922-31c454d040ed","ios":"levelo://app?vid=bb09cb0b-c8b9-4944-b922-31c454d040ed"},"vehicle_type_id":"4","last_reported":1761412088,"current_range_meters":12800,"station_id":"ce4bh3p2rcd13ifvqdq0","pricing_plan_id":"cebpf4jnsgd1na2vs0mg"},{"bike_id":"cd26ab16-3e3e-43ea-a563-05ea7a953084","system_id":"levelo_inurba_marseille","lat":43.311,"lon":5.36767,"is_reserved":false,"is_disabled":false,"rental_uris":{"android":"levelo://app?vid=cd26ab16-3e3e-43ea-a563-05ea7a953084","ios":"levelo://app?vid=cd26ab16-3e3e-43ea-a563-05ea7a953084"},"vehicle_type_id":"4","last_reported":1761412088,"current_range_meters":12800,"station_id":"","pricing_plan_id":"cebpf4jnsgd1na2vs0mg"},{"bike_id":"5cf5e075-1456-4002-b827-c19f6e93637e","system_id":"levelo_inurba_marseille","lat":43.29541,"lon":5.38541,"is_reserved":false,"is_disabled":false,"rental_uris":{"android":"levelo://app?vid=5cf5e075-1456-4002-b827-c19f6e93637e","ios":"levelo://app?vid=5cf5e075-1456-4002-b827-c19f6e93637e"},"vehicle_type_id":"4","last_reported":1761412088,"current_range_meters":13600,"station_id":"ce4bgih2rcd13ifvqba0","pricing_plan_id":"cebpf4jnsgd1na2vs0mg"},{"bike_id":"dab36927-4328-48fa-bffb-145a737de07e","system_id":"levelo_inurba_marseille","lat":43.30803,"lon":5.43531,"is_reserved":false,"is_disabled":true,"rental_uris":{"android":"levelo://app?vid=dab36927-4328-48fa-bffb-145a737de07e","ios":"levelo://app?vid=dab36927-4328-48fa-bffb-145a737de07e"},"vehicle_type_id":"4","last_reported":1761412088,"current_range_meters":13600,"station_id":"ce4bhph2rcd13ifvqheg","pricing_plan_id":"cebpf4jnsgd1na2vs0mg"},{"bike_id":"5b91766d-91d0-4602-8be6-6a369c10831e","system_id":"levelo_inurba_marseille","lat":43.23784,"lon":5.36627,"is_reserved":false,"is_disabled":false,"rental_uris":{"android":"levelo://app?vid=5b91766d-91d0-4602-8be6-6a369c10831e","ios":"levelo://app?vid=5b91766d-91d0-4602-8be6-6a369c10831e"},"vehicle_type_id":"4","last_reported":1761412088,"current_range_meters":13600,"station_id":"st_d3nk18o9ro0c73en2l3g","pricing_plan_id":"cebpf4jnsgd1na2vs0mg"},{"bike_id":"b6143438-7bab-4b48-ac83-afe7c173cec2","system_id":"levelo_inurba_marseille","lat":43.29537,"lon":5.37503,"is_reserved":false,"is_disabled":false,"rental_uris":{"android":"levelo://app?vid=b6143438-7bab-4b48-ac83-afe7c173cec2","ios":"levelo://app?vid=b6143438-7bab-4b48-ac83-afe7c173cec2"},"vehicle_type_id":"4","last_reported":1761412088,"current_range_meters":13600,"station_id":"ce4bgkp2rcd13ifvqbmg","pricing_plan_id":"cebpf4jnsgd1na2vs0mg"},{"bike_id":"8c35a7e4-8378-4fdf-b42f-02e88b6199ca","system_id":"levelo_inurba_marseille","lat":43.321,"lon":5.36776,"is_reserved":false,"is_disabled":false,"rental_uris":{"android":"levelo://app?vid=8c35a7e4-8378-4fdf-b42f-02e88b6199ca","ios":"levelo://app?vid=8c35a7e4-8378-4fdf-b42f-02e88b6199ca"},"vehicle_type_id":"4","last_reported":1761412088,"current_range_meters":13600,"station_id":"ce4bhrh2rcd13ifvqhug","pricing_plan_id":"cebpf4jnsgd1na2vs0mg"},{"bike_id":"8898c0d6-5ac1-4092-a6f9-ef971a95f207","system_id":"levelo_inurba_marseille","lat":43.29532,"lon":5.38542,"is_reserved":false,"is_disabled":false,"rental_uris":{"android":"levelo://app?vid=8898c0d6-5ac1-4092-a6f9-ef971a95f207","ios":"levelo://app?vid=8898c0d6-5ac1-4092-a6f9-ef971a95f207"},"vehicle_type_id":"4","last_reported":1761412088,"current_range_meters":14000,"station_id":"ce4bgih2rcd13ifvqba0","pricing_plan_id":"cebpf4jnsgd1na2vs0mg"},{"bike_id":"8e1001bf-14bf-4add-9e80-532070c873ea","system_id":"levelo_inurba_marseille","lat":43.25579,"lon":5.38245,"is_reserved":false,"is_disabled":false,"rental_uris":{"android":"levelo://app?vid=8e1001bf-14bf-4add-9e80-532070c873ea","ios":"levelo://app?vid=8e1001bf-14bf-4add-9e80-532070c873ea"},"vehicle_type_id":"4","last_reported":1761412088,"current_range_meters":14000,"station_id":"ce4bhih2rcd13ifvqfs0","pricing_plan_id":"cebpf4jnsgd1na2vs0mg"},{"bike_id":"6956a06f-d312-4af9-9b14-36eec8aee62b","system_id":"levelo_inurba_marseille","lat":43.29877,"lon":5.39738,"is_reserved":false,"is_disabled":false,"rental_uris":{"android":"levelo://app?vid=6956a06f-d312-4af9-9b14-36eec8aee62b","ios":"levelo://app?vid=6956a06f-d312-4af9-9b14-36eec8aee62b"},"vehicle_type_id":"4","last_reported":1761412088,"current_range_meters":14000,"station_id":"ce4bh0h2rcd13ifvqd50","pricing_plan_id":"cebpf4jnsgd1na2vs0mg"},{"bike_id":"a2cef541-424d-4fed-a0cd-72cc656ef6e2","system_id":"levelo_inurba_marseille","lat":43.29526,"lon":5.37506,"is_reserved":false,"is_disabled":false,"rental_uris":{"android":"levelo://app?vid=a2cef541-424d-4fed-a0cd-72cc656ef6e2","ios":"levelo://app?vid=a2cef541-424d-4fed-a0cd-72cc656ef6e2"},"vehicle_type_id":"4","last_reported":1761412088,"current_range_meters":14000,"station_id":"ce4bgkp2rcd13ifvqbmg","pricing_plan_id":"cebpf4jnsgd1na2vs0mg"},{"bike_id":"e4e80bc8-3fa8-4736-beae-1e395e7bd4fb","system_id":"levelo_inurba_marseille","lat":43.28702,"lon":5.37398,"is_reserved":false,"is_disabled":false,"rental_uris":{"android":"levelo://app?vid=e4e80bc8-3fa8-4736-beae-1e395e7bd4fb","ios":"levelo://app?vid=e4e80bc8-3fa8-4736-beae-1e395e7bd4fb"},"vehicle_type_id":"4","last_reported":1761412088,"current_range_meters":14000,"station_id":"ce4bh3p2rcd13ifvqdq0","pricing_plan_id":"cebpf4jnsgd1na2vs0mg"},{"bike_id":"687f3bab-7463-4ecd-b055-f17903bf3aae","system_id":"levelo_inurba_marseille","lat":43.284202,"lon":5.375119,"is_reserved":false,"is_disabled":false,"rental_uris":{"android":"levelo://app?vid=687f3bab-7463-4ecd-b055-f17903bf3aae","ios":"levelo://app?vid=687f3bab-7463-4ecd-b055-f17903bf3aae"},"vehicle_type_id":"4","last_reported":1761412088,"current_range_meters":14000,"station_id":"ce4bh412rcd13ifvqds0","pricing_plan_id":"cebpf4jnsgd1na2vs0mg"},{"bike_id":"8b878492-0846-481d-a242-55ba6068ae4b","system_id":"levelo_inurba_marseille","lat":43.30122,"lon":5.39841,"is_reserved":false,"is_disabled":false,"rental_uris":{"android":"levelo://app?vid=8b878492-0846-481d-a242-55ba6068ae4b","ios":"levelo://app?vid=8b878492-0846-481d-a242-55ba6068ae4b"},"vehicle_type_id":"4","last_reported":1761412088,"current_range_meters":14000,"station_id":"ce4bh0h2rcd13ifvqd40","pricing_plan_id":"cebpf4jnsgd1na2vs0mg"},{"bike_id":"e5c04b46-9ee1-45e7-8b30-d191deb41392","system_id":"levelo_inurba_marseille","lat":43.28488,"lon":5.3842,"is_reserved":false,"is_disabled":false,"rental_uris":{"android":"levelo://app?vid=e5c04b46-9ee1-45e7-8b30-d191deb41392","ios":"levelo://app?vid=e5c04b46-9ee1-45e7-8b30-d191deb41392"},"vehicle_type_id":"4","last_reported":1761412088,"current_range_meters":14000,"station_id":"ce4bh512rcd13ifvqe3g","pricing_plan_id":"cebpf4jnsgd1na2vs0mg"},{"bike_id":"0304d82c-e121-46a2-8924-d520c2299d8f","system_id":"levelo_inurba_marseille","lat":43.29917,"lon":5.38155,"is_reserved":false,"is_disabled":false,"rental_uris":{"android":"levelo://app?vid=0304d82c-e121-46a2-8924-d520c2299d8f","ios":"levelo://app?vid=0304d82c-e121-46a2-8924-d520c2299d8f"},"vehicle_type_id":"4","last_reported":1761412088,"current_range_meters":14000,"station_id":"ce4bgj12rcd13ifvqbc0","pricing_plan_id":"cebpf4jnsgd1na2vs0mg"},{"bike_id":"fda39a4a-9de3-4bf7-96e2-16068f734704","system_id":"levelo_inurba_marseille","lat":43.292143,"lon":5.368935,"is_reserved":false,"is_disabled":false,"rental_uris":{"android":"levelo://app?vid=fda39a4a-9de3-4bf7-96e2-16068f734704","ios":"levelo://app?vid=fda39a4a-9de3-4bf7-96e2-16068f734704"},"vehicle_type_id":"4","last_reported":1761412088,"current_range_meters":14400,"station_id":"ce4bha12rcd13ifvqef0","pricing_plan_id":"cebpf4jnsgd1na2vs0mg"},{"bike_id":"5700810a-95c2-4696-a24f-11ec39ea235f","system_id":"levelo_inurba_marseille","lat":43.31082,"lon":5.36959,"is_reserved":false,"is_disabled":false,"rental_uris":{"android":"levelo://app?vid=5700810a-95c2-4696-a24f-11ec39ea235f","ios":"levelo://app?vid=5700810a-95c2-4696-a24f-11ec39ea235f"},"vehicle_type_id":"4","last_reported":1761412088,"current_range_meters":14400,"station_id":"","pricing_plan_id":"cebpf4jnsgd1na2vs0mg"},{"bike_id":"51331396-9821-4deb-aa3c-ff2ee911ddb8","system_id":"levelo_inurba_marseille","lat":43.30888,"lon":5.3965,"is_reserved":false,"is_disabled":false,"rental_uris":{"android":"levelo://app?vid=51331396-9821-4deb-aa3c-ff2ee911ddb8","ios":"levelo://app?vid=51331396-9821-4deb-aa3c-ff2ee911ddb8"},"vehicle_type_id":"4","last_reported":1761412088,"current_range_meters":14400,"station_id":"ce4bh012rcd13ifvqcv0","pricing_plan_id":"cebpf4jnsgd1na2vs0mg"},{"bike_id":"0485a4fb-ac16-4e97-825e-e88c05f67438","system_id":"levelo_inurba_marseille","lat":43.282693,"lon":5.350527,"is_reserved":false,"is_disabled":false,"rental_uris":{"android":"levelo://app?vid=0485a4fb-ac16-4e97-825e-e88c05f67438","ios":"levelo://app?vid=0485a4fb-ac16-4e97-825e-e88c05f67438"},"vehicle_type_id":"4","last_reported":1761412088,"current_range_meters":14400,"station_id":"ce4bhbp2rcd13ifvqerg","pricing_plan_id":"cebpf4jnsgd1na2vs0mg"},{"bike_id":"90679711-41a4-48da-9c81-5a5d24148d79","system_id":"levelo_inurba_marseille","lat":43.29078,"lon":5.37174,"is_reserved":false,"is_disabled":false,"rental_uris":{"android":"levelo://app?vid=90679711-41a4-48da-9c81-5a5d24148d79","ios":"levelo://app?vid=90679711-41a4-48da-9c81-5a5d24148d79"},"vehicle_type_id":"4","last_reported":1761412088,"current_range_meters":14400,"station_id":"ce4bh5p2rcd13ifvqe4g","pricing_plan_id":"cebpf4jnsgd1na2vs0mg"},{"bike_id":"856e142f-bc05-4738-a75f-30441de6bce3","system_id":"levelo_inurba_marseille","lat":43.31255,"lon":5.36883,"is_reserved":false,"is_disabled":false,"rental_uris":{"android":"levelo://app?vid=856e142f-bc05-4738-a75f-30441de6bce3","ios":"levelo://app?vid=856e142f-bc05-4738-a75f-30441de6bce3"},"vehicle_type_id":"4","last_reported":1761412088,"current_range_meters":14800,"station_id":"ce4bgl92rcd13ifvqbq0","pricing_plan_id":"cebpf4jnsgd1na2vs0mg"},{"bike_id":"6543a85f-172f-4e79-af6b-a789c2d2bd36","system_id":"levelo_inurba_marseille","lat":43.28671,"lon":5.36355,"is_reserved":false,"is_disabled":false,"rental_uris":{"android":"levelo://app?vid=6543a85f-172f-4e79-af6b-a789c2d2bd36","ios":"levelo://app?vid=6543a85f-172f-4e79-af6b-a789c2d2bd36"},"vehicle_type_id":"4","last_reported":1761412088,"current_range_meters":14800,"station_id":"ce4bhah2rcd13ifvqej0","pricing_plan_id":"cebpf4jnsgd1na2vs0mg"},{"bike_id":"d3145067-3ca0-4e72-b01a-ef78c0959aad","system_id":"levelo_inurba_marseille","lat":43.30219,"lon":5.40026,"is_reserved":false,"is_disabled":true,"rental_uris":{"android":"levelo://app?vid=d3145067-3ca0-4e72-b01a-ef78c0959aad","ios":"levelo://app?vid=d3145067-3ca0-4e72-b01a-ef78c0959aad"},"vehicle_type_id":"4","last_reported":1761412088,"current_range_meters":14800,"station_id":"ce4bgvh2rcd13ifvqcs0","pricing_plan_id":"cebpf4jnsgd1na2vs0mg"},{"bike_id":"887f78db-426a-4a41-93a6-c48ff17f5b1b","system_id":"levelo_inurba_marseille","lat":43.297054,"lon":5.366111,"is_reserved":false,"is_disabled":false,"rental_uris":{"android":"levelo://app?vid=887f78db-426a-4a41-93a6-c48ff17f5b1b","ios":"levelo://app?vid=887f78db-426a-4a41-93a6-c48ff17f5b1b"},"vehicle_type_id":"4","last_reported":1761412088,"current_range_meters":15200,"station_id":"ce4bgn12rcd13ifvqbt0","pricing_plan_id":"cebpf4jnsgd1na2vs0mg"},{"bike_id":"268d6825-4d04-4eca-999a-848df6e19ed0","system_id":"levelo_inurba_marseille","lat":43.31273,"lon":5.40172,"is_reserved":false,"is_disabled":false,"rental_uris":{"android":"levelo://app?vid=268d6825-4d04-4eca-999a-848df6e19ed0","ios":"levelo://app?vid=268d6825-4d04-4eca-999a-848df6e19ed0"},"vehicle_type_id":"4","last_reported":1761412088,"current_range_meters":15200,"station_id":"ce4bh092rcd13ifvqd30","pricing_plan_id":"cebpf4jnsgd1na2vs0mg"},{"bike_id":"fdc84a8a-82a3-4c88-a92b-d300c8fe34ed","system_id":"levelo_inurba_marseille","lat":43.28618,"lon":5.35109,"is_reserved":false,"is_disabled":false,"rental_uris":{"android":"levelo://app?vid=fdc84a8a-82a3-4c88-a92b-d300c8fe34ed","ios":"levelo://app?vid=fdc84a8a-82a3-4c88-a92b-d300c8fe34ed"},"vehicle_type_id":"4","last_reported":1761412088,"current_range_meters":15200,"station_id":"ce4bhch2rcd13ifvqeug","pricing_plan_id":"cebpf4jnsgd1na2vs0mg"},{"bike_id":"51f6b392-8d0d-41b5-9bf6-76a949608beb","system_id":"levelo_inurba_marseille","lat":43.25338,"lon":5.42153,"is_reserved":false,"is_disabled":false,"rental_uris":{"android":"levelo://app?vid=51f6b392-8d0d-41b5-9bf6-76a949608beb","ios":"levelo://app?vid=51f6b392-8d0d-41b5-9bf6-76a949608beb"},"vehicle_type_id":"4","last_reported":1761412088,"current_range_meters":15200,"station_id":"st_d2m65c5bi1j21697t3ng","pricing_plan_id":"cebpf4jnsgd1na2vs0mg"},{"bike_id":"7a286e2b-5b46-4fc2-af7a-581afc6db19e","system_id":"levelo_inurba_marseille","lat":43.292358,"lon":5.383621,"is_reserved":false,"is_disabled":false,"rental_uris":{"android":"levelo://app?vid=7a286e2b-5b46-4fc2-af7a-581afc6db19e","ios":"levelo://app?vid=7a286e2b-5b46-4fc2-af7a-581afc6db19e"},"vehicle_type_id":"4","last_reported":1761412088,"current_range_meters":15200,"station_id":"ce4bh692rcd13ifvqea0","pricing_plan_id":"cebpf4jnsgd1na2vs0mg"},{"bike_id":"d0d97312-c0ce-4e35-b465-0113c6bd0b31","system_id":"levelo_inurba_marseille","lat":43.239575,"lon":5.366433,"is_reserved":false,"is_disabled":false,"rental_uris":{"android":"levelo://app?vid=d0d97312-c0ce-4e35-b465-0113c6bd0b31","ios":"levelo://app?vid=d0d97312-c0ce-4e35-b465-0113c6bd0b31"},"vehicle_type_id":"4","last_reported":1761412088,"current_range_meters":15200,"station_id":"ce4bhi12rcd13ifvqfp0","pricing_plan_id":"cebpf4jnsgd1na2vs0mg"},{"bike_id":"4e7a3a2a-d050-47c7-bc4a-b406389877c5","system_id":"levelo_inurba_marseille","lat":43.24633,"lon":5.43155,"is_reserved":false,"is_disabled":false,"rental_uris":{"android":"levelo://app?vid=4e7a3a2a-d050-47c7-bc4a-b406389877c5","ios":"levelo://app?vid=4e7a3a2a-d050-47c7-bc4a-b406389877c5"},"vehicle_type_id":"4","last_reported":1761412088,"current_range_meters":16000,"station_id":"st_d2m6c4gdas8pm72e190g","pricing_plan_id":"cebpf4jnsgd1na2vs0mg"},{"bike_id":"40fed290-3dea-4c73-bf2e-af05de8161fd","system_id":"levelo_inurba_marseille","lat":43.32111,"lon":5.36746,"is_reserved":false,"is_disabled":false,"rental_uris":{"android":"levelo://app?vid=40fed290-3dea-4c73-bf2e-af05de8161fd","ios":"levelo://app?vid=40fed290-3dea-4c73-bf2e-af05de8161fd"},"vehicle_type_id":"4","last_reported":1761412088,"current_range_meters":16000,"station_id":"ce4bhrh2rcd13ifvqhug","pricing_plan_id":"cebpf4jnsgd1na2vs0mg"},{"bike_id":"1cf14466-65e3-45f7-80ec-4257b916cd88","system_id":"levelo_inurba_marseille","lat":43.29909,"lon":5.38157,"is_reserved":false,"is_disabled":false,"rental_uris":{"android":"levelo://app?vid=1cf14466-65e3-45f7-80ec-4257b916cd88","ios":"levelo://app?vid=1cf14466-65e3-45f7-80ec-4257b916cd88"},"vehicle_type_id":"4","last_reported":1761412088,"current_range_meters":16000,"station_id":"ce4bgj12rcd13ifvqbc0","pricing_plan_id":"cebpf4jnsgd1na2vs0mg"},{"bike_id":"086e41c1-adb0-475d-8d23-b2b1b1afd76a","system_id":"levelo_inurba_marseille","lat":43.26224,"lon":5.40449,"is_reserved":false,"is_disabled":false,"rental_uris":{"android":"levelo://app?vid=086e41c1-adb0-475d-8d23-b2b1b1afd76a","ios":"levelo://app?vid=086e41c1-adb0-475d-8d23-b2b1b1afd76a"},"vehicle_type_id":"4","last_reported":1761412088,"current_range_meters":16000,"station_id":"ce4bhmh2rcd13ifvqgmg","pricing_plan_id":"cebpf4jnsgd1na2vs0mg"},{"bike_id":"141a4ce1-6693-4f2b-9b04-967032e6a2e0","system_id":"levelo_inurba_marseille","lat":43.29549,"lon":5.39035,"is_reserved":false,"is_disabled":false,"rental_uris":{"android":"levelo://app?vid=141a4ce1-6693-4f2b-9b04-967032e6a2e0","ios":"levelo://app?vid=141a4ce1-6693-4f2b-9b04-967032e6a2e0"},"vehicle_type_id":"4","last_reported":1761412088,"current_range_meters":16000,"station_id":"ce4bh3p2rcd13ifvqdp0","pricing_plan_id":"cebpf4jnsgd1na2vs0mg"},{"bike_id":"817cc617-c5c6-4a47-9ffe-06f7de7e10c2","system_id":"levelo_inurba_marseille","lat":43.29536,"lon":5.39403,"is_reserved":false,"is_disabled":false,"rental_uris":{"android":"levelo://app?vid=817cc617-c5c6-4a47-9ffe-06f7de7e10c2","ios":"levelo://app?vid=817cc617-c5c6-4a47-9ffe-06f7de7e10c2"},"vehicle_type_id":"4","last_reported":1761412088,"current_range_meters":16000,"station_id":"ce4bh292rcd13ifvqdf0","pricing_plan_id":"cebpf4jnsgd1na2vs0mg"},{"bike_id":"0b606cb4-d136-49db-be89-ddc17ce6db2f","system_id":"levelo_inurba_marseille","lat":43.292061,"lon":5.379167,"is_reserved":false,"is_disabled":false,"rental_uris":{"android":"levelo://app?vid=0b606cb4-d136-49db-be89-ddc17ce6db2f","ios":"levelo://app?vid=0b606cb4-d136-49db-be89-ddc17ce6db2f"},"vehicle_type_id":"4","last_reported":1761412088,"current_range_meters":16000,"station_id":"ce4bhah2rcd13ifvqej0","pricing_plan_id":"cebpf4jnsgd1na2vs0mg"},{"bike_id":"3c2c8341-c353-435f-9887-0751e4c37ced","system_id":"levelo_inurba_marseille","lat":43.26564,"lon":5.39008,"is_reserved":false,"is_disabled":false,"rental_uris":{"android":"levelo://app?vid=3c2c8341-c353-435f-9887-0751e4c37ced","ios":"levelo://app?vid=3c2c8341-c353-435f-9887-0751e4c37ced"},"vehicle_type_id":"4","last_reported":1761412088,"current_range_meters":16000,"station_id":"ce4bhe12rcd13ifvqf30","pricing_plan_id":"cebpf4jnsgd1na2vs0mg"},{"bike_id":"43f33f61-7389-4a86-8b52-5e9508c641b5","system_id":"levelo_inurba_marseille","lat":43.27497,"lon":5.42453,"is_reserved":false,"is_disabled":false,"rental_uris":{"android":"levelo://app?vid=43f33f61-7389-4a86-8b52-5e9508c641b5","ios":"levelo://app?vid=43f33f61-7389-4a86-8b52-5e9508c641b5"},"vehicle_type_id":"4","last_reported":1761412088,"current_range_meters":16000,"station_id":"ce4bhn92rcd13ifvqgrg","pricing_plan_id":"cebpf4jnsgd1na2vs0mg"},{"bike_id":"3ad4d97d-497f-4447-841e-5d883753625f","system_id":"levelo_inurba_marseille","lat":43.28271,"lon":5.35071,"is_reserved":false,"is_disabled":false,"rental_uris":{"android":"levelo://app?vid=3ad4d97d-497f-4447-841e-5d883753625f","ios":"levelo://app?vid=3ad4d97d-497f-4447-841e-5d883753625f"},"vehicle_type_id":"4","last_reported":1761412088,"current_range_meters":16400,"station_id":"ce4bhbp2rcd13ifvqerg","pricing_plan_id":"cebpf4jnsgd1na2vs0mg"},{"bike_id":"dd091519-8e6a-4dcf-a8e2-fd72c219b581","system_id":"levelo_inurba_marseille","lat":43.24179,"lon":5.39728,"is_reserved":false,"is_disabled":false,"rental_uris":{"android":"levelo://app?vid=dd091519-8e6a-4dcf-a8e2-fd72c219b581","ios":"levelo://app?vid=dd091519-8e6a-4dcf-a8e2-fd72c219b581"},"vehicle_type_id":"4","last_reported":1761412088,"current_range_meters":16400,"station_id":"ce4bhn12rcd13ifvqgpg","pricing_plan_id":"cebpf4jnsgd1na2vs0mg"},{"bike_id":"59e0e55d-ae93-4c8a-989c-120e6e17d539","system_id":"levelo_inurba_marseille","lat":43.23063,"lon":5.35498,"is_reserved":false,"is_disabled":false,"rental_uris":{"android":"levelo://app?vid=59e0e55d-ae93-4c8a-989c-120e6e17d539","ios":"levelo://app?vid=59e0e55d-ae93-4c8a-989c-120e6e17d539"},"vehicle_type_id":"4","last_reported":1761412088,"current_range_meters":16400,"station_id":"cpo3342slgdg3j2ifvpg","pricing_plan_id":"cebpf4jnsgd1na2vs0mg"},{"bike_id":"ba4ca7e6-a709-434e-a8e0-79042c6f0605","system_id":"levelo_inurba_marseille","lat":43.29846,"lon":5.36279,"is_reserved":false,"is_disabled":false,"rental_uris":{"android":"levelo://app?vid=ba4ca7e6-a709-434e-a8e0-79042c6f0605","ios":"levelo://app?vid=ba4ca7e6-a709-434e-a8e0-79042c6f0605"},"vehicle_type_id":"4","last_reported":1761412088,"current_range_meters":16400,"station_id":"ce4bgpp2rcd13ifvqc3g","pricing_plan_id":"cebpf4jnsgd1na2vs0mg"},{"bike_id":"02253b20-9787-436b-aee3-53935d1c1839","system_id":"levelo_inurba_marseille","lat":43.23192,"lon":5.35553,"is_reserved":false,"is_disabled":false,"rental_uris":{"android":"levelo://app?vid=02253b20-9787-436b-aee3-53935d1c1839","ios":"levelo://app?vid=02253b20-9787-436b-aee3-53935d1c1839"},"vehicle_type_id":"4","last_reported":1761412088,"current_range_meters":16400,"station_id":"ce4bhu92rcd13ifvqi70","pricing_plan_id":"cebpf4jnsgd1na2vs0mg"},{"bike_id":"29b38a45-3e07-40c1-b8b1-5f85b487711f","system_id":"levelo_inurba_marseille","lat":43.31213,"lon":5.40397,"is_reserved":false,"is_disabled":false,"rental_uris":{"android":"levelo://app?vid=29b38a45-3e07-40c1-b8b1-5f85b487711f","ios":"levelo://app?vid=29b38a45-3e07-40c1-b8b1-5f85b487711f"},"vehicle_type_id":"4","last_reported":1761412088,"current_range_meters":16800,"station_id":"","pricing_plan_id":"cebpf4jnsgd1na2vs0mg"},{"bike_id":"a6f0ed19-8042-4fbc-83cb-73ce2f11e459","system_id":"levelo_inurba_marseille","lat":43.32088,"lon":5.36756,"is_reserved":false,"is_disabled":false,"rental_uris":{"android":"levelo://app?vid=a6f0ed19-8042-4fbc-83cb-73ce2f11e459","ios":"levelo://app?vid=a6f0ed19-8042-4fbc-83cb-73ce2f11e459"},"vehicle_type_id":"4","last_reported":1761412088,"current_range_meters":16800,"station_id":"ce4bhrh2rcd13ifvqhug","pricing_plan_id":"cebpf4jnsgd1na2vs0mg"},{"bike_id":"83de5437-828e-4535-86c8-0cd18c412998","system_id":"levelo_inurba_marseille","lat":43.284832,"lon":5.393976,"is_reserved":false,"is_disabled":false,"rental_uris":{"android":"levelo://app?vid=83de5437-828e-4535-86c8-0cd18c412998","ios":"levelo://app?vid=83de5437-828e-4535-86c8-0cd18c412998"},"vehicle_type_id":"4","last_reported":1761412088,"current_range_meters":16800,"station_id":"ce4bh292rcd13ifvqdg0","pricing_plan_id":"cebpf4jnsgd1na2vs0mg"},{"bike_id":"e4746a2d-9cd3-46c8-bf0e-3a10fdb16ced","system_id":"levelo_inurba_marseille","lat":43.32353,"lon":5.36754,"is_reserved":false,"is_disabled":false,"rental_uris":{"android":"levelo://app?vid=e4746a2d-9cd3-46c8-bf0e-3a10fdb16ced","ios":"levelo://app?vid=e4746a2d-9cd3-46c8-bf0e-3a10fdb16ced"},"vehicle_type_id":"4","last_reported":1761412088,"current_range_meters":16800,"station_id":"ce4bhsh2rcd13ifvqi2g","pricing_plan_id":"cebpf4jnsgd1na2vs0mg"},{"bike_id":"7c68d30f-21ca-4264-b722-c01661fdadbd","system_id":"levelo_inurba_marseille","lat":43.28132,"lon":5.42651,"is_reserved":false,"is_disabled":false,"rental_uris":{"android":"levelo://app?vid=7c68d30f-21ca-4264-b722-c01661fdadbd","ios":"levelo://app?vid=7c68d30f-21ca-4264-b722-c01661fdadbd"},"vehicle_type_id":"4","last_reported":1761412088,"current_range_meters":16800,"station_id":"ce4bhnh2rcd13ifvqgug","pricing_plan_id":"cebpf4jnsgd1na2vs0mg"},{"bike_id":"d6b132bb-213b-4df9-900c-750d9631f5f7","system_id":"levelo_inurba_marseille","lat":43.26942,"lon":5.40254,"is_reserved":false,"is_disabled":false,"rental_uris":{"android":"levelo://app?vid=d6b132bb-213b-4df9-900c-750d9631f5f7","ios":"levelo://app?vid=d6b132bb-213b-4df9-900c-750d9631f5f7"},"vehicle_type_id":"4","last_reported":1761412088,"current_range_meters":16800,"station_id":"cjm6bp8fraef2m0cb0m0","pricing_plan_id":"cebpf4jnsgd1na2vs0mg"},{"bike_id":"ae94bf54-ea34-410f-a21a-0246e472ed67","system_id":"levelo_inurba_marseille","lat":43.257152,"lon":5.411208,"is_reserved":false,"is_disabled":false,"rental_uris":{"android":"levelo://app?vid=ae94bf54-ea34-410f-a21a-0246e472ed67","ios":"levelo://app?vid=ae94bf54-ea34-410f-a21a-0246e472ed67"},"vehicle_type_id":"4","last_reported":1761412088,"current_range_meters":17200,"station_id":"ce4bhkp2rcd13ifvqgd0","pricing_plan_id":"cebpf4jnsgd1na2vs0mg"},{"bike_id":"c0b81f28-bbba-4247-a74b-c55a34b31846","system_id":"levelo_inurba_marseille","lat":43.33258,"lon":5.41086,"is_reserved":false,"is_disabled":false,"rental_uris":{"android":"levelo://app?vid=c0b81f28-bbba-4247-a74b-c55a34b31846","ios":"levelo://app?vid=c0b81f28-bbba-4247-a74b-c55a34b31846"},"vehicle_type_id":"4","last_reported":1761412088,"current_range_meters":17200,"station_id":"","pricing_plan_id":"cebpf4jnsgd1na2vs0mg"},{"bike_id":"35a01f1e-497a-4e18-a38c-648be09f51ca","system_id":"levelo_inurba_marseille","lat":43.29076,"lon":5.37174,"is_reserved":false,"is_disabled":false,"rental_uris":{"android":"levelo://app?vid=35a01f1e-497a-4e18-a38c-648be09f51ca","ios":"levelo://app?vid=35a01f1e-497a-4e18-a38c-648be09f51ca"},"vehicle_type_id":"4","last_reported":1761412088,"current_range_meters":17200,"station_id":"ce4bh5p2rcd13ifvqe4g","pricing_plan_id":"cebpf4jnsgd1na2vs0mg"},{"bike_id":"c0b2d54f-9b55-45cb-b775-ca3d46985ddd","system_id":"levelo_inurba_marseille","lat":43.305459,"lon":5.367155,"is_reserved":false,"is_disabled":false,"rental_uris":{"android":"levelo://app?vid=c0b2d54f-9b55-45cb-b775-ca3d46985ddd","ios":"levelo://app?vid=c0b2d54f-9b55-45cb-b775-ca3d46985ddd"},"vehicle_type_id":"4","last_reported":1761412088,"current_range_meters":17200,"station_id":"ce4bgrp2rcd13ifvqc9g","pricing_plan_id":"cebpf4jnsgd1na2vs0mg"},{"bike_id":"3f9dc36d-74cf-45bc-9f10-e0ae5cbafbad","system_id":"levelo_inurba_marseille","lat":43.28104,"lon":5.37842,"is_reserved":false,"is_disabled":false,"rental_uris":{"android":"levelo://app?vid=3f9dc36d-74cf-45bc-9f10-e0ae5cbafbad","ios":"levelo://app?vid=3f9dc36d-74cf-45bc-9f10-e0ae5cbafbad"},"vehicle_type_id":"4","last_reported":1761412088,"current_range_meters":17200,"station_id":"ce4bha12rcd13ifvqee0","pricing_plan_id":"cebpf4jnsgd1na2vs0mg"},{"bike_id":"677f8eef-3b49-4c88-90e1-1fdaa09563f5","system_id":"levelo_inurba_marseille","lat":43.28663,"lon":5.36356,"is_reserved":false,"is_disabled":false,"rental_uris":{"android":"levelo://app?vid=677f8eef-3b49-4c88-90e1-1fdaa09563f5","ios":"levelo://app?vid=677f8eef-3b49-4c88-90e1-1fdaa09563f5"},"vehicle_type_id":"4","last_reported":1761412088,"current_range_meters":17200,"station_id":"ce4bhah2rcd13ifvqej0","pricing_plan_id":"cebpf4jnsgd1na2vs0mg"},{"bike_id":"bf526c33-28dd-4a6a-a10d-b02e3c57c12e","system_id":"levelo_inurba_marseille","lat":43.23967,"lon":5.36626,"is_reserved":false,"is_disabled":false,"rental_uris":{"android":"levelo://app?vid=bf526c33-28dd-4a6a-a10d-b02e3c57c12e","ios":"levelo://app?vid=bf526c33-28dd-4a6a-a10d-b02e3c57c12e"},"vehicle_type_id":"4","last_reported":1761412088,"current_range_meters":17200,"station_id":"ce4bhi12rcd13ifvqfp0","pricing_plan_id":"cebpf4jnsgd1na2vs0mg"},{"bike_id":"f72a00f1-1fed-4f6c-b4b5-8473dfdb4606","system_id":"levelo_inurba_marseille","lat":43.29673,"lon":5.40353,"is_reserved":false,"is_disabled":false,"rental_uris":{"android":"levelo://app?vid=f72a00f1-1fed-4f6c-b4b5-8473dfdb4606","ios":"levelo://app?vid=f72a00f1-1fed-4f6c-b4b5-8473dfdb4606"},"vehicle_type_id":"4","last_reported":1761412088,"current_range_meters":17200,"station_id":"","pricing_plan_id":"cebpf4jnsgd1na2vs0mg"},{"bike_id":"803189fc-f125-4c08-bf1d-238480aad6b7","system_id":"levelo_inurba_marseille","lat":43.28696,"lon":5.38411,"is_reserved":false,"is_disabled":false,"rental_uris":{"android":"levelo://app?vid=803189fc-f125-4c08-bf1d-238480aad6b7","ios":"levelo://app?vid=803189fc-f125-4c08-bf1d-238480aad6b7"},"vehicle_type_id":"4","last_reported":1761412088,"current_range_meters":17200,"station_id":"","pricing_plan_id":"cebpf4jnsgd1na2vs0mg"},{"bike_id":"0c6eedf0-447f-4182-9508-a5ecb80f02e9","system_id":"levelo_inurba_marseille","lat":43.285,"lon":5.38549,"is_reserved":false,"is_disabled":false,"rental_uris":{"android":"levelo://app?vid=0c6eedf0-447f-4182-9508-a5ecb80f02e9","ios":"levelo://app?vid=0c6eedf0-447f-4182-9508-a5ecb80f02e9"},"vehicle_type_id":"4","last_reported":1761412088,"current_range_meters":17200,"station_id":"ce4bh8p2rcd13ifvqeb0","pricing_plan_id":"cebpf4jnsgd1na2vs0mg"},{"bike_id":"e5bd73c9-d2fd-429b-a719-e50033314cf7","system_id":"levelo_inurba_marseille","lat":43.22563,"lon":5.41638,"is_reserved":false,"is_disabled":false,"rental_uris":{"android":"levelo://app?vid=e5bd73c9-d2fd-429b-a719-e50033314cf7","ios":"levelo://app?vid=e5bd73c9-d2fd-429b-a719-e50033314cf7"},"vehicle_type_id":"4","last_reported":1761412088,"current_range_meters":17200,"station_id":"st_d2o4gvlbi1j2169b742g","pricing_plan_id":"cebpf4jnsgd1na2vs0mg"},{"bike_id":"536f0804-55f4-47ad-a146-ab04fab12ea2","system_id":"levelo_inurba_marseille","lat":43.29608,"lon":5.373826,"is_reserved":false,"is_disabled":false,"rental_uris":{"android":"levelo://app?vid=536f0804-55f4-47ad-a146-ab04fab12ea2","ios":"levelo://app?vid=536f0804-55f4-47ad-a146-ab04fab12ea2"},"vehicle_type_id":"4","last_reported":1761412088,"current_range_meters":17600,"station_id":"ce4bgh92rcd13ifvqb50","pricing_plan_id":"cebpf4jnsgd1na2vs0mg"},{"bike_id":"3a11b56b-f1c0-416a-a7c3-ae5ecf90f68d","system_id":"levelo_inurba_marseille","lat":43.23063,"lon":5.35491,"is_reserved":false,"is_disabled":false,"rental_uris":{"android":"levelo://app?vid=3a11b56b-f1c0-416a-a7c3-ae5ecf90f68d","ios":"levelo://app?vid=3a11b56b-f1c0-416a-a7c3-ae5ecf90f68d"},"vehicle_type_id":"4","last_reported":1761412088,"current_range_meters":17600,"station_id":"cpo3342slgdg3j2ifvpg","pricing_plan_id":"cebpf4jnsgd1na2vs0mg"},{"bike_id":"94b5f919-bea5-42ea-bd4d-8bd7bcd46c88","system_id":"levelo_inurba_marseille","lat":43.23782,"lon":5.36631,"is_reserved":false,"is_disabled":false,"rental_uris":{"android":"levelo://app?vid=94b5f919-bea5-42ea-bd4d-8bd7bcd46c88","ios":"levelo://app?vid=94b5f919-bea5-42ea-bd4d-8bd7bcd46c88"},"vehicle_type_id":"4","last_reported":1761412088,"current_range_meters":17600,"station_id":"st_d3nk18o9ro0c73en2l3g","pricing_plan_id":"cebpf4jnsgd1na2vs0mg"},{"bike_id":"a35ec1c0-a770-4be9-baed-44cfd789c393","system_id":"levelo_inurba_marseille","lat":43.28076,"lon":5.39663,"is_reserved":false,"is_disabled":false,"rental_uris":{"android":"levelo://app?vid=a35ec1c0-a770-4be9-baed-44cfd789c393","ios":"levelo://app?vid=a35ec1c0-a770-4be9-baed-44cfd789c393"},"vehicle_type_id":"4","last_reported":1761412088,"current_range_meters":17600,"station_id":"ce4bho12rcd13ifvqh2g","pricing_plan_id":"cebpf4jnsgd1na2vs0mg"},{"bike_id":"e4ccce50-4824-4895-aa8c-033835526f23","system_id":"levelo_inurba_marseille","lat":43.31879,"lon":5.40008,"is_reserved":false,"is_disabled":false,"rental_uris":{"android":"levelo://app?vid=e4ccce50-4824-4895-aa8c-033835526f23","ios":"levelo://app?vid=e4ccce50-4824-4895-aa8c-033835526f23"},"vehicle_type_id":"4","last_reported":1761412088,"current_range_meters":17600,"station_id":"","pricing_plan_id":"cebpf4jnsgd1na2vs0mg"},{"bike_id":"0654673a-7a1d-4c96-baa6-6bcdcfdd7498","system_id":"levelo_inurba_marseille","lat":43.29273,"lon":5.38444,"is_reserved":false,"is_disabled":false,"rental_uris":{"android":"levelo://app?vid=0654673a-7a1d-4c96-baa6-6bcdcfdd7498","ios":"levelo://app?vid=0654673a-7a1d-4c96-baa6-6bcdcfdd7498"},"vehicle_type_id":"4","last_reported":1761412088,"current_range_meters":18000,"station_id":"ce4bh692rcd13ifvqea0","pricing_plan_id":"cebpf4jnsgd1na2vs0mg"},{"bike_id":"4d0a3352-c807-4a69-972c-c9fafed25ce0","system_id":"levelo_inurba_marseille","lat":43.32,"lon":5.38156,"is_reserved":false,"is_disabled":false,"rental_uris":{"android":"levelo://app?vid=4d0a3352-c807-4a69-972c-c9fafed25ce0","ios":"levelo://app?vid=4d0a3352-c807-4a69-972c-c9fafed25ce0"},"vehicle_type_id":"4","last_reported":1761412088,"current_range_meters":18000,"station_id":"ce4bhr12rcd13ifvqhpg","pricing_plan_id":"cebpf4jnsgd1na2vs0mg"},{"bike_id":"3da36b46-32f0-4723-8f3b-8cba39a84287","system_id":"levelo_inurba_marseille","lat":43.24386,"lon":5.3705,"is_reserved":false,"is_disabled":false,"rental_uris":{"android":"levelo://app?vid=3da36b46-32f0-4723-8f3b-8cba39a84287","ios":"levelo://app?vid=3da36b46-32f0-4723-8f3b-8cba39a84287"},"vehicle_type_id":"4","last_reported":1761412088,"current_range_meters":18000,"station_id":"ce4bhhh2rcd13ifvqfk0","pricing_plan_id":"cebpf4jnsgd1na2vs0mg"},{"bike_id":"6e1d396e-5653-43b7-8dae-ebf5d6ff129b","system_id":"levelo_inurba_marseille","lat":43.28723,"lon":5.36089,"is_reserved":false,"is_disabled":false,"rental_uris":{"android":"levelo://app?vid=6e1d396e-5653-43b7-8dae-ebf5d6ff129b","ios":"levelo://app?vid=6e1d396e-5653-43b7-8dae-ebf5d6ff129b"},"vehicle_type_id":"4","last_reported":1761412088,"current_range_meters":18000,"station_id":"cki0cbj6b192h4jlfktg","pricing_plan_id":"cebpf4jnsgd1na2vs0mg"},{"bike_id":"3286c9ca-e41a-4a35-9c40-64d815b47d66","system_id":"levelo_inurba_marseille","lat":43.31697,"lon":5.40477,"is_reserved":false,"is_disabled":false,"rental_uris":{"android":"levelo://app?vid=3286c9ca-e41a-4a35-9c40-64d815b47d66","ios":"levelo://app?vid=3286c9ca-e41a-4a35-9c40-64d815b47d66"},"vehicle_type_id":"4","last_reported":1761412088,"current_range_meters":18000,"station_id":"ce4bh012rcd13ifvqd00","pricing_plan_id":"cebpf4jnsgd1na2vs0mg"},{"bike_id":"de5cece4-6186-4ccb-b70e-a25e8bd3fc86","system_id":"levelo_inurba_marseille","lat":43.337444,"lon":5.374475,"is_reserved":false,"is_disabled":false,"rental_uris":{"android":"levelo://app?vid=de5cece4-6186-4ccb-b70e-a25e8bd3fc86","ios":"levelo://app?vid=de5cece4-6186-4ccb-b70e-a25e8bd3fc86"},"vehicle_type_id":"4","last_reported":1761412088,"current_range_meters":18000,"station_id":"","pricing_plan_id":"cebpf4jnsgd1na2vs0mg"},{"bike_id":"96ab8db5-1440-4771-b9bd-89575188252f","system_id":"levelo_inurba_marseille","lat":43.30901,"lon":5.36836,"is_reserved":false,"is_disabled":false,"rental_uris":{"android":"levelo://app?vid=96ab8db5-1440-4771-b9bd-89575188252f","ios":"levelo://app?vid=96ab8db5-1440-4771-b9bd-89575188252f"},"vehicle_type_id":"4","last_reported":1761412088,"current_range_meters":18800,"station_id":"ce4bgn92rcd13ifvqbvg","pricing_plan_id":"cebpf4jnsgd1na2vs0mg"},{"bike_id":"8dfd7f79-33db-4047-a704-b0ab2954899e","system_id":"levelo_inurba_marseille","lat":43.284079,"lon":5.349776,"is_reserved":false,"is_disabled":false,"rental_uris":{"android":"levelo://app?vid=8dfd7f79-33db-4047-a704-b0ab2954899e","ios":"levelo://app?vid=8dfd7f79-33db-4047-a704-b0ab2954899e"},"vehicle_type_id":"4","last_reported":1761412088,"current_range_meters":18800,"station_id":"ce4bhbh2rcd13ifvqepg","pricing_plan_id":"cebpf4jnsgd1na2vs0mg"},{"bike_id":"933e9118-252f-425b-94a4-2d2542195565","system_id":"levelo_inurba_marseille","lat":43.31682,"lon":5.40475,"is_reserved":false,"is_disabled":false,"rental_uris":{"android":"levelo://app?vid=933e9118-252f-425b-94a4-2d2542195565","ios":"levelo://app?vid=933e9118-252f-425b-94a4-2d2542195565"},"vehicle_type_id":"4","last_reported":1761412088,"current_range_meters":18800,"station_id":"ce4bh012rcd13ifvqd00","pricing_plan_id":"cebpf4jnsgd1na2vs0mg"},{"bike_id":"46b0db6c-35c8-470b-a45d-db7e7afa9bfd","system_id":"levelo_inurba_marseille","lat":43.28405,"lon":5.37513,"is_reserved":false,"is_disabled":true,"rental_uris":{"android":"levelo://app?vid=46b0db6c-35c8-470b-a45d-db7e7afa9bfd","ios":"levelo://app?vid=46b0db6c-35c8-470b-a45d-db7e7afa9bfd"},"vehicle_type_id":"4","last_reported":1761412088,"current_range_meters":18800,"station_id":"ce4bh412rcd13ifvqds0","pricing_plan_id":"cebpf4jnsgd1na2vs0mg"},{"bike_id":"bf88abad-14b2-41e5-bde4-9975fa0e5db1","system_id":"levelo_inurba_marseille","lat":43.30301,"lon":5.36903,"is_reserved":false,"is_disabled":false,"rental_uris":{"android":"levelo://app?vid=bf88abad-14b2-41e5-bde4-9975fa0e5db1","ios":"levelo://app?vid=bf88abad-14b2-41e5-bde4-9975fa0e5db1"},"vehicle_type_id":"4","last_reported":1761412088,"current_range_meters":18800,"station_id":"ce4bgqh2rcd13ifvqc5g","pricing_plan_id":"cebpf4jnsgd1na2vs0mg"},{"bike_id":"6693cea9-a82a-4014-aecc-a8ecdf8a89ba","system_id":"levelo_inurba_marseille","lat":43.28077,"lon":5.39661,"is_reserved":false,"is_disabled":false,"rental_uris":{"android":"levelo://app?vid=6693cea9-a82a-4014-aecc-a8ecdf8a89ba","ios":"levelo://app?vid=6693cea9-a82a-4014-aecc-a8ecdf8a89ba"},"vehicle_type_id":"4","last_reported":1761412088,"current_range_meters":18800,"station_id":"ce4bho12rcd13ifvqh2g","pricing_plan_id":"cebpf4jnsgd1na2vs0mg"},{"bike_id":"a623a204-cb4c-41ae-856d-79ea27b74e3b","system_id":"levelo_inurba_marseille","lat":43.31084,"lon":5.42434,"is_reserved":false,"is_disabled":false,"rental_uris":{"android":"levelo://app?vid=a623a204-cb4c-41ae-856d-79ea27b74e3b","ios":"levelo://app?vid=a623a204-cb4c-41ae-856d-79ea27b74e3b"},"vehicle_type_id":"4","last_reported":1761412088,"current_range_meters":18800,"station_id":"ce4bhp92rcd13ifvqhag","pricing_plan_id":"cebpf4jnsgd1na2vs0mg"},{"bike_id":"035b1dee-632a-4f58-95e4-cdfb756a845c","system_id":"levelo_inurba_marseille","lat":43.27833,"lon":5.39205,"is_reserved":false,"is_disabled":false,"rental_uris":{"android":"levelo://app?vid=035b1dee-632a-4f58-95e4-cdfb756a845c","ios":"levelo://app?vid=035b1dee-632a-4f58-95e4-cdfb756a845c"},"vehicle_type_id":"4","last_reported":1761412088,"current_range_meters":18800,"station_id":"ce4bhjp2rcd13ifvqga0","pricing_plan_id":"cebpf4jnsgd1na2vs0mg"},{"bike_id":"bd999508-c063-4ad7-9083-290763851b2f","system_id":"levelo_inurba_marseille","lat":43.3012,"lon":5.43122,"is_reserved":false,"is_disabled":false,"rental_uris":{"android":"levelo://app?vid=bd999508-c063-4ad7-9083-290763851b2f","ios":"levelo://app?vid=bd999508-c063-4ad7-9083-290763851b2f"},"vehicle_type_id":"4","last_reported":1761412088,"current_range_meters":18800,"station_id":"st_d3js3co5814s73ftftug","pricing_plan_id":"cebpf4jnsgd1na2vs0mg"},{"bike_id":"21bdcc57-733f-425b-bd24-99c799d60436","system_id":"levelo_inurba_marseille","lat":43.27383,"lon":5.36263,"is_reserved":false,"is_disabled":false,"rental_uris":{"android":"levelo://app?vid=21bdcc57-733f-425b-bd24-99c799d60436","ios":"levelo://app?vid=21bdcc57-733f-425b-bd24-99c799d60436"},"vehicle_type_id":"4","last_reported":1761412088,"current_range_meters":19200,"station_id":"ce4bhbh2rcd13ifvqeo0","pricing_plan_id":"cebpf4jnsgd1na2vs0mg"},{"bike_id":"8847af5d-c1ad-4d8d-a5c1-273c3b41c105","system_id":"levelo_inurba_marseille","lat":43.32243,"lon":5.4196,"is_reserved":false,"is_disabled":false,"rental_uris":{"android":"levelo://app?vid=8847af5d-c1ad-4d8d-a5c1-273c3b41c105","ios":"levelo://app?vid=8847af5d-c1ad-4d8d-a5c1-273c3b41c105"},"vehicle_type_id":"4","last_reported":1761412088,"current_range_meters":19200,"station_id":"","pricing_plan_id":"cebpf4jnsgd1na2vs0mg"},{"bike_id":"2fbda697-fbe2-4f44-9627-2d04edf6054e","system_id":"levelo_inurba_marseille","lat":43.2893,"lon":5.36647,"is_reserved":false,"is_disabled":false,"rental_uris":{"android":"levelo://app?vid=2fbda697-fbe2-4f44-9627-2d04edf6054e","ios":"levelo://app?vid=2fbda697-fbe2-4f44-9627-2d04edf6054e"},"vehicle_type_id":"4","last_reported":1761412088,"current_range_meters":19200,"station_id":"ce4bhap2rcd13ifvqek0","pricing_plan_id":"cebpf4jnsgd1na2vs0mg"},{"bike_id":"7a1877e8-1310-4142-900d-3cea9a2ef65f","system_id":"levelo_inurba_marseille","lat":43.29478,"lon":5.43307,"is_reserved":false,"is_disabled":false,"rental_uris":{"android":"levelo://app?vid=7a1877e8-1310-4142-900d-3cea9a2ef65f","ios":"levelo://app?vid=7a1877e8-1310-4142-900d-3cea9a2ef65f"},"vehicle_type_id":"4","last_reported":1761412088,"current_range_meters":19200,"station_id":"st_d3j5ugp08ojc73fj9d10","pricing_plan_id":"cebpf4jnsgd1na2vs0mg"},{"bike_id":"852f7905-1ceb-452d-ac62-c0aef4408049","system_id":"levelo_inurba_marseille","lat":43.2418,"lon":5.3972,"is_reserved":false,"is_disabled":false,"rental_uris":{"android":"levelo://app?vid=852f7905-1ceb-452d-ac62-c0aef4408049","ios":"levelo://app?vid=852f7905-1ceb-452d-ac62-c0aef4408049"},"vehicle_type_id":"4","last_reported":1761412088,"current_range_meters":19200,"station_id":"ce4bhn12rcd13ifvqgpg","pricing_plan_id":"cebpf4jnsgd1na2vs0mg"},{"bike_id":"f759c46e-a067-48f5-aacc-2b66dddb836a","system_id":"levelo_inurba_marseille","lat":43.30731,"lon":5.42448,"is_reserved":false,"is_disabled":false,"rental_uris":{"android":"levelo://app?vid=f759c46e-a067-48f5-aacc-2b66dddb836a","ios":"levelo://app?vid=f759c46e-a067-48f5-aacc-2b66dddb836a"},"vehicle_type_id":"4","last_reported":1761412088,"current_range_meters":19200,"station_id":"st_cvj6ca6bvosntc0bfgr0","pricing_plan_id":"cebpf4jnsgd1na2vs0mg"},{"bike_id":"14f2119b-07cd-4fc8-be12-d51071618c9e","system_id":"levelo_inurba_marseille","lat":43.23965,"lon":5.3662,"is_reserved":false,"is_disabled":false,"rental_uris":{"android":"levelo://app?vid=14f2119b-07cd-4fc8-be12-d51071618c9e","ios":"levelo://app?vid=14f2119b-07cd-4fc8-be12-d51071618c9e"},"vehicle_type_id":"4","last_reported":1761412088,"current_range_meters":19200,"station_id":"ce4bhi12rcd13ifvqfp0","pricing_plan_id":"cebpf4jnsgd1na2vs0mg"},{"bike_id":"64b75b4a-3497-4861-8cc2-90dd62cd9f5e","system_id":"levelo_inurba_marseille","lat":43.29492,"lon":5.43344,"is_reserved":false,"is_disabled":false,"rental_uris":{"android":"levelo://app?vid=64b75b4a-3497-4861-8cc2-90dd62cd9f5e","ios":"levelo://app?vid=64b75b4a-3497-4861-8cc2-90dd62cd9f5e"},"vehicle_type_id":"4","last_reported":1761412088,"current_range_meters":19200,"station_id":"st_d3j5ugp08ojc73fj9d10","pricing_plan_id":"cebpf4jnsgd1na2vs0mg"},{"bike_id":"67f8857f-0853-46d2-b9ef-96c5ce2639bc","system_id":"levelo_inurba_marseille","lat":43.23027,"lon":5.35505,"is_reserved":false,"is_disabled":false,"rental_uris":{"android":"levelo://app?vid=67f8857f-0853-46d2-b9ef-96c5ce2639bc","ios":"levelo://app?vid=67f8857f-0853-46d2-b9ef-96c5ce2639bc"},"vehicle_type_id":"4","last_reported":1761412088,"current_range_meters":19200,"station_id":"cpo3342slgdg3j2ifvpg","pricing_plan_id":"cebpf4jnsgd1na2vs0mg"},{"bike_id":"c124d4a0-9e47-48ec-ad7a-ea36eb6e5d35","system_id":"levelo_inurba_marseille","lat":43.243883,"lon":5.370508,"is_reserved":false,"is_disabled":false,"rental_uris":{"android":"levelo://app?vid=c124d4a0-9e47-48ec-ad7a-ea36eb6e5d35","ios":"levelo://app?vid=c124d4a0-9e47-48ec-ad7a-ea36eb6e5d35"},"vehicle_type_id":"4","last_reported":1761412088,"current_range_meters":19200,"station_id":"ce4bhhh2rcd13ifvqfk0","pricing_plan_id":"cebpf4jnsgd1na2vs0mg"},{"bike_id":"a70a5c56-54da-4a9c-92ae-4bd04c5f57d9","system_id":"levelo_inurba_marseille","lat":43.29895,"lon":5.4367,"is_reserved":false,"is_disabled":false,"rental_uris":{"android":"levelo://app?vid=a70a5c56-54da-4a9c-92ae-4bd04c5f57d9","ios":"levelo://app?vid=a70a5c56-54da-4a9c-92ae-4bd04c5f57d9"},"vehicle_type_id":"4","last_reported":1761412088,"current_range_meters":19600,"station_id":"ce4bhpp2rcd13ifvqhfg","pricing_plan_id":"cebpf4jnsgd1na2vs0mg"},{"bike_id":"317107fa-306d-4b8d-9380-a16cd06486ce","system_id":"levelo_inurba_marseille","lat":43.284595,"lon":5.358991,"is_reserved":false,"is_disabled":true,"rental_uris":{"android":"levelo://app?vid=317107fa-306d-4b8d-9380-a16cd06486ce","ios":"levelo://app?vid=317107fa-306d-4b8d-9380-a16cd06486ce"},"vehicle_type_id":"4","last_reported":1761412088,"current_range_meters":19600,"station_id":"ce4bhah2rcd13ifvqei0","pricing_plan_id":"cebpf4jnsgd1na2vs0mg"},{"bike_id":"41d4714c-21d1-4a7f-8603-e78f84c546f2","system_id":"levelo_inurba_marseille","lat":43.30884,"lon":5.39656,"is_reserved":false,"is_disabled":false,"rental_uris":{"android":"levelo://app?vid=41d4714c-21d1-4a7f-8603-e78f84c546f2","ios":"levelo://app?vid=41d4714c-21d1-4a7f-8603-e78f84c546f2"},"vehicle_type_id":"4","last_reported":1761412088,"current_range_meters":19600,"station_id":"ce4bh012rcd13ifvqcv0","pricing_plan_id":"cebpf4jnsgd1na2vs0mg"},{"bike_id":"1eac0aa7-2b82-4118-bb70-4582cf563475","system_id":"levelo_inurba_marseille","lat":43.28488,"lon":5.48392,"is_reserved":false,"is_disabled":false,"rental_uris":{"android":"levelo://app?vid=1eac0aa7-2b82-4118-bb70-4582cf563475","ios":"levelo://app?vid=1eac0aa7-2b82-4118-bb70-4582cf563475"},"vehicle_type_id":"4","last_reported":1761412088,"current_range_meters":19600,"station_id":"st_d3svhcjqgbts73a3dn0g","pricing_plan_id":"cebpf4jnsgd1na2vs0mg"},