{"last_updated":1699794404,"ttl":30,"version":"2.2","data":{"bikes":[{"bike_id":"5ee08643-2ddc-4d1a-8c76-15cecc354ebc","system_id":"levelo_inurba_marseille","lat":43.312239,"lon":5.368562,"is_reserved":false,"is_disabled":false,"rental_uris":{"android":"levelo://app?vid=5ee08643-2ddc-4d1a-8c76-15cecc354ebc","ios":"levelo://app?vid=5ee08643-2ddc-4d1a-8c76-15cecc354ebc"},"vehicle_type_id":"4","last_reported":1699794404,"current_range_meters":24000,"station_id":"ce4bgl92rcd13ifvqbq0","pricing_plan_id":"free"},{"bike_id":"20d062f9-2419-4388-ba4d-6e88ae0864da","system_id":"levelo_inurba_marseille","lat":43.312239,"lon":5.368562,"is_reserved":false,"is_disabled":false,"rental_uris":{"android":"levelo://app?vid=20d062f9-2419-4388-ba4d-6e88ae0864da","ios":"levelo://app?vid=20d062f9-2419-4388-ba4d-6e88ae0864da"},"vehicle_type_id":"4","last_reported":1699794404,"current_range_meters":30400,"station_id":"ce4bgl92rcd13ifvqbq0","pricing_plan_id":"free"},{"bike_id":"cb2c2a78-c053-4358-aba4-439395a34be1","system_id":"levelo_inurba_marseille","lat":43.312239,"lon":5.368562,"is_reserved":false,"is_disabled":false,"rental_uris":{"android":"levelo://app?vid=cb2c2a78-c053-4358-aba4-439395a34be1","ios":"levelo://app?vid=cb2c2a78-c053-4358-aba4-439395a34be1"},"vehicle_type_id":"4","last_reported":1699794404,"current_range_meters":31200,"station_id":"ce4bgl92rcd13ifvqbq0","pricing_plan_id":"free"},{"bike_id":"f3477188-7691-4768-a5b0-56e2cc10f34e","system_id":"levelo_inurba_marseille","lat":43.312239,"lon":5.368562,"is_reserved":false,"is_disabled":false,"rental_uris":{"android":"levelo://app?vid=f3477188-7691-4768-a5b0-56e2cc10f34e","ios":"levelo://app?vid=f3477188-7691-4768-a5b0-56e2cc10f34e"},"vehicle_type_id":"4","last_reported":1699794404,"current_range_meters":22000,"station_id":"ce4bgl92rcd13ifvqbq0","pricing_plan_id":"free"},{"bike_id":"257003f5-6658-46de-97fd-7d515f1840eb","system_id":"levelo_inurba_marseille","lat":43.309076,"lon":5.368465,"is_reserved":false,"is_disabled":false,"rental_uris":{"android":"levelo://app?vid=257003f5-6658-46de-97fd-7d515f1840eb","ios":"levelo://app?vid=257003f5-6658-46de-97fd-7d515f1840eb"},"vehicle_type_id":"4","last_reported":1699794404,"current_range_meters":27600,"station_id":"ce4bgn92rcd13ifvqbvg","pricing_plan_id":"free"},{"bike_id":"ac7929b9-22d3-45d8-b027-29b3d4989afd","system_id":"levelo_inurba_marseille","lat":43.314811,"lon":5.373103,"is_reserved":false,"is_disabled":false,"rental_uris":{"android":"levelo://app?vid=ac7929b9-22d3-45d8-b027-29b3d4989afd","ios":"levelo://app?vid=ac7929b9-22d3-45d8-b027-29b3d4989afd"},"vehicle_type_id":"4","last_reported":1699794404,"current_range_meters":18800,"station_id":"ce4bgt12rcd13ifvqcd0","pricing_plan_id":"free"},{"bike_id":"139e072a-567d-488e-9804-7f9d62522591","system_id":"levelo_inurba_marseille","lat":43.314811,"lon":5.373104,"is_reserved":false,"is_disabled":false,"rental_uris":{"android":"levelo://app?vid=139e072a-567d-488e-9804-7f9d62522591","ios":"levelo://app?vid=139e072a-567d-488e-9804-7f9d62522591"},"vehicle_type_id":"4","last_reported":1699794404,"current_range_meters":30800,"station_id":"ce4bgt12rcd13ifvqcd0","pricing_plan_id":"free"},{"bike_id":"308519a6-6270-4aa1-87e6-adfb50e8b3a5","system_id":"levelo_inurba_marseille","lat":43.309039,"lon":5.371797,"is_reserved":false,"is_disabled":false,"rental_uris":{"android":"levelo://app?vid=308519a6-6270-4aa1-87e6-adfb50e8b3a5","ios":"levelo://app?vid=308519a6-6270-4aa1-87e6-adfb50e8b3a5"},"vehicle_type_id":"4","last_reported":1699794404,"current_range_meters":22000,"station_id":"ce4bguh2rcd13ifvqckg","pricing_plan_id":"free"},{"bike_id":"2589592e-6734-451f-81b7-867003759ba9","system_id":"levelo_inurba_marseille","lat":43.30554,"lon":5.36546,"is_reserved":false,"is_disabled":false,"rental_uris":{"android":"levelo://app?vid=2589592e-6734-451f-81b7-867003759ba9","ios":"levelo://app?vid=2589592e-6734-451f-81b7-867003759ba9"},"vehicle_type_id":"4","last_reported":1699794404,"current_range_meters":17200,"station_id":"ce4bgs12rcd13ifvqcag","pricing_plan_id":"free"},{"bike_id":"7b883aae-c8c7-4406-b7e6-bb0b06f918ab","system_id":"levelo_inurba_marseille","lat":43.305473,"lon":5.36566,"is_reserved":false,"is_disabled":false,"rental_uris":{"android":"levelo://app?vid=7b883aae-c8c7-4406-b7e6-bb0b06f918ab","ios":"levelo://app?vid=7b883aae-c8c7-4406-b7e6-bb0b06f918ab"},"vehicle_type_id":"4","last_reported":1699794404,"current_range_meters":26400,"station_id":"ce4bgs12rcd13ifvqcag","pricing_plan_id":"free"},{"bike_id":"234e8946-6447-4819-a917-09effc0c3e07","system_id":"levelo_inurba_marseille","lat":43.305475,"lon":5.365225,"is_reserved":false,"is_disabled":false,"rental_uris":{"android":"levelo://app?vid=234e8946-6447-4819-a917-09effc0c3e07","ios":"levelo://app?vid=234e8946-6447-4819-a917-09effc0c3e07"},"vehicle_type_id":"4","last_reported":1699794404,"current_range_meters":6000,"station_id":"ce4bgs12rcd13ifvqcag","pricing_plan_id":"free"},{"bike_id":"c4b9d249-5201-42c6-8087-0a00b7c5d0b0","system_id":"levelo_inurba_marseille","lat":43.3054,"lon":5.36538,"is_reserved":false,"is_disabled":false,"rental_uris":{"android":"levelo://app?vid=c4b9d249-5201-42c6-8087-0a00b7c5d0b0","ios":"levelo://app?vid=c4b9d249-5201-42c6-8087-0a00b7c5d0b0"},"vehicle_type_id":"4","last_reported":1699794404,"current_range_meters":14400,"station_id":"ce4bgs12rcd13ifvqcag","pricing_plan_id":"free"},{"bike_id":"28619d59-ffc7-49b9-8ddb-e451710f05eb","system_id":"levelo_inurba_marseille","lat":43.30535,"lon":5.36534,"is_reserved":false,"is_disabled":false,"rental_uris":{"android":"levelo://app?vid=28619d59-ffc7-49b9-8ddb-e451710f05eb","ios":"levelo://app?vid=28619d59-ffc7-49b9-8ddb-e451710f05eb"},"vehicle_type_id":"4","last_reported":1699794404,"current_range_meters":23600,"station_id":"ce4bgs12rcd13ifvqcag","pricing_plan_id":"free"},{"bike_id":"d898fc2b-3eda-46d8-b10d-9d6a0b30af95","system_id":"levelo_inurba_marseille","lat":43.30528,"lon":5.36531,"is_reserved":false,"is_disabled":false,"rental_uris":{"android":"levelo://app?vid=d898fc2b-3eda-46d8-b10d-9d6a0b30af95","ios":"levelo://app?vid=d898fc2b-3eda-46d8-b10d-9d6a0b30af95"},"vehicle_type_id":"4","last_reported":1699794404,"current_range_meters":28000,"station_id":"ce4bgs12rcd13ifvqcag","pricing_plan_id":"free"},{"bike_id":"76b359af-c20b-45d0-a1df-78f4c9a6553a","system_id":"levelo_inurba_marseille","lat":43.305706,"lon":5.365654,"is_reserved":false,"is_disabled":false,"rental_uris":{"android":"levelo://app?vid=76b359af-c20b-45d0-a1df-78f4c9a6553a","ios":"levelo://app?vid=76b359af-c20b-45d0-a1df-78f4c9a6553a"},"vehicle_type_id":"4","last_reported":1699794404,"current_range_meters":14400,"station_id":"ce4bgs12rcd13ifvqcag","pricing_plan_id":"free"},{"bike_id":"09a9169d-1c8e-4108-aa9e-75438ab281c5","system_id":"levelo_inurba_marseille","lat":43.311131,"lon":5.377651,"is_reserved":false,"is_disabled":false,"rental_uris":{"android":"levelo://app?vid=09a9169d-1c8e-4108-aa9e-75438ab281c5","ios":"levelo://app?vid=09a9169d-1c8e-4108-aa9e-75438ab281c5"},"vehicle_type_id":"4","last_reported":1699794404,"current_range_meters":24800,"station_id":"ce4bgt92rcd13ifvqcg0","pricing_plan_id":"free"},{"bike_id":"6f2b123a-c539-4a64-8baf-08b784cb218e","system_id":"levelo_inurba_marseille","lat":43.311125,"lon":5.377624,"is_reserved":false,"is_disabled":false,"rental_uris":{"android":"levelo://app?vid=6f2b123a-c539-4a64-8baf-08b784cb218e","ios":"levelo://app?vid=6f2b123a-c539-4a64-8baf-08b784cb218e"},"vehicle_type_id":"4","last_reported":1699794404,"current_range_meters":19600,"station_id":"ce4bgt92rcd13ifvqcg0","pricing_plan_id":"free"},{"bike_id":"269cdfe9-6af1-4356-a64c-6c79260a4a64","system_id":"levelo_inurba_marseille","lat":43.307945,"lon":5.376487,"is_reserved":false,"is_disabled":false,"rental_uris":{"android":"levelo://app?vid=269cdfe9-6af1-4356-a64c-6c79260a4a64","ios":"levelo://app?vid=269cdfe9-6af1-4356-a64c-6c79260a4a64"},"vehicle_type_id":"4","last_reported":1699794404,"current_range_meters":23200,"station_id":"ce4bgv92rcd13ifvqcq0","pricing_plan_id":"free"},{"bike_id":"57053367-5328-4d78-8951-737f56b37ed9","system_id":"levelo_inurba_marseille","lat":43.319924,"lon":5.373389,"is_reserved":false,"is_disabled":false,"rental_uris":{"android":"levelo://app?vid=57053367-5328-4d78-8951-737f56b37ed9","ios":"levelo://app?vid=57053367-5328-4d78-8951-737f56b37ed9"},"vehicle_type_id":"4","last_reported":1699794404,"current_range_meters":14800,"station_id":"","pricing_plan_id":"free"},{"bike_id":"741edf93-1456-4648-b596-cf832cf71f86","system_id":"levelo_inurba_marseille","lat":43.30304,"lon":5.368987,"is_reserved":false,"is_disabled":false,"rental_uris":{"android":"levelo://app?vid=741edf93-1456-4648-b596-cf832cf71f86","ios":"levelo://app?vid=741edf93-1456-4648-b596-cf832cf71f86"},"vehicle_type_id":"4","last_reported":1699794404,"current_range_meters":15600,"station_id":"ce4bgqh2rcd13ifvqc5g","pricing_plan_id":"free"},{"bike_id":"058c0cd6-8df0-4734-a726-2289e719353e","system_id":"levelo_inurba_marseille","lat":43.301939,"lon":5.366286,"is_reserved":false,"is_disabled":false,"rental_uris":{"android":"levelo://app?vid=058c0cd6-8df0-4734-a726-2289e719353e","ios":"levelo://app?vid=058c0cd6-8df0-4734-a726-2289e719353e"},"vehicle_type_id":"4","last_reported":1699794404,"current_range_meters":23200,"station_id":"ce4bgrh2rcd13ifvqc8g","pricing_plan_id":"free"},{"bike_id":"a26a672c-8f86-40f5-9e8e-9856cf399a24","system_id":"levelo_inurba_marseille","lat":43.30803,"lon":5.38149,"is_reserved":false,"is_disabled":false,"rental_uris":{"android":"levelo://app?vid=a26a672c-8f86-40f5-9e8e-9856cf399a24","ios":"levelo://app?vid=a26a672c-8f86-40f5-9e8e-9856cf399a24"},"vehicle_type_id":"4","last_reported":1699794404,"current_range_meters":22800,"station_id":"ce4bgt12rcd13ifvqce0","pricing_plan_id":"free"},{"bike_id":"91ad3d57-04dc-4a49-ad45-92ff3fa85352","system_id":"levelo_inurba_marseille","lat":43.30804,"lon":5.38153,"is_reserved":false,"is_disabled":false,"rental_uris":{"android":"levelo://app?vid=91ad3d57-04dc-4a49-ad45-92ff3fa85352","ios":"levelo://app?vid=91ad3d57-04dc-4a49-ad45-92ff3fa85352"},"vehicle_type_id":"4","last_reported":1699794404,"current_range_meters":17200,"station_id":"ce4bgt12rcd13ifvqce0","pricing_plan_id":"free"},{"bike_id":"b2ab043f-95a6-496b-8eaf-ea623d546488","system_id":"levelo_inurba_marseille","lat":43.32479,"lon":5.36562,"is_reserved":false,"is_disabled":false,"rental_uris":{"android":"levelo://app?vid=b2ab043f-95a6-496b-8eaf-ea623d546488","ios":"levelo://app?vid=b2ab043f-95a6-496b-8eaf-ea623d546488"},"vehicle_type_id":"4","last_reported":1699794404,"current_range_meters":14000,"station_id":"ce4bhs12rcd13ifvqhvg","pricing_plan_id":"free"},{"bike_id":"3fb4984a-6013-4ebb-8773-c308071699ec","system_id":"levelo_inurba_marseille","lat":43.3248,"lon":5.36561,"is_reserved":false,"is_disabled":false,"rental_uris":{"android":"levelo://app?vid=3fb4984a-6013-4ebb-8773-c308071699ec","ios":"levelo://app?vid=3fb4984a-6013-4ebb-8773-c308071699ec"},"vehicle_type_id":"4","last_reported":1699794404,"current_range_meters":21200,"station_id":"ce4bhs12rcd13ifvqhvg","pricing_plan_id":"free"},{"bike_id":"79cd4922-2de3-4522-a340-ad5f4e57eafa","system_id":"levelo_inurba_marseille","lat":43.32484,"lon":5.365558,"is_reserved":false,"is_disabled":false,"rental_uris":{"android":"levelo://app?vid=79cd4922-2de3-4522-a340-ad5f4e57eafa","ios":"levelo://app?vid=79cd4922-2de3-4522-a340-ad5f4e57eafa"},"vehicle_type_id":"4","last_reported":1699794404,"current_range_meters":18400,"station_id":"ce4bhs12rcd13ifvqhvg","pricing_plan_id":"free"},{"bike_id":"3819deec-fe3d-41c7-8346-2b107cb07054","system_id":"levelo_inurba_marseille","lat":43.315237,"lon":5.383797,"is_reserved":false,"is_disabled":false,"rental_uris":{"android":"levelo://app?vid=3819deec-fe3d-41c7-8346-2b107cb07054","ios":"levelo://app?vid=3819deec-fe3d-41c7-8346-2b107cb07054"},"vehicle_type_id":"4","last_reported":1699794404,"current_range_meters":0,"station_id":"","pricing_plan_id":"free"},{"bike_id":"69166d53-ec8e-4a0a-864c-7a29f7650dd8","system_id":"levelo_inurba_marseille","lat":43.321121,"lon":5.380092,"is_reserved":false,"is_disabled":false,"rental_uris":{"android":"levelo://app?vid=69166d53-ec8e-4a0a-864c-7a29f7650dd8","ios":"levelo://app?vid=69166d53-ec8e-4a0a-864c-7a29f7650dd8"},"vehicle_type_id":"4","last_reported":1699794404,"current_range_meters":14400,"station_id":"","pricing_plan_id":"free"},{"bike_id":"13d78257-2559-4a10-97b8-aaa7032179bc","system_id":"levelo_inurba_marseille","lat":43.319975,"lon":5.381519,"is_reserved":false,"is_disabled":false,"rental_uris":{"android":"levelo://app?vid=13d78257-2559-4a10-97b8-aaa7032179bc","ios":"levelo://app?vid=13d78257-2559-4a10-97b8-aaa7032179bc"},"vehicle_type_id":"4","last_reported":1699794404,"current_range_meters":400,"station_id":"","pricing_plan_id":"free"},{"bike_id":"a1739e48-580b-4871-af86-0c12dadbbe9d","system_id":"levelo_inurba_marseille","lat":43.299724,"lon":5.371829,"is_reserved":false,"is_disabled":false,"rental_uris":{"android":"levelo://app?vid=a1739e48-580b-4871-af86-0c12dadbbe9d","ios":"levelo://app?vid=a1739e48-580b-4871-af86-0c12dadbbe9d"},"vehicle_type_id":"4","last_reported":1699794404,"current_range_meters":0,"station_id":"ce4bgr92rcd13ifvqc7g","pricing_plan_id":"free"},{"bike_id":"1113ef61-55f4-4dd4-af77-6ef1306514ab","system_id":"levelo_inurba_marseille","lat":43.29935,"lon":5.3654,"is_reserved":false,"is_disabled":false,"rental_uris":{"android":"levelo://app?vid=1113ef61-55f4-4dd4-af77-6ef1306514ab","ios":"levelo://app?vid=1113ef61-55f4-4dd4-af77-6ef1306514ab"},"vehicle_type_id":"4","last_reported":1699794404,"current_range_meters":2800,"station_id":"ce4bgm92rcd13ifvqbr0","pricing_plan_id":"free"},{"bike_id":"1177bb52-cf5e-4449-af81-5174f8d897e1","system_id":"levelo_inurba_marseille","lat":43.298433,"lon":5.362774,"is_reserved":false,"is_disabled":false,"rental_uris":{"android":"levelo://app?vid=1177bb52-cf5e-4449-af81-5174f8d897e1","ios":"levelo://app?vid=1177bb52-cf5e-4449-af81-5174f8d897e1"},"vehicle_type_id":"4","last_reported":1699794404,"current_range_meters":16400,"station_id":"ce4bgpp2rcd13ifvqc3g","pricing_plan_id":"free"},{"bike_id":"317ceffe-832b-4364-840e-d135d0917d0d","system_id":"levelo_inurba_marseille","lat":43.298433,"lon":5.362774,"is_reserved":false,"is_disabled":false,"rental_uris":{"android":"levelo://app?vid=317ceffe-832b-4364-840e-d135d0917d0d","ios":"levelo://app?vid=317ceffe-832b-4364-840e-d135d0917d0d"},"vehicle_type_id":"4","last_reported":1699794404,"current_range_meters":5600,"station_id":"ce4bgpp2rcd13ifvqc3g","pricing_plan_id":"free"},{"bike_id":"7e40acbe-0e81-4ccf-861d-398596b7b5b4","system_id":"levelo_inurba_marseille","lat":43.298433,"lon":5.362774,"is_reserved":false,"is_disabled":false,"rental_uris":{"android":"levelo://app?vid=7e40acbe-0e81-4ccf-861d-398596b7b5b4","ios":"levelo://app?vid=7e40acbe-0e81-4ccf-861d-398596b7b5b4"},"vehicle_type_id":"4","last_reported":1699794404,"current_range_meters":22400,"station_id":"ce4bgpp2rcd13ifvqc3g","pricing_plan_id":"free"},{"bike_id":"934d6e29-22be-4856-90aa-e61c502e1bb1","system_id":"levelo_inurba_marseille","lat":43.298433,"lon":5.362774,"is_reserved":false,"is_disabled":false,"rental_uris":{"android":"levelo://app?vid=934d6e29-22be-4856-90aa-e61c502e1bb1","ios":"levelo://app?vid=934d6e29-22be-4856-90aa-e61c502e1bb1"},"vehicle_type_id":"4","last_reported":1699794404,"current_range_meters":22000,"station_id":"ce4bgpp2rcd13ifvqc3g","pricing_plan_id":"free"},{"bike_id":"8434b954-5e15-43ac-bc81-83f281205d14","system_id":"levelo_inurba_marseille","lat":43.298433,"lon":5.362774,"is_reserved":false,"is_disabled":false,"rental_uris":{"android":"levelo://app?vid=8434b954-5e15-43ac-bc81-83f281205d14","ios":"levelo://app?vid=8434b954-5e15-43ac-bc81-83f281205d14"},"vehicle_type_id":"4","last_reported":1699794404,"current_range_meters":30800,"station_id":"ce4bgpp2rcd13ifvqc3g","pricing_plan_id":"free"},{"bike_id":"7f097c9a-780a-49ea-8866-e10d70ef230f","system_id":"levelo_inurba_marseille","lat":43.298433,"lon":5.362774,"is_reserved":false,"is_disabled":false,"rental_uris":{"android":"levelo://app?vid=7f097c9a-780a-49ea-8866-e10d70ef230f","ios":"levelo://app?vid=7f097c9a-780a-49ea-8866-e10d70ef230f"},"vehicle_type_id":"4","last_reported":1699794404,"current_range_meters":4000,"station_id":"ce4bgpp2rcd13ifvqc3g","pricing_plan_id":"free"},{"bike_id":"1081bdec-33ab-4625-8332-bad41e28e543","system_id":"levelo_inurba_marseille","lat":43.298433,"lon":5.362774,"is_reserved":false,"is_disabled":false,"rental_uris":{"android":"levelo://app?vid=1081bdec-33ab-4625-8332-bad41e28e543","ios":"levelo://app?vid=1081bdec-33ab-4625-8332-bad41e28e543"},"vehicle_type_id":"4","last_reported":1699794404,"current_range_meters":12800,"station_id":"ce4bgpp2rcd13ifvqc3g","pricing_plan_id":"free"},{"bike_id":"a78d58df-2b22-402b-b076-e24049f42739","system_id":"levelo_inurba_marseille","lat":43.298433,"lon":5.362774,"is_reserved":false,"is_disabled":false,"rental_uris":{"android":"levelo://app?vid=a78d58df-2b22-402b-b076-e24049f42739","ios":"levelo://app?vid=a78d58df-2b22-402b-b076-e24049f42739"},"vehicle_type_id":"4","last_reported":1699794404,"current_range_meters":26000,"station_id":"ce4bgpp2rcd13ifvqc3g","pricing_plan_id":"free"},{"bike_id":"8950f55a-e75d-4fac-9a7c-f529bc0580a5","system_id":"levelo_inurba_marseille","lat":43.320464,"lon":5.384144,"is_reserved":false,"is_disabled":false,"rental_uris":{"android":"levelo://app?vid=8950f55a-e75d-4fac-9a7c-f529bc0580a5","ios":"levelo://app?vid=8950f55a-e75d-4fac-9a7c-f529bc0580a5"},"vehicle_type_id":"4","last_reported":1699794404,"current_range_meters":9200,"station_id":"","pricing_plan_id":"free"},{"bike_id":"27a0b24e-81e9-4a4e-ae0f-8752cbaa4679","system_id":"levelo_inurba_marseille","lat":43.297163,"lon":5.365866,"is_reserved":false,"is_disabled":false,"rental_uris":{"android":"levelo://app?vid=27a0b24e-81e9-4a4e-ae0f-8752cbaa4679","ios":"levelo://app?vid=27a0b24e-81e9-4a4e-ae0f-8752cbaa4679"},"vehicle_type_id":"4","last_reported":1699794404,"current_range_meters":30400,"station_id":"ce4bgn12rcd13ifvqbt0","pricing_plan_id":"free"},{"bike_id":"f0812d0f-256a-478f-9681-2e0e9d074993","system_id":"levelo_inurba_marseille","lat":43.29621,"lon":5.36808,"is_reserved":false,"is_disabled":false,"rental_uris":{"android":"levelo://app?vid=f0812d0f-256a-478f-9681-2e0e9d074993","ios":"levelo://app?vid=f0812d0f-256a-478f-9681-2e0e9d074993"},"vehicle_type_id":"4","last_reported":1699794404,"current_range_meters":27600,"station_id":"","pricing_plan_id":"free"},{"bike_id":"d447991a-59b4-4778-a190-7d2b0920a414","system_id":"levelo_inurba_marseille","lat":43.32215,"lon":5.38613,"is_reserved":false,"is_disabled":false,"rental_uris":{"android":"levelo://app?vid=d447991a-59b4-4778-a190-7d2b0920a414","ios":"levelo://app?vid=d447991a-59b4-4778-a190-7d2b0920a414"},"vehicle_type_id":"4","last_reported":1699794404,"current_range_meters":16800,"station_id":"","pricing_plan_id":"free"},{"bike_id":"e152e453-f187-4104-ae1b-f057695fc5ee","system_id":"levelo_inurba_marseille","lat":43.296129,"lon":5.370777,"is_reserved":false,"is_disabled":false,"rental_uris":{"android":"levelo://app?vid=e152e453-f187-4104-ae1b-f057695fc5ee","ios":"levelo://app?vid=e152e453-f187-4104-ae1b-f057695fc5ee"},"vehicle_type_id":"4","last_reported":1699794404,"current_range_meters":17200,"station_id":"ce4bgnh2rcd13ifvqc0g","pricing_plan_id":"free"},{"bike_id":"bf185889-9c3d-4fac-b384-784a443a6b84","system_id":"levelo_inurba_marseille","lat":43.29573,"lon":5.367355,"is_reserved":false,"is_disabled":false,"rental_uris":{"android":"levelo://app?vid=bf185889-9c3d-4fac-b384-784a443a6b84","ios":"levelo://app?vid=bf185889-9c3d-4fac-b384-784a443a6b84"},"vehicle_type_id":"4","last_reported":1699794404,"current_range_meters":29200,"station_id":"ce4bgph2rcd13ifvqc2g","pricing_plan_id":"free"},{"bike_id":"a4cd9f0d-1eb2-456b-aff5-85679562fc78","system_id":"levelo_inurba_marseille","lat":43.29573,"lon":5.367355,"is_reserved":false,"is_disabled":false,"rental_uris":{"android":"levelo://app?vid=a4cd9f0d-1eb2-456b-aff5-85679562fc78","ios":"levelo://app?vid=a4cd9f0d-1eb2-456b-aff5-85679562fc78"},"vehicle_type_id":"4","last_reported":1699794404,"current_range_meters":30800,"station_id":"ce4bgph2rcd13ifvqc2g","pricing_plan_id":"free"},{"bike_id":"5739d45e-0cc4-4023-a6f7-5af6caa450c3","system_id":"levelo_inurba_marseille","lat":43.29573,"lon":5.367355,"is_reserved":false,"is_disabled":false,"rental_uris":{"android":"levelo://app?vid=5739d45e-0cc4-4023-a6f7-5af6caa450c3","ios":"levelo://app?vid=5739d45e-0cc4-4023-a6f7-5af6caa450c3"},"vehicle_type_id":"4","last_reported":1699794404,"current_range_meters":31200,"station_id":"ce4bgph2rcd13ifvqc2g","pricing_plan_id":"free"},{"bike_id":"0a30db59-5df3-4aa7-8309-b5c8adedd126","system_id":"levelo_inurba_marseille","lat":43.29573,"lon":5.367355,"is_reserved":false,"is_disabled":false,"rental_uris":{"android":"levelo://app?vid=0a30db59-5df3-4aa7-8309-b5c8adedd126","ios":"levelo://app?vid=0a30db59-5df3-4aa7-8309-b5c8adedd126"},"vehicle_type_id":"4","last_reported":1699794404,"current_range_meters":24800,"station_id":"ce4bgph2rcd13ifvqc2g","pricing_plan_id":"free"},{"bike_id":"408e1bba-ac1b-479c-ad30-32026784c873","system_id":"levelo_inurba_marseille","lat":43.2966,"lon":5.37463,"is_reserved":false,"is_disabled":false,"rental_uris":{"android":"levelo://app?vid=408e1bba-ac1b-479c-ad30-32026784c873","ios":"levelo://app?vid=408e1bba-ac1b-479c-ad30-32026784c873"},"vehicle_type_id":"4","last_reported":1699794404,"current_range_meters":12000,"station_id":"","pricing_plan_id":"free"},{"bike_id":"d7c8f966-8471-4485-b937-bff00608a64e","system_id":"levelo_inurba_marseille","lat":43.309589,"lon":5.390258,"is_reserved":false,"is_disabled":false,"rental_uris":{"android":"levelo://app?vid=d7c8f966-8471-4485-b937-bff00608a64e","ios":"levelo://app?vid=d7c8f966-8471-4485-b937-bff00608a64e"},"vehicle_type_id":"4","last_reported":1699794404,"current_range_meters":21200,"station_id":"ce4bgup2rcd13ifvqco0","pricing_plan_id":"free"},{"bike_id":"f56b2e84-17e7-45e8-a4e2-c902870283ce","system_id":"levelo_inurba_marseille","lat":43.309589,"lon":5.390258,"is_reserved":false,"is_disabled":false,"rental_uris":{"android":"levelo://app?vid=f56b2e84-17e7-45e8-a4e2-c902870283ce","ios":"levelo://app?vid=f56b2e84-17e7-45e8-a4e2-c902870283ce"},"vehicle_type_id":"4","last_reported":1699794404,"current_range_meters":28800,"station_id":"ce4bgup2rcd13ifvqco0","pricing_plan_id":"free"},{"bike_id":"1eef6b1d-26be-4db9-9692-abb7f5f2b371","system_id":"levelo_inurba_marseille","lat":43.309589,"lon":5.390258,"is_reserved":false,"is_disabled":false,"rental_uris":{"android":"levelo://app?vid=1eef6b1d-26be-4db9-9692-abb7f5f2b371","ios":"levelo://app?vid=1eef6b1d-26be-4db9-9692-abb7f5f2b371"},"vehicle_type_id":"4","last_reported":1699794404,"current_range_meters":16400,"station_id":"ce4bgup2rcd13ifvqco0","pricing_plan_id":"free"},{"bike_id":"feff7d8e-9456-4b4b-b917-4f91bb23e023","system_id":"levelo_inurba_marseille","lat":43.3175,"lon":5.39022,"is_reserved":false,"is_disabled":false,"rental_uris":{"android":"levelo://app?vid=feff7d8e-9456-4b4b-b917-4f91bb23e023","ios":"levelo://app?vid=feff7d8e-9456-4b4b-b917-4f91bb23e023"},"vehicle_type_id":"4","last_reported":1699794404,"current_range_meters":14800,"station_id":"","pricing_plan_id":"free"},{"bike_id":"e0819798-3bb9-4f71-bc6c-5914246f6d3f","system_id":"levelo_inurba_marseille","lat":43.298037,"lon":5.381066,"is_reserved":false,"is_disabled":false,"rental_uris":{"android":"levelo://app?vid=e0819798-3bb9-4f71-bc6c-5914246f6d3f","ios":"levelo://app?vid=e0819798-3bb9-4f71-bc6c-5914246f6d3f"},"vehicle_type_id":"4","last_reported":1699794404,"current_range_meters":22400,"station_id":"ce4bgip2rcd13ifvqbb0","pricing_plan_id":"free"},{"bike_id":"af0d5c18-45df-4ce0-bf89-5396e31e7fc4","system_id":"levelo_inurba_marseille","lat":43.304278,"lon":5.388868,"is_reserved":false,"is_disabled":false,"rental_uris":{"android":"levelo://app?vid=af0d5c18-45df-4ce0-bf89-5396e31e7fc4","ios":"levelo://app?vid=af0d5c18-45df-4ce0-bf89-5396e31e7fc4"},"vehicle_type_id":"4","last_reported":1699794404,"current_range_meters":13200,"station_id":"ce4bgk12rcd13ifvqbi0","pricing_plan_id":"free"},{"bike_id":"faacea2c-aab0-4e78-a16d-a9b86db3d52a","system_id":"levelo_inurba_marseille","lat":43.296263,"lon":5.377094,"is_reserved":false,"is_disabled":false,"rental_uris":{"android":"levelo://app?vid=faacea2c-aab0-4e78-a16d-a9b86db3d52a","ios":"levelo://app?vid=faacea2c-aab0-4e78-a16d-a9b86db3d52a"},"vehicle_type_id":"4","last_reported":1699794404,"current_range_meters":15600,"station_id":"ce4bgi92rcd13ifvqb90","pricing_plan_id":"free"},{"bike_id":"f22a71bf-7007-444c-979e-2d794b1210bf","system_id":"levelo_inurba_marseille","lat":43.295279,"lon":5.375048,"is_reserved":false,"is_disabled":false,"rental_uris":{"android":"levelo://app?vid=f22a71bf-7007-444c-979e-2d794b1210bf","ios":"levelo://app?vid=f22a71bf-7007-444c-979e-2d794b1210bf"},"vehicle_type_id":"4","last_reported":1699794404,"current_range_meters":15600,"station_id":"ce4bgkp2rcd13ifvqbmg","pricing_plan_id":"free"},{"bike_id":"77cc5f22-1005-432e-a4ae-b1a28eda96dc","system_id":"levelo_inurba_marseille","lat":43.292749,"lon":5.368402,"is_reserved":false,"is_disabled":false,"rental_uris":{"android":"levelo://app?vid=77cc5f22-1005-432e-a4ae-b1a28eda96dc","ios":"levelo://app?vid=77cc5f22-1005-432e-a4ae-b1a28eda96dc"},"vehicle_type_id":"4","last_reported":1699794404,"current_range_meters":31200,"station_id":"ce4bhbp2rcd13ifvqesg","pricing_plan_id":"free"},{"bike_id":"fab20524-3944-4c99-bd4c-47f22a32f491","system_id":"levelo_inurba_marseille","lat":43.292788,"lon":5.368429,"is_reserved":false,"is_disabled":false,"rental_uris":{"android":"levelo://app?vid=fab20524-3944-4c99-bd4c-47f22a32f491","ios":"levelo://app?vid=fab20524-3944-4c99-bd4c-47f22a32f491"},"vehicle_type_id":"4","last_reported":1699794404,"current_range_meters":31200,"station_id":"ce4bhbp2rcd13ifvqesg","pricing_plan_id":"free"},{"bike_id":"bee6c4a5-d9f3-48b4-b9fa-1347a97cf3c8","system_id":"levelo_inurba_marseille","lat":43.292759,"lon":5.368501,"is_reserved":false,"is_disabled":false,"rental_uris":{"android":"levelo://app?vid=bee6c4a5-d9f3-48b4-b9fa-1347a97cf3c8","ios":"levelo://app?vid=bee6c4a5-d9f3-48b4-b9fa-1347a97cf3c8"},"vehicle_type_id":"4","last_reported":1699794404,"current_range_meters":15600,"station_id":"ce4bhbp2rcd13ifvqesg","pricing_plan_id":"free"},{"bike_id":"1f2edeec-835f-4188-b75a-b19c37bb1dac","system_id":"levelo_inurba_marseille","lat":43.30109,"lon":5.3894,"is_reserved":false,"is_disabled":false,"rental_uris":{"android":"levelo://app?vid=1f2edeec-835f-4188-b75a-b19c37bb1dac","ios":"levelo://app?vid=1f2edeec-835f-4188-b75a-b19c37bb1dac"},"vehicle_type_id":"4","last_reported":1699794404,"current_range_meters":1600,"station_id":"","pricing_plan_id":"free"},{"bike_id":"6ee540c7-249a-4ebd-94c5-5e5b8f7c990b","system_id":"levelo_inurba_marseille","lat":43.305994,"lon":5.393687,"is_reserved":false,"is_disabled":false,"rental_uris":{"android":"levelo://app?vid=6ee540c7-249a-4ebd-94c5-5e5b8f7c990b","ios":"levelo://app?vid=6ee540c7-249a-4ebd-94c5-5e5b8f7c990b"},"vehicle_type_id":"4","last_reported":1699794404,"current_range_meters":26000,"station_id":"ce4bh0p2rcd13ifvqd80","pricing_plan_id":"free"},{"bike_id":"02a2c488-0914-419c-9aac-fafe7c1c128d","system_id":"levelo_inurba_marseille","lat":43.302992,"lon":5.392136,"is_reserved":false,"is_disabled":false,"rental_uris":{"android":"levelo://app?vid=02a2c488-0914-419c-9aac-fafe7c1c128d","ios":"levelo://app?vid=02a2c488-0914-419c-9aac-fafe7c1c128d"},"vehicle_type_id":"4","last_reported":1699794404,"current_range_meters":15200,"station_id":"ce4bgkh2rcd13ifvqbk0","pricing_plan_id":"free"},{"bike_id":"16f7b3cd-8813-4487-a49a-b11ba29c16f5","system_id":"levelo_inurba_marseille","lat":43.303002,"lon":5.392142,"is_reserved":false,"is_disabled":false,"rental_uris":{"android":"levelo://app?vid=16f7b3cd-8813-4487-a49a-b11ba29c16f5","ios":"levelo://app?vid=16f7b3cd-8813-4487-a49a-b11ba29c16f5"},"vehicle_type_id":"4","last_reported":1699794404,"current_range_meters":29200,"station_id":"ce4bgkh2rcd13ifvqbk0","pricing_plan_id":"free"},{"bike_id":"a225d69d-365e-4451-981e-2a2abf16af17","system_id":"levelo_inurba_marseille","lat":43.2936,"lon":5.37835,"is_reserved":false,"is_disabled":false,"rental_uris":{"android":"levelo://app?vid=a225d69d-365e-4451-981e-2a2abf16af17","ios":"levelo://app?vid=a225d69d-365e-4451-981e-2a2abf16af17"},"vehicle_type_id":"4","last_reported":1699794404,"current_range_meters":29600,"station_id":"ce4bgjh2rcd13ifvqbf0","pricing_plan_id":"free"},{"bike_id":"ded2da94-7d0e-44af-ab69-c896ede7040a","system_id":"levelo_inurba_marseille","lat":43.302992,"lon":5.392136,"is_reserved":false,"is_disabled":false,"rental_uris":{"android":"levelo://app?vid=ded2da94-7d0e-44af-ab69-c896ede7040a","ios":"levelo://app?vid=ded2da94-7d0e-44af-ab69-c896ede7040a"},"vehicle_type_id":"4","last_reported":1699794404,"current_range_meters":18400,"station_id":"ce4bgkh2rcd13ifvqbk0","pricing_plan_id":"free"},{"bike_id":"ffc669e2-7cef-461f-9b38-6b3a079e6e76","system_id":"levelo_inurba_marseille","lat":43.303002,"lon":5.392142,"is_reserved":false,"is_disabled":false,"rental_uris":{"android":"levelo://app?vid=ffc669e2-7cef-461f-9b38-6b3a079e6e76","ios":"levelo://app?vid=ffc669e2-7cef-461f-9b38-6b3a079e6e76"},"vehicle_type_id":"4","last_reported":1699794404,"current_range_meters":10000,"station_id":"ce4bgkh2rcd13ifvqbk0","pricing_plan_id":"free"},{"bike_id":"3c2f76f8-a4ab-4a9c-bb50-5917e91398a3","system_id":"levelo_inurba_marseille","lat":43.292311,"lon":5.360731,"is_reserved":false,"is_disabled":false,"rental_uris":{"android":"levelo://app?vid=3c2f76f8-a4ab-4a9c-bb50-5917e91398a3","ios":"levelo://app?vid=3c2f76f8-a4ab-4a9c-bb50-5917e91398a3"},"vehicle_type_id":"4","last_reported":1699794404,"current_range_meters":30000,"station_id":"ce4bhbh2rcd13ifvqeqg","pricing_plan_id":"free"},{"bike_id":"782e4b40-0aa8-4d8d-b532-7904a33b9ecf","system_id":"levelo_inurba_marseille","lat":43.292311,"lon":5.360731,"is_reserved":false,"is_disabled":false,"rental_uris":{"android":"levelo://app?vid=782e4b40-0aa8-4d8d-b532-7904a33b9ecf","ios":"levelo://app?vid=782e4b40-0aa8-4d8d-b532-7904a33b9ecf"},"vehicle_type_id":"4","last_reported":1699794404,"current_range_meters":6400,"station_id":"ce4bhbh2rcd13ifvqeqg","pricing_plan_id":"free"},{"bike_id":"4ff8d63b-6bbd-4447-a3cd-b795153cf86e","system_id":"levelo_inurba_marseille","lat":43.292311,"lon":5.360731,"is_reserved":false,"is_disabled":false,"rental_uris":{"android":"levelo://app?vid=4ff8d63b-6bbd-4447-a3cd-b795153cf86e","ios":"levelo://app?vid=4ff8d63b-6bbd-4447-a3cd-b795153cf86e"},"vehicle_type_id":"4","last_reported":1699794404,"current_range_meters":18000,"station_id":"ce4bhbh2rcd13ifvqeqg","pricing_plan_id":"free"},{"bike_id":"59efeba1-266d-45f6-8a88-d668c7703155","system_id":"levelo_inurba_marseille","lat":43.309047,"lon":5.396551,"is_reserved":false,"is_disabled":false,"rental_uris":{"android":"levelo://app?vid=59efeba1-266d-45f6-8a88-d668c7703155","ios":"levelo://app?vid=59efeba1-266d-45f6-8a88-d668c7703155"},"vehicle_type_id":"4","last_reported":1699794404,"current_range_meters":17600,"station_id":"ce4bh012rcd13ifvqcv0","pricing_plan_id":"free"},{"bike_id":"c95fd64e-25d2-473a-ba21-f8998de6776a","system_id":"levelo_inurba_marseille","lat":43.309038,"lon":5.396546,"is_reserved":false,"is_disabled":false,"rental_uris":{"android":"levelo://app?vid=c95fd64e-25d2-473a-ba21-f8998de6776a","ios":"levelo://app?vid=c95fd64e-25d2-473a-ba21-f8998de6776a"},"vehicle_type_id":"4","last_reported":1699794404,"current_range_meters":26400,"station_id":"ce4bh012rcd13ifvqcv0","pricing_plan_id":"free"},{"bike_id":"b87cd141-553d-4840-80d6-4d0c140e4d73","system_id":"levelo_inurba_marseille","lat":43.309038,"lon":5.396546,"is_reserved":false,"is_disabled":false,"rental_uris":{"android":"levelo://app?vid=b87cd141-553d-4840-80d6-4d0c140e4d73","ios":"levelo://app?vid=b87cd141-553d-4840-80d6-4d0c140e4d73"},"vehicle_type_id":"4","last_reported":1699794404,"current_range_meters":23600,"station_id":"ce4bh012rcd13ifvqcv0","pricing_plan_id":"free"},{"bike_id":"fc9904fb-1063-4b81-9f45-6bea3287dd05","system_id":"levelo_inurba_marseille","lat":43.309038,"lon":5.396546,"is_reserved":false,"is_disabled":false,"rental_uris":{"android":"levelo://app?vid=fc9904fb-1063-4b81-9f45-6bea3287dd05","ios":"levelo://app?vid=fc9904fb-1063-4b81-9f45-6bea3287dd05"},"vehicle_type_id":"4","last_reported":1699794404,"current_range_meters":12400,"station_id":"ce4bh012rcd13ifvqcv0","pricing_plan_id":"free"},{"bike_id":"490636a2-0501-47d0-afd6-3dcc8e86cddc","system_id":"levelo_inurba_marseille","lat":43.309038,"lon":5.396546,"is_reserved":false,"is_disabled":false,"rental_uris":{"android":"levelo://app?vid=490636a2-0501-47d0-afd6-3dcc8e86cddc","ios":"levelo://app?vid=490636a2-0501-47d0-afd6-3dcc8e86cddc"},"vehicle_type_id":"4","last_reported":1699794404,"current_range_meters":17200,"station_id":"ce4bh012rcd13ifvqcv0","pricing_plan_id":"free"},{"bike_id":"e043008b-fdff-4ad3-a585-8e22be4e9698","system_id":"levelo_inurba_marseille","lat":43.29528,"lon":5.38544,"is_reserved":false,"is_disabled":false,"rental_uris":{"android":"levelo://app?vid=e043008b-fdff-4ad3-a585-8e22be4e9698","ios":"levelo://app?vid=e043008b-fdff-4ad3-a585-8e22be4e9698"},"vehicle_type_id":"4","last_reported":1699794404,"current_range_meters":9200,"station_id":"ce4bgih2rcd13ifvqba0","pricing_plan_id":"free"},{"bike_id":"23713325-57f9-4d4a-9180-1fa4c58cb5db","system_id":"levelo_inurba_marseille","lat":43.290624,"lon":5.359245,"is_reserved":false,"is_disabled":false,"rental_uris":{"android":"levelo://app?vid=23713325-57f9-4d4a-9180-1fa4c58cb5db","ios":"levelo://app?vid=23713325-57f9-4d4a-9180-1fa4c58cb5db"},"vehicle_type_id":"4","last_reported":1699794404,"current_range_meters":5200,"station_id":"ce4bha92rcd13ifvqeg0","pricing_plan_id":"free"},{"bike_id":"fc6a50c7-4fed-4234-8a93-b0e3efe56b82","system_id":"levelo_inurba_marseille","lat":43.290631,"lon":5.359244,"is_reserved":false,"is_disabled":false,"rental_uris":{"android":"levelo://app?vid=fc6a50c7-4fed-4234-8a93-b0e3efe56b82","ios":"levelo://app?vid=fc6a50c7-4fed-4234-8a93-b0e3efe56b82"},"vehicle_type_id":"4","last_reported":1699794404,"current_range_meters":10800,"station_id":"ce4bha92rcd13ifvqeg0","pricing_plan_id":"free"},{"bike_id":"e5090136-c8af-4468-b894-015c81db47e4","system_id":"levelo_inurba_marseille","lat":43.294153,"lon":5.386305,"is_reserved":false,"is_disabled":false,"rental_uris":{"android":"levelo://app?vid=e5090136-c8af-4468-b894-015c81db47e4","ios":"levelo://app?vid=e5090136-c8af-4468-b894-015c81db47e4"},"vehicle_type_id":"4","last_reported":1699794404,"current_range_meters":1200,"station_id":"ce4bh2h2rcd13ifvqdh0","pricing_plan_id":"free"},{"bike_id":"50a9e182-d876-4309-b14b-bbbff13e31e4","system_id":"levelo_inurba_marseille","lat":43.292644,"lon":5.384257,"is_reserved":false,"is_disabled":false,"rental_uris":{"android":"levelo://app?vid=50a9e182-d876-4309-b14b-bbbff13e31e4","ios":"levelo://app?vid=50a9e182-d876-4309-b14b-bbbff13e31e4"},"vehicle_type_id":"4","last_reported":1699794404,"current_range_meters":26000,"station_id":"ce4bh692rcd13ifvqea0","pricing_plan_id":"free"},{"bike_id":"0fe0c028-076a-4081-a7c4-cb63da49e113","system_id":"levelo_inurba_marseille","lat":43.290104,"lon":5.356111,"is_reserved":false,"is_disabled":false,"rental_uris":{"android":"levelo://app?vid=0fe0c028-076a-4081-a7c4-cb63da49e113","ios":"levelo://app?vid=0fe0c028-076a-4081-a7c4-cb63da49e113"},"vehicle_type_id":"4","last_reported":1699794404,"current_range_meters":22400,"station_id":"ce4bhb92rcd13ifvqen0","pricing_plan_id":"free"},{"bike_id":"6fc72e89-d015-4392-a791-9678f75e99b3","system_id":"levelo_inurba_marseille","lat":43.290068,"lon":5.356178,"is_reserved":false,"is_disabled":false,"rental_uris":{"android":"levelo://app?vid=6fc72e89-d015-4392-a791-9678f75e99b3","ios":"levelo://app?vid=6fc72e89-d015-4392-a791-9678f75e99b3"},"vehicle_type_id":"4","last_reported":1699794404,"current_range_meters":30400,"station_id":"","pricing_plan_id":"free"},{"bike_id":"e1f4adbe-aee9-467c-a216-c938782b5218","system_id":"levelo_inurba_marseille","lat":43.290058,"lon":5.356166,"is_reserved":false,"is_disabled":false,"rental_uris":{"android":"levelo://app?vid=e1f4adbe-aee9-467c-a216-c938782b5218","ios":"levelo://app?vid=e1f4adbe-aee9-467c-a216-c938782b5218"},"vehicle_type_id":"4","last_reported":1699794404,"current_range_meters":18000,"station_id":"ce4bhb92rcd13ifvqen0","pricing_plan_id":"free"},{"bike_id":"9aafa2ff-abc1-499d-a76e-28388fbc2e82","system_id":"levelo_inurba_marseille","lat":43.29003,"lon":5.35611,"is_reserved":false,"is_disabled":false,"rental_uris":{"android":"levelo://app?vid=9aafa2ff-abc1-499d-a76e-28388fbc2e82","ios":"levelo://app?vid=9aafa2ff-abc1-499d-a76e-28388fbc2e82"},"vehicle_type_id":"4","last_reported":1699794404,"current_range_meters":31200,"station_id":"ce4bhb92rcd13ifvqen0","pricing_plan_id":"free"},{"bike_id":"78b0d96d-e60d-45c0-8e72-cded5b04b34e","system_id":"levelo_inurba_marseille","lat":43.290104,"lon":5.356111,"is_reserved":false,"is_disabled":false,"rental_uris":{"android":"levelo://app?vid=78b0d96d-e60d-45c0-8e72-cded5b04b34e","ios":"levelo://app?vid=78b0d96d-e60d-45c0-8e72-cded5b04b34e"},"vehicle_type_id":"4","last_reported":1699794404,"current_range_meters":29600,"station_id":"ce4bhb92rcd13ifvqen0","pricing_plan_id":"free"},{"bike_id":"a96319ca-2530-495c-80b5-6acab95cb8a8","system_id":"levelo_inurba_marseille","lat":43.289743,"lon":5.378304,"is_reserved":false,"is_disabled":false,"rental_uris":{"android":"levelo://app?vid=a96319ca-2530-495c-80b5-6acab95cb8a8","ios":"levelo://app?vid=a96319ca-2530-495c-80b5-6acab95cb8a8"},"vehicle_type_id":"4","last_reported":1699794404,"current_range_meters":26400,"station_id":"ce4bh9p2rcd13ifvqed0","pricing_plan_id":"free"},{"bike_id":"99937404-ac39-4cfb-a968-09ce37dbd261","system_id":"levelo_inurba_marseille","lat":43.309371,"lon":5.401449,"is_reserved":false,"is_disabled":false,"rental_uris":{"android":"levelo://app?vid=99937404-ac39-4cfb-a968-09ce37dbd261","ios":"levelo://app?vid=99937404-ac39-4cfb-a968-09ce37dbd261"},"vehicle_type_id":"4","last_reported":1699794404,"current_range_meters":3600,"station_id":"ce4bgvp2rcd13ifvqct0","pricing_plan_id":"free"},{"bike_id":"03770e46-c412-460a-962f-86dca10a64c3","system_id":"levelo_inurba_marseille","lat":43.30642,"lon":5.401031,"is_reserved":false,"is_disabled":false,"rental_uris":{"android":"levelo://app?vid=03770e46-c412-460a-962f-86dca10a64c3","ios":"levelo://app?vid=03770e46-c412-460a-962f-86dca10a64c3"},"vehicle_type_id":"4","last_reported":1699794404,"current_range_meters":12400,"station_id":"ce4bh112rcd13ifvqda0","pricing_plan_id":"free"},{"bike_id":"d3ad05e4-dc7b-44fd-be96-187f27e8e993","system_id":"levelo_inurba_marseille","lat":43.306412,"lon":5.401035,"is_reserved":false,"is_disabled":false,"rental_uris":{"android":"levelo://app?vid=d3ad05e4-dc7b-44fd-be96-187f27e8e993","ios":"levelo://app?vid=d3ad05e4-dc7b-44fd-be96-187f27e8e993"},"vehicle_type_id":"4","last_reported":1699794404,"current_range_meters":26000,"station_id":"ce4bh112rcd13ifvqda0","pricing_plan_id":"free"},{"bike_id":"de86e3d1-a596-40c7-ba28-8077c5a08266","system_id":"levelo_inurba_marseille","lat":43.33769,"lon":5.37471,"is_reserved":false,"is_disabled":false,"rental_uris":{"android":"levelo://app?vid=de86e3d1-a596-40c7-ba28-8077c5a08266","ios":"levelo://app?vid=de86e3d1-a596-40c7-ba28-8077c5a08266"},"vehicle_type_id":"4","last_reported":1699794404,"current_range_meters":29200,"station_id":"","pricing_plan_id":"free"},{"bike_id":"743f3bc5-43c9-45a3-8965-b67b169c6c30","system_id":"levelo_inurba_marseille","lat":43.30513,"lon":5.40077,"is_reserved":false,"is_disabled":false,"rental_uris":{"android":"levelo://app?vid=743f3bc5-43c9-45a3-8965-b67b169c6c30","ios":"levelo://app?vid=743f3bc5-43c9-45a3-8965-b67b169c6c30"},"vehicle_type_id":"4","last_reported":1699794404,"current_range_meters":7200,"station_id":"","pricing_plan_id":"free"},{"bike_id":"1d426186-77aa-48d4-80cb-5956fea08707","system_id":"levelo_inurba_marseille","lat":43.28727,"lon":5.36078,"is_reserved":false,"is_disabled":false,"rental_uris":{"android":"levelo://app?vid=1d426186-77aa-48d4-80cb-5956fea08707","ios":"levelo://app?vid=1d426186-77aa-48d4-80cb-5956fea08707"},"vehicle_type_id":"4","last_reported":1699794404,"current_range_meters":28800,"station_id":"cki0cbj6b192h4jlfktg","pricing_plan_id":"free"},{"bike_id":"0328d7ab-84ae-47a3-9941-4924ebcbbb01","system_id":"levelo_inurba_marseille","lat":43.28727,"lon":5.36078,"is_reserved":false,"is_disabled":false,"rental_uris":{"android":"levelo://app?vid=0328d7ab-84ae-47a3-9941-4924ebcbbb01","ios":"levelo://app?vid=0328d7ab-84ae-47a3-9941-4924ebcbbb01"},"vehicle_type_id":"4","last_reported":1699794404,"current_range_meters":26000,"station_id":"cki0cbj6b192h4jlfktg","pricing_plan_id":"free"},{"bike_id":"7671cb52-7d7e-4e56-93f1-116cc6531f57","system_id":"levelo_inurba_marseille","lat":43.295196,"lon":5.39397,"is_reserved":false,"is_disabled":false,"rental_uris":{"android":"levelo://app?vid=7671cb52-7d7e-4e56-93f1-116cc6531f57","ios":"levelo://app?vid=7671cb52-7d7e-4e56-93f1-116cc6531f57"},"vehicle_type_id":"4","last_reported":1699794404,"current_range_meters":0,"station_id":"ce4bh292rcd13ifvqdf0","pricing_plan_id":"free"},{"bike_id":"a8978571-4d1b-4bef-a5bf-afc2848c8790","system_id":"levelo_inurba_marseille","lat":43.302759,"lon":5.400793,"is_reserved":false,"is_disabled":false,"rental_uris":{"android":"levelo://app?vid=a8978571-4d1b-4bef-a5bf-afc2848c8790","ios":"levelo://app?vid=a8978571-4d1b-4bef-a5bf-afc2848c8790"},"vehicle_type_id":"4","last_reported":1699794404,"current_range_meters":26000,"station_id":"ce4bgvh2rcd13ifvqcs0","pricing_plan_id":"free"},{"bike_id":"ceac0512-741b-47a8-a5e8-d55f98f5c9c7","system_id":"levelo_inurba_marseille","lat":43.286039,"lon":5.370679,"is_reserved":false,"is_disabled":false,"rental_uris":{"android":"levelo://app?vid=ceac0512-741b-47a8-a5e8-d55f98f5c9c7","ios":"levelo://app?vid=ceac0512-741b-47a8-a5e8-d55f98f5c9c7"},"vehicle_type_id":"4","last_reported":1699794404,"current_range_meters":28800,"station_id":"ce4bht12rcd13ifvqi60","pricing_plan_id":"free"},{"bike_id":"e57449c2-d088-47cf-8bf2-271593713c89","system_id":"levelo_inurba_marseille","lat":43.328576,"lon":5.398841,"is_reserved":false,"is_disabled":false,"rental_uris":{"android":"levelo://app?vid=e57449c2-d088-47cf-8bf2-271593713c89","ios":"levelo://app?vid=e57449c2-d088-47cf-8bf2-271593713c89"},"vehicle_type_id":"4","last_reported":1699794404,"current_range_meters":4400,"station_id":"","pricing_plan_id":"free"},{"bike_id":"c7c67efb-e36d-4e2f-b808-62f8034b09c8","system_id":"levelo_inurba_marseille","lat":43.29198,"lon":5.39319,"is_reserved":false,"is_disabled":false,"rental_uris":{"android":"levelo://app?vid=c7c67efb-e36d-4e2f-b808-62f8034b09c8","ios":"levelo://app?vid=c7c67efb-e36d-4e2f-b808-62f8034b09c8"},"vehicle_type_id":"4","last_reported":1699794404,"current_range_meters":26400,"station_id":"ce4bh192rcd13ifvqdd0","pricing_plan_id":"free"},{"bike_id":"62028248-91d1-438a-844f-d606a79c5b4d","system_id":"levelo_inurba_marseille","lat":43.28617,"lon":5.351,"is_reserved":false,"is_disabled":false,"rental_uris":{"android":"levelo://app?vid=62028248-91d1-438a-844f-d606a79c5b4d","ios":"levelo://app?vid=62028248-91d1-438a-844f-d606a79c5b4d"},"vehicle_type_id":"4","last_reported":1699794404,"current_range_meters":3200,"station_id":"ce4bhch2rcd13ifvqeug","pricing_plan_id":"free"},{"bike_id":"d7cdb465-7176-48a5-844e-b6888c64dc2b","system_id":"levelo_inurba_marseille","lat":43.28611,"lon":5.35097,"is_reserved":false,"is_disabled":false,"rental_uris":{"android":"levelo://app?vid=d7cdb465-7176-48a5-844e-b6888c64dc2b","ios":"levelo://app?vid=d7cdb465-7176-48a5-844e-b6888c64dc2b"},"vehicle_type_id":"4","last_reported":1699794404,"current_range_meters":0,"station_id":"ce4bhch2rcd13ifvqeug","pricing_plan_id":"free"},{"bike_id":"86de45d3-0e8d-4cf0-921a-c9cdb6acbaa4","system_id":"levelo_inurba_marseille","lat":43.286595,"lon":5.386795,"is_reserved":false,"is_disabled":false,"rental_uris":{"android":"levelo://app?vid=86de45d3-0e8d-4cf0-921a-c9cdb6acbaa4","ios":"levelo://app?vid=86de45d3-0e8d-4cf0-921a-c9cdb6acbaa4"},"vehicle_type_id":"4","last_reported":1699794404,"current_range_meters":0,"station_id":"ce4bh492rcd13ifvqdug","pricing_plan_id":"free"},{"bike_id":"90eb9bb9-e893-4d8c-9877-5dc11faa4f54","system_id":"levelo_inurba_marseille","lat":43.286595,"lon":5.386795,"is_reserved":false,"is_disabled":false,"rental_uris":{"android":"levelo://app?vid=90eb9bb9-e893-4d8c-9877-5dc11faa4f54","ios":"levelo://app?vid=90eb9bb9-e893-4d8c-9877-5dc11faa4f54"},"vehicle_type_id":"4","last_reported":1699794404,"current_range_meters":14400,"station_id":"ce4bh492rcd13ifvqdug","pricing_plan_id":"free"},{"bike_id":"030625bd-f8ba-4389-9944-df2973894a22","system_id":"levelo_inurba_marseille","lat":43.325731,"lon":5.404186,"is_reserved":false,"is_disabled":false,"rental_uris":{"android":"levelo://app?vid=030625bd-f8ba-4389-9944-df2973894a22","ios":"levelo://app?vid=030625bd-f8ba-4389-9944-df2973894a22"},"vehicle_type_id":"4","last_reported":1699794404,"current_range_meters":0,"station_id":"","pricing_plan_id":"free"},{"bike_id":"6e559dba-d37e-4014-aabc-b9b7f99b80e8","system_id":"levelo_inurba_marseille","lat":43.32337,"lon":5.40619,"is_reserved":false,"is_disabled":false,"rental_uris":{"android":"levelo://app?vid=6e559dba-d37e-4014-aabc-b9b7f99b80e8","ios":"levelo://app?vid=6e559dba-d37e-4014-aabc-b9b7f99b80e8"},"vehicle_type_id":"4","last_reported":1699794404,"current_range_meters":1200,"station_id":"ce4bhq92rcd13ifvqhjg","pricing_plan_id":"free"},{"bike_id":"63708a39-f505-4dc4-8082-b44430814c70","system_id":"levelo_inurba_marseille","lat":43.297946,"lon":5.404063,"is_reserved":false,"is_disabled":false,"rental_uris":{"android":"levelo://app?vid=63708a39-f505-4dc4-8082-b44430814c70","ios":"levelo://app?vid=63708a39-f505-4dc4-8082-b44430814c70"},"vehicle_type_id":"4","last_reported":1699794404,"current_range_meters":25600,"station_id":"ce4bh112rcd13ifvqd90","pricing_plan_id":"free"},{"bike_id":"3a462467-0f4c-469f-8d95-39f8ce94d38d","system_id":"levelo_inurba_marseille","lat":43.288501,"lon":5.393087,"is_reserved":false,"is_disabled":false,"rental_uris":{"android":"levelo://app?vid=3a462467-0f4c-469f-8d95-39f8ce94d38d","ios":"levelo://app?vid=3a462467-0f4c-469f-8d95-39f8ce94d38d"},"vehicle_type_id":"4","last_reported":1699794404,"current_range_meters":8800,"station_id":"ce4bh2p2rcd13ifvqdi0","pricing_plan_id":"free"},{"bike_id":"979f45c7-74c9-4c36-a101-ae6412533448","system_id":"levelo_inurba_marseille","lat":43.284219,"lon":5.3497,"is_reserved":false,"is_disabled":false,"rental_uris":{"android":"levelo://app?vid=979f45c7-74c9-4c36-a101-ae6412533448","ios":"levelo://app?vid=979f45c7-74c9-4c36-a101-ae6412533448"},"vehicle_type_id":"4","last_reported":1699794404,"current_range_meters":9200,"station_id":"ce4bhbh2rcd13ifvqepg","pricing_plan_id":"free"},{"bike_id":"6185bacb-24a0-44c6-bf2a-b907c7c3735f","system_id":"levelo_inurba_marseille","lat":43.284219,"lon":5.3497,"is_reserved":false,"is_disabled":false,"rental_uris":{"android":"levelo://app?vid=6185bacb-24a0-44c6-bf2a-b907c7c3735f","ios":"levelo://app?vid=6185bacb-24a0-44c6-bf2a-b907c7c3735f"},"vehicle_type_id":"4","last_reported":1699794404,"current_range_meters":6000,"station_id":"ce4bhbh2rcd13ifvqepg","pricing_plan_id":"free"},{"bike_id":"694cc18d-6823-481a-9d09-67d990c2d197","system_id":"levelo_inurba_marseille","lat":43.324289,"lon":5.407562,"is_reserved":false,"is_disabled":false,"rental_uris":{"android":"levelo://app?vid=694cc18d-6823-481a-9d09-67d990c2d197","ios":"levelo://app?vid=694cc18d-6823-481a-9d09-67d990c2d197"},"vehicle_type_id":"4","last_reported":1699794404,"current_range_meters":0,"station_id":"","pricing_plan_id":"free"},{"bike_id":"aadcedf7-1c12-4fbd-9afc-a17197a5949e","system_id":"levelo_inurba_marseille","lat":43.282744,"lon":5.350533,"is_reserved":false,"is_disabled":false,"rental_uris":{"android":"levelo://app?vid=aadcedf7-1c12-4fbd-9afc-a17197a5949e","ios":"levelo://app?vid=aadcedf7-1c12-4fbd-9afc-a17197a5949e"},"vehicle_type_id":"4","last_reported":1699794404,"current_range_meters":16400,"station_id":"ce4bhbp2rcd13ifvqerg","pricing_plan_id":"free"},{"bike_id":"db3a02c9-315d-40e4-bee3-a0ca2bdfdb13","system_id":"levelo_inurba_marseille","lat":43.282754,"lon":5.350519,"is_reserved":false,"is_disabled":false,"rental_uris":{"android":"levelo://app?vid=db3a02c9-315d-40e4-bee3-a0ca2bdfdb13","ios":"levelo://app?vid=db3a02c9-315d-40e4-bee3-a0ca2bdfdb13"},"vehicle_type_id":"4","last_reported":1699794404,"current_range_meters":13600,"station_id":"ce4bhbp2rcd13ifvqerg","pricing_plan_id":"free"},{"bike_id":"a6a1a2aa-b0aa-4ce6-b86c-633691fdc5a1","system_id":"levelo_inurba_marseille","lat":43.28032,"lon":5.3693,"is_reserved":false,"is_disabled":false,"rental_uris":{"android":"levelo://app?vid=a6a1a2aa-b0aa-4ce6-b86c-633691fdc5a1","ios":"levelo://app?vid=a6a1a2aa-b0aa-4ce6-b86c-633691fdc5a1"},"vehicle_type_id":"4","last_reported":1699794404,"current_range_meters":17200,"station_id":"ce4bha12rcd13ifvqef0","pricing_plan_id":"free"},{"bike_id":"d3a6e9a0-866a-4d59-825f-142312cad7b2","system_id":"levelo_inurba_marseille","lat":43.296263,"lon":5.40601,"is_reserved":false,"is_disabled":false,"rental_uris":{"android":"levelo://app?vid=d3a6e9a0-866a-4d59-825f-142312cad7b2","ios":"levelo://app?vid=d3a6e9a0-866a-4d59-825f-142312cad7b2"},"vehicle_type_id":"4","last_reported":1699794404,"current_range_meters":31200,"station_id":"ce4bh0h2rcd13ifvqd60","pricing_plan_id":"free"},{"bike_id":"38a469fe-5b6f-4a41-8f9f-f3afc67d2668","system_id":"levelo_inurba_marseille","lat":43.296263,"lon":5.40601,"is_reserved":false,"is_disabled":false,"rental_uris":{"android":"levelo://app?vid=38a469fe-5b6f-4a41-8f9f-f3afc67d2668","ios":"levelo://app?vid=38a469fe-5b6f-4a41-8f9f-f3afc67d2668"},"vehicle_type_id":"4","last_reported":1699794404,"current_range_meters":13600,"station_id":"ce4bh0h2rcd13ifvqd60","pricing_plan_id":"free"},{"bike_id":"c5269fde-c094-4163-a2ac-a6350e774e3c","system_id":"levelo_inurba_marseille","lat":43.323447,"lon":5.41003,"is_reserved":false,"is_disabled":false,"rental_uris":{"android":"levelo://app?vid=c5269fde-c094-4163-a2ac-a6350e774e3c","ios":"levelo://app?vid=c5269fde-c094-4163-a2ac-a6350e774e3c"},"vehicle_type_id":"4","last_reported":1699794404,"current_range_meters":1600,"station_id":"","pricing_plan_id":"free"},{"bike_id":"bfccfea0-900d-40b5-8fad-08facd3b00ee","system_id":"levelo_inurba_marseille","lat":43.284462,"lon":5.392121,"is_reserved":false,"is_disabled":false,"rental_uris":{"android":"levelo://app?vid=bfccfea0-900d-40b5-8fad-08facd3b00ee","ios":"levelo://app?vid=bfccfea0-900d-40b5-8fad-08facd3b00ee"},"vehicle_type_id":"4","last_reported":1699794404,"current_range_meters":17200,"station_id":"ce4bhoh2rcd13ifvqh5g","pricing_plan_id":"free"},{"bike_id":"3c7b31f3-86f9-4fcd-8422-03fcecc069ec","system_id":"levelo_inurba_marseille","lat":43.28575,"lon":5.39498,"is_reserved":false,"is_disabled":false,"rental_uris":{"android":"levelo://app?vid=3c7b31f3-86f9-4fcd-8422-03fcecc069ec","ios":"levelo://app?vid=3c7b31f3-86f9-4fcd-8422-03fcecc069ec"},"vehicle_type_id":"4","last_reported":1699794404,"current_range_meters":24000,"station_id":"ce4bh292rcd13ifvqdg0","pricing_plan_id":"free"},{"bike_id":"361d8af0-0cb4-47a5-aa72-78e0c1f7469b","system_id":"levelo_inurba_marseille","lat":43.304188,"lon":5.412904,"is_reserved":false,"is_disabled":false,"rental_uris":{"android":"levelo://app?vid=361d8af0-0cb4-47a5-aa72-78e0c1f7469b","ios":"levelo://app?vid=361d8af0-0cb4-47a5-aa72-78e0c1f7469b"},"vehicle_type_id":"4","last_reported":1699794404,"current_range_meters":29200,"station_id":"ce4bhop2rcd13ifvqh8g","pricing_plan_id":"free"},{"bike_id":"feca28d2-7019-4e39-96be-d7938cc29597","system_id":"levelo_inurba_marseille","lat":43.32435,"lon":5.4137,"is_reserved":false,"is_disabled":false,"rental_uris":{"android":"levelo://app?vid=feca28d2-7019-4e39-96be-d7938cc29597","ios":"levelo://app?vid=feca28d2-7019-4e39-96be-d7938cc29597"},"vehicle_type_id":"4","last_reported":1699794404,"current_range_meters":17600,"station_id":"","pricing_plan_id":"free"},{"bike_id":"24862774-b45c-47a7-867b-30492ed161a9","system_id":"levelo_inurba_marseille","lat":43.299579,"lon":5.413255,"is_reserved":false,"is_disabled":false,"rental_uris":{"android":"levelo://app?vid=24862774-b45c-47a7-867b-30492ed161a9","ios":"levelo://app?vid=24862774-b45c-47a7-867b-30492ed161a9"},"vehicle_type_id":"4","last_reported":1699794404,"current_range_meters":25600,"station_id":"ce4bhp12rcd13ifvqh9g","pricing_plan_id":"free"},{"bike_id":"48907a51-96a2-4564-b451-d94116317d22","system_id":"levelo_inurba_marseille","lat":43.299579,"lon":5.413255,"is_reserved":false,"is_disabled":false,"rental_uris":{"android":"levelo://app?vid=48907a51-96a2-4564-b451-d94116317d22","ios":"levelo://app?vid=48907a51-96a2-4564-b451-d94116317d22"},"vehicle_type_id":"4","last_reported":1699794404,"current_range_meters":12400,"station_id":"ce4bhp12rcd13ifvqh9g","pricing_plan_id":"free"},{"bike_id":"03d4a7f3-f849-429d-9a20-9036d3b1ffd4","system_id":"levelo_inurba_marseille","lat":43.292569,"lon":5.409107,"is_reserved":false,"is_disabled":false,"rental_uris":{"android":"levelo://app?vid=03d4a7f3-f849-429d-9a20-9036d3b1ffd4","ios":"levelo://app?vid=03d4a7f3-f849-429d-9a20-9036d3b1ffd4"},"vehicle_type_id":"4","last_reported":1699794404,"current_range_meters":16400,"station_id":"ce4bh192rcd13ifvqdc0","pricing_plan_id":"free"},{"bike_id":"60d26b03-aa8d-441a-9d98-5ba0b0cd2a85","system_id":"levelo_inurba_marseille","lat":43.27617,"lon":5.36101,"is_reserved":false,"is_disabled":false,"rental_uris":{"android":"levelo://app?vid=60d26b03-aa8d-441a-9d98-5ba0b0cd2a85","ios":"levelo://app?vid=60d26b03-aa8d-441a-9d98-5ba0b0cd2a85"},"vehicle_type_id":"4","last_reported":1699794404,"current_range_meters":8800,"station_id":"ce4bgj92rcd13ifvqbe0","pricing_plan_id":"free"},{"bike_id":"96f6c943-07fa-4656-ad22-acc764b66c34","system_id":"levelo_inurba_marseille","lat":43.276179,"lon":5.361009,"is_reserved":false,"is_disabled":false,"rental_uris":{"android":"levelo://app?vid=96f6c943-07fa-4656-ad22-acc764b66c34","ios":"levelo://app?vid=96f6c943-07fa-4656-ad22-acc764b66c34"},"vehicle_type_id":"4","last_reported":1699794404,"current_range_meters":17600,"station_id":"ce4bgj92rcd13ifvqbe0","pricing_plan_id":"free"},{"bike_id":"b7f657c2-538f-4428-9565-c799e19e1677","system_id":"levelo_inurba_marseille","lat":43.27613,"lon":5.36109,"is_reserved":false,"is_disabled":false,"rental_uris":{"android":"levelo://app?vid=b7f657c2-538f-4428-9565-c799e19e1677","ios":"levelo://app?vid=b7f657c2-538f-4428-9565-c799e19e1677"},"vehicle_type_id":"4","last_reported":1699794404,"current_range_meters":23200,"station_id":"ce4bgj92rcd13ifvqbe0","pricing_plan_id":"free"},{"bike_id":"e5abc365-bbf3-4cdd-8264-e8347cefc282","system_id":"levelo_inurba_marseille","lat":43.278399,"lon":5.392139,"is_reserved":false,"is_disabled":false,"rental_uris":{"android":"levelo://app?vid=e5abc365-bbf3-4cdd-8264-e8347cefc282","ios":"levelo://app?vid=e5abc365-bbf3-4cdd-8264-e8347cefc282"},"vehicle_type_id":"4","last_reported":1699794404,"current_range_meters":16800,"station_id":"ce4bhjp2rcd13ifvqga0","pricing_plan_id":"free"},{"bike_id":"61e9dbbd-1f94-41c3-a8c3-df882784a760","system_id":"levelo_inurba_marseille","lat":43.278399,"lon":5.392139,"is_reserved":false,"is_disabled":false,"rental_uris":{"android":"levelo://app?vid=61e9dbbd-1f94-41c3-a8c3-df882784a760","ios":"levelo://app?vid=61e9dbbd-1f94-41c3-a8c3-df882784a760"},"vehicle_type_id":"4","last_reported":1699794404,"current_range_meters":20000,"station_id":"ce4bhjp2rcd13ifvqga0","pricing_plan_id":"free"},{"bike_id":"0db73ef0-a1ae-4064-864d-1991913f7802","system_id":"levelo_inurba_marseille","lat":43.275625,"lon":5.384392,"is_reserved":false,"is_disabled":false,"rental_uris":{"android":"levelo://app?vid=0db73ef0-a1ae-4064-864d-1991913f7802","ios":"levelo://app?vid=0db73ef0-a1ae-4064-864d-1991913f7802"},"vehicle_type_id":"4","last_reported":1699794404,"current_range_meters":26400,"station_id":"ce4bhh92rcd13ifvqfi0","pricing_plan_id":"free"},{"bike_id":"b42d3608-9eec-4884-93f8-ce64160cad97","system_id":"levelo_inurba_marseille","lat":43.273613,"lon":5.362705,"is_reserved":false,"is_disabled":false,"rental_uris":{"android":"levelo://app?vid=b42d3608-9eec-4884-93f8-ce64160cad97","ios":"levelo://app?vid=b42d3608-9eec-4884-93f8-ce64160cad97"},"vehicle_type_id":"4","last_reported":1699794404,"current_range_meters":15600,"station_id":"ce4bhbh2rcd13ifvqeo0","pricing_plan_id":"free"},{"bike_id":"2e8d82f5-51d8-41b5-a0b0-096b19d6efb0","system_id":"levelo_inurba_marseille","lat":43.273613,"lon":5.362705,"is_reserved":false,"is_disabled":false,"rental_uris":{"android":"levelo://app?vid=2e8d82f5-51d8-41b5-a0b0-096b19d6efb0","ios":"levelo://app?vid=2e8d82f5-51d8-41b5-a0b0-096b19d6efb0"},"vehicle_type_id":"4","last_reported":1699794404,"current_range_meters":20400,"station_id":"ce4bhbh2rcd13ifvqeo0","pricing_plan_id":"free"},{"bike_id":"71b1687b-7988-432c-a943-e606a0da1ce7","system_id":"levelo_inurba_marseille","lat":43.27564,"lon":5.38414,"is_reserved":false,"is_disabled":false,"rental_uris":{"android":"levelo://app?vid=71b1687b-7988-432c-a943-e606a0da1ce7","ios":"levelo://app?vid=71b1687b-7988-432c-a943-e606a0da1ce7"},"vehicle_type_id":"4","last_reported":1699794404,"current_range_meters":6000,"station_id":"ce4bhh92rcd13ifvqfi0","pricing_plan_id":"free"},{"bike_id":"10c9d104-564a-49ab-a432-2030f4bfcced","system_id":"levelo_inurba_marseille","lat":43.273609,"lon":5.362708,"is_reserved":false,"is_disabled":false,"rental_uris":{"android":"levelo://app?vid=10c9d104-564a-49ab-a432-2030f4bfcced","ios":"levelo://app?vid=10c9d104-564a-49ab-a432-2030f4bfcced"},"vehicle_type_id":"4","last_reported":1699794404,"current_range_meters":21200,"station_id":"ce4bhbh2rcd13ifvqeo0","pricing_plan_id":"free"},{"bike_id":"eb84e454-42b8-4534-b80e-6ba2cfea2c99","system_id":"levelo_inurba_marseille","lat":43.273613,"lon":5.362705,"is_reserved":false,"is_disabled":false,"rental_uris":{"android":"levelo://app?vid=eb84e454-42b8-4534-b80e-6ba2cfea2c99","ios":"levelo://app?vid=eb84e454-42b8-4534-b80e-6ba2cfea2c99"},"vehicle_type_id":"4","last_reported":1699794404,"current_range_meters":31600,"station_id":"ce4bhbh2rcd13ifvqeo0","pricing_plan_id":"free"},{"bike_id":"7afd43e8-1e38-405a-b406-d8ecd69dd85b","system_id":"levelo_inurba_marseille","lat":43.276769,"lon":5.388787,"is_reserved":false,"is_disabled":false,"rental_uris":{"android":"levelo://app?vid=7afd43e8-1e38-405a-b406-d8ecd69dd85b","ios":"levelo://app?vid=7afd43e8-1e38-405a-b406-d8ecd69dd85b"},"vehicle_type_id":"4","last_reported":1699794404,"current_range_meters":0,"station_id":"ce4bhi12rcd13ifvqfo0","pricing_plan_id":"free"},{"bike_id":"9caec048-a3aa-428b-9d1e-66ad6c2d8e58","system_id":"levelo_inurba_marseille","lat":43.3412,"lon":5.40627,"is_reserved":false,"is_disabled":false,"rental_uris":{"android":"levelo://app?vid=9caec048-a3aa-428b-9d1e-66ad6c2d8e58","ios":"levelo://app?vid=9caec048-a3aa-428b-9d1e-66ad6c2d8e58"},"vehicle_type_id":"4","last_reported":1699794404,"current_range_meters":20800,"station_id":"","pricing_plan_id":"free"},{"bike_id":"3c1d2216-dc25-4ca9-9467-a8aa53c1dc34","system_id":"levelo_inurba_marseille","lat":43.34122,"lon":5.40636,"is_reserved":false,"is_disabled":false,"rental_uris":{"android":"levelo://app?vid=3c1d2216-dc25-4ca9-9467-a8aa53c1dc34","ios":"levelo://app?vid=3c1d2216-dc25-4ca9-9467-a8aa53c1dc34"},"vehicle_type_id":"4","last_reported":1699794404,"current_range_meters":29600,"station_id":"","pricing_plan_id":"free"},{"bike_id":"9317083d-0208-4b26-9ef1-fe1f6f0b2321","system_id":"levelo_inurba_marseille","lat":43.279952,"lon":5.400085,"is_reserved":false,"is_disabled":false,"rental_uris":{"android":"levelo://app?vid=9317083d-0208-4b26-9ef1-fe1f6f0b2321","ios":"levelo://app?vid=9317083d-0208-4b26-9ef1-fe1f6f0b2321"},"vehicle_type_id":"4","last_reported":1699794404,"current_range_meters":22000,"station_id":"ce4bho92rcd13ifvqh4g","pricing_plan_id":"free"},{"bike_id":"819e0fa2-99d6-40b9-abca-5b8d9c5eaf72","system_id":"levelo_inurba_marseille","lat":43.279952,"lon":5.400085,"is_reserved":false,"is_disabled":false,"rental_uris":{"android":"levelo://app?vid=819e0fa2-99d6-40b9-abca-5b8d9c5eaf72","ios":"levelo://app?vid=819e0fa2-99d6-40b9-abca-5b8d9c5eaf72"},"vehicle_type_id":"4","last_reported":1699794404,"current_range_meters":27600,"station_id":"ce4bho92rcd13ifvqh4g","pricing_plan_id":"free"},{"bike_id":"3a740c5c-b5c6-48b8-8736-3c09a24decaa","system_id":"levelo_inurba_marseille","lat":43.279952,"lon":5.400085,"is_reserved":false,"is_disabled":false,"rental_uris":{"android":"levelo://app?vid=3a740c5c-b5c6-48b8-8736-3c09a24decaa","ios":"levelo://app?vid=3a740c5c-b5c6-48b8-8736-3c09a24decaa"},"vehicle_type_id":"4","last_reported":1699794404,"current_range_meters":32000,"station_id":"ce4bho92rcd13ifvqh4g","pricing_plan_id":"free"},{"bike_id":"6a67f168-92cd-4ba4-bbe7-e0d5add12544","system_id":"levelo_inurba_marseille","lat":43.279952,"lon":5.400085,"is_reserved":false,"is_disabled":false,"rental_uris":{"android":"levelo://app?vid=6a67f168-92cd-4ba4-bbe7-e0d5add12544","ios":"levelo://app?vid=6a67f168-92cd-4ba4-bbe7-e0d5add12544"},"vehicle_type_id":"4","last_reported":1699794404,"current_range_meters":32000,"station_id":"ce4bho92rcd13ifvqh4g","pricing_plan_id":"free"},{"bike_id":"22c7bcef-48b7-456d-a61c-4d4094fcf25c","system_id":"levelo_inurba_marseille","lat":43.317121,"lon":5.423936,"is_reserved":false,"is_disabled":false,"rental_uris":{"android":"levelo://app?vid=22c7bcef-48b7-456d-a61c-4d4094fcf25c","ios":"levelo://app?vid=22c7bcef-48b7-456d-a61c-4d4094fcf25c"},"vehicle_type_id":"4","last_reported":1699794404,"current_range_meters":28800,"station_id":"ce4bhp92rcd13ifvqhbg","pricing_plan_id":"free"},{"bike_id":"c2fc3bad-d6f3-44af-aa68-4b442aac0a94","system_id":"levelo_inurba_marseille","lat":43.317121,"lon":5.423936,"is_reserved":false,"is_disabled":false,"rental_uris":{"android":"levelo://app?vid=c2fc3bad-d6f3-44af-aa68-4b442aac0a94","ios":"levelo://app?vid=c2fc3bad-d6f3-44af-aa68-4b442aac0a94"},"vehicle_type_id":"4","last_reported":1699794404,"current_range_meters":27200,"station_id":"ce4bhp92rcd13ifvqhbg","pricing_plan_id":"free"},{"bike_id":"b940e7a5-5c6e-491c-bba1-36f4b6a0f4a9","system_id":"levelo_inurba_marseille","lat":43.317121,"lon":5.423936,"is_reserved":false,"is_disabled":false,"rental_uris":{"android":"levelo://app?vid=b940e7a5-5c6e-491c-bba1-36f4b6a0f4a9","ios":"levelo://app?vid=b940e7a5-5c6e-491c-bba1-36f4b6a0f4a9"},"vehicle_type_id":"4","last_reported":1699794404,"current_range_meters":22400,"station_id":"ce4bhp92rcd13ifvqhbg","pricing_plan_id":"free"},{"bike_id":"87c19f91-5425-4dbb-8668-47c9c062fa2e","system_id":"levelo_inurba_marseille","lat":43.31726,"lon":5.42399,"is_reserved":false,"is_disabled":false,"rental_uris":{"android":"levelo://app?vid=87c19f91-5425-4dbb-8668-47c9c062fa2e","ios":"levelo://app?vid=87c19f91-5425-4dbb-8668-47c9c062fa2e"},"vehicle_type_id":"4","last_reported":1699794404,"current_range_meters":30400,"station_id":"ce4bhp92rcd13ifvqhbg","pricing_plan_id":"free"},{"bike_id":"298ed835-ec2a-45ed-9079-aa820de06426","system_id":"levelo_inurba_marseille","lat":43.310785,"lon":5.424305,"is_reserved":false,"is_disabled":false,"rental_uris":{"android":"levelo://app?vid=298ed835-ec2a-45ed-9079-aa820de06426","ios":"levelo://app?vid=298ed835-ec2a-45ed-9079-aa820de06426"},"vehicle_type_id":"4","last_reported":1699794404,"current_range_meters":20400,"station_id":"ce4bhp92rcd13ifvqhag","pricing_plan_id":"free"},{"bike_id":"b4770658-f342-483b-a747-9c924ecd6498","system_id":"levelo_inurba_marseille","lat":43.304129,"lon":5.425488,"is_reserved":false,"is_disabled":false,"rental_uris":{"android":"levelo://app?vid=b4770658-f342-483b-a747-9c924ecd6498","ios":"levelo://app?vid=b4770658-f342-483b-a747-9c924ecd6498"},"vehicle_type_id":"4","last_reported":1699794404,"current_range_meters":18400,"station_id":"ce4bhoh2rcd13ifvqh6g","pricing_plan_id":"free"},{"bike_id":"9aafbd04-5d57-4b9c-a386-e99dbe1cddb1","system_id":"levelo_inurba_marseille","lat":43.295523,"lon":5.422926,"is_reserved":false,"is_disabled":false,"rental_uris":{"android":"levelo://app?vid=9aafbd04-5d57-4b9c-a386-e99dbe1cddb1","ios":"levelo://app?vid=9aafbd04-5d57-4b9c-a386-e99dbe1cddb1"},"vehicle_type_id":"4","last_reported":1699794404,"current_range_meters":28800,"station_id":"ce4bhph2rcd13ifvqhdg","pricing_plan_id":"free"},{"bike_id":"856a52ff-a401-4d3c-9086-1916de1c4fb0","system_id":"levelo_inurba_marseille","lat":43.295511,"lon":5.422926,"is_reserved":false,"is_disabled":false,"rental_uris":{"android":"levelo://app?vid=856a52ff-a401-4d3c-9086-1916de1c4fb0","ios":"levelo://app?vid=856a52ff-a401-4d3c-9086-1916de1c4fb0"},"vehicle_type_id":"4","last_reported":1699794404,"current_range_meters":31200,"station_id":"ce4bhph2rcd13ifvqhdg","pricing_plan_id":"free"},{"bike_id":"fe75077d-42bf-43ae-8fa2-44109df3d40a","system_id":"levelo_inurba_marseille","lat":43.27203,"lon":5.39295,"is_reserved":false,"is_disabled":false,"rental_uris":{"android":"levelo://app?vid=fe75077d-42bf-43ae-8fa2-44109df3d40a","ios":"levelo://app?vid=fe75077d-42bf-43ae-8fa2-44109df3d40a"},"vehicle_type_id":"4","last_reported":1699794404,"current_range_meters":15200,"station_id":"","pricing_plan_id":"free"},{"bike_id":"58429e31-0546-4eba-8c2f-f1ea9b354284","system_id":"levelo_inurba_marseille","lat":43.278128,"lon":5.407195,"is_reserved":false,"is_disabled":false,"rental_uris":{"android":"levelo://app?vid=58429e31-0546-4eba-8c2f-f1ea9b354284","ios":"levelo://app?vid=58429e31-0546-4eba-8c2f-f1ea9b354284"},"vehicle_type_id":"4","last_reported":1699794404,"current_range_meters":27200,"station_id":"ce4bhnh2rcd13ifvqgtg","pricing_plan_id":"free"},{"bike_id":"bf1dd359-b8f9-414e-9634-f68f13630868","system_id":"levelo_inurba_marseille","lat":43.278128,"lon":5.407195,"is_reserved":false,"is_disabled":false,"rental_uris":{"android":"levelo://app?vid=bf1dd359-b8f9-414e-9634-f68f13630868","ios":"levelo://app?vid=bf1dd359-b8f9-414e-9634-f68f13630868"},"vehicle_type_id":"4","last_reported":1699794404,"current_range_meters":29600,"station_id":"ce4bhnh2rcd13ifvqgtg","pricing_plan_id":"free"},{"bike_id":"ace89f09-1527-4482-9ea6-69814e24f03b","system_id":"levelo_inurba_marseille","lat":43.279465,"lon":5.410561,"is_reserved":false,"is_disabled":false,"rental_uris":{"android":"levelo://app?vid=ace89f09-1527-4482-9ea6-69814e24f03b","ios":"levelo://app?vid=ace89f09-1527-4482-9ea6-69814e24f03b"},"vehicle_type_id":"4","last_reported":1699794404,"current_range_meters":18400,"station_id":"ce4bhnp2rcd13ifvqh0g","pricing_plan_id":"free"},{"bike_id":"8368ca40-ca1d-461f-bb39-a46849fc9486","system_id":"levelo_inurba_marseille","lat":43.26557,"lon":5.37286,"is_reserved":false,"is_disabled":false,"rental_uris":{"android":"levelo://app?vid=8368ca40-ca1d-461f-bb39-a46849fc9486","ios":"levelo://app?vid=8368ca40-ca1d-461f-bb39-a46849fc9486"},"vehicle_type_id":"4","last_reported":1699794404,"current_range_meters":16400,"station_id":"ce4bhg12rcd13ifvqf70","pricing_plan_id":"free"},{"bike_id":"965aef9a-2810-4def-bb63-13b3871b7363","system_id":"levelo_inurba_marseille","lat":43.26555,"lon":5.37283,"is_reserved":false,"is_disabled":false,"rental_uris":{"android":"levelo://app?vid=965aef9a-2810-4def-bb63-13b3871b7363","ios":"levelo://app?vid=965aef9a-2810-4def-bb63-13b3871b7363"},"vehicle_type_id":"4","last_reported":1699794404,"current_range_meters":20000,"station_id":"ce4bhg12rcd13ifvqf70","pricing_plan_id":"free"},{"bike_id":"db31c98b-81e6-49fa-a8c6-6b97fce35ed7","system_id":"levelo_inurba_marseille","lat":43.26555,"lon":5.37285,"is_reserved":false,"is_disabled":false,"rental_uris":{"android":"levelo://app?vid=db31c98b-81e6-49fa-a8c6-6b97fce35ed7","ios":"levelo://app?vid=db31c98b-81e6-49fa-a8c6-6b97fce35ed7"},"vehicle_type_id":"4","last_reported":1699794404,"current_range_meters":0,"station_id":"ce4bhg12rcd13ifvqf70","pricing_plan_id":"free"},{"bike_id":"3859e88a-7044-48b7-be2e-9c1dee905348","system_id":"levelo_inurba_marseille","lat":43.26554,"lon":5.37278,"is_reserved":false,"is_disabled":false,"rental_uris":{"android":"levelo://app?vid=3859e88a-7044-48b7-be2e-9c1dee905348","ios":"levelo://app?vid=3859e88a-7044-48b7-be2e-9c1dee905348"},"vehicle_type_id":"4","last_reported":1699794404,"current_range_meters":7600,"station_id":"ce4bhg12rcd13ifvqf70","pricing_plan_id":"free"},{"bike_id":"af8ba5d9-fc0a-4d13-a9d0-4725c2c1b8f1","system_id":"levelo_inurba_marseille","lat":43.26554,"lon":5.37281,"is_reserved":false,"is_disabled":false,"rental_uris":{"android":"levelo://app?vid=af8ba5d9-fc0a-4d13-a9d0-4725c2c1b8f1","ios":"levelo://app?vid=af8ba5d9-fc0a-4d13-a9d0-4725c2c1b8f1"},"vehicle_type_id":"4","last_reported":1699794404,"current_range_meters":6400,"station_id":"ce4bhg12rcd13ifvqf70","pricing_plan_id":"free"},{"bike_id":"973902a2-71a2-40c3-910c-b27eb973d535","system_id":"levelo_inurba_marseille","lat":43.26554,"lon":5.37283,"is_reserved":false,"is_disabled":false,"rental_uris":{"android":"levelo://app?vid=973902a2-71a2-40c3-910c-b27eb973d535","ios":"levelo://app?vid=973902a2-71a2-40c3-910c-b27eb973d535"},"vehicle_type_id":"4","last_reported":1699794404,"current_range_meters":25200,"station_id":"ce4bhg12rcd13ifvqf70","pricing_plan_id":"free"},{"bike_id":"8d290e40-9049-48e9-a09e-708276147d4f","system_id":"levelo_inurba_marseille","lat":43.26554,"lon":5.37285,"is_reserved":false,"is_disabled":false,"rental_uris":{"android":"levelo://app?vid=8d290e40-9049-48e9-a09e-708276147d4f","ios":"levelo://app?vid=8d290e40-9049-48e9-a09e-708276147d4f"},"vehicle_type_id":"4","last_reported":1699794404,"current_range_meters":4400,"station_id":"ce4bhg12rcd13ifvqf70","pricing_plan_id":"free"},{"bike_id":"3b111d8e-5143-4ffe-bb6f-c26ad07f679c","system_id":"levelo_inurba_marseille","lat":43.27996,"lon":5.416624,"is_reserved":false,"is_disabled":false,"rental_uris":{"android":"levelo://app?vid=3b111d8e-5143-4ffe-bb6f-c26ad07f679c","ios":"levelo://app?vid=3b111d8e-5143-4ffe-bb6f-c26ad07f679c"},"vehicle_type_id":"4","last_reported":1699794404,"current_range_meters":0,"station_id":"ce4bho12rcd13ifvqh1g","pricing_plan_id":"free"},{"bike_id":"a904936c-4d64-4073-a3f3-ec2f8c8edf43","system_id":"levelo_inurba_marseille","lat":43.27996,"lon":5.416624,"is_reserved":false,"is_disabled":false,"rental_uris":{"android":"levelo://app?vid=a904936c-4d64-4073-a3f3-ec2f8c8edf43","ios":"levelo://app?vid=a904936c-4d64-4073-a3f3-ec2f8c8edf43"},"vehicle_type_id":"4","last_reported":1699794404,"current_range_meters":29200,"station_id":"ce4bho12rcd13ifvqh1g","pricing_plan_id":"free"},{"bike_id":"b0ffcc22-c459-4c70-8742-16a022183b9b","system_id":"levelo_inurba_marseille","lat":43.267966,"lon":5.393976,"is_reserved":false,"is_disabled":false,"rental_uris":{"android":"levelo://app?vid=b0ffcc22-c459-4c70-8742-16a022183b9b","ios":"levelo://app?vid=b0ffcc22-c459-4c70-8742-16a022183b9b"},"vehicle_type_id":"4","last_reported":1699794404,"current_range_meters":3600,"station_id":"ce4bhh12rcd13ifvqfg0","pricing_plan_id":"free"},{"bike_id":"aa0d65d6-fe29-40de-bda4-b6707bcd53ef","system_id":"levelo_inurba_marseille","lat":43.30791,"lon":5.43512,"is_reserved":false,"is_disabled":false,"rental_uris":{"android":"levelo://app?vid=aa0d65d6-fe29-40de-bda4-b6707bcd53ef","ios":"levelo://app?vid=aa0d65d6-fe29-40de-bda4-b6707bcd53ef"},"vehicle_type_id":"4","last_reported":1699794404,"current_range_meters":29600,"station_id":"ce4bhph2rcd13ifvqheg","pricing_plan_id":"free"},{"bike_id":"f39776f8-e338-4e5d-8296-2a44b065e822","system_id":"levelo_inurba_marseille","lat":43.30794,"lon":5.43516,"is_reserved":false,"is_disabled":false,"rental_uris":{"android":"levelo://app?vid=f39776f8-e338-4e5d-8296-2a44b065e822","ios":"levelo://app?vid=f39776f8-e338-4e5d-8296-2a44b065e822"},"vehicle_type_id":"4","last_reported":1699794404,"current_range_meters":31200,"station_id":"ce4bhph2rcd13ifvqheg","pricing_plan_id":"free"},{"bike_id":"033771a6-1055-48d2-9826-6454c9f5b3f7","system_id":"levelo_inurba_marseille","lat":43.308,"lon":5.43522,"is_reserved":false,"is_disabled":false,"rental_uris":{"android":"levelo://app?vid=033771a6-1055-48d2-9826-6454c9f5b3f7","ios":"levelo://app?vid=033771a6-1055-48d2-9826-6454c9f5b3f7"},"vehicle_type_id":"4","last_reported":1699794404,"current_range_meters":1200,"station_id":"ce4bhph2rcd13ifvqheg","pricing_plan_id":"free"},{"bike_id":"575ca992-e936-4074-b7c6-852b3c666dc2","system_id":"levelo_inurba_marseille","lat":43.308051,"lon":5.43527,"is_reserved":false,"is_disabled":false,"rental_uris":{"android":"levelo://app?vid=575ca992-e936-4074-b7c6-852b3c666dc2","ios":"levelo://app?vid=575ca992-e936-4074-b7c6-852b3c666dc2"},"vehicle_type_id":"4","last_reported":1699794404,"current_range_meters":31200,"station_id":"ce4bhph2rcd13ifvqheg","pricing_plan_id":"free"},{"bike_id":"4f955f48-a170-4081-94e3-454cc8e42144","system_id":"levelo_inurba_marseille","lat":43.26943,"lon":5.40242,"is_reserved":false,"is_disabled":false,"rental_uris":{"android":"levelo://app?vid=4f955f48-a170-4081-94e3-454cc8e42144","ios":"levelo://app?vid=4f955f48-a170-4081-94e3-454cc8e42144"},"vehicle_type_id":"4","last_reported":1699794404,"current_range_meters":0,"station_id":"cjm6bp8fraef2m0cb0m0","pricing_plan_id":"free"},{"bike_id":"00aae6e7-4410-4a00-a9a2-3c297ce4ecf2","system_id":"levelo_inurba_marseille","lat":43.26938,"lon":5.40256,"is_reserved":false,"is_disabled":false,"rental_uris":{"android":"levelo://app?vid=00aae6e7-4410-4a00-a9a2-3c297ce4ecf2","ios":"levelo://app?vid=00aae6e7-4410-4a00-a9a2-3c297ce4ecf2"},"vehicle_type_id":"4","last_reported":1699794404,"current_range_meters":29600,"station_id":"cjm6bp8fraef2m0cb0m0","pricing_plan_id":"free"},{"bike_id":"2aa6c4b1-a67d-43b7-9eb1-fe5b5bec91bf","system_id":"levelo_inurba_marseille","lat":43.32903,"lon":5.43282,"is_reserved":false,"is_disabled":false,"rental_uris":{"android":"levelo://app?vid=2aa6c4b1-a67d-43b7-9eb1-fe5b5bec91bf","ios":"levelo://app?vid=2aa6c4b1-a67d-43b7-9eb1-fe5b5bec91bf"},"vehicle_type_id":"4","last_reported":1699794404,"current_range_meters":9600,"station_id":"","pricing_plan_id":"free"},{"bike_id":"58a62f2d-fe24-4d88-b565-2b21b3780f0a","system_id":"levelo_inurba_marseille","lat":43.317104,"lon":5.436818,"is_reserved":false,"is_disabled":false,"rental_uris":{"android":"levelo://app?vid=58a62f2d-fe24-4d88-b565-2b21b3780f0a","ios":"levelo://app?vid=58a62f2d-fe24-4d88-b565-2b21b3780f0a"},"vehicle_type_id":"4","last_reported":1699794404,"current_range_meters":23600,"station_id":"ce4bhp92rcd13ifvqhcg","pricing_plan_id":"free"},{"bike_id":"22492093-95e0-4f36-b720-4f8575177dac","system_id":"levelo_inurba_marseille","lat":43.26207,"lon":5.37927,"is_reserved":false,"is_disabled":false,"rental_uris":{"android":"levelo://app?vid=22492093-95e0-4f36-b720-4f8575177dac","ios":"levelo://app?vid=22492093-95e0-4f36-b720-4f8575177dac"},"vehicle_type_id":"4","last_reported":1699794404,"current_range_meters":14000,"station_id":"ce4bhjp2rcd13ifvqg90","pricing_plan_id":"free"},{"bike_id":"85583682-7dc6-48bc-b036-b295167ef8e9","system_id":"levelo_inurba_marseille","lat":43.271388,"lon":5.409269,"is_reserved":false,"is_disabled":false,"rental_uris":{"android":"levelo://app?vid=85583682-7dc6-48bc-b036-b295167ef8e9","ios":"levelo://app?vid=85583682-7dc6-48bc-b036-b295167ef8e9"},"vehicle_type_id":"4","last_reported":1699794404,"current_range_meters":26000,"station_id":"ce4bhl12rcd13ifvqgf0","pricing_plan_id":"free"},{"bike_id":"f6f6a639-1af0-4edb-b3f5-82dc3b531ce5","system_id":"levelo_inurba_marseille","lat":43.26202,"lon":5.379299,"is_reserved":false,"is_disabled":false,"rental_uris":{"android":"levelo://app?vid=f6f6a639-1af0-4edb-b3f5-82dc3b531ce5","ios":"levelo://app?vid=f6f6a639-1af0-4edb-b3f5-82dc3b531ce5"},"vehicle_type_id":"4","last_reported":1699794404,"current_range_meters":17200,"station_id":"ce4bhjp2rcd13ifvqg90","pricing_plan_id":"free"},{"bike_id":"7bdf49f6-e8f5-4cec-96f9-e01c6b09627a","system_id":"levelo_inurba_marseille","lat":43.262012,"lon":5.379307,"is_reserved":false,"is_disabled":false,"rental_uris":{"android":"levelo://app?vid=7bdf49f6-e8f5-4cec-96f9-e01c6b09627a","ios":"levelo://app?vid=7bdf49f6-e8f5-4cec-96f9-e01c6b09627a"},"vehicle_type_id":"4","last_reported":1699794404,"current_range_meters":31200,"station_id":"ce4bhjp2rcd13ifvqg90","pricing_plan_id":"free"},{"bike_id":"d5416445-e25e-48ab-bddf-416f241e9145","system_id":"levelo_inurba_marseille","lat":43.267959,"lon":5.402687,"is_reserved":false,"is_disabled":false,"rental_uris":{"android":"levelo://app?vid=d5416445-e25e-48ab-bddf-416f241e9145","ios":"levelo://app?vid=d5416445-e25e-48ab-bddf-416f241e9145"},"vehicle_type_id":"4","last_reported":1699794404,"current_range_meters":25600,"station_id":"ce501612rcd8frsf0b60","pricing_plan_id":"free"},{"bike_id":"d062335d-35a1-41d8-a8a5-ad94e3065838","system_id":"levelo_inurba_marseille","lat":43.298768,"lon":5.43643,"is_reserved":false,"is_disabled":false,"rental_uris":{"android":"levelo://app?vid=d062335d-35a1-41d8-a8a5-ad94e3065838","ios":"levelo://app?vid=d062335d-35a1-41d8-a8a5-ad94e3065838"},"vehicle_type_id":"4","last_reported":1699794404,"current_range_meters":28400,"station_id":"ce4bhpp2rcd13ifvqhfg","pricing_plan_id":"free"},{"bike_id":"015f3fd7-ae03-4eb3-88df-e171217ea5b7","system_id":"levelo_inurba_marseille","lat":43.298768,"lon":5.43643,"is_reserved":false,"is_disabled":false,"rental_uris":{"android":"levelo://app?vid=015f3fd7-ae03-4eb3-88df-e171217ea5b7","ios":"levelo://app?vid=015f3fd7-ae03-4eb3-88df-e171217ea5b7"},"vehicle_type_id":"4","last_reported":1699794404,"current_range_meters":5600,"station_id":"ce4bhpp2rcd13ifvqhfg","pricing_plan_id":"free"},{"bike_id":"657cc6c7-3653-4d62-98b8-5b5446de2340","system_id":"levelo_inurba_marseille","lat":43.298768,"lon":5.43643,"is_reserved":false,"is_disabled":false,"rental_uris":{"android":"levelo://app?vid=657cc6c7-3653-4d62-98b8-5b5446de2340","ios":"levelo://app?vid=657cc6c7-3653-4d62-98b8-5b5446de2340"},"vehicle_type_id":"4","last_reported":1699794404,"current_range_meters":31200,"station_id":"ce4bhpp2rcd13ifvqhfg","pricing_plan_id":"free"},{"bike_id":"78f8d19b-d8c0-4b3f-be41-0d781e66c78d","system_id":"levelo_inurba_marseille","lat":43.298768,"lon":5.43643,"is_reserved":false,"is_disabled":false,"rental_uris":{"android":"levelo://app?vid=78f8d19b-d8c0-4b3f-be41-0d781e66c78d","ios":"levelo://app?vid=78f8d19b-d8c0-4b3f-be41-0d781e66c78d"},"vehicle_type_id":"4","last_reported":1699794404,"current_range_meters":30000,"station_id":"ce4bhpp2rcd13ifvqhfg","pricing_plan_id":"free"},{"bike_id":"17bcdcc3-d165-4841-b843-f26e9af79cfd","system_id":"levelo_inurba_marseille","lat":43.260219,"lon":5.37546,"is_reserved":false,"is_disabled":false,"rental_uris":{"android":"levelo://app?vid=17bcdcc3-d165-4841-b843-f26e9af79cfd","ios":"levelo://app?vid=17bcdcc3-d165-4841-b843-f26e9af79cfd"},"vehicle_type_id":"4","last_reported":1699794404,"current_range_meters":4800,"station_id":"ce4bhgh2rcd13ifvqfa0","pricing_plan_id":"free"},{"bike_id":"4f6880f4-3164-4fc2-9cf7-3c1358040f10","system_id":"levelo_inurba_marseille","lat":43.290501,"lon":5.433305,"is_reserved":false,"is_disabled":false,"rental_uris":{"android":"levelo://app?vid=4f6880f4-3164-4fc2-9cf7-3c1358040f10","ios":"levelo://app?vid=4f6880f4-3164-4fc2-9cf7-3c1358040f10"},"vehicle_type_id":"4","last_reported":1699794404,"current_range_meters":15600,"station_id":"","pricing_plan_id":"free"},{"bike_id":"36c987c0-f24d-4ba9-8775-bb8cd20b74ec","system_id":"levelo_inurba_marseille","lat":43.28152,"lon":5.42642,"is_reserved":false,"is_disabled":false,"rental_uris":{"android":"levelo://app?vid=36c987c0-f24d-4ba9-8775-bb8cd20b74ec","ios":"levelo://app?vid=36c987c0-f24d-4ba9-8775-bb8cd20b74ec"},"vehicle_type_id":"4","last_reported":1699794404,"current_range_meters":29600,"station_id":"ce4bhnh2rcd13ifvqgug","pricing_plan_id":"free"},{"bike_id":"ff4a3ae8-7df0-4156-acb9-cb93676049e7","system_id":"levelo_inurba_marseille","lat":43.2607,"lon":5.393983,"is_reserved":false,"is_disabled":false,"rental_uris":{"android":"levelo://app?vid=ff4a3ae8-7df0-4156-acb9-cb93676049e7","ios":"levelo://app?vid=ff4a3ae8-7df0-4156-acb9-cb93676049e7"},"vehicle_type_id":"4","last_reported":1699794404,"current_range_meters":24400,"station_id":"ce4bhh92rcd13ifvqfj0","pricing_plan_id":"free"},{"bike_id":"9f987af4-4824-47b1-9977-ae7bd154b431","system_id":"levelo_inurba_marseille","lat":43.270721,"lon":5.422764,"is_reserved":false,"is_disabled":false,"rental_uris":{"android":"levelo://app?vid=9f987af4-4824-47b1-9977-ae7bd154b431","ios":"levelo://app?vid=9f987af4-4824-47b1-9977-ae7bd154b431"},"vehicle_type_id":"4","last_reported":1699794404,"current_range_meters":4400,"station_id":"ce4bhk92rcd13ifvqgb0","pricing_plan_id":"free"},{"bike_id":"7929fe62-478b-45ed-a32f-4cee63794674","system_id":"levelo_inurba_marseille","lat":43.275005,"lon":5.424511,"is_reserved":false,"is_disabled":false,"rental_uris":{"android":"levelo://app?vid=7929fe62-478b-45ed-a32f-4cee63794674","ios":"levelo://app?vid=7929fe62-478b-45ed-a32f-4cee63794674"},"vehicle_type_id":"4","last_reported":1699794404,"current_range_meters":13600,"station_id":"","pricing_plan_id":"free"},{"bike_id":"51e88ddb-4d8a-4bed-a29d-ab8f886c138a","system_id":"levelo_inurba_marseille","lat":43.26084,"lon":5.39769,"is_reserved":false,"is_disabled":false,"rental_uris":{"android":"levelo://app?vid=51e88ddb-4d8a-4bed-a29d-ab8f886c138a","ios":"levelo://app?vid=51e88ddb-4d8a-4bed-a29d-ab8f886c138a"},"vehicle_type_id":"4","last_reported":1699794404,"current_range_meters":23600,"station_id":"ce4bhi12rcd13ifvqfq0","pricing_plan_id":"free"},{"bike_id":"6ba3e0aa-3319-451e-9b7a-596e92607b58","system_id":"levelo_inurba_marseille","lat":43.260909,"lon":5.397591,"is_reserved":false,"is_disabled":false,"rental_uris":{"android":"levelo://app?vid=6ba3e0aa-3319-451e-9b7a-596e92607b58","ios":"levelo://app?vid=6ba3e0aa-3319-451e-9b7a-596e92607b58"},"vehicle_type_id":"4","last_reported":1699794404,"current_range_meters":2400,"station_id":"ce4bhi12rcd13ifvqfq0","pricing_plan_id":"free"},{"bike_id":"76ff0c4b-dff1-4078-90ad-568ce5a9eace","system_id":"levelo_inurba_marseille","lat":43.25827,"lon":5.39426,"is_reserved":false,"is_disabled":false,"rental_uris":{"android":"levelo://app?vid=76ff0c4b-dff1-4078-90ad-568ce5a9eace","ios":"levelo://app?vid=76ff0c4b-dff1-4078-90ad-568ce5a9eace"},"vehicle_type_id":"4","last_reported":1699794404,"current_range_meters":21600,"station_id":"ce4bhip2rcd13ifvqft0","pricing_plan_id":"free"},{"bike_id":"a27b0c22-65e6-4fb7-b538-aa39aaccf6c6","system_id":"levelo_inurba_marseille","lat":43.25581,"lon":5.38227,"is_reserved":false,"is_disabled":false,"rental_uris":{"android":"levelo://app?vid=a27b0c22-65e6-4fb7-b538-aa39aaccf6c6","ios":"levelo://app?vid=a27b0c22-65e6-4fb7-b538-aa39aaccf6c6"},"vehicle_type_id":"4","last_reported":1699794404,"current_range_meters":16400,"station_id":"ce4bhih2rcd13ifvqfs0","pricing_plan_id":"free"},{"bike_id":"508a0ba1-e685-4cba-b72b-303fc503cb05","system_id":"levelo_inurba_marseille","lat":43.25576,"lon":5.38234,"is_reserved":false,"is_disabled":false,"rental_uris":{"android":"levelo://app?vid=508a0ba1-e685-4cba-b72b-303fc503cb05","ios":"levelo://app?vid=508a0ba1-e685-4cba-b72b-303fc503cb05"},"vehicle_type_id":"4","last_reported":1699794404,"current_range_meters":23200,"station_id":"ce4bhih2rcd13ifvqfs0","pricing_plan_id":"free"},{"bike_id":"a39f15c1-afa4-4d62-a571-b6804d93bf06","system_id":"levelo_inurba_marseille","lat":43.255765,"lon":5.382388,"is_reserved":false,"is_disabled":false,"rental_uris":{"android":"levelo://app?vid=a39f15c1-afa4-4d62-a571-b6804d93bf06","ios":"levelo://app?vid=a39f15c1-afa4-4d62-a571-b6804d93bf06"},"vehicle_type_id":"4","last_reported":1699794404,"current_range_meters":27600,"station_id":"ce4bhih2rcd13ifvqfs0","pricing_plan_id":"free"},{"bike_id":"45acd77e-afde-4b7a-a71e-51d3a2fe1784","system_id":"levelo_inurba_marseille","lat":43.258224,"lon":5.394369,"is_reserved":false,"is_disabled":false,"rental_uris":{"android":"levelo://app?vid=45acd77e-afde-4b7a-a71e-51d3a2fe1784","ios":"levelo://app?vid=45acd77e-afde-4b7a-a71e-51d3a2fe1784"},"vehicle_type_id":"4","last_reported":1699794404,"current_range_meters":22000,"station_id":"ce4bhip2rcd13ifvqft0","pricing_plan_id":"free"},{"bike_id":"7501aa6d-2012-4039-8887-0fa50e088b7e","system_id":"levelo_inurba_marseille","lat":43.254947,"lon":5.376454,"is_reserved":false,"is_disabled":false,"rental_uris":{"android":"levelo://app?vid=7501aa6d-2012-4039-8887-0fa50e088b7e","ios":"levelo://app?vid=7501aa6d-2012-4039-8887-0fa50e088b7e"},"vehicle_type_id":"4","last_reported":1699794404,"current_range_meters":22400,"station_id":"ce4bhh12rcd13ifvqff0","pricing_plan_id":"free"},{"bike_id":"b01f6954-e482-4835-b8cf-060c9942057e","system_id":"levelo_inurba_marseille","lat":43.255019,"lon":5.376505,"is_reserved":false,"is_disabled":false,"rental_uris":{"android":"levelo://app?vid=b01f6954-e482-4835-b8cf-060c9942057e","ios":"levelo://app?vid=b01f6954-e482-4835-b8cf-060c9942057e"},"vehicle_type_id":"4","last_reported":1699794404,"current_range_meters":26000,"station_id":"ce4bhh12rcd13ifvqff0","pricing_plan_id":"free"},{"bike_id":"55a76b94-ce35-4034-ac65-667f8daa92b0","system_id":"levelo_inurba_marseille","lat":43.255015,"lon":5.376501,"is_reserved":false,"is_disabled":false,"rental_uris":{"android":"levelo://app?vid=55a76b94-ce35-4034-ac65-667f8daa92b0","ios":"levelo://app?vid=55a76b94-ce35-4034-ac65-667f8daa92b0"},"vehicle_type_id":"4","last_reported":1699794404,"current_range_meters":16800,"station_id":"ce4bhh12rcd13ifvqff0","pricing_plan_id":"free"},{"bike_id":"d1be4948-3db8-46c6-a0e9-4eb9877553a6","system_id":"levelo_inurba_marseille","lat":43.254966,"lon":5.376498,"is_reserved":false,"is_disabled":false,"rental_uris":{"android":"levelo://app?vid=d1be4948-3db8-46c6-a0e9-4eb9877553a6","ios":"levelo://app?vid=d1be4948-3db8-46c6-a0e9-4eb9877553a6"},"vehicle_type_id":"4","last_reported":1699794404,"current_range_meters":19600,"station_id":"ce4bhh12rcd13ifvqff0","pricing_plan_id":"free"},{"bike_id":"c704f04b-5db2-4b51-925a-a130f0d1ebc9","system_id":"levelo_inurba_marseille","lat":43.254959,"lon":5.376495,"is_reserved":false,"is_disabled":false,"rental_uris":{"android":"levelo://app?vid=c704f04b-5db2-4b51-925a-a130f0d1ebc9","ios":"levelo://app?vid=c704f04b-5db2-4b51-925a-a130f0d1ebc9"},"vehicle_type_id":"4","last_reported":1699794404,"current_range_meters":21200,"station_id":"ce4bhh12rcd13ifvqff0","pricing_plan_id":"free"},{"bike_id":"f2406037-d208-4907-b7f2-9de04cd4fcb9","system_id":"levelo_inurba_marseille","lat":43.254958,"lon":5.376495,"is_reserved":false,"is_disabled":false,"rental_uris":{"android":"levelo://app?vid=f2406037-d208-4907-b7f2-9de04cd4fcb9","ios":"levelo://app?vid=f2406037-d208-4907-b7f2-9de04cd4fcb9"},"vehicle_type_id":"4","last_reported":1699794404,"current_range_meters":24400,"station_id":"ce4bhh12rcd13ifvqff0","pricing_plan_id":"free"},{"bike_id":"463ab059-2b76-480e-b44b-d83a85223abe","system_id":"levelo_inurba_marseille","lat":43.254957,"lon":5.376495,"is_reserved":false,"is_disabled":false,"rental_uris":{"android":"levelo://app?vid=463ab059-2b76-480e-b44b-d83a85223abe","ios":"levelo://app?vid=463ab059-2b76-480e-b44b-d83a85223abe"},"vehicle_type_id":"4","last_reported":1699794404,"current_range_meters":29600,"station_id":"ce4bhh12rcd13ifvqff0","pricing_plan_id":"free"},{"bike_id":"f2f05f60-b576-440f-b9b4-7a9fa9006b8b","system_id":"levelo_inurba_marseille","lat":43.254956,"lon":5.376495,"is_reserved":false,"is_disabled":false,"rental_uris":{"android":"levelo://app?vid=f2f05f60-b576-440f-b9b4-7a9fa9006b8b","ios":"levelo://app?vid=f2f05f60-b576-440f-b9b4-7a9fa9006b8b"},"vehicle_type_id":"4","last_reported":1699794404,"current_range_meters":5200,"station_id":"ce4bhh12rcd13ifvqff0","pricing_plan_id":"free"},{"bike_id":"50d0f3a2-774a-419a-a728-12f0519cd5eb","system_id":"levelo_inurba_marseille","lat":43.254949,"lon":5.376497,"is_reserved":false,"is_disabled":false,"rental_uris":{"android":"levelo://app?vid=50d0f3a2-774a-419a-a728-12f0519cd5eb","ios":"levelo://app?vid=50d0f3a2-774a-419a-a728-12f0519cd5eb"},"vehicle_type_id":"4","last_reported":1699794404,"current_range_meters":20000,"station_id":"ce4bhh12rcd13ifvqff0","pricing_plan_id":"free"},{"bike_id":"3e9c7dae-3dcf-4dea-9ce0-479bb12ea036","system_id":"levelo_inurba_marseille","lat":43.25493,"lon":5.37645,"is_reserved":false,"is_disabled":false,"rental_uris":{"android":"levelo://app?vid=3e9c7dae-3dcf-4dea-9ce0-479bb12ea036","ios":"levelo://app?vid=3e9c7dae-3dcf-4dea-9ce0-479bb12ea036"},"vehicle_type_id":"4","last_reported":1699794404,"current_range_meters":19600,"station_id":"ce4bhh12rcd13ifvqff0","pricing_plan_id":"free"},{"bike_id":"ced0c5ea-1934-43b2-855f-4e71b5c63dca","system_id":"levelo_inurba_marseille","lat":43.25493,"lon":5.3765,"is_reserved":false,"is_disabled":false,"rental_uris":{"android":"levelo://app?vid=ced0c5ea-1934-43b2-855f-4e71b5c63dca","ios":"levelo://app?vid=ced0c5ea-1934-43b2-855f-4e71b5c63dca"},"vehicle_type_id":"4","last_reported":1699794404,"current_range_meters":16000,"station_id":"ce4bhh12rcd13ifvqff0","pricing_plan_id":"free"},{"bike_id":"5076d8c4-b37c-4025-a6dd-cd62e05e52c9","system_id":"levelo_inurba_marseille","lat":43.270721,"lon":5.422764,"is_reserved":false,"is_disabled":false,"rental_uris":{"android":"levelo://app?vid=5076d8c4-b37c-4025-a6dd-cd62e05e52c9","ios":"levelo://app?vid=5076d8c4-b37c-4025-a6dd-cd62e05e52c9"},"vehicle_type_id":"4","last_reported":1699794404,"current_range_meters":31600,"station_id":"ce4bhk92rcd13ifvqgb0","pricing_plan_id":"free"},{"bike_id":"494f6119-a550-4ccb-b51f-db8e05f46b7a","system_id":"levelo_inurba_marseille","lat":43.270721,"lon":5.422764,"is_reserved":false,"is_disabled":false,"rental_uris":{"android":"levelo://app?vid=494f6119-a550-4ccb-b51f-db8e05f46b7a","ios":"levelo://app?vid=494f6119-a550-4ccb-b51f-db8e05f46b7a"},"vehicle_type_id":"4","last_reported":1699794404,"current_range_meters":9600,"station_id":"ce4bhk92rcd13ifvqgb0","pricing_plan_id":"free"},{"bike_id":"aadb1232-affd-4fd1-a8f2-39e33eb94abd","system_id":"levelo_inurba_marseille","lat":43.258658,"lon":5.398935,"is_reserved":false,"is_disabled":false,"rental_uris":{"android":"levelo://app?vid=aadb1232-affd-4fd1-a8f2-39e33eb94abd","ios":"levelo://app?vid=aadb1232-affd-4fd1-a8f2-39e33eb94abd"},"vehicle_type_id":"4","last_reported":1699794404,"current_range_meters":27200,"station_id":"ce4bhl92rcd13ifvqghg","pricing_plan_id":"free"},{"bike_id":"e5238e36-ca98-4800-8ebc-58089b72c1ef","system_id":"levelo_inurba_marseille","lat":43.259319,"lon":5.409071,"is_reserved":false,"is_disabled":false,"rental_uris":{"android":"levelo://app?vid=e5238e36-ca98-4800-8ebc-58089b72c1ef","ios":"levelo://app?vid=e5238e36-ca98-4800-8ebc-58089b72c1ef"},"vehicle_type_id":"4","last_reported":1699794404,"current_range_meters":0,"station_id":"ce4bhm92rcd13ifvqglg","pricing_plan_id":"free"},{"bike_id":"57250aa3-cb48-4dd3-a36a-7cac9deab14b","system_id":"levelo_inurba_marseille","lat":43.25931,"lon":5.40909,"is_reserved":false,"is_disabled":false,"rental_uris":{"android":"levelo://app?vid=57250aa3-cb48-4dd3-a36a-7cac9deab14b","ios":"levelo://app?vid=57250aa3-cb48-4dd3-a36a-7cac9deab14b"},"vehicle_type_id":"4","last_reported":1699794404,"current_range_meters":24000,"station_id":"ce4bhm92rcd13ifvqglg","pricing_plan_id":"free"},{"bike_id":"2fb2aebe-f112-46ad-b4f5-c1193bc7f017","system_id":"levelo_inurba_marseille","lat":43.250966,"lon":5.395186,"is_reserved":false,"is_disabled":false,"rental_uris":{"android":"levelo://app?vid=2fb2aebe-f112-46ad-b4f5-c1193bc7f017","ios":"levelo://app?vid=2fb2aebe-f112-46ad-b4f5-c1193bc7f017"},"vehicle_type_id":"4","last_reported":1699794404,"current_range_meters":15200,"station_id":"ce4bhm12rcd13ifvqgkg","pricing_plan_id":"free"},{"bike_id":"ea43ccb7-b181-48d8-8dfe-7c354c75f184","system_id":"levelo_inurba_marseille","lat":43.257079,"lon":5.411051,"is_reserved":false,"is_disabled":false,"rental_uris":{"android":"levelo://app?vid=ea43ccb7-b181-48d8-8dfe-7c354c75f184","ios":"levelo://app?vid=ea43ccb7-b181-48d8-8dfe-7c354c75f184"},"vehicle_type_id":"4","last_reported":1699794404,"current_range_meters":14800,"station_id":"ce4bhkp2rcd13ifvqgd0","pricing_plan_id":"free"},{"bike_id":"8d9c55a3-3fdf-4681-a554-c29f1b6456af","system_id":"levelo_inurba_marseille","lat":43.257079,"lon":5.411051,"is_reserved":false,"is_disabled":false,"rental_uris":{"android":"levelo://app?vid=8d9c55a3-3fdf-4681-a554-c29f1b6456af","ios":"levelo://app?vid=8d9c55a3-3fdf-4681-a554-c29f1b6456af"},"vehicle_type_id":"4","last_reported":1699794404,"current_range_meters":26000,"station_id":"ce4bhkp2rcd13ifvqgd0","pricing_plan_id":"free"},{"bike_id":"206561c9-8058-4415-980a-54bc057f418a","system_id":"levelo_inurba_marseille","lat":43.250009,"lon":5.389195,"is_reserved":false,"is_disabled":false,"rental_uris":{"android":"levelo://app?vid=206561c9-8058-4415-980a-54bc057f418a","ios":"levelo://app?vid=206561c9-8058-4415-980a-54bc057f418a"},"vehicle_type_id":"4","last_reported":1699794404,"current_range_meters":18000,"station_id":"ce4bhgp2rcd13ifvqfd0","pricing_plan_id":"free"},{"bike_id":"aa60279b-75bb-4263-a01f-df95dabf9a99","system_id":"levelo_inurba_marseille","lat":43.250009,"lon":5.389195,"is_reserved":false,"is_disabled":false,"rental_uris":{"android":"levelo://app?vid=aa60279b-75bb-4263-a01f-df95dabf9a99","ios":"levelo://app?vid=aa60279b-75bb-4263-a01f-df95dabf9a99"},"vehicle_type_id":"4","last_reported":1699794404,"current_range_meters":31200,"station_id":"ce4bhgp2rcd13ifvqfd0","pricing_plan_id":"free"},{"bike_id":"bd430713-1830-4807-bd86-6a3e7363efc7","system_id":"levelo_inurba_marseille","lat":43.2479,"lon":5.374457,"is_reserved":false,"is_disabled":false,"rental_uris":{"android":"levelo://app?vid=bd430713-1830-4807-bd86-6a3e7363efc7","ios":"levelo://app?vid=bd430713-1830-4807-bd86-6a3e7363efc7"},"vehicle_type_id":"4","last_reported":1699794404,"current_range_meters":4400,"station_id":"ce4bhgh2rcd13ifvqfb0","pricing_plan_id":"free"},{"bike_id":"bb636d8c-6752-4ef7-8b89-2069d93e2b6d","system_id":"levelo_inurba_marseille","lat":43.2479,"lon":5.374457,"is_reserved":false,"is_disabled":false,"rental_uris":{"android":"levelo://app?vid=bb636d8c-6752-4ef7-8b89-2069d93e2b6d","ios":"levelo://app?vid=bb636d8c-6752-4ef7-8b89-2069d93e2b6d"},"vehicle_type_id":"4","last_reported":1699794404,"current_range_meters":15600,"station_id":"ce4bhgh2rcd13ifvqfb0","pricing_plan_id":"free"},{"bike_id":"d7d040ee-2358-43e2-a30c-8eb4cd752522","system_id":"levelo_inurba_marseille","lat":43.2479,"lon":5.374457,"is_reserved":false,"is_disabled":false,"rental_uris":{"android":"levelo://app?vid=d7d040ee-2358-43e2-a30c-8eb4cd752522","ios":"levelo://app?vid=d7d040ee-2358-43e2-a30c-8eb4cd752522"},"vehicle_type_id":"4","last_reported":1699794404,"current_range_meters":20400,"station_id":"ce4bhgh2rcd13ifvqfb0","pricing_plan_id":"free"},{"bike_id":"c806e1d5-5a2f-44bb-9b85-40f7d750ee71","system_id":"levelo_inurba_marseille","lat":43.2479,"lon":5.374457,"is_reserved":false,"is_disabled":false,"rental_uris":{"android":"levelo://app?vid=c806e1d5-5a2f-44bb-9b85-40f7d750ee71","ios":"levelo://app?vid=c806e1d5-5a2f-44bb-9b85-40f7d750ee71"},"vehicle_type_id":"4","last_reported":1699794404,"current_range_meters":11200,"station_id":"ce4bhgh2rcd13ifvqfb0","pricing_plan_id":"free"},{"bike_id":"ba1c24ad-dd60-4123-a9fe-047dc26571fa","system_id":"levelo_inurba_marseille","lat":43.2479,"lon":5.374457,"is_reserved":false,"is_disabled":false,"rental_uris":{"android":"levelo://app?vid=ba1c24ad-dd60-4123-a9fe-047dc26571fa","ios":"levelo://app?vid=ba1c24ad-dd60-4123-a9fe-047dc26571fa"},"vehicle_type_id":"4","last_reported":1699794404,"current_range_meters":16000,"station_id":"ce4bhgh2rcd13ifvqfb0","pricing_plan_id":"free"},{"bike_id":"477fb6d7-6c79-494b-b66d-78db3e95ba64","system_id":"levelo_inurba_marseille","lat":43.2479,"lon":5.374457,"is_reserved":false,"is_disabled":false,"rental_uris":{"android":"levelo://app?vid=477fb6d7-6c79-494b-b66d-78db3e95ba64","ios":"levelo://app?vid=477fb6d7-6c79-494b-b66d-78db3e95ba64"},"vehicle_type_id":"4","last_reported":1699794404,"current_range_meters":31600,"station_id":"ce4bhgh2rcd13ifvqfb0","pricing_plan_id":"free"},{"bike_id":"acabc972-2849-4945-864b-a50d4ad4b9c4","system_id":"levelo_inurba_marseille","lat":43.2479,"lon":5.374457,"is_reserved":false,"is_disabled":false,"rental_uris":{"android":"levelo://app?vid=acabc972-2849-4945-864b-a50d4ad4b9c4","ios":"levelo://app?vid=acabc972-2849-4945-864b-a50d4ad4b9c4"},"vehicle_type_id":"4","last_reported":1699794404,"current_range_meters":30400,"station_id":"ce4bhgh2rcd13ifvqfb0","pricing_plan_id":"free"},{"bike_id":"68df231c-866d-4298-8b97-3660ec3bde9d","system_id":"levelo_inurba_marseille","lat":43.250966,"lon":5.395186,"is_reserved":false,"is_disabled":false,"rental_uris":{"android":"levelo://app?vid=68df231c-866d-4298-8b97-3660ec3bde9d","ios":"levelo://app?vid=68df231c-866d-4298-8b97-3660ec3bde9d"},"vehicle_type_id":"4","last_reported":1699794404,"current_range_meters":28800,"station_id":"ce4bhm12rcd13ifvqgkg","pricing_plan_id":"free"},{"bike_id":"50372e5b-d26e-4016-b8f3-8010c5a64528","system_id":"levelo_inurba_marseille","lat":43.24693,"lon":5.382096,"is_reserved":false,"is_disabled":false,"rental_uris":{"android":"levelo://app?vid=50372e5b-d26e-4016-b8f3-8010c5a64528","ios":"levelo://app?vid=50372e5b-d26e-4016-b8f3-8010c5a64528"},"vehicle_type_id":"4","last_reported":1699794404,"current_range_meters":6000,"station_id":"ce4bhih2rcd13ifvqfr0","pricing_plan_id":"free"},{"bike_id":"50cbb186-b4a1-438e-936d-9f33e41972c6","system_id":"levelo_inurba_marseille","lat":43.25102,"lon":5.403214,"is_reserved":false,"is_disabled":false,"rental_uris":{"android":"levelo://app?vid=50cbb186-b4a1-438e-936d-9f33e41972c6","ios":"levelo://app?vid=50cbb186-b4a1-438e-936d-9f33e41972c6"},"vehicle_type_id":"4","last_reported":1699794404,"current_range_meters":26000,"station_id":"ce4bhlh2rcd13ifvqgig","pricing_plan_id":"free"},{"bike_id":"cead3908-5d31-4aed-84b5-468bf58d4f52","system_id":"levelo_inurba_marseille","lat":43.25102,"lon":5.403214,"is_reserved":false,"is_disabled":false,"rental_uris":{"android":"levelo://app?vid=cead3908-5d31-4aed-84b5-468bf58d4f52","ios":"levelo://app?vid=cead3908-5d31-4aed-84b5-468bf58d4f52"},"vehicle_type_id":"4","last_reported":1699794404,"current_range_meters":22800,"station_id":"ce4bhlh2rcd13ifvqgig","pricing_plan_id":"free"},{"bike_id":"5071a626-df94-4287-8614-e1020a5ba3dc","system_id":"levelo_inurba_marseille","lat":43.246461,"lon":5.389014,"is_reserved":false,"is_disabled":false,"rental_uris":{"android":"levelo://app?vid=5071a626-df94-4287-8614-e1020a5ba3dc","ios":"levelo://app?vid=5071a626-df94-4287-8614-e1020a5ba3dc"},"vehicle_type_id":"4","last_reported":1699794404,"current_range_meters":22400,"station_id":"ce4bhg12rcd13ifvqf60","pricing_plan_id":"free"},{"bike_id":"08e86dcf-e678-409e-b5ca-7282f594029c","system_id":"levelo_inurba_marseille","lat":43.246461,"lon":5.389014,"is_reserved":false,"is_disabled":false,"rental_uris":{"android":"levelo://app?vid=08e86dcf-e678-409e-b5ca-7282f594029c","ios":"levelo://app?vid=08e86dcf-e678-409e-b5ca-7282f594029c"},"vehicle_type_id":"4","last_reported":1699794404,"current_range_meters":31600,"station_id":"ce4bhg12rcd13ifvqf60","pricing_plan_id":"free"},{"bike_id":"dd8bfdc2-9fcc-42d5-b912-a722c157cf82","system_id":"levelo_inurba_marseille","lat":43.24643,"lon":5.38885,"is_reserved":false,"is_disabled":false,"rental_uris":{"android":"levelo://app?vid=dd8bfdc2-9fcc-42d5-b912-a722c157cf82","ios":"levelo://app?vid=dd8bfdc2-9fcc-42d5-b912-a722c157cf82"},"vehicle_type_id":"4","last_reported":1699794404,"current_range_meters":12400,"station_id":"ce4bhg12rcd13ifvqf60","pricing_plan_id":"free"},