{"last_updated":1751645566,"ttl":60,"version":"2.2","data":{"bikes":[{"bike_id":"3da29fb8-fc97-44c6-b9ac-31dd456b2fd4","system_id":"levelo_inurba_marseille","lat":43.33771,"lon":5.37424,"is_reserved":false,"is_disabled":true,"rental_uris":{"android":"levelo://app?vid=3da29fb8-fc97-44c6-b9ac-31dd456b2fd4","ios":"levelo://app?vid=3da29fb8-fc97-44c6-b9ac-31dd456b2fd4"},"vehicle_type_id":"4","last_reported":1751645566,"current_range_meters":0,"station_id":"","pricing_plan_id":"cebpf4jnsgd1na2vs0mg"},{"bike_id":"01861ad8-a8d7-4be6-816e-651927c87584","system_id":"levelo_inurba_marseille","lat":43.33751,"lon":5.37456,"is_reserved":false,"is_disabled":true,"rental_uris":{"android":"levelo://app?vid=01861ad8-a8d7-4be6-816e-651927c87584","ios":"levelo://app?vid=01861ad8-a8d7-4be6-816e-651927c87584"},"vehicle_type_id":"4","last_reported":1751645566,"current_range_meters":0,"station_id":"","pricing_plan_id":"cebpf4jnsgd1na2vs0mg"},{"bike_id":"bf258842-98b1-4a26-8d22-bfd632384292","system_id":"levelo_inurba_marseille","lat":43.27056,"lon":5.40264,"is_reserved":false,"is_disabled":true,"rental_uris":{"android":"levelo://app?vid=bf258842-98b1-4a26-8d22-bfd632384292","ios":"levelo://app?vid=bf258842-98b1-4a26-8d22-bfd632384292"},"vehicle_type_id":"4","last_reported":1751645566,"current_range_meters":0,"station_id":"","pricing_plan_id":"cebpf4jnsgd1na2vs0mg"},{"bike_id":"fb7eaa34-3090-467a-bc3a-a4c2c7cd510d","system_id":"levelo_inurba_marseille","lat":43.21743,"lon":5.34607,"is_reserved":false,"is_disabled":true,"rental_uris":{"android":"levelo://app?vid=fb7eaa34-3090-467a-bc3a-a4c2c7cd510d","ios":"levelo://app?vid=fb7eaa34-3090-467a-bc3a-a4c2c7cd510d"},"vehicle_type_id":"4","last_reported":1751645566,"current_range_meters":0,"station_id":"","pricing_plan_id":"cebpf4jnsgd1na2vs0mg"},{"bike_id":"d594088d-7cb9-4f95-8646-b495a2c02aa9","system_id":"levelo_inurba_marseille","lat":43.31668,"lon":5.40439,"is_reserved":false,"is_disabled":true,"rental_uris":{"android":"levelo://app?vid=d594088d-7cb9-4f95-8646-b495a2c02aa9","ios":"levelo://app?vid=d594088d-7cb9-4f95-8646-b495a2c02aa9"},"vehicle_type_id":"4","last_reported":1751645566,"current_range_meters":0,"station_id":"ce4bh012rcd13ifvqd00","pricing_plan_id":"cebpf4jnsgd1na2vs0mg"},{"bike_id":"85c79f72-ad01-4390-8c4e-5dba4e4ce0cc","system_id":"levelo_inurba_marseille","lat":43.2963,"lon":5.40588,"is_reserved":false,"is_disabled":true,"rental_uris":{"android":"levelo://app?vid=85c79f72-ad01-4390-8c4e-5dba4e4ce0cc","ios":"levelo://app?vid=85c79f72-ad01-4390-8c4e-5dba4e4ce0cc"},"vehicle_type_id":"4","last_reported":1751645566,"current_range_meters":0,"station_id":"ce4bh0h2rcd13ifvqd60","pricing_plan_id":"cebpf4jnsgd1na2vs0mg"},{"bike_id":"e0273622-eef9-4296-ae2b-bb8c1e44d0cd","system_id":"levelo_inurba_marseille","lat":43.30653,"lon":5.40098,"is_reserved":false,"is_disabled":true,"rental_uris":{"android":"levelo://app?vid=e0273622-eef9-4296-ae2b-bb8c1e44d0cd","ios":"levelo://app?vid=e0273622-eef9-4296-ae2b-bb8c1e44d0cd"},"vehicle_type_id":"4","last_reported":1751645566,"current_range_meters":0,"station_id":"ce4bh112rcd13ifvqda0","pricing_plan_id":"cebpf4jnsgd1na2vs0mg"},{"bike_id":"f9b7cf18-dab2-4095-9677-2bd9f8242fc3","system_id":"levelo_inurba_marseille","lat":43.26568,"lon":5.39033,"is_reserved":false,"is_disabled":true,"rental_uris":{"android":"levelo://app?vid=f9b7cf18-dab2-4095-9677-2bd9f8242fc3","ios":"levelo://app?vid=f9b7cf18-dab2-4095-9677-2bd9f8242fc3"},"vehicle_type_id":"4","last_reported":1751645566,"current_range_meters":0,"station_id":"ce4bhe12rcd13ifvqf30","pricing_plan_id":"cebpf4jnsgd1na2vs0mg"},{"bike_id":"5f2e1ccb-e063-436a-9a6a-8b37c41168f6","system_id":"levelo_inurba_marseille","lat":43.26213,"lon":5.37443,"is_reserved":false,"is_disabled":true,"rental_uris":{"android":"levelo://app?vid=5f2e1ccb-e063-436a-9a6a-8b37c41168f6","ios":"levelo://app?vid=5f2e1ccb-e063-436a-9a6a-8b37c41168f6"},"vehicle_type_id":"4","last_reported":1751645566,"current_range_meters":0,"station_id":"ce4bhgp2rcd13ifvqfc0","pricing_plan_id":"cebpf4jnsgd1na2vs0mg"},{"bike_id":"53618608-1546-4604-be71-5460c9f2b23a","system_id":"levelo_inurba_marseille","lat":43.26788,"lon":5.39413,"is_reserved":false,"is_disabled":true,"rental_uris":{"android":"levelo://app?vid=53618608-1546-4604-be71-5460c9f2b23a","ios":"levelo://app?vid=53618608-1546-4604-be71-5460c9f2b23a"},"vehicle_type_id":"4","last_reported":1751645566,"current_range_meters":0,"station_id":"ce4bhh12rcd13ifvqfg0","pricing_plan_id":"cebpf4jnsgd1na2vs0mg"},{"bike_id":"4f50839f-d68c-4e0b-a19d-b40bb0b2d224","system_id":"levelo_inurba_marseille","lat":43.23953,"lon":5.36641,"is_reserved":false,"is_disabled":true,"rental_uris":{"android":"levelo://app?vid=4f50839f-d68c-4e0b-a19d-b40bb0b2d224","ios":"levelo://app?vid=4f50839f-d68c-4e0b-a19d-b40bb0b2d224"},"vehicle_type_id":"4","last_reported":1751645566,"current_range_meters":0,"station_id":"ce4bhi12rcd13ifvqfp0","pricing_plan_id":"cebpf4jnsgd1na2vs0mg"},{"bike_id":"b5388698-2a3c-45b2-ab03-72588382c482","system_id":"levelo_inurba_marseille","lat":43.257701,"lon":5.394392,"is_reserved":false,"is_disabled":true,"rental_uris":{"android":"levelo://app?vid=b5388698-2a3c-45b2-ab03-72588382c482","ios":"levelo://app?vid=b5388698-2a3c-45b2-ab03-72588382c482"},"vehicle_type_id":"4","last_reported":1751645566,"current_range_meters":0,"station_id":"ce4bhip2rcd13ifvqft0","pricing_plan_id":"cebpf4jnsgd1na2vs0mg"},{"bike_id":"d09b7602-8875-430d-83bb-0cfd04bd97eb","system_id":"levelo_inurba_marseille","lat":43.27064,"lon":5.4025,"is_reserved":false,"is_disabled":true,"rental_uris":{"android":"levelo://app?vid=d09b7602-8875-430d-83bb-0cfd04bd97eb","ios":"levelo://app?vid=d09b7602-8875-430d-83bb-0cfd04bd97eb"},"vehicle_type_id":"4","last_reported":1751645566,"current_range_meters":0,"station_id":"ce4bhk92rcd13ifvqgc0","pricing_plan_id":"cebpf4jnsgd1na2vs0mg"},{"bike_id":"58ceea05-ce31-4d41-85e2-d43ae8728c76","system_id":"levelo_inurba_marseille","lat":43.245453,"lon":5.395203,"is_reserved":false,"is_disabled":true,"rental_uris":{"android":"levelo://app?vid=58ceea05-ce31-4d41-85e2-d43ae8728c76","ios":"levelo://app?vid=58ceea05-ce31-4d41-85e2-d43ae8728c76"},"vehicle_type_id":"4","last_reported":1751645566,"current_range_meters":0,"station_id":"ce4bhlp2rcd13ifvqgjg","pricing_plan_id":"cebpf4jnsgd1na2vs0mg"},{"bike_id":"1e2aced4-6cf6-44ec-bd05-37348fce88b6","system_id":"levelo_inurba_marseille","lat":43.24174,"lon":5.39707,"is_reserved":false,"is_disabled":true,"rental_uris":{"android":"levelo://app?vid=1e2aced4-6cf6-44ec-bd05-37348fce88b6","ios":"levelo://app?vid=1e2aced4-6cf6-44ec-bd05-37348fce88b6"},"vehicle_type_id":"4","last_reported":1751645566,"current_range_meters":0,"station_id":"ce4bhn12rcd13ifvqgpg","pricing_plan_id":"cebpf4jnsgd1na2vs0mg"},{"bike_id":"3da1ba9c-9ff8-43e0-85aa-641a6eda3973","system_id":"levelo_inurba_marseille","lat":43.24073,"lon":5.37761,"is_reserved":false,"is_disabled":true,"rental_uris":{"android":"levelo://app?vid=3da1ba9c-9ff8-43e0-85aa-641a6eda3973","ios":"levelo://app?vid=3da1ba9c-9ff8-43e0-85aa-641a6eda3973"},"vehicle_type_id":"4","last_reported":1751645566,"current_range_meters":0,"station_id":"ce4bhnp2rcd13ifvqgvg","pricing_plan_id":"cebpf4jnsgd1na2vs0mg"},{"bike_id":"241f8cc5-26eb-47e5-a195-12f7aa1bd051","system_id":"levelo_inurba_marseille","lat":43.28445,"lon":5.39199,"is_reserved":false,"is_disabled":true,"rental_uris":{"android":"levelo://app?vid=241f8cc5-26eb-47e5-a195-12f7aa1bd051","ios":"levelo://app?vid=241f8cc5-26eb-47e5-a195-12f7aa1bd051"},"vehicle_type_id":"4","last_reported":1751645566,"current_range_meters":0,"station_id":"ce4bhoh2rcd13ifvqh5g","pricing_plan_id":"cebpf4jnsgd1na2vs0mg"},{"bike_id":"2db7de25-6c57-447b-bff5-ea01c3753780","system_id":"levelo_inurba_marseille","lat":43.21751,"lon":5.34604,"is_reserved":false,"is_disabled":true,"rental_uris":{"android":"levelo://app?vid=2db7de25-6c57-447b-bff5-ea01c3753780","ios":"levelo://app?vid=2db7de25-6c57-447b-bff5-ea01c3753780"},"vehicle_type_id":"4","last_reported":1751645566,"current_range_meters":0,"station_id":"st_cvj6r9ubvosntc0bgbag","pricing_plan_id":"cebpf4jnsgd1na2vs0mg"},{"bike_id":"5e8830ec-34e5-4f0f-b607-434b2954d153","system_id":"levelo_inurba_marseille","lat":43.21195,"lon":5.35066,"is_reserved":false,"is_disabled":true,"rental_uris":{"android":"levelo://app?vid=5e8830ec-34e5-4f0f-b607-434b2954d153","ios":"levelo://app?vid=5e8830ec-34e5-4f0f-b607-434b2954d153"},"vehicle_type_id":"4","last_reported":1751645566,"current_range_meters":0,"station_id":"st_cvj6sg6p6f1abm77japg","pricing_plan_id":"cebpf4jnsgd1na2vs0mg"},{"bike_id":"cd2a3af2-854b-4519-92e5-1eaf70ba8a37","system_id":"levelo_inurba_marseille","lat":43.21219,"lon":5.35089,"is_reserved":false,"is_disabled":true,"rental_uris":{"android":"levelo://app?vid=cd2a3af2-854b-4519-92e5-1eaf70ba8a37","ios":"levelo://app?vid=cd2a3af2-854b-4519-92e5-1eaf70ba8a37"},"vehicle_type_id":"4","last_reported":1751645566,"current_range_meters":0,"station_id":"st_cvj6sg6p6f1abm77japg","pricing_plan_id":"cebpf4jnsgd1na2vs0mg"},{"bike_id":"a2cba17b-b388-410e-afe2-eb25f16854f2","system_id":"levelo_inurba_marseille","lat":43.25874,"lon":5.39908,"is_reserved":false,"is_disabled":true,"rental_uris":{"android":"levelo://app?vid=a2cba17b-b388-410e-afe2-eb25f16854f2","ios":"levelo://app?vid=a2cba17b-b388-410e-afe2-eb25f16854f2"},"vehicle_type_id":"4","last_reported":1751645566,"current_range_meters":400,"station_id":"ce4bhl92rcd13ifvqghg","pricing_plan_id":"cebpf4jnsgd1na2vs0mg"},{"bike_id":"6c4978e8-0fc5-4634-91e4-a277443beb80","system_id":"levelo_inurba_marseille","lat":43.308087,"lon":5.435241,"is_reserved":false,"is_disabled":true,"rental_uris":{"android":"levelo://app?vid=6c4978e8-0fc5-4634-91e4-a277443beb80","ios":"levelo://app?vid=6c4978e8-0fc5-4634-91e4-a277443beb80"},"vehicle_type_id":"4","last_reported":1751645566,"current_range_meters":400,"station_id":"ce4bhph2rcd13ifvqheg","pricing_plan_id":"cebpf4jnsgd1na2vs0mg"},{"bike_id":"ffaaca59-cd16-4056-b02b-009e5acd4162","system_id":"levelo_inurba_marseille","lat":43.298004,"lon":5.404009,"is_reserved":false,"is_disabled":false,"rental_uris":{"android":"levelo://app?vid=ffaaca59-cd16-4056-b02b-009e5acd4162","ios":"levelo://app?vid=ffaaca59-cd16-4056-b02b-009e5acd4162"},"vehicle_type_id":"4","last_reported":1751645566,"current_range_meters":800,"station_id":"ce4bh112rcd13ifvqd90","pricing_plan_id":"cebpf4jnsgd1na2vs0mg"},{"bike_id":"bf03c03e-4808-4a26-8f51-812edcb2689c","system_id":"levelo_inurba_marseille","lat":43.29093,"lon":5.3816,"is_reserved":false,"is_disabled":true,"rental_uris":{"android":"levelo://app?vid=bf03c03e-4808-4a26-8f51-812edcb2689c","ios":"levelo://app?vid=bf03c03e-4808-4a26-8f51-812edcb2689c"},"vehicle_type_id":"4","last_reported":1751645566,"current_range_meters":800,"station_id":"ce4bh512rcd13ifvqe2g","pricing_plan_id":"cebpf4jnsgd1na2vs0mg"},{"bike_id":"cee0b5b6-9b90-457a-85f4-540287a23b84","system_id":"levelo_inurba_marseille","lat":43.21191,"lon":5.35071,"is_reserved":false,"is_disabled":true,"rental_uris":{"android":"levelo://app?vid=cee0b5b6-9b90-457a-85f4-540287a23b84","ios":"levelo://app?vid=cee0b5b6-9b90-457a-85f4-540287a23b84"},"vehicle_type_id":"4","last_reported":1751645566,"current_range_meters":800,"station_id":"st_cvj6sg6p6f1abm77japg","pricing_plan_id":"cebpf4jnsgd1na2vs0mg"},{"bike_id":"c05e7be2-ea6a-4922-bbc4-7630d43de3f7","system_id":"levelo_inurba_marseille","lat":43.28466,"lon":5.38415,"is_reserved":false,"is_disabled":true,"rental_uris":{"android":"levelo://app?vid=c05e7be2-ea6a-4922-bbc4-7630d43de3f7","ios":"levelo://app?vid=c05e7be2-ea6a-4922-bbc4-7630d43de3f7"},"vehicle_type_id":"4","last_reported":1751645566,"current_range_meters":1200,"station_id":"ce4bh512rcd13ifvqe3g","pricing_plan_id":"cebpf4jnsgd1na2vs0mg"},{"bike_id":"670151f5-a594-4f64-ba9d-f122921d0a2e","system_id":"levelo_inurba_marseille","lat":43.31482,"lon":5.37308,"is_reserved":false,"is_disabled":true,"rental_uris":{"android":"levelo://app?vid=670151f5-a594-4f64-ba9d-f122921d0a2e","ios":"levelo://app?vid=670151f5-a594-4f64-ba9d-f122921d0a2e"},"vehicle_type_id":"4","last_reported":1751645566,"current_range_meters":1600,"station_id":"ce4bgt12rcd13ifvqcd0","pricing_plan_id":"cebpf4jnsgd1na2vs0mg"},{"bike_id":"8d6764a4-79c4-4cb4-b9b1-6398174a6c8f","system_id":"levelo_inurba_marseille","lat":43.26214,"lon":5.37432,"is_reserved":false,"is_disabled":true,"rental_uris":{"android":"levelo://app?vid=8d6764a4-79c4-4cb4-b9b1-6398174a6c8f","ios":"levelo://app?vid=8d6764a4-79c4-4cb4-b9b1-6398174a6c8f"},"vehicle_type_id":"4","last_reported":1751645566,"current_range_meters":1600,"station_id":"ce4bhgp2rcd13ifvqfc0","pricing_plan_id":"cebpf4jnsgd1na2vs0mg"},{"bike_id":"160ec079-c479-49a1-ab6c-9ce823de6fbf","system_id":"levelo_inurba_marseille","lat":43.27312,"lon":5.39089,"is_reserved":false,"is_disabled":true,"rental_uris":{"android":"levelo://app?vid=160ec079-c479-49a1-ab6c-9ce823de6fbf","ios":"levelo://app?vid=160ec079-c479-49a1-ab6c-9ce823de6fbf"},"vehicle_type_id":"4","last_reported":1751645566,"current_range_meters":1600,"station_id":"ce4bhgp2rcd13ifvqfe0","pricing_plan_id":"cebpf4jnsgd1na2vs0mg"},{"bike_id":"a2bdfe7b-15c7-4ed9-bfee-c2e23852c648","system_id":"levelo_inurba_marseille","lat":43.23175,"lon":5.3999,"is_reserved":false,"is_disabled":true,"rental_uris":{"android":"levelo://app?vid=a2bdfe7b-15c7-4ed9-bfee-c2e23852c648","ios":"levelo://app?vid=a2bdfe7b-15c7-4ed9-bfee-c2e23852c648"},"vehicle_type_id":"4","last_reported":1751645566,"current_range_meters":1600,"station_id":"ce4bhn12rcd13ifvqgqg","pricing_plan_id":"cebpf4jnsgd1na2vs0mg"},{"bike_id":"34c6e3d0-b005-424f-a0a7-52f9f8bd654f","system_id":"levelo_inurba_marseille","lat":43.23622,"lon":5.36207,"is_reserved":false,"is_disabled":true,"rental_uris":{"android":"levelo://app?vid=34c6e3d0-b005-424f-a0a7-52f9f8bd654f","ios":"levelo://app?vid=34c6e3d0-b005-424f-a0a7-52f9f8bd654f"},"vehicle_type_id":"4","last_reported":1751645566,"current_range_meters":2000,"station_id":"","pricing_plan_id":"cebpf4jnsgd1na2vs0mg"},{"bike_id":"16198ed4-40e4-48e5-ab0f-66aa52232530","system_id":"levelo_inurba_marseille","lat":43.30549,"lon":5.36551,"is_reserved":false,"is_disabled":false,"rental_uris":{"android":"levelo://app?vid=16198ed4-40e4-48e5-ab0f-66aa52232530","ios":"levelo://app?vid=16198ed4-40e4-48e5-ab0f-66aa52232530"},"vehicle_type_id":"4","last_reported":1751645566,"current_range_meters":2000,"station_id":"ce4bgs12rcd13ifvqcag","pricing_plan_id":"cebpf4jnsgd1na2vs0mg"},{"bike_id":"62da2ae0-b2f2-44e1-abc1-b397e5003f7a","system_id":"levelo_inurba_marseille","lat":43.28409,"lon":5.3751,"is_reserved":false,"is_disabled":false,"rental_uris":{"android":"levelo://app?vid=62da2ae0-b2f2-44e1-abc1-b397e5003f7a","ios":"levelo://app?vid=62da2ae0-b2f2-44e1-abc1-b397e5003f7a"},"vehicle_type_id":"4","last_reported":1751645566,"current_range_meters":2000,"station_id":"ce4bh412rcd13ifvqds0","pricing_plan_id":"cebpf4jnsgd1na2vs0mg"},{"bike_id":"b714a069-a1df-459e-8b63-424fea2f006c","system_id":"levelo_inurba_marseille","lat":43.29194,"lon":5.35809,"is_reserved":false,"is_disabled":false,"rental_uris":{"android":"levelo://app?vid=b714a069-a1df-459e-8b63-424fea2f006c","ios":"levelo://app?vid=b714a069-a1df-459e-8b63-424fea2f006c"},"vehicle_type_id":"4","last_reported":1751645566,"current_range_meters":2000,"station_id":"ce4bhb12rcd13ifvqel0","pricing_plan_id":"cebpf4jnsgd1na2vs0mg"},{"bike_id":"fcde2809-1949-4ca4-a1d0-233c1beb6d11","system_id":"levelo_inurba_marseille","lat":43.26792,"lon":5.39409,"is_reserved":false,"is_disabled":true,"rental_uris":{"android":"levelo://app?vid=fcde2809-1949-4ca4-a1d0-233c1beb6d11","ios":"levelo://app?vid=fcde2809-1949-4ca4-a1d0-233c1beb6d11"},"vehicle_type_id":"4","last_reported":1751645566,"current_range_meters":2000,"station_id":"ce4bhh12rcd13ifvqfg0","pricing_plan_id":"cebpf4jnsgd1na2vs0mg"},{"bike_id":"8cb45b8e-7df5-4962-a18e-62fc9acced65","system_id":"levelo_inurba_marseille","lat":43.258168,"lon":5.394394,"is_reserved":false,"is_disabled":true,"rental_uris":{"android":"levelo://app?vid=8cb45b8e-7df5-4962-a18e-62fc9acced65","ios":"levelo://app?vid=8cb45b8e-7df5-4962-a18e-62fc9acced65"},"vehicle_type_id":"4","last_reported":1751645566,"current_range_meters":2000,"station_id":"ce4bhip2rcd13ifvqft0","pricing_plan_id":"cebpf4jnsgd1na2vs0mg"},{"bike_id":"79eaa531-1f0d-4d5a-a861-18292aa9705a","system_id":"levelo_inurba_marseille","lat":43.26568,"lon":5.39012,"is_reserved":false,"is_disabled":false,"rental_uris":{"android":"levelo://app?vid=79eaa531-1f0d-4d5a-a861-18292aa9705a","ios":"levelo://app?vid=79eaa531-1f0d-4d5a-a861-18292aa9705a"},"vehicle_type_id":"4","last_reported":1751645566,"current_range_meters":3600,"station_id":"ce4bhe12rcd13ifvqf30","pricing_plan_id":"cebpf4jnsgd1na2vs0mg"},{"bike_id":"6e9c4af0-efe4-46c4-91f1-564447ae15df","system_id":"levelo_inurba_marseille","lat":43.30134,"lon":5.39847,"is_reserved":false,"is_disabled":false,"rental_uris":{"android":"levelo://app?vid=6e9c4af0-efe4-46c4-91f1-564447ae15df","ios":"levelo://app?vid=6e9c4af0-efe4-46c4-91f1-564447ae15df"},"vehicle_type_id":"4","last_reported":1751645566,"current_range_meters":4000,"station_id":"ce4bh0h2rcd13ifvqd40","pricing_plan_id":"cebpf4jnsgd1na2vs0mg"},{"bike_id":"11e7b8be-6254-46c8-a705-c6941c346d56","system_id":"levelo_inurba_marseille","lat":43.3015,"lon":5.37714,"is_reserved":false,"is_disabled":false,"rental_uris":{"android":"levelo://app?vid=11e7b8be-6254-46c8-a705-c6941c346d56","ios":"levelo://app?vid=11e7b8be-6254-46c8-a705-c6941c346d56"},"vehicle_type_id":"4","last_reported":1751645566,"current_range_meters":4400,"station_id":"","pricing_plan_id":"cebpf4jnsgd1na2vs0mg"},{"bike_id":"3f599094-c141-4c38-8d07-7a080b46a8b1","system_id":"levelo_inurba_marseille","lat":43.30592,"lon":5.39352,"is_reserved":false,"is_disabled":false,"rental_uris":{"android":"levelo://app?vid=3f599094-c141-4c38-8d07-7a080b46a8b1","ios":"levelo://app?vid=3f599094-c141-4c38-8d07-7a080b46a8b1"},"vehicle_type_id":"4","last_reported":1751645566,"current_range_meters":4400,"station_id":"ce4bh0p2rcd13ifvqd80","pricing_plan_id":"cebpf4jnsgd1na2vs0mg"},{"bike_id":"7a838de9-f96a-46ba-b7ab-046a8fafef84","system_id":"levelo_inurba_marseille","lat":43.25113,"lon":5.40318,"is_reserved":false,"is_disabled":false,"rental_uris":{"android":"levelo://app?vid=7a838de9-f96a-46ba-b7ab-046a8fafef84","ios":"levelo://app?vid=7a838de9-f96a-46ba-b7ab-046a8fafef84"},"vehicle_type_id":"4","last_reported":1751645566,"current_range_meters":4400,"station_id":"ce4bhlh2rcd13ifvqgig","pricing_plan_id":"cebpf4jnsgd1na2vs0mg"},{"bike_id":"460603da-8c2f-4886-8baa-88832eeb9ba4","system_id":"levelo_inurba_marseille","lat":43.27941,"lon":5.41045,"is_reserved":false,"is_disabled":false,"rental_uris":{"android":"levelo://app?vid=460603da-8c2f-4886-8baa-88832eeb9ba4","ios":"levelo://app?vid=460603da-8c2f-4886-8baa-88832eeb9ba4"},"vehicle_type_id":"4","last_reported":1751645566,"current_range_meters":4400,"station_id":"ce4bhnp2rcd13ifvqh0g","pricing_plan_id":"cebpf4jnsgd1na2vs0mg"},{"bike_id":"e0e2f2a0-3112-4dc8-ad0f-3557d3ae934b","system_id":"levelo_inurba_marseille","lat":43.27067,"lon":5.42263,"is_reserved":false,"is_disabled":false,"rental_uris":{"android":"levelo://app?vid=e0e2f2a0-3112-4dc8-ad0f-3557d3ae934b","ios":"levelo://app?vid=e0e2f2a0-3112-4dc8-ad0f-3557d3ae934b"},"vehicle_type_id":"4","last_reported":1751645566,"current_range_meters":5600,"station_id":"ce4bhk92rcd13ifvqgb0","pricing_plan_id":"cebpf4jnsgd1na2vs0mg"},{"bike_id":"8afa7640-ebe8-4025-983a-c83f3912a2dd","system_id":"levelo_inurba_marseille","lat":43.21192,"lon":5.35072,"is_reserved":false,"is_disabled":false,"rental_uris":{"android":"levelo://app?vid=8afa7640-ebe8-4025-983a-c83f3912a2dd","ios":"levelo://app?vid=8afa7640-ebe8-4025-983a-c83f3912a2dd"},"vehicle_type_id":"4","last_reported":1751645566,"current_range_meters":5600,"station_id":"st_cvj6sg6p6f1abm77japg","pricing_plan_id":"cebpf4jnsgd1na2vs0mg"},{"bike_id":"e26ba497-efc7-4420-b8c5-9fa5e27f2ce4","system_id":"levelo_inurba_marseille","lat":43.31349,"lon":5.37065,"is_reserved":false,"is_disabled":false,"rental_uris":{"android":"levelo://app?vid=e26ba497-efc7-4420-b8c5-9fa5e27f2ce4","ios":"levelo://app?vid=e26ba497-efc7-4420-b8c5-9fa5e27f2ce4"},"vehicle_type_id":"4","last_reported":1751645566,"current_range_meters":6000,"station_id":"","pricing_plan_id":"cebpf4jnsgd1na2vs0mg"},{"bike_id":"3da29779-c5af-4767-8855-abb69e504f98","system_id":"levelo_inurba_marseille","lat":43.29254,"lon":5.40909,"is_reserved":false,"is_disabled":false,"rental_uris":{"android":"levelo://app?vid=3da29779-c5af-4767-8855-abb69e504f98","ios":"levelo://app?vid=3da29779-c5af-4767-8855-abb69e504f98"},"vehicle_type_id":"4","last_reported":1751645566,"current_range_meters":6000,"station_id":"ce4bh192rcd13ifvqdc0","pricing_plan_id":"cebpf4jnsgd1na2vs0mg"},{"bike_id":"ec3ce41e-42ba-416f-8d1f-778768a04589","system_id":"levelo_inurba_marseille","lat":43.28611,"lon":5.35107,"is_reserved":false,"is_disabled":false,"rental_uris":{"android":"levelo://app?vid=ec3ce41e-42ba-416f-8d1f-778768a04589","ios":"levelo://app?vid=ec3ce41e-42ba-416f-8d1f-778768a04589"},"vehicle_type_id":"4","last_reported":1751645566,"current_range_meters":6000,"station_id":"ce4bhch2rcd13ifvqeug","pricing_plan_id":"cebpf4jnsgd1na2vs0mg"},{"bike_id":"c376f4a5-f580-4f58-81ab-f1c947af719f","system_id":"levelo_inurba_marseille","lat":43.274252,"lon":5.394197,"is_reserved":false,"is_disabled":false,"rental_uris":{"android":"levelo://app?vid=c376f4a5-f580-4f58-81ab-f1c947af719f","ios":"levelo://app?vid=c376f4a5-f580-4f58-81ab-f1c947af719f"},"vehicle_type_id":"4","last_reported":1751645566,"current_range_meters":6400,"station_id":"ce4bhdp2rcd13ifvqf20","pricing_plan_id":"cebpf4jnsgd1na2vs0mg"},{"bike_id":"7c2a03e1-1bfe-4de4-8ae6-65cb904699ad","system_id":"levelo_inurba_marseille","lat":43.28722,"lon":5.37937,"is_reserved":false,"is_disabled":false,"rental_uris":{"android":"levelo://app?vid=7c2a03e1-1bfe-4de4-8ae6-65cb904699ad","ios":"levelo://app?vid=7c2a03e1-1bfe-4de4-8ae6-65cb904699ad"},"vehicle_type_id":"4","last_reported":1751645566,"current_range_meters":6800,"station_id":"ce4bh9p2rcd13ifvqec0","pricing_plan_id":"cebpf4jnsgd1na2vs0mg"},{"bike_id":"99e64aa2-dc94-4ba9-b017-50f106d2ed6b","system_id":"levelo_inurba_marseille","lat":43.29004,"lon":5.35614,"is_reserved":false,"is_disabled":false,"rental_uris":{"android":"levelo://app?vid=99e64aa2-dc94-4ba9-b017-50f106d2ed6b","ios":"levelo://app?vid=99e64aa2-dc94-4ba9-b017-50f106d2ed6b"},"vehicle_type_id":"4","last_reported":1751645566,"current_range_meters":6800,"station_id":"ce4bhb92rcd13ifvqen0","pricing_plan_id":"cebpf4jnsgd1na2vs0mg"},{"bike_id":"da3f0cc4-d32f-49c6-8d78-7d86e28e0077","system_id":"levelo_inurba_marseille","lat":43.24999,"lon":5.38929,"is_reserved":false,"is_disabled":false,"rental_uris":{"android":"levelo://app?vid=da3f0cc4-d32f-49c6-8d78-7d86e28e0077","ios":"levelo://app?vid=da3f0cc4-d32f-49c6-8d78-7d86e28e0077"},"vehicle_type_id":"4","last_reported":1751645566,"current_range_meters":6800,"station_id":"ce4bhgp2rcd13ifvqfd0","pricing_plan_id":"cebpf4jnsgd1na2vs0mg"},{"bike_id":"295fcd1c-c5c3-41d7-bf36-4421a8203626","system_id":"levelo_inurba_marseille","lat":43.33613,"lon":5.40999,"is_reserved":false,"is_disabled":false,"rental_uris":{"android":"levelo://app?vid=295fcd1c-c5c3-41d7-bf36-4421a8203626","ios":"levelo://app?vid=295fcd1c-c5c3-41d7-bf36-4421a8203626"},"vehicle_type_id":"4","last_reported":1751645566,"current_range_meters":6800,"station_id":"ce4bhhh2rcd13ifvqfk0","pricing_plan_id":"cebpf4jnsgd1na2vs0mg"},{"bike_id":"d567a98a-7952-4227-875f-9176613e0a81","system_id":"levelo_inurba_marseille","lat":43.30374,"lon":5.42483,"is_reserved":false,"is_disabled":false,"rental_uris":{"android":"levelo://app?vid=d567a98a-7952-4227-875f-9176613e0a81","ios":"levelo://app?vid=d567a98a-7952-4227-875f-9176613e0a81"},"vehicle_type_id":"4","last_reported":1751645566,"current_range_meters":6800,"station_id":"ce4bhoh2rcd13ifvqh6g","pricing_plan_id":"cebpf4jnsgd1na2vs0mg"},{"bike_id":"09454f46-e55e-4559-820c-cbc05b531847","system_id":"levelo_inurba_marseille","lat":43.32311,"lon":5.39009,"is_reserved":false,"is_disabled":false,"rental_uris":{"android":"levelo://app?vid=09454f46-e55e-4559-820c-cbc05b531847","ios":"levelo://app?vid=09454f46-e55e-4559-820c-cbc05b531847"},"vehicle_type_id":"4","last_reported":1751645566,"current_range_meters":7200,"station_id":"","pricing_plan_id":"cebpf4jnsgd1na2vs0mg"},{"bike_id":"33f07356-b04e-4314-a69f-1998fee4abc4","system_id":"levelo_inurba_marseille","lat":43.30801,"lon":5.43527,"is_reserved":false,"is_disabled":false,"rental_uris":{"android":"levelo://app?vid=33f07356-b04e-4314-a69f-1998fee4abc4","ios":"levelo://app?vid=33f07356-b04e-4314-a69f-1998fee4abc4"},"vehicle_type_id":"4","last_reported":1751645566,"current_range_meters":7200,"station_id":"ce4bhph2rcd13ifvqheg","pricing_plan_id":"cebpf4jnsgd1na2vs0mg"},{"bike_id":"d5dac13f-291d-4e01-a339-009f855a80f7","system_id":"levelo_inurba_marseille","lat":43.311645,"lon":5.387205,"is_reserved":false,"is_disabled":false,"rental_uris":{"android":"levelo://app?vid=d5dac13f-291d-4e01-a339-009f855a80f7","ios":"levelo://app?vid=d5dac13f-291d-4e01-a339-009f855a80f7"},"vehicle_type_id":"4","last_reported":1751645566,"current_range_meters":8000,"station_id":"ce4bgv12rcd13ifvqcp0","pricing_plan_id":"cebpf4jnsgd1na2vs0mg"},{"bike_id":"45308078-9cb2-46ce-9dde-9ea637e16843","system_id":"levelo_inurba_marseille","lat":43.245597,"lon":5.373314,"is_reserved":false,"is_disabled":false,"rental_uris":{"android":"levelo://app?vid=45308078-9cb2-46ce-9dde-9ea637e16843","ios":"levelo://app?vid=45308078-9cb2-46ce-9dde-9ea637e16843"},"vehicle_type_id":"4","last_reported":1751645566,"current_range_meters":8000,"station_id":"ce4bhhh2rcd13ifvqfk0","pricing_plan_id":"cebpf4jnsgd1na2vs0mg"},{"bike_id":"e8e408b5-8111-460e-bd60-625026c63b8c","system_id":"levelo_inurba_marseille","lat":43.2827,"lon":5.35081,"is_reserved":false,"is_disabled":false,"rental_uris":{"android":"levelo://app?vid=e8e408b5-8111-460e-bd60-625026c63b8c","ios":"levelo://app?vid=e8e408b5-8111-460e-bd60-625026c63b8c"},"vehicle_type_id":"4","last_reported":1751645566,"current_range_meters":8400,"station_id":"ce4bhbp2rcd13ifvqerg","pricing_plan_id":"cebpf4jnsgd1na2vs0mg"},{"bike_id":"9bfc7d3d-4e60-4f8a-9c32-ef3d0e77ec5b","system_id":"levelo_inurba_marseille","lat":43.211882,"lon":5.350731,"is_reserved":false,"is_disabled":false,"rental_uris":{"android":"levelo://app?vid=9bfc7d3d-4e60-4f8a-9c32-ef3d0e77ec5b","ios":"levelo://app?vid=9bfc7d3d-4e60-4f8a-9c32-ef3d0e77ec5b"},"vehicle_type_id":"4","last_reported":1751645566,"current_range_meters":8400,"station_id":"st_cvj6sg6p6f1abm77japg","pricing_plan_id":"cebpf4jnsgd1na2vs0mg"},{"bike_id":"eac991b1-583d-4058-ae2a-1275aa6d29da","system_id":"levelo_inurba_marseille","lat":43.30889,"lon":5.39648,"is_reserved":false,"is_disabled":false,"rental_uris":{"android":"levelo://app?vid=eac991b1-583d-4058-ae2a-1275aa6d29da","ios":"levelo://app?vid=eac991b1-583d-4058-ae2a-1275aa6d29da"},"vehicle_type_id":"4","last_reported":1751645566,"current_range_meters":8800,"station_id":"ce4bh012rcd13ifvqcv0","pricing_plan_id":"cebpf4jnsgd1na2vs0mg"},{"bike_id":"214122be-218b-42b6-b252-06d0bd529ea8","system_id":"levelo_inurba_marseille","lat":43.29012,"lon":5.35608,"is_reserved":false,"is_disabled":false,"rental_uris":{"android":"levelo://app?vid=214122be-218b-42b6-b252-06d0bd529ea8","ios":"levelo://app?vid=214122be-218b-42b6-b252-06d0bd529ea8"},"vehicle_type_id":"4","last_reported":1751645566,"current_range_meters":8800,"station_id":"ce4bhb92rcd13ifvqen0","pricing_plan_id":"cebpf4jnsgd1na2vs0mg"},{"bike_id":"3b7375f1-d2d9-4858-be28-b71a6a165300","system_id":"levelo_inurba_marseille","lat":43.28996,"lon":5.3558,"is_reserved":false,"is_disabled":false,"rental_uris":{"android":"levelo://app?vid=3b7375f1-d2d9-4858-be28-b71a6a165300","ios":"levelo://app?vid=3b7375f1-d2d9-4858-be28-b71a6a165300"},"vehicle_type_id":"4","last_reported":1751645566,"current_range_meters":8800,"station_id":"ce4bhb92rcd13ifvqen0","pricing_plan_id":"cebpf4jnsgd1na2vs0mg"},{"bike_id":"cea51bf1-75c7-4a37-8504-67c74e1564d9","system_id":"levelo_inurba_marseille","lat":43.23179,"lon":5.399845,"is_reserved":false,"is_disabled":false,"rental_uris":{"android":"levelo://app?vid=cea51bf1-75c7-4a37-8504-67c74e1564d9","ios":"levelo://app?vid=cea51bf1-75c7-4a37-8504-67c74e1564d9"},"vehicle_type_id":"4","last_reported":1751645566,"current_range_meters":8800,"station_id":"ce4bhn12rcd13ifvqgqg","pricing_plan_id":"cebpf4jnsgd1na2vs0mg"},{"bike_id":"be4e2ba2-f83c-4be6-923a-932d435bb5ce","system_id":"levelo_inurba_marseille","lat":43.2823,"lon":5.40436,"is_reserved":false,"is_disabled":false,"rental_uris":{"android":"levelo://app?vid=be4e2ba2-f83c-4be6-923a-932d435bb5ce","ios":"levelo://app?vid=be4e2ba2-f83c-4be6-923a-932d435bb5ce"},"vehicle_type_id":"4","last_reported":1751645566,"current_range_meters":9200,"station_id":"","pricing_plan_id":"cebpf4jnsgd1na2vs0mg"},{"bike_id":"d799b321-3a7d-4201-b46e-ffe2ad124f19","system_id":"levelo_inurba_marseille","lat":43.329118,"lon":5.383842,"is_reserved":false,"is_disabled":false,"rental_uris":{"android":"levelo://app?vid=d799b321-3a7d-4201-b46e-ffe2ad124f19","ios":"levelo://app?vid=d799b321-3a7d-4201-b46e-ffe2ad124f19"},"vehicle_type_id":"4","last_reported":1751645566,"current_range_meters":9200,"station_id":"","pricing_plan_id":"cebpf4jnsgd1na2vs0mg"},{"bike_id":"45ea4a56-4d1c-4898-84ee-6e244a95431d","system_id":"levelo_inurba_marseille","lat":43.28413,"lon":5.34984,"is_reserved":false,"is_disabled":false,"rental_uris":{"android":"levelo://app?vid=45ea4a56-4d1c-4898-84ee-6e244a95431d","ios":"levelo://app?vid=45ea4a56-4d1c-4898-84ee-6e244a95431d"},"vehicle_type_id":"4","last_reported":1751645566,"current_range_meters":9200,"station_id":"ce4bhbh2rcd13ifvqepg","pricing_plan_id":"cebpf4jnsgd1na2vs0mg"},{"bike_id":"4bac3f2b-eb39-405f-9e58-7764b5148051","system_id":"levelo_inurba_marseille","lat":43.32175,"lon":5.41772,"is_reserved":false,"is_disabled":false,"rental_uris":{"android":"levelo://app?vid=4bac3f2b-eb39-405f-9e58-7764b5148051","ios":"levelo://app?vid=4bac3f2b-eb39-405f-9e58-7764b5148051"},"vehicle_type_id":"4","last_reported":1751645566,"current_range_meters":9600,"station_id":"","pricing_plan_id":"cebpf4jnsgd1na2vs0mg"},{"bike_id":"07664fb5-1ca4-4198-b1a0-8e650244ca07","system_id":"levelo_inurba_marseille","lat":43.30423,"lon":5.38879,"is_reserved":false,"is_disabled":false,"rental_uris":{"android":"levelo://app?vid=07664fb5-1ca4-4198-b1a0-8e650244ca07","ios":"levelo://app?vid=07664fb5-1ca4-4198-b1a0-8e650244ca07"},"vehicle_type_id":"4","last_reported":1751645566,"current_range_meters":9600,"station_id":"ce4bgk12rcd13ifvqbi0","pricing_plan_id":"cebpf4jnsgd1na2vs0mg"},{"bike_id":"0e36f255-33be-43e0-960c-085a5afc31ad","system_id":"levelo_inurba_marseille","lat":43.30295,"lon":5.39219,"is_reserved":false,"is_disabled":false,"rental_uris":{"android":"levelo://app?vid=0e36f255-33be-43e0-960c-085a5afc31ad","ios":"levelo://app?vid=0e36f255-33be-43e0-960c-085a5afc31ad"},"vehicle_type_id":"4","last_reported":1751645566,"current_range_meters":9600,"station_id":"ce4bgkh2rcd13ifvqbk0","pricing_plan_id":"cebpf4jnsgd1na2vs0mg"},{"bike_id":"830af6ad-c46e-41d4-8d1d-af0e21fca9db","system_id":"levelo_inurba_marseille","lat":43.28937,"lon":5.3963,"is_reserved":false,"is_disabled":false,"rental_uris":{"android":"levelo://app?vid=830af6ad-c46e-41d4-8d1d-af0e21fca9db","ios":"levelo://app?vid=830af6ad-c46e-41d4-8d1d-af0e21fca9db"},"vehicle_type_id":"4","last_reported":1751645566,"current_range_meters":9600,"station_id":"ce4bh3h2rcd13ifvqdn0","pricing_plan_id":"cebpf4jnsgd1na2vs0mg"},{"bike_id":"2c96bc6b-92ae-4dcc-8a46-e14d0bf3582d","system_id":"levelo_inurba_marseille","lat":43.28662,"lon":5.3636,"is_reserved":false,"is_disabled":false,"rental_uris":{"android":"levelo://app?vid=2c96bc6b-92ae-4dcc-8a46-e14d0bf3582d","ios":"levelo://app?vid=2c96bc6b-92ae-4dcc-8a46-e14d0bf3582d"},"vehicle_type_id":"4","last_reported":1751645566,"current_range_meters":9600,"station_id":"ce4bhah2rcd13ifvqej0","pricing_plan_id":"cebpf4jnsgd1na2vs0mg"},{"bike_id":"9789c625-0bff-4e51-b619-8b024ca3e6f1","system_id":"levelo_inurba_marseille","lat":43.28441,"lon":5.39202,"is_reserved":false,"is_disabled":false,"rental_uris":{"android":"levelo://app?vid=9789c625-0bff-4e51-b619-8b024ca3e6f1","ios":"levelo://app?vid=9789c625-0bff-4e51-b619-8b024ca3e6f1"},"vehicle_type_id":"4","last_reported":1751645566,"current_range_meters":9600,"station_id":"ce4bhoh2rcd13ifvqh5g","pricing_plan_id":"cebpf4jnsgd1na2vs0mg"},{"bike_id":"c76381fd-b6b9-4d02-a8a4-fd4e6891e706","system_id":"levelo_inurba_marseille","lat":43.30225,"lon":5.39047,"is_reserved":false,"is_disabled":false,"rental_uris":{"android":"levelo://app?vid=c76381fd-b6b9-4d02-a8a4-fd4e6891e706","ios":"levelo://app?vid=c76381fd-b6b9-4d02-a8a4-fd4e6891e706"},"vehicle_type_id":"4","last_reported":1751645566,"current_range_meters":10000,"station_id":"","pricing_plan_id":"cebpf4jnsgd1na2vs0mg"},{"bike_id":"208b4657-687a-462f-8836-b8fdff94f0fe","system_id":"levelo_inurba_marseille","lat":43.29596,"lon":5.36732,"is_reserved":false,"is_disabled":false,"rental_uris":{"android":"levelo://app?vid=208b4657-687a-462f-8836-b8fdff94f0fe","ios":"levelo://app?vid=208b4657-687a-462f-8836-b8fdff94f0fe"},"vehicle_type_id":"4","last_reported":1751645566,"current_range_meters":10000,"station_id":"ce4bgph2rcd13ifvqc2g","pricing_plan_id":"cebpf4jnsgd1na2vs0mg"},{"bike_id":"8ecdffee-4250-45e0-9545-f97f60afc09e","system_id":"levelo_inurba_marseille","lat":43.27417,"lon":5.394223,"is_reserved":false,"is_disabled":false,"rental_uris":{"android":"levelo://app?vid=8ecdffee-4250-45e0-9545-f97f60afc09e","ios":"levelo://app?vid=8ecdffee-4250-45e0-9545-f97f60afc09e"},"vehicle_type_id":"4","last_reported":1751645566,"current_range_meters":10000,"station_id":"ce4bhdp2rcd13ifvqf20","pricing_plan_id":"cebpf4jnsgd1na2vs0mg"},{"bike_id":"ab4c7d19-c46f-4e74-9b5d-22d6c9447634","system_id":"levelo_inurba_marseille","lat":43.23143,"lon":5.43737,"is_reserved":false,"is_disabled":false,"rental_uris":{"android":"levelo://app?vid=ab4c7d19-c46f-4e74-9b5d-22d6c9447634","ios":"levelo://app?vid=ab4c7d19-c46f-4e74-9b5d-22d6c9447634"},"vehicle_type_id":"4","last_reported":1751645566,"current_range_meters":10000,"station_id":"ce4bhmp2rcd13ifvqgog","pricing_plan_id":"cebpf4jnsgd1na2vs0mg"},{"bike_id":"15f6f7b1-9290-40cf-84b5-c21f8b6cd29f","system_id":"levelo_inurba_marseille","lat":43.231448,"lon":5.437229,"is_reserved":false,"is_disabled":false,"rental_uris":{"android":"levelo://app?vid=15f6f7b1-9290-40cf-84b5-c21f8b6cd29f","ios":"levelo://app?vid=15f6f7b1-9290-40cf-84b5-c21f8b6cd29f"},"vehicle_type_id":"4","last_reported":1751645566,"current_range_meters":10000,"station_id":"ce4bhmp2rcd13ifvqgog","pricing_plan_id":"cebpf4jnsgd1na2vs0mg"},{"bike_id":"92db54ca-2cf9-4534-b83c-9c27752abc9f","system_id":"levelo_inurba_marseille","lat":43.32042,"lon":5.41543,"is_reserved":false,"is_disabled":false,"rental_uris":{"android":"levelo://app?vid=92db54ca-2cf9-4534-b83c-9c27752abc9f","ios":"levelo://app?vid=92db54ca-2cf9-4534-b83c-9c27752abc9f"},"vehicle_type_id":"4","last_reported":1751645566,"current_range_meters":10000,"station_id":"ce4bhq92rcd13ifvqhkg","pricing_plan_id":"cebpf4jnsgd1na2vs0mg"},{"bike_id":"9f1f6042-7e07-4b00-9dc1-8f0343d9174e","system_id":"levelo_inurba_marseille","lat":43.21188,"lon":5.35067,"is_reserved":false,"is_disabled":false,"rental_uris":{"android":"levelo://app?vid=9f1f6042-7e07-4b00-9dc1-8f0343d9174e","ios":"levelo://app?vid=9f1f6042-7e07-4b00-9dc1-8f0343d9174e"},"vehicle_type_id":"4","last_reported":1751645566,"current_range_meters":10000,"station_id":"st_cvj6sg6p6f1abm77japg","pricing_plan_id":"cebpf4jnsgd1na2vs0mg"},{"bike_id":"ba154a12-11bd-42a5-958a-5992f5d043d1","system_id":"levelo_inurba_marseille","lat":43.304986,"lon":5.370711,"is_reserved":false,"is_disabled":false,"rental_uris":{"android":"levelo://app?vid=ba154a12-11bd-42a5-958a-5992f5d043d1","ios":"levelo://app?vid=ba154a12-11bd-42a5-958a-5992f5d043d1"},"vehicle_type_id":"4","last_reported":1751645566,"current_range_meters":10800,"station_id":"","pricing_plan_id":"cebpf4jnsgd1na2vs0mg"},{"bike_id":"93b5af8f-d7e5-42f5-b35c-0e95e05a7947","system_id":"levelo_inurba_marseille","lat":43.292326,"lon":5.360653,"is_reserved":false,"is_disabled":false,"rental_uris":{"android":"levelo://app?vid=93b5af8f-d7e5-42f5-b35c-0e95e05a7947","ios":"levelo://app?vid=93b5af8f-d7e5-42f5-b35c-0e95e05a7947"},"vehicle_type_id":"4","last_reported":1751645566,"current_range_meters":10800,"station_id":"ce4bhb92rcd13ifvqen0","pricing_plan_id":"cebpf4jnsgd1na2vs0mg"},{"bike_id":"ee0c95fe-dabd-4787-8664-9aeb19dfc1e8","system_id":"levelo_inurba_marseille","lat":43.284,"lon":5.34993,"is_reserved":false,"is_disabled":false,"rental_uris":{"android":"levelo://app?vid=ee0c95fe-dabd-4787-8664-9aeb19dfc1e8","ios":"levelo://app?vid=ee0c95fe-dabd-4787-8664-9aeb19dfc1e8"},"vehicle_type_id":"4","last_reported":1751645566,"current_range_meters":10800,"station_id":"ce4bhbh2rcd13ifvqepg","pricing_plan_id":"cebpf4jnsgd1na2vs0mg"},{"bike_id":"c9934683-1cfc-4d9f-97e5-c684965c3d93","system_id":"levelo_inurba_marseille","lat":43.2826,"lon":5.35065,"is_reserved":false,"is_disabled":false,"rental_uris":{"android":"levelo://app?vid=c9934683-1cfc-4d9f-97e5-c684965c3d93","ios":"levelo://app?vid=c9934683-1cfc-4d9f-97e5-c684965c3d93"},"vehicle_type_id":"4","last_reported":1751645566,"current_range_meters":10800,"station_id":"ce4bhbp2rcd13ifvqerg","pricing_plan_id":"cebpf4jnsgd1na2vs0mg"},{"bike_id":"8b6353d8-d3a1-467d-83db-87ed0f49d335","system_id":"levelo_inurba_marseille","lat":43.2861,"lon":5.35108,"is_reserved":false,"is_disabled":false,"rental_uris":{"android":"levelo://app?vid=8b6353d8-d3a1-467d-83db-87ed0f49d335","ios":"levelo://app?vid=8b6353d8-d3a1-467d-83db-87ed0f49d335"},"vehicle_type_id":"4","last_reported":1751645566,"current_range_meters":10800,"station_id":"ce4bhch2rcd13ifvqeug","pricing_plan_id":"cebpf4jnsgd1na2vs0mg"},{"bike_id":"0c4b7fdb-b39e-49b3-a2b0-ae3d0f43e89d","system_id":"levelo_inurba_marseille","lat":43.32902,"lon":5.40569,"is_reserved":false,"is_disabled":false,"rental_uris":{"android":"levelo://app?vid=0c4b7fdb-b39e-49b3-a2b0-ae3d0f43e89d","ios":"levelo://app?vid=0c4b7fdb-b39e-49b3-a2b0-ae3d0f43e89d"},"vehicle_type_id":"4","last_reported":1751645566,"current_range_meters":11200,"station_id":"","pricing_plan_id":"cebpf4jnsgd1na2vs0mg"},{"bike_id":"60c282ed-9b89-4a43-8179-9a9582c2f206","system_id":"levelo_inurba_marseille","lat":43.28849,"lon":5.3587,"is_reserved":false,"is_disabled":false,"rental_uris":{"android":"levelo://app?vid=60c282ed-9b89-4a43-8179-9a9582c2f206","ios":"levelo://app?vid=60c282ed-9b89-4a43-8179-9a9582c2f206"},"vehicle_type_id":"4","last_reported":1751645566,"current_range_meters":11200,"station_id":"ce4bhb12rcd13ifvqem0","pricing_plan_id":"cebpf4jnsgd1na2vs0mg"},{"bike_id":"ef187513-ac2b-4d2a-8078-bf4a45a69324","system_id":"levelo_inurba_marseille","lat":43.28409,"lon":5.34996,"is_reserved":false,"is_disabled":false,"rental_uris":{"android":"levelo://app?vid=ef187513-ac2b-4d2a-8078-bf4a45a69324","ios":"levelo://app?vid=ef187513-ac2b-4d2a-8078-bf4a45a69324"},"vehicle_type_id":"4","last_reported":1751645566,"current_range_meters":11200,"station_id":"ce4bhbh2rcd13ifvqepg","pricing_plan_id":"cebpf4jnsgd1na2vs0mg"},{"bike_id":"74afcdcb-b450-4077-9b77-274bb8e50e58","system_id":"levelo_inurba_marseille","lat":43.26201,"lon":5.37933,"is_reserved":false,"is_disabled":false,"rental_uris":{"android":"levelo://app?vid=74afcdcb-b450-4077-9b77-274bb8e50e58","ios":"levelo://app?vid=74afcdcb-b450-4077-9b77-274bb8e50e58"},"vehicle_type_id":"4","last_reported":1751645566,"current_range_meters":11200,"station_id":"ce4bhjp2rcd13ifvqg90","pricing_plan_id":"cebpf4jnsgd1na2vs0mg"},{"bike_id":"18e03d2b-69ba-4af2-bdb8-60416e0aab62","system_id":"levelo_inurba_marseille","lat":43.298963,"lon":5.436697,"is_reserved":false,"is_disabled":false,"rental_uris":{"android":"levelo://app?vid=18e03d2b-69ba-4af2-bdb8-60416e0aab62","ios":"levelo://app?vid=18e03d2b-69ba-4af2-bdb8-60416e0aab62"},"vehicle_type_id":"4","last_reported":1751645566,"current_range_meters":11200,"station_id":"ce4bhpp2rcd13ifvqhfg","pricing_plan_id":"cebpf4jnsgd1na2vs0mg"},{"bike_id":"175513bb-dce2-48e2-83c8-1e9f1cb23cd0","system_id":"levelo_inurba_marseille","lat":43.286255,"lon":5.412651,"is_reserved":false,"is_disabled":false,"rental_uris":{"android":"levelo://app?vid=175513bb-dce2-48e2-83c8-1e9f1cb23cd0","ios":"levelo://app?vid=175513bb-dce2-48e2-83c8-1e9f1cb23cd0"},"vehicle_type_id":"4","last_reported":1751645566,"current_range_meters":11600,"station_id":"","pricing_plan_id":"cebpf4jnsgd1na2vs0mg"},{"bike_id":"d92ac049-7b3c-44c5-a379-e85b9d5987b2","system_id":"levelo_inurba_marseille","lat":43.29582,"lon":5.36737,"is_reserved":false,"is_disabled":false,"rental_uris":{"android":"levelo://app?vid=d92ac049-7b3c-44c5-a379-e85b9d5987b2","ios":"levelo://app?vid=d92ac049-7b3c-44c5-a379-e85b9d5987b2"},"vehicle_type_id":"4","last_reported":1751645566,"current_range_meters":11600,"station_id":"ce4bgph2rcd13ifvqc2g","pricing_plan_id":"cebpf4jnsgd1na2vs0mg"},{"bike_id":"5d020ab1-296e-4f7d-891b-034847ce2d4e","system_id":"levelo_inurba_marseille","lat":43.2951,"lon":5.394,"is_reserved":false,"is_disabled":false,"rental_uris":{"android":"levelo://app?vid=5d020ab1-296e-4f7d-891b-034847ce2d4e","ios":"levelo://app?vid=5d020ab1-296e-4f7d-891b-034847ce2d4e"},"vehicle_type_id":"4","last_reported":1751645566,"current_range_meters":11600,"station_id":"ce4bh292rcd13ifvqdf0","pricing_plan_id":"cebpf4jnsgd1na2vs0mg"},{"bike_id":"a81f7a76-ef50-4460-99dc-71c04804c746","system_id":"levelo_inurba_marseille","lat":43.2927,"lon":5.36836,"is_reserved":false,"is_disabled":false,"rental_uris":{"android":"levelo://app?vid=a81f7a76-ef50-4460-99dc-71c04804c746","ios":"levelo://app?vid=a81f7a76-ef50-4460-99dc-71c04804c746"},"vehicle_type_id":"4","last_reported":1751645566,"current_range_meters":11600,"station_id":"ce4bhbp2rcd13ifvqesg","pricing_plan_id":"cebpf4jnsgd1na2vs0mg"},{"bike_id":"ee23c8c9-4b9d-4553-88ca-823f2562232b","system_id":"levelo_inurba_marseille","lat":43.28627,"lon":5.35102,"is_reserved":false,"is_disabled":false,"rental_uris":{"android":"levelo://app?vid=ee23c8c9-4b9d-4553-88ca-823f2562232b","ios":"levelo://app?vid=ee23c8c9-4b9d-4553-88ca-823f2562232b"},"vehicle_type_id":"4","last_reported":1751645566,"current_range_meters":11600,"station_id":"ce4bhch2rcd13ifvqeug","pricing_plan_id":"cebpf4jnsgd1na2vs0mg"},{"bike_id":"d66f0934-1e7d-42a8-9237-626d7849b2fc","system_id":"levelo_inurba_marseille","lat":43.23961,"lon":5.36633,"is_reserved":false,"is_disabled":false,"rental_uris":{"android":"levelo://app?vid=d66f0934-1e7d-42a8-9237-626d7849b2fc","ios":"levelo://app?vid=d66f0934-1e7d-42a8-9237-626d7849b2fc"},"vehicle_type_id":"4","last_reported":1751645566,"current_range_meters":11600,"station_id":"ce4bhi12rcd13ifvqfp0","pricing_plan_id":"cebpf4jnsgd1na2vs0mg"},{"bike_id":"1b19ee50-f242-4a40-b59c-631477d87288","system_id":"levelo_inurba_marseille","lat":43.337444,"lon":5.374475,"is_reserved":false,"is_disabled":false,"rental_uris":{"android":"levelo://app?vid=1b19ee50-f242-4a40-b59c-631477d87288","ios":"levelo://app?vid=1b19ee50-f242-4a40-b59c-631477d87288"},"vehicle_type_id":"4","last_reported":1751645566,"current_range_meters":12000,"station_id":"","pricing_plan_id":"cebpf4jnsgd1na2vs0mg"},{"bike_id":"5efe4353-6d22-4378-8a65-ba22972d41f1","system_id":"levelo_inurba_marseille","lat":43.26032,"lon":5.37542,"is_reserved":false,"is_disabled":false,"rental_uris":{"android":"levelo://app?vid=5efe4353-6d22-4378-8a65-ba22972d41f1","ios":"levelo://app?vid=5efe4353-6d22-4378-8a65-ba22972d41f1"},"vehicle_type_id":"4","last_reported":1751645566,"current_range_meters":12000,"station_id":"ce4bhgh2rcd13ifvqfa0","pricing_plan_id":"cebpf4jnsgd1na2vs0mg"},{"bike_id":"8037fd0a-fd62-4038-b0cf-e3c72d208320","system_id":"levelo_inurba_marseille","lat":43.24164,"lon":5.36392,"is_reserved":false,"is_disabled":false,"rental_uris":{"android":"levelo://app?vid=8037fd0a-fd62-4038-b0cf-e3c72d208320","ios":"levelo://app?vid=8037fd0a-fd62-4038-b0cf-e3c72d208320"},"vehicle_type_id":"4","last_reported":1751645566,"current_range_meters":12000,"station_id":"cpo36qri1sfpv3e86is0","pricing_plan_id":"cebpf4jnsgd1na2vs0mg"},{"bike_id":"5e197122-e8ec-4f01-b370-6bbfc10c6950","system_id":"levelo_inurba_marseille","lat":43.21187,"lon":5.35071,"is_reserved":false,"is_disabled":false,"rental_uris":{"android":"levelo://app?vid=5e197122-e8ec-4f01-b370-6bbfc10c6950","ios":"levelo://app?vid=5e197122-e8ec-4f01-b370-6bbfc10c6950"},"vehicle_type_id":"4","last_reported":1751645566,"current_range_meters":12000,"station_id":"st_cvj6sg6p6f1abm77japg","pricing_plan_id":"cebpf4jnsgd1na2vs0mg"},{"bike_id":"43b8b648-960e-46ea-bfad-839bb09cb576","system_id":"levelo_inurba_marseille","lat":43.26214,"lon":5.37041,"is_reserved":false,"is_disabled":false,"rental_uris":{"android":"levelo://app?vid=43b8b648-960e-46ea-bfad-839bb09cb576","ios":"levelo://app?vid=43b8b648-960e-46ea-bfad-839bb09cb576"},"vehicle_type_id":"4","last_reported":1751645566,"current_range_meters":12400,"station_id":"","pricing_plan_id":"cebpf4jnsgd1na2vs0mg"},{"bike_id":"c355a901-4b12-4881-a0a1-fe00efe08c24","system_id":"levelo_inurba_marseille","lat":43.30586,"lon":5.39344,"is_reserved":false,"is_disabled":false,"rental_uris":{"android":"levelo://app?vid=c355a901-4b12-4881-a0a1-fe00efe08c24","ios":"levelo://app?vid=c355a901-4b12-4881-a0a1-fe00efe08c24"},"vehicle_type_id":"4","last_reported":1751645566,"current_range_meters":12800,"station_id":"ce4bh0p2rcd13ifvqd80","pricing_plan_id":"cebpf4jnsgd1na2vs0mg"},{"bike_id":"dcc859ee-c0da-417b-a78f-1590cb168d2b","system_id":"levelo_inurba_marseille","lat":43.24384,"lon":5.37057,"is_reserved":false,"is_disabled":false,"rental_uris":{"android":"levelo://app?vid=dcc859ee-c0da-417b-a78f-1590cb168d2b","ios":"levelo://app?vid=dcc859ee-c0da-417b-a78f-1590cb168d2b"},"vehicle_type_id":"4","last_reported":1751645566,"current_range_meters":12800,"station_id":"ce4bhhh2rcd13ifvqfk0","pricing_plan_id":"cebpf4jnsgd1na2vs0mg"},{"bike_id":"d7d5b776-bcc7-423d-8a89-6abd09a6c07c","system_id":"levelo_inurba_marseille","lat":43.24163,"lon":5.36385,"is_reserved":false,"is_disabled":false,"rental_uris":{"android":"levelo://app?vid=d7d5b776-bcc7-423d-8a89-6abd09a6c07c","ios":"levelo://app?vid=d7d5b776-bcc7-423d-8a89-6abd09a6c07c"},"vehicle_type_id":"4","last_reported":1751645566,"current_range_meters":12800,"station_id":"cpo36qri1sfpv3e86is0","pricing_plan_id":"cebpf4jnsgd1na2vs0mg"},{"bike_id":"22888734-05db-4b2c-9ebf-e2f83575acc2","system_id":"levelo_inurba_marseille","lat":43.28413,"lon":5.34983,"is_reserved":false,"is_disabled":false,"rental_uris":{"android":"levelo://app?vid=22888734-05db-4b2c-9ebf-e2f83575acc2","ios":"levelo://app?vid=22888734-05db-4b2c-9ebf-e2f83575acc2"},"vehicle_type_id":"4","last_reported":1751645566,"current_range_meters":13600,"station_id":"ce4bhbh2rcd13ifvqepg","pricing_plan_id":"cebpf4jnsgd1na2vs0mg"},{"bike_id":"bf3d6f1f-bd58-495e-9496-07ed886eb058","system_id":"levelo_inurba_marseille","lat":43.28413,"lon":5.34993,"is_reserved":false,"is_disabled":false,"rental_uris":{"android":"levelo://app?vid=bf3d6f1f-bd58-495e-9496-07ed886eb058","ios":"levelo://app?vid=bf3d6f1f-bd58-495e-9496-07ed886eb058"},"vehicle_type_id":"4","last_reported":1751645566,"current_range_meters":13600,"station_id":"ce4bhbh2rcd13ifvqepg","pricing_plan_id":"cebpf4jnsgd1na2vs0mg"},{"bike_id":"a1e45ad5-0a21-4d93-8115-c83107dc69cc","system_id":"levelo_inurba_marseille","lat":43.25865,"lon":5.39894,"is_reserved":false,"is_disabled":false,"rental_uris":{"android":"levelo://app?vid=a1e45ad5-0a21-4d93-8115-c83107dc69cc","ios":"levelo://app?vid=a1e45ad5-0a21-4d93-8115-c83107dc69cc"},"vehicle_type_id":"4","last_reported":1751645566,"current_range_meters":13600,"station_id":"ce4bhl92rcd13ifvqghg","pricing_plan_id":"cebpf4jnsgd1na2vs0mg"},{"bike_id":"62e288d8-e99a-4ebc-a826-066ab28ebb35","system_id":"levelo_inurba_marseille","lat":43.30806,"lon":5.43541,"is_reserved":false,"is_disabled":false,"rental_uris":{"android":"levelo://app?vid=62e288d8-e99a-4ebc-a826-066ab28ebb35","ios":"levelo://app?vid=62e288d8-e99a-4ebc-a826-066ab28ebb35"},"vehicle_type_id":"4","last_reported":1751645566,"current_range_meters":13600,"station_id":"ce4bhph2rcd13ifvqheg","pricing_plan_id":"cebpf4jnsgd1na2vs0mg"},{"bike_id":"1c8ab180-05fd-405f-9922-b2b2c2d5142f","system_id":"levelo_inurba_marseille","lat":43.337811,"lon":5.381203,"is_reserved":false,"is_disabled":false,"rental_uris":{"android":"levelo://app?vid=1c8ab180-05fd-405f-9922-b2b2c2d5142f","ios":"levelo://app?vid=1c8ab180-05fd-405f-9922-b2b2c2d5142f"},"vehicle_type_id":"4","last_reported":1751645566,"current_range_meters":14000,"station_id":"","pricing_plan_id":"cebpf4jnsgd1na2vs0mg"},{"bike_id":"d924dbef-a75f-48b7-8590-2f154b4f4dbb","system_id":"levelo_inurba_marseille","lat":43.29529,"lon":5.3855,"is_reserved":false,"is_disabled":false,"rental_uris":{"android":"levelo://app?vid=d924dbef-a75f-48b7-8590-2f154b4f4dbb","ios":"levelo://app?vid=d924dbef-a75f-48b7-8590-2f154b4f4dbb"},"vehicle_type_id":"4","last_reported":1751645566,"current_range_meters":14000,"station_id":"ce4bgih2rcd13ifvqba0","pricing_plan_id":"cebpf4jnsgd1na2vs0mg"},{"bike_id":"6a61e7da-2f89-484e-bdbc-8710303df8d8","system_id":"levelo_inurba_marseille","lat":43.31485,"lon":5.37307,"is_reserved":false,"is_disabled":false,"rental_uris":{"android":"levelo://app?vid=6a61e7da-2f89-484e-bdbc-8710303df8d8","ios":"levelo://app?vid=6a61e7da-2f89-484e-bdbc-8710303df8d8"},"vehicle_type_id":"4","last_reported":1751645566,"current_range_meters":14000,"station_id":"ce4bgt12rcd13ifvqcd0","pricing_plan_id":"cebpf4jnsgd1na2vs0mg"},{"bike_id":"3abcaf04-fa20-4c9e-8552-d0af72cfc4c2","system_id":"levelo_inurba_marseille","lat":43.30892,"lon":5.39659,"is_reserved":false,"is_disabled":false,"rental_uris":{"android":"levelo://app?vid=3abcaf04-fa20-4c9e-8552-d0af72cfc4c2","ios":"levelo://app?vid=3abcaf04-fa20-4c9e-8552-d0af72cfc4c2"},"vehicle_type_id":"4","last_reported":1751645566,"current_range_meters":14000,"station_id":"ce4bh012rcd13ifvqcv0","pricing_plan_id":"cebpf4jnsgd1na2vs0mg"},{"bike_id":"fdbca52a-0d1e-48bb-bae1-18dce5ce8efc","system_id":"levelo_inurba_marseille","lat":43.28429,"lon":5.34967,"is_reserved":false,"is_disabled":false,"rental_uris":{"android":"levelo://app?vid=fdbca52a-0d1e-48bb-bae1-18dce5ce8efc","ios":"levelo://app?vid=fdbca52a-0d1e-48bb-bae1-18dce5ce8efc"},"vehicle_type_id":"4","last_reported":1751645566,"current_range_meters":14000,"station_id":"ce4bhbh2rcd13ifvqepg","pricing_plan_id":"cebpf4jnsgd1na2vs0mg"},{"bike_id":"7757fa2b-7960-49f3-bf7a-28b7d2cd6b06","system_id":"levelo_inurba_marseille","lat":43.2396,"lon":5.3664,"is_reserved":false,"is_disabled":false,"rental_uris":{"android":"levelo://app?vid=7757fa2b-7960-49f3-bf7a-28b7d2cd6b06","ios":"levelo://app?vid=7757fa2b-7960-49f3-bf7a-28b7d2cd6b06"},"vehicle_type_id":"4","last_reported":1751645566,"current_range_meters":14000,"station_id":"ce4bhi12rcd13ifvqfp0","pricing_plan_id":"cebpf4jnsgd1na2vs0mg"},{"bike_id":"10c7db0e-b9e8-4f67-9963-514a70690ae5","system_id":"levelo_inurba_marseille","lat":43.23962,"lon":5.3665,"is_reserved":false,"is_disabled":false,"rental_uris":{"android":"levelo://app?vid=10c7db0e-b9e8-4f67-9963-514a70690ae5","ios":"levelo://app?vid=10c7db0e-b9e8-4f67-9963-514a70690ae5"},"vehicle_type_id":"4","last_reported":1751645566,"current_range_meters":14000,"station_id":"ce4bhi12rcd13ifvqfp0","pricing_plan_id":"cebpf4jnsgd1na2vs0mg"},{"bike_id":"3068e15c-9d9c-4e47-9b39-227daa99a7db","system_id":"levelo_inurba_marseille","lat":43.2815,"lon":5.42643,"is_reserved":false,"is_disabled":false,"rental_uris":{"android":"levelo://app?vid=3068e15c-9d9c-4e47-9b39-227daa99a7db","ios":"levelo://app?vid=3068e15c-9d9c-4e47-9b39-227daa99a7db"},"vehicle_type_id":"4","last_reported":1751645566,"current_range_meters":14000,"station_id":"ce4bhnh2rcd13ifvqgug","pricing_plan_id":"cebpf4jnsgd1na2vs0mg"},{"bike_id":"fe2fa8ec-8dae-412a-a387-87d100e2aae9","system_id":"levelo_inurba_marseille","lat":43.23191,"lon":5.35553,"is_reserved":false,"is_disabled":false,"rental_uris":{"android":"levelo://app?vid=fe2fa8ec-8dae-412a-a387-87d100e2aae9","ios":"levelo://app?vid=fe2fa8ec-8dae-412a-a387-87d100e2aae9"},"vehicle_type_id":"4","last_reported":1751645566,"current_range_meters":14000,"station_id":"ce4bhu92rcd13ifvqi70","pricing_plan_id":"cebpf4jnsgd1na2vs0mg"},{"bike_id":"2eaff819-17d1-426e-9e73-eca677836486","system_id":"levelo_inurba_marseille","lat":43.29003,"lon":5.35606,"is_reserved":false,"is_disabled":false,"rental_uris":{"android":"levelo://app?vid=2eaff819-17d1-426e-9e73-eca677836486","ios":"levelo://app?vid=2eaff819-17d1-426e-9e73-eca677836486"},"vehicle_type_id":"4","last_reported":1751645566,"current_range_meters":14400,"station_id":"ce4bhb92rcd13ifvqen0","pricing_plan_id":"cebpf4jnsgd1na2vs0mg"},{"bike_id":"62335388-89eb-4f46-bb6d-a6ebc13b2c40","system_id":"levelo_inurba_marseille","lat":43.2927,"lon":5.36846,"is_reserved":false,"is_disabled":false,"rental_uris":{"android":"levelo://app?vid=62335388-89eb-4f46-bb6d-a6ebc13b2c40","ios":"levelo://app?vid=62335388-89eb-4f46-bb6d-a6ebc13b2c40"},"vehicle_type_id":"4","last_reported":1751645566,"current_range_meters":14400,"station_id":"ce4bhbp2rcd13ifvqesg","pricing_plan_id":"cebpf4jnsgd1na2vs0mg"},{"bike_id":"ec5471a7-9074-44dc-942a-ee46388be4d2","system_id":"levelo_inurba_marseille","lat":43.23952,"lon":5.3665,"is_reserved":false,"is_disabled":false,"rental_uris":{"android":"levelo://app?vid=ec5471a7-9074-44dc-942a-ee46388be4d2","ios":"levelo://app?vid=ec5471a7-9074-44dc-942a-ee46388be4d2"},"vehicle_type_id":"4","last_reported":1751645566,"current_range_meters":14400,"station_id":"ce4bhi12rcd13ifvqfp0","pricing_plan_id":"cebpf4jnsgd1na2vs0mg"},{"bike_id":"bf16840f-2e0f-47eb-8d30-3dc4199df254","system_id":"levelo_inurba_marseille","lat":43.31747,"lon":5.39036,"is_reserved":false,"is_disabled":false,"rental_uris":{"android":"levelo://app?vid=bf16840f-2e0f-47eb-8d30-3dc4199df254","ios":"levelo://app?vid=bf16840f-2e0f-47eb-8d30-3dc4199df254"},"vehicle_type_id":"4","last_reported":1751645566,"current_range_meters":14400,"station_id":"ce4bhqp2rcd13ifvqhng","pricing_plan_id":"cebpf4jnsgd1na2vs0mg"},{"bike_id":"2ffe8851-6ce9-4eaf-816a-e2e07280fc0c","system_id":"levelo_inurba_marseille","lat":43.312095,"lon":5.384686,"is_reserved":false,"is_disabled":false,"rental_uris":{"android":"levelo://app?vid=2ffe8851-6ce9-4eaf-816a-e2e07280fc0c","ios":"levelo://app?vid=2ffe8851-6ce9-4eaf-816a-e2e07280fc0c"},"vehicle_type_id":"4","last_reported":1751645566,"current_range_meters":14400,"station_id":"ce4bhqp2rcd13ifvqhng","pricing_plan_id":"cebpf4jnsgd1na2vs0mg"},{"bike_id":"54679e72-a7fa-4b18-8c94-dbd3488afa84","system_id":"levelo_inurba_marseille","lat":43.30449,"lon":5.38913,"is_reserved":false,"is_disabled":false,"rental_uris":{"android":"levelo://app?vid=54679e72-a7fa-4b18-8c94-dbd3488afa84","ios":"levelo://app?vid=54679e72-a7fa-4b18-8c94-dbd3488afa84"},"vehicle_type_id":"4","last_reported":1751645566,"current_range_meters":14800,"station_id":"ce4bgk12rcd13ifvqbi0","pricing_plan_id":"cebpf4jnsgd1na2vs0mg"},{"bike_id":"e8b199ed-744c-47f9-ad68-7c59de5be47d","system_id":"levelo_inurba_marseille","lat":43.28617,"lon":5.35101,"is_reserved":false,"is_disabled":false,"rental_uris":{"android":"levelo://app?vid=e8b199ed-744c-47f9-ad68-7c59de5be47d","ios":"levelo://app?vid=e8b199ed-744c-47f9-ad68-7c59de5be47d"},"vehicle_type_id":"4","last_reported":1751645566,"current_range_meters":14800,"station_id":"ce4bhch2rcd13ifvqeug","pricing_plan_id":"cebpf4jnsgd1na2vs0mg"},{"bike_id":"d6c8fd92-db64-4f48-b850-1a28e6d2bfa7","system_id":"levelo_inurba_marseille","lat":43.29197,"lon":5.35803,"is_reserved":false,"is_disabled":false,"rental_uris":{"android":"levelo://app?vid=d6c8fd92-db64-4f48-b850-1a28e6d2bfa7","ios":"levelo://app?vid=d6c8fd92-db64-4f48-b850-1a28e6d2bfa7"},"vehicle_type_id":"4","last_reported":1751645566,"current_range_meters":15200,"station_id":"ce4bhb12rcd13ifvqel0","pricing_plan_id":"cebpf4jnsgd1na2vs0mg"},{"bike_id":"282f46f6-58bd-4bef-8b1a-429186abaf07","system_id":"levelo_inurba_marseille","lat":43.28633,"lon":5.35102,"is_reserved":false,"is_disabled":false,"rental_uris":{"android":"levelo://app?vid=282f46f6-58bd-4bef-8b1a-429186abaf07","ios":"levelo://app?vid=282f46f6-58bd-4bef-8b1a-429186abaf07"},"vehicle_type_id":"4","last_reported":1751645566,"current_range_meters":15200,"station_id":"ce4bhch2rcd13ifvqeug","pricing_plan_id":"cebpf4jnsgd1na2vs0mg"},{"bike_id":"2dfefc75-ee6a-4525-ab73-850b46d8f26c","system_id":"levelo_inurba_marseille","lat":43.26035,"lon":5.37548,"is_reserved":false,"is_disabled":false,"rental_uris":{"android":"levelo://app?vid=2dfefc75-ee6a-4525-ab73-850b46d8f26c","ios":"levelo://app?vid=2dfefc75-ee6a-4525-ab73-850b46d8f26c"},"vehicle_type_id":"4","last_reported":1751645566,"current_range_meters":15200,"station_id":"ce4bhgh2rcd13ifvqfa0","pricing_plan_id":"cebpf4jnsgd1na2vs0mg"},{"bike_id":"a17352c2-9cd3-400c-895d-4a1a67914d06","system_id":"levelo_inurba_marseille","lat":43.231763,"lon":5.399833,"is_reserved":false,"is_disabled":false,"rental_uris":{"android":"levelo://app?vid=a17352c2-9cd3-400c-895d-4a1a67914d06","ios":"levelo://app?vid=a17352c2-9cd3-400c-895d-4a1a67914d06"},"vehicle_type_id":"4","last_reported":1751645566,"current_range_meters":15200,"station_id":"ce4bhn12rcd13ifvqgqg","pricing_plan_id":"cebpf4jnsgd1na2vs0mg"},{"bike_id":"61087253-ad6e-4c1f-ab3e-7a21fee02900","system_id":"levelo_inurba_marseille","lat":43.31891,"lon":5.40739,"is_reserved":false,"is_disabled":false,"rental_uris":{"android":"levelo://app?vid=61087253-ad6e-4c1f-ab3e-7a21fee02900","ios":"levelo://app?vid=61087253-ad6e-4c1f-ab3e-7a21fee02900"},"vehicle_type_id":"4","last_reported":1751645566,"current_range_meters":15200,"station_id":"ce4bhq12rcd13ifvqhig","pricing_plan_id":"cebpf4jnsgd1na2vs0mg"},{"bike_id":"4ecb7908-3ad2-45c3-981a-609fc5badf3f","system_id":"levelo_inurba_marseille","lat":43.33718,"lon":5.39187,"is_reserved":false,"is_disabled":false,"rental_uris":{"android":"levelo://app?vid=4ecb7908-3ad2-45c3-981a-609fc5badf3f","ios":"levelo://app?vid=4ecb7908-3ad2-45c3-981a-609fc5badf3f"},"vehicle_type_id":"4","last_reported":1751645566,"current_range_meters":15200,"station_id":"ce4bhr92rcd13ifvqhsg","pricing_plan_id":"cebpf4jnsgd1na2vs0mg"},{"bike_id":"094015c2-44e4-40f7-a843-9cd2d9cb1f82","system_id":"levelo_inurba_marseille","lat":43.21758,"lon":5.34613,"is_reserved":false,"is_disabled":false,"rental_uris":{"android":"levelo://app?vid=094015c2-44e4-40f7-a843-9cd2d9cb1f82","ios":"levelo://app?vid=094015c2-44e4-40f7-a843-9cd2d9cb1f82"},"vehicle_type_id":"4","last_reported":1751645566,"current_range_meters":15200,"station_id":"st_cvj6r9ubvosntc0bgbag","pricing_plan_id":"cebpf4jnsgd1na2vs0mg"},{"bike_id":"4b8da722-ee9e-48a4-a5e5-3a8a10364708","system_id":"levelo_inurba_marseille","lat":43.31233,"lon":5.37801,"is_reserved":false,"is_disabled":false,"rental_uris":{"android":"levelo://app?vid=4b8da722-ee9e-48a4-a5e5-3a8a10364708","ios":"levelo://app?vid=4b8da722-ee9e-48a4-a5e5-3a8a10364708"},"vehicle_type_id":"4","last_reported":1751645566,"current_range_meters":16000,"station_id":"","pricing_plan_id":"cebpf4jnsgd1na2vs0mg"},{"bike_id":"ae9c11b6-9fdb-4bcb-a733-e6a4b4f20f00","system_id":"levelo_inurba_marseille","lat":43.30933,"lon":5.40142,"is_reserved":false,"is_disabled":false,"rental_uris":{"android":"levelo://app?vid=ae9c11b6-9fdb-4bcb-a733-e6a4b4f20f00","ios":"levelo://app?vid=ae9c11b6-9fdb-4bcb-a733-e6a4b4f20f00"},"vehicle_type_id":"4","last_reported":1751645566,"current_range_meters":16000,"station_id":"","pricing_plan_id":"cebpf4jnsgd1na2vs0mg"},{"bike_id":"2c8d6737-b89d-408d-8770-af93b507a41f","system_id":"levelo_inurba_marseille","lat":43.30132,"lon":5.40062,"is_reserved":false,"is_disabled":false,"rental_uris":{"android":"levelo://app?vid=2c8d6737-b89d-408d-8770-af93b507a41f","ios":"levelo://app?vid=2c8d6737-b89d-408d-8770-af93b507a41f"},"vehicle_type_id":"4","last_reported":1751645566,"current_range_meters":16000,"station_id":"","pricing_plan_id":"cebpf4jnsgd1na2vs0mg"},{"bike_id":"c01bdce1-313c-4c65-8450-a19793b51ab1","system_id":"levelo_inurba_marseille","lat":43.3042,"lon":5.39744,"is_reserved":false,"is_disabled":false,"rental_uris":{"android":"levelo://app?vid=c01bdce1-313c-4c65-8450-a19793b51ab1","ios":"levelo://app?vid=c01bdce1-313c-4c65-8450-a19793b51ab1"},"vehicle_type_id":"4","last_reported":1751645566,"current_range_meters":16000,"station_id":"ce4bh092rcd13ifvqd20","pricing_plan_id":"cebpf4jnsgd1na2vs0mg"},{"bike_id":"4eaab789-42fc-4e15-a2d0-8eba4af3a581","system_id":"levelo_inurba_marseille","lat":43.30597,"lon":5.39356,"is_reserved":false,"is_disabled":false,"rental_uris":{"android":"levelo://app?vid=4eaab789-42fc-4e15-a2d0-8eba4af3a581","ios":"levelo://app?vid=4eaab789-42fc-4e15-a2d0-8eba4af3a581"},"vehicle_type_id":"4","last_reported":1751645566,"current_range_meters":16000,"station_id":"ce4bh0p2rcd13ifvqd80","pricing_plan_id":"cebpf4jnsgd1na2vs0mg"},{"bike_id":"a25773dd-2a9a-4d2c-be42-07e5c6484921","system_id":"levelo_inurba_marseille","lat":43.28852,"lon":5.39328,"is_reserved":false,"is_disabled":false,"rental_uris":{"android":"levelo://app?vid=a25773dd-2a9a-4d2c-be42-07e5c6484921","ios":"levelo://app?vid=a25773dd-2a9a-4d2c-be42-07e5c6484921"},"vehicle_type_id":"4","last_reported":1751645566,"current_range_meters":16000,"station_id":"ce4bh2p2rcd13ifvqdi0","pricing_plan_id":"cebpf4jnsgd1na2vs0mg"},{"bike_id":"51e2c16b-7b4d-4628-9602-ca746bc407dc","system_id":"levelo_inurba_marseille","lat":43.2901,"lon":5.35654,"is_reserved":false,"is_disabled":false,"rental_uris":{"android":"levelo://app?vid=51e2c16b-7b4d-4628-9602-ca746bc407dc","ios":"levelo://app?vid=51e2c16b-7b4d-4628-9602-ca746bc407dc"},"vehicle_type_id":"4","last_reported":1751645566,"current_range_meters":16000,"station_id":"ce4bhb92rcd13ifvqen0","pricing_plan_id":"cebpf4jnsgd1na2vs0mg"},{"bike_id":"9fefc881-cb44-4f8a-be0a-2f1b51b3fa55","system_id":"levelo_inurba_marseille","lat":43.28418,"lon":5.34989,"is_reserved":false,"is_disabled":false,"rental_uris":{"android":"levelo://app?vid=9fefc881-cb44-4f8a-be0a-2f1b51b3fa55","ios":"levelo://app?vid=9fefc881-cb44-4f8a-be0a-2f1b51b3fa55"},"vehicle_type_id":"4","last_reported":1751645566,"current_range_meters":16000,"station_id":"ce4bhbh2rcd13ifvqepg","pricing_plan_id":"cebpf4jnsgd1na2vs0mg"},{"bike_id":"fd9e11cf-6806-41ff-bce2-0dd66386883d","system_id":"levelo_inurba_marseille","lat":43.28418,"lon":5.34985,"is_reserved":false,"is_disabled":false,"rental_uris":{"android":"levelo://app?vid=fd9e11cf-6806-41ff-bce2-0dd66386883d","ios":"levelo://app?vid=fd9e11cf-6806-41ff-bce2-0dd66386883d"},"vehicle_type_id":"4","last_reported":1751645566,"current_range_meters":16000,"station_id":"ce4bhbh2rcd13ifvqepg","pricing_plan_id":"cebpf4jnsgd1na2vs0mg"},{"bike_id":"0f283137-45a2-42d4-b58d-88e420e4638b","system_id":"levelo_inurba_marseille","lat":43.2894,"lon":5.36406,"is_reserved":false,"is_disabled":false,"rental_uris":{"android":"levelo://app?vid=0f283137-45a2-42d4-b58d-88e420e4638b","ios":"levelo://app?vid=0f283137-45a2-42d4-b58d-88e420e4638b"},"vehicle_type_id":"4","last_reported":1751645566,"current_range_meters":16000,"station_id":"ce4bhc92rcd13ifvqetg","pricing_plan_id":"cebpf4jnsgd1na2vs0mg"},{"bike_id":"4d97fa57-dacc-405e-b241-33a9f78bd9c4","system_id":"levelo_inurba_marseille","lat":43.28614,"lon":5.35109,"is_reserved":false,"is_disabled":false,"rental_uris":{"android":"levelo://app?vid=4d97fa57-dacc-405e-b241-33a9f78bd9c4","ios":"levelo://app?vid=4d97fa57-dacc-405e-b241-33a9f78bd9c4"},"vehicle_type_id":"4","last_reported":1751645566,"current_range_meters":16000,"station_id":"ce4bhch2rcd13ifvqeug","pricing_plan_id":"cebpf4jnsgd1na2vs0mg"},{"bike_id":"5d5db2ec-cda7-4436-8d94-288db2657953","system_id":"levelo_inurba_marseille","lat":43.27144,"lon":5.41035,"is_reserved":false,"is_disabled":false,"rental_uris":{"android":"levelo://app?vid=5d5db2ec-cda7-4436-8d94-288db2657953","ios":"levelo://app?vid=5d5db2ec-cda7-4436-8d94-288db2657953"},"vehicle_type_id":"4","last_reported":1751645566,"current_range_meters":16000,"station_id":"ce4bhl12rcd13ifvqgf0","pricing_plan_id":"cebpf4jnsgd1na2vs0mg"},{"bike_id":"48115cbd-6d47-467d-89b9-649dbf71a0ab","system_id":"levelo_inurba_marseille","lat":43.25116,"lon":5.40319,"is_reserved":false,"is_disabled":false,"rental_uris":{"android":"levelo://app?vid=48115cbd-6d47-467d-89b9-649dbf71a0ab","ios":"levelo://app?vid=48115cbd-6d47-467d-89b9-649dbf71a0ab"},"vehicle_type_id":"4","last_reported":1751645566,"current_range_meters":16000,"station_id":"ce4bhlh2rcd13ifvqgig","pricing_plan_id":"cebpf4jnsgd1na2vs0mg"},{"bike_id":"b58be6a7-f3f7-44ca-b1a4-bd8bbbfe75ee","system_id":"levelo_inurba_marseille","lat":43.30299,"lon":5.39263,"is_reserved":false,"is_disabled":false,"rental_uris":{"android":"levelo://app?vid=b58be6a7-f3f7-44ca-b1a4-bd8bbbfe75ee","ios":"levelo://app?vid=b58be6a7-f3f7-44ca-b1a4-bd8bbbfe75ee"},"vehicle_type_id":"4","last_reported":1751645566,"current_range_meters":16400,"station_id":"ce4bgkh2rcd13ifvqbk0","pricing_plan_id":"cebpf4jnsgd1na2vs0mg"},{"bike_id":"8ff10084-935a-4216-89ae-c09e3beb77b2","system_id":"levelo_inurba_marseille","lat":43.29522,"lon":5.37513,"is_reserved":false,"is_disabled":false,"rental_uris":{"android":"levelo://app?vid=8ff10084-935a-4216-89ae-c09e3beb77b2","ios":"levelo://app?vid=8ff10084-935a-4216-89ae-c09e3beb77b2"},"vehicle_type_id":"4","last_reported":1751645566,"current_range_meters":16400,"station_id":"ce4bgkp2rcd13ifvqbmg","pricing_plan_id":"cebpf4jnsgd1na2vs0mg"},{"bike_id":"fe8d16a7-cf60-4b6a-b660-77d1e5f5ced1","system_id":"levelo_inurba_marseille","lat":43.304588,"lon":5.379102,"is_reserved":false,"is_disabled":false,"rental_uris":{"android":"levelo://app?vid=fe8d16a7-cf60-4b6a-b660-77d1e5f5ced1","ios":"levelo://app?vid=fe8d16a7-cf60-4b6a-b660-77d1e5f5ced1"},"vehicle_type_id":"4","last_reported":1751645566,"current_range_meters":16400,"station_id":"ce4bgup2rcd13ifvqcn0","pricing_plan_id":"cebpf4jnsgd1na2vs0mg"},{"bike_id":"ba628c14-c696-427e-9e1f-1584cebb4e8b","system_id":"levelo_inurba_marseille","lat":43.30333,"lon":5.40426,"is_reserved":false,"is_disabled":false,"rental_uris":{"android":"levelo://app?vid=ba628c14-c696-427e-9e1f-1584cebb4e8b","ios":"levelo://app?vid=ba628c14-c696-427e-9e1f-1584cebb4e8b"},"vehicle_type_id":"4","last_reported":1751645566,"current_range_meters":16400,"station_id":"ce4bh012rcd13ifvqd10","pricing_plan_id":"cebpf4jnsgd1na2vs0mg"},{"bike_id":"48365e9c-1454-42e2-a4e1-ef25e8548528","system_id":"levelo_inurba_marseille","lat":43.29172,"lon":5.3716,"is_reserved":false,"is_disabled":false,"rental_uris":{"android":"levelo://app?vid=48365e9c-1454-42e2-a4e1-ef25e8548528","ios":"levelo://app?vid=48365e9c-1454-42e2-a4e1-ef25e8548528"},"vehicle_type_id":"4","last_reported":1751645566,"current_range_meters":16400,"station_id":"ce4bha92rcd13ifvqeh0","pricing_plan_id":"cebpf4jnsgd1na2vs0mg"},{"bike_id":"1b2078db-80e3-4784-9c55-10dadbaa1482","system_id":"levelo_inurba_marseille","lat":43.25024,"lon":5.389217,"is_reserved":false,"is_disabled":false,"rental_uris":{"android":"levelo://app?vid=1b2078db-80e3-4784-9c55-10dadbaa1482","ios":"levelo://app?vid=1b2078db-80e3-4784-9c55-10dadbaa1482"},"vehicle_type_id":"4","last_reported":1751645566,"current_range_meters":16400,"station_id":"ce4bhgp2rcd13ifvqfd0","pricing_plan_id":"cebpf4jnsgd1na2vs0mg"},{"bike_id":"ac00e223-eace-4129-bba2-b5db79a4a623","system_id":"levelo_inurba_marseille","lat":43.28615,"lon":5.35108,"is_reserved":false,"is_disabled":false,"rental_uris":{"android":"levelo://app?vid=ac00e223-eace-4129-bba2-b5db79a4a623","ios":"levelo://app?vid=ac00e223-eace-4129-bba2-b5db79a4a623"},"vehicle_type_id":"4","last_reported":1751645566,"current_range_meters":16800,"station_id":"","pricing_plan_id":"cebpf4jnsgd1na2vs0mg"},{"bike_id":"35f83068-1cee-4a3a-8e74-0fb50e9f8093","system_id":"levelo_inurba_marseille","lat":43.29035,"lon":5.35929,"is_reserved":false,"is_disabled":false,"rental_uris":{"android":"levelo://app?vid=35f83068-1cee-4a3a-8e74-0fb50e9f8093","ios":"levelo://app?vid=35f83068-1cee-4a3a-8e74-0fb50e9f8093"},"vehicle_type_id":"4","last_reported":1751645566,"current_range_meters":16800,"station_id":"ce4bha92rcd13ifvqeg0","pricing_plan_id":"cebpf4jnsgd1na2vs0mg"},{"bike_id":"3e9f2742-ac46-41ca-b950-9cabece2c617","system_id":"levelo_inurba_marseille","lat":43.27373,"lon":5.36265,"is_reserved":false,"is_disabled":false,"rental_uris":{"android":"levelo://app?vid=3e9f2742-ac46-41ca-b950-9cabece2c617","ios":"levelo://app?vid=3e9f2742-ac46-41ca-b950-9cabece2c617"},"vehicle_type_id":"4","last_reported":1751645566,"current_range_meters":16800,"station_id":"ce4bhbh2rcd13ifvqeo0","pricing_plan_id":"cebpf4jnsgd1na2vs0mg"},{"bike_id":"ffbee037-c28c-4bd4-acfd-fad70d66e16c","system_id":"levelo_inurba_marseille","lat":43.28267,"lon":5.35057,"is_reserved":false,"is_disabled":false,"rental_uris":{"android":"levelo://app?vid=ffbee037-c28c-4bd4-acfd-fad70d66e16c","ios":"levelo://app?vid=ffbee037-c28c-4bd4-acfd-fad70d66e16c"},"vehicle_type_id":"4","last_reported":1751645566,"current_range_meters":16800,"station_id":"ce4bhbp2rcd13ifvqerg","pricing_plan_id":"cebpf4jnsgd1na2vs0mg"},{"bike_id":"c5401d1a-3211-425d-8900-7e256f6118b6","system_id":"levelo_inurba_marseille","lat":43.28618,"lon":5.35104,"is_reserved":false,"is_disabled":false,"rental_uris":{"android":"levelo://app?vid=c5401d1a-3211-425d-8900-7e256f6118b6","ios":"levelo://app?vid=c5401d1a-3211-425d-8900-7e256f6118b6"},"vehicle_type_id":"4","last_reported":1751645566,"current_range_meters":16800,"station_id":"ce4bhch2rcd13ifvqeug","pricing_plan_id":"cebpf4jnsgd1na2vs0mg"},{"bike_id":"7997c3cc-7814-43fa-9643-e4cb18c438de","system_id":"levelo_inurba_marseille","lat":43.28613,"lon":5.35104,"is_reserved":false,"is_disabled":false,"rental_uris":{"android":"levelo://app?vid=7997c3cc-7814-43fa-9643-e4cb18c438de","ios":"levelo://app?vid=7997c3cc-7814-43fa-9643-e4cb18c438de"},"vehicle_type_id":"4","last_reported":1751645566,"current_range_meters":16800,"station_id":"ce4bhch2rcd13ifvqeug","pricing_plan_id":"cebpf4jnsgd1na2vs0mg"},{"bike_id":"fb40beeb-e875-410e-bf70-d90a23251070","system_id":"levelo_inurba_marseille","lat":43.27426,"lon":5.39417,"is_reserved":false,"is_disabled":false,"rental_uris":{"android":"levelo://app?vid=fb40beeb-e875-410e-bf70-d90a23251070","ios":"levelo://app?vid=fb40beeb-e875-410e-bf70-d90a23251070"},"vehicle_type_id":"4","last_reported":1751645566,"current_range_meters":16800,"station_id":"ce4bhdp2rcd13ifvqf20","pricing_plan_id":"cebpf4jnsgd1na2vs0mg"},{"bike_id":"f13f2211-9f5e-4a7d-ad57-31efebc9a361","system_id":"levelo_inurba_marseille","lat":43.2587,"lon":5.39892,"is_reserved":false,"is_disabled":false,"rental_uris":{"android":"levelo://app?vid=f13f2211-9f5e-4a7d-ad57-31efebc9a361","ios":"levelo://app?vid=f13f2211-9f5e-4a7d-ad57-31efebc9a361"},"vehicle_type_id":"4","last_reported":1751645566,"current_range_meters":16800,"station_id":"ce4bhl92rcd13ifvqghg","pricing_plan_id":"cebpf4jnsgd1na2vs0mg"},{"bike_id":"ce88f499-963d-4293-b174-6200424d2820","system_id":"levelo_inurba_marseille","lat":43.281555,"lon":5.426369,"is_reserved":false,"is_disabled":false,"rental_uris":{"android":"levelo://app?vid=ce88f499-963d-4293-b174-6200424d2820","ios":"levelo://app?vid=ce88f499-963d-4293-b174-6200424d2820"},"vehicle_type_id":"4","last_reported":1751645566,"current_range_meters":16800,"station_id":"ce4bhnh2rcd13ifvqgug","pricing_plan_id":"cebpf4jnsgd1na2vs0mg"},{"bike_id":"3847022a-5187-4521-af78-80f88fe96595","system_id":"levelo_inurba_marseille","lat":43.211954,"lon":5.350709,"is_reserved":false,"is_disabled":false,"rental_uris":{"android":"levelo://app?vid=3847022a-5187-4521-af78-80f88fe96595","ios":"levelo://app?vid=3847022a-5187-4521-af78-80f88fe96595"},"vehicle_type_id":"4","last_reported":1751645566,"current_range_meters":16800,"station_id":"st_cvj6sg6p6f1abm77japg","pricing_plan_id":"cebpf4jnsgd1na2vs0mg"},{"bike_id":"a051c54d-70a8-413a-b684-b3798f094b9a","system_id":"levelo_inurba_marseille","lat":43.29529,"lon":5.38548,"is_reserved":false,"is_disabled":false,"rental_uris":{"android":"levelo://app?vid=a051c54d-70a8-413a-b684-b3798f094b9a","ios":"levelo://app?vid=a051c54d-70a8-413a-b684-b3798f094b9a"},"vehicle_type_id":"4","last_reported":1751645566,"current_range_meters":17200,"station_id":"ce4bgih2rcd13ifvqba0","pricing_plan_id":"cebpf4jnsgd1na2vs0mg"},{"bike_id":"a70e5335-fb5d-4e50-af2f-e7fb4ef6c838","system_id":"levelo_inurba_marseille","lat":43.2841,"lon":5.34999,"is_reserved":false,"is_disabled":false,"rental_uris":{"android":"levelo://app?vid=a70e5335-fb5d-4e50-af2f-e7fb4ef6c838","ios":"levelo://app?vid=a70e5335-fb5d-4e50-af2f-e7fb4ef6c838"},"vehicle_type_id":"4","last_reported":1751645566,"current_range_meters":17200,"station_id":"ce4bhbh2rcd13ifvqepg","pricing_plan_id":"cebpf4jnsgd1na2vs0mg"},{"bike_id":"0209a8c8-81a7-4340-b610-5f502740be71","system_id":"levelo_inurba_marseille","lat":43.26197,"lon":5.3793,"is_reserved":false,"is_disabled":false,"rental_uris":{"android":"levelo://app?vid=0209a8c8-81a7-4340-b610-5f502740be71","ios":"levelo://app?vid=0209a8c8-81a7-4340-b610-5f502740be71"},"vehicle_type_id":"4","last_reported":1751645566,"current_range_meters":17200,"station_id":"ce4bhjp2rcd13ifvqg90","pricing_plan_id":"cebpf4jnsgd1na2vs0mg"},{"bike_id":"5345e405-b25b-44c0-8c70-71c031a265cd","system_id":"levelo_inurba_marseille","lat":43.32335,"lon":5.40619,"is_reserved":false,"is_disabled":false,"rental_uris":{"android":"levelo://app?vid=5345e405-b25b-44c0-8c70-71c031a265cd","ios":"levelo://app?vid=5345e405-b25b-44c0-8c70-71c031a265cd"},"vehicle_type_id":"4","last_reported":1751645566,"current_range_meters":17200,"station_id":"ce4bhq92rcd13ifvqhjg","pricing_plan_id":"cebpf4jnsgd1na2vs0mg"},{"bike_id":"552bcf28-72f1-4f10-b8f6-f0512fe0cc4b","system_id":"levelo_inurba_marseille","lat":43.27383,"lon":5.36291,"is_reserved":false,"is_disabled":false,"rental_uris":{"android":"levelo://app?vid=552bcf28-72f1-4f10-b8f6-f0512fe0cc4b","ios":"levelo://app?vid=552bcf28-72f1-4f10-b8f6-f0512fe0cc4b"},"vehicle_type_id":"4","last_reported":1751645566,"current_range_meters":17600,"station_id":"ce4bhbh2rcd13ifvqeo0","pricing_plan_id":"cebpf4jnsgd1na2vs0mg"},{"bike_id":"5f470112-8139-4343-b082-08a74e0b7074","system_id":"levelo_inurba_marseille","lat":43.211875,"lon":5.350864,"is_reserved":false,"is_disabled":false,"rental_uris":{"android":"levelo://app?vid=5f470112-8139-4343-b082-08a74e0b7074","ios":"levelo://app?vid=5f470112-8139-4343-b082-08a74e0b7074"},"vehicle_type_id":"4","last_reported":1751645566,"current_range_meters":17600,"station_id":"st_cvj6sg6p6f1abm77japg","pricing_plan_id":"cebpf4jnsgd1na2vs0mg"},{"bike_id":"2e589b82-2105-431d-880d-4c523ccbae26","system_id":"levelo_inurba_marseille","lat":43.299201,"lon":5.374757,"is_reserved":false,"is_disabled":false,"rental_uris":{"android":"levelo://app?vid=2e589b82-2105-431d-880d-4c523ccbae26","ios":"levelo://app?vid=2e589b82-2105-431d-880d-4c523ccbae26"},"vehicle_type_id":"4","last_reported":1751645566,"current_range_meters":18000,"station_id":"ce4bgjh2rcd13ifvqbg0","pricing_plan_id":"cebpf4jnsgd1na2vs0mg"},{"bike_id":"1036f3b5-5954-48a3-93e5-d291f1ca0c73","system_id":"levelo_inurba_marseille","lat":43.29519,"lon":5.37547,"is_reserved":false,"is_disabled":false,"rental_uris":{"android":"levelo://app?vid=1036f3b5-5954-48a3-93e5-d291f1ca0c73","ios":"levelo://app?vid=1036f3b5-5954-48a3-93e5-d291f1ca0c73"},"vehicle_type_id":"4","last_reported":1751645566,"current_range_meters":18000,"station_id":"ce4bgkp2rcd13ifvqbmg","pricing_plan_id":"cebpf4jnsgd1na2vs0mg"},{"bike_id":"3cf0bd9e-a6b9-41bd-95c5-e8f2f38ad360","system_id":"levelo_inurba_marseille","lat":43.26549,"lon":5.372823,"is_reserved":false,"is_disabled":false,"rental_uris":{"android":"levelo://app?vid=3cf0bd9e-a6b9-41bd-95c5-e8f2f38ad360","ios":"levelo://app?vid=3cf0bd9e-a6b9-41bd-95c5-e8f2f38ad360"},"vehicle_type_id":"4","last_reported":1751645566,"current_range_meters":18000,"station_id":"ce4bhg12rcd13ifvqf70","pricing_plan_id":"cebpf4jnsgd1na2vs0mg"},{"bike_id":"5d0ddf43-5572-4e28-be19-8828b912ad2c","system_id":"levelo_inurba_marseille","lat":43.24804,"lon":5.37455,"is_reserved":false,"is_disabled":false,"rental_uris":{"android":"levelo://app?vid=5d0ddf43-5572-4e28-be19-8828b912ad2c","ios":"levelo://app?vid=5d0ddf43-5572-4e28-be19-8828b912ad2c"},"vehicle_type_id":"4","last_reported":1751645566,"current_range_meters":18000,"station_id":"ce4bhgh2rcd13ifvqfb0","pricing_plan_id":"cebpf4jnsgd1na2vs0mg"},{"bike_id":"25d65b54-2483-49ad-9e8c-b4102ded682f","system_id":"levelo_inurba_marseille","lat":43.212141,"lon":5.350674,"is_reserved":false,"is_disabled":false,"rental_uris":{"android":"levelo://app?vid=25d65b54-2483-49ad-9e8c-b4102ded682f","ios":"levelo://app?vid=25d65b54-2483-49ad-9e8c-b4102ded682f"},"vehicle_type_id":"4","last_reported":1751645566,"current_range_meters":18000,"station_id":"st_cvj6sg6p6f1abm77japg","pricing_plan_id":"cebpf4jnsgd1na2vs0mg"},{"bike_id":"b67e3de7-3a98-48a8-ada1-6072073e6e54","system_id":"levelo_inurba_marseille","lat":43.24571,"lon":5.37365,"is_reserved":false,"is_disabled":false,"rental_uris":{"android":"levelo://app?vid=b67e3de7-3a98-48a8-ada1-6072073e6e54","ios":"levelo://app?vid=b67e3de7-3a98-48a8-ada1-6072073e6e54"},"vehicle_type_id":"4","last_reported":1751645566,"current_range_meters":18800,"station_id":"","pricing_plan_id":"cebpf4jnsgd1na2vs0mg"},{"bike_id":"74f176c8-7f23-49d3-a8d1-0bccb506b09b","system_id":"levelo_inurba_marseille","lat":43.310766,"lon":5.383537,"is_reserved":false,"is_disabled":false,"rental_uris":{"android":"levelo://app?vid=74f176c8-7f23-49d3-a8d1-0bccb506b09b","ios":"levelo://app?vid=74f176c8-7f23-49d3-a8d1-0bccb506b09b"},"vehicle_type_id":"4","last_reported":1751645566,"current_range_meters":18800,"station_id":"","pricing_plan_id":"cebpf4jnsgd1na2vs0mg"},{"bike_id":"046b3718-085f-472b-a917-00b205a331be","system_id":"levelo_inurba_marseille","lat":43.28459,"lon":5.35886,"is_reserved":false,"is_disabled":false,"rental_uris":{"android":"levelo://app?vid=046b3718-085f-472b-a917-00b205a331be","ios":"levelo://app?vid=046b3718-085f-472b-a917-00b205a331be"},"vehicle_type_id":"4","last_reported":1751645566,"current_range_meters":18800,"station_id":"ce4bhah2rcd13ifvqei0","pricing_plan_id":"cebpf4jnsgd1na2vs0mg"},{"bike_id":"aca05101-36a3-469a-8f75-e3270e85fd82","system_id":"levelo_inurba_marseille","lat":43.284,"lon":5.34986,"is_reserved":false,"is_disabled":false,"rental_uris":{"android":"levelo://app?vid=aca05101-36a3-469a-8f75-e3270e85fd82","ios":"levelo://app?vid=aca05101-36a3-469a-8f75-e3270e85fd82"},"vehicle_type_id":"4","last_reported":1751645566,"current_range_meters":18800,"station_id":"ce4bhbh2rcd13ifvqepg","pricing_plan_id":"cebpf4jnsgd1na2vs0mg"},{"bike_id":"f451538d-2ed7-4580-9741-ad992acdae8d","system_id":"levelo_inurba_marseille","lat":43.28265,"lon":5.3506,"is_reserved":false,"is_disabled":false,"rental_uris":{"android":"levelo://app?vid=f451538d-2ed7-4580-9741-ad992acdae8d","ios":"levelo://app?vid=f451538d-2ed7-4580-9741-ad992acdae8d"},"vehicle_type_id":"4","last_reported":1751645566,"current_range_meters":18800,"station_id":"ce4bhbp2rcd13ifvqerg","pricing_plan_id":"cebpf4jnsgd1na2vs0mg"},{"bike_id":"6d4b660b-cf3f-41a7-84f8-75c39ff16a41","system_id":"levelo_inurba_marseille","lat":43.2619,"lon":5.37451,"is_reserved":false,"is_disabled":false,"rental_uris":{"android":"levelo://app?vid=6d4b660b-cf3f-41a7-84f8-75c39ff16a41","ios":"levelo://app?vid=6d4b660b-cf3f-41a7-84f8-75c39ff16a41"},"vehicle_type_id":"4","last_reported":1751645566,"current_range_meters":18800,"station_id":"ce4bhgp2rcd13ifvqfc0","pricing_plan_id":"cebpf4jnsgd1na2vs0mg"},{"bike_id":"7bffb2ac-cfbe-46cb-b09c-e7a1b0640d0f","system_id":"levelo_inurba_marseille","lat":43.270688,"lon":5.422782,"is_reserved":false,"is_disabled":false,"rental_uris":{"android":"levelo://app?vid=7bffb2ac-cfbe-46cb-b09c-e7a1b0640d0f","ios":"levelo://app?vid=7bffb2ac-cfbe-46cb-b09c-e7a1b0640d0f"},"vehicle_type_id":"4","last_reported":1751645566,"current_range_meters":18800,"station_id":"ce4bhk92rcd13ifvqgb0","pricing_plan_id":"cebpf4jnsgd1na2vs0mg"},{"bike_id":"4fc690c8-41ff-46d3-ad6b-f61599f22e68","system_id":"levelo_inurba_marseille","lat":43.27178,"lon":5.40984,"is_reserved":false,"is_disabled":false,"rental_uris":{"android":"levelo://app?vid=4fc690c8-41ff-46d3-ad6b-f61599f22e68","ios":"levelo://app?vid=4fc690c8-41ff-46d3-ad6b-f61599f22e68"},"vehicle_type_id":"4","last_reported":1751645566,"current_range_meters":18800,"station_id":"ce4bhl12rcd13ifvqgf0","pricing_plan_id":"cebpf4jnsgd1na2vs0mg"},{"bike_id":"29b19e99-4845-4ee3-b1ee-35721cd36dc7","system_id":"levelo_inurba_marseille","lat":43.23194,"lon":5.35556,"is_reserved":false,"is_disabled":false,"rental_uris":{"android":"levelo://app?vid=29b19e99-4845-4ee3-b1ee-35721cd36dc7","ios":"levelo://app?vid=29b19e99-4845-4ee3-b1ee-35721cd36dc7"},"vehicle_type_id":"4","last_reported":1751645566,"current_range_meters":18800,"station_id":"ce4bhu92rcd13ifvqi70","pricing_plan_id":"cebpf4jnsgd1na2vs0mg"},{"bike_id":"85e59ae2-b351-4789-8c40-11e04c4e6808","system_id":"levelo_inurba_marseille","lat":43.23194,"lon":5.35555,"is_reserved":false,"is_disabled":false,"rental_uris":{"android":"levelo://app?vid=85e59ae2-b351-4789-8c40-11e04c4e6808","ios":"levelo://app?vid=85e59ae2-b351-4789-8c40-11e04c4e6808"},"vehicle_type_id":"4","last_reported":1751645566,"current_range_meters":18800,"station_id":"ce4bhu92rcd13ifvqi70","pricing_plan_id":"cebpf4jnsgd1na2vs0mg"},{"bike_id":"1f970516-2340-4fe4-946a-9ffac343ed31","system_id":"levelo_inurba_marseille","lat":43.24166,"lon":5.36398,"is_reserved":false,"is_disabled":false,"rental_uris":{"android":"levelo://app?vid=1f970516-2340-4fe4-946a-9ffac343ed31","ios":"levelo://app?vid=1f970516-2340-4fe4-946a-9ffac343ed31"},"vehicle_type_id":"4","last_reported":1751645566,"current_range_meters":18800,"station_id":"cpo36qri1sfpv3e86is0","pricing_plan_id":"cebpf4jnsgd1na2vs0mg"},{"bike_id":"8501c7f1-4540-433a-9226-9677bd87b71a","system_id":"levelo_inurba_marseille","lat":43.21193,"lon":5.35083,"is_reserved":false,"is_disabled":false,"rental_uris":{"android":"levelo://app?vid=8501c7f1-4540-433a-9226-9677bd87b71a","ios":"levelo://app?vid=8501c7f1-4540-433a-9226-9677bd87b71a"},"vehicle_type_id":"4","last_reported":1751645566,"current_range_meters":18800,"station_id":"st_cvj6sg6p6f1abm77japg","pricing_plan_id":"cebpf4jnsgd1na2vs0mg"},{"bike_id":"eee40584-a53a-46c2-94a4-491b77e8d9d1","system_id":"levelo_inurba_marseille","lat":43.21744,"lon":5.34615,"is_reserved":false,"is_disabled":false,"rental_uris":{"android":"levelo://app?vid=eee40584-a53a-46c2-94a4-491b77e8d9d1","ios":"levelo://app?vid=eee40584-a53a-46c2-94a4-491b77e8d9d1"},"vehicle_type_id":"4","last_reported":1751645566,"current_range_meters":19200,"station_id":"","pricing_plan_id":"cebpf4jnsgd1na2vs0mg"},{"bike_id":"adf1d38d-1f03-40cf-9b57-0a8f15f62b2d","system_id":"levelo_inurba_marseille","lat":43.32961,"lon":5.36364,"is_reserved":false,"is_disabled":false,"rental_uris":{"android":"levelo://app?vid=adf1d38d-1f03-40cf-9b57-0a8f15f62b2d","ios":"levelo://app?vid=adf1d38d-1f03-40cf-9b57-0a8f15f62b2d"},"vehicle_type_id":"4","last_reported":1751645566,"current_range_meters":19200,"station_id":"","pricing_plan_id":"cebpf4jnsgd1na2vs0mg"},{"bike_id":"a4d5b09d-2c9c-439a-a36f-57626a772157","system_id":"levelo_inurba_marseille","lat":43.296,"lon":5.38104,"is_reserved":false,"is_disabled":false,"rental_uris":{"android":"levelo://app?vid=a4d5b09d-2c9c-439a-a36f-57626a772157","ios":"levelo://app?vid=a4d5b09d-2c9c-439a-a36f-57626a772157"},"vehicle_type_id":"4","last_reported":1751645566,"current_range_meters":19200,"station_id":"ce4bgl12rcd13ifvqbo0","pricing_plan_id":"cebpf4jnsgd1na2vs0mg"},{"bike_id":"a4e304e5-f598-4c9c-95a4-16ac82afcc72","system_id":"levelo_inurba_marseille","lat":43.29004,"lon":5.35597,"is_reserved":false,"is_disabled":false,"rental_uris":{"android":"levelo://app?vid=a4e304e5-f598-4c9c-95a4-16ac82afcc72","ios":"levelo://app?vid=a4e304e5-f598-4c9c-95a4-16ac82afcc72"},"vehicle_type_id":"4","last_reported":1751645566,"current_range_meters":19200,"station_id":"ce4bhb92rcd13ifvqen0","pricing_plan_id":"cebpf4jnsgd1na2vs0mg"},{"bike_id":"c356cccf-86dc-49d0-9f3e-42e8e2ef49bc","system_id":"levelo_inurba_marseille","lat":43.29276,"lon":5.3684,"is_reserved":false,"is_disabled":false,"rental_uris":{"android":"levelo://app?vid=c356cccf-86dc-49d0-9f3e-42e8e2ef49bc","ios":"levelo://app?vid=c356cccf-86dc-49d0-9f3e-42e8e2ef49bc"},"vehicle_type_id":"4","last_reported":1751645566,"current_range_meters":19200,"station_id":"ce4bhbp2rcd13ifvqesg","pricing_plan_id":"cebpf4jnsgd1na2vs0mg"},{"bike_id":"38dd7cfa-249d-4426-bcf3-a60bca65fa92","system_id":"levelo_inurba_marseille","lat":43.2756,"lon":5.38424,"is_reserved":false,"is_disabled":false,"rental_uris":{"android":"levelo://app?vid=38dd7cfa-249d-4426-bcf3-a60bca65fa92","ios":"levelo://app?vid=38dd7cfa-249d-4426-bcf3-a60bca65fa92"},"vehicle_type_id":"4","last_reported":1751645566,"current_range_meters":19200,"station_id":"ce4bhh92rcd13ifvqfi0","pricing_plan_id":"cebpf4jnsgd1na2vs0mg"},{"bike_id":"84c60308-c7f2-4987-9e2d-f71bb037b6d1","system_id":"levelo_inurba_marseille","lat":43.3229,"lon":5.38265,"is_reserved":false,"is_disabled":false,"rental_uris":{"android":"levelo://app?vid=84c60308-c7f2-4987-9e2d-f71bb037b6d1","ios":"levelo://app?vid=84c60308-c7f2-4987-9e2d-f71bb037b6d1"},"vehicle_type_id":"4","last_reported":1751645566,"current_range_meters":19200,"station_id":"ce4bhr12rcd13ifvqhqg","pricing_plan_id":"cebpf4jnsgd1na2vs0mg"},{"bike_id":"94b8253a-c816-47be-9f9e-876cf02f4a4f","system_id":"levelo_inurba_marseille","lat":43.2119,"lon":5.35068,"is_reserved":false,"is_disabled":false,"rental_uris":{"android":"levelo://app?vid=94b8253a-c816-47be-9f9e-876cf02f4a4f","ios":"levelo://app?vid=94b8253a-c816-47be-9f9e-876cf02f4a4f"},"vehicle_type_id":"4","last_reported":1751645566,"current_range_meters":19200,"station_id":"st_cvj6sg6p6f1abm77japg","pricing_plan_id":"cebpf4jnsgd1na2vs0mg"},{"bike_id":"134a6fd1-cb8b-4ade-a0c2-0b22bf7dca76","system_id":"levelo_inurba_marseille","lat":43.21188,"lon":5.35073,"is_reserved":false,"is_disabled":false,"rental_uris":{"android":"levelo://app?vid=134a6fd1-cb8b-4ade-a0c2-0b22bf7dca76","ios":"levelo://app?vid=134a6fd1-cb8b-4ade-a0c2-0b22bf7dca76"},"vehicle_type_id":"4","last_reported":1751645566,"current_range_meters":19200,"station_id":"st_cvj6sg6p6f1abm77japg","pricing_plan_id":"cebpf4jnsgd1na2vs0mg"},{"bike_id":"fe8ee84c-fdfc-40aa-a1c2-6e36409c0740","system_id":"levelo_inurba_marseille","lat":43.268118,"lon":5.390569,"is_reserved":false,"is_disabled":false,"rental_uris":{"android":"levelo://app?vid=fe8ee84c-fdfc-40aa-a1c2-6e36409c0740","ios":"levelo://app?vid=fe8ee84c-fdfc-40aa-a1c2-6e36409c0740"},"vehicle_type_id":"4","last_reported":1751645566,"current_range_meters":19600,"station_id":"","pricing_plan_id":"cebpf4jnsgd1na2vs0mg"},{"bike_id":"3fc62123-78f7-4bfd-9645-67a7412e0768","system_id":"levelo_inurba_marseille","lat":43.2573,"lon":5.41107,"is_reserved":false,"is_disabled":false,"rental_uris":{"android":"levelo://app?vid=3fc62123-78f7-4bfd-9645-67a7412e0768","ios":"levelo://app?vid=3fc62123-78f7-4bfd-9645-67a7412e0768"},"vehicle_type_id":"4","last_reported":1751645566,"current_range_meters":19600,"station_id":"","pricing_plan_id":"cebpf4jnsgd1na2vs0mg"},{"bike_id":"db41792f-81e6-4396-955a-7c06aefea4f1","system_id":"levelo_inurba_marseille","lat":43.23959,"lon":5.36639,"is_reserved":false,"is_disabled":false,"rental_uris":{"android":"levelo://app?vid=db41792f-81e6-4396-955a-7c06aefea4f1","ios":"levelo://app?vid=db41792f-81e6-4396-955a-7c06aefea4f1"},"vehicle_type_id":"4","last_reported":1751645566,"current_range_meters":19600,"station_id":"ce4bhi12rcd13ifvqfp0","pricing_plan_id":"cebpf4jnsgd1na2vs0mg"},{"bike_id":"874e2e13-faf6-448d-ba2d-edc7a8958ace","system_id":"levelo_inurba_marseille","lat":43.26196,"lon":5.37918,"is_reserved":false,"is_disabled":false,"rental_uris":{"android":"levelo://app?vid=874e2e13-faf6-448d-ba2d-edc7a8958ace","ios":"levelo://app?vid=874e2e13-faf6-448d-ba2d-edc7a8958ace"},"vehicle_type_id":"4","last_reported":1751645566,"current_range_meters":19600,"station_id":"ce4bhjp2rcd13ifvqg90","pricing_plan_id":"cebpf4jnsgd1na2vs0mg"},{"bike_id":"d5ef770d-9759-47e3-b3a5-7d2785ef76db","system_id":"levelo_inurba_marseille","lat":43.33028,"lon":5.39055,"is_reserved":false,"is_disabled":false,"rental_uris":{"android":"levelo://app?vid=d5ef770d-9759-47e3-b3a5-7d2785ef76db","ios":"levelo://app?vid=d5ef770d-9759-47e3-b3a5-7d2785ef76db"},"vehicle_type_id":"4","last_reported":1751645566,"current_range_meters":19600,"station_id":"ce4bhr92rcd13ifvqhrg","pricing_plan_id":"cebpf4jnsgd1na2vs0mg"},{"bike_id":"2799df13-94e0-42df-9cf3-931d3a64e6d6","system_id":"levelo_inurba_marseille","lat":43.26558,"lon":5.3728,"is_reserved":false,"is_disabled":false,"rental_uris":{"android":"levelo://app?vid=2799df13-94e0-42df-9cf3-931d3a64e6d6","ios":"levelo://app?vid=2799df13-94e0-42df-9cf3-931d3a64e6d6"},"vehicle_type_id":"4","last_reported":1751645566,"current_range_meters":20000,"station_id":"","pricing_plan_id":"cebpf4jnsgd1na2vs0mg"},{"bike_id":"c189a0d3-e70f-4534-8bd6-c40b4fd6d940","system_id":"levelo_inurba_marseille","lat":43.30424,"lon":5.38884,"is_reserved":false,"is_disabled":false,"rental_uris":{"android":"levelo://app?vid=c189a0d3-e70f-4534-8bd6-c40b4fd6d940","ios":"levelo://app?vid=c189a0d3-e70f-4534-8bd6-c40b4fd6d940"},"vehicle_type_id":"4","last_reported":1751645566,"current_range_meters":20000,"station_id":"ce4bgk12rcd13ifvqbi0","pricing_plan_id":"cebpf4jnsgd1na2vs0mg"},{"bike_id":"22831798-ff7c-4bc3-a37f-765fbdef7409","system_id":"levelo_inurba_marseille","lat":43.28398,"lon":5.34986,"is_reserved":false,"is_disabled":false,"rental_uris":{"android":"levelo://app?vid=22831798-ff7c-4bc3-a37f-765fbdef7409","ios":"levelo://app?vid=22831798-ff7c-4bc3-a37f-765fbdef7409"},"vehicle_type_id":"4","last_reported":1751645566,"current_range_meters":20000,"station_id":"ce4bhbh2rcd13ifvqepg","pricing_plan_id":"cebpf4jnsgd1na2vs0mg"},{"bike_id":"3ad44345-9616-42e5-8a13-a2e22cbbf363","system_id":"levelo_inurba_marseille","lat":43.28418,"lon":5.34993,"is_reserved":false,"is_disabled":false,"rental_uris":{"android":"levelo://app?vid=3ad44345-9616-42e5-8a13-a2e22cbbf363","ios":"levelo://app?vid=3ad44345-9616-42e5-8a13-a2e22cbbf363"},"vehicle_type_id":"4","last_reported":1751645566,"current_range_meters":20000,"station_id":"ce4bhbh2rcd13ifvqepg","pricing_plan_id":"cebpf4jnsgd1na2vs0mg"},{"bike_id":"2072f8f5-9f3d-426b-843f-769a29176d5a","system_id":"levelo_inurba_marseille","lat":43.28416,"lon":5.34994,"is_reserved":false,"is_disabled":false,"rental_uris":{"android":"levelo://app?vid=2072f8f5-9f3d-426b-843f-769a29176d5a","ios":"levelo://app?vid=2072f8f5-9f3d-426b-843f-769a29176d5a"},"vehicle_type_id":"4","last_reported":1751645566,"current_range_meters":20000,"station_id":"ce4bhbh2rcd13ifvqepg","pricing_plan_id":"cebpf4jnsgd1na2vs0mg"},{"bike_id":"d79582d6-f852-42e4-b0e4-8e8e52185a45","system_id":"levelo_inurba_marseille","lat":43.28615,"lon":5.35104,"is_reserved":false,"is_disabled":false,"rental_uris":{"android":"levelo://app?vid=d79582d6-f852-42e4-b0e4-8e8e52185a45","ios":"levelo://app?vid=d79582d6-f852-42e4-b0e4-8e8e52185a45"},"vehicle_type_id":"4","last_reported":1751645566,"current_range_meters":20000,"station_id":"ce4bhch2rcd13ifvqeug","pricing_plan_id":"cebpf4jnsgd1na2vs0mg"},{"bike_id":"95f93ab5-9ccc-42bb-8d9e-711388bce733","system_id":"levelo_inurba_marseille","lat":43.271973,"lon":5.39197,"is_reserved":false,"is_disabled":false,"rental_uris":{"android":"levelo://app?vid=95f93ab5-9ccc-42bb-8d9e-711388bce733","ios":"levelo://app?vid=95f93ab5-9ccc-42bb-8d9e-711388bce733"},"vehicle_type_id":"4","last_reported":1751645566,"current_range_meters":20000,"station_id":"ce4bhhp2rcd13ifvqfm0","pricing_plan_id":"cebpf4jnsgd1na2vs0mg"},{"bike_id":"d47f3bee-d225-49bc-8c13-cfe40519118e","system_id":"levelo_inurba_marseille","lat":43.32653,"lon":5.40999,"is_reserved":false,"is_disabled":false,"rental_uris":{"android":"levelo://app?vid=d47f3bee-d225-49bc-8c13-cfe40519118e","ios":"levelo://app?vid=d47f3bee-d225-49bc-8c13-cfe40519118e"},"vehicle_type_id":"4","last_reported":1751645566,"current_range_meters":20000,"station_id":"ce4bhpp2rcd13ifvqhgg","pricing_plan_id":"cebpf4jnsgd1na2vs0mg"},{"bike_id":"5fe94004-3a53-40ab-be2e-4f3ac524a0e8","system_id":"levelo_inurba_marseille","lat":43.23065,"lon":5.35494,"is_reserved":false,"is_disabled":false,"rental_uris":{"android":"levelo://app?vid=5fe94004-3a53-40ab-be2e-4f3ac524a0e8","ios":"levelo://app?vid=5fe94004-3a53-40ab-be2e-4f3ac524a0e8"},"vehicle_type_id":"4","last_reported":1751645566,"current_range_meters":20000,"station_id":"cpo3342slgdg3j2ifvpg","pricing_plan_id":"cebpf4jnsgd1na2vs0mg"},{"bike_id":"bf24b26e-7f51-4120-9a48-54c87edaa2f7","system_id":"levelo_inurba_marseille","lat":43.211905,"lon":5.350728,"is_reserved":false,"is_disabled":false,"rental_uris":{"android":"levelo://app?vid=bf24b26e-7f51-4120-9a48-54c87edaa2f7","ios":"levelo://app?vid=bf24b26e-7f51-4120-9a48-54c87edaa2f7"},"vehicle_type_id":"4","last_reported":1751645566,"current_range_meters":20000,"station_id":"st_cvj6sg6p6f1abm77japg","pricing_plan_id":"cebpf4jnsgd1na2vs0mg"},{"bike_id":"5b5ca915-19f5-4c5c-ba88-71fe4a9869eb","system_id":"levelo_inurba_marseille","lat":43.31739,"lon":5.37771,"is_reserved":false,"is_disabled":false,"rental_uris":{"android":"levelo://app?vid=5b5ca915-19f5-4c5c-ba88-71fe4a9869eb","ios":"levelo://app?vid=5b5ca915-19f5-4c5c-ba88-71fe4a9869eb"},"vehicle_type_id":"4","last_reported":1751645566,"current_range_meters":20400,"station_id":"ce4bgth2rcd13ifvqch0","pricing_plan_id":"cebpf4jnsgd1na2vs0mg"},{"bike_id":"2038a693-e540-4b56-abae-496dc094dca9","system_id":"levelo_inurba_marseille","lat":43.28834,"lon":5.35895,"is_reserved":false,"is_disabled":false,"rental_uris":{"android":"levelo://app?vid=2038a693-e540-4b56-abae-496dc094dca9","ios":"levelo://app?vid=2038a693-e540-4b56-abae-496dc094dca9"},"vehicle_type_id":"4","last_reported":1751645566,"current_range_meters":20400,"station_id":"ce4bhb12rcd13ifvqem0","pricing_plan_id":"cebpf4jnsgd1na2vs0mg"},{"bike_id":"7bba8a3e-5b56-4797-a43e-860cbf4b2360","system_id":"levelo_inurba_marseille","lat":43.27372,"lon":5.36259,"is_reserved":false,"is_disabled":false,"rental_uris":{"android":"levelo://app?vid=7bba8a3e-5b56-4797-a43e-860cbf4b2360","ios":"levelo://app?vid=7bba8a3e-5b56-4797-a43e-860cbf4b2360"},"vehicle_type_id":"4","last_reported":1751645566,"current_range_meters":20400,"station_id":"ce4bhbh2rcd13ifvqeo0","pricing_plan_id":"cebpf4jnsgd1na2vs0mg"},{"bike_id":"d8792282-dadf-45c8-9b00-0254d5455b40","system_id":"levelo_inurba_marseille","lat":43.28264,"lon":5.35079,"is_reserved":false,"is_disabled":false,"rental_uris":{"android":"levelo://app?vid=d8792282-dadf-45c8-9b00-0254d5455b40","ios":"levelo://app?vid=d8792282-dadf-45c8-9b00-0254d5455b40"},"vehicle_type_id":"4","last_reported":1751645566,"current_range_meters":20400,"station_id":"ce4bhbp2rcd13ifvqerg","pricing_plan_id":"cebpf4jnsgd1na2vs0mg"},{"bike_id":"bc2789a9-1294-4be2-ab8b-e1b12264ecb0","system_id":"levelo_inurba_marseille","lat":43.265577,"lon":5.3728,"is_reserved":false,"is_disabled":false,"rental_uris":{"android":"levelo://app?vid=bc2789a9-1294-4be2-ab8b-e1b12264ecb0","ios":"levelo://app?vid=bc2789a9-1294-4be2-ab8b-e1b12264ecb0"},"vehicle_type_id":"4","last_reported":1751645566,"current_range_meters":20800,"station_id":"","pricing_plan_id":"cebpf4jnsgd1na2vs0mg"},{"bike_id":"89461f9f-e0a9-490a-b2cc-07526a0e12c5","system_id":"levelo_inurba_marseille","lat":43.29804,"lon":5.40398,"is_reserved":false,"is_disabled":false,"rental_uris":{"android":"levelo://app?vid=89461f9f-e0a9-490a-b2cc-07526a0e12c5","ios":"levelo://app?vid=89461f9f-e0a9-490a-b2cc-07526a0e12c5"},"vehicle_type_id":"4","last_reported":1751645566,"current_range_meters":20800,"station_id":"ce4bh112rcd13ifvqd90","pricing_plan_id":"cebpf4jnsgd1na2vs0mg"},{"bike_id":"72ee1753-32a3-44ed-b7c4-90a7baa776cc","system_id":"levelo_inurba_marseille","lat":43.3064,"lon":5.40088,"is_reserved":false,"is_disabled":false,"rental_uris":{"android":"levelo://app?vid=72ee1753-32a3-44ed-b7c4-90a7baa776cc","ios":"levelo://app?vid=72ee1753-32a3-44ed-b7c4-90a7baa776cc"},"vehicle_type_id":"4","last_reported":1751645566,"current_range_meters":20800,"station_id":"ce4bh112rcd13ifvqda0","pricing_plan_id":"cebpf4jnsgd1na2vs0mg"},{"bike_id":"01ceb79c-6f0e-492a-bc7a-543748abc6f9","system_id":"levelo_inurba_marseille","lat":43.28425,"lon":5.34994,"is_reserved":false,"is_disabled":false,"rental_uris":{"android":"levelo://app?vid=01ceb79c-6f0e-492a-bc7a-543748abc6f9","ios":"levelo://app?vid=01ceb79c-6f0e-492a-bc7a-543748abc6f9"},"vehicle_type_id":"4","last_reported":1751645566,"current_range_meters":20800,"station_id":"ce4bhbh2rcd13ifvqepg","pricing_plan_id":"cebpf4jnsgd1na2vs0mg"},{"bike_id":"2bf6a579-0ae6-4f39-a237-d75c8a46d567","system_id":"levelo_inurba_marseille","lat":43.2396,"lon":5.36656,"is_reserved":false,"is_disabled":false,"rental_uris":{"android":"levelo://app?vid=2bf6a579-0ae6-4f39-a237-d75c8a46d567","ios":"levelo://app?vid=2bf6a579-0ae6-4f39-a237-d75c8a46d567"},"vehicle_type_id":"4","last_reported":1751645566,"current_range_meters":20800,"station_id":"ce4bhi12rcd13ifvqfp0","pricing_plan_id":"cebpf4jnsgd1na2vs0mg"},{"bike_id":"a041765b-717a-4eb5-aab5-45d62a676e53","system_id":"levelo_inurba_marseille","lat":43.28718,"lon":5.36092,"is_reserved":false,"is_disabled":false,"rental_uris":{"android":"levelo://app?vid=a041765b-717a-4eb5-aab5-45d62a676e53","ios":"levelo://app?vid=a041765b-717a-4eb5-aab5-45d62a676e53"},"vehicle_type_id":"4","last_reported":1751645566,"current_range_meters":20800,"station_id":"cki0cbj6b192h4jlfktg","pricing_plan_id":"cebpf4jnsgd1na2vs0mg"},{"bike_id":"e449aa29-cae1-4432-9aec-dedc13360b20","system_id":"levelo_inurba_marseille","lat":43.211911,"lon":5.350716,"is_reserved":false,"is_disabled":false,"rental_uris":{"android":"levelo://app?vid=e449aa29-cae1-4432-9aec-dedc13360b20","ios":"levelo://app?vid=e449aa29-cae1-4432-9aec-dedc13360b20"},"vehicle_type_id":"4","last_reported":1751645566,"current_range_meters":20800,"station_id":"st_cvj6sg6p6f1abm77japg","pricing_plan_id":"cebpf4jnsgd1na2vs0mg"},{"bike_id":"f37760c6-ab8b-450e-9ddc-f3de596404e2","system_id":"levelo_inurba_marseille","lat":43.290224,"lon":5.375486,"is_reserved":false,"is_disabled":false,"rental_uris":{"android":"levelo://app?vid=f37760c6-ab8b-450e-9ddc-f3de596404e2","ios":"levelo://app?vid=f37760c6-ab8b-450e-9ddc-f3de596404e2"},"vehicle_type_id":"4","last_reported":1751645566,"current_range_meters":21600,"station_id":"","pricing_plan_id":"cebpf4jnsgd1na2vs0mg"},{"bike_id":"7c1b3168-0a8c-4945-a907-0ebb06ac35bd","system_id":"levelo_inurba_marseille","lat":43.31072,"lon":5.3835,"is_reserved":false,"is_disabled":false,"rental_uris":{"android":"levelo://app?vid=7c1b3168-0a8c-4945-a907-0ebb06ac35bd","ios":"levelo://app?vid=7c1b3168-0a8c-4945-a907-0ebb06ac35bd"},"vehicle_type_id":"4","last_reported":1751645566,"current_range_meters":21600,"station_id":"ce4bgv92rcd13ifvqcr0","pricing_plan_id":"cebpf4jnsgd1na2vs0mg"},{"bike_id":"056a6eab-e63d-44a7-a061-0e0c55cb5f29","system_id":"levelo_inurba_marseille","lat":43.290064,"lon":5.356095,"is_reserved":false,"is_disabled":false,"rental_uris":{"android":"levelo://app?vid=056a6eab-e63d-44a7-a061-0e0c55cb5f29","ios":"levelo://app?vid=056a6eab-e63d-44a7-a061-0e0c55cb5f29"},"vehicle_type_id":"4","last_reported":1751645566,"current_range_meters":21600,"station_id":"ce4bhb92rcd13ifvqen0","pricing_plan_id":"cebpf4jnsgd1na2vs0mg"},