{"last_updated":1740910132,"ttl":60,"version":"2.2","data":{"bikes":[{"bike_id":"498c2ace-4821-4676-a9ac-9368b02a49b6","system_id":"levelo_inurba_marseille","lat":43.33799,"lon":5.37386,"is_reserved":false,"is_disabled":false,"rental_uris":{"android":"levelo://app?vid=498c2ace-4821-4676-a9ac-9368b02a49b6","ios":"levelo://app?vid=498c2ace-4821-4676-a9ac-9368b02a49b6"},"vehicle_type_id":"4","last_reported":1740910132,"current_range_meters":26000,"station_id":"","pricing_plan_id":"cebpf4jnsgd1na2vs0mg"},{"bike_id":"819fc6fd-4768-4c11-82f9-0b5fd0b62d4a","system_id":"levelo_inurba_marseille","lat":43.34244,"lon":5.37792,"is_reserved":false,"is_disabled":true,"rental_uris":{"android":"levelo://app?vid=819fc6fd-4768-4c11-82f9-0b5fd0b62d4a","ios":"levelo://app?vid=819fc6fd-4768-4c11-82f9-0b5fd0b62d4a"},"vehicle_type_id":"4","last_reported":1740910132,"current_range_meters":0,"station_id":"","pricing_plan_id":"cebpf4jnsgd1na2vs0mg"},{"bike_id":"d5458f89-73a3-43f1-9894-000389f52995","system_id":"levelo_inurba_marseille","lat":43.27604,"lon":5.41494,"is_reserved":false,"is_disabled":true,"rental_uris":{"android":"levelo://app?vid=d5458f89-73a3-43f1-9894-000389f52995","ios":"levelo://app?vid=d5458f89-73a3-43f1-9894-000389f52995"},"vehicle_type_id":"4","last_reported":1740910132,"current_range_meters":0,"station_id":"","pricing_plan_id":"cebpf4jnsgd1na2vs0mg"},{"bike_id":"afcec8eb-28d8-4889-8879-0897cb5957e3","system_id":"levelo_inurba_marseille","lat":43.27999,"lon":5.40576,"is_reserved":false,"is_disabled":true,"rental_uris":{"android":"levelo://app?vid=afcec8eb-28d8-4889-8879-0897cb5957e3","ios":"levelo://app?vid=afcec8eb-28d8-4889-8879-0897cb5957e3"},"vehicle_type_id":"4","last_reported":1740910132,"current_range_meters":0,"station_id":"","pricing_plan_id":"cebpf4jnsgd1na2vs0mg"},{"bike_id":"88fab14f-5fb9-40fc-b994-02f93336a096","system_id":"levelo_inurba_marseille","lat":43.24382,"lon":5.37047,"is_reserved":false,"is_disabled":true,"rental_uris":{"android":"levelo://app?vid=88fab14f-5fb9-40fc-b994-02f93336a096","ios":"levelo://app?vid=88fab14f-5fb9-40fc-b994-02f93336a096"},"vehicle_type_id":"4","last_reported":1740910132,"current_range_meters":0,"station_id":"ce4bhhh2rcd13ifvqfk0","pricing_plan_id":"cebpf4jnsgd1na2vs0mg"},{"bike_id":"a376fec7-9a5c-425d-9c99-803eb416ad3c","system_id":"levelo_inurba_marseille","lat":43.25568,"lon":5.38247,"is_reserved":false,"is_disabled":true,"rental_uris":{"android":"levelo://app?vid=a376fec7-9a5c-425d-9c99-803eb416ad3c","ios":"levelo://app?vid=a376fec7-9a5c-425d-9c99-803eb416ad3c"},"vehicle_type_id":"4","last_reported":1740910132,"current_range_meters":0,"station_id":"ce4bhih2rcd13ifvqfs0","pricing_plan_id":"cebpf4jnsgd1na2vs0mg"},{"bike_id":"5436cbb2-8984-4ba2-b474-b72f609ae74e","system_id":"levelo_inurba_marseille","lat":43.24548,"lon":5.39524,"is_reserved":false,"is_disabled":true,"rental_uris":{"android":"levelo://app?vid=5436cbb2-8984-4ba2-b474-b72f609ae74e","ios":"levelo://app?vid=5436cbb2-8984-4ba2-b474-b72f609ae74e"},"vehicle_type_id":"4","last_reported":1740910132,"current_range_meters":0,"station_id":"ce4bhlp2rcd13ifvqgjg","pricing_plan_id":"cebpf4jnsgd1na2vs0mg"},{"bike_id":"303c2b96-5131-48b9-8dd0-e5a82865f4bc","system_id":"levelo_inurba_marseille","lat":43.35349,"lon":5.36538,"is_reserved":false,"is_disabled":true,"rental_uris":{"android":"levelo://app?vid=303c2b96-5131-48b9-8dd0-e5a82865f4bc","ios":"levelo://app?vid=303c2b96-5131-48b9-8dd0-e5a82865f4bc"},"vehicle_type_id":"4","last_reported":1740910132,"current_range_meters":800,"station_id":"","pricing_plan_id":"cebpf4jnsgd1na2vs0mg"},{"bike_id":"70d8c7b3-610a-419e-b50d-afe9250d43ba","system_id":"levelo_inurba_marseille","lat":43.29558,"lon":5.42292,"is_reserved":false,"is_disabled":true,"rental_uris":{"android":"levelo://app?vid=70d8c7b3-610a-419e-b50d-afe9250d43ba","ios":"levelo://app?vid=70d8c7b3-610a-419e-b50d-afe9250d43ba"},"vehicle_type_id":"4","last_reported":1740910132,"current_range_meters":800,"station_id":"ce4bhph2rcd13ifvqhdg","pricing_plan_id":"cebpf4jnsgd1na2vs0mg"},{"bike_id":"b8306a89-a128-4bc5-8a3a-e35747a540a7","system_id":"levelo_inurba_marseille","lat":43.23193,"lon":5.35554,"is_reserved":false,"is_disabled":true,"rental_uris":{"android":"levelo://app?vid=b8306a89-a128-4bc5-8a3a-e35747a540a7","ios":"levelo://app?vid=b8306a89-a128-4bc5-8a3a-e35747a540a7"},"vehicle_type_id":"4","last_reported":1740910132,"current_range_meters":800,"station_id":"ce4bhu92rcd13ifvqi70","pricing_plan_id":"cebpf4jnsgd1na2vs0mg"},{"bike_id":"b1e39aeb-3ed2-4034-959a-f2122aaef359","system_id":"levelo_inurba_marseille","lat":43.23232,"lon":5.39972,"is_reserved":false,"is_disabled":true,"rental_uris":{"android":"levelo://app?vid=b1e39aeb-3ed2-4034-959a-f2122aaef359","ios":"levelo://app?vid=b1e39aeb-3ed2-4034-959a-f2122aaef359"},"vehicle_type_id":"4","last_reported":1740910132,"current_range_meters":1200,"station_id":"","pricing_plan_id":"cebpf4jnsgd1na2vs0mg"},{"bike_id":"ff5e3b3e-2842-474c-84ec-ba19fab412dc","system_id":"levelo_inurba_marseille","lat":43.291978,"lon":5.393255,"is_reserved":false,"is_disabled":true,"rental_uris":{"android":"levelo://app?vid=ff5e3b3e-2842-474c-84ec-ba19fab412dc","ios":"levelo://app?vid=ff5e3b3e-2842-474c-84ec-ba19fab412dc"},"vehicle_type_id":"4","last_reported":1740910132,"current_range_meters":2000,"station_id":"ce4bh192rcd13ifvqdd0","pricing_plan_id":"cebpf4jnsgd1na2vs0mg"},{"bike_id":"f984b08d-3cbc-4dd5-8792-8fd36473962b","system_id":"levelo_inurba_marseille","lat":43.30793,"lon":5.38171,"is_reserved":false,"is_disabled":false,"rental_uris":{"android":"levelo://app?vid=f984b08d-3cbc-4dd5-8792-8fd36473962b","ios":"levelo://app?vid=f984b08d-3cbc-4dd5-8792-8fd36473962b"},"vehicle_type_id":"4","last_reported":1740910132,"current_range_meters":2800,"station_id":"ce4bgt12rcd13ifvqce0","pricing_plan_id":"cebpf4jnsgd1na2vs0mg"},{"bike_id":"a65cb524-c756-42a0-9639-a6505770c05b","system_id":"levelo_inurba_marseille","lat":43.350644,"lon":5.366098,"is_reserved":false,"is_disabled":false,"rental_uris":{"android":"levelo://app?vid=a65cb524-c756-42a0-9639-a6505770c05b","ios":"levelo://app?vid=a65cb524-c756-42a0-9639-a6505770c05b"},"vehicle_type_id":"4","last_reported":1740910132,"current_range_meters":3200,"station_id":"","pricing_plan_id":"cebpf4jnsgd1na2vs0mg"},{"bike_id":"0d3dca6a-d590-4e72-a1ae-af700e6dffe8","system_id":"levelo_inurba_marseille","lat":43.30879,"lon":5.39632,"is_reserved":false,"is_disabled":false,"rental_uris":{"android":"levelo://app?vid=0d3dca6a-d590-4e72-a1ae-af700e6dffe8","ios":"levelo://app?vid=0d3dca6a-d590-4e72-a1ae-af700e6dffe8"},"vehicle_type_id":"4","last_reported":1740910132,"current_range_meters":3200,"station_id":"ce4bh012rcd13ifvqcv0","pricing_plan_id":"cebpf4jnsgd1na2vs0mg"},{"bike_id":"4a0da69c-a5ff-48ef-81a9-ab192d38fdce","system_id":"levelo_inurba_marseille","lat":43.29569,"lon":5.37529,"is_reserved":false,"is_disabled":false,"rental_uris":{"android":"levelo://app?vid=4a0da69c-a5ff-48ef-81a9-ab192d38fdce","ios":"levelo://app?vid=4a0da69c-a5ff-48ef-81a9-ab192d38fdce"},"vehicle_type_id":"4","last_reported":1740910132,"current_range_meters":4000,"station_id":"ce4bgh92rcd13ifvqb50","pricing_plan_id":"cebpf4jnsgd1na2vs0mg"},{"bike_id":"37621404-a1f5-4dc5-aec2-68b59ae94f3c","system_id":"levelo_inurba_marseille","lat":43.23194,"lon":5.35558,"is_reserved":false,"is_disabled":false,"rental_uris":{"android":"levelo://app?vid=37621404-a1f5-4dc5-aec2-68b59ae94f3c","ios":"levelo://app?vid=37621404-a1f5-4dc5-aec2-68b59ae94f3c"},"vehicle_type_id":"4","last_reported":1740910132,"current_range_meters":4400,"station_id":"ce4bhu92rcd13ifvqi70","pricing_plan_id":"cebpf4jnsgd1na2vs0mg"},{"bike_id":"14144dff-7421-4064-b353-0584b513eb4b","system_id":"levelo_inurba_marseille","lat":43.28902,"lon":5.38386,"is_reserved":false,"is_disabled":false,"rental_uris":{"android":"levelo://app?vid=14144dff-7421-4064-b353-0584b513eb4b","ios":"levelo://app?vid=14144dff-7421-4064-b353-0584b513eb4b"},"vehicle_type_id":"4","last_reported":1740910132,"current_range_meters":5600,"station_id":"ce4bh612rcd13ifvqe6g","pricing_plan_id":"cebpf4jnsgd1na2vs0mg"},{"bike_id":"22908746-8373-48c5-85da-8a2a7d778568","system_id":"levelo_inurba_marseille","lat":43.29225,"lon":5.36062,"is_reserved":false,"is_disabled":false,"rental_uris":{"android":"levelo://app?vid=22908746-8373-48c5-85da-8a2a7d778568","ios":"levelo://app?vid=22908746-8373-48c5-85da-8a2a7d778568"},"vehicle_type_id":"4","last_reported":1740910132,"current_range_meters":6000,"station_id":"ce4bhbh2rcd13ifvqeqg","pricing_plan_id":"cebpf4jnsgd1na2vs0mg"},{"bike_id":"10a09f4b-928d-42e1-87c7-1996117e3d26","system_id":"levelo_inurba_marseille","lat":43.30948,"lon":5.39062,"is_reserved":false,"is_disabled":false,"rental_uris":{"android":"levelo://app?vid=10a09f4b-928d-42e1-87c7-1996117e3d26","ios":"levelo://app?vid=10a09f4b-928d-42e1-87c7-1996117e3d26"},"vehicle_type_id":"4","last_reported":1740910132,"current_range_meters":6400,"station_id":"ce4bgup2rcd13ifvqco0","pricing_plan_id":"cebpf4jnsgd1na2vs0mg"},{"bike_id":"c061b7bc-5719-41f5-be3c-5baded97a5f7","system_id":"levelo_inurba_marseille","lat":43.3188,"lon":5.40738,"is_reserved":false,"is_disabled":false,"rental_uris":{"android":"levelo://app?vid=c061b7bc-5719-41f5-be3c-5baded97a5f7","ios":"levelo://app?vid=c061b7bc-5719-41f5-be3c-5baded97a5f7"},"vehicle_type_id":"4","last_reported":1740910132,"current_range_meters":6400,"station_id":"ce4bhq12rcd13ifvqhig","pricing_plan_id":"cebpf4jnsgd1na2vs0mg"},{"bike_id":"364b209e-752e-45ea-b26c-06b2552c1833","system_id":"levelo_inurba_marseille","lat":43.23212,"lon":5.35518,"is_reserved":false,"is_disabled":false,"rental_uris":{"android":"levelo://app?vid=364b209e-752e-45ea-b26c-06b2552c1833","ios":"levelo://app?vid=364b209e-752e-45ea-b26c-06b2552c1833"},"vehicle_type_id":"4","last_reported":1740910132,"current_range_meters":6400,"station_id":"ce4bhu92rcd13ifvqi70","pricing_plan_id":"cebpf4jnsgd1na2vs0mg"},{"bike_id":"49cf196d-46c2-4b6a-b1ce-adef85481502","system_id":"levelo_inurba_marseille","lat":43.24176,"lon":5.36402,"is_reserved":false,"is_disabled":false,"rental_uris":{"android":"levelo://app?vid=49cf196d-46c2-4b6a-b1ce-adef85481502","ios":"levelo://app?vid=49cf196d-46c2-4b6a-b1ce-adef85481502"},"vehicle_type_id":"4","last_reported":1740910132,"current_range_meters":6400,"station_id":"cpo36qri1sfpv3e86is0","pricing_plan_id":"cebpf4jnsgd1na2vs0mg"},{"bike_id":"49e9cdc7-76a5-4b66-ae2d-61c73beb73a8","system_id":"levelo_inurba_marseille","lat":43.241724,"lon":5.364005,"is_reserved":false,"is_disabled":false,"rental_uris":{"android":"levelo://app?vid=49e9cdc7-76a5-4b66-ae2d-61c73beb73a8","ios":"levelo://app?vid=49e9cdc7-76a5-4b66-ae2d-61c73beb73a8"},"vehicle_type_id":"4","last_reported":1740910132,"current_range_meters":6400,"station_id":"cpo36qri1sfpv3e86is0","pricing_plan_id":"cebpf4jnsgd1na2vs0mg"},{"bike_id":"9b596371-d612-49f2-b81f-de4bef0d4e5a","system_id":"levelo_inurba_marseille","lat":43.24163,"lon":5.36398,"is_reserved":false,"is_disabled":false,"rental_uris":{"android":"levelo://app?vid=9b596371-d612-49f2-b81f-de4bef0d4e5a","ios":"levelo://app?vid=9b596371-d612-49f2-b81f-de4bef0d4e5a"},"vehicle_type_id":"4","last_reported":1740910132,"current_range_meters":6400,"station_id":"cpo36qri1sfpv3e86is0","pricing_plan_id":"cebpf4jnsgd1na2vs0mg"},{"bike_id":"5b73c424-717f-4e99-be2f-9bee1e715131","system_id":"levelo_inurba_marseille","lat":43.31783,"lon":5.40432,"is_reserved":false,"is_disabled":false,"rental_uris":{"android":"levelo://app?vid=5b73c424-717f-4e99-be2f-9bee1e715131","ios":"levelo://app?vid=5b73c424-717f-4e99-be2f-9bee1e715131"},"vehicle_type_id":"4","last_reported":1740910132,"current_range_meters":6800,"station_id":"ce4bh012rcd13ifvqd00","pricing_plan_id":"cebpf4jnsgd1na2vs0mg"},{"bike_id":"14455aff-394e-45fa-b520-05e1e9d46393","system_id":"levelo_inurba_marseille","lat":43.26196,"lon":5.37448,"is_reserved":false,"is_disabled":false,"rental_uris":{"android":"levelo://app?vid=14455aff-394e-45fa-b520-05e1e9d46393","ios":"levelo://app?vid=14455aff-394e-45fa-b520-05e1e9d46393"},"vehicle_type_id":"4","last_reported":1740910132,"current_range_meters":6800,"station_id":"ce4bhgp2rcd13ifvqfc0","pricing_plan_id":"cebpf4jnsgd1na2vs0mg"},{"bike_id":"bddf37d4-a2ae-4c74-bcad-602e7e9ee614","system_id":"levelo_inurba_marseille","lat":43.24662,"lon":5.38158,"is_reserved":false,"is_disabled":false,"rental_uris":{"android":"levelo://app?vid=bddf37d4-a2ae-4c74-bcad-602e7e9ee614","ios":"levelo://app?vid=bddf37d4-a2ae-4c74-bcad-602e7e9ee614"},"vehicle_type_id":"4","last_reported":1740910132,"current_range_meters":6800,"station_id":"ce4bhih2rcd13ifvqfr0","pricing_plan_id":"cebpf4jnsgd1na2vs0mg"},{"bike_id":"593edb3c-7add-4a3d-9dbe-95cef549de0d","system_id":"levelo_inurba_marseille","lat":43.23072,"lon":5.35494,"is_reserved":false,"is_disabled":false,"rental_uris":{"android":"levelo://app?vid=593edb3c-7add-4a3d-9dbe-95cef549de0d","ios":"levelo://app?vid=593edb3c-7add-4a3d-9dbe-95cef549de0d"},"vehicle_type_id":"4","last_reported":1740910132,"current_range_meters":6800,"station_id":"cpo3342slgdg3j2ifvpg","pricing_plan_id":"cebpf4jnsgd1na2vs0mg"},{"bike_id":"ce5b717b-8065-41cb-ac73-ea554cd5c020","system_id":"levelo_inurba_marseille","lat":43.26529,"lon":5.39059,"is_reserved":false,"is_disabled":false,"rental_uris":{"android":"levelo://app?vid=ce5b717b-8065-41cb-ac73-ea554cd5c020","ios":"levelo://app?vid=ce5b717b-8065-41cb-ac73-ea554cd5c020"},"vehicle_type_id":"4","last_reported":1740910132,"current_range_meters":7200,"station_id":"","pricing_plan_id":"cebpf4jnsgd1na2vs0mg"},{"bike_id":"6cc25748-9ed2-43ab-8650-9dd638374c60","system_id":"levelo_inurba_marseille","lat":43.23194,"lon":5.35547,"is_reserved":false,"is_disabled":false,"rental_uris":{"android":"levelo://app?vid=6cc25748-9ed2-43ab-8650-9dd638374c60","ios":"levelo://app?vid=6cc25748-9ed2-43ab-8650-9dd638374c60"},"vehicle_type_id":"4","last_reported":1740910132,"current_range_meters":7200,"station_id":"ce4bhu92rcd13ifvqi70","pricing_plan_id":"cebpf4jnsgd1na2vs0mg"},{"bike_id":"53ebed9a-fd1a-4d94-96e3-0c8bc5887ace","system_id":"levelo_inurba_marseille","lat":43.3145,"lon":5.39393,"is_reserved":false,"is_disabled":false,"rental_uris":{"android":"levelo://app?vid=53ebed9a-fd1a-4d94-96e3-0c8bc5887ace","ios":"levelo://app?vid=53ebed9a-fd1a-4d94-96e3-0c8bc5887ace"},"vehicle_type_id":"4","last_reported":1740910132,"current_range_meters":8000,"station_id":"","pricing_plan_id":"cebpf4jnsgd1na2vs0mg"},{"bike_id":"b811c60a-6933-40a7-84ba-ba9cab9803d2","system_id":"levelo_inurba_marseille","lat":43.24989,"lon":5.38927,"is_reserved":false,"is_disabled":false,"rental_uris":{"android":"levelo://app?vid=b811c60a-6933-40a7-84ba-ba9cab9803d2","ios":"levelo://app?vid=b811c60a-6933-40a7-84ba-ba9cab9803d2"},"vehicle_type_id":"4","last_reported":1740910132,"current_range_meters":8000,"station_id":"ce4bhgp2rcd13ifvqfd0","pricing_plan_id":"cebpf4jnsgd1na2vs0mg"},{"bike_id":"fd4ceb47-7745-40bf-b9f8-cbc3ab65ca1f","system_id":"levelo_inurba_marseille","lat":43.23189,"lon":5.39998,"is_reserved":false,"is_disabled":false,"rental_uris":{"android":"levelo://app?vid=fd4ceb47-7745-40bf-b9f8-cbc3ab65ca1f","ios":"levelo://app?vid=fd4ceb47-7745-40bf-b9f8-cbc3ab65ca1f"},"vehicle_type_id":"4","last_reported":1740910132,"current_range_meters":8000,"station_id":"ce4bhn12rcd13ifvqgqg","pricing_plan_id":"cebpf4jnsgd1na2vs0mg"},{"bike_id":"2465d0f3-b53e-4158-b58b-297ce0ef79a6","system_id":"levelo_inurba_marseille","lat":43.28195,"lon":5.42629,"is_reserved":false,"is_disabled":false,"rental_uris":{"android":"levelo://app?vid=2465d0f3-b53e-4158-b58b-297ce0ef79a6","ios":"levelo://app?vid=2465d0f3-b53e-4158-b58b-297ce0ef79a6"},"vehicle_type_id":"4","last_reported":1740910132,"current_range_meters":8000,"station_id":"ce4bhnh2rcd13ifvqgug","pricing_plan_id":"cebpf4jnsgd1na2vs0mg"},{"bike_id":"24b426ec-114a-4cca-b485-1331408dda43","system_id":"levelo_inurba_marseille","lat":43.24062,"lon":5.37758,"is_reserved":false,"is_disabled":false,"rental_uris":{"android":"levelo://app?vid=24b426ec-114a-4cca-b485-1331408dda43","ios":"levelo://app?vid=24b426ec-114a-4cca-b485-1331408dda43"},"vehicle_type_id":"4","last_reported":1740910132,"current_range_meters":8000,"station_id":"ce4bhnp2rcd13ifvqgvg","pricing_plan_id":"cebpf4jnsgd1na2vs0mg"},{"bike_id":"63bd5179-e096-4fc2-9ddf-a04ead103bc0","system_id":"levelo_inurba_marseille","lat":43.28296,"lon":5.39114,"is_reserved":false,"is_disabled":false,"rental_uris":{"android":"levelo://app?vid=63bd5179-e096-4fc2-9ddf-a04ead103bc0","ios":"levelo://app?vid=63bd5179-e096-4fc2-9ddf-a04ead103bc0"},"vehicle_type_id":"4","last_reported":1740910132,"current_range_meters":8400,"station_id":"","pricing_plan_id":"cebpf4jnsgd1na2vs0mg"},{"bike_id":"f4bfc55f-67f4-4deb-8143-22cdba9acfb4","system_id":"levelo_inurba_marseille","lat":43.34726,"lon":5.38054,"is_reserved":false,"is_disabled":false,"rental_uris":{"android":"levelo://app?vid=f4bfc55f-67f4-4deb-8143-22cdba9acfb4","ios":"levelo://app?vid=f4bfc55f-67f4-4deb-8143-22cdba9acfb4"},"vehicle_type_id":"4","last_reported":1740910132,"current_range_meters":8400,"station_id":"","pricing_plan_id":"cebpf4jnsgd1na2vs0mg"},{"bike_id":"b1e180ec-2bd6-41ef-9f1a-04537a7c1054","system_id":"levelo_inurba_marseille","lat":43.27307,"lon":5.39115,"is_reserved":false,"is_disabled":false,"rental_uris":{"android":"levelo://app?vid=b1e180ec-2bd6-41ef-9f1a-04537a7c1054","ios":"levelo://app?vid=b1e180ec-2bd6-41ef-9f1a-04537a7c1054"},"vehicle_type_id":"4","last_reported":1740910132,"current_range_meters":8400,"station_id":"ce4bhgp2rcd13ifvqfe0","pricing_plan_id":"cebpf4jnsgd1na2vs0mg"},{"bike_id":"4a01e614-9a34-4e70-9e02-4e744008ae90","system_id":"levelo_inurba_marseille","lat":43.31391,"lon":5.39196,"is_reserved":false,"is_disabled":false,"rental_uris":{"android":"levelo://app?vid=4a01e614-9a34-4e70-9e02-4e744008ae90","ios":"levelo://app?vid=4a01e614-9a34-4e70-9e02-4e744008ae90"},"vehicle_type_id":"4","last_reported":1740910132,"current_range_meters":8800,"station_id":"","pricing_plan_id":"cebpf4jnsgd1na2vs0mg"},{"bike_id":"7c55df22-c0ef-41a9-922a-73b386567058","system_id":"levelo_inurba_marseille","lat":43.29267,"lon":5.37498,"is_reserved":false,"is_disabled":false,"rental_uris":{"android":"levelo://app?vid=7c55df22-c0ef-41a9-922a-73b386567058","ios":"levelo://app?vid=7c55df22-c0ef-41a9-922a-73b386567058"},"vehicle_type_id":"4","last_reported":1740910132,"current_range_meters":8800,"station_id":"ce4bhh12rcd13ifvqff0","pricing_plan_id":"cebpf4jnsgd1na2vs0mg"},{"bike_id":"42c13f83-de0e-4cc5-ac00-17fba4bb3a7a","system_id":"levelo_inurba_marseille","lat":43.263375,"lon":5.39678,"is_reserved":false,"is_disabled":false,"rental_uris":{"android":"levelo://app?vid=42c13f83-de0e-4cc5-ac00-17fba4bb3a7a","ios":"levelo://app?vid=42c13f83-de0e-4cc5-ac00-17fba4bb3a7a"},"vehicle_type_id":"4","last_reported":1740910132,"current_range_meters":8800,"station_id":"ce4bhhp2rcd13ifvqfm0","pricing_plan_id":"cebpf4jnsgd1na2vs0mg"},{"bike_id":"3b2662a5-424c-4217-a420-af728284556d","system_id":"levelo_inurba_marseille","lat":43.25735,"lon":5.41108,"is_reserved":false,"is_disabled":false,"rental_uris":{"android":"levelo://app?vid=3b2662a5-424c-4217-a420-af728284556d","ios":"levelo://app?vid=3b2662a5-424c-4217-a420-af728284556d"},"vehicle_type_id":"4","last_reported":1740910132,"current_range_meters":9200,"station_id":"ce4bhkp2rcd13ifvqgd0","pricing_plan_id":"cebpf4jnsgd1na2vs0mg"},{"bike_id":"0693b9d6-4a9d-4e38-bfa2-80f934bcc2e3","system_id":"levelo_inurba_marseille","lat":43.24171,"lon":5.364,"is_reserved":false,"is_disabled":false,"rental_uris":{"android":"levelo://app?vid=0693b9d6-4a9d-4e38-bfa2-80f934bcc2e3","ios":"levelo://app?vid=0693b9d6-4a9d-4e38-bfa2-80f934bcc2e3"},"vehicle_type_id":"4","last_reported":1740910132,"current_range_meters":9200,"station_id":"cpo36qri1sfpv3e86is0","pricing_plan_id":"cebpf4jnsgd1na2vs0mg"},{"bike_id":"840a0a58-92ea-4063-9a3b-cb342a7a4b8f","system_id":"levelo_inurba_marseille","lat":43.30499,"lon":5.36472,"is_reserved":false,"is_disabled":false,"rental_uris":{"android":"levelo://app?vid=840a0a58-92ea-4063-9a3b-cb342a7a4b8f","ios":"levelo://app?vid=840a0a58-92ea-4063-9a3b-cb342a7a4b8f"},"vehicle_type_id":"4","last_reported":1740910132,"current_range_meters":9600,"station_id":"","pricing_plan_id":"cebpf4jnsgd1na2vs0mg"},{"bike_id":"0e4d5d36-7d5d-4fbf-9597-759cc9a1b223","system_id":"levelo_inurba_marseille","lat":43.30563,"lon":5.37246,"is_reserved":false,"is_disabled":false,"rental_uris":{"android":"levelo://app?vid=0e4d5d36-7d5d-4fbf-9597-759cc9a1b223","ios":"levelo://app?vid=0e4d5d36-7d5d-4fbf-9597-759cc9a1b223"},"vehicle_type_id":"4","last_reported":1740910132,"current_range_meters":9600,"station_id":"","pricing_plan_id":"cebpf4jnsgd1na2vs0mg"},{"bike_id":"94fa0b73-5864-4665-bdbb-eb6df01414c8","system_id":"levelo_inurba_marseille","lat":43.2466,"lon":5.38167,"is_reserved":false,"is_disabled":false,"rental_uris":{"android":"levelo://app?vid=94fa0b73-5864-4665-bdbb-eb6df01414c8","ios":"levelo://app?vid=94fa0b73-5864-4665-bdbb-eb6df01414c8"},"vehicle_type_id":"4","last_reported":1740910132,"current_range_meters":9600,"station_id":"ce4bhih2rcd13ifvqfr0","pricing_plan_id":"cebpf4jnsgd1na2vs0mg"},{"bike_id":"1697087c-3a15-4d2b-8fbc-57126afe45c3","system_id":"levelo_inurba_marseille","lat":43.23153,"lon":5.4371,"is_reserved":false,"is_disabled":false,"rental_uris":{"android":"levelo://app?vid=1697087c-3a15-4d2b-8fbc-57126afe45c3","ios":"levelo://app?vid=1697087c-3a15-4d2b-8fbc-57126afe45c3"},"vehicle_type_id":"4","last_reported":1740910132,"current_range_meters":9600,"station_id":"ce4bhmp2rcd13ifvqgog","pricing_plan_id":"cebpf4jnsgd1na2vs0mg"},{"bike_id":"08b66ead-5970-4c42-aef8-8434df652915","system_id":"levelo_inurba_marseille","lat":43.27617,"lon":5.36122,"is_reserved":false,"is_disabled":false,"rental_uris":{"android":"levelo://app?vid=08b66ead-5970-4c42-aef8-8434df652915","ios":"levelo://app?vid=08b66ead-5970-4c42-aef8-8434df652915"},"vehicle_type_id":"4","last_reported":1740910132,"current_range_meters":10000,"station_id":"ce4bgj92rcd13ifvqbe0","pricing_plan_id":"cebpf4jnsgd1na2vs0mg"},{"bike_id":"e80357fe-be6e-4b77-bd80-880de84aeb8e","system_id":"levelo_inurba_marseille","lat":43.30877,"lon":5.3965,"is_reserved":false,"is_disabled":false,"rental_uris":{"android":"levelo://app?vid=e80357fe-be6e-4b77-bd80-880de84aeb8e","ios":"levelo://app?vid=e80357fe-be6e-4b77-bd80-880de84aeb8e"},"vehicle_type_id":"4","last_reported":1740910132,"current_range_meters":10000,"station_id":"ce4bh012rcd13ifvqcv0","pricing_plan_id":"cebpf4jnsgd1na2vs0mg"},{"bike_id":"cbeff9af-2821-498e-8353-cbbe4b72cc62","system_id":"levelo_inurba_marseille","lat":43.25018,"lon":5.38943,"is_reserved":false,"is_disabled":false,"rental_uris":{"android":"levelo://app?vid=cbeff9af-2821-498e-8353-cbbe4b72cc62","ios":"levelo://app?vid=cbeff9af-2821-498e-8353-cbbe4b72cc62"},"vehicle_type_id":"4","last_reported":1740910132,"current_range_meters":10000,"station_id":"ce4bhgp2rcd13ifvqfd0","pricing_plan_id":"cebpf4jnsgd1na2vs0mg"},{"bike_id":"bbcad7a0-3558-4710-b9fc-e88f0b23aeac","system_id":"levelo_inurba_marseille","lat":43.25715,"lon":5.41125,"is_reserved":false,"is_disabled":false,"rental_uris":{"android":"levelo://app?vid=bbcad7a0-3558-4710-b9fc-e88f0b23aeac","ios":"levelo://app?vid=bbcad7a0-3558-4710-b9fc-e88f0b23aeac"},"vehicle_type_id":"4","last_reported":1740910132,"current_range_meters":10000,"station_id":"ce4bhkp2rcd13ifvqgd0","pricing_plan_id":"cebpf4jnsgd1na2vs0mg"},{"bike_id":"dca47370-0af2-4b83-9276-f3814af3b64b","system_id":"levelo_inurba_marseille","lat":43.24553,"lon":5.39531,"is_reserved":false,"is_disabled":false,"rental_uris":{"android":"levelo://app?vid=dca47370-0af2-4b83-9276-f3814af3b64b","ios":"levelo://app?vid=dca47370-0af2-4b83-9276-f3814af3b64b"},"vehicle_type_id":"4","last_reported":1740910132,"current_range_meters":10000,"station_id":"ce4bhlp2rcd13ifvqgjg","pricing_plan_id":"cebpf4jnsgd1na2vs0mg"},{"bike_id":"f4af2fc5-12b1-413f-b3e8-70775a52b007","system_id":"levelo_inurba_marseille","lat":43.24184,"lon":5.39728,"is_reserved":false,"is_disabled":false,"rental_uris":{"android":"levelo://app?vid=f4af2fc5-12b1-413f-b3e8-70775a52b007","ios":"levelo://app?vid=f4af2fc5-12b1-413f-b3e8-70775a52b007"},"vehicle_type_id":"4","last_reported":1740910132,"current_range_meters":10000,"station_id":"ce4bhn12rcd13ifvqgpg","pricing_plan_id":"cebpf4jnsgd1na2vs0mg"},{"bike_id":"bef83f18-c4c1-417c-88b3-20e2c380f7cf","system_id":"levelo_inurba_marseille","lat":43.28078,"lon":5.3966,"is_reserved":false,"is_disabled":false,"rental_uris":{"android":"levelo://app?vid=bef83f18-c4c1-417c-88b3-20e2c380f7cf","ios":"levelo://app?vid=bef83f18-c4c1-417c-88b3-20e2c380f7cf"},"vehicle_type_id":"4","last_reported":1740910132,"current_range_meters":10000,"station_id":"ce4bho12rcd13ifvqh2g","pricing_plan_id":"cebpf4jnsgd1na2vs0mg"},{"bike_id":"49740944-d3c3-4593-a80d-2aff0de21358","system_id":"levelo_inurba_marseille","lat":43.29972,"lon":5.37027,"is_reserved":false,"is_disabled":false,"rental_uris":{"android":"levelo://app?vid=49740944-d3c3-4593-a80d-2aff0de21358","ios":"levelo://app?vid=49740944-d3c3-4593-a80d-2aff0de21358"},"vehicle_type_id":"4","last_reported":1740910132,"current_range_meters":10800,"station_id":"","pricing_plan_id":"cebpf4jnsgd1na2vs0mg"},{"bike_id":"6d56352d-b599-405b-812c-cff82b78bb6e","system_id":"levelo_inurba_marseille","lat":43.33772,"lon":5.3746,"is_reserved":false,"is_disabled":false,"rental_uris":{"android":"levelo://app?vid=6d56352d-b599-405b-812c-cff82b78bb6e","ios":"levelo://app?vid=6d56352d-b599-405b-812c-cff82b78bb6e"},"vehicle_type_id":"4","last_reported":1740910132,"current_range_meters":10800,"station_id":"","pricing_plan_id":"cebpf4jnsgd1na2vs0mg"},{"bike_id":"e2b1a97c-05f9-4994-8c76-5c4c26614832","system_id":"levelo_inurba_marseille","lat":43.26569,"lon":5.37288,"is_reserved":false,"is_disabled":false,"rental_uris":{"android":"levelo://app?vid=e2b1a97c-05f9-4994-8c76-5c4c26614832","ios":"levelo://app?vid=e2b1a97c-05f9-4994-8c76-5c4c26614832"},"vehicle_type_id":"4","last_reported":1740910132,"current_range_meters":10800,"station_id":"ce4bhg12rcd13ifvqf70","pricing_plan_id":"cebpf4jnsgd1na2vs0mg"},{"bike_id":"f711a177-8c95-4e96-bcaf-e6e0dc33f59e","system_id":"levelo_inurba_marseille","lat":43.24396,"lon":5.37058,"is_reserved":false,"is_disabled":false,"rental_uris":{"android":"levelo://app?vid=f711a177-8c95-4e96-bcaf-e6e0dc33f59e","ios":"levelo://app?vid=f711a177-8c95-4e96-bcaf-e6e0dc33f59e"},"vehicle_type_id":"4","last_reported":1740910132,"current_range_meters":10800,"station_id":"ce4bhhh2rcd13ifvqfk0","pricing_plan_id":"cebpf4jnsgd1na2vs0mg"},{"bike_id":"86dd6f08-624d-41d0-a5d0-1247711ab12d","system_id":"levelo_inurba_marseille","lat":43.24078,"lon":5.37776,"is_reserved":false,"is_disabled":false,"rental_uris":{"android":"levelo://app?vid=86dd6f08-624d-41d0-a5d0-1247711ab12d","ios":"levelo://app?vid=86dd6f08-624d-41d0-a5d0-1247711ab12d"},"vehicle_type_id":"4","last_reported":1740910132,"current_range_meters":10800,"station_id":"ce4bhnp2rcd13ifvqgvg","pricing_plan_id":"cebpf4jnsgd1na2vs0mg"},{"bike_id":"2e474ebb-0d99-485f-ab07-1a49d2bd7bbe","system_id":"levelo_inurba_marseille","lat":43.30531,"lon":5.36539,"is_reserved":false,"is_disabled":false,"rental_uris":{"android":"levelo://app?vid=2e474ebb-0d99-485f-ab07-1a49d2bd7bbe","ios":"levelo://app?vid=2e474ebb-0d99-485f-ab07-1a49d2bd7bbe"},"vehicle_type_id":"4","last_reported":1740910132,"current_range_meters":11200,"station_id":"ce4bgs12rcd13ifvqcag","pricing_plan_id":"cebpf4jnsgd1na2vs0mg"},{"bike_id":"d2c363b3-bacf-4359-85f2-7dc9f8b4aa4d","system_id":"levelo_inurba_marseille","lat":43.31695,"lon":5.40452,"is_reserved":false,"is_disabled":false,"rental_uris":{"android":"levelo://app?vid=d2c363b3-bacf-4359-85f2-7dc9f8b4aa4d","ios":"levelo://app?vid=d2c363b3-bacf-4359-85f2-7dc9f8b4aa4d"},"vehicle_type_id":"4","last_reported":1740910132,"current_range_meters":11200,"station_id":"ce4bh012rcd13ifvqd00","pricing_plan_id":"cebpf4jnsgd1na2vs0mg"},{"bike_id":"97efda35-6204-44de-b93b-817189a09671","system_id":"levelo_inurba_marseille","lat":43.255709,"lon":5.382546,"is_reserved":false,"is_disabled":false,"rental_uris":{"android":"levelo://app?vid=97efda35-6204-44de-b93b-817189a09671","ios":"levelo://app?vid=97efda35-6204-44de-b93b-817189a09671"},"vehicle_type_id":"4","last_reported":1740910132,"current_range_meters":11200,"station_id":"ce4bhih2rcd13ifvqfs0","pricing_plan_id":"cebpf4jnsgd1na2vs0mg"},{"bike_id":"e43f4f71-054c-410e-9efa-c6d5ef79ac61","system_id":"levelo_inurba_marseille","lat":43.24166,"lon":5.39736,"is_reserved":false,"is_disabled":false,"rental_uris":{"android":"levelo://app?vid=e43f4f71-054c-410e-9efa-c6d5ef79ac61","ios":"levelo://app?vid=e43f4f71-054c-410e-9efa-c6d5ef79ac61"},"vehicle_type_id":"4","last_reported":1740910132,"current_range_meters":11200,"station_id":"ce4bhn12rcd13ifvqgpg","pricing_plan_id":"cebpf4jnsgd1na2vs0mg"},{"bike_id":"27d57ba8-cb2b-4da3-bcfc-1efd3956d0fa","system_id":"levelo_inurba_marseille","lat":43.29549,"lon":5.42304,"is_reserved":false,"is_disabled":false,"rental_uris":{"android":"levelo://app?vid=27d57ba8-cb2b-4da3-bcfc-1efd3956d0fa","ios":"levelo://app?vid=27d57ba8-cb2b-4da3-bcfc-1efd3956d0fa"},"vehicle_type_id":"4","last_reported":1740910132,"current_range_meters":11200,"station_id":"ce4bhph2rcd13ifvqhdg","pricing_plan_id":"cebpf4jnsgd1na2vs0mg"},{"bike_id":"b98067e1-b08a-4374-a620-5d56e9f060ee","system_id":"levelo_inurba_marseille","lat":43.30162,"lon":5.38074,"is_reserved":false,"is_disabled":false,"rental_uris":{"android":"levelo://app?vid=b98067e1-b08a-4374-a620-5d56e9f060ee","ios":"levelo://app?vid=b98067e1-b08a-4374-a620-5d56e9f060ee"},"vehicle_type_id":"4","last_reported":1740910132,"current_range_meters":11600,"station_id":"ce4bgjp2rcd13ifvqbh0","pricing_plan_id":"cebpf4jnsgd1na2vs0mg"},{"bike_id":"e769149f-c0d7-4ca8-bb82-41afd3083bd0","system_id":"levelo_inurba_marseille","lat":43.286157,"lon":5.351038,"is_reserved":false,"is_disabled":false,"rental_uris":{"android":"levelo://app?vid=e769149f-c0d7-4ca8-bb82-41afd3083bd0","ios":"levelo://app?vid=e769149f-c0d7-4ca8-bb82-41afd3083bd0"},"vehicle_type_id":"4","last_reported":1740910132,"current_range_meters":11600,"station_id":"ce4bhch2rcd13ifvqeug","pricing_plan_id":"cebpf4jnsgd1na2vs0mg"},{"bike_id":"fe1360ac-5c80-4897-8c88-d6ce10d18b3d","system_id":"levelo_inurba_marseille","lat":43.26787,"lon":5.39413,"is_reserved":false,"is_disabled":false,"rental_uris":{"android":"levelo://app?vid=fe1360ac-5c80-4897-8c88-d6ce10d18b3d","ios":"levelo://app?vid=fe1360ac-5c80-4897-8c88-d6ce10d18b3d"},"vehicle_type_id":"4","last_reported":1740910132,"current_range_meters":11600,"station_id":"ce4bhh12rcd13ifvqfg0","pricing_plan_id":"cebpf4jnsgd1na2vs0mg"},{"bike_id":"254c7125-1cc4-4ba9-a2be-9a69e2dfeebb","system_id":"levelo_inurba_marseille","lat":43.26791,"lon":5.39425,"is_reserved":false,"is_disabled":false,"rental_uris":{"android":"levelo://app?vid=254c7125-1cc4-4ba9-a2be-9a69e2dfeebb","ios":"levelo://app?vid=254c7125-1cc4-4ba9-a2be-9a69e2dfeebb"},"vehicle_type_id":"4","last_reported":1740910132,"current_range_meters":11600,"station_id":"ce4bhh12rcd13ifvqfg0","pricing_plan_id":"cebpf4jnsgd1na2vs0mg"},{"bike_id":"abdce9a5-165a-430d-93c6-b1980bc72eea","system_id":"levelo_inurba_marseille","lat":43.3134,"lon":5.39672,"is_reserved":false,"is_disabled":false,"rental_uris":{"android":"levelo://app?vid=abdce9a5-165a-430d-93c6-b1980bc72eea","ios":"levelo://app?vid=abdce9a5-165a-430d-93c6-b1980bc72eea"},"vehicle_type_id":"4","last_reported":1740910132,"current_range_meters":12000,"station_id":"ce4bgvp2rcd13ifvqcu0","pricing_plan_id":"cebpf4jnsgd1na2vs0mg"},{"bike_id":"14da2a3a-0d3b-4102-84c6-346945a4b8ae","system_id":"levelo_inurba_marseille","lat":43.31271,"lon":5.40168,"is_reserved":false,"is_disabled":false,"rental_uris":{"android":"levelo://app?vid=14da2a3a-0d3b-4102-84c6-346945a4b8ae","ios":"levelo://app?vid=14da2a3a-0d3b-4102-84c6-346945a4b8ae"},"vehicle_type_id":"4","last_reported":1740910132,"current_range_meters":12000,"station_id":"ce4bh092rcd13ifvqd30","pricing_plan_id":"cebpf4jnsgd1na2vs0mg"},{"bike_id":"d4d84776-684e-4d0f-a939-ec1752b06a7d","system_id":"levelo_inurba_marseille","lat":43.24813,"lon":5.37456,"is_reserved":false,"is_disabled":false,"rental_uris":{"android":"levelo://app?vid=d4d84776-684e-4d0f-a939-ec1752b06a7d","ios":"levelo://app?vid=d4d84776-684e-4d0f-a939-ec1752b06a7d"},"vehicle_type_id":"4","last_reported":1740910132,"current_range_meters":12000,"station_id":"ce4bhgh2rcd13ifvqfb0","pricing_plan_id":"cebpf4jnsgd1na2vs0mg"},{"bike_id":"c272f144-1302-4356-8d7d-046dcce3b360","system_id":"levelo_inurba_marseille","lat":43.262068,"lon":5.379261,"is_reserved":false,"is_disabled":false,"rental_uris":{"android":"levelo://app?vid=c272f144-1302-4356-8d7d-046dcce3b360","ios":"levelo://app?vid=c272f144-1302-4356-8d7d-046dcce3b360"},"vehicle_type_id":"4","last_reported":1740910132,"current_range_meters":12000,"station_id":"ce4bhjp2rcd13ifvqg90","pricing_plan_id":"cebpf4jnsgd1na2vs0mg"},{"bike_id":"b7992443-8e68-40d9-ab23-1a5ece5fbee5","system_id":"levelo_inurba_marseille","lat":43.24814,"lon":5.41867,"is_reserved":false,"is_disabled":false,"rental_uris":{"android":"levelo://app?vid=b7992443-8e68-40d9-ab23-1a5ece5fbee5","ios":"levelo://app?vid=b7992443-8e68-40d9-ab23-1a5ece5fbee5"},"vehicle_type_id":"4","last_reported":1740910132,"current_range_meters":12400,"station_id":"","pricing_plan_id":"cebpf4jnsgd1na2vs0mg"},{"bike_id":"116515d6-b823-446e-9f9c-a762747f83ac","system_id":"levelo_inurba_marseille","lat":43.28612,"lon":5.35113,"is_reserved":false,"is_disabled":false,"rental_uris":{"android":"levelo://app?vid=116515d6-b823-446e-9f9c-a762747f83ac","ios":"levelo://app?vid=116515d6-b823-446e-9f9c-a762747f83ac"},"vehicle_type_id":"4","last_reported":1740910132,"current_range_meters":12400,"station_id":"ce4bhch2rcd13ifvqeug","pricing_plan_id":"cebpf4jnsgd1na2vs0mg"},{"bike_id":"8fd6e265-67e3-4ac3-8b33-e46f35485ff3","system_id":"levelo_inurba_marseille","lat":43.27914,"lon":5.39586,"is_reserved":false,"is_disabled":false,"rental_uris":{"android":"levelo://app?vid=8fd6e265-67e3-4ac3-8b33-e46f35485ff3","ios":"levelo://app?vid=8fd6e265-67e3-4ac3-8b33-e46f35485ff3"},"vehicle_type_id":"4","last_reported":1740910132,"current_range_meters":12400,"station_id":"ce4bhf92rcd13ifvqf40","pricing_plan_id":"cebpf4jnsgd1na2vs0mg"},{"bike_id":"4013bc6c-c7f7-4089-af65-618d0eeef3f4","system_id":"levelo_inurba_marseille","lat":43.245466,"lon":5.395319,"is_reserved":false,"is_disabled":false,"rental_uris":{"android":"levelo://app?vid=4013bc6c-c7f7-4089-af65-618d0eeef3f4","ios":"levelo://app?vid=4013bc6c-c7f7-4089-af65-618d0eeef3f4"},"vehicle_type_id":"4","last_reported":1740910132,"current_range_meters":12400,"station_id":"ce4bhlp2rcd13ifvqgjg","pricing_plan_id":"cebpf4jnsgd1na2vs0mg"},{"bike_id":"3c9c65ff-a2a8-4c52-a6f4-62bcc77556ef","system_id":"levelo_inurba_marseille","lat":43.241648,"lon":5.36392,"is_reserved":false,"is_disabled":false,"rental_uris":{"android":"levelo://app?vid=3c9c65ff-a2a8-4c52-a6f4-62bcc77556ef","ios":"levelo://app?vid=3c9c65ff-a2a8-4c52-a6f4-62bcc77556ef"},"vehicle_type_id":"4","last_reported":1740910132,"current_range_meters":12400,"station_id":"cpo36qri1sfpv3e86is0","pricing_plan_id":"cebpf4jnsgd1na2vs0mg"},{"bike_id":"88d09cbc-1497-4fea-99b9-c1fe29ff58f0","system_id":"levelo_inurba_marseille","lat":43.28044,"lon":5.366,"is_reserved":false,"is_disabled":false,"rental_uris":{"android":"levelo://app?vid=88d09cbc-1497-4fea-99b9-c1fe29ff58f0","ios":"levelo://app?vid=88d09cbc-1497-4fea-99b9-c1fe29ff58f0"},"vehicle_type_id":"4","last_reported":1740910132,"current_range_meters":12800,"station_id":"","pricing_plan_id":"cebpf4jnsgd1na2vs0mg"},{"bike_id":"3abf3cc3-4765-4e06-a0bb-06b8527cc5f3","system_id":"levelo_inurba_marseille","lat":43.30248,"lon":5.40086,"is_reserved":false,"is_disabled":false,"rental_uris":{"android":"levelo://app?vid=3abf3cc3-4765-4e06-a0bb-06b8527cc5f3","ios":"levelo://app?vid=3abf3cc3-4765-4e06-a0bb-06b8527cc5f3"},"vehicle_type_id":"4","last_reported":1740910132,"current_range_meters":12800,"station_id":"ce4bgvh2rcd13ifvqcs0","pricing_plan_id":"cebpf4jnsgd1na2vs0mg"},{"bike_id":"8c528749-43df-40d6-b9b4-e80d7e8bda23","system_id":"levelo_inurba_marseille","lat":43.265544,"lon":5.372956,"is_reserved":false,"is_disabled":false,"rental_uris":{"android":"levelo://app?vid=8c528749-43df-40d6-b9b4-e80d7e8bda23","ios":"levelo://app?vid=8c528749-43df-40d6-b9b4-e80d7e8bda23"},"vehicle_type_id":"4","last_reported":1740910132,"current_range_meters":12800,"station_id":"ce4bhg12rcd13ifvqf70","pricing_plan_id":"cebpf4jnsgd1na2vs0mg"},{"bike_id":"49645587-4897-47af-80cb-ea0df5af90cc","system_id":"levelo_inurba_marseille","lat":43.26207,"lon":5.3744,"is_reserved":false,"is_disabled":false,"rental_uris":{"android":"levelo://app?vid=49645587-4897-47af-80cb-ea0df5af90cc","ios":"levelo://app?vid=49645587-4897-47af-80cb-ea0df5af90cc"},"vehicle_type_id":"4","last_reported":1740910132,"current_range_meters":12800,"station_id":"ce4bhgp2rcd13ifvqfc0","pricing_plan_id":"cebpf4jnsgd1na2vs0mg"},{"bike_id":"95553124-aafa-41c6-9c95-a5e1530c9b79","system_id":"levelo_inurba_marseille","lat":43.243042,"lon":5.396734,"is_reserved":false,"is_disabled":false,"rental_uris":{"android":"levelo://app?vid=95553124-aafa-41c6-9c95-a5e1530c9b79","ios":"levelo://app?vid=95553124-aafa-41c6-9c95-a5e1530c9b79"},"vehicle_type_id":"4","last_reported":1740910132,"current_range_meters":12800,"station_id":"ce4bhn12rcd13ifvqgpg","pricing_plan_id":"cebpf4jnsgd1na2vs0mg"},{"bike_id":"ed8bb562-d048-4d97-a62c-052cc210d3b2","system_id":"levelo_inurba_marseille","lat":43.317044,"lon":5.437175,"is_reserved":false,"is_disabled":false,"rental_uris":{"android":"levelo://app?vid=ed8bb562-d048-4d97-a62c-052cc210d3b2","ios":"levelo://app?vid=ed8bb562-d048-4d97-a62c-052cc210d3b2"},"vehicle_type_id":"4","last_reported":1740910132,"current_range_meters":12800,"station_id":"ce4bhp92rcd13ifvqhcg","pricing_plan_id":"cebpf4jnsgd1na2vs0mg"},{"bike_id":"848e1728-4a39-474c-b550-8bc497cd3e33","system_id":"levelo_inurba_marseille","lat":43.32369,"lon":5.36773,"is_reserved":false,"is_disabled":false,"rental_uris":{"android":"levelo://app?vid=848e1728-4a39-474c-b550-8bc497cd3e33","ios":"levelo://app?vid=848e1728-4a39-474c-b550-8bc497cd3e33"},"vehicle_type_id":"4","last_reported":1740910132,"current_range_meters":12800,"station_id":"ce4bhsh2rcd13ifvqi2g","pricing_plan_id":"cebpf4jnsgd1na2vs0mg"},{"bike_id":"2e9c27d3-7345-4cf1-8b14-d9496e0e96ab","system_id":"levelo_inurba_marseille","lat":43.30896,"lon":5.39632,"is_reserved":false,"is_disabled":false,"rental_uris":{"android":"levelo://app?vid=2e9c27d3-7345-4cf1-8b14-d9496e0e96ab","ios":"levelo://app?vid=2e9c27d3-7345-4cf1-8b14-d9496e0e96ab"},"vehicle_type_id":"4","last_reported":1740910132,"current_range_meters":13600,"station_id":"ce4bh012rcd13ifvqcv0","pricing_plan_id":"cebpf4jnsgd1na2vs0mg"},{"bike_id":"3f1c5b0e-6cb1-4bd0-b31c-4fcbb4650943","system_id":"levelo_inurba_marseille","lat":43.28835,"lon":5.35845,"is_reserved":false,"is_disabled":false,"rental_uris":{"android":"levelo://app?vid=3f1c5b0e-6cb1-4bd0-b31c-4fcbb4650943","ios":"levelo://app?vid=3f1c5b0e-6cb1-4bd0-b31c-4fcbb4650943"},"vehicle_type_id":"4","last_reported":1740910132,"current_range_meters":13600,"station_id":"ce4bhb12rcd13ifvqem0","pricing_plan_id":"cebpf4jnsgd1na2vs0mg"},{"bike_id":"04374387-317f-463f-bfc7-2e3d3c3c7b98","system_id":"levelo_inurba_marseille","lat":43.24169,"lon":5.39733,"is_reserved":false,"is_disabled":false,"rental_uris":{"android":"levelo://app?vid=04374387-317f-463f-bfc7-2e3d3c3c7b98","ios":"levelo://app?vid=04374387-317f-463f-bfc7-2e3d3c3c7b98"},"vehicle_type_id":"4","last_reported":1740910132,"current_range_meters":13600,"station_id":"ce4bhn12rcd13ifvqgpg","pricing_plan_id":"cebpf4jnsgd1na2vs0mg"},{"bike_id":"b89b9e97-65c4-4473-a19f-c73995b54f7e","system_id":"levelo_inurba_marseille","lat":43.23056,"lon":5.3549,"is_reserved":false,"is_disabled":false,"rental_uris":{"android":"levelo://app?vid=b89b9e97-65c4-4473-a19f-c73995b54f7e","ios":"levelo://app?vid=b89b9e97-65c4-4473-a19f-c73995b54f7e"},"vehicle_type_id":"4","last_reported":1740910132,"current_range_meters":13600,"station_id":"cpo3342slgdg3j2ifvpg","pricing_plan_id":"cebpf4jnsgd1na2vs0mg"},{"bike_id":"2a069d3b-4fd4-4b13-920d-104ee44c233c","system_id":"levelo_inurba_marseille","lat":43.30526,"lon":5.36543,"is_reserved":false,"is_disabled":false,"rental_uris":{"android":"levelo://app?vid=2a069d3b-4fd4-4b13-920d-104ee44c233c","ios":"levelo://app?vid=2a069d3b-4fd4-4b13-920d-104ee44c233c"},"vehicle_type_id":"4","last_reported":1740910132,"current_range_meters":14000,"station_id":"ce4bgs12rcd13ifvqcag","pricing_plan_id":"cebpf4jnsgd1na2vs0mg"},{"bike_id":"8e886d15-f7c9-408d-8ce6-c26a75e0d003","system_id":"levelo_inurba_marseille","lat":43.31685,"lon":5.40477,"is_reserved":false,"is_disabled":false,"rental_uris":{"android":"levelo://app?vid=8e886d15-f7c9-408d-8ce6-c26a75e0d003","ios":"levelo://app?vid=8e886d15-f7c9-408d-8ce6-c26a75e0d003"},"vehicle_type_id":"4","last_reported":1740910132,"current_range_meters":14000,"station_id":"ce4bh012rcd13ifvqd00","pricing_plan_id":"cebpf4jnsgd1na2vs0mg"},{"bike_id":"0f05a555-e598-43c7-bb27-5b9b48daab9f","system_id":"levelo_inurba_marseille","lat":43.24385,"lon":5.37052,"is_reserved":false,"is_disabled":false,"rental_uris":{"android":"levelo://app?vid=0f05a555-e598-43c7-bb27-5b9b48daab9f","ios":"levelo://app?vid=0f05a555-e598-43c7-bb27-5b9b48daab9f"},"vehicle_type_id":"4","last_reported":1740910132,"current_range_meters":14000,"station_id":"ce4bhhh2rcd13ifvqfk0","pricing_plan_id":"cebpf4jnsgd1na2vs0mg"},{"bike_id":"fdba8a4a-4da2-4b9e-ac9e-63456cc6af22","system_id":"levelo_inurba_marseille","lat":43.30418,"lon":5.41288,"is_reserved":false,"is_disabled":false,"rental_uris":{"android":"levelo://app?vid=fdba8a4a-4da2-4b9e-ac9e-63456cc6af22","ios":"levelo://app?vid=fdba8a4a-4da2-4b9e-ac9e-63456cc6af22"},"vehicle_type_id":"4","last_reported":1740910132,"current_range_meters":14000,"station_id":"ce4bhop2rcd13ifvqh8g","pricing_plan_id":"cebpf4jnsgd1na2vs0mg"},{"bike_id":"61e3c74e-7012-4cb6-8ef4-17db5d82fdf7","system_id":"levelo_inurba_marseille","lat":43.25309,"lon":5.39275,"is_reserved":false,"is_disabled":false,"rental_uris":{"android":"levelo://app?vid=61e3c74e-7012-4cb6-8ef4-17db5d82fdf7","ios":"levelo://app?vid=61e3c74e-7012-4cb6-8ef4-17db5d82fdf7"},"vehicle_type_id":"4","last_reported":1740910132,"current_range_meters":14400,"station_id":"","pricing_plan_id":"cebpf4jnsgd1na2vs0mg"},{"bike_id":"d582d420-ad76-4943-9aaa-ec3ad66c7cfa","system_id":"levelo_inurba_marseille","lat":43.24078,"lon":5.37774,"is_reserved":false,"is_disabled":false,"rental_uris":{"android":"levelo://app?vid=d582d420-ad76-4943-9aaa-ec3ad66c7cfa","ios":"levelo://app?vid=d582d420-ad76-4943-9aaa-ec3ad66c7cfa"},"vehicle_type_id":"4","last_reported":1740910132,"current_range_meters":14400,"station_id":"ce4bhnp2rcd13ifvqgvg","pricing_plan_id":"cebpf4jnsgd1na2vs0mg"},{"bike_id":"dc07e06d-0854-459d-a227-3d6eb13e343d","system_id":"levelo_inurba_marseille","lat":43.23193,"lon":5.35554,"is_reserved":false,"is_disabled":false,"rental_uris":{"android":"levelo://app?vid=dc07e06d-0854-459d-a227-3d6eb13e343d","ios":"levelo://app?vid=dc07e06d-0854-459d-a227-3d6eb13e343d"},"vehicle_type_id":"4","last_reported":1740910132,"current_range_meters":14400,"station_id":"ce4bhu92rcd13ifvqi70","pricing_plan_id":"cebpf4jnsgd1na2vs0mg"},{"bike_id":"8302afb0-22a1-410e-8228-2eeb522aae95","system_id":"levelo_inurba_marseille","lat":43.29301,"lon":5.37455,"is_reserved":false,"is_disabled":false,"rental_uris":{"android":"levelo://app?vid=8302afb0-22a1-410e-8228-2eeb522aae95","ios":"levelo://app?vid=8302afb0-22a1-410e-8228-2eeb522aae95"},"vehicle_type_id":"4","last_reported":1740910132,"current_range_meters":14800,"station_id":"ce4bgi12rcd13ifvqb70","pricing_plan_id":"cebpf4jnsgd1na2vs0mg"},{"bike_id":"3435514d-ac1e-4be3-a87f-54af706bc07c","system_id":"levelo_inurba_marseille","lat":43.30455,"lon":5.37909,"is_reserved":false,"is_disabled":false,"rental_uris":{"android":"levelo://app?vid=3435514d-ac1e-4be3-a87f-54af706bc07c","ios":"levelo://app?vid=3435514d-ac1e-4be3-a87f-54af706bc07c"},"vehicle_type_id":"4","last_reported":1740910132,"current_range_meters":14800,"station_id":"ce4bgup2rcd13ifvqcn0","pricing_plan_id":"cebpf4jnsgd1na2vs0mg"},{"bike_id":"83c87a3f-f875-4ca6-b287-fd750606da22","system_id":"levelo_inurba_marseille","lat":43.232083,"lon":5.40009,"is_reserved":false,"is_disabled":false,"rental_uris":{"android":"levelo://app?vid=83c87a3f-f875-4ca6-b287-fd750606da22","ios":"levelo://app?vid=83c87a3f-f875-4ca6-b287-fd750606da22"},"vehicle_type_id":"4","last_reported":1740910132,"current_range_meters":14800,"station_id":"ce4bhn12rcd13ifvqgqg","pricing_plan_id":"cebpf4jnsgd1na2vs0mg"},{"bike_id":"91cd1291-c326-482f-9ece-15bf98878fb6","system_id":"levelo_inurba_marseille","lat":43.31997,"lon":5.3815,"is_reserved":false,"is_disabled":false,"rental_uris":{"android":"levelo://app?vid=91cd1291-c326-482f-9ece-15bf98878fb6","ios":"levelo://app?vid=91cd1291-c326-482f-9ece-15bf98878fb6"},"vehicle_type_id":"4","last_reported":1740910132,"current_range_meters":14800,"station_id":"ce4bhr12rcd13ifvqhpg","pricing_plan_id":"cebpf4jnsgd1na2vs0mg"},{"bike_id":"a4fa36b4-7a41-4d3b-8edc-0027bce1b33c","system_id":"levelo_inurba_marseille","lat":43.25411,"lon":5.41264,"is_reserved":false,"is_disabled":false,"rental_uris":{"android":"levelo://app?vid=a4fa36b4-7a41-4d3b-8edc-0027bce1b33c","ios":"levelo://app?vid=a4fa36b4-7a41-4d3b-8edc-0027bce1b33c"},"vehicle_type_id":"4","last_reported":1740910132,"current_range_meters":15200,"station_id":"","pricing_plan_id":"cebpf4jnsgd1na2vs0mg"},{"bike_id":"96090500-e92b-4618-a8ce-3e71815df01c","system_id":"levelo_inurba_marseille","lat":43.31067,"lon":5.38251,"is_reserved":false,"is_disabled":false,"rental_uris":{"android":"levelo://app?vid=96090500-e92b-4618-a8ce-3e71815df01c","ios":"levelo://app?vid=96090500-e92b-4618-a8ce-3e71815df01c"},"vehicle_type_id":"4","last_reported":1740910132,"current_range_meters":15200,"station_id":"","pricing_plan_id":"cebpf4jnsgd1na2vs0mg"},{"bike_id":"fd2a23d4-87bf-4c92-a29f-6fc7c6c5fc9b","system_id":"levelo_inurba_marseille","lat":43.29955,"lon":5.37454,"is_reserved":false,"is_disabled":false,"rental_uris":{"android":"levelo://app?vid=fd2a23d4-87bf-4c92-a29f-6fc7c6c5fc9b","ios":"levelo://app?vid=fd2a23d4-87bf-4c92-a29f-6fc7c6c5fc9b"},"vehicle_type_id":"4","last_reported":1740910132,"current_range_meters":15200,"station_id":"ce4bgjh2rcd13ifvqbg0","pricing_plan_id":"cebpf4jnsgd1na2vs0mg"},{"bike_id":"ab8aea9c-c6a1-4232-9ec4-273e1cc28302","system_id":"levelo_inurba_marseille","lat":43.28267,"lon":5.35062,"is_reserved":false,"is_disabled":false,"rental_uris":{"android":"levelo://app?vid=ab8aea9c-c6a1-4232-9ec4-273e1cc28302","ios":"levelo://app?vid=ab8aea9c-c6a1-4232-9ec4-273e1cc28302"},"vehicle_type_id":"4","last_reported":1740910132,"current_range_meters":15200,"station_id":"ce4bhbp2rcd13ifvqerg","pricing_plan_id":"cebpf4jnsgd1na2vs0mg"},{"bike_id":"a5cfe758-f57c-4633-a9e4-201c2b767903","system_id":"levelo_inurba_marseille","lat":43.2481,"lon":5.37455,"is_reserved":false,"is_disabled":false,"rental_uris":{"android":"levelo://app?vid=a5cfe758-f57c-4633-a9e4-201c2b767903","ios":"levelo://app?vid=a5cfe758-f57c-4633-a9e4-201c2b767903"},"vehicle_type_id":"4","last_reported":1740910132,"current_range_meters":15200,"station_id":"ce4bhgh2rcd13ifvqfb0","pricing_plan_id":"cebpf4jnsgd1na2vs0mg"},{"bike_id":"6d13a634-3969-4704-8104-ef55e819d437","system_id":"levelo_inurba_marseille","lat":43.27497,"lon":5.42453,"is_reserved":false,"is_disabled":false,"rental_uris":{"android":"levelo://app?vid=6d13a634-3969-4704-8104-ef55e819d437","ios":"levelo://app?vid=6d13a634-3969-4704-8104-ef55e819d437"},"vehicle_type_id":"4","last_reported":1740910132,"current_range_meters":15200,"station_id":"ce4bhn92rcd13ifvqgrg","pricing_plan_id":"cebpf4jnsgd1na2vs0mg"},{"bike_id":"18ed809a-93be-4ceb-a90d-b4661309b51d","system_id":"levelo_inurba_marseille","lat":43.30937,"lon":5.3744,"is_reserved":false,"is_disabled":false,"rental_uris":{"android":"levelo://app?vid=18ed809a-93be-4ceb-a90d-b4661309b51d","ios":"levelo://app?vid=18ed809a-93be-4ceb-a90d-b4661309b51d"},"vehicle_type_id":"4","last_reported":1740910132,"current_range_meters":16000,"station_id":"","pricing_plan_id":"cebpf4jnsgd1na2vs0mg"},{"bike_id":"88efc352-c773-4e25-8628-19f20f511685","system_id":"levelo_inurba_marseille","lat":43.29904,"lon":5.38151,"is_reserved":false,"is_disabled":false,"rental_uris":{"android":"levelo://app?vid=88efc352-c773-4e25-8628-19f20f511685","ios":"levelo://app?vid=88efc352-c773-4e25-8628-19f20f511685"},"vehicle_type_id":"4","last_reported":1740910132,"current_range_meters":16000,"station_id":"ce4bgj12rcd13ifvqbc0","pricing_plan_id":"cebpf4jnsgd1na2vs0mg"},{"bike_id":"5e057ada-ca69-477b-b17b-2e1631874481","system_id":"levelo_inurba_marseille","lat":43.30144,"lon":5.38077,"is_reserved":false,"is_disabled":false,"rental_uris":{"android":"levelo://app?vid=5e057ada-ca69-477b-b17b-2e1631874481","ios":"levelo://app?vid=5e057ada-ca69-477b-b17b-2e1631874481"},"vehicle_type_id":"4","last_reported":1740910132,"current_range_meters":16000,"station_id":"ce4bgjp2rcd13ifvqbh0","pricing_plan_id":"cebpf4jnsgd1na2vs0mg"},{"bike_id":"6c87802e-faae-4524-b5f4-a5401f9e4430","system_id":"levelo_inurba_marseille","lat":43.30457,"lon":5.37904,"is_reserved":false,"is_disabled":false,"rental_uris":{"android":"levelo://app?vid=6c87802e-faae-4524-b5f4-a5401f9e4430","ios":"levelo://app?vid=6c87802e-faae-4524-b5f4-a5401f9e4430"},"vehicle_type_id":"4","last_reported":1740910132,"current_range_meters":16000,"station_id":"ce4bgup2rcd13ifvqcn0","pricing_plan_id":"cebpf4jnsgd1na2vs0mg"},{"bike_id":"021024b2-d7f2-4303-ad4b-64d047e1cf29","system_id":"levelo_inurba_marseille","lat":43.30952,"lon":5.40162,"is_reserved":false,"is_disabled":false,"rental_uris":{"android":"levelo://app?vid=021024b2-d7f2-4303-ad4b-64d047e1cf29","ios":"levelo://app?vid=021024b2-d7f2-4303-ad4b-64d047e1cf29"},"vehicle_type_id":"4","last_reported":1740910132,"current_range_meters":16000,"station_id":"ce4bgvp2rcd13ifvqct0","pricing_plan_id":"cebpf4jnsgd1na2vs0mg"},{"bike_id":"319abd2e-fb1d-4d18-9162-7ce610338051","system_id":"levelo_inurba_marseille","lat":43.31069,"lon":5.38358,"is_reserved":false,"is_disabled":false,"rental_uris":{"android":"levelo://app?vid=319abd2e-fb1d-4d18-9162-7ce610338051","ios":"levelo://app?vid=319abd2e-fb1d-4d18-9162-7ce610338051"},"vehicle_type_id":"4","last_reported":1740910132,"current_range_meters":16400,"station_id":"ce4bgv92rcd13ifvqcr0","pricing_plan_id":"cebpf4jnsgd1na2vs0mg"},{"bike_id":"9181a5ec-449b-4ace-941b-8b0c1362c76f","system_id":"levelo_inurba_marseille","lat":43.26554,"lon":5.37296,"is_reserved":false,"is_disabled":false,"rental_uris":{"android":"levelo://app?vid=9181a5ec-449b-4ace-941b-8b0c1362c76f","ios":"levelo://app?vid=9181a5ec-449b-4ace-941b-8b0c1362c76f"},"vehicle_type_id":"4","last_reported":1740910132,"current_range_meters":16400,"station_id":"ce4bhg12rcd13ifvqf70","pricing_plan_id":"cebpf4jnsgd1na2vs0mg"},{"bike_id":"d66b749a-0808-469e-b143-0787b08d816b","system_id":"levelo_inurba_marseille","lat":43.262129,"lon":5.374585,"is_reserved":false,"is_disabled":false,"rental_uris":{"android":"levelo://app?vid=d66b749a-0808-469e-b143-0787b08d816b","ios":"levelo://app?vid=d66b749a-0808-469e-b143-0787b08d816b"},"vehicle_type_id":"4","last_reported":1740910132,"current_range_meters":16400,"station_id":"ce4bhgp2rcd13ifvqfc0","pricing_plan_id":"cebpf4jnsgd1na2vs0mg"},{"bike_id":"b8ad1b64-42b6-4030-a721-17ecff6137fb","system_id":"levelo_inurba_marseille","lat":43.24661,"lon":5.38163,"is_reserved":false,"is_disabled":false,"rental_uris":{"android":"levelo://app?vid=b8ad1b64-42b6-4030-a721-17ecff6137fb","ios":"levelo://app?vid=b8ad1b64-42b6-4030-a721-17ecff6137fb"},"vehicle_type_id":"4","last_reported":1740910132,"current_range_meters":16400,"station_id":"ce4bhih2rcd13ifvqfr0","pricing_plan_id":"cebpf4jnsgd1na2vs0mg"},{"bike_id":"5394a918-4b01-4a8a-88ce-d3c6273f3a78","system_id":"levelo_inurba_marseille","lat":43.2318,"lon":5.4,"is_reserved":false,"is_disabled":false,"rental_uris":{"android":"levelo://app?vid=5394a918-4b01-4a8a-88ce-d3c6273f3a78","ios":"levelo://app?vid=5394a918-4b01-4a8a-88ce-d3c6273f3a78"},"vehicle_type_id":"4","last_reported":1740910132,"current_range_meters":16400,"station_id":"ce4bhn12rcd13ifvqgqg","pricing_plan_id":"cebpf4jnsgd1na2vs0mg"},{"bike_id":"c5b35fc3-133b-4fcd-9bc1-000b1b46221f","system_id":"levelo_inurba_marseille","lat":43.24173,"lon":5.36403,"is_reserved":false,"is_disabled":false,"rental_uris":{"android":"levelo://app?vid=c5b35fc3-133b-4fcd-9bc1-000b1b46221f","ios":"levelo://app?vid=c5b35fc3-133b-4fcd-9bc1-000b1b46221f"},"vehicle_type_id":"4","last_reported":1740910132,"current_range_meters":16400,"station_id":"cpo36qri1sfpv3e86is0","pricing_plan_id":"cebpf4jnsgd1na2vs0mg"},{"bike_id":"d29e82e5-442b-4177-903e-3742ab7d0a8c","system_id":"levelo_inurba_marseille","lat":43.30041,"lon":5.37399,"is_reserved":false,"is_disabled":false,"rental_uris":{"android":"levelo://app?vid=d29e82e5-442b-4177-903e-3742ab7d0a8c","ios":"levelo://app?vid=d29e82e5-442b-4177-903e-3742ab7d0a8c"},"vehicle_type_id":"4","last_reported":1740910132,"current_range_meters":16800,"station_id":"","pricing_plan_id":"cebpf4jnsgd1na2vs0mg"},{"bike_id":"cc836fe0-3cfd-4fe9-beb4-1fec15d76872","system_id":"levelo_inurba_marseille","lat":43.30422,"lon":5.37316,"is_reserved":false,"is_disabled":false,"rental_uris":{"android":"levelo://app?vid=cc836fe0-3cfd-4fe9-beb4-1fec15d76872","ios":"levelo://app?vid=cc836fe0-3cfd-4fe9-beb4-1fec15d76872"},"vehicle_type_id":"4","last_reported":1740910132,"current_range_meters":16800,"station_id":"","pricing_plan_id":"cebpf4jnsgd1na2vs0mg"},{"bike_id":"e69260b5-1711-443e-b6f4-5183d73c03cb","system_id":"levelo_inurba_marseille","lat":43.31357,"lon":5.38502,"is_reserved":false,"is_disabled":false,"rental_uris":{"android":"levelo://app?vid=e69260b5-1711-443e-b6f4-5183d73c03cb","ios":"levelo://app?vid=e69260b5-1711-443e-b6f4-5183d73c03cb"},"vehicle_type_id":"4","last_reported":1740910132,"current_range_meters":16800,"station_id":"ce4bgt92rcd13ifvqcf0","pricing_plan_id":"cebpf4jnsgd1na2vs0mg"},{"bike_id":"35de5d9e-453d-4b6e-a49a-d72de279088a","system_id":"levelo_inurba_marseille","lat":43.26205,"lon":5.37454,"is_reserved":false,"is_disabled":false,"rental_uris":{"android":"levelo://app?vid=35de5d9e-453d-4b6e-a49a-d72de279088a","ios":"levelo://app?vid=35de5d9e-453d-4b6e-a49a-d72de279088a"},"vehicle_type_id":"4","last_reported":1740910132,"current_range_meters":16800,"station_id":"ce4bhgp2rcd13ifvqfc0","pricing_plan_id":"cebpf4jnsgd1na2vs0mg"},{"bike_id":"46b42730-9dd3-44c5-91a9-d6d931f385c3","system_id":"levelo_inurba_marseille","lat":43.2548,"lon":5.37675,"is_reserved":false,"is_disabled":false,"rental_uris":{"android":"levelo://app?vid=46b42730-9dd3-44c5-91a9-d6d931f385c3","ios":"levelo://app?vid=46b42730-9dd3-44c5-91a9-d6d931f385c3"},"vehicle_type_id":"4","last_reported":1740910132,"current_range_meters":16800,"station_id":"ce4bhh12rcd13ifvqff0","pricing_plan_id":"cebpf4jnsgd1na2vs0mg"},{"bike_id":"670122a3-157a-4ef1-82d1-a5574649dac0","system_id":"levelo_inurba_marseille","lat":43.239594,"lon":5.366273,"is_reserved":false,"is_disabled":false,"rental_uris":{"android":"levelo://app?vid=670122a3-157a-4ef1-82d1-a5574649dac0","ios":"levelo://app?vid=670122a3-157a-4ef1-82d1-a5574649dac0"},"vehicle_type_id":"4","last_reported":1740910132,"current_range_meters":16800,"station_id":"ce4bhi12rcd13ifvqfp0","pricing_plan_id":"cebpf4jnsgd1na2vs0mg"},{"bike_id":"982a6c2e-2f14-45e6-81c3-569abb57b097","system_id":"levelo_inurba_marseille","lat":43.2307,"lon":5.35521,"is_reserved":false,"is_disabled":false,"rental_uris":{"android":"levelo://app?vid=982a6c2e-2f14-45e6-81c3-569abb57b097","ios":"levelo://app?vid=982a6c2e-2f14-45e6-81c3-569abb57b097"},"vehicle_type_id":"4","last_reported":1740910132,"current_range_meters":16800,"station_id":"cpo3342slgdg3j2ifvpg","pricing_plan_id":"cebpf4jnsgd1na2vs0mg"},{"bike_id":"f5ace16b-5927-4aa3-a56f-a2f4b6f53741","system_id":"levelo_inurba_marseille","lat":43.337444,"lon":5.374475,"is_reserved":false,"is_disabled":false,"rental_uris":{"android":"levelo://app?vid=f5ace16b-5927-4aa3-a56f-a2f4b6f53741","ios":"levelo://app?vid=f5ace16b-5927-4aa3-a56f-a2f4b6f53741"},"vehicle_type_id":"4","last_reported":1740910132,"current_range_meters":17200,"station_id":"","pricing_plan_id":"cebpf4jnsgd1na2vs0mg"},{"bike_id":"ab6742b3-a719-45ba-9e52-d24c4f67ff60","system_id":"levelo_inurba_marseille","lat":43.27618,"lon":5.36117,"is_reserved":false,"is_disabled":false,"rental_uris":{"android":"levelo://app?vid=ab6742b3-a719-45ba-9e52-d24c4f67ff60","ios":"levelo://app?vid=ab6742b3-a719-45ba-9e52-d24c4f67ff60"},"vehicle_type_id":"4","last_reported":1740910132,"current_range_meters":17200,"station_id":"ce4bgj92rcd13ifvqbe0","pricing_plan_id":"cebpf4jnsgd1na2vs0mg"},{"bike_id":"151c4a48-bc19-4202-ba91-9fd07bf64084","system_id":"levelo_inurba_marseille","lat":43.29623,"lon":5.37171,"is_reserved":false,"is_disabled":false,"rental_uris":{"android":"levelo://app?vid=151c4a48-bc19-4202-ba91-9fd07bf64084","ios":"levelo://app?vid=151c4a48-bc19-4202-ba91-9fd07bf64084"},"vehicle_type_id":"4","last_reported":1740910132,"current_range_meters":17200,"station_id":"ce4bgnh2rcd13ifvqc0g","pricing_plan_id":"cebpf4jnsgd1na2vs0mg"},{"bike_id":"58887411-06a0-44c8-b963-b0957b901aeb","system_id":"levelo_inurba_marseille","lat":43.29871,"lon":5.39744,"is_reserved":false,"is_disabled":false,"rental_uris":{"android":"levelo://app?vid=58887411-06a0-44c8-b963-b0957b901aeb","ios":"levelo://app?vid=58887411-06a0-44c8-b963-b0957b901aeb"},"vehicle_type_id":"4","last_reported":1740910132,"current_range_meters":17200,"station_id":"ce4bh0h2rcd13ifvqd50","pricing_plan_id":"cebpf4jnsgd1na2vs0mg"},{"bike_id":"7677f52e-c269-4ae6-9a4d-a36f51bf4aea","system_id":"levelo_inurba_marseille","lat":43.27967,"lon":5.38698,"is_reserved":false,"is_disabled":false,"rental_uris":{"android":"levelo://app?vid=7677f52e-c269-4ae6-9a4d-a36f51bf4aea","ios":"levelo://app?vid=7677f52e-c269-4ae6-9a4d-a36f51bf4aea"},"vehicle_type_id":"4","last_reported":1740910132,"current_range_meters":17200,"station_id":"ce4bhg12rcd13ifvqf80","pricing_plan_id":"cebpf4jnsgd1na2vs0mg"},{"bike_id":"8c418afa-4a43-45d0-83c2-1c17c420fa81","system_id":"levelo_inurba_marseille","lat":43.26206,"lon":5.3745,"is_reserved":false,"is_disabled":false,"rental_uris":{"android":"levelo://app?vid=8c418afa-4a43-45d0-83c2-1c17c420fa81","ios":"levelo://app?vid=8c418afa-4a43-45d0-83c2-1c17c420fa81"},"vehicle_type_id":"4","last_reported":1740910132,"current_range_meters":17200,"station_id":"ce4bhgp2rcd13ifvqfc0","pricing_plan_id":"cebpf4jnsgd1na2vs0mg"},{"bike_id":"0b85d778-5f42-41f6-99e6-93c2062ce94d","system_id":"levelo_inurba_marseille","lat":43.317013,"lon":5.437055,"is_reserved":false,"is_disabled":false,"rental_uris":{"android":"levelo://app?vid=0b85d778-5f42-41f6-99e6-93c2062ce94d","ios":"levelo://app?vid=0b85d778-5f42-41f6-99e6-93c2062ce94d"},"vehicle_type_id":"4","last_reported":1740910132,"current_range_meters":17200,"station_id":"ce4bhp92rcd13ifvqhcg","pricing_plan_id":"cebpf4jnsgd1na2vs0mg"},{"bike_id":"d7455ef1-0ce2-47d7-a2ab-1379fc9a165f","system_id":"levelo_inurba_marseille","lat":43.27611,"lon":5.36118,"is_reserved":false,"is_disabled":false,"rental_uris":{"android":"levelo://app?vid=d7455ef1-0ce2-47d7-a2ab-1379fc9a165f","ios":"levelo://app?vid=d7455ef1-0ce2-47d7-a2ab-1379fc9a165f"},"vehicle_type_id":"4","last_reported":1740910132,"current_range_meters":17600,"station_id":"ce4bgj92rcd13ifvqbe0","pricing_plan_id":"cebpf4jnsgd1na2vs0mg"},{"bike_id":"6b504e4c-8634-4014-8db3-76b3faa36f95","system_id":"levelo_inurba_marseille","lat":43.3015,"lon":5.38092,"is_reserved":false,"is_disabled":false,"rental_uris":{"android":"levelo://app?vid=6b504e4c-8634-4014-8db3-76b3faa36f95","ios":"levelo://app?vid=6b504e4c-8634-4014-8db3-76b3faa36f95"},"vehicle_type_id":"4","last_reported":1740910132,"current_range_meters":17600,"station_id":"ce4bgjp2rcd13ifvqbh0","pricing_plan_id":"cebpf4jnsgd1na2vs0mg"},{"bike_id":"ed3fdd04-4f01-4dec-bae0-dc817c8e7da9","system_id":"levelo_inurba_marseille","lat":43.306319,"lon":5.372124,"is_reserved":false,"is_disabled":false,"rental_uris":{"android":"levelo://app?vid=ed3fdd04-4f01-4dec-bae0-dc817c8e7da9","ios":"levelo://app?vid=ed3fdd04-4f01-4dec-bae0-dc817c8e7da9"},"vehicle_type_id":"4","last_reported":1740910132,"current_range_meters":17600,"station_id":"ce4bgqh2rcd13ifvqc4g","pricing_plan_id":"cebpf4jnsgd1na2vs0mg"},{"bike_id":"ae8b146d-daad-47c5-8235-24ea2da30b35","system_id":"levelo_inurba_marseille","lat":43.31129,"lon":5.37768,"is_reserved":false,"is_disabled":false,"rental_uris":{"android":"levelo://app?vid=ae8b146d-daad-47c5-8235-24ea2da30b35","ios":"levelo://app?vid=ae8b146d-daad-47c5-8235-24ea2da30b35"},"vehicle_type_id":"4","last_reported":1740910132,"current_range_meters":17600,"station_id":"ce4bgt92rcd13ifvqcg0","pricing_plan_id":"cebpf4jnsgd1na2vs0mg"},{"bike_id":"417fbd7d-d6d8-4c3a-98dd-ce0156edb9f1","system_id":"levelo_inurba_marseille","lat":43.28345,"lon":5.34981,"is_reserved":false,"is_disabled":false,"rental_uris":{"android":"levelo://app?vid=417fbd7d-d6d8-4c3a-98dd-ce0156edb9f1","ios":"levelo://app?vid=417fbd7d-d6d8-4c3a-98dd-ce0156edb9f1"},"vehicle_type_id":"4","last_reported":1740910132,"current_range_meters":17600,"station_id":"ce4bhbh2rcd13ifvqepg","pricing_plan_id":"cebpf4jnsgd1na2vs0mg"},{"bike_id":"84a21489-e7c4-40fb-8156-acb06b20eaff","system_id":"levelo_inurba_marseille","lat":43.23152,"lon":5.43727,"is_reserved":false,"is_disabled":false,"rental_uris":{"android":"levelo://app?vid=84a21489-e7c4-40fb-8156-acb06b20eaff","ios":"levelo://app?vid=84a21489-e7c4-40fb-8156-acb06b20eaff"},"vehicle_type_id":"4","last_reported":1740910132,"current_range_meters":17600,"station_id":"ce4bhmp2rcd13ifvqgog","pricing_plan_id":"cebpf4jnsgd1na2vs0mg"},{"bike_id":"52c30768-823c-4f29-9a33-bf074f73acb0","system_id":"levelo_inurba_marseille","lat":43.280777,"lon":5.396746,"is_reserved":false,"is_disabled":false,"rental_uris":{"android":"levelo://app?vid=52c30768-823c-4f29-9a33-bf074f73acb0","ios":"levelo://app?vid=52c30768-823c-4f29-9a33-bf074f73acb0"},"vehicle_type_id":"4","last_reported":1740910132,"current_range_meters":17600,"station_id":"ce4bho12rcd13ifvqh2g","pricing_plan_id":"cebpf4jnsgd1na2vs0mg"},{"bike_id":"815d7400-5b5f-493d-b032-6bb79e6a8b09","system_id":"levelo_inurba_marseille","lat":43.3297,"lon":5.39039,"is_reserved":false,"is_disabled":false,"rental_uris":{"android":"levelo://app?vid=815d7400-5b5f-493d-b032-6bb79e6a8b09","ios":"levelo://app?vid=815d7400-5b5f-493d-b032-6bb79e6a8b09"},"vehicle_type_id":"4","last_reported":1740910132,"current_range_meters":18000,"station_id":"","pricing_plan_id":"cebpf4jnsgd1na2vs0mg"},{"bike_id":"b58db059-3276-43ce-bdfe-55757589d75b","system_id":"levelo_inurba_marseille","lat":43.31179,"lon":5.38721,"is_reserved":false,"is_disabled":false,"rental_uris":{"android":"levelo://app?vid=b58db059-3276-43ce-bdfe-55757589d75b","ios":"levelo://app?vid=b58db059-3276-43ce-bdfe-55757589d75b"},"vehicle_type_id":"4","last_reported":1740910132,"current_range_meters":18000,"station_id":"ce4bgv12rcd13ifvqcp0","pricing_plan_id":"cebpf4jnsgd1na2vs0mg"},{"bike_id":"a0203017-7af2-42d1-8cbe-20465dd07b9e","system_id":"levelo_inurba_marseille","lat":43.31678,"lon":5.40477,"is_reserved":false,"is_disabled":false,"rental_uris":{"android":"levelo://app?vid=a0203017-7af2-42d1-8cbe-20465dd07b9e","ios":"levelo://app?vid=a0203017-7af2-42d1-8cbe-20465dd07b9e"},"vehicle_type_id":"4","last_reported":1740910132,"current_range_meters":18000,"station_id":"ce4bh012rcd13ifvqd00","pricing_plan_id":"cebpf4jnsgd1na2vs0mg"},{"bike_id":"dfa98568-de56-49c0-b22a-01233fa78e9e","system_id":"levelo_inurba_marseille","lat":43.28664,"lon":5.36356,"is_reserved":false,"is_disabled":false,"rental_uris":{"android":"levelo://app?vid=dfa98568-de56-49c0-b22a-01233fa78e9e","ios":"levelo://app?vid=dfa98568-de56-49c0-b22a-01233fa78e9e"},"vehicle_type_id":"4","last_reported":1740910132,"current_range_meters":18000,"station_id":"ce4bhah2rcd13ifvqej0","pricing_plan_id":"cebpf4jnsgd1na2vs0mg"},{"bike_id":"426a327e-17c2-4196-b926-96fb1c073c2b","system_id":"levelo_inurba_marseille","lat":43.273417,"lon":5.391103,"is_reserved":false,"is_disabled":false,"rental_uris":{"android":"levelo://app?vid=426a327e-17c2-4196-b926-96fb1c073c2b","ios":"levelo://app?vid=426a327e-17c2-4196-b926-96fb1c073c2b"},"vehicle_type_id":"4","last_reported":1740910132,"current_range_meters":18000,"station_id":"ce4bhgp2rcd13ifvqfe0","pricing_plan_id":"cebpf4jnsgd1na2vs0mg"},{"bike_id":"67a0de88-ba36-4298-b13d-b95a224ba097","system_id":"levelo_inurba_marseille","lat":43.27074,"lon":5.42267,"is_reserved":false,"is_disabled":false,"rental_uris":{"android":"levelo://app?vid=67a0de88-ba36-4298-b13d-b95a224ba097","ios":"levelo://app?vid=67a0de88-ba36-4298-b13d-b95a224ba097"},"vehicle_type_id":"4","last_reported":1740910132,"current_range_meters":18000,"station_id":"ce4bhk92rcd13ifvqgb0","pricing_plan_id":"cebpf4jnsgd1na2vs0mg"},{"bike_id":"6c7aa72f-daa2-426a-baee-bc8847642aae","system_id":"levelo_inurba_marseille","lat":43.2407,"lon":5.37765,"is_reserved":false,"is_disabled":false,"rental_uris":{"android":"levelo://app?vid=6c7aa72f-daa2-426a-baee-bc8847642aae","ios":"levelo://app?vid=6c7aa72f-daa2-426a-baee-bc8847642aae"},"vehicle_type_id":"4","last_reported":1740910132,"current_range_meters":18000,"station_id":"ce4bhnp2rcd13ifvqgvg","pricing_plan_id":"cebpf4jnsgd1na2vs0mg"},{"bike_id":"ab34b05a-3e12-4f6f-983f-007358280f71","system_id":"levelo_inurba_marseille","lat":43.29898,"lon":5.43673,"is_reserved":false,"is_disabled":false,"rental_uris":{"android":"levelo://app?vid=ab34b05a-3e12-4f6f-983f-007358280f71","ios":"levelo://app?vid=ab34b05a-3e12-4f6f-983f-007358280f71"},"vehicle_type_id":"4","last_reported":1740910132,"current_range_meters":18000,"station_id":"ce4bhpp2rcd13ifvqhfg","pricing_plan_id":"cebpf4jnsgd1na2vs0mg"},{"bike_id":"453068aa-c17d-43bf-9cdd-03e2ddd93a1e","system_id":"levelo_inurba_marseille","lat":43.3091,"lon":5.368461,"is_reserved":false,"is_disabled":false,"rental_uris":{"android":"levelo://app?vid=453068aa-c17d-43bf-9cdd-03e2ddd93a1e","ios":"levelo://app?vid=453068aa-c17d-43bf-9cdd-03e2ddd93a1e"},"vehicle_type_id":"4","last_reported":1740910132,"current_range_meters":18800,"station_id":"ce4bgn92rcd13ifvqbvg","pricing_plan_id":"cebpf4jnsgd1na2vs0mg"},{"bike_id":"c654c132-18a8-401e-98c3-02b2c6b1b444","system_id":"levelo_inurba_marseille","lat":43.30145,"lon":5.3984,"is_reserved":false,"is_disabled":false,"rental_uris":{"android":"levelo://app?vid=c654c132-18a8-401e-98c3-02b2c6b1b444","ios":"levelo://app?vid=c654c132-18a8-401e-98c3-02b2c6b1b444"},"vehicle_type_id":"4","last_reported":1740910132,"current_range_meters":18800,"station_id":"ce4bh0h2rcd13ifvqd40","pricing_plan_id":"cebpf4jnsgd1na2vs0mg"},{"bike_id":"d7d5621a-531b-4f63-99b0-ea5b09b24407","system_id":"levelo_inurba_marseille","lat":43.24684,"lon":5.38866,"is_reserved":false,"is_disabled":false,"rental_uris":{"android":"levelo://app?vid=d7d5621a-531b-4f63-99b0-ea5b09b24407","ios":"levelo://app?vid=d7d5621a-531b-4f63-99b0-ea5b09b24407"},"vehicle_type_id":"4","last_reported":1740910132,"current_range_meters":18800,"station_id":"ce4bhg12rcd13ifvqf60","pricing_plan_id":"cebpf4jnsgd1na2vs0mg"},{"bike_id":"eb5d9bae-61e9-40c0-9bed-5bb20f6ccc63","system_id":"levelo_inurba_marseille","lat":43.26217,"lon":5.37436,"is_reserved":false,"is_disabled":false,"rental_uris":{"android":"levelo://app?vid=eb5d9bae-61e9-40c0-9bed-5bb20f6ccc63","ios":"levelo://app?vid=eb5d9bae-61e9-40c0-9bed-5bb20f6ccc63"},"vehicle_type_id":"4","last_reported":1740910132,"current_range_meters":18800,"station_id":"ce4bhgp2rcd13ifvqfc0","pricing_plan_id":"cebpf4jnsgd1na2vs0mg"},{"bike_id":"457da762-e406-4b50-80d9-621ddc3216c2","system_id":"levelo_inurba_marseille","lat":43.26215,"lon":5.37439,"is_reserved":false,"is_disabled":false,"rental_uris":{"android":"levelo://app?vid=457da762-e406-4b50-80d9-621ddc3216c2","ios":"levelo://app?vid=457da762-e406-4b50-80d9-621ddc3216c2"},"vehicle_type_id":"4","last_reported":1740910132,"current_range_meters":18800,"station_id":"ce4bhgp2rcd13ifvqfc0","pricing_plan_id":"cebpf4jnsgd1na2vs0mg"},{"bike_id":"84e0ff70-61ba-47da-bc86-d92fd2f41654","system_id":"levelo_inurba_marseille","lat":43.25011,"lon":5.38931,"is_reserved":false,"is_disabled":false,"rental_uris":{"android":"levelo://app?vid=84e0ff70-61ba-47da-bc86-d92fd2f41654","ios":"levelo://app?vid=84e0ff70-61ba-47da-bc86-d92fd2f41654"},"vehicle_type_id":"4","last_reported":1740910132,"current_range_meters":18800,"station_id":"ce4bhgp2rcd13ifvqfd0","pricing_plan_id":"cebpf4jnsgd1na2vs0mg"},{"bike_id":"32fae168-5de4-475a-bd55-4a77931437e4","system_id":"levelo_inurba_marseille","lat":43.24547,"lon":5.3952,"is_reserved":false,"is_disabled":false,"rental_uris":{"android":"levelo://app?vid=32fae168-5de4-475a-bd55-4a77931437e4","ios":"levelo://app?vid=32fae168-5de4-475a-bd55-4a77931437e4"},"vehicle_type_id":"4","last_reported":1740910132,"current_range_meters":18800,"station_id":"ce4bhlp2rcd13ifvqgjg","pricing_plan_id":"cebpf4jnsgd1na2vs0mg"},{"bike_id":"76f0ecc2-74d2-4458-9089-c4bdf8553e65","system_id":"levelo_inurba_marseille","lat":43.27181,"lon":5.41866,"is_reserved":false,"is_disabled":false,"rental_uris":{"android":"levelo://app?vid=76f0ecc2-74d2-4458-9089-c4bdf8553e65","ios":"levelo://app?vid=76f0ecc2-74d2-4458-9089-c4bdf8553e65"},"vehicle_type_id":"4","last_reported":1740910132,"current_range_meters":19200,"station_id":"","pricing_plan_id":"cebpf4jnsgd1na2vs0mg"},{"bike_id":"efeefb48-ee5c-4fea-87d0-1910089a3e45","system_id":"levelo_inurba_marseille","lat":43.276123,"lon":5.361064,"is_reserved":false,"is_disabled":false,"rental_uris":{"android":"levelo://app?vid=efeefb48-ee5c-4fea-87d0-1910089a3e45","ios":"levelo://app?vid=efeefb48-ee5c-4fea-87d0-1910089a3e45"},"vehicle_type_id":"4","last_reported":1740910132,"current_range_meters":19200,"station_id":"ce4bgj92rcd13ifvqbe0","pricing_plan_id":"cebpf4jnsgd1na2vs0mg"},{"bike_id":"d1947697-2618-4928-bf9e-bc8c2674af01","system_id":"levelo_inurba_marseille","lat":43.28039,"lon":5.36949,"is_reserved":false,"is_disabled":false,"rental_uris":{"android":"levelo://app?vid=d1947697-2618-4928-bf9e-bc8c2674af01","ios":"levelo://app?vid=d1947697-2618-4928-bf9e-bc8c2674af01"},"vehicle_type_id":"4","last_reported":1740910132,"current_range_meters":19200,"station_id":"ce4bha12rcd13ifvqef0","pricing_plan_id":"cebpf4jnsgd1na2vs0mg"},{"bike_id":"d1c0e715-6329-4d33-8e66-23065f23123c","system_id":"levelo_inurba_marseille","lat":43.28416,"lon":5.35001,"is_reserved":false,"is_disabled":false,"rental_uris":{"android":"levelo://app?vid=d1c0e715-6329-4d33-8e66-23065f23123c","ios":"levelo://app?vid=d1c0e715-6329-4d33-8e66-23065f23123c"},"vehicle_type_id":"4","last_reported":1740910132,"current_range_meters":19200,"station_id":"ce4bhbh2rcd13ifvqepg","pricing_plan_id":"cebpf4jnsgd1na2vs0mg"},{"bike_id":"8b8dac59-5a32-461f-b294-2e7dfb0d9559","system_id":"levelo_inurba_marseille","lat":43.2481,"lon":5.37462,"is_reserved":false,"is_disabled":false,"rental_uris":{"android":"levelo://app?vid=8b8dac59-5a32-461f-b294-2e7dfb0d9559","ios":"levelo://app?vid=8b8dac59-5a32-461f-b294-2e7dfb0d9559"},"vehicle_type_id":"4","last_reported":1740910132,"current_range_meters":19200,"station_id":"ce4bhgh2rcd13ifvqfb0","pricing_plan_id":"cebpf4jnsgd1na2vs0mg"},{"bike_id":"c12c7b0c-c7f6-453b-8705-ca41756e47c5","system_id":"levelo_inurba_marseille","lat":43.23971,"lon":5.36632,"is_reserved":false,"is_disabled":false,"rental_uris":{"android":"levelo://app?vid=c12c7b0c-c7f6-453b-8705-ca41756e47c5","ios":"levelo://app?vid=c12c7b0c-c7f6-453b-8705-ca41756e47c5"},"vehicle_type_id":"4","last_reported":1740910132,"current_range_meters":19200,"station_id":"ce4bhi12rcd13ifvqfp0","pricing_plan_id":"cebpf4jnsgd1na2vs0mg"},{"bike_id":"b28485f4-de04-4b86-8d47-6740f57eb4e1","system_id":"levelo_inurba_marseille","lat":43.23153,"lon":5.43716,"is_reserved":false,"is_disabled":false,"rental_uris":{"android":"levelo://app?vid=b28485f4-de04-4b86-8d47-6740f57eb4e1","ios":"levelo://app?vid=b28485f4-de04-4b86-8d47-6740f57eb4e1"},"vehicle_type_id":"4","last_reported":1740910132,"current_range_meters":19200,"station_id":"ce4bhmp2rcd13ifvqgog","pricing_plan_id":"cebpf4jnsgd1na2vs0mg"},{"bike_id":"bdcb3a76-1fb1-4027-8ea9-2f7950d1e77a","system_id":"levelo_inurba_marseille","lat":43.23187,"lon":5.39978,"is_reserved":false,"is_disabled":false,"rental_uris":{"android":"levelo://app?vid=bdcb3a76-1fb1-4027-8ea9-2f7950d1e77a","ios":"levelo://app?vid=bdcb3a76-1fb1-4027-8ea9-2f7950d1e77a"},"vehicle_type_id":"4","last_reported":1740910132,"current_range_meters":19200,"station_id":"ce4bhn12rcd13ifvqgqg","pricing_plan_id":"cebpf4jnsgd1na2vs0mg"},{"bike_id":"c998d71d-70fb-4a65-865b-053b01eba41f","system_id":"levelo_inurba_marseille","lat":43.27498,"lon":5.42446,"is_reserved":false,"is_disabled":false,"rental_uris":{"android":"levelo://app?vid=c998d71d-70fb-4a65-865b-053b01eba41f","ios":"levelo://app?vid=c998d71d-70fb-4a65-865b-053b01eba41f"},"vehicle_type_id":"4","last_reported":1740910132,"current_range_meters":19200,"station_id":"ce4bhn92rcd13ifvqgrg","pricing_plan_id":"cebpf4jnsgd1na2vs0mg"},{"bike_id":"76394e5b-b5d3-409a-954a-e09b2559a295","system_id":"levelo_inurba_marseille","lat":43.23177,"lon":5.35587,"is_reserved":false,"is_disabled":false,"rental_uris":{"android":"levelo://app?vid=76394e5b-b5d3-409a-954a-e09b2559a295","ios":"levelo://app?vid=76394e5b-b5d3-409a-954a-e09b2559a295"},"vehicle_type_id":"4","last_reported":1740910132,"current_range_meters":19200,"station_id":"ce4bhu92rcd13ifvqi70","pricing_plan_id":"cebpf4jnsgd1na2vs0mg"},{"bike_id":"67305f39-386c-4222-accf-7da00cd8fa62","system_id":"levelo_inurba_marseille","lat":43.29509,"lon":5.37457,"is_reserved":false,"is_disabled":false,"rental_uris":{"android":"levelo://app?vid=67305f39-386c-4222-accf-7da00cd8fa62","ios":"levelo://app?vid=67305f39-386c-4222-accf-7da00cd8fa62"},"vehicle_type_id":"4","last_reported":1740910132,"current_range_meters":19600,"station_id":"ce4bgkp2rcd13ifvqbmg","pricing_plan_id":"cebpf4jnsgd1na2vs0mg"},{"bike_id":"1dca288d-6923-4847-a02c-87f755ba30e1","system_id":"levelo_inurba_marseille","lat":43.29627,"lon":5.37172,"is_reserved":false,"is_disabled":false,"rental_uris":{"android":"levelo://app?vid=1dca288d-6923-4847-a02c-87f755ba30e1","ios":"levelo://app?vid=1dca288d-6923-4847-a02c-87f755ba30e1"},"vehicle_type_id":"4","last_reported":1740910132,"current_range_meters":19600,"station_id":"ce4bgnh2rcd13ifvqc0g","pricing_plan_id":"cebpf4jnsgd1na2vs0mg"},{"bike_id":"fc340232-711b-42bd-877d-07c90d091e4a","system_id":"levelo_inurba_marseille","lat":43.30544,"lon":5.36534,"is_reserved":false,"is_disabled":false,"rental_uris":{"android":"levelo://app?vid=fc340232-711b-42bd-877d-07c90d091e4a","ios":"levelo://app?vid=fc340232-711b-42bd-877d-07c90d091e4a"},"vehicle_type_id":"4","last_reported":1740910132,"current_range_meters":19600,"station_id":"ce4bgs12rcd13ifvqcag","pricing_plan_id":"cebpf4jnsgd1na2vs0mg"},{"bike_id":"6bb507ed-81ef-4820-85a8-c7226219068f","system_id":"levelo_inurba_marseille","lat":43.30266,"lon":5.37717,"is_reserved":false,"is_disabled":false,"rental_uris":{"android":"levelo://app?vid=6bb507ed-81ef-4820-85a8-c7226219068f","ios":"levelo://app?vid=6bb507ed-81ef-4820-85a8-c7226219068f"},"vehicle_type_id":"4","last_reported":1740910132,"current_range_meters":19600,"station_id":"ce4bguh2rcd13ifvqcj0","pricing_plan_id":"cebpf4jnsgd1na2vs0mg"},{"bike_id":"3b77ce11-c991-41c5-aaeb-e13aac4b5826","system_id":"levelo_inurba_marseille","lat":43.316993,"lon":5.404632,"is_reserved":false,"is_disabled":false,"rental_uris":{"android":"levelo://app?vid=3b77ce11-c991-41c5-aaeb-e13aac4b5826","ios":"levelo://app?vid=3b77ce11-c991-41c5-aaeb-e13aac4b5826"},"vehicle_type_id":"4","last_reported":1740910132,"current_range_meters":19600,"station_id":"ce4bh012rcd13ifvqd00","pricing_plan_id":"cebpf4jnsgd1na2vs0mg"},{"bike_id":"c21440d3-b860-4f51-a81b-c07bd6f1d312","system_id":"levelo_inurba_marseille","lat":43.29223,"lon":5.36079,"is_reserved":false,"is_disabled":false,"rental_uris":{"android":"levelo://app?vid=c21440d3-b860-4f51-a81b-c07bd6f1d312","ios":"levelo://app?vid=c21440d3-b860-4f51-a81b-c07bd6f1d312"},"vehicle_type_id":"4","last_reported":1740910132,"current_range_meters":19600,"station_id":"ce4bhbh2rcd13ifvqeqg","pricing_plan_id":"cebpf4jnsgd1na2vs0mg"},{"bike_id":"d71be277-aefe-4be4-9d30-eab4b05a10a9","system_id":"levelo_inurba_marseille","lat":43.23155,"lon":5.43713,"is_reserved":false,"is_disabled":false,"rental_uris":{"android":"levelo://app?vid=d71be277-aefe-4be4-9d30-eab4b05a10a9","ios":"levelo://app?vid=d71be277-aefe-4be4-9d30-eab4b05a10a9"},"vehicle_type_id":"4","last_reported":1740910132,"current_range_meters":19600,"station_id":"ce4bhmp2rcd13ifvqgog","pricing_plan_id":"cebpf4jnsgd1na2vs0mg"},{"bike_id":"63aa556d-b243-4dd5-adbf-87e6e4ac09ea","system_id":"levelo_inurba_marseille","lat":43.23155,"lon":5.43712,"is_reserved":false,"is_disabled":false,"rental_uris":{"android":"levelo://app?vid=63aa556d-b243-4dd5-adbf-87e6e4ac09ea","ios":"levelo://app?vid=63aa556d-b243-4dd5-adbf-87e6e4ac09ea"},"vehicle_type_id":"4","last_reported":1740910132,"current_range_meters":19600,"station_id":"ce4bhmp2rcd13ifvqgog","pricing_plan_id":"cebpf4jnsgd1na2vs0mg"},{"bike_id":"ee64b076-db53-4a07-8a61-f790fb3d7f18","system_id":"levelo_inurba_marseille","lat":43.29598,"lon":5.37335,"is_reserved":false,"is_disabled":false,"rental_uris":{"android":"levelo://app?vid=ee64b076-db53-4a07-8a61-f790fb3d7f18","ios":"levelo://app?vid=ee64b076-db53-4a07-8a61-f790fb3d7f18"},"vehicle_type_id":"4","last_reported":1740910132,"current_range_meters":20000,"station_id":"","pricing_plan_id":"cebpf4jnsgd1na2vs0mg"},{"bike_id":"360cb8fb-ae2d-4942-a777-0b20fe1843ea","system_id":"levelo_inurba_marseille","lat":43.26564,"lon":5.37279,"is_reserved":false,"is_disabled":false,"rental_uris":{"android":"levelo://app?vid=360cb8fb-ae2d-4942-a777-0b20fe1843ea","ios":"levelo://app?vid=360cb8fb-ae2d-4942-a777-0b20fe1843ea"},"vehicle_type_id":"4","last_reported":1740910132,"current_range_meters":20000,"station_id":"ce4bhg12rcd13ifvqf70","pricing_plan_id":"cebpf4jnsgd1na2vs0mg"},{"bike_id":"0426b467-687f-4f85-94ac-c3a52f78d7ff","system_id":"levelo_inurba_marseille","lat":43.26688,"lon":5.38263,"is_reserved":false,"is_disabled":false,"rental_uris":{"android":"levelo://app?vid=0426b467-687f-4f85-94ac-c3a52f78d7ff","ios":"levelo://app?vid=0426b467-687f-4f85-94ac-c3a52f78d7ff"},"vehicle_type_id":"4","last_reported":1740910132,"current_range_meters":20000,"station_id":"ce4bhg92rcd13ifvqf90","pricing_plan_id":"cebpf4jnsgd1na2vs0mg"},{"bike_id":"4fb82f53-d921-4e34-9bfd-63bd8822c151","system_id":"levelo_inurba_marseille","lat":43.30307,"lon":5.37699,"is_reserved":false,"is_disabled":false,"rental_uris":{"android":"levelo://app?vid=4fb82f53-d921-4e34-9bfd-63bd8822c151","ios":"levelo://app?vid=4fb82f53-d921-4e34-9bfd-63bd8822c151"},"vehicle_type_id":"4","last_reported":1740910132,"current_range_meters":20400,"station_id":"ce4bguh2rcd13ifvqcj0","pricing_plan_id":"cebpf4jnsgd1na2vs0mg"},{"bike_id":"738c4f3a-94ab-40d0-9aa5-c9d342a48ebd","system_id":"levelo_inurba_marseille","lat":43.30773,"lon":5.37654,"is_reserved":false,"is_disabled":false,"rental_uris":{"android":"levelo://app?vid=738c4f3a-94ab-40d0-9aa5-c9d342a48ebd","ios":"levelo://app?vid=738c4f3a-94ab-40d0-9aa5-c9d342a48ebd"},"vehicle_type_id":"4","last_reported":1740910132,"current_range_meters":20400,"station_id":"ce4bgv92rcd13ifvqcq0","pricing_plan_id":"cebpf4jnsgd1na2vs0mg"},{"bike_id":"8a247025-ec00-48d3-824a-482c59b16425","system_id":"levelo_inurba_marseille","lat":43.310662,"lon":5.383601,"is_reserved":false,"is_disabled":false,"rental_uris":{"android":"levelo://app?vid=8a247025-ec00-48d3-824a-482c59b16425","ios":"levelo://app?vid=8a247025-ec00-48d3-824a-482c59b16425"},"vehicle_type_id":"4","last_reported":1740910132,"current_range_meters":20400,"station_id":"ce4bgv92rcd13ifvqcr0","pricing_plan_id":"cebpf4jnsgd1na2vs0mg"},{"bike_id":"f259daad-c89f-444d-aefc-c4cdbeff563d","system_id":"levelo_inurba_marseille","lat":43.30633,"lon":5.40066,"is_reserved":false,"is_disabled":false,"rental_uris":{"android":"levelo://app?vid=f259daad-c89f-444d-aefc-c4cdbeff563d","ios":"levelo://app?vid=f259daad-c89f-444d-aefc-c4cdbeff563d"},"vehicle_type_id":"4","last_reported":1740910132,"current_range_meters":20400,"station_id":"ce4bh112rcd13ifvqda0","pricing_plan_id":"cebpf4jnsgd1na2vs0mg"},{"bike_id":"fd351392-8b14-4c01-8023-5ff7d23da5cf","system_id":"levelo_inurba_marseille","lat":43.26565,"lon":5.37278,"is_reserved":false,"is_disabled":false,"rental_uris":{"android":"levelo://app?vid=fd351392-8b14-4c01-8023-5ff7d23da5cf","ios":"levelo://app?vid=fd351392-8b14-4c01-8023-5ff7d23da5cf"},"vehicle_type_id":"4","last_reported":1740910132,"current_range_meters":20400,"station_id":"ce4bhg12rcd13ifvqf70","pricing_plan_id":"cebpf4jnsgd1na2vs0mg"},{"bike_id":"c3f0bf3a-a9ea-43e6-a61c-d09f70523538","system_id":"levelo_inurba_marseille","lat":43.25588,"lon":5.38253,"is_reserved":false,"is_disabled":false,"rental_uris":{"android":"levelo://app?vid=c3f0bf3a-a9ea-43e6-a61c-d09f70523538","ios":"levelo://app?vid=c3f0bf3a-a9ea-43e6-a61c-d09f70523538"},"vehicle_type_id":"4","last_reported":1740910132,"current_range_meters":20400,"station_id":"ce4bhih2rcd13ifvqfs0","pricing_plan_id":"cebpf4jnsgd1na2vs0mg"},{"bike_id":"123d5adf-8e93-46cc-93b8-80cd2a012f7c","system_id":"levelo_inurba_marseille","lat":43.27067,"lon":5.42264,"is_reserved":false,"is_disabled":false,"rental_uris":{"android":"levelo://app?vid=123d5adf-8e93-46cc-93b8-80cd2a012f7c","ios":"levelo://app?vid=123d5adf-8e93-46cc-93b8-80cd2a012f7c"},"vehicle_type_id":"4","last_reported":1740910132,"current_range_meters":20400,"station_id":"ce4bhk92rcd13ifvqgb0","pricing_plan_id":"cebpf4jnsgd1na2vs0mg"},{"bike_id":"81389cd8-51fb-45ff-ad9c-7bca8b462d46","system_id":"levelo_inurba_marseille","lat":43.25937,"lon":5.40925,"is_reserved":false,"is_disabled":false,"rental_uris":{"android":"levelo://app?vid=81389cd8-51fb-45ff-ad9c-7bca8b462d46","ios":"levelo://app?vid=81389cd8-51fb-45ff-ad9c-7bca8b462d46"},"vehicle_type_id":"4","last_reported":1740910132,"current_range_meters":20400,"station_id":"ce4bhm92rcd13ifvqglg","pricing_plan_id":"cebpf4jnsgd1na2vs0mg"},{"bike_id":"78161bf6-54be-4660-9185-dd97c4ac7322","system_id":"levelo_inurba_marseille","lat":43.262199,"lon":5.404574,"is_reserved":false,"is_disabled":false,"rental_uris":{"android":"levelo://app?vid=78161bf6-54be-4660-9185-dd97c4ac7322","ios":"levelo://app?vid=78161bf6-54be-4660-9185-dd97c4ac7322"},"vehicle_type_id":"4","last_reported":1740910132,"current_range_meters":20400,"station_id":"ce4bhmh2rcd13ifvqgmg","pricing_plan_id":"cebpf4jnsgd1na2vs0mg"},{"bike_id":"acb889fb-e5dc-4aa8-bad5-c0f68976bec1","system_id":"levelo_inurba_marseille","lat":43.31715,"lon":5.4371,"is_reserved":false,"is_disabled":false,"rental_uris":{"android":"levelo://app?vid=acb889fb-e5dc-4aa8-bad5-c0f68976bec1","ios":"levelo://app?vid=acb889fb-e5dc-4aa8-bad5-c0f68976bec1"},"vehicle_type_id":"4","last_reported":1740910132,"current_range_meters":20400,"station_id":"ce4bhp92rcd13ifvqhcg","pricing_plan_id":"cebpf4jnsgd1na2vs0mg"},{"bike_id":"c72ee2f8-2649-4216-adc9-36e4fe9e8575","system_id":"levelo_inurba_marseille","lat":43.22936,"lon":5.35378,"is_reserved":false,"is_disabled":false,"rental_uris":{"android":"levelo://app?vid=c72ee2f8-2649-4216-adc9-36e4fe9e8575","ios":"levelo://app?vid=c72ee2f8-2649-4216-adc9-36e4fe9e8575"},"vehicle_type_id":"4","last_reported":1740910132,"current_range_meters":20400,"station_id":"cpo3532slgdg3j2ikp40","pricing_plan_id":"cebpf4jnsgd1na2vs0mg"},{"bike_id":"4aed56b4-d47b-438d-8404-df892d1ec579","system_id":"levelo_inurba_marseille","lat":43.30137,"lon":5.3986,"is_reserved":false,"is_disabled":false,"rental_uris":{"android":"levelo://app?vid=4aed56b4-d47b-438d-8404-df892d1ec579","ios":"levelo://app?vid=4aed56b4-d47b-438d-8404-df892d1ec579"},"vehicle_type_id":"4","last_reported":1740910132,"current_range_meters":20800,"station_id":"ce4bh0h2rcd13ifvqd40","pricing_plan_id":"cebpf4jnsgd1na2vs0mg"},{"bike_id":"06bd6ce6-678e-4c96-952b-5f87ff27c497","system_id":"levelo_inurba_marseille","lat":43.28621,"lon":5.35114,"is_reserved":false,"is_disabled":false,"rental_uris":{"android":"levelo://app?vid=06bd6ce6-678e-4c96-952b-5f87ff27c497","ios":"levelo://app?vid=06bd6ce6-678e-4c96-952b-5f87ff27c497"},"vehicle_type_id":"4","last_reported":1740910132,"current_range_meters":20800,"station_id":"ce4bhch2rcd13ifvqeug","pricing_plan_id":"cebpf4jnsgd1na2vs0mg"},{"bike_id":"57339691-49d0-4fac-96cc-f850cd656fe5","system_id":"levelo_inurba_marseille","lat":43.24807,"lon":5.37455,"is_reserved":false,"is_disabled":false,"rental_uris":{"android":"levelo://app?vid=57339691-49d0-4fac-96cc-f850cd656fe5","ios":"levelo://app?vid=57339691-49d0-4fac-96cc-f850cd656fe5"},"vehicle_type_id":"4","last_reported":1740910132,"current_range_meters":20800,"station_id":"ce4bhgh2rcd13ifvqfb0","pricing_plan_id":"cebpf4jnsgd1na2vs0mg"},{"bike_id":"a7a964d3-27bb-46a2-b191-3201c788769e","system_id":"levelo_inurba_marseille","lat":43.26198,"lon":5.37449,"is_reserved":false,"is_disabled":false,"rental_uris":{"android":"levelo://app?vid=a7a964d3-27bb-46a2-b191-3201c788769e","ios":"levelo://app?vid=a7a964d3-27bb-46a2-b191-3201c788769e"},"vehicle_type_id":"4","last_reported":1740910132,"current_range_meters":20800,"station_id":"ce4bhgp2rcd13ifvqfc0","pricing_plan_id":"cebpf4jnsgd1na2vs0mg"},{"bike_id":"7512517d-ad22-427f-a405-1666b413d5cc","system_id":"levelo_inurba_marseille","lat":43.247512,"lon":5.411631,"is_reserved":false,"is_disabled":false,"rental_uris":{"android":"levelo://app?vid=7512517d-ad22-427f-a405-1666b413d5cc","ios":"levelo://app?vid=7512517d-ad22-427f-a405-1666b413d5cc"},"vehicle_type_id":"4","last_reported":1740910132,"current_range_meters":21600,"station_id":"","pricing_plan_id":"cebpf4jnsgd1na2vs0mg"},{"bike_id":"c23956a0-786e-4101-957b-b39c693f20a5","system_id":"levelo_inurba_marseille","lat":43.30884,"lon":5.39657,"is_reserved":false,"is_disabled":false,"rental_uris":{"android":"levelo://app?vid=c23956a0-786e-4101-957b-b39c693f20a5","ios":"levelo://app?vid=c23956a0-786e-4101-957b-b39c693f20a5"},"vehicle_type_id":"4","last_reported":1740910132,"current_range_meters":21600,"station_id":"ce4bh012rcd13ifvqcv0","pricing_plan_id":"cebpf4jnsgd1na2vs0mg"},{"bike_id":"3bc08441-4826-48b6-a7e2-7e3821e381df","system_id":"levelo_inurba_marseille","lat":43.28428,"lon":5.35016,"is_reserved":false,"is_disabled":false,"rental_uris":{"android":"levelo://app?vid=3bc08441-4826-48b6-a7e2-7e3821e381df","ios":"levelo://app?vid=3bc08441-4826-48b6-a7e2-7e3821e381df"},"vehicle_type_id":"4","last_reported":1740910132,"current_range_meters":21600,"station_id":"ce4bhbh2rcd13ifvqepg","pricing_plan_id":"cebpf4jnsgd1na2vs0mg"},{"bike_id":"8d79b535-61bd-48d6-9fb9-2b66f58f8b92","system_id":"levelo_inurba_marseille","lat":43.279114,"lon":5.395796,"is_reserved":false,"is_disabled":false,"rental_uris":{"android":"levelo://app?vid=8d79b535-61bd-48d6-9fb9-2b66f58f8b92","ios":"levelo://app?vid=8d79b535-61bd-48d6-9fb9-2b66f58f8b92"},"vehicle_type_id":"4","last_reported":1740910132,"current_range_meters":21600,"station_id":"ce4bhf92rcd13ifvqf40","pricing_plan_id":"cebpf4jnsgd1na2vs0mg"},{"bike_id":"de513b12-ff60-426d-ab16-62bb8af2ab82","system_id":"levelo_inurba_marseille","lat":43.265438,"lon":5.372854,"is_reserved":false,"is_disabled":false,"rental_uris":{"android":"levelo://app?vid=de513b12-ff60-426d-ab16-62bb8af2ab82","ios":"levelo://app?vid=de513b12-ff60-426d-ab16-62bb8af2ab82"},"vehicle_type_id":"4","last_reported":1740910132,"current_range_meters":21600,"station_id":"ce4bhg12rcd13ifvqf70","pricing_plan_id":"cebpf4jnsgd1na2vs0mg"},{"bike_id":"e1b36eeb-c151-4853-8481-576973144b6d","system_id":"levelo_inurba_marseille","lat":43.26203,"lon":5.37927,"is_reserved":false,"is_disabled":false,"rental_uris":{"android":"levelo://app?vid=e1b36eeb-c151-4853-8481-576973144b6d","ios":"levelo://app?vid=e1b36eeb-c151-4853-8481-576973144b6d"},"vehicle_type_id":"4","last_reported":1740910132,"current_range_meters":21600,"station_id":"ce4bhjp2rcd13ifvqg90","pricing_plan_id":"cebpf4jnsgd1na2vs0mg"},{"bike_id":"2b83e759-deef-400e-97a4-f10fe5ca1ef6","system_id":"levelo_inurba_marseille","lat":43.27492,"lon":5.42465,"is_reserved":false,"is_disabled":false,"rental_uris":{"android":"levelo://app?vid=2b83e759-deef-400e-97a4-f10fe5ca1ef6","ios":"levelo://app?vid=2b83e759-deef-400e-97a4-f10fe5ca1ef6"},"vehicle_type_id":"4","last_reported":1740910132,"current_range_meters":21600,"station_id":"ce4bhn92rcd13ifvqgrg","pricing_plan_id":"cebpf4jnsgd1na2vs0mg"},{"bike_id":"0b1d16a8-c879-4989-bfe7-7eb35a59ec23","system_id":"levelo_inurba_marseille","lat":43.25179,"lon":5.37825,"is_reserved":false,"is_disabled":false,"rental_uris":{"android":"levelo://app?vid=0b1d16a8-c879-4989-bfe7-7eb35a59ec23","ios":"levelo://app?vid=0b1d16a8-c879-4989-bfe7-7eb35a59ec23"},"vehicle_type_id":"4","last_reported":1740910132,"current_range_meters":22000,"station_id":"","pricing_plan_id":"cebpf4jnsgd1na2vs0mg"},{"bike_id":"e393036a-bb36-4687-ba9a-ef85163fb1b6","system_id":"levelo_inurba_marseille","lat":43.32012,"lon":5.38279,"is_reserved":false,"is_disabled":false,"rental_uris":{"android":"levelo://app?vid=e393036a-bb36-4687-ba9a-ef85163fb1b6","ios":"levelo://app?vid=e393036a-bb36-4687-ba9a-ef85163fb1b6"},"vehicle_type_id":"4","last_reported":1740910132,"current_range_meters":22000,"station_id":"","pricing_plan_id":"cebpf4jnsgd1na2vs0mg"},{"bike_id":"4f31b6bd-5f1f-476a-8200-0addafeb3713","system_id":"levelo_inurba_marseille","lat":43.30265,"lon":5.40114,"is_reserved":false,"is_disabled":false,"rental_uris":{"android":"levelo://app?vid=4f31b6bd-5f1f-476a-8200-0addafeb3713","ios":"levelo://app?vid=4f31b6bd-5f1f-476a-8200-0addafeb3713"},"vehicle_type_id":"4","last_reported":1740910132,"current_range_meters":22000,"station_id":"ce4bgvh2rcd13ifvqcs0","pricing_plan_id":"cebpf4jnsgd1na2vs0mg"},{"bike_id":"d3b1bddd-40d5-40f9-8afc-28a9fd27f9e0","system_id":"levelo_inurba_marseille","lat":43.2871,"lon":5.374,"is_reserved":false,"is_disabled":false,"rental_uris":{"android":"levelo://app?vid=d3b1bddd-40d5-40f9-8afc-28a9fd27f9e0","ios":"levelo://app?vid=d3b1bddd-40d5-40f9-8afc-28a9fd27f9e0"},"vehicle_type_id":"4","last_reported":1740910132,"current_range_meters":22000,"station_id":"ce4bh3p2rcd13ifvqdq0","pricing_plan_id":"cebpf4jnsgd1na2vs0mg"},{"bike_id":"29a58a4e-73c4-409d-b67c-1cefdd63fdbc","system_id":"levelo_inurba_marseille","lat":43.28473,"lon":5.37502,"is_reserved":false,"is_disabled":false,"rental_uris":{"android":"levelo://app?vid=29a58a4e-73c4-409d-b67c-1cefdd63fdbc","ios":"levelo://app?vid=29a58a4e-73c4-409d-b67c-1cefdd63fdbc"},"vehicle_type_id":"4","last_reported":1740910132,"current_range_meters":22000,"station_id":"ce4bhc92rcd13ifvqetg","pricing_plan_id":"cebpf4jnsgd1na2vs0mg"},{"bike_id":"f2ab4cfc-d619-483d-9a32-71f8a1cc6cc7","system_id":"levelo_inurba_marseille","lat":43.26553,"lon":5.37293,"is_reserved":false,"is_disabled":false,"rental_uris":{"android":"levelo://app?vid=f2ab4cfc-d619-483d-9a32-71f8a1cc6cc7","ios":"levelo://app?vid=f2ab4cfc-d619-483d-9a32-71f8a1cc6cc7"},"vehicle_type_id":"4","last_reported":1740910132,"current_range_meters":22000,"station_id":"ce4bhg12rcd13ifvqf70","pricing_plan_id":"cebpf4jnsgd1na2vs0mg"},{"bike_id":"32d1e315-966d-45b8-926a-6d27604a3504","system_id":"levelo_inurba_marseille","lat":43.24177,"lon":5.39741,"is_reserved":false,"is_disabled":false,"rental_uris":{"android":"levelo://app?vid=32d1e315-966d-45b8-926a-6d27604a3504","ios":"levelo://app?vid=32d1e315-966d-45b8-926a-6d27604a3504"},"vehicle_type_id":"4","last_reported":1740910132,"current_range_meters":22000,"station_id":"ce4bhn12rcd13ifvqgpg","pricing_plan_id":"cebpf4jnsgd1na2vs0mg"},{"bike_id":"05f79b85-f3d0-43dc-8446-f0e096c99a76","system_id":"levelo_inurba_marseille","lat":43.29374,"lon":5.42854,"is_reserved":false,"is_disabled":false,"rental_uris":{"android":"levelo://app?vid=05f79b85-f3d0-43dc-8446-f0e096c99a76","ios":"levelo://app?vid=05f79b85-f3d0-43dc-8446-f0e096c99a76"},"vehicle_type_id":"4","last_reported":1740910132,"current_range_meters":22400,"station_id":"","pricing_plan_id":"cebpf4jnsgd1na2vs0mg"},{"bike_id":"2e17766b-1aa2-4571-be1d-e669536817c7","system_id":"levelo_inurba_marseille","lat":43.30452,"lon":5.37902,"is_reserved":false,"is_disabled":false,"rental_uris":{"android":"levelo://app?vid=2e17766b-1aa2-4571-be1d-e669536817c7","ios":"levelo://app?vid=2e17766b-1aa2-4571-be1d-e669536817c7"},"vehicle_type_id":"4","last_reported":1740910132,"current_range_meters":22400,"station_id":"ce4bgup2rcd13ifvqcn0","pricing_plan_id":"cebpf4jnsgd1na2vs0mg"},{"bike_id":"57ba40c7-6cf7-4602-8435-62a24a36f5ce","system_id":"levelo_inurba_marseille","lat":43.291985,"lon":5.357971,"is_reserved":false,"is_disabled":false,"rental_uris":{"android":"levelo://app?vid=57ba40c7-6cf7-4602-8435-62a24a36f5ce","ios":"levelo://app?vid=57ba40c7-6cf7-4602-8435-62a24a36f5ce"},"vehicle_type_id":"4","last_reported":1740910132,"current_range_meters":22400,"station_id":"ce4bhb12rcd13ifvqel0","pricing_plan_id":"cebpf4jnsgd1na2vs0mg"},{"bike_id":"161864b1-e8cd-4950-9d8d-b44b98d52ab4","system_id":"levelo_inurba_marseille","lat":43.24388,"lon":5.37067,"is_reserved":false,"is_disabled":false,"rental_uris":{"android":"levelo://app?vid=161864b1-e8cd-4950-9d8d-b44b98d52ab4","ios":"levelo://app?vid=161864b1-e8cd-4950-9d8d-b44b98d52ab4"},"vehicle_type_id":"4","last_reported":1740910132,"current_range_meters":22400,"station_id":"ce4bhhh2rcd13ifvqfk0","pricing_plan_id":"cebpf4jnsgd1na2vs0mg"},{"bike_id":"a00416df-0816-45d0-8e3a-08d0a7e69fe2","system_id":"levelo_inurba_marseille","lat":43.23073,"lon":5.35517,"is_reserved":false,"is_disabled":false,"rental_uris":{"android":"levelo://app?vid=a00416df-0816-45d0-8e3a-08d0a7e69fe2","ios":"levelo://app?vid=a00416df-0816-45d0-8e3a-08d0a7e69fe2"},"vehicle_type_id":"4","last_reported":1740910132,"current_range_meters":22400,"station_id":"cpo3342slgdg3j2ifvpg","pricing_plan_id":"cebpf4jnsgd1na2vs0mg"},{"bike_id":"4300cf9b-3f21-4db1-957e-9b9d93ea7ac9","system_id":"levelo_inurba_marseille","lat":43.310741,"lon":5.381386,"is_reserved":false,"is_disabled":false,"rental_uris":{"android":"levelo://app?vid=4300cf9b-3f21-4db1-957e-9b9d93ea7ac9","ios":"levelo://app?vid=4300cf9b-3f21-4db1-957e-9b9d93ea7ac9"},"vehicle_type_id":"4","last_reported":1740910132,"current_range_meters":22800,"station_id":"","pricing_plan_id":"cebpf4jnsgd1na2vs0mg"},{"bike_id":"0d9d074e-1e44-4574-a40b-f3f694e01fd5","system_id":"levelo_inurba_marseille","lat":43.29515,"lon":5.37512,"is_reserved":false,"is_disabled":false,"rental_uris":{"android":"levelo://app?vid=0d9d074e-1e44-4574-a40b-f3f694e01fd5","ios":"levelo://app?vid=0d9d074e-1e44-4574-a40b-f3f694e01fd5"},"vehicle_type_id":"4","last_reported":1740910132,"current_range_meters":22800,"station_id":"ce4bgkp2rcd13ifvqbmg","pricing_plan_id":"cebpf4jnsgd1na2vs0mg"},{"bike_id":"00290b84-bfde-48b6-b407-a7b1212027dc","system_id":"levelo_inurba_marseille","lat":43.29309,"lon":5.40899,"is_reserved":false,"is_disabled":false,"rental_uris":{"android":"levelo://app?vid=00290b84-bfde-48b6-b407-a7b1212027dc","ios":"levelo://app?vid=00290b84-bfde-48b6-b407-a7b1212027dc"},"vehicle_type_id":"4","last_reported":1740910132,"current_range_meters":22800,"station_id":"ce4bh192rcd13ifvqdc0","pricing_plan_id":"cebpf4jnsgd1na2vs0mg"},{"bike_id":"218a285a-d1fb-4561-b690-9696c252ad36","system_id":"levelo_inurba_marseille","lat":43.27369,"lon":5.36251,"is_reserved":false,"is_disabled":false,"rental_uris":{"android":"levelo://app?vid=218a285a-d1fb-4561-b690-9696c252ad36","ios":"levelo://app?vid=218a285a-d1fb-4561-b690-9696c252ad36"},"vehicle_type_id":"4","last_reported":1740910132,"current_range_meters":22800,"station_id":"ce4bhbh2rcd13ifvqeo0","pricing_plan_id":"cebpf4jnsgd1na2vs0mg"},{"bike_id":"5ad54a13-89bc-4c57-950f-1a234e6a9e5c","system_id":"levelo_inurba_marseille","lat":43.279153,"lon":5.395821,"is_reserved":false,"is_disabled":false,"rental_uris":{"android":"levelo://app?vid=5ad54a13-89bc-4c57-950f-1a234e6a9e5c","ios":"levelo://app?vid=5ad54a13-89bc-4c57-950f-1a234e6a9e5c"},"vehicle_type_id":"4","last_reported":1740910132,"current_range_meters":22800,"station_id":"ce4bhf92rcd13ifvqf40","pricing_plan_id":"cebpf4jnsgd1na2vs0mg"},{"bike_id":"f1b6d1fe-5388-433c-b442-0e75f35fa762","system_id":"levelo_inurba_marseille","lat":43.25582,"lon":5.38229,"is_reserved":false,"is_disabled":false,"rental_uris":{"android":"levelo://app?vid=f1b6d1fe-5388-433c-b442-0e75f35fa762","ios":"levelo://app?vid=f1b6d1fe-5388-433c-b442-0e75f35fa762"},"vehicle_type_id":"4","last_reported":1740910132,"current_range_meters":22800,"station_id":"ce4bhih2rcd13ifvqfs0","pricing_plan_id":"cebpf4jnsgd1na2vs0mg"},{"bike_id":"dac87b93-e3ed-458c-839f-439ca09be570","system_id":"levelo_inurba_marseille","lat":43.26203,"lon":5.37927,"is_reserved":false,"is_disabled":false,"rental_uris":{"android":"levelo://app?vid=dac87b93-e3ed-458c-839f-439ca09be570","ios":"levelo://app?vid=dac87b93-e3ed-458c-839f-439ca09be570"},"vehicle_type_id":"4","last_reported":1740910132,"current_range_meters":22800,"station_id":"ce4bhjp2rcd13ifvqg90","pricing_plan_id":"cebpf4jnsgd1na2vs0mg"},{"bike_id":"f04e9f64-fec8-4818-a25d-c29a5730cc2a","system_id":"levelo_inurba_marseille","lat":43.29552,"lon":5.42279,"is_reserved":false,"is_disabled":false,"rental_uris":{"android":"levelo://app?vid=f04e9f64-fec8-4818-a25d-c29a5730cc2a","ios":"levelo://app?vid=f04e9f64-fec8-4818-a25d-c29a5730cc2a"},"vehicle_type_id":"4","last_reported":1740910132,"current_range_meters":22800,"station_id":"ce4bhph2rcd13ifvqhdg","pricing_plan_id":"cebpf4jnsgd1na2vs0mg"},{"bike_id":"0a315cd6-09f5-45f0-9d3e-9cb9c43f828f","system_id":"levelo_inurba_marseille","lat":43.29519,"lon":5.37514,"is_reserved":false,"is_disabled":false,"rental_uris":{"android":"levelo://app?vid=0a315cd6-09f5-45f0-9d3e-9cb9c43f828f","ios":"levelo://app?vid=0a315cd6-09f5-45f0-9d3e-9cb9c43f828f"},"vehicle_type_id":"4","last_reported":1740910132,"current_range_meters":23200,"station_id":"ce4bgkp2rcd13ifvqbmg","pricing_plan_id":"cebpf4jnsgd1na2vs0mg"},{"bike_id":"7de37663-e449-48c9-ac79-a870fff4f712","system_id":"levelo_inurba_marseille","lat":43.30936,"lon":5.40143,"is_reserved":false,"is_disabled":false,"rental_uris":{"android":"levelo://app?vid=7de37663-e449-48c9-ac79-a870fff4f712","ios":"levelo://app?vid=7de37663-e449-48c9-ac79-a870fff4f712"},"vehicle_type_id":"4","last_reported":1740910132,"current_range_meters":23200,"station_id":"ce4bgvp2rcd13ifvqct0","pricing_plan_id":"cebpf4jnsgd1na2vs0mg"},{"bike_id":"a81377ab-f959-4183-b74d-05a1b8ee49d0","system_id":"levelo_inurba_marseille","lat":43.29095,"lon":5.35974,"is_reserved":false,"is_disabled":false,"rental_uris":{"android":"levelo://app?vid=a81377ab-f959-4183-b74d-05a1b8ee49d0","ios":"levelo://app?vid=a81377ab-f959-4183-b74d-05a1b8ee49d0"},"vehicle_type_id":"4","last_reported":1740910132,"current_range_meters":23200,"station_id":"ce4bha92rcd13ifvqeg0","pricing_plan_id":"cebpf4jnsgd1na2vs0mg"},{"bike_id":"bff98128-9c93-42f8-9f97-dafd3a25a319","system_id":"levelo_inurba_marseille","lat":43.29252,"lon":5.35786,"is_reserved":false,"is_disabled":false,"rental_uris":{"android":"levelo://app?vid=bff98128-9c93-42f8-9f97-dafd3a25a319","ios":"levelo://app?vid=bff98128-9c93-42f8-9f97-dafd3a25a319"},"vehicle_type_id":"4","last_reported":1740910132,"current_range_meters":23200,"station_id":"ce4bhb12rcd13ifvqel0","pricing_plan_id":"cebpf4jnsgd1na2vs0mg"},