{"last_updated":1752380939,"ttl":60,"version":"2.2","data":{"bikes":[{"bike_id":"90cce311-83d5-40a7-8868-e2102ee388ce","system_id":"levelo_inurba_marseille","lat":43.296303,"lon":5.405957,"is_reserved":false,"is_disabled":false,"rental_uris":{"android":"levelo://app?vid=90cce311-83d5-40a7-8868-e2102ee388ce","ios":"levelo://app?vid=90cce311-83d5-40a7-8868-e2102ee388ce"},"vehicle_type_id":"4","last_reported":1752380940,"current_range_meters":3600,"station_id":"ce4bh0h2rcd13ifvqd60","pricing_plan_id":"cebpf4jnsgd1na2vs0mg"},{"bike_id":"b25e716b-466d-4073-bda9-c1fa6de3ef16","system_id":"levelo_inurba_marseille","lat":43.29297,"lon":5.37452,"is_reserved":false,"is_disabled":true,"rental_uris":{"android":"levelo://app?vid=b25e716b-466d-4073-bda9-c1fa6de3ef16","ios":"levelo://app?vid=b25e716b-466d-4073-bda9-c1fa6de3ef16"},"vehicle_type_id":"4","last_reported":1752380940,"current_range_meters":4000,"station_id":"ce4bgi12rcd13ifvqb70","pricing_plan_id":"cebpf4jnsgd1na2vs0mg"},{"bike_id":"bbc4683c-1e55-4e3d-ace4-4f2a6419c9e3","system_id":"levelo_inurba_marseille","lat":43.296313,"lon":5.406042,"is_reserved":false,"is_disabled":false,"rental_uris":{"android":"levelo://app?vid=bbc4683c-1e55-4e3d-ace4-4f2a6419c9e3","ios":"levelo://app?vid=bbc4683c-1e55-4e3d-ace4-4f2a6419c9e3"},"vehicle_type_id":"4","last_reported":1752380940,"current_range_meters":4400,"station_id":"ce4bh0h2rcd13ifvqd60","pricing_plan_id":"cebpf4jnsgd1na2vs0mg"},{"bike_id":"63334818-ba3c-4352-93ff-a4f83ebf1001","system_id":"levelo_inurba_marseille","lat":43.306096,"lon":5.372258,"is_reserved":false,"is_disabled":false,"rental_uris":{"android":"levelo://app?vid=63334818-ba3c-4352-93ff-a4f83ebf1001","ios":"levelo://app?vid=63334818-ba3c-4352-93ff-a4f83ebf1001"},"vehicle_type_id":"4","last_reported":1752380940,"current_range_meters":4400,"station_id":"ce4bgqh2rcd13ifvqc4g","pricing_plan_id":"cebpf4jnsgd1na2vs0mg"},{"bike_id":"a8db3e6c-c341-4041-af12-676f5863b3b8","system_id":"levelo_inurba_marseille","lat":43.3151,"lon":5.37288,"is_reserved":false,"is_disabled":false,"rental_uris":{"android":"levelo://app?vid=a8db3e6c-c341-4041-af12-676f5863b3b8","ios":"levelo://app?vid=a8db3e6c-c341-4041-af12-676f5863b3b8"},"vehicle_type_id":"4","last_reported":1752380940,"current_range_meters":4400,"station_id":"ce4bgt12rcd13ifvqcd0","pricing_plan_id":"cebpf4jnsgd1na2vs0mg"},{"bike_id":"534ed68d-5ceb-43a8-968b-be30f01dfa74","system_id":"levelo_inurba_marseille","lat":43.28231,"lon":5.3907,"is_reserved":false,"is_disabled":false,"rental_uris":{"android":"levelo://app?vid=534ed68d-5ceb-43a8-968b-be30f01dfa74","ios":"levelo://app?vid=534ed68d-5ceb-43a8-968b-be30f01dfa74"},"vehicle_type_id":"4","last_reported":1752380940,"current_range_meters":4800,"station_id":"","pricing_plan_id":"cebpf4jnsgd1na2vs0mg"},{"bike_id":"cb9282c9-0a04-426f-af4a-9dc494a82650","system_id":"levelo_inurba_marseille","lat":43.225037,"lon":5.347922,"is_reserved":false,"is_disabled":false,"rental_uris":{"android":"levelo://app?vid=cb9282c9-0a04-426f-af4a-9dc494a82650","ios":"levelo://app?vid=cb9282c9-0a04-426f-af4a-9dc494a82650"},"vehicle_type_id":"4","last_reported":1752380940,"current_range_meters":4800,"station_id":"","pricing_plan_id":"cebpf4jnsgd1na2vs0mg"},{"bike_id":"bced4aa7-a628-4057-a6e6-27edc27c5e17","system_id":"levelo_inurba_marseille","lat":43.21225,"lon":5.35038,"is_reserved":false,"is_disabled":false,"rental_uris":{"android":"levelo://app?vid=bced4aa7-a628-4057-a6e6-27edc27c5e17","ios":"levelo://app?vid=bced4aa7-a628-4057-a6e6-27edc27c5e17"},"vehicle_type_id":"4","last_reported":1752380940,"current_range_meters":5600,"station_id":"","pricing_plan_id":"cebpf4jnsgd1na2vs0mg"},{"bike_id":"8822b429-f8c6-418b-9a42-03cdd9537272","system_id":"levelo_inurba_marseille","lat":43.3054,"lon":5.38427,"is_reserved":false,"is_disabled":false,"rental_uris":{"android":"levelo://app?vid=8822b429-f8c6-418b-9a42-03cdd9537272","ios":"levelo://app?vid=8822b429-f8c6-418b-9a42-03cdd9537272"},"vehicle_type_id":"4","last_reported":1752380940,"current_range_meters":5600,"station_id":"ce4bgg92rcd13ifvqb30","pricing_plan_id":"cebpf4jnsgd1na2vs0mg"},{"bike_id":"c0ed3a4e-0b08-4739-aee6-df5a174b758c","system_id":"levelo_inurba_marseille","lat":43.284394,"lon":5.391959,"is_reserved":false,"is_disabled":false,"rental_uris":{"android":"levelo://app?vid=c0ed3a4e-0b08-4739-aee6-df5a174b758c","ios":"levelo://app?vid=c0ed3a4e-0b08-4739-aee6-df5a174b758c"},"vehicle_type_id":"4","last_reported":1752380940,"current_range_meters":5600,"station_id":"ce4bhoh2rcd13ifvqh5g","pricing_plan_id":"cebpf4jnsgd1na2vs0mg"},{"bike_id":"91dcba50-afc0-4ae2-b1e7-808fb0af0c67","system_id":"levelo_inurba_marseille","lat":43.28833,"lon":5.35855,"is_reserved":false,"is_disabled":false,"rental_uris":{"android":"levelo://app?vid=91dcba50-afc0-4ae2-b1e7-808fb0af0c67","ios":"levelo://app?vid=91dcba50-afc0-4ae2-b1e7-808fb0af0c67"},"vehicle_type_id":"4","last_reported":1752380940,"current_range_meters":6000,"station_id":"ce4bhb12rcd13ifvqem0","pricing_plan_id":"cebpf4jnsgd1na2vs0mg"},{"bike_id":"9fb5e395-c04a-4b49-b97b-f32b0fb41986","system_id":"levelo_inurba_marseille","lat":43.28661,"lon":5.363585,"is_reserved":false,"is_disabled":false,"rental_uris":{"android":"levelo://app?vid=9fb5e395-c04a-4b49-b97b-f32b0fb41986","ios":"levelo://app?vid=9fb5e395-c04a-4b49-b97b-f32b0fb41986"},"vehicle_type_id":"4","last_reported":1752380940,"current_range_meters":6000,"station_id":"ce4bhah2rcd13ifvqej0","pricing_plan_id":"cebpf4jnsgd1na2vs0mg"},{"bike_id":"6f5e9084-558f-4d95-b458-678ee4399b06","system_id":"levelo_inurba_marseille","lat":43.25476,"lon":5.3767,"is_reserved":false,"is_disabled":true,"rental_uris":{"android":"levelo://app?vid=6f5e9084-558f-4d95-b458-678ee4399b06","ios":"levelo://app?vid=6f5e9084-558f-4d95-b458-678ee4399b06"},"vehicle_type_id":"4","last_reported":1752380940,"current_range_meters":6400,"station_id":"ce4bhh12rcd13ifvqff0","pricing_plan_id":"cebpf4jnsgd1na2vs0mg"},{"bike_id":"364d6732-b964-47a7-a6dd-02e6a89bc8e6","system_id":"levelo_inurba_marseille","lat":43.292758,"lon":5.401195,"is_reserved":false,"is_disabled":false,"rental_uris":{"android":"levelo://app?vid=364d6732-b964-47a7-a6dd-02e6a89bc8e6","ios":"levelo://app?vid=364d6732-b964-47a7-a6dd-02e6a89bc8e6"},"vehicle_type_id":"4","last_reported":1752380940,"current_range_meters":6400,"station_id":"ce4bh312rcd13ifvqdk0","pricing_plan_id":"cebpf4jnsgd1na2vs0mg"},{"bike_id":"9a721a67-800d-41fb-b2c2-3309f63164c3","system_id":"levelo_inurba_marseille","lat":43.2119,"lon":5.3507,"is_reserved":false,"is_disabled":false,"rental_uris":{"android":"levelo://app?vid=9a721a67-800d-41fb-b2c2-3309f63164c3","ios":"levelo://app?vid=9a721a67-800d-41fb-b2c2-3309f63164c3"},"vehicle_type_id":"4","last_reported":1752380940,"current_range_meters":6400,"station_id":"st_cvj6sg6p6f1abm77japg","pricing_plan_id":"cebpf4jnsgd1na2vs0mg"},{"bike_id":"e65e5099-bbe2-4ddf-8548-a155bb198ed2","system_id":"levelo_inurba_marseille","lat":43.30934,"lon":5.40162,"is_reserved":false,"is_disabled":false,"rental_uris":{"android":"levelo://app?vid=e65e5099-bbe2-4ddf-8548-a155bb198ed2","ios":"levelo://app?vid=e65e5099-bbe2-4ddf-8548-a155bb198ed2"},"vehicle_type_id":"4","last_reported":1752380940,"current_range_meters":6800,"station_id":"ce4bgvp2rcd13ifvqct0","pricing_plan_id":"cebpf4jnsgd1na2vs0mg"},{"bike_id":"4b5ab1a2-f7d9-4ce5-9716-f0adaa5b5ec0","system_id":"levelo_inurba_marseille","lat":43.2465,"lon":5.38891,"is_reserved":false,"is_disabled":false,"rental_uris":{"android":"levelo://app?vid=4b5ab1a2-f7d9-4ce5-9716-f0adaa5b5ec0","ios":"levelo://app?vid=4b5ab1a2-f7d9-4ce5-9716-f0adaa5b5ec0"},"vehicle_type_id":"4","last_reported":1752380940,"current_range_meters":6800,"station_id":"ce4bhg12rcd13ifvqf60","pricing_plan_id":"cebpf4jnsgd1na2vs0mg"},{"bike_id":"5a1aa169-e8de-4c42-8232-f9cf794c57f1","system_id":"levelo_inurba_marseille","lat":43.21187,"lon":5.35065,"is_reserved":false,"is_disabled":false,"rental_uris":{"android":"levelo://app?vid=5a1aa169-e8de-4c42-8232-f9cf794c57f1","ios":"levelo://app?vid=5a1aa169-e8de-4c42-8232-f9cf794c57f1"},"vehicle_type_id":"4","last_reported":1752380940,"current_range_meters":6800,"station_id":"st_cvj6sg6p6f1abm77japg","pricing_plan_id":"cebpf4jnsgd1na2vs0mg"},{"bike_id":"94940c9a-30d4-4e43-bec0-fc556b4da3ae","system_id":"levelo_inurba_marseille","lat":43.33601,"lon":5.4104,"is_reserved":false,"is_disabled":false,"rental_uris":{"android":"levelo://app?vid=94940c9a-30d4-4e43-bec0-fc556b4da3ae","ios":"levelo://app?vid=94940c9a-30d4-4e43-bec0-fc556b4da3ae"},"vehicle_type_id":"4","last_reported":1752380940,"current_range_meters":6800,"station_id":"ce4bhqh2rcd13ifvqhmg","pricing_plan_id":"cebpf4jnsgd1na2vs0mg"},{"bike_id":"06790081-2fbd-4616-be5e-229fa34e984b","system_id":"levelo_inurba_marseille","lat":43.33605,"lon":5.41026,"is_reserved":false,"is_disabled":false,"rental_uris":{"android":"levelo://app?vid=06790081-2fbd-4616-be5e-229fa34e984b","ios":"levelo://app?vid=06790081-2fbd-4616-be5e-229fa34e984b"},"vehicle_type_id":"4","last_reported":1752380940,"current_range_meters":6800,"station_id":"ce4bhqh2rcd13ifvqhmg","pricing_plan_id":"cebpf4jnsgd1na2vs0mg"},{"bike_id":"356bddec-54b0-4a79-b09a-1968d52c8a41","system_id":"levelo_inurba_marseille","lat":43.30247,"lon":5.40092,"is_reserved":false,"is_disabled":false,"rental_uris":{"android":"levelo://app?vid=356bddec-54b0-4a79-b09a-1968d52c8a41","ios":"levelo://app?vid=356bddec-54b0-4a79-b09a-1968d52c8a41"},"vehicle_type_id":"4","last_reported":1752380940,"current_range_meters":6800,"station_id":"ce4bgvh2rcd13ifvqcs0","pricing_plan_id":"cebpf4jnsgd1na2vs0mg"},{"bike_id":"44f0f9aa-b98e-4e25-8993-00ca18285603","system_id":"levelo_inurba_marseille","lat":43.290423,"lon":5.399602,"is_reserved":false,"is_disabled":false,"rental_uris":{"android":"levelo://app?vid=44f0f9aa-b98e-4e25-8993-00ca18285603","ios":"levelo://app?vid=44f0f9aa-b98e-4e25-8993-00ca18285603"},"vehicle_type_id":"4","last_reported":1752380940,"current_range_meters":7200,"station_id":"ce4bh392rcd13ifvqdm0","pricing_plan_id":"cebpf4jnsgd1na2vs0mg"},{"bike_id":"0f1287f9-390e-4629-ab8e-ad2d35ff61ae","system_id":"levelo_inurba_marseille","lat":43.255785,"lon":5.382481,"is_reserved":false,"is_disabled":true,"rental_uris":{"android":"levelo://app?vid=0f1287f9-390e-4629-ab8e-ad2d35ff61ae","ios":"levelo://app?vid=0f1287f9-390e-4629-ab8e-ad2d35ff61ae"},"vehicle_type_id":"4","last_reported":1752380940,"current_range_meters":7200,"station_id":"ce4bhih2rcd13ifvqfs0","pricing_plan_id":"cebpf4jnsgd1na2vs0mg"},{"bike_id":"15119183-5d1d-4395-aefb-b94d1c4e8e2a","system_id":"levelo_inurba_marseille","lat":43.30086,"lon":5.39076,"is_reserved":false,"is_disabled":false,"rental_uris":{"android":"levelo://app?vid=15119183-5d1d-4395-aefb-b94d1c4e8e2a","ios":"levelo://app?vid=15119183-5d1d-4395-aefb-b94d1c4e8e2a"},"vehicle_type_id":"4","last_reported":1752380940,"current_range_meters":7200,"station_id":"ce4bh192rcd13ifvqdb0","pricing_plan_id":"cebpf4jnsgd1na2vs0mg"},{"bike_id":"2f0ba75c-aff3-43f4-857b-fc7c66f4e426","system_id":"levelo_inurba_marseille","lat":43.30975,"lon":5.39025,"is_reserved":false,"is_disabled":true,"rental_uris":{"android":"levelo://app?vid=2f0ba75c-aff3-43f4-857b-fc7c66f4e426","ios":"levelo://app?vid=2f0ba75c-aff3-43f4-857b-fc7c66f4e426"},"vehicle_type_id":"4","last_reported":1752380940,"current_range_meters":7200,"station_id":"ce4bgup2rcd13ifvqco0","pricing_plan_id":"cebpf4jnsgd1na2vs0mg"},{"bike_id":"e3a75ee9-c614-467b-8cc2-f813bcef2ab1","system_id":"levelo_inurba_marseille","lat":43.33743,"lon":5.3919,"is_reserved":false,"is_disabled":true,"rental_uris":{"android":"levelo://app?vid=e3a75ee9-c614-467b-8cc2-f813bcef2ab1","ios":"levelo://app?vid=e3a75ee9-c614-467b-8cc2-f813bcef2ab1"},"vehicle_type_id":"4","last_reported":1752380940,"current_range_meters":7200,"station_id":"ce4bhr92rcd13ifvqhsg","pricing_plan_id":"cebpf4jnsgd1na2vs0mg"},{"bike_id":"05f24eb2-daa3-4f0e-944e-3b9343d3d36a","system_id":"levelo_inurba_marseille","lat":43.295601,"lon":5.422847,"is_reserved":false,"is_disabled":false,"rental_uris":{"android":"levelo://app?vid=05f24eb2-daa3-4f0e-944e-3b9343d3d36a","ios":"levelo://app?vid=05f24eb2-daa3-4f0e-944e-3b9343d3d36a"},"vehicle_type_id":"4","last_reported":1752380940,"current_range_meters":8000,"station_id":"ce4bhph2rcd13ifvqhdg","pricing_plan_id":"cebpf4jnsgd1na2vs0mg"},{"bike_id":"1ad0ec37-bc97-4796-be7a-8d866e6e8462","system_id":"levelo_inurba_marseille","lat":43.31119,"lon":5.37783,"is_reserved":false,"is_disabled":false,"rental_uris":{"android":"levelo://app?vid=1ad0ec37-bc97-4796-be7a-8d866e6e8462","ios":"levelo://app?vid=1ad0ec37-bc97-4796-be7a-8d866e6e8462"},"vehicle_type_id":"4","last_reported":1752380940,"current_range_meters":8000,"station_id":"ce4bgt92rcd13ifvqcg0","pricing_plan_id":"cebpf4jnsgd1na2vs0mg"},{"bike_id":"5b147f49-2e39-4ac2-b9dd-9e0a27e583f7","system_id":"levelo_inurba_marseille","lat":43.28958,"lon":5.36751,"is_reserved":false,"is_disabled":false,"rental_uris":{"android":"levelo://app?vid=5b147f49-2e39-4ac2-b9dd-9e0a27e583f7","ios":"levelo://app?vid=5b147f49-2e39-4ac2-b9dd-9e0a27e583f7"},"vehicle_type_id":"4","last_reported":1752380940,"current_range_meters":8000,"station_id":"","pricing_plan_id":"cebpf4jnsgd1na2vs0mg"},{"bike_id":"097106d7-0dc8-4152-8540-cae0e1de8dea","system_id":"levelo_inurba_marseille","lat":43.21203,"lon":5.35055,"is_reserved":false,"is_disabled":false,"rental_uris":{"android":"levelo://app?vid=097106d7-0dc8-4152-8540-cae0e1de8dea","ios":"levelo://app?vid=097106d7-0dc8-4152-8540-cae0e1de8dea"},"vehicle_type_id":"4","last_reported":1752380940,"current_range_meters":8400,"station_id":"st_cvj6sg6p6f1abm77japg","pricing_plan_id":"cebpf4jnsgd1na2vs0mg"},{"bike_id":"d02812eb-8b07-4b27-8806-bc5e0e25b06e","system_id":"levelo_inurba_marseille","lat":43.29921,"lon":5.37458,"is_reserved":false,"is_disabled":false,"rental_uris":{"android":"levelo://app?vid=d02812eb-8b07-4b27-8806-bc5e0e25b06e","ios":"levelo://app?vid=d02812eb-8b07-4b27-8806-bc5e0e25b06e"},"vehicle_type_id":"4","last_reported":1752380940,"current_range_meters":8400,"station_id":"ce4bgjh2rcd13ifvqbg0","pricing_plan_id":"cebpf4jnsgd1na2vs0mg"},{"bike_id":"fa701000-ba9f-4668-9c1f-c7e6cf72af51","system_id":"levelo_inurba_marseille","lat":43.30253,"lon":5.40065,"is_reserved":false,"is_disabled":false,"rental_uris":{"android":"levelo://app?vid=fa701000-ba9f-4668-9c1f-c7e6cf72af51","ios":"levelo://app?vid=fa701000-ba9f-4668-9c1f-c7e6cf72af51"},"vehicle_type_id":"4","last_reported":1752380940,"current_range_meters":8400,"station_id":"ce4bgvh2rcd13ifvqcs0","pricing_plan_id":"cebpf4jnsgd1na2vs0mg"},{"bike_id":"03251f63-26eb-493f-9d65-8e11851ca687","system_id":"levelo_inurba_marseille","lat":43.288585,"lon":5.393362,"is_reserved":false,"is_disabled":true,"rental_uris":{"android":"levelo://app?vid=03251f63-26eb-493f-9d65-8e11851ca687","ios":"levelo://app?vid=03251f63-26eb-493f-9d65-8e11851ca687"},"vehicle_type_id":"4","last_reported":1752380940,"current_range_meters":8400,"station_id":"ce4bh2p2rcd13ifvqdi0","pricing_plan_id":"cebpf4jnsgd1na2vs0mg"},{"bike_id":"df61839a-7a72-4634-9960-e8ea0d9a8d35","system_id":"levelo_inurba_marseille","lat":43.239474,"lon":5.366089,"is_reserved":false,"is_disabled":true,"rental_uris":{"android":"levelo://app?vid=df61839a-7a72-4634-9960-e8ea0d9a8d35","ios":"levelo://app?vid=df61839a-7a72-4634-9960-e8ea0d9a8d35"},"vehicle_type_id":"4","last_reported":1752380940,"current_range_meters":8400,"station_id":"","pricing_plan_id":"cebpf4jnsgd1na2vs0mg"},{"bike_id":"75bb1dd6-50a7-47a9-9e4b-6b29bd46237a","system_id":"levelo_inurba_marseille","lat":43.21195,"lon":5.35058,"is_reserved":false,"is_disabled":false,"rental_uris":{"android":"levelo://app?vid=75bb1dd6-50a7-47a9-9e4b-6b29bd46237a","ios":"levelo://app?vid=75bb1dd6-50a7-47a9-9e4b-6b29bd46237a"},"vehicle_type_id":"4","last_reported":1752380940,"current_range_meters":8400,"station_id":"st_cvj6sg6p6f1abm77japg","pricing_plan_id":"cebpf4jnsgd1na2vs0mg"},{"bike_id":"496ce6f4-d1b4-41db-b4c6-6207e26250aa","system_id":"levelo_inurba_marseille","lat":43.28931,"lon":5.366295,"is_reserved":false,"is_disabled":false,"rental_uris":{"android":"levelo://app?vid=496ce6f4-d1b4-41db-b4c6-6207e26250aa","ios":"levelo://app?vid=496ce6f4-d1b4-41db-b4c6-6207e26250aa"},"vehicle_type_id":"4","last_reported":1752380940,"current_range_meters":8400,"station_id":"ce4bhap2rcd13ifvqek0","pricing_plan_id":"cebpf4jnsgd1na2vs0mg"},{"bike_id":"2d525522-e6dc-4040-9c4c-8e2e7a587583","system_id":"levelo_inurba_marseille","lat":43.291916,"lon":5.375182,"is_reserved":false,"is_disabled":false,"rental_uris":{"android":"levelo://app?vid=2d525522-e6dc-4040-9c4c-8e2e7a587583","ios":"levelo://app?vid=2d525522-e6dc-4040-9c4c-8e2e7a587583"},"vehicle_type_id":"4","last_reported":1752380940,"current_range_meters":8800,"station_id":"","pricing_plan_id":"cebpf4jnsgd1na2vs0mg"},{"bike_id":"3064d7db-7a51-4e85-bef4-6def601894cd","system_id":"levelo_inurba_marseille","lat":43.30947,"lon":5.39016,"is_reserved":false,"is_disabled":true,"rental_uris":{"android":"levelo://app?vid=3064d7db-7a51-4e85-bef4-6def601894cd","ios":"levelo://app?vid=3064d7db-7a51-4e85-bef4-6def601894cd"},"vehicle_type_id":"4","last_reported":1752380940,"current_range_meters":8800,"station_id":"ce4bgup2rcd13ifvqco0","pricing_plan_id":"cebpf4jnsgd1na2vs0mg"},{"bike_id":"59e69e59-aa8e-43f6-92b2-176ba8f7ead1","system_id":"levelo_inurba_marseille","lat":43.2998,"lon":5.37167,"is_reserved":false,"is_disabled":true,"rental_uris":{"android":"levelo://app?vid=59e69e59-aa8e-43f6-92b2-176ba8f7ead1","ios":"levelo://app?vid=59e69e59-aa8e-43f6-92b2-176ba8f7ead1"},"vehicle_type_id":"4","last_reported":1752380940,"current_range_meters":8800,"station_id":"ce4bgr92rcd13ifvqc7g","pricing_plan_id":"cebpf4jnsgd1na2vs0mg"},{"bike_id":"8929c1bf-fd4d-44e4-aa66-b3eb6538c998","system_id":"levelo_inurba_marseille","lat":43.28573,"lon":5.4297,"is_reserved":false,"is_disabled":false,"rental_uris":{"android":"levelo://app?vid=8929c1bf-fd4d-44e4-aa66-b3eb6538c998","ios":"levelo://app?vid=8929c1bf-fd4d-44e4-aa66-b3eb6538c998"},"vehicle_type_id":"4","last_reported":1752380940,"current_range_meters":8800,"station_id":"","pricing_plan_id":"cebpf4jnsgd1na2vs0mg"},{"bike_id":"989cadc1-b8d5-43b8-aca5-55b69edc9395","system_id":"levelo_inurba_marseille","lat":43.30733,"lon":5.42433,"is_reserved":false,"is_disabled":false,"rental_uris":{"android":"levelo://app?vid=989cadc1-b8d5-43b8-aca5-55b69edc9395","ios":"levelo://app?vid=989cadc1-b8d5-43b8-aca5-55b69edc9395"},"vehicle_type_id":"4","last_reported":1752380940,"current_range_meters":8800,"station_id":"st_cvj6ca6bvosntc0bfgr0","pricing_plan_id":"cebpf4jnsgd1na2vs0mg"},{"bike_id":"5a71ab42-51f6-4d74-8942-e5c8339f2255","system_id":"levelo_inurba_marseille","lat":43.317567,"lon":5.390211,"is_reserved":false,"is_disabled":true,"rental_uris":{"android":"levelo://app?vid=5a71ab42-51f6-4d74-8942-e5c8339f2255","ios":"levelo://app?vid=5a71ab42-51f6-4d74-8942-e5c8339f2255"},"vehicle_type_id":"4","last_reported":1752380940,"current_range_meters":8800,"station_id":"ce4bhqp2rcd13ifvqhng","pricing_plan_id":"cebpf4jnsgd1na2vs0mg"},{"bike_id":"92bcbebf-1cfa-456a-a550-a714745c49f4","system_id":"levelo_inurba_marseille","lat":43.30795,"lon":5.38147,"is_reserved":false,"is_disabled":false,"rental_uris":{"android":"levelo://app?vid=92bcbebf-1cfa-456a-a550-a714745c49f4","ios":"levelo://app?vid=92bcbebf-1cfa-456a-a550-a714745c49f4"},"vehicle_type_id":"4","last_reported":1752380940,"current_range_meters":8800,"station_id":"ce4bgt12rcd13ifvqce0","pricing_plan_id":"cebpf4jnsgd1na2vs0mg"},{"bike_id":"3bd4f9b6-68fe-4ead-875a-8ea9ae5e82fa","system_id":"levelo_inurba_marseille","lat":43.299775,"lon":5.371727,"is_reserved":false,"is_disabled":false,"rental_uris":{"android":"levelo://app?vid=3bd4f9b6-68fe-4ead-875a-8ea9ae5e82fa","ios":"levelo://app?vid=3bd4f9b6-68fe-4ead-875a-8ea9ae5e82fa"},"vehicle_type_id":"4","last_reported":1752380940,"current_range_meters":8800,"station_id":"ce4bgr92rcd13ifvqc7g","pricing_plan_id":"cebpf4jnsgd1na2vs0mg"},{"bike_id":"48812dfa-d731-463a-8ecc-dbae1e40e34d","system_id":"levelo_inurba_marseille","lat":43.30243,"lon":5.400223,"is_reserved":false,"is_disabled":false,"rental_uris":{"android":"levelo://app?vid=48812dfa-d731-463a-8ecc-dbae1e40e34d","ios":"levelo://app?vid=48812dfa-d731-463a-8ecc-dbae1e40e34d"},"vehicle_type_id":"4","last_reported":1752380940,"current_range_meters":9200,"station_id":"","pricing_plan_id":"cebpf4jnsgd1na2vs0mg"},{"bike_id":"21f51f77-8b78-488b-a42e-44d2a504cf11","system_id":"levelo_inurba_marseille","lat":43.24181,"lon":5.364012,"is_reserved":false,"is_disabled":true,"rental_uris":{"android":"levelo://app?vid=21f51f77-8b78-488b-a42e-44d2a504cf11","ios":"levelo://app?vid=21f51f77-8b78-488b-a42e-44d2a504cf11"},"vehicle_type_id":"4","last_reported":1752380940,"current_range_meters":9200,"station_id":"cpo36qri1sfpv3e86is0","pricing_plan_id":"cebpf4jnsgd1na2vs0mg"},{"bike_id":"61198919-e72c-4fce-bc96-126627987dc0","system_id":"levelo_inurba_marseille","lat":43.29582,"lon":5.37863,"is_reserved":false,"is_disabled":false,"rental_uris":{"android":"levelo://app?vid=61198919-e72c-4fce-bc96-126627987dc0","ios":"levelo://app?vid=61198919-e72c-4fce-bc96-126627987dc0"},"vehicle_type_id":"4","last_reported":1752380940,"current_range_meters":9200,"station_id":"","pricing_plan_id":"cebpf4jnsgd1na2vs0mg"},{"bike_id":"e6c47ddc-ff7d-409b-8151-4ebda8746898","system_id":"levelo_inurba_marseille","lat":43.299751,"lon":5.371699,"is_reserved":false,"is_disabled":false,"rental_uris":{"android":"levelo://app?vid=e6c47ddc-ff7d-409b-8151-4ebda8746898","ios":"levelo://app?vid=e6c47ddc-ff7d-409b-8151-4ebda8746898"},"vehicle_type_id":"4","last_reported":1752380940,"current_range_meters":9200,"station_id":"ce4bgr92rcd13ifvqc7g","pricing_plan_id":"cebpf4jnsgd1na2vs0mg"},{"bike_id":"46cacac0-84b7-4c70-a453-a1cb8250fb4d","system_id":"levelo_inurba_marseille","lat":43.337934,"lon":5.374322,"is_reserved":false,"is_disabled":false,"rental_uris":{"android":"levelo://app?vid=46cacac0-84b7-4c70-a453-a1cb8250fb4d","ios":"levelo://app?vid=46cacac0-84b7-4c70-a453-a1cb8250fb4d"},"vehicle_type_id":"4","last_reported":1752380940,"current_range_meters":9600,"station_id":"","pricing_plan_id":"cebpf4jnsgd1na2vs0mg"},{"bike_id":"f18db782-201e-4e02-9468-2a81d86bd33d","system_id":"levelo_inurba_marseille","lat":43.28416,"lon":5.37493,"is_reserved":false,"is_disabled":false,"rental_uris":{"android":"levelo://app?vid=f18db782-201e-4e02-9468-2a81d86bd33d","ios":"levelo://app?vid=f18db782-201e-4e02-9468-2a81d86bd33d"},"vehicle_type_id":"4","last_reported":1752380940,"current_range_meters":9600,"station_id":"ce4bh412rcd13ifvqds0","pricing_plan_id":"cebpf4jnsgd1na2vs0mg"},{"bike_id":"864d1381-1e4e-40e0-8778-4669071a0310","system_id":"levelo_inurba_marseille","lat":43.30319,"lon":5.40442,"is_reserved":false,"is_disabled":false,"rental_uris":{"android":"levelo://app?vid=864d1381-1e4e-40e0-8778-4669071a0310","ios":"levelo://app?vid=864d1381-1e4e-40e0-8778-4669071a0310"},"vehicle_type_id":"4","last_reported":1752380940,"current_range_meters":9600,"station_id":"ce4bh012rcd13ifvqd10","pricing_plan_id":"cebpf4jnsgd1na2vs0mg"},{"bike_id":"bcc4409f-2b97-4bdc-bc2d-0a92e9ef04ad","system_id":"levelo_inurba_marseille","lat":43.28349,"lon":5.38098,"is_reserved":false,"is_disabled":false,"rental_uris":{"android":"levelo://app?vid=bcc4409f-2b97-4bdc-bc2d-0a92e9ef04ad","ios":"levelo://app?vid=bcc4409f-2b97-4bdc-bc2d-0a92e9ef04ad"},"vehicle_type_id":"4","last_reported":1752380940,"current_range_meters":9600,"station_id":"ce4bh412rcd13ifvqdr0","pricing_plan_id":"cebpf4jnsgd1na2vs0mg"},{"bike_id":"dbba3321-20c7-4989-a7b5-ea9ab2c4b3e8","system_id":"levelo_inurba_marseille","lat":43.261935,"lon":5.374477,"is_reserved":false,"is_disabled":true,"rental_uris":{"android":"levelo://app?vid=dbba3321-20c7-4989-a7b5-ea9ab2c4b3e8","ios":"levelo://app?vid=dbba3321-20c7-4989-a7b5-ea9ab2c4b3e8"},"vehicle_type_id":"4","last_reported":1752380940,"current_range_meters":9600,"station_id":"ce4bhgp2rcd13ifvqfc0","pricing_plan_id":"cebpf4jnsgd1na2vs0mg"},{"bike_id":"c453155a-5220-48fc-922b-600ca54f8ab5","system_id":"levelo_inurba_marseille","lat":43.28646,"lon":5.36343,"is_reserved":false,"is_disabled":true,"rental_uris":{"android":"levelo://app?vid=c453155a-5220-48fc-922b-600ca54f8ab5","ios":"levelo://app?vid=c453155a-5220-48fc-922b-600ca54f8ab5"},"vehicle_type_id":"4","last_reported":1752380940,"current_range_meters":9600,"station_id":"ce4bhah2rcd13ifvqej0","pricing_plan_id":"cebpf4jnsgd1na2vs0mg"},{"bike_id":"6b0c0999-3e36-4535-b6b8-97c0d45b9d3f","system_id":"levelo_inurba_marseille","lat":43.31115,"lon":5.3777,"is_reserved":false,"is_disabled":false,"rental_uris":{"android":"levelo://app?vid=6b0c0999-3e36-4535-b6b8-97c0d45b9d3f","ios":"levelo://app?vid=6b0c0999-3e36-4535-b6b8-97c0d45b9d3f"},"vehicle_type_id":"4","last_reported":1752380940,"current_range_meters":9600,"station_id":"ce4bgt92rcd13ifvqcg0","pricing_plan_id":"cebpf4jnsgd1na2vs0mg"},{"bike_id":"733ab126-5929-4dc3-b27c-d62e8112c232","system_id":"levelo_inurba_marseille","lat":43.292748,"lon":5.401169,"is_reserved":false,"is_disabled":false,"rental_uris":{"android":"levelo://app?vid=733ab126-5929-4dc3-b27c-d62e8112c232","ios":"levelo://app?vid=733ab126-5929-4dc3-b27c-d62e8112c232"},"vehicle_type_id":"4","last_reported":1752380940,"current_range_meters":10000,"station_id":"ce4bh312rcd13ifvqdk0","pricing_plan_id":"cebpf4jnsgd1na2vs0mg"},{"bike_id":"2854adae-f0fd-4a42-8177-b7559cca565e","system_id":"levelo_inurba_marseille","lat":43.308865,"lon":5.371952,"is_reserved":false,"is_disabled":false,"rental_uris":{"android":"levelo://app?vid=2854adae-f0fd-4a42-8177-b7559cca565e","ios":"levelo://app?vid=2854adae-f0fd-4a42-8177-b7559cca565e"},"vehicle_type_id":"4","last_reported":1752380940,"current_range_meters":10000,"station_id":"ce4bguh2rcd13ifvqckg","pricing_plan_id":"cebpf4jnsgd1na2vs0mg"},{"bike_id":"d17410a9-9fad-4786-90da-b6ffe751ba28","system_id":"levelo_inurba_marseille","lat":43.287069,"lon":5.399807,"is_reserved":false,"is_disabled":false,"rental_uris":{"android":"levelo://app?vid=d17410a9-9fad-4786-90da-b6ffe751ba28","ios":"levelo://app?vid=d17410a9-9fad-4786-90da-b6ffe751ba28"},"vehicle_type_id":"4","last_reported":1752380940,"current_range_meters":10000,"station_id":"ce4bho92rcd13ifvqh3g","pricing_plan_id":"cebpf4jnsgd1na2vs0mg"},{"bike_id":"696aca5a-f985-42f2-b5f7-74ca3a442dcb","system_id":"levelo_inurba_marseille","lat":43.309626,"lon":5.37134,"is_reserved":false,"is_disabled":false,"rental_uris":{"android":"levelo://app?vid=696aca5a-f985-42f2-b5f7-74ca3a442dcb","ios":"levelo://app?vid=696aca5a-f985-42f2-b5f7-74ca3a442dcb"},"vehicle_type_id":"4","last_reported":1752380940,"current_range_meters":10000,"station_id":"","pricing_plan_id":"cebpf4jnsgd1na2vs0mg"},{"bike_id":"cf7ef57a-5217-4557-99d5-746cda46e1d2","system_id":"levelo_inurba_marseille","lat":43.297,"lon":5.36596,"is_reserved":false,"is_disabled":false,"rental_uris":{"android":"levelo://app?vid=cf7ef57a-5217-4557-99d5-746cda46e1d2","ios":"levelo://app?vid=cf7ef57a-5217-4557-99d5-746cda46e1d2"},"vehicle_type_id":"4","last_reported":1752380940,"current_range_meters":10000,"station_id":"ce4bgn12rcd13ifvqbt0","pricing_plan_id":"cebpf4jnsgd1na2vs0mg"},{"bike_id":"c816310d-8ff0-4290-b10a-aad431dd902c","system_id":"levelo_inurba_marseille","lat":43.217474,"lon":5.346081,"is_reserved":false,"is_disabled":true,"rental_uris":{"android":"levelo://app?vid=c816310d-8ff0-4290-b10a-aad431dd902c","ios":"levelo://app?vid=c816310d-8ff0-4290-b10a-aad431dd902c"},"vehicle_type_id":"4","last_reported":1752380940,"current_range_meters":10800,"station_id":"st_cvj6r9ubvosntc0bgbag","pricing_plan_id":"cebpf4jnsgd1na2vs0mg"},{"bike_id":"d335a84e-8adc-46de-a5fd-dd8e583a48b9","system_id":"levelo_inurba_marseille","lat":43.288566,"lon":5.358412,"is_reserved":false,"is_disabled":false,"rental_uris":{"android":"levelo://app?vid=d335a84e-8adc-46de-a5fd-dd8e583a48b9","ios":"levelo://app?vid=d335a84e-8adc-46de-a5fd-dd8e583a48b9"},"vehicle_type_id":"4","last_reported":1752380940,"current_range_meters":10800,"station_id":"ce4bhb12rcd13ifvqem0","pricing_plan_id":"cebpf4jnsgd1na2vs0mg"},{"bike_id":"ee5338dd-18a1-4b48-a5b0-f8c72f7b1319","system_id":"levelo_inurba_marseille","lat":43.318882,"lon":5.367863,"is_reserved":false,"is_disabled":false,"rental_uris":{"android":"levelo://app?vid=ee5338dd-18a1-4b48-a5b0-f8c72f7b1319","ios":"levelo://app?vid=ee5338dd-18a1-4b48-a5b0-f8c72f7b1319"},"vehicle_type_id":"4","last_reported":1752380940,"current_range_meters":10800,"station_id":"","pricing_plan_id":"cebpf4jnsgd1na2vs0mg"},{"bike_id":"4e18f6a0-cf0a-4e54-823e-14d073e25d70","system_id":"levelo_inurba_marseille","lat":43.28029,"lon":5.36927,"is_reserved":false,"is_disabled":true,"rental_uris":{"android":"levelo://app?vid=4e18f6a0-cf0a-4e54-823e-14d073e25d70","ios":"levelo://app?vid=4e18f6a0-cf0a-4e54-823e-14d073e25d70"},"vehicle_type_id":"4","last_reported":1752380940,"current_range_meters":10800,"station_id":"ce4bha12rcd13ifvqef0","pricing_plan_id":"cebpf4jnsgd1na2vs0mg"},{"bike_id":"965a49a4-9e92-42eb-becc-1b8886b80a4e","system_id":"levelo_inurba_marseille","lat":43.26939,"lon":5.40251,"is_reserved":false,"is_disabled":false,"rental_uris":{"android":"levelo://app?vid=965a49a4-9e92-42eb-becc-1b8886b80a4e","ios":"levelo://app?vid=965a49a4-9e92-42eb-becc-1b8886b80a4e"},"vehicle_type_id":"4","last_reported":1752380940,"current_range_meters":11200,"station_id":"cjm6bp8fraef2m0cb0m0","pricing_plan_id":"cebpf4jnsgd1na2vs0mg"},{"bike_id":"470d1e9d-8c05-40b8-a6b2-039f183b9f6a","system_id":"levelo_inurba_marseille","lat":43.231888,"lon":5.35568,"is_reserved":false,"is_disabled":true,"rental_uris":{"android":"levelo://app?vid=470d1e9d-8c05-40b8-a6b2-039f183b9f6a","ios":"levelo://app?vid=470d1e9d-8c05-40b8-a6b2-039f183b9f6a"},"vehicle_type_id":"4","last_reported":1752380940,"current_range_meters":11200,"station_id":"ce4bhu92rcd13ifvqi70","pricing_plan_id":"cebpf4jnsgd1na2vs0mg"},{"bike_id":"7f02047d-a6cd-43f4-a617-996f2b9a8bc8","system_id":"levelo_inurba_marseille","lat":43.32364,"lon":5.36754,"is_reserved":false,"is_disabled":false,"rental_uris":{"android":"levelo://app?vid=7f02047d-a6cd-43f4-a617-996f2b9a8bc8","ios":"levelo://app?vid=7f02047d-a6cd-43f4-a617-996f2b9a8bc8"},"vehicle_type_id":"4","last_reported":1752380940,"current_range_meters":11600,"station_id":"ce4bhsh2rcd13ifvqi2g","pricing_plan_id":"cebpf4jnsgd1na2vs0mg"},{"bike_id":"a2d82a2f-d37e-468c-bc43-b3bcf1bfcc9f","system_id":"levelo_inurba_marseille","lat":43.303296,"lon":5.40443,"is_reserved":false,"is_disabled":false,"rental_uris":{"android":"levelo://app?vid=a2d82a2f-d37e-468c-bc43-b3bcf1bfcc9f","ios":"levelo://app?vid=a2d82a2f-d37e-468c-bc43-b3bcf1bfcc9f"},"vehicle_type_id":"4","last_reported":1752380940,"current_range_meters":11600,"station_id":"ce4bh012rcd13ifvqd10","pricing_plan_id":"cebpf4jnsgd1na2vs0mg"},{"bike_id":"d3a6e38c-d49f-4352-88a6-de4e89f5067a","system_id":"levelo_inurba_marseille","lat":43.26226,"lon":5.40457,"is_reserved":false,"is_disabled":false,"rental_uris":{"android":"levelo://app?vid=d3a6e38c-d49f-4352-88a6-de4e89f5067a","ios":"levelo://app?vid=d3a6e38c-d49f-4352-88a6-de4e89f5067a"},"vehicle_type_id":"4","last_reported":1752380940,"current_range_meters":11600,"station_id":"ce4bhmh2rcd13ifvqgmg","pricing_plan_id":"cebpf4jnsgd1na2vs0mg"},{"bike_id":"2c01c085-a118-4b6b-9ba6-2000ce1f20ec","system_id":"levelo_inurba_marseille","lat":43.28717,"lon":5.37937,"is_reserved":false,"is_disabled":false,"rental_uris":{"android":"levelo://app?vid=2c01c085-a118-4b6b-9ba6-2000ce1f20ec","ios":"levelo://app?vid=2c01c085-a118-4b6b-9ba6-2000ce1f20ec"},"vehicle_type_id":"4","last_reported":1752380940,"current_range_meters":11600,"station_id":"ce4bh9p2rcd13ifvqec0","pricing_plan_id":"cebpf4jnsgd1na2vs0mg"},{"bike_id":"7bb2812a-b96e-400f-831c-7b8a97727eef","system_id":"levelo_inurba_marseille","lat":43.31753,"lon":5.38016,"is_reserved":false,"is_disabled":false,"rental_uris":{"android":"levelo://app?vid=7bb2812a-b96e-400f-831c-7b8a97727eef","ios":"levelo://app?vid=7bb2812a-b96e-400f-831c-7b8a97727eef"},"vehicle_type_id":"4","last_reported":1752380940,"current_range_meters":12000,"station_id":"","pricing_plan_id":"cebpf4jnsgd1na2vs0mg"},{"bike_id":"df8220d3-4375-460e-a35f-93eb6a9d16df","system_id":"levelo_inurba_marseille","lat":43.30881,"lon":5.37187,"is_reserved":false,"is_disabled":false,"rental_uris":{"android":"levelo://app?vid=df8220d3-4375-460e-a35f-93eb6a9d16df","ios":"levelo://app?vid=df8220d3-4375-460e-a35f-93eb6a9d16df"},"vehicle_type_id":"4","last_reported":1752380940,"current_range_meters":12000,"station_id":"ce4bguh2rcd13ifvqckg","pricing_plan_id":"cebpf4jnsgd1na2vs0mg"},{"bike_id":"97a02a7d-ac29-46a1-bb9b-e6d4596ae672","system_id":"levelo_inurba_marseille","lat":43.31761,"lon":5.38994,"is_reserved":false,"is_disabled":false,"rental_uris":{"android":"levelo://app?vid=97a02a7d-ac29-46a1-bb9b-e6d4596ae672","ios":"levelo://app?vid=97a02a7d-ac29-46a1-bb9b-e6d4596ae672"},"vehicle_type_id":"4","last_reported":1752380940,"current_range_meters":12000,"station_id":"ce4bhqp2rcd13ifvqhng","pricing_plan_id":"cebpf4jnsgd1na2vs0mg"},{"bike_id":"8577aaca-7915-49c3-b3eb-bc84fe946baf","system_id":"levelo_inurba_marseille","lat":43.275746,"lon":5.41688,"is_reserved":false,"is_disabled":false,"rental_uris":{"android":"levelo://app?vid=8577aaca-7915-49c3-b3eb-bc84fe946baf","ios":"levelo://app?vid=8577aaca-7915-49c3-b3eb-bc84fe946baf"},"vehicle_type_id":"4","last_reported":1752380940,"current_range_meters":12000,"station_id":"","pricing_plan_id":"cebpf4jnsgd1na2vs0mg"},{"bike_id":"d8b7af91-d035-47ef-81a8-b871b77bd9d4","system_id":"levelo_inurba_marseille","lat":43.29906,"lon":5.43647,"is_reserved":false,"is_disabled":false,"rental_uris":{"android":"levelo://app?vid=d8b7af91-d035-47ef-81a8-b871b77bd9d4","ios":"levelo://app?vid=d8b7af91-d035-47ef-81a8-b871b77bd9d4"},"vehicle_type_id":"4","last_reported":1752380940,"current_range_meters":12000,"station_id":"ce4bhpp2rcd13ifvqhfg","pricing_plan_id":"cebpf4jnsgd1na2vs0mg"},{"bike_id":"383a2485-518e-4235-b1cd-0ebf65ba74a5","system_id":"levelo_inurba_marseille","lat":43.295217,"lon":5.385451,"is_reserved":false,"is_disabled":true,"rental_uris":{"android":"levelo://app?vid=383a2485-518e-4235-b1cd-0ebf65ba74a5","ios":"levelo://app?vid=383a2485-518e-4235-b1cd-0ebf65ba74a5"},"vehicle_type_id":"4","last_reported":1752380940,"current_range_meters":12000,"station_id":"ce4bgih2rcd13ifvqba0","pricing_plan_id":"cebpf4jnsgd1na2vs0mg"},{"bike_id":"737ead6f-e608-42f1-8a55-8949c954e8e3","system_id":"levelo_inurba_marseille","lat":43.211954,"lon":5.350696,"is_reserved":false,"is_disabled":false,"rental_uris":{"android":"levelo://app?vid=737ead6f-e608-42f1-8a55-8949c954e8e3","ios":"levelo://app?vid=737ead6f-e608-42f1-8a55-8949c954e8e3"},"vehicle_type_id":"4","last_reported":1752380940,"current_range_meters":12000,"station_id":"st_cvj6sg6p6f1abm77japg","pricing_plan_id":"cebpf4jnsgd1na2vs0mg"},{"bike_id":"e7aff35c-4ebc-4620-9732-04d18fefa3e8","system_id":"levelo_inurba_marseille","lat":43.217515,"lon":5.346056,"is_reserved":false,"is_disabled":false,"rental_uris":{"android":"levelo://app?vid=e7aff35c-4ebc-4620-9732-04d18fefa3e8","ios":"levelo://app?vid=e7aff35c-4ebc-4620-9732-04d18fefa3e8"},"vehicle_type_id":"4","last_reported":1752380940,"current_range_meters":12000,"station_id":"","pricing_plan_id":"cebpf4jnsgd1na2vs0mg"},{"bike_id":"83b063b2-4a44-4e67-998c-e468e88e016c","system_id":"levelo_inurba_marseille","lat":43.3064,"lon":5.40086,"is_reserved":false,"is_disabled":false,"rental_uris":{"android":"levelo://app?vid=83b063b2-4a44-4e67-998c-e468e88e016c","ios":"levelo://app?vid=83b063b2-4a44-4e67-998c-e468e88e016c"},"vehicle_type_id":"4","last_reported":1752380940,"current_range_meters":12400,"station_id":"ce4bh112rcd13ifvqda0","pricing_plan_id":"cebpf4jnsgd1na2vs0mg"},{"bike_id":"3d606fdc-f6da-4bfc-a559-196d7d7a114e","system_id":"levelo_inurba_marseille","lat":43.25005,"lon":5.38915,"is_reserved":false,"is_disabled":true,"rental_uris":{"android":"levelo://app?vid=3d606fdc-f6da-4bfc-a559-196d7d7a114e","ios":"levelo://app?vid=3d606fdc-f6da-4bfc-a559-196d7d7a114e"},"vehicle_type_id":"4","last_reported":1752380940,"current_range_meters":12400,"station_id":"ce4bhgp2rcd13ifvqfd0","pricing_plan_id":"cebpf4jnsgd1na2vs0mg"},{"bike_id":"51890362-46b0-4ee7-9f02-afbf036d064e","system_id":"levelo_inurba_marseille","lat":43.211924,"lon":5.350719,"is_reserved":false,"is_disabled":false,"rental_uris":{"android":"levelo://app?vid=51890362-46b0-4ee7-9f02-afbf036d064e","ios":"levelo://app?vid=51890362-46b0-4ee7-9f02-afbf036d064e"},"vehicle_type_id":"4","last_reported":1752380940,"current_range_meters":12400,"station_id":"st_cvj6sg6p6f1abm77japg","pricing_plan_id":"cebpf4jnsgd1na2vs0mg"},{"bike_id":"747c0a1e-be69-4fb2-8930-1177e863a846","system_id":"levelo_inurba_marseille","lat":43.308899,"lon":5.371975,"is_reserved":false,"is_disabled":false,"rental_uris":{"android":"levelo://app?vid=747c0a1e-be69-4fb2-8930-1177e863a846","ios":"levelo://app?vid=747c0a1e-be69-4fb2-8930-1177e863a846"},"vehicle_type_id":"4","last_reported":1752380940,"current_range_meters":12400,"station_id":"ce4bguh2rcd13ifvqckg","pricing_plan_id":"cebpf4jnsgd1na2vs0mg"},{"bike_id":"8f27528a-10a4-4f68-9e38-3dc17f27b3f6","system_id":"levelo_inurba_marseille","lat":43.30389,"lon":5.42473,"is_reserved":false,"is_disabled":false,"rental_uris":{"android":"levelo://app?vid=8f27528a-10a4-4f68-9e38-3dc17f27b3f6","ios":"levelo://app?vid=8f27528a-10a4-4f68-9e38-3dc17f27b3f6"},"vehicle_type_id":"4","last_reported":1752380940,"current_range_meters":12400,"station_id":"ce4bhoh2rcd13ifvqh6g","pricing_plan_id":"cebpf4jnsgd1na2vs0mg"},{"bike_id":"c4159d35-3997-4d22-8b07-70d50dce5087","system_id":"levelo_inurba_marseille","lat":43.241765,"lon":5.397379,"is_reserved":false,"is_disabled":false,"rental_uris":{"android":"levelo://app?vid=c4159d35-3997-4d22-8b07-70d50dce5087","ios":"levelo://app?vid=c4159d35-3997-4d22-8b07-70d50dce5087"},"vehicle_type_id":"4","last_reported":1752380940,"current_range_meters":12400,"station_id":"ce4bhn12rcd13ifvqgpg","pricing_plan_id":"cebpf4jnsgd1na2vs0mg"},{"bike_id":"49801dc2-618a-44b8-84ae-416cd87fdbe9","system_id":"levelo_inurba_marseille","lat":43.33764,"lon":5.37475,"is_reserved":false,"is_disabled":false,"rental_uris":{"android":"levelo://app?vid=49801dc2-618a-44b8-84ae-416cd87fdbe9","ios":"levelo://app?vid=49801dc2-618a-44b8-84ae-416cd87fdbe9"},"vehicle_type_id":"4","last_reported":1752380940,"current_range_meters":12400,"station_id":"","pricing_plan_id":"cebpf4jnsgd1na2vs0mg"},{"bike_id":"a0137104-c9f4-434a-a5e3-80725cd5a2b4","system_id":"levelo_inurba_marseille","lat":43.21209,"lon":5.35051,"is_reserved":false,"is_disabled":false,"rental_uris":{"android":"levelo://app?vid=a0137104-c9f4-434a-a5e3-80725cd5a2b4","ios":"levelo://app?vid=a0137104-c9f4-434a-a5e3-80725cd5a2b4"},"vehicle_type_id":"4","last_reported":1752380940,"current_range_meters":12400,"station_id":"st_cvj6sg6p6f1abm77japg","pricing_plan_id":"cebpf4jnsgd1na2vs0mg"},{"bike_id":"d7d851de-d966-47dc-9bd8-1a9ae0c433a4","system_id":"levelo_inurba_marseille","lat":43.22504,"lon":5.34781,"is_reserved":false,"is_disabled":false,"rental_uris":{"android":"levelo://app?vid=d7d851de-d966-47dc-9bd8-1a9ae0c433a4","ios":"levelo://app?vid=d7d851de-d966-47dc-9bd8-1a9ae0c433a4"},"vehicle_type_id":"4","last_reported":1752380940,"current_range_meters":12800,"station_id":"st_cvj5dfep6f1abm77gieg","pricing_plan_id":"cebpf4jnsgd1na2vs0mg"},{"bike_id":"594d49e9-6501-4e81-baf7-8a71f6d7b61a","system_id":"levelo_inurba_marseille","lat":43.30099,"lon":5.39062,"is_reserved":false,"is_disabled":false,"rental_uris":{"android":"levelo://app?vid=594d49e9-6501-4e81-baf7-8a71f6d7b61a","ios":"levelo://app?vid=594d49e9-6501-4e81-baf7-8a71f6d7b61a"},"vehicle_type_id":"4","last_reported":1752380940,"current_range_meters":12800,"station_id":"ce4bh192rcd13ifvqdb0","pricing_plan_id":"cebpf4jnsgd1na2vs0mg"},{"bike_id":"293d022c-5efb-4d56-bef5-6e4d23b34a34","system_id":"levelo_inurba_marseille","lat":43.27986,"lon":5.4166,"is_reserved":false,"is_disabled":false,"rental_uris":{"android":"levelo://app?vid=293d022c-5efb-4d56-bef5-6e4d23b34a34","ios":"levelo://app?vid=293d022c-5efb-4d56-bef5-6e4d23b34a34"},"vehicle_type_id":"4","last_reported":1752380940,"current_range_meters":12800,"station_id":"ce4bho12rcd13ifvqh1g","pricing_plan_id":"cebpf4jnsgd1na2vs0mg"},{"bike_id":"0d7628ba-61de-4bdc-8116-2ed3075dc950","system_id":"levelo_inurba_marseille","lat":43.30881,"lon":5.39648,"is_reserved":false,"is_disabled":false,"rental_uris":{"android":"levelo://app?vid=0d7628ba-61de-4bdc-8116-2ed3075dc950","ios":"levelo://app?vid=0d7628ba-61de-4bdc-8116-2ed3075dc950"},"vehicle_type_id":"4","last_reported":1752380940,"current_range_meters":12800,"station_id":"ce4bh012rcd13ifvqcv0","pricing_plan_id":"cebpf4jnsgd1na2vs0mg"},{"bike_id":"854d5dbd-9ed2-47cd-9380-9348e08a193d","system_id":"levelo_inurba_marseille","lat":43.29914,"lon":5.37468,"is_reserved":false,"is_disabled":false,"rental_uris":{"android":"levelo://app?vid=854d5dbd-9ed2-47cd-9380-9348e08a193d","ios":"levelo://app?vid=854d5dbd-9ed2-47cd-9380-9348e08a193d"},"vehicle_type_id":"4","last_reported":1752380940,"current_range_meters":13600,"station_id":"ce4bgjh2rcd13ifvqbg0","pricing_plan_id":"cebpf4jnsgd1na2vs0mg"},{"bike_id":"84761d97-9b88-4141-8a33-ed6b0e0263fe","system_id":"levelo_inurba_marseille","lat":43.26212,"lon":5.40146,"is_reserved":false,"is_disabled":false,"rental_uris":{"android":"levelo://app?vid=84761d97-9b88-4141-8a33-ed6b0e0263fe","ios":"levelo://app?vid=84761d97-9b88-4141-8a33-ed6b0e0263fe"},"vehicle_type_id":"4","last_reported":1752380940,"current_range_meters":13600,"station_id":"","pricing_plan_id":"cebpf4jnsgd1na2vs0mg"},{"bike_id":"00bc0b3b-e317-4a17-a011-a3a9a29d816a","system_id":"levelo_inurba_marseille","lat":43.2119,"lon":5.35065,"is_reserved":false,"is_disabled":false,"rental_uris":{"android":"levelo://app?vid=00bc0b3b-e317-4a17-a011-a3a9a29d816a","ios":"levelo://app?vid=00bc0b3b-e317-4a17-a011-a3a9a29d816a"},"vehicle_type_id":"4","last_reported":1752380940,"current_range_meters":13600,"station_id":"st_cvj6sg6p6f1abm77japg","pricing_plan_id":"cebpf4jnsgd1na2vs0mg"},{"bike_id":"11f46ca2-23ee-4f2a-83a5-008959742fbd","system_id":"levelo_inurba_marseille","lat":43.2464,"lon":5.38135,"is_reserved":false,"is_disabled":false,"rental_uris":{"android":"levelo://app?vid=11f46ca2-23ee-4f2a-83a5-008959742fbd","ios":"levelo://app?vid=11f46ca2-23ee-4f2a-83a5-008959742fbd"},"vehicle_type_id":"4","last_reported":1752380940,"current_range_meters":13600,"station_id":"ce4bhih2rcd13ifvqfr0","pricing_plan_id":"cebpf4jnsgd1na2vs0mg"},{"bike_id":"016a0553-daa1-434d-8dba-ff1fbded5db8","system_id":"levelo_inurba_marseille","lat":43.225,"lon":5.34763,"is_reserved":false,"is_disabled":false,"rental_uris":{"android":"levelo://app?vid=016a0553-daa1-434d-8dba-ff1fbded5db8","ios":"levelo://app?vid=016a0553-daa1-434d-8dba-ff1fbded5db8"},"vehicle_type_id":"4","last_reported":1752380940,"current_range_meters":13600,"station_id":"st_cvj5dfep6f1abm77gieg","pricing_plan_id":"cebpf4jnsgd1na2vs0mg"},{"bike_id":"4ab460f6-2b13-462f-a8b8-8ee3ec6489ea","system_id":"levelo_inurba_marseille","lat":43.262353,"lon":5.404548,"is_reserved":false,"is_disabled":false,"rental_uris":{"android":"levelo://app?vid=4ab460f6-2b13-462f-a8b8-8ee3ec6489ea","ios":"levelo://app?vid=4ab460f6-2b13-462f-a8b8-8ee3ec6489ea"},"vehicle_type_id":"4","last_reported":1752380940,"current_range_meters":13600,"station_id":"ce4bhmh2rcd13ifvqgmg","pricing_plan_id":"cebpf4jnsgd1na2vs0mg"},{"bike_id":"31f76825-7b9f-439a-a66c-521eb63e58c1","system_id":"levelo_inurba_marseille","lat":43.29466,"lon":5.43832,"is_reserved":false,"is_disabled":false,"rental_uris":{"android":"levelo://app?vid=31f76825-7b9f-439a-a66c-521eb63e58c1","ios":"levelo://app?vid=31f76825-7b9f-439a-a66c-521eb63e58c1"},"vehicle_type_id":"4","last_reported":1752380940,"current_range_meters":13600,"station_id":"","pricing_plan_id":"cebpf4jnsgd1na2vs0mg"},{"bike_id":"46ce7424-8151-41ba-a046-0c68273c2c8e","system_id":"levelo_inurba_marseille","lat":43.2919,"lon":5.36622,"is_reserved":false,"is_disabled":false,"rental_uris":{"android":"levelo://app?vid=46ce7424-8151-41ba-a046-0c68273c2c8e","ios":"levelo://app?vid=46ce7424-8151-41ba-a046-0c68273c2c8e"},"vehicle_type_id":"4","last_reported":1752380940,"current_range_meters":14000,"station_id":"","pricing_plan_id":"cebpf4jnsgd1na2vs0mg"},{"bike_id":"c99d2c69-5da6-4cb8-84aa-4fb1d2aeb96d","system_id":"levelo_inurba_marseille","lat":43.29644,"lon":5.40591,"is_reserved":false,"is_disabled":false,"rental_uris":{"android":"levelo://app?vid=c99d2c69-5da6-4cb8-84aa-4fb1d2aeb96d","ios":"levelo://app?vid=c99d2c69-5da6-4cb8-84aa-4fb1d2aeb96d"},"vehicle_type_id":"4","last_reported":1752380940,"current_range_meters":14000,"station_id":"ce4bh0h2rcd13ifvqd60","pricing_plan_id":"cebpf4jnsgd1na2vs0mg"},{"bike_id":"b8cd8c38-4d88-48b2-abb3-ece961dbda2a","system_id":"levelo_inurba_marseille","lat":43.30633,"lon":5.40074,"is_reserved":false,"is_disabled":false,"rental_uris":{"android":"levelo://app?vid=b8cd8c38-4d88-48b2-abb3-ece961dbda2a","ios":"levelo://app?vid=b8cd8c38-4d88-48b2-abb3-ece961dbda2a"},"vehicle_type_id":"4","last_reported":1752380940,"current_range_meters":14000,"station_id":"ce4bh112rcd13ifvqda0","pricing_plan_id":"cebpf4jnsgd1na2vs0mg"},{"bike_id":"8b37f03f-f226-4bbc-8648-b109da7ba145","system_id":"levelo_inurba_marseille","lat":43.30536,"lon":5.366999,"is_reserved":false,"is_disabled":false,"rental_uris":{"android":"levelo://app?vid=8b37f03f-f226-4bbc-8648-b109da7ba145","ios":"levelo://app?vid=8b37f03f-f226-4bbc-8648-b109da7ba145"},"vehicle_type_id":"4","last_reported":1752380940,"current_range_meters":14000,"station_id":"","pricing_plan_id":"cebpf4jnsgd1na2vs0mg"},{"bike_id":"ca52a39d-38bb-4e30-baa8-19f0da3a8f7e","system_id":"levelo_inurba_marseille","lat":43.251371,"lon":5.403351,"is_reserved":false,"is_disabled":false,"rental_uris":{"android":"levelo://app?vid=ca52a39d-38bb-4e30-baa8-19f0da3a8f7e","ios":"levelo://app?vid=ca52a39d-38bb-4e30-baa8-19f0da3a8f7e"},"vehicle_type_id":"4","last_reported":1752380940,"current_range_meters":14000,"station_id":"ce4bhlh2rcd13ifvqgig","pricing_plan_id":"cebpf4jnsgd1na2vs0mg"},{"bike_id":"a7394f41-022f-49b4-9b7d-63e2c509eafd","system_id":"levelo_inurba_marseille","lat":43.28269,"lon":5.35057,"is_reserved":false,"is_disabled":false,"rental_uris":{"android":"levelo://app?vid=a7394f41-022f-49b4-9b7d-63e2c509eafd","ios":"levelo://app?vid=a7394f41-022f-49b4-9b7d-63e2c509eafd"},"vehicle_type_id":"4","last_reported":1752380940,"current_range_meters":14400,"station_id":"ce4bhbp2rcd13ifvqerg","pricing_plan_id":"cebpf4jnsgd1na2vs0mg"},{"bike_id":"5ff3a6be-7bef-40dd-88c3-f173238ca88d","system_id":"levelo_inurba_marseille","lat":43.292725,"lon":5.368383,"is_reserved":false,"is_disabled":false,"rental_uris":{"android":"levelo://app?vid=5ff3a6be-7bef-40dd-88c3-f173238ca88d","ios":"levelo://app?vid=5ff3a6be-7bef-40dd-88c3-f173238ca88d"},"vehicle_type_id":"4","last_reported":1752380940,"current_range_meters":14400,"station_id":"","pricing_plan_id":"cebpf4jnsgd1na2vs0mg"},{"bike_id":"5d5dab19-e924-4560-af0c-2b8b00f364c0","system_id":"levelo_inurba_marseille","lat":43.30241,"lon":5.40053,"is_reserved":false,"is_disabled":false,"rental_uris":{"android":"levelo://app?vid=5d5dab19-e924-4560-af0c-2b8b00f364c0","ios":"levelo://app?vid=5d5dab19-e924-4560-af0c-2b8b00f364c0"},"vehicle_type_id":"4","last_reported":1752380940,"current_range_meters":14400,"station_id":"ce4bgvh2rcd13ifvqcs0","pricing_plan_id":"cebpf4jnsgd1na2vs0mg"},{"bike_id":"f23760ff-ab61-4853-aa67-28aac93822c1","system_id":"levelo_inurba_marseille","lat":43.337444,"lon":5.374475,"is_reserved":false,"is_disabled":false,"rental_uris":{"android":"levelo://app?vid=f23760ff-ab61-4853-aa67-28aac93822c1","ios":"levelo://app?vid=f23760ff-ab61-4853-aa67-28aac93822c1"},"vehicle_type_id":"4","last_reported":1752380940,"current_range_meters":14400,"station_id":"","pricing_plan_id":"cebpf4jnsgd1na2vs0mg"},{"bike_id":"8f910bb0-4d17-4114-bb90-0265a46eb675","system_id":"levelo_inurba_marseille","lat":43.317056,"lon":5.377716,"is_reserved":false,"is_disabled":false,"rental_uris":{"android":"levelo://app?vid=8f910bb0-4d17-4114-bb90-0265a46eb675","ios":"levelo://app?vid=8f910bb0-4d17-4114-bb90-0265a46eb675"},"vehicle_type_id":"4","last_reported":1752380940,"current_range_meters":14400,"station_id":"ce4bgth2rcd13ifvqch0","pricing_plan_id":"cebpf4jnsgd1na2vs0mg"},{"bike_id":"b105f991-1563-4fc4-9371-7364ce9b8c80","system_id":"levelo_inurba_marseille","lat":43.287285,"lon":5.395579,"is_reserved":false,"is_disabled":false,"rental_uris":{"android":"levelo://app?vid=b105f991-1563-4fc4-9371-7364ce9b8c80","ios":"levelo://app?vid=b105f991-1563-4fc4-9371-7364ce9b8c80"},"vehicle_type_id":"4","last_reported":1752380940,"current_range_meters":14400,"station_id":"","pricing_plan_id":"cebpf4jnsgd1na2vs0mg"},{"bike_id":"9a72d1fd-ba0d-40b8-85c2-0a32bee82c5a","system_id":"levelo_inurba_marseille","lat":43.28579,"lon":5.40234,"is_reserved":false,"is_disabled":false,"rental_uris":{"android":"levelo://app?vid=9a72d1fd-ba0d-40b8-85c2-0a32bee82c5a","ios":"levelo://app?vid=9a72d1fd-ba0d-40b8-85c2-0a32bee82c5a"},"vehicle_type_id":"4","last_reported":1752380940,"current_range_meters":14400,"station_id":"","pricing_plan_id":"cebpf4jnsgd1na2vs0mg"},{"bike_id":"23260be4-d008-4b0b-82fe-8878d6adc2cf","system_id":"levelo_inurba_marseille","lat":43.23152,"lon":5.43704,"is_reserved":false,"is_disabled":false,"rental_uris":{"android":"levelo://app?vid=23260be4-d008-4b0b-82fe-8878d6adc2cf","ios":"levelo://app?vid=23260be4-d008-4b0b-82fe-8878d6adc2cf"},"vehicle_type_id":"4","last_reported":1752380940,"current_range_meters":14800,"station_id":"ce4bhmp2rcd13ifvqgog","pricing_plan_id":"cebpf4jnsgd1na2vs0mg"},{"bike_id":"4b8da722-ee9e-48a4-a5e5-3a8a10364708","system_id":"levelo_inurba_marseille","lat":43.312513,"lon":5.378154,"is_reserved":false,"is_disabled":false,"rental_uris":{"android":"levelo://app?vid=4b8da722-ee9e-48a4-a5e5-3a8a10364708","ios":"levelo://app?vid=4b8da722-ee9e-48a4-a5e5-3a8a10364708"},"vehicle_type_id":"4","last_reported":1752380940,"current_range_meters":14800,"station_id":"","pricing_plan_id":"cebpf4jnsgd1na2vs0mg"},{"bike_id":"c1d0629c-eaee-41e7-8c10-68b0ec1b077d","system_id":"levelo_inurba_marseille","lat":43.32756,"lon":5.39117,"is_reserved":false,"is_disabled":false,"rental_uris":{"android":"levelo://app?vid=c1d0629c-eaee-41e7-8c10-68b0ec1b077d","ios":"levelo://app?vid=c1d0629c-eaee-41e7-8c10-68b0ec1b077d"},"vehicle_type_id":"4","last_reported":1752380940,"current_range_meters":14800,"station_id":"","pricing_plan_id":"cebpf4jnsgd1na2vs0mg"},{"bike_id":"6d3f299a-d341-49bc-a1f9-7534528d9b67","system_id":"levelo_inurba_marseille","lat":43.231919,"lon":5.355606,"is_reserved":false,"is_disabled":false,"rental_uris":{"android":"levelo://app?vid=6d3f299a-d341-49bc-a1f9-7534528d9b67","ios":"levelo://app?vid=6d3f299a-d341-49bc-a1f9-7534528d9b67"},"vehicle_type_id":"4","last_reported":1752380940,"current_range_meters":15200,"station_id":"ce4bhu92rcd13ifvqi70","pricing_plan_id":"cebpf4jnsgd1na2vs0mg"},{"bike_id":"1246340e-7ba7-4d4f-989b-650db36f2055","system_id":"levelo_inurba_marseille","lat":43.2958,"lon":5.42275,"is_reserved":false,"is_disabled":false,"rental_uris":{"android":"levelo://app?vid=1246340e-7ba7-4d4f-989b-650db36f2055","ios":"levelo://app?vid=1246340e-7ba7-4d4f-989b-650db36f2055"},"vehicle_type_id":"4","last_reported":1752380940,"current_range_meters":15200,"station_id":"ce4bhph2rcd13ifvqhdg","pricing_plan_id":"cebpf4jnsgd1na2vs0mg"},{"bike_id":"64e0382f-4f5c-404c-ad2d-9b448c9834f1","system_id":"levelo_inurba_marseille","lat":43.311168,"lon":5.377651,"is_reserved":false,"is_disabled":false,"rental_uris":{"android":"levelo://app?vid=64e0382f-4f5c-404c-ad2d-9b448c9834f1","ios":"levelo://app?vid=64e0382f-4f5c-404c-ad2d-9b448c9834f1"},"vehicle_type_id":"4","last_reported":1752380940,"current_range_meters":15200,"station_id":"ce4bgt92rcd13ifvqcg0","pricing_plan_id":"cebpf4jnsgd1na2vs0mg"},{"bike_id":"f83a1ac2-2158-4a8d-a3a6-5f71226f0918","system_id":"levelo_inurba_marseille","lat":43.30992,"lon":5.37027,"is_reserved":false,"is_disabled":false,"rental_uris":{"android":"levelo://app?vid=f83a1ac2-2158-4a8d-a3a6-5f71226f0918","ios":"levelo://app?vid=f83a1ac2-2158-4a8d-a3a6-5f71226f0918"},"vehicle_type_id":"4","last_reported":1752380940,"current_range_meters":16000,"station_id":"","pricing_plan_id":"cebpf4jnsgd1na2vs0mg"},{"bike_id":"a44f68aa-b920-4eb6-845e-df1183944a6b","system_id":"levelo_inurba_marseille","lat":43.28575,"lon":5.35049,"is_reserved":false,"is_disabled":true,"rental_uris":{"android":"levelo://app?vid=a44f68aa-b920-4eb6-845e-df1183944a6b","ios":"levelo://app?vid=a44f68aa-b920-4eb6-845e-df1183944a6b"},"vehicle_type_id":"4","last_reported":1752380940,"current_range_meters":16000,"station_id":"","pricing_plan_id":"cebpf4jnsgd1na2vs0mg"},{"bike_id":"2219b1be-2f3d-4b7d-a696-471e1b476793","system_id":"levelo_inurba_marseille","lat":43.24652,"lon":5.38892,"is_reserved":false,"is_disabled":false,"rental_uris":{"android":"levelo://app?vid=2219b1be-2f3d-4b7d-a696-471e1b476793","ios":"levelo://app?vid=2219b1be-2f3d-4b7d-a696-471e1b476793"},"vehicle_type_id":"4","last_reported":1752380940,"current_range_meters":16000,"station_id":"ce4bhg12rcd13ifvqf60","pricing_plan_id":"cebpf4jnsgd1na2vs0mg"},{"bike_id":"e2ce6e8a-ef9f-4211-8776-042780e4931d","system_id":"levelo_inurba_marseille","lat":43.28427,"lon":5.34986,"is_reserved":false,"is_disabled":true,"rental_uris":{"android":"levelo://app?vid=e2ce6e8a-ef9f-4211-8776-042780e4931d","ios":"levelo://app?vid=e2ce6e8a-ef9f-4211-8776-042780e4931d"},"vehicle_type_id":"4","last_reported":1752380940,"current_range_meters":16000,"station_id":"ce4bhbh2rcd13ifvqepg","pricing_plan_id":"cebpf4jnsgd1na2vs0mg"},{"bike_id":"3997693c-4aff-4e63-ab79-ea36c5970ef4","system_id":"levelo_inurba_marseille","lat":43.301304,"lon":5.387844,"is_reserved":false,"is_disabled":false,"rental_uris":{"android":"levelo://app?vid=3997693c-4aff-4e63-ab79-ea36c5970ef4","ios":"levelo://app?vid=3997693c-4aff-4e63-ab79-ea36c5970ef4"},"vehicle_type_id":"4","last_reported":1752380940,"current_range_meters":16000,"station_id":"ce4bghh2rcd13ifvqb60","pricing_plan_id":"cebpf4jnsgd1na2vs0mg"},{"bike_id":"7f9cdf24-06d5-4966-a653-209a5c486322","system_id":"levelo_inurba_marseille","lat":43.302491,"lon":5.400866,"is_reserved":false,"is_disabled":false,"rental_uris":{"android":"levelo://app?vid=7f9cdf24-06d5-4966-a653-209a5c486322","ios":"levelo://app?vid=7f9cdf24-06d5-4966-a653-209a5c486322"},"vehicle_type_id":"4","last_reported":1752380940,"current_range_meters":16000,"station_id":"ce4bgvh2rcd13ifvqcs0","pricing_plan_id":"cebpf4jnsgd1na2vs0mg"},{"bike_id":"03d40799-ba8e-4a75-bddf-f3269f9a0698","system_id":"levelo_inurba_marseille","lat":43.27941,"lon":5.41041,"is_reserved":false,"is_disabled":false,"rental_uris":{"android":"levelo://app?vid=03d40799-ba8e-4a75-bddf-f3269f9a0698","ios":"levelo://app?vid=03d40799-ba8e-4a75-bddf-f3269f9a0698"},"vehicle_type_id":"4","last_reported":1752380940,"current_range_meters":16000,"station_id":"ce4bhnp2rcd13ifvqh0g","pricing_plan_id":"cebpf4jnsgd1na2vs0mg"},{"bike_id":"77bfc87a-7d40-4a12-a98a-a968fc6e780e","system_id":"levelo_inurba_marseille","lat":43.30202,"lon":5.39474,"is_reserved":false,"is_disabled":false,"rental_uris":{"android":"levelo://app?vid=77bfc87a-7d40-4a12-a98a-a968fc6e780e","ios":"levelo://app?vid=77bfc87a-7d40-4a12-a98a-a968fc6e780e"},"vehicle_type_id":"4","last_reported":1752380940,"current_range_meters":16400,"station_id":"ce4bh0p2rcd13ifvqd70","pricing_plan_id":"cebpf4jnsgd1na2vs0mg"},{"bike_id":"0c1249a9-581f-45d5-a449-324c436c6465","system_id":"levelo_inurba_marseille","lat":43.26209,"lon":5.37137,"is_reserved":false,"is_disabled":false,"rental_uris":{"android":"levelo://app?vid=0c1249a9-581f-45d5-a449-324c436c6465","ios":"levelo://app?vid=0c1249a9-581f-45d5-a449-324c436c6465"},"vehicle_type_id":"4","last_reported":1752380940,"current_range_meters":16400,"station_id":"","pricing_plan_id":"cebpf4jnsgd1na2vs0mg"},{"bike_id":"2f0ac16a-cc09-4366-806a-211db699aea0","system_id":"levelo_inurba_marseille","lat":43.317055,"lon":5.377703,"is_reserved":false,"is_disabled":false,"rental_uris":{"android":"levelo://app?vid=2f0ac16a-cc09-4366-806a-211db699aea0","ios":"levelo://app?vid=2f0ac16a-cc09-4366-806a-211db699aea0"},"vehicle_type_id":"4","last_reported":1752380940,"current_range_meters":16400,"station_id":"ce4bgth2rcd13ifvqch0","pricing_plan_id":"cebpf4jnsgd1na2vs0mg"},{"bike_id":"05830fef-c72d-444a-8aaf-18864090cfa2","system_id":"levelo_inurba_marseille","lat":43.251083,"lon":5.40328,"is_reserved":false,"is_disabled":false,"rental_uris":{"android":"levelo://app?vid=05830fef-c72d-444a-8aaf-18864090cfa2","ios":"levelo://app?vid=05830fef-c72d-444a-8aaf-18864090cfa2"},"vehicle_type_id":"4","last_reported":1752380940,"current_range_meters":16400,"station_id":"ce4bhlh2rcd13ifvqgig","pricing_plan_id":"cebpf4jnsgd1na2vs0mg"},{"bike_id":"5d2e7aad-0a21-4598-93c2-a1d014fc322f","system_id":"levelo_inurba_marseille","lat":43.241754,"lon":5.397335,"is_reserved":false,"is_disabled":false,"rental_uris":{"android":"levelo://app?vid=5d2e7aad-0a21-4598-93c2-a1d014fc322f","ios":"levelo://app?vid=5d2e7aad-0a21-4598-93c2-a1d014fc322f"},"vehicle_type_id":"4","last_reported":1752380940,"current_range_meters":16400,"station_id":"ce4bhn12rcd13ifvqgpg","pricing_plan_id":"cebpf4jnsgd1na2vs0mg"},{"bike_id":"262c7e76-2e28-4d55-b6be-af79e74bb9c9","system_id":"levelo_inurba_marseille","lat":43.322645,"lon":5.369473,"is_reserved":false,"is_disabled":false,"rental_uris":{"android":"levelo://app?vid=262c7e76-2e28-4d55-b6be-af79e74bb9c9","ios":"levelo://app?vid=262c7e76-2e28-4d55-b6be-af79e74bb9c9"},"vehicle_type_id":"4","last_reported":1752380940,"current_range_meters":16400,"station_id":"","pricing_plan_id":"cebpf4jnsgd1na2vs0mg"},{"bike_id":"f70d4eb7-0483-4b22-b4af-6857c0805839","system_id":"levelo_inurba_marseille","lat":43.29898,"lon":5.38151,"is_reserved":false,"is_disabled":true,"rental_uris":{"android":"levelo://app?vid=f70d4eb7-0483-4b22-b4af-6857c0805839","ios":"levelo://app?vid=f70d4eb7-0483-4b22-b4af-6857c0805839"},"vehicle_type_id":"4","last_reported":1752380940,"current_range_meters":16400,"station_id":"ce4bgj12rcd13ifvqbc0","pricing_plan_id":"cebpf4jnsgd1na2vs0mg"},{"bike_id":"f9924005-c8ac-4086-8e25-9a21391f65ea","system_id":"levelo_inurba_marseille","lat":43.21188,"lon":5.35066,"is_reserved":false,"is_disabled":false,"rental_uris":{"android":"levelo://app?vid=f9924005-c8ac-4086-8e25-9a21391f65ea","ios":"levelo://app?vid=f9924005-c8ac-4086-8e25-9a21391f65ea"},"vehicle_type_id":"4","last_reported":1752380940,"current_range_meters":16400,"station_id":"st_cvj6sg6p6f1abm77japg","pricing_plan_id":"cebpf4jnsgd1na2vs0mg"},{"bike_id":"77da523b-ace4-4d05-9e20-7148788972a6","system_id":"levelo_inurba_marseille","lat":43.3171,"lon":5.37781,"is_reserved":false,"is_disabled":false,"rental_uris":{"android":"levelo://app?vid=77da523b-ace4-4d05-9e20-7148788972a6","ios":"levelo://app?vid=77da523b-ace4-4d05-9e20-7148788972a6"},"vehicle_type_id":"4","last_reported":1752380940,"current_range_meters":16400,"station_id":"ce4bgth2rcd13ifvqch0","pricing_plan_id":"cebpf4jnsgd1na2vs0mg"},{"bike_id":"c2d04c62-dad5-4981-8561-9ac2acf87548","system_id":"levelo_inurba_marseille","lat":43.29984,"lon":5.37177,"is_reserved":false,"is_disabled":false,"rental_uris":{"android":"levelo://app?vid=c2d04c62-dad5-4981-8561-9ac2acf87548","ios":"levelo://app?vid=c2d04c62-dad5-4981-8561-9ac2acf87548"},"vehicle_type_id":"4","last_reported":1752380940,"current_range_meters":16400,"station_id":"ce4bgr92rcd13ifvqc7g","pricing_plan_id":"cebpf4jnsgd1na2vs0mg"},{"bike_id":"2afd10ce-5f23-4122-9c7a-a3416be941b2","system_id":"levelo_inurba_marseille","lat":43.260214,"lon":5.375513,"is_reserved":false,"is_disabled":true,"rental_uris":{"android":"levelo://app?vid=2afd10ce-5f23-4122-9c7a-a3416be941b2","ios":"levelo://app?vid=2afd10ce-5f23-4122-9c7a-a3416be941b2"},"vehicle_type_id":"4","last_reported":1752380940,"current_range_meters":16400,"station_id":"ce4bhgh2rcd13ifvqfa0","pricing_plan_id":"cebpf4jnsgd1na2vs0mg"},{"bike_id":"7048b274-bb73-4f78-bd84-2dffe4927289","system_id":"levelo_inurba_marseille","lat":43.29786,"lon":5.3935,"is_reserved":false,"is_disabled":true,"rental_uris":{"android":"levelo://app?vid=7048b274-bb73-4f78-bd84-2dffe4927289","ios":"levelo://app?vid=7048b274-bb73-4f78-bd84-2dffe4927289"},"vehicle_type_id":"4","last_reported":1752380940,"current_range_meters":16400,"station_id":"chh1huq6cuj3fo74tm60","pricing_plan_id":"cebpf4jnsgd1na2vs0mg"},{"bike_id":"0cfe2a5a-3c82-491a-b988-70a0642db701","system_id":"levelo_inurba_marseille","lat":43.30886,"lon":5.37201,"is_reserved":false,"is_disabled":false,"rental_uris":{"android":"levelo://app?vid=0cfe2a5a-3c82-491a-b988-70a0642db701","ios":"levelo://app?vid=0cfe2a5a-3c82-491a-b988-70a0642db701"},"vehicle_type_id":"4","last_reported":1752380940,"current_range_meters":16400,"station_id":"ce4bguh2rcd13ifvqckg","pricing_plan_id":"cebpf4jnsgd1na2vs0mg"},{"bike_id":"8bcb3360-dbaa-4a6a-ae34-1ee8e5254ec4","system_id":"levelo_inurba_marseille","lat":43.241778,"lon":5.397249,"is_reserved":false,"is_disabled":false,"rental_uris":{"android":"levelo://app?vid=8bcb3360-dbaa-4a6a-ae34-1ee8e5254ec4","ios":"levelo://app?vid=8bcb3360-dbaa-4a6a-ae34-1ee8e5254ec4"},"vehicle_type_id":"4","last_reported":1752380940,"current_range_meters":16400,"station_id":"ce4bhn12rcd13ifvqgpg","pricing_plan_id":"cebpf4jnsgd1na2vs0mg"},{"bike_id":"ce2463f0-35d0-4816-96fb-af9bc73ca797","system_id":"levelo_inurba_marseille","lat":43.305414,"lon":5.384366,"is_reserved":false,"is_disabled":false,"rental_uris":{"android":"levelo://app?vid=ce2463f0-35d0-4816-96fb-af9bc73ca797","ios":"levelo://app?vid=ce2463f0-35d0-4816-96fb-af9bc73ca797"},"vehicle_type_id":"4","last_reported":1752380940,"current_range_meters":16800,"station_id":"ce4bgg92rcd13ifvqb30","pricing_plan_id":"cebpf4jnsgd1na2vs0mg"},{"bike_id":"9b40dc73-509b-4d2f-8a27-44696719b175","system_id":"levelo_inurba_marseille","lat":43.27071,"lon":5.4228,"is_reserved":false,"is_disabled":false,"rental_uris":{"android":"levelo://app?vid=9b40dc73-509b-4d2f-8a27-44696719b175","ios":"levelo://app?vid=9b40dc73-509b-4d2f-8a27-44696719b175"},"vehicle_type_id":"4","last_reported":1752380940,"current_range_meters":16800,"station_id":"ce4bhk92rcd13ifvqgb0","pricing_plan_id":"cebpf4jnsgd1na2vs0mg"},{"bike_id":"718eafe4-1059-4d0b-9935-83404501b5b5","system_id":"levelo_inurba_marseille","lat":43.31746,"lon":5.37833,"is_reserved":false,"is_disabled":false,"rental_uris":{"android":"levelo://app?vid=718eafe4-1059-4d0b-9935-83404501b5b5","ios":"levelo://app?vid=718eafe4-1059-4d0b-9935-83404501b5b5"},"vehicle_type_id":"4","last_reported":1752380940,"current_range_meters":16800,"station_id":"","pricing_plan_id":"cebpf4jnsgd1na2vs0mg"},{"bike_id":"82064778-37b9-438b-b376-909fd880c387","system_id":"levelo_inurba_marseille","lat":43.299683,"lon":5.413301,"is_reserved":false,"is_disabled":false,"rental_uris":{"android":"levelo://app?vid=82064778-37b9-438b-b376-909fd880c387","ios":"levelo://app?vid=82064778-37b9-438b-b376-909fd880c387"},"vehicle_type_id":"4","last_reported":1752380940,"current_range_meters":16800,"station_id":"ce4bhp12rcd13ifvqh9g","pricing_plan_id":"cebpf4jnsgd1na2vs0mg"},{"bike_id":"a7fd3005-9b39-4f05-9ec7-d00123ac98a3","system_id":"levelo_inurba_marseille","lat":43.26943,"lon":5.40271,"is_reserved":false,"is_disabled":false,"rental_uris":{"android":"levelo://app?vid=a7fd3005-9b39-4f05-9ec7-d00123ac98a3","ios":"levelo://app?vid=a7fd3005-9b39-4f05-9ec7-d00123ac98a3"},"vehicle_type_id":"4","last_reported":1752380940,"current_range_meters":16800,"station_id":"cjm6bp8fraef2m0cb0m0","pricing_plan_id":"cebpf4jnsgd1na2vs0mg"},{"bike_id":"c3be24d6-8ee5-4098-8dfe-da193de91428","system_id":"levelo_inurba_marseille","lat":43.295257,"lon":5.385403,"is_reserved":false,"is_disabled":false,"rental_uris":{"android":"levelo://app?vid=c3be24d6-8ee5-4098-8dfe-da193de91428","ios":"levelo://app?vid=c3be24d6-8ee5-4098-8dfe-da193de91428"},"vehicle_type_id":"4","last_reported":1752380940,"current_range_meters":16800,"station_id":"ce4bgih2rcd13ifvqba0","pricing_plan_id":"cebpf4jnsgd1na2vs0mg"},{"bike_id":"c3e3ac6f-9bdf-42be-94b7-108dfa8bf9d9","system_id":"levelo_inurba_marseille","lat":43.32481,"lon":5.3658,"is_reserved":false,"is_disabled":true,"rental_uris":{"android":"levelo://app?vid=c3e3ac6f-9bdf-42be-94b7-108dfa8bf9d9","ios":"levelo://app?vid=c3e3ac6f-9bdf-42be-94b7-108dfa8bf9d9"},"vehicle_type_id":"4","last_reported":1752380940,"current_range_meters":16800,"station_id":"ce4bhs12rcd13ifvqhvg","pricing_plan_id":"cebpf4jnsgd1na2vs0mg"},{"bike_id":"1bf2d551-15b1-424b-b262-5e53675978dc","system_id":"levelo_inurba_marseille","lat":43.310703,"lon":5.383442,"is_reserved":false,"is_disabled":false,"rental_uris":{"android":"levelo://app?vid=1bf2d551-15b1-424b-b262-5e53675978dc","ios":"levelo://app?vid=1bf2d551-15b1-424b-b262-5e53675978dc"},"vehicle_type_id":"4","last_reported":1752380940,"current_range_meters":16800,"station_id":"ce4bgv92rcd13ifvqcr0","pricing_plan_id":"cebpf4jnsgd1na2vs0mg"},{"bike_id":"84e0b044-5cbf-4d7f-9a9b-73b338352c1b","system_id":"levelo_inurba_marseille","lat":43.24159,"lon":5.39728,"is_reserved":false,"is_disabled":false,"rental_uris":{"android":"levelo://app?vid=84e0b044-5cbf-4d7f-9a9b-73b338352c1b","ios":"levelo://app?vid=84e0b044-5cbf-4d7f-9a9b-73b338352c1b"},"vehicle_type_id":"4","last_reported":1752380940,"current_range_meters":16800,"station_id":"ce4bhn12rcd13ifvqgpg","pricing_plan_id":"cebpf4jnsgd1na2vs0mg"},{"bike_id":"7a888645-4b0c-4379-98d8-380a5347b74c","system_id":"levelo_inurba_marseille","lat":43.27387,"lon":5.3626,"is_reserved":false,"is_disabled":true,"rental_uris":{"android":"levelo://app?vid=7a888645-4b0c-4379-98d8-380a5347b74c","ios":"levelo://app?vid=7a888645-4b0c-4379-98d8-380a5347b74c"},"vehicle_type_id":"4","last_reported":1752380940,"current_range_meters":17200,"station_id":"ce4bhbh2rcd13ifvqeo0","pricing_plan_id":"cebpf4jnsgd1na2vs0mg"},{"bike_id":"658da48e-808c-42cf-8658-300de37ba77a","system_id":"levelo_inurba_marseille","lat":43.26779,"lon":5.39426,"is_reserved":false,"is_disabled":false,"rental_uris":{"android":"levelo://app?vid=658da48e-808c-42cf-8658-300de37ba77a","ios":"levelo://app?vid=658da48e-808c-42cf-8658-300de37ba77a"},"vehicle_type_id":"4","last_reported":1752380940,"current_range_meters":17200,"station_id":"ce4bhh12rcd13ifvqfg0","pricing_plan_id":"cebpf4jnsgd1na2vs0mg"},{"bike_id":"63310cfb-531f-4741-8727-73a65cfd38d3","system_id":"levelo_inurba_marseille","lat":43.25582,"lon":5.38227,"is_reserved":false,"is_disabled":false,"rental_uris":{"android":"levelo://app?vid=63310cfb-531f-4741-8727-73a65cfd38d3","ios":"levelo://app?vid=63310cfb-531f-4741-8727-73a65cfd38d3"},"vehicle_type_id":"4","last_reported":1752380940,"current_range_meters":17200,"station_id":"ce4bhih2rcd13ifvqfs0","pricing_plan_id":"cebpf4jnsgd1na2vs0mg"},{"bike_id":"68c1f4f9-3dcb-4b8c-ad5e-327e4ca87863","system_id":"levelo_inurba_marseille","lat":43.259359,"lon":5.408972,"is_reserved":false,"is_disabled":false,"rental_uris":{"android":"levelo://app?vid=68c1f4f9-3dcb-4b8c-ad5e-327e4ca87863","ios":"levelo://app?vid=68c1f4f9-3dcb-4b8c-ad5e-327e4ca87863"},"vehicle_type_id":"4","last_reported":1752380940,"current_range_meters":17200,"station_id":"ce4bhm92rcd13ifvqglg","pricing_plan_id":"cebpf4jnsgd1na2vs0mg"},{"bike_id":"adfe8be3-1e95-4a39-ba2c-619c92879657","system_id":"levelo_inurba_marseille","lat":43.23181,"lon":5.39982,"is_reserved":false,"is_disabled":false,"rental_uris":{"android":"levelo://app?vid=adfe8be3-1e95-4a39-ba2c-619c92879657","ios":"levelo://app?vid=adfe8be3-1e95-4a39-ba2c-619c92879657"},"vehicle_type_id":"4","last_reported":1752380940,"current_range_meters":17200,"station_id":"ce4bhn12rcd13ifvqgqg","pricing_plan_id":"cebpf4jnsgd1na2vs0mg"},{"bike_id":"8f06a490-2171-40a2-adcb-3cd303151855","system_id":"levelo_inurba_marseille","lat":43.287049,"lon":5.39973,"is_reserved":false,"is_disabled":false,"rental_uris":{"android":"levelo://app?vid=8f06a490-2171-40a2-adcb-3cd303151855","ios":"levelo://app?vid=8f06a490-2171-40a2-adcb-3cd303151855"},"vehicle_type_id":"4","last_reported":1752380940,"current_range_meters":17200,"station_id":"ce4bho92rcd13ifvqh3g","pricing_plan_id":"cebpf4jnsgd1na2vs0mg"},{"bike_id":"2a70798a-94ea-48f1-80b7-5109f0e067eb","system_id":"levelo_inurba_marseille","lat":43.29539,"lon":5.42273,"is_reserved":false,"is_disabled":false,"rental_uris":{"android":"levelo://app?vid=2a70798a-94ea-48f1-80b7-5109f0e067eb","ios":"levelo://app?vid=2a70798a-94ea-48f1-80b7-5109f0e067eb"},"vehicle_type_id":"4","last_reported":1752380940,"current_range_meters":17600,"station_id":"ce4bhph2rcd13ifvqhdg","pricing_plan_id":"cebpf4jnsgd1na2vs0mg"},{"bike_id":"d9d63d91-160d-42d0-b9c6-42c216f308c7","system_id":"levelo_inurba_marseille","lat":43.30373,"lon":5.42481,"is_reserved":false,"is_disabled":false,"rental_uris":{"android":"levelo://app?vid=d9d63d91-160d-42d0-b9c6-42c216f308c7","ios":"levelo://app?vid=d9d63d91-160d-42d0-b9c6-42c216f308c7"},"vehicle_type_id":"4","last_reported":1752380940,"current_range_meters":17600,"station_id":"ce4bhoh2rcd13ifvqh6g","pricing_plan_id":"cebpf4jnsgd1na2vs0mg"},{"bike_id":"d9f5802f-b85b-44ac-bb5d-e411c0bdfd0f","system_id":"levelo_inurba_marseille","lat":43.241673,"lon":5.363943,"is_reserved":false,"is_disabled":false,"rental_uris":{"android":"levelo://app?vid=d9f5802f-b85b-44ac-bb5d-e411c0bdfd0f","ios":"levelo://app?vid=d9f5802f-b85b-44ac-bb5d-e411c0bdfd0f"},"vehicle_type_id":"4","last_reported":1752380940,"current_range_meters":17600,"station_id":"cpo36qri1sfpv3e86is0","pricing_plan_id":"cebpf4jnsgd1na2vs0mg"},{"bike_id":"d41d6708-f879-4883-a4b8-718b1a2c4ea2","system_id":"levelo_inurba_marseille","lat":43.30538,"lon":5.36542,"is_reserved":false,"is_disabled":false,"rental_uris":{"android":"levelo://app?vid=d41d6708-f879-4883-a4b8-718b1a2c4ea2","ios":"levelo://app?vid=d41d6708-f879-4883-a4b8-718b1a2c4ea2"},"vehicle_type_id":"4","last_reported":1752380940,"current_range_meters":17200,"station_id":"ce4bgs12rcd13ifvqcag","pricing_plan_id":"cebpf4jnsgd1na2vs0mg"},{"bike_id":"9bfc7d3d-4e60-4f8a-9c32-ef3d0e77ec5b","system_id":"levelo_inurba_marseille","lat":43.2119,"lon":5.35071,"is_reserved":false,"is_disabled":false,"rental_uris":{"android":"levelo://app?vid=9bfc7d3d-4e60-4f8a-9c32-ef3d0e77ec5b","ios":"levelo://app?vid=9bfc7d3d-4e60-4f8a-9c32-ef3d0e77ec5b"},"vehicle_type_id":"4","last_reported":1752380940,"current_range_meters":17600,"station_id":"st_cvj6sg6p6f1abm77japg","pricing_plan_id":"cebpf4jnsgd1na2vs0mg"},{"bike_id":"64748af8-28a3-4fb4-ae3a-6cf154d2bfa6","system_id":"levelo_inurba_marseille","lat":43.304398,"lon":5.388988,"is_reserved":false,"is_disabled":false,"rental_uris":{"android":"levelo://app?vid=64748af8-28a3-4fb4-ae3a-6cf154d2bfa6","ios":"levelo://app?vid=64748af8-28a3-4fb4-ae3a-6cf154d2bfa6"},"vehicle_type_id":"4","last_reported":1752380940,"current_range_meters":18000,"station_id":"ce4bgk12rcd13ifvqbi0","pricing_plan_id":"cebpf4jnsgd1na2vs0mg"},{"bike_id":"436e917a-7f3e-467e-946b-136c32e6f617","system_id":"levelo_inurba_marseille","lat":43.26226,"lon":5.40436,"is_reserved":false,"is_disabled":false,"rental_uris":{"android":"levelo://app?vid=436e917a-7f3e-467e-946b-136c32e6f617","ios":"levelo://app?vid=436e917a-7f3e-467e-946b-136c32e6f617"},"vehicle_type_id":"4","last_reported":1752380940,"current_range_meters":18000,"station_id":"ce4bhmh2rcd13ifvqgmg","pricing_plan_id":"cebpf4jnsgd1na2vs0mg"},{"bike_id":"cc6260c7-e588-42d7-afef-96c409802ccc","system_id":"levelo_inurba_marseille","lat":43.211924,"lon":5.350769,"is_reserved":false,"is_disabled":false,"rental_uris":{"android":"levelo://app?vid=cc6260c7-e588-42d7-afef-96c409802ccc","ios":"levelo://app?vid=cc6260c7-e588-42d7-afef-96c409802ccc"},"vehicle_type_id":"4","last_reported":1752380940,"current_range_meters":18000,"station_id":"st_cvj6sg6p6f1abm77japg","pricing_plan_id":"cebpf4jnsgd1na2vs0mg"},{"bike_id":"c95bb05a-1a8f-4087-af38-643604ab5c08","system_id":"levelo_inurba_marseille","lat":43.306563,"lon":5.400639,"is_reserved":false,"is_disabled":false,"rental_uris":{"android":"levelo://app?vid=c95bb05a-1a8f-4087-af38-643604ab5c08","ios":"levelo://app?vid=c95bb05a-1a8f-4087-af38-643604ab5c08"},"vehicle_type_id":"4","last_reported":1752380940,"current_range_meters":18000,"station_id":"ce4bh112rcd13ifvqda0","pricing_plan_id":"cebpf4jnsgd1na2vs0mg"},{"bike_id":"5c0448b2-8814-4934-b665-27ab2eac725a","system_id":"levelo_inurba_marseille","lat":43.26518,"lon":5.39531,"is_reserved":false,"is_disabled":false,"rental_uris":{"android":"levelo://app?vid=5c0448b2-8814-4934-b665-27ab2eac725a","ios":"levelo://app?vid=5c0448b2-8814-4934-b665-27ab2eac725a"},"vehicle_type_id":"4","last_reported":1752380940,"current_range_meters":18800,"station_id":"ce4bhi12rcd13ifvqfq0","pricing_plan_id":"cebpf4jnsgd1na2vs0mg"},{"bike_id":"7b60e2b3-fe60-4caf-8d3e-4c917054d448","system_id":"levelo_inurba_marseille","lat":43.28397,"lon":5.34933,"is_reserved":false,"is_disabled":true,"rental_uris":{"android":"levelo://app?vid=7b60e2b3-fe60-4caf-8d3e-4c917054d448","ios":"levelo://app?vid=7b60e2b3-fe60-4caf-8d3e-4c917054d448"},"vehicle_type_id":"4","last_reported":1752380940,"current_range_meters":18800,"station_id":"ce4bhbh2rcd13ifvqepg","pricing_plan_id":"cebpf4jnsgd1na2vs0mg"},{"bike_id":"711ac624-d408-4d62-a6b0-a60e4e9b3156","system_id":"levelo_inurba_marseille","lat":43.301385,"lon":5.374215,"is_reserved":false,"is_disabled":false,"rental_uris":{"android":"levelo://app?vid=711ac624-d408-4d62-a6b0-a60e4e9b3156","ios":"levelo://app?vid=711ac624-d408-4d62-a6b0-a60e4e9b3156"},"vehicle_type_id":"4","last_reported":1752380940,"current_range_meters":18800,"station_id":"ce4bgs92rcd13ifvqcc0","pricing_plan_id":"cebpf4jnsgd1na2vs0mg"},{"bike_id":"f5a47db5-6fb2-46bd-a2de-efa4ad13bf60","system_id":"levelo_inurba_marseille","lat":43.21193,"lon":5.3507,"is_reserved":false,"is_disabled":false,"rental_uris":{"android":"levelo://app?vid=f5a47db5-6fb2-46bd-a2de-efa4ad13bf60","ios":"levelo://app?vid=f5a47db5-6fb2-46bd-a2de-efa4ad13bf60"},"vehicle_type_id":"4","last_reported":1752380940,"current_range_meters":18800,"station_id":"st_cvj6sg6p6f1abm77japg","pricing_plan_id":"cebpf4jnsgd1na2vs0mg"},{"bike_id":"059a4775-c8b3-4965-854c-46db5bc514d2","system_id":"levelo_inurba_marseille","lat":43.28402,"lon":5.37494,"is_reserved":false,"is_disabled":false,"rental_uris":{"android":"levelo://app?vid=059a4775-c8b3-4965-854c-46db5bc514d2","ios":"levelo://app?vid=059a4775-c8b3-4965-854c-46db5bc514d2"},"vehicle_type_id":"4","last_reported":1752380940,"current_range_meters":18800,"station_id":"ce4bh412rcd13ifvqds0","pricing_plan_id":"cebpf4jnsgd1na2vs0mg"},{"bike_id":"58375fde-ca97-4dab-be52-59caf98323d3","system_id":"levelo_inurba_marseille","lat":43.26535,"lon":5.37275,"is_reserved":false,"is_disabled":true,"rental_uris":{"android":"levelo://app?vid=58375fde-ca97-4dab-be52-59caf98323d3","ios":"levelo://app?vid=58375fde-ca97-4dab-be52-59caf98323d3"},"vehicle_type_id":"4","last_reported":1752380940,"current_range_meters":18800,"station_id":"ce4bhg12rcd13ifvqf70","pricing_plan_id":"cebpf4jnsgd1na2vs0mg"},{"bike_id":"1aedaa42-1f03-48cc-8e38-d983e72f730b","system_id":"levelo_inurba_marseille","lat":43.27066,"lon":5.422802,"is_reserved":false,"is_disabled":false,"rental_uris":{"android":"levelo://app?vid=1aedaa42-1f03-48cc-8e38-d983e72f730b","ios":"levelo://app?vid=1aedaa42-1f03-48cc-8e38-d983e72f730b"},"vehicle_type_id":"4","last_reported":1752380940,"current_range_meters":18800,"station_id":"ce4bhk92rcd13ifvqgb0","pricing_plan_id":"cebpf4jnsgd1na2vs0mg"},{"bike_id":"7a1d3bc2-ba4d-41a9-9263-33a48d218fd8","system_id":"levelo_inurba_marseille","lat":43.28721,"lon":5.37928,"is_reserved":false,"is_disabled":false,"rental_uris":{"android":"levelo://app?vid=7a1d3bc2-ba4d-41a9-9263-33a48d218fd8","ios":"levelo://app?vid=7a1d3bc2-ba4d-41a9-9263-33a48d218fd8"},"vehicle_type_id":"4","last_reported":1752380940,"current_range_meters":18800,"station_id":"ce4bh9p2rcd13ifvqec0","pricing_plan_id":"cebpf4jnsgd1na2vs0mg"},{"bike_id":"ece9d047-dc12-4ce6-82bf-fc7ad56a230c","system_id":"levelo_inurba_marseille","lat":43.286207,"lon":5.351023,"is_reserved":false,"is_disabled":true,"rental_uris":{"android":"levelo://app?vid=ece9d047-dc12-4ce6-82bf-fc7ad56a230c","ios":"levelo://app?vid=ece9d047-dc12-4ce6-82bf-fc7ad56a230c"},"vehicle_type_id":"4","last_reported":1752380940,"current_range_meters":18800,"station_id":"ce4bhch2rcd13ifvqeug","pricing_plan_id":"cebpf4jnsgd1na2vs0mg"},{"bike_id":"7d80377e-8c8b-466d-b275-5356b99e3e43","system_id":"levelo_inurba_marseille","lat":43.24656,"lon":5.38884,"is_reserved":false,"is_disabled":false,"rental_uris":{"android":"levelo://app?vid=7d80377e-8c8b-466d-b275-5356b99e3e43","ios":"levelo://app?vid=7d80377e-8c8b-466d-b275-5356b99e3e43"},"vehicle_type_id":"4","last_reported":1752380940,"current_range_meters":18800,"station_id":"ce4bhg12rcd13ifvqf60","pricing_plan_id":"cebpf4jnsgd1na2vs0mg"},{"bike_id":"167d1527-2ad2-4064-bc00-8058a2aad6c0","system_id":"levelo_inurba_marseille","lat":43.290437,"lon":5.399523,"is_reserved":false,"is_disabled":false,"rental_uris":{"android":"levelo://app?vid=167d1527-2ad2-4064-bc00-8058a2aad6c0","ios":"levelo://app?vid=167d1527-2ad2-4064-bc00-8058a2aad6c0"},"vehicle_type_id":"4","last_reported":1752380940,"current_range_meters":18800,"station_id":"ce4bh392rcd13ifvqdm0","pricing_plan_id":"cebpf4jnsgd1na2vs0mg"},{"bike_id":"d438c437-0c60-41e5-a3d6-d73226271506","system_id":"levelo_inurba_marseille","lat":43.295629,"lon":5.42273,"is_reserved":false,"is_disabled":false,"rental_uris":{"android":"levelo://app?vid=d438c437-0c60-41e5-a3d6-d73226271506","ios":"levelo://app?vid=d438c437-0c60-41e5-a3d6-d73226271506"},"vehicle_type_id":"4","last_reported":1752380940,"current_range_meters":18800,"station_id":"ce4bhph2rcd13ifvqhdg","pricing_plan_id":"cebpf4jnsgd1na2vs0mg"},{"bike_id":"80f5a009-10c9-4601-9d57-401c329290ba","system_id":"levelo_inurba_marseille","lat":43.25939,"lon":5.409,"is_reserved":false,"is_disabled":false,"rental_uris":{"android":"levelo://app?vid=80f5a009-10c9-4601-9d57-401c329290ba","ios":"levelo://app?vid=80f5a009-10c9-4601-9d57-401c329290ba"},"vehicle_type_id":"4","last_reported":1752380940,"current_range_meters":19200,"station_id":"ce4bhm92rcd13ifvqglg","pricing_plan_id":"cebpf4jnsgd1na2vs0mg"},{"bike_id":"72afe63b-6210-4a4f-84d8-f623c45e8e34","system_id":"levelo_inurba_marseille","lat":43.30325,"lon":5.40436,"is_reserved":false,"is_disabled":false,"rental_uris":{"android":"levelo://app?vid=72afe63b-6210-4a4f-84d8-f623c45e8e34","ios":"levelo://app?vid=72afe63b-6210-4a4f-84d8-f623c45e8e34"},"vehicle_type_id":"4","last_reported":1752380940,"current_range_meters":19200,"station_id":"ce4bh012rcd13ifvqd10","pricing_plan_id":"cebpf4jnsgd1na2vs0mg"},{"bike_id":"91e36618-f857-45af-ac89-91d909da2db3","system_id":"levelo_inurba_marseille","lat":43.294186,"lon":5.386124,"is_reserved":false,"is_disabled":true,"rental_uris":{"android":"levelo://app?vid=91e36618-f857-45af-ac89-91d909da2db3","ios":"levelo://app?vid=91e36618-f857-45af-ac89-91d909da2db3"},"vehicle_type_id":"4","last_reported":1752380940,"current_range_meters":19200,"station_id":"ce4bh2h2rcd13ifvqdh0","pricing_plan_id":"cebpf4jnsgd1na2vs0mg"},{"bike_id":"2833d504-44eb-4559-9ba9-a31b5cf91da6","system_id":"levelo_inurba_marseille","lat":43.30297,"lon":5.40645,"is_reserved":false,"is_disabled":false,"rental_uris":{"android":"levelo://app?vid=2833d504-44eb-4559-9ba9-a31b5cf91da6","ios":"levelo://app?vid=2833d504-44eb-4559-9ba9-a31b5cf91da6"},"vehicle_type_id":"4","last_reported":1752380940,"current_range_meters":19200,"station_id":"","pricing_plan_id":"cebpf4jnsgd1na2vs0mg"},{"bike_id":"e91ced2f-2041-4b38-8446-0d5d97adec95","system_id":"levelo_inurba_marseille","lat":43.25585,"lon":5.38224,"is_reserved":false,"is_disabled":true,"rental_uris":{"android":"levelo://app?vid=e91ced2f-2041-4b38-8446-0d5d97adec95","ios":"levelo://app?vid=e91ced2f-2041-4b38-8446-0d5d97adec95"},"vehicle_type_id":"4","last_reported":1752380940,"current_range_meters":19200,"station_id":"ce4bhih2rcd13ifvqfs0","pricing_plan_id":"cebpf4jnsgd1na2vs0mg"},{"bike_id":"b053f929-7efb-49cd-9959-74ef096980bb","system_id":"levelo_inurba_marseille","lat":43.29267,"lon":5.36844,"is_reserved":false,"is_disabled":true,"rental_uris":{"android":"levelo://app?vid=b053f929-7efb-49cd-9959-74ef096980bb","ios":"levelo://app?vid=b053f929-7efb-49cd-9959-74ef096980bb"},"vehicle_type_id":"4","last_reported":1752380940,"current_range_meters":19200,"station_id":"ce4bhbp2rcd13ifvqesg","pricing_plan_id":"cebpf4jnsgd1na2vs0mg"},{"bike_id":"e37d8eb0-d581-401b-aee8-91d7dbcf27ad","system_id":"levelo_inurba_marseille","lat":43.2956,"lon":5.42287,"is_reserved":false,"is_disabled":false,"rental_uris":{"android":"levelo://app?vid=e37d8eb0-d581-401b-aee8-91d7dbcf27ad","ios":"levelo://app?vid=e37d8eb0-d581-401b-aee8-91d7dbcf27ad"},"vehicle_type_id":"4","last_reported":1752380940,"current_range_meters":19200,"station_id":"ce4bhph2rcd13ifvqhdg","pricing_plan_id":"cebpf4jnsgd1na2vs0mg"},{"bike_id":"fe318ad3-5569-488a-a55f-800be9072933","system_id":"levelo_inurba_marseille","lat":43.26944,"lon":5.40277,"is_reserved":false,"is_disabled":false,"rental_uris":{"android":"levelo://app?vid=fe318ad3-5569-488a-a55f-800be9072933","ios":"levelo://app?vid=fe318ad3-5569-488a-a55f-800be9072933"},"vehicle_type_id":"4","last_reported":1752380940,"current_range_meters":19200,"station_id":"cjm6bp8fraef2m0cb0m0","pricing_plan_id":"cebpf4jnsgd1na2vs0mg"},{"bike_id":"eab9f2a0-ee49-4110-a9bf-1b4a45ecb8f7","system_id":"levelo_inurba_marseille","lat":43.301487,"lon":5.381021,"is_reserved":false,"is_disabled":false,"rental_uris":{"android":"levelo://app?vid=eab9f2a0-ee49-4110-a9bf-1b4a45ecb8f7","ios":"levelo://app?vid=eab9f2a0-ee49-4110-a9bf-1b4a45ecb8f7"},"vehicle_type_id":"4","last_reported":1752380940,"current_range_meters":19200,"station_id":"ce4bgjp2rcd13ifvqbh0","pricing_plan_id":"cebpf4jnsgd1na2vs0mg"},{"bike_id":"c8c4de1a-846f-4f5b-aace-9fb14bf7ad52","system_id":"levelo_inurba_marseille","lat":43.211989,"lon":5.350718,"is_reserved":false,"is_disabled":false,"rental_uris":{"android":"levelo://app?vid=c8c4de1a-846f-4f5b-aace-9fb14bf7ad52","ios":"levelo://app?vid=c8c4de1a-846f-4f5b-aace-9fb14bf7ad52"},"vehicle_type_id":"4","last_reported":1752380940,"current_range_meters":19200,"station_id":"st_cvj6sg6p6f1abm77japg","pricing_plan_id":"cebpf4jnsgd1na2vs0mg"},{"bike_id":"2ec427da-b403-4a7e-86be-3f48ba535d18","system_id":"levelo_inurba_marseille","lat":43.212,"lon":5.35071,"is_reserved":false,"is_disabled":false,"rental_uris":{"android":"levelo://app?vid=2ec427da-b403-4a7e-86be-3f48ba535d18","ios":"levelo://app?vid=2ec427da-b403-4a7e-86be-3f48ba535d18"},"vehicle_type_id":"4","last_reported":1752380940,"current_range_meters":19600,"station_id":"st_cvj6sg6p6f1abm77japg","pricing_plan_id":"cebpf4jnsgd1na2vs0mg"},{"bike_id":"570cb15a-a61f-47fb-aaf3-b63fd97dbb24","system_id":"levelo_inurba_marseille","lat":43.296442,"lon":5.360038,"is_reserved":false,"is_disabled":false,"rental_uris":{"android":"levelo://app?vid=570cb15a-a61f-47fb-aaf3-b63fd97dbb24","ios":"levelo://app?vid=570cb15a-a61f-47fb-aaf3-b63fd97dbb24"},"vehicle_type_id":"4","last_reported":1752380940,"current_range_meters":19600,"station_id":"","pricing_plan_id":"cebpf4jnsgd1na2vs0mg"},{"bike_id":"65e074d9-7127-4e46-91d5-363b4db5691c","system_id":"levelo_inurba_marseille","lat":43.308943,"lon":5.371899,"is_reserved":false,"is_disabled":false,"rental_uris":{"android":"levelo://app?vid=65e074d9-7127-4e46-91d5-363b4db5691c","ios":"levelo://app?vid=65e074d9-7127-4e46-91d5-363b4db5691c"},"vehicle_type_id":"4","last_reported":1752380940,"current_range_meters":19600,"station_id":"ce4bguh2rcd13ifvqckg","pricing_plan_id":"cebpf4jnsgd1na2vs0mg"},{"bike_id":"6e8abcb7-d60f-4919-a941-ad2f8b2472db","system_id":"levelo_inurba_marseille","lat":43.30094,"lon":5.39079,"is_reserved":false,"is_disabled":false,"rental_uris":{"android":"levelo://app?vid=6e8abcb7-d60f-4919-a941-ad2f8b2472db","ios":"levelo://app?vid=6e8abcb7-d60f-4919-a941-ad2f8b2472db"},"vehicle_type_id":"4","last_reported":1752380940,"current_range_meters":19600,"station_id":"ce4bh192rcd13ifvqdb0","pricing_plan_id":"cebpf4jnsgd1na2vs0mg"},{"bike_id":"5c0fc7d8-43fe-4ade-9435-39a657901032","system_id":"levelo_inurba_marseille","lat":43.29278,"lon":5.40115,"is_reserved":false,"is_disabled":false,"rental_uris":{"android":"levelo://app?vid=5c0fc7d8-43fe-4ade-9435-39a657901032","ios":"levelo://app?vid=5c0fc7d8-43fe-4ade-9435-39a657901032"},"vehicle_type_id":"4","last_reported":1752380940,"current_range_meters":19600,"station_id":"ce4bh312rcd13ifvqdk0","pricing_plan_id":"cebpf4jnsgd1na2vs0mg"},{"bike_id":"f05c77c1-9d26-4d62-9955-34676584d058","system_id":"levelo_inurba_marseille","lat":43.28367,"lon":5.38638,"is_reserved":false,"is_disabled":false,"rental_uris":{"android":"levelo://app?vid=f05c77c1-9d26-4d62-9955-34676584d058","ios":"levelo://app?vid=f05c77c1-9d26-4d62-9955-34676584d058"},"vehicle_type_id":"4","last_reported":1752380940,"current_range_meters":19600,"station_id":"ce4bh492rcd13ifvqdvg","pricing_plan_id":"cebpf4jnsgd1na2vs0mg"},{"bike_id":"99ae43ef-9981-41ec-907c-f94f73cc9ad2","system_id":"levelo_inurba_marseille","lat":43.29985,"lon":5.38484,"is_reserved":false,"is_disabled":false,"rental_uris":{"android":"levelo://app?vid=99ae43ef-9981-41ec-907c-f94f73cc9ad2","ios":"levelo://app?vid=99ae43ef-9981-41ec-907c-f94f73cc9ad2"},"vehicle_type_id":"4","last_reported":1752380940,"current_range_meters":19600,"station_id":"ce4bgj92rcd13ifvqbd0","pricing_plan_id":"cebpf4jnsgd1na2vs0mg"},{"bike_id":"857f6de9-a79f-412b-aa41-c99eb4725cbb","system_id":"levelo_inurba_marseille","lat":43.299682,"lon":5.371762,"is_reserved":false,"is_disabled":false,"rental_uris":{"android":"levelo://app?vid=857f6de9-a79f-412b-aa41-c99eb4725cbb","ios":"levelo://app?vid=857f6de9-a79f-412b-aa41-c99eb4725cbb"},"vehicle_type_id":"4","last_reported":1752380940,"current_range_meters":20000,"station_id":"ce4bgr92rcd13ifvqc7g","pricing_plan_id":"cebpf4jnsgd1na2vs0mg"},{"bike_id":"10388035-8e57-4e34-8ec1-559555823a7c","system_id":"levelo_inurba_marseille","lat":43.31324,"lon":5.39686,"is_reserved":false,"is_disabled":false,"rental_uris":{"android":"levelo://app?vid=10388035-8e57-4e34-8ec1-559555823a7c","ios":"levelo://app?vid=10388035-8e57-4e34-8ec1-559555823a7c"},"vehicle_type_id":"4","last_reported":1752380940,"current_range_meters":20000,"station_id":"ce4bgvp2rcd13ifvqcu0","pricing_plan_id":"cebpf4jnsgd1na2vs0mg"},{"bike_id":"80955d0f-8669-4c02-b90f-c6fe20790c37","system_id":"levelo_inurba_marseille","lat":43.231986,"lon":5.350515,"is_reserved":false,"is_disabled":false,"rental_uris":{"android":"levelo://app?vid=80955d0f-8669-4c02-b90f-c6fe20790c37","ios":"levelo://app?vid=80955d0f-8669-4c02-b90f-c6fe20790c37"},"vehicle_type_id":"4","last_reported":1752380940,"current_range_meters":20000,"station_id":"","pricing_plan_id":"cebpf4jnsgd1na2vs0mg"},{"bike_id":"23a0fc67-4c39-4b74-8a86-2903d79b1606","system_id":"levelo_inurba_marseille","lat":43.23191,"lon":5.35548,"is_reserved":false,"is_disabled":true,"rental_uris":{"android":"levelo://app?vid=23a0fc67-4c39-4b74-8a86-2903d79b1606","ios":"levelo://app?vid=23a0fc67-4c39-4b74-8a86-2903d79b1606"},"vehicle_type_id":"4","last_reported":1752380940,"current_range_meters":20000,"station_id":"ce4bhu92rcd13ifvqi70","pricing_plan_id":"cebpf4jnsgd1na2vs0mg"},{"bike_id":"f7cf9aab-0ed3-4931-a48c-8d0743d0c0b9","system_id":"levelo_inurba_marseille","lat":43.229276,"lon":5.353688,"is_reserved":false,"is_disabled":true,"rental_uris":{"android":"levelo://app?vid=f7cf9aab-0ed3-4931-a48c-8d0743d0c0b9","ios":"levelo://app?vid=f7cf9aab-0ed3-4931-a48c-8d0743d0c0b9"},"vehicle_type_id":"4","last_reported":1752380940,"current_range_meters":20000,"station_id":"cpo3532slgdg3j2ikp40","pricing_plan_id":"cebpf4jnsgd1na2vs0mg"},{"bike_id":"52ae9bb1-702a-445d-838b-84d2e6dd7a13","system_id":"levelo_inurba_marseille","lat":43.26934,"lon":5.40246,"is_reserved":false,"is_disabled":false,"rental_uris":{"android":"levelo://app?vid=52ae9bb1-702a-445d-838b-84d2e6dd7a13","ios":"levelo://app?vid=52ae9bb1-702a-445d-838b-84d2e6dd7a13"},"vehicle_type_id":"4","last_reported":1752380940,"current_range_meters":20000,"station_id":"cjm6bp8fraef2m0cb0m0","pricing_plan_id":"cebpf4jnsgd1na2vs0mg"},{"bike_id":"11c1737e-f69c-4541-96a5-394601308243","system_id":"levelo_inurba_marseille","lat":43.298048,"lon":5.380964,"is_reserved":false,"is_disabled":false,"rental_uris":{"android":"levelo://app?vid=11c1737e-f69c-4541-96a5-394601308243","ios":"levelo://app?vid=11c1737e-f69c-4541-96a5-394601308243"},"vehicle_type_id":"4","last_reported":1752380940,"current_range_meters":20000,"station_id":"","pricing_plan_id":"cebpf4jnsgd1na2vs0mg"},{"bike_id":"530df890-2447-4898-8ed5-0529ed2390ee","system_id":"levelo_inurba_marseille","lat":43.29743,"lon":5.38295,"is_reserved":false,"is_disabled":false,"rental_uris":{"android":"levelo://app?vid=530df890-2447-4898-8ed5-0529ed2390ee","ios":"levelo://app?vid=530df890-2447-4898-8ed5-0529ed2390ee"},"vehicle_type_id":"4","last_reported":1752380940,"current_range_meters":20000,"station_id":"","pricing_plan_id":"cebpf4jnsgd1na2vs0mg"},{"bike_id":"648ff98c-ac31-4536-b256-2c7a56fb486a","system_id":"levelo_inurba_marseille","lat":43.292693,"lon":5.401158,"is_reserved":false,"is_disabled":false,"rental_uris":{"android":"levelo://app?vid=648ff98c-ac31-4536-b256-2c7a56fb486a","ios":"levelo://app?vid=648ff98c-ac31-4536-b256-2c7a56fb486a"},"vehicle_type_id":"4","last_reported":1752380940,"current_range_meters":20000,"station_id":"ce4bh312rcd13ifvqdk0","pricing_plan_id":"cebpf4jnsgd1na2vs0mg"},{"bike_id":"739a7d1e-b8bd-40e6-a868-924425df84cb","system_id":"levelo_inurba_marseille","lat":43.288463,"lon":5.358442,"is_reserved":false,"is_disabled":false,"rental_uris":{"android":"levelo://app?vid=739a7d1e-b8bd-40e6-a868-924425df84cb","ios":"levelo://app?vid=739a7d1e-b8bd-40e6-a868-924425df84cb"},"vehicle_type_id":"4","last_reported":1752380940,"current_range_meters":20000,"station_id":"ce4bhb12rcd13ifvqem0","pricing_plan_id":"cebpf4jnsgd1na2vs0mg"},{"bike_id":"697d5fc4-b988-4a4e-8323-c1ce5ed61a61","system_id":"levelo_inurba_marseille","lat":43.211903,"lon":5.350754,"is_reserved":false,"is_disabled":false,"rental_uris":{"android":"levelo://app?vid=697d5fc4-b988-4a4e-8323-c1ce5ed61a61","ios":"levelo://app?vid=697d5fc4-b988-4a4e-8323-c1ce5ed61a61"},"vehicle_type_id":"4","last_reported":1752380940,"current_range_meters":20400,"station_id":"st_cvj6sg6p6f1abm77japg","pricing_plan_id":"cebpf4jnsgd1na2vs0mg"},{"bike_id":"b3b271c8-a1a6-454d-b1a0-bb13645aeb85","system_id":"levelo_inurba_marseille","lat":43.30902,"lon":5.37213,"is_reserved":false,"is_disabled":false,"rental_uris":{"android":"levelo://app?vid=b3b271c8-a1a6-454d-b1a0-bb13645aeb85","ios":"levelo://app?vid=b3b271c8-a1a6-454d-b1a0-bb13645aeb85"},"vehicle_type_id":"4","last_reported":1752380940,"current_range_meters":20400,"station_id":"ce4bguh2rcd13ifvqckg","pricing_plan_id":"cebpf4jnsgd1na2vs0mg"},{"bike_id":"f59f6657-f62a-42fc-a273-bf50a25645d6","system_id":"levelo_inurba_marseille","lat":43.27367,"lon":5.36272,"is_reserved":false,"is_disabled":false,"rental_uris":{"android":"levelo://app?vid=f59f6657-f62a-42fc-a273-bf50a25645d6","ios":"levelo://app?vid=f59f6657-f62a-42fc-a273-bf50a25645d6"},"vehicle_type_id":"4","last_reported":1752380940,"current_range_meters":20400,"station_id":"ce4bhbh2rcd13ifvqeo0","pricing_plan_id":"cebpf4jnsgd1na2vs0mg"},{"bike_id":"a4d07f45-19f9-4df9-9728-be6623530a64","system_id":"levelo_inurba_marseille","lat":43.237125,"lon":5.388425,"is_reserved":false,"is_disabled":false,"rental_uris":{"android":"levelo://app?vid=a4d07f45-19f9-4df9-9728-be6623530a64","ios":"levelo://app?vid=a4d07f45-19f9-4df9-9728-be6623530a64"},"vehicle_type_id":"4","last_reported":1752380940,"current_range_meters":20400,"station_id":"","pricing_plan_id":"cebpf4jnsgd1na2vs0mg"},{"bike_id":"54d424af-2b24-4908-91d4-f18922ce037a","system_id":"levelo_inurba_marseille","lat":43.292565,"lon":5.400939,"is_reserved":false,"is_disabled":false,"rental_uris":{"android":"levelo://app?vid=54d424af-2b24-4908-91d4-f18922ce037a","ios":"levelo://app?vid=54d424af-2b24-4908-91d4-f18922ce037a"},"vehicle_type_id":"4","last_reported":1752380940,"current_range_meters":20400,"station_id":"ce4bgkh2rcd13ifvqbk0","pricing_plan_id":"cebpf4jnsgd1na2vs0mg"},{"bike_id":"e66ce31b-5bb2-4056-9cd1-34ed82c3f4d4","system_id":"levelo_inurba_marseille","lat":43.31327,"lon":5.39681,"is_reserved":false,"is_disabled":false,"rental_uris":{"android":"levelo://app?vid=e66ce31b-5bb2-4056-9cd1-34ed82c3f4d4","ios":"levelo://app?vid=e66ce31b-5bb2-4056-9cd1-34ed82c3f4d4"},"vehicle_type_id":"4","last_reported":1752380940,"current_range_meters":20400,"station_id":"ce4bgvp2rcd13ifvqcu0","pricing_plan_id":"cebpf4jnsgd1na2vs0mg"},{"bike_id":"bf67854a-fc75-4bbe-84b3-70a770694533","system_id":"levelo_inurba_marseille","lat":43.289499,"lon":5.396416,"is_reserved":false,"is_disabled":true,"rental_uris":{"android":"levelo://app?vid=bf67854a-fc75-4bbe-84b3-70a770694533","ios":"levelo://app?vid=bf67854a-fc75-4bbe-84b3-70a770694533"},"vehicle_type_id":"4","last_reported":1752380940,"current_range_meters":20400,"station_id":"ce4bh3h2rcd13ifvqdn0","pricing_plan_id":"cebpf4jnsgd1na2vs0mg"},{"bike_id":"d8d4cd6b-d88f-4cc5-971c-93348e88d768","system_id":"levelo_inurba_marseille","lat":43.321141,"lon":5.367791,"is_reserved":false,"is_disabled":false,"rental_uris":{"android":"levelo://app?vid=d8d4cd6b-d88f-4cc5-971c-93348e88d768","ios":"levelo://app?vid=d8d4cd6b-d88f-4cc5-971c-93348e88d768"},"vehicle_type_id":"4","last_reported":1752380940,"current_range_meters":20400,"station_id":"ce4bhrh2rcd13ifvqhug","pricing_plan_id":"cebpf4jnsgd1na2vs0mg"},{"bike_id":"2c3c99bf-cf32-4091-9c7c-1387631e831f","system_id":"levelo_inurba_marseille","lat":43.279139,"lon":5.395855,"is_reserved":false,"is_disabled":false,"rental_uris":{"android":"levelo://app?vid=2c3c99bf-cf32-4091-9c7c-1387631e831f","ios":"levelo://app?vid=2c3c99bf-cf32-4091-9c7c-1387631e831f"},"vehicle_type_id":"4","last_reported":1752380940,"current_range_meters":20400,"station_id":"ce4bhf92rcd13ifvqf40","pricing_plan_id":"cebpf4jnsgd1na2vs0mg"},{"bike_id":"64d6743c-68cd-4a23-8f33-57ae02add063","system_id":"levelo_inurba_marseille","lat":43.292698,"lon":5.40122,"is_reserved":false,"is_disabled":false,"rental_uris":{"android":"levelo://app?vid=64d6743c-68cd-4a23-8f33-57ae02add063","ios":"levelo://app?vid=64d6743c-68cd-4a23-8f33-57ae02add063"},"vehicle_type_id":"4","last_reported":1752380940,"current_range_meters":20800,"station_id":"ce4bh312rcd13ifvqdk0","pricing_plan_id":"cebpf4jnsgd1na2vs0mg"},{"bike_id":"176713d4-3162-4bfe-8de0-1f4e22d992f2","system_id":"levelo_inurba_marseille","lat":43.28614,"lon":5.35103,"is_reserved":false,"is_disabled":false,"rental_uris":{"android":"levelo://app?vid=176713d4-3162-4bfe-8de0-1f4e22d992f2","ios":"levelo://app?vid=176713d4-3162-4bfe-8de0-1f4e22d992f2"},"vehicle_type_id":"4","last_reported":1752380940,"current_range_meters":20800,"station_id":"ce4bhch2rcd13ifvqeug","pricing_plan_id":"cebpf4jnsgd1na2vs0mg"},{"bike_id":"f29f2573-3553-487f-8d2c-ef36506698ef","system_id":"levelo_inurba_marseille","lat":43.29561,"lon":5.42282,"is_reserved":false,"is_disabled":false,"rental_uris":{"android":"levelo://app?vid=f29f2573-3553-487f-8d2c-ef36506698ef","ios":"levelo://app?vid=f29f2573-3553-487f-8d2c-ef36506698ef"},"vehicle_type_id":"4","last_reported":1752380940,"current_range_meters":20800,"station_id":"ce4bhph2rcd13ifvqhdg","pricing_plan_id":"cebpf4jnsgd1na2vs0mg"},{"bike_id":"8a01e88a-8371-4085-9838-47ae11897cd3","system_id":"levelo_inurba_marseille","lat":43.28157,"lon":5.42634,"is_reserved":false,"is_disabled":true,"rental_uris":{"android":"levelo://app?vid=8a01e88a-8371-4085-9838-47ae11897cd3","ios":"levelo://app?vid=8a01e88a-8371-4085-9838-47ae11897cd3"},"vehicle_type_id":"4","last_reported":1752380940,"current_range_meters":20800,"station_id":"ce4bhnh2rcd13ifvqgug","pricing_plan_id":"cebpf4jnsgd1na2vs0mg"},{"bike_id":"2c8b55a0-7cee-45a1-85ed-4624a2d1076e","system_id":"levelo_inurba_marseille","lat":43.31325,"lon":5.39693,"is_reserved":false,"is_disabled":false,"rental_uris":{"android":"levelo://app?vid=2c8b55a0-7cee-45a1-85ed-4624a2d1076e","ios":"levelo://app?vid=2c8b55a0-7cee-45a1-85ed-4624a2d1076e"},"vehicle_type_id":"4","last_reported":1752380940,"current_range_meters":20800,"station_id":"ce4bgvp2rcd13ifvqcu0","pricing_plan_id":"cebpf4jnsgd1na2vs0mg"},{"bike_id":"cd1dc074-1520-46e8-b7fd-e848b7704436","system_id":"levelo_inurba_marseille","lat":43.25728,"lon":5.41096,"is_reserved":false,"is_disabled":false,"rental_uris":{"android":"levelo://app?vid=cd1dc074-1520-46e8-b7fd-e848b7704436","ios":"levelo://app?vid=cd1dc074-1520-46e8-b7fd-e848b7704436"},"vehicle_type_id":"4","last_reported":1752380940,"current_range_meters":21600,"station_id":"ce4bhkp2rcd13ifvqgd0","pricing_plan_id":"cebpf4jnsgd1na2vs0mg"},{"bike_id":"6ac174d4-75c5-4a9c-9699-97cd631c6e65","system_id":"levelo_inurba_marseille","lat":43.25456,"lon":5.39921,"is_reserved":false,"is_disabled":false,"rental_uris":{"android":"levelo://app?vid=6ac174d4-75c5-4a9c-9699-97cd631c6e65","ios":"levelo://app?vid=6ac174d4-75c5-4a9c-9699-97cd631c6e65"},"vehicle_type_id":"4","last_reported":1752380940,"current_range_meters":21600,"station_id":"","pricing_plan_id":"cebpf4jnsgd1na2vs0mg"},{"bike_id":"2d19d972-b2f8-4b7d-83b2-562b024f0784","system_id":"levelo_inurba_marseille","lat":43.29937,"lon":5.36557,"is_reserved":false,"is_disabled":false,"rental_uris":{"android":"levelo://app?vid=2d19d972-b2f8-4b7d-83b2-562b024f0784","ios":"levelo://app?vid=2d19d972-b2f8-4b7d-83b2-562b024f0784"},"vehicle_type_id":"4","last_reported":1752380940,"current_range_meters":21600,"station_id":"ce4bgm92rcd13ifvqbr0","pricing_plan_id":"cebpf4jnsgd1na2vs0mg"},{"bike_id":"3009a7b0-2e5f-4882-bb66-d836ff3a32e9","system_id":"levelo_inurba_marseille","lat":43.31118,"lon":5.37755,"is_reserved":false,"is_disabled":false,"rental_uris":{"android":"levelo://app?vid=3009a7b0-2e5f-4882-bb66-d836ff3a32e9","ios":"levelo://app?vid=3009a7b0-2e5f-4882-bb66-d836ff3a32e9"},"vehicle_type_id":"4","last_reported":1752380940,"current_range_meters":21600,"station_id":"ce4bgt92rcd13ifvqcg0","pricing_plan_id":"cebpf4jnsgd1na2vs0mg"},{"bike_id":"e4f60a7e-d35f-404e-924f-8496bc4bb84b","system_id":"levelo_inurba_marseille","lat":43.231817,"lon":5.399945,"is_reserved":false,"is_disabled":false,"rental_uris":{"android":"levelo://app?vid=e4f60a7e-d35f-404e-924f-8496bc4bb84b","ios":"levelo://app?vid=e4f60a7e-d35f-404e-924f-8496bc4bb84b"},"vehicle_type_id":"4","last_reported":1752380940,"current_range_meters":21600,"station_id":"ce4bhn12rcd13ifvqgqg","pricing_plan_id":"cebpf4jnsgd1na2vs0mg"},{"bike_id":"c56d404f-5949-4d6f-8fa1-6fcfbcb5fdfb","system_id":"levelo_inurba_marseille","lat":43.295637,"lon":5.422883,"is_reserved":false,"is_disabled":false,"rental_uris":{"android":"levelo://app?vid=c56d404f-5949-4d6f-8fa1-6fcfbcb5fdfb","ios":"levelo://app?vid=c56d404f-5949-4d6f-8fa1-6fcfbcb5fdfb"},"vehicle_type_id":"4","last_reported":1752380940,"current_range_meters":21600,"station_id":"ce4bhph2rcd13ifvqhdg","pricing_plan_id":"cebpf4jnsgd1na2vs0mg"},{"bike_id":"1f349fbf-3304-4549-b013-a7f8d2f36115","system_id":"levelo_inurba_marseille","lat":43.29904,"lon":5.43648,"is_reserved":false,"is_disabled":false,"rental_uris":{"android":"levelo://app?vid=1f349fbf-3304-4549-b013-a7f8d2f36115","ios":"levelo://app?vid=1f349fbf-3304-4549-b013-a7f8d2f36115"},"vehicle_type_id":"4","last_reported":1752380940,"current_range_meters":22000,"station_id":"ce4bhpp2rcd13ifvqhfg","pricing_plan_id":"cebpf4jnsgd1na2vs0mg"},