{"last_updated":1724004578,"ttl":30,"version":"2.2","data":{"bikes":[{"bike_id":"4d7fbd5b-5a4f-4475-82f1-d47a7b4a22f5","system_id":"levelo_inurba_marseille","lat":43.309076,"lon":5.368465,"is_reserved":false,"is_disabled":false,"rental_uris":{"android":"levelo://app?vid=4d7fbd5b-5a4f-4475-82f1-d47a7b4a22f5","ios":"levelo://app?vid=4d7fbd5b-5a4f-4475-82f1-d47a7b4a22f5"},"vehicle_type_id":"4","last_reported":1724004578,"current_range_meters":400,"station_id":"ce4bgn92rcd13ifvqbvg","pricing_plan_id":"cebpf4jnsgd1na2vs0mg"},{"bike_id":"219c2f4b-c115-4c7b-9592-afd4f5f975f5","system_id":"levelo_inurba_marseille","lat":43.31485,"lon":5.37303,"is_reserved":false,"is_disabled":false,"rental_uris":{"android":"levelo://app?vid=219c2f4b-c115-4c7b-9592-afd4f5f975f5","ios":"levelo://app?vid=219c2f4b-c115-4c7b-9592-afd4f5f975f5"},"vehicle_type_id":"4","last_reported":1724004578,"current_range_meters":27200,"station_id":"","pricing_plan_id":"cebpf4jnsgd1na2vs0mg"},{"bike_id":"2dd8d8fe-b6e7-4579-9fdf-0fdca1256416","system_id":"levelo_inurba_marseille","lat":43.314811,"lon":5.373103,"is_reserved":false,"is_disabled":false,"rental_uris":{"android":"levelo://app?vid=2dd8d8fe-b6e7-4579-9fdf-0fdca1256416","ios":"levelo://app?vid=2dd8d8fe-b6e7-4579-9fdf-0fdca1256416"},"vehicle_type_id":"4","last_reported":1724004578,"current_range_meters":25600,"station_id":"ce4bgt12rcd13ifvqcd0","pricing_plan_id":"cebpf4jnsgd1na2vs0mg"},{"bike_id":"badf54e2-c4f1-4587-a959-7085d25d730c","system_id":"levelo_inurba_marseille","lat":43.314811,"lon":5.373103,"is_reserved":false,"is_disabled":false,"rental_uris":{"android":"levelo://app?vid=badf54e2-c4f1-4587-a959-7085d25d730c","ios":"levelo://app?vid=badf54e2-c4f1-4587-a959-7085d25d730c"},"vehicle_type_id":"4","last_reported":1724004578,"current_range_meters":25200,"station_id":"ce4bgt12rcd13ifvqcd0","pricing_plan_id":"cebpf4jnsgd1na2vs0mg"},{"bike_id":"44c6588b-0915-451c-be78-be8e1f414188","system_id":"levelo_inurba_marseille","lat":43.309039,"lon":5.371797,"is_reserved":false,"is_disabled":false,"rental_uris":{"android":"levelo://app?vid=44c6588b-0915-451c-be78-be8e1f414188","ios":"levelo://app?vid=44c6588b-0915-451c-be78-be8e1f414188"},"vehicle_type_id":"4","last_reported":1724004578,"current_range_meters":31200,"station_id":"ce4bguh2rcd13ifvqckg","pricing_plan_id":"cebpf4jnsgd1na2vs0mg"},{"bike_id":"8214cfc2-f266-45ca-b152-8a89fc5cc1b5","system_id":"levelo_inurba_marseille","lat":43.312017,"lon":5.374053,"is_reserved":false,"is_disabled":false,"rental_uris":{"android":"levelo://app?vid=8214cfc2-f266-45ca-b152-8a89fc5cc1b5","ios":"levelo://app?vid=8214cfc2-f266-45ca-b152-8a89fc5cc1b5"},"vehicle_type_id":"4","last_reported":1724004578,"current_range_meters":10800,"station_id":"","pricing_plan_id":"cebpf4jnsgd1na2vs0mg"},{"bike_id":"9b517d61-5f8c-42e7-8f8e-df8343c614a0","system_id":"levelo_inurba_marseille","lat":43.315717,"lon":5.374463,"is_reserved":false,"is_disabled":false,"rental_uris":{"android":"levelo://app?vid=9b517d61-5f8c-42e7-8f8e-df8343c614a0","ios":"levelo://app?vid=9b517d61-5f8c-42e7-8f8e-df8343c614a0"},"vehicle_type_id":"4","last_reported":1724004578,"current_range_meters":0,"station_id":"","pricing_plan_id":"cebpf4jnsgd1na2vs0mg"},{"bike_id":"95b064bb-8504-4648-9cc2-ff74d2bff7aa","system_id":"levelo_inurba_marseille","lat":43.305368,"lon":5.367343,"is_reserved":false,"is_disabled":false,"rental_uris":{"android":"levelo://app?vid=95b064bb-8504-4648-9cc2-ff74d2bff7aa","ios":"levelo://app?vid=95b064bb-8504-4648-9cc2-ff74d2bff7aa"},"vehicle_type_id":"4","last_reported":1724004578,"current_range_meters":0,"station_id":"ce4bgrp2rcd13ifvqc9g","pricing_plan_id":"cebpf4jnsgd1na2vs0mg"},{"bike_id":"4e4217ab-6096-444f-a81e-7fba44c5e375","system_id":"levelo_inurba_marseille","lat":43.311131,"lon":5.377651,"is_reserved":false,"is_disabled":false,"rental_uris":{"android":"levelo://app?vid=4e4217ab-6096-444f-a81e-7fba44c5e375","ios":"levelo://app?vid=4e4217ab-6096-444f-a81e-7fba44c5e375"},"vehicle_type_id":"4","last_reported":1724004578,"current_range_meters":14000,"station_id":"ce4bgt92rcd13ifvqcg0","pricing_plan_id":"cebpf4jnsgd1na2vs0mg"},{"bike_id":"6eea554f-536b-4bfc-8f71-a7bc35bc2a70","system_id":"levelo_inurba_marseille","lat":43.30605,"lon":5.37222,"is_reserved":false,"is_disabled":false,"rental_uris":{"android":"levelo://app?vid=6eea554f-536b-4bfc-8f71-a7bc35bc2a70","ios":"levelo://app?vid=6eea554f-536b-4bfc-8f71-a7bc35bc2a70"},"vehicle_type_id":"4","last_reported":1724004578,"current_range_meters":21200,"station_id":"ce4bgqh2rcd13ifvqc4g","pricing_plan_id":"cebpf4jnsgd1na2vs0mg"},{"bike_id":"a057c2b3-7e53-4d6b-805b-6673633e2ddf","system_id":"levelo_inurba_marseille","lat":43.31657,"lon":5.3763,"is_reserved":false,"is_disabled":false,"rental_uris":{"android":"levelo://app?vid=a057c2b3-7e53-4d6b-805b-6673633e2ddf","ios":"levelo://app?vid=a057c2b3-7e53-4d6b-805b-6673633e2ddf"},"vehicle_type_id":"4","last_reported":1724004578,"current_range_meters":14000,"station_id":"","pricing_plan_id":"cebpf4jnsgd1na2vs0mg"},{"bike_id":"67775e09-a433-4d7a-a3f2-923738c27435","system_id":"levelo_inurba_marseille","lat":43.307945,"lon":5.376487,"is_reserved":false,"is_disabled":false,"rental_uris":{"android":"levelo://app?vid=67775e09-a433-4d7a-a3f2-923738c27435","ios":"levelo://app?vid=67775e09-a433-4d7a-a3f2-923738c27435"},"vehicle_type_id":"4","last_reported":1724004578,"current_range_meters":29600,"station_id":"ce4bgv92rcd13ifvqcq0","pricing_plan_id":"cebpf4jnsgd1na2vs0mg"},{"bike_id":"089613e0-9350-4a58-8312-5e474b82cda2","system_id":"levelo_inurba_marseille","lat":43.307945,"lon":5.376487,"is_reserved":false,"is_disabled":false,"rental_uris":{"android":"levelo://app?vid=089613e0-9350-4a58-8312-5e474b82cda2","ios":"levelo://app?vid=089613e0-9350-4a58-8312-5e474b82cda2"},"vehicle_type_id":"4","last_reported":1724004578,"current_range_meters":14800,"station_id":"ce4bgv92rcd13ifvqcq0","pricing_plan_id":"cebpf4jnsgd1na2vs0mg"},{"bike_id":"6f3b0fff-03c6-4bf2-bf94-008f2d7ba3a4","system_id":"levelo_inurba_marseille","lat":43.3137,"lon":5.3792,"is_reserved":false,"is_disabled":false,"rental_uris":{"android":"levelo://app?vid=6f3b0fff-03c6-4bf2-bf94-008f2d7ba3a4","ios":"levelo://app?vid=6f3b0fff-03c6-4bf2-bf94-008f2d7ba3a4"},"vehicle_type_id":"4","last_reported":1724004578,"current_range_meters":0,"station_id":"","pricing_plan_id":"cebpf4jnsgd1na2vs0mg"},{"bike_id":"de2577bc-8202-447d-973d-e5acedd0914a","system_id":"levelo_inurba_marseille","lat":43.30486,"lon":5.37324,"is_reserved":false,"is_disabled":false,"rental_uris":{"android":"levelo://app?vid=de2577bc-8202-447d-973d-e5acedd0914a","ios":"levelo://app?vid=de2577bc-8202-447d-973d-e5acedd0914a"},"vehicle_type_id":"4","last_reported":1724004578,"current_range_meters":7600,"station_id":"","pricing_plan_id":"cebpf4jnsgd1na2vs0mg"},{"bike_id":"5d7ba874-0e37-4f4b-a004-c3de6fdadef9","system_id":"levelo_inurba_marseille","lat":43.31525,"lon":5.3803,"is_reserved":false,"is_disabled":false,"rental_uris":{"android":"levelo://app?vid=5d7ba874-0e37-4f4b-a004-c3de6fdadef9","ios":"levelo://app?vid=5d7ba874-0e37-4f4b-a004-c3de6fdadef9"},"vehicle_type_id":"4","last_reported":1724004578,"current_range_meters":0,"station_id":"ce4bhsp2rcd13ifvqi50","pricing_plan_id":"cebpf4jnsgd1na2vs0mg"},{"bike_id":"6525aa52-816a-4c8e-ad78-f32505ccdfba","system_id":"levelo_inurba_marseille","lat":43.310276,"lon":5.380616,"is_reserved":false,"is_disabled":false,"rental_uris":{"android":"levelo://app?vid=6525aa52-816a-4c8e-ad78-f32505ccdfba","ios":"levelo://app?vid=6525aa52-816a-4c8e-ad78-f32505ccdfba"},"vehicle_type_id":"4","last_reported":1724004578,"current_range_meters":0,"station_id":"","pricing_plan_id":"cebpf4jnsgd1na2vs0mg"},{"bike_id":"1cb001a1-ac90-42f0-ac6e-a466b3377126","system_id":"levelo_inurba_marseille","lat":43.308012,"lon":5.381511,"is_reserved":false,"is_disabled":false,"rental_uris":{"android":"levelo://app?vid=1cb001a1-ac90-42f0-ac6e-a466b3377126","ios":"levelo://app?vid=1cb001a1-ac90-42f0-ac6e-a466b3377126"},"vehicle_type_id":"4","last_reported":1724004578,"current_range_meters":16400,"station_id":"ce4bgt12rcd13ifvqce0","pricing_plan_id":"cebpf4jnsgd1na2vs0mg"},{"bike_id":"64415511-eb1a-42f0-8890-6b8105450123","system_id":"levelo_inurba_marseille","lat":43.30888,"lon":5.38189,"is_reserved":false,"is_disabled":false,"rental_uris":{"android":"levelo://app?vid=64415511-eb1a-42f0-8890-6b8105450123","ios":"levelo://app?vid=64415511-eb1a-42f0-8890-6b8105450123"},"vehicle_type_id":"4","last_reported":1724004578,"current_range_meters":28400,"station_id":"","pricing_plan_id":"cebpf4jnsgd1na2vs0mg"},{"bike_id":"e5e93416-d65e-4c1b-bc13-1c4d7b18d064","system_id":"levelo_inurba_marseille","lat":43.308012,"lon":5.381511,"is_reserved":false,"is_disabled":false,"rental_uris":{"android":"levelo://app?vid=e5e93416-d65e-4c1b-bc13-1c4d7b18d064","ios":"levelo://app?vid=e5e93416-d65e-4c1b-bc13-1c4d7b18d064"},"vehicle_type_id":"4","last_reported":1724004578,"current_range_meters":1200,"station_id":"ce4bgt12rcd13ifvqce0","pricing_plan_id":"cebpf4jnsgd1na2vs0mg"},{"bike_id":"a8634bfa-8472-43d1-a294-5225a4bace94","system_id":"levelo_inurba_marseille","lat":43.308012,"lon":5.381511,"is_reserved":false,"is_disabled":false,"rental_uris":{"android":"levelo://app?vid=a8634bfa-8472-43d1-a294-5225a4bace94","ios":"levelo://app?vid=a8634bfa-8472-43d1-a294-5225a4bace94"},"vehicle_type_id":"4","last_reported":1724004578,"current_range_meters":17600,"station_id":"ce4bgt12rcd13ifvqce0","pricing_plan_id":"cebpf4jnsgd1na2vs0mg"},{"bike_id":"9efb0bdb-e3e7-498e-9a06-89ad1e02fe38","system_id":"levelo_inurba_marseille","lat":43.308012,"lon":5.381511,"is_reserved":false,"is_disabled":false,"rental_uris":{"android":"levelo://app?vid=9efb0bdb-e3e7-498e-9a06-89ad1e02fe38","ios":"levelo://app?vid=9efb0bdb-e3e7-498e-9a06-89ad1e02fe38"},"vehicle_type_id":"4","last_reported":1724004578,"current_range_meters":23200,"station_id":"ce4bgt12rcd13ifvqce0","pricing_plan_id":"cebpf4jnsgd1na2vs0mg"},{"bike_id":"23db8ace-bcc6-4917-8818-45a20daf2cf6","system_id":"levelo_inurba_marseille","lat":43.324751,"lon":5.365883,"is_reserved":false,"is_disabled":false,"rental_uris":{"android":"levelo://app?vid=23db8ace-bcc6-4917-8818-45a20daf2cf6","ios":"levelo://app?vid=23db8ace-bcc6-4917-8818-45a20daf2cf6"},"vehicle_type_id":"4","last_reported":1724004578,"current_range_meters":24800,"station_id":"ce4bhs12rcd13ifvqhvg","pricing_plan_id":"cebpf4jnsgd1na2vs0mg"},{"bike_id":"bf2444d8-6048-4f17-943c-fc2a13339ece","system_id":"levelo_inurba_marseille","lat":43.324771,"lon":5.36557,"is_reserved":false,"is_disabled":false,"rental_uris":{"android":"levelo://app?vid=bf2444d8-6048-4f17-943c-fc2a13339ece","ios":"levelo://app?vid=bf2444d8-6048-4f17-943c-fc2a13339ece"},"vehicle_type_id":"4","last_reported":1724004578,"current_range_meters":15600,"station_id":"ce4bhs12rcd13ifvqhvg","pricing_plan_id":"cebpf4jnsgd1na2vs0mg"},{"bike_id":"d016996d-3359-4a10-af45-08bb2d23f8b5","system_id":"levelo_inurba_marseille","lat":43.32477,"lon":5.36564,"is_reserved":false,"is_disabled":false,"rental_uris":{"android":"levelo://app?vid=d016996d-3359-4a10-af45-08bb2d23f8b5","ios":"levelo://app?vid=d016996d-3359-4a10-af45-08bb2d23f8b5"},"vehicle_type_id":"4","last_reported":1724004578,"current_range_meters":14800,"station_id":"ce4bhs12rcd13ifvqhvg","pricing_plan_id":"cebpf4jnsgd1na2vs0mg"},{"bike_id":"018f37f5-9c46-49c3-ac17-86750eb1896b","system_id":"levelo_inurba_marseille","lat":43.324771,"lon":5.36557,"is_reserved":false,"is_disabled":false,"rental_uris":{"android":"levelo://app?vid=018f37f5-9c46-49c3-ac17-86750eb1896b","ios":"levelo://app?vid=018f37f5-9c46-49c3-ac17-86750eb1896b"},"vehicle_type_id":"4","last_reported":1724004578,"current_range_meters":30800,"station_id":"ce4bhs12rcd13ifvqhvg","pricing_plan_id":"cebpf4jnsgd1na2vs0mg"},{"bike_id":"703b8608-92a3-4c87-8f90-58b9950ee574","system_id":"levelo_inurba_marseille","lat":43.32481,"lon":5.3656,"is_reserved":false,"is_disabled":false,"rental_uris":{"android":"levelo://app?vid=703b8608-92a3-4c87-8f90-58b9950ee574","ios":"levelo://app?vid=703b8608-92a3-4c87-8f90-58b9950ee574"},"vehicle_type_id":"4","last_reported":1724004578,"current_range_meters":5200,"station_id":"ce4bhs12rcd13ifvqhvg","pricing_plan_id":"cebpf4jnsgd1na2vs0mg"},{"bike_id":"47b41a5a-365e-4f2e-b49d-5acaf487f121","system_id":"levelo_inurba_marseille","lat":43.324771,"lon":5.36557,"is_reserved":false,"is_disabled":false,"rental_uris":{"android":"levelo://app?vid=47b41a5a-365e-4f2e-b49d-5acaf487f121","ios":"levelo://app?vid=47b41a5a-365e-4f2e-b49d-5acaf487f121"},"vehicle_type_id":"4","last_reported":1724004578,"current_range_meters":16400,"station_id":"ce4bhs12rcd13ifvqhvg","pricing_plan_id":"cebpf4jnsgd1na2vs0mg"},{"bike_id":"ac0bd178-ec6e-435c-a3e6-f8184d37594b","system_id":"levelo_inurba_marseille","lat":43.324771,"lon":5.36557,"is_reserved":false,"is_disabled":false,"rental_uris":{"android":"levelo://app?vid=ac0bd178-ec6e-435c-a3e6-f8184d37594b","ios":"levelo://app?vid=ac0bd178-ec6e-435c-a3e6-f8184d37594b"},"vehicle_type_id":"4","last_reported":1724004578,"current_range_meters":26800,"station_id":"ce4bhs12rcd13ifvqhvg","pricing_plan_id":"cebpf4jnsgd1na2vs0mg"},{"bike_id":"d3631bf2-be53-4b78-abf0-2de090db8946","system_id":"levelo_inurba_marseille","lat":43.324771,"lon":5.36557,"is_reserved":false,"is_disabled":false,"rental_uris":{"android":"levelo://app?vid=d3631bf2-be53-4b78-abf0-2de090db8946","ios":"levelo://app?vid=d3631bf2-be53-4b78-abf0-2de090db8946"},"vehicle_type_id":"4","last_reported":1724004578,"current_range_meters":31200,"station_id":"ce4bhs12rcd13ifvqhvg","pricing_plan_id":"cebpf4jnsgd1na2vs0mg"},{"bike_id":"a1e35c53-d7d1-42ae-a1ec-7b3cbe91df91","system_id":"levelo_inurba_marseille","lat":43.324771,"lon":5.36557,"is_reserved":false,"is_disabled":false,"rental_uris":{"android":"levelo://app?vid=a1e35c53-d7d1-42ae-a1ec-7b3cbe91df91","ios":"levelo://app?vid=a1e35c53-d7d1-42ae-a1ec-7b3cbe91df91"},"vehicle_type_id":"4","last_reported":1724004578,"current_range_meters":0,"station_id":"ce4bhs12rcd13ifvqhvg","pricing_plan_id":"cebpf4jnsgd1na2vs0mg"},{"bike_id":"f80e23e2-3280-42d9-ad5e-59f730739215","system_id":"levelo_inurba_marseille","lat":43.310804,"lon":5.38359,"is_reserved":false,"is_disabled":false,"rental_uris":{"android":"levelo://app?vid=f80e23e2-3280-42d9-ad5e-59f730739215","ios":"levelo://app?vid=f80e23e2-3280-42d9-ad5e-59f730739215"},"vehicle_type_id":"4","last_reported":1724004578,"current_range_meters":12000,"station_id":"ce4bgv92rcd13ifvqcr0","pricing_plan_id":"cebpf4jnsgd1na2vs0mg"},{"bike_id":"0c62d079-54eb-470f-b291-cc677c85c781","system_id":"levelo_inurba_marseille","lat":43.310804,"lon":5.38359,"is_reserved":false,"is_disabled":false,"rental_uris":{"android":"levelo://app?vid=0c62d079-54eb-470f-b291-cc677c85c781","ios":"levelo://app?vid=0c62d079-54eb-470f-b291-cc677c85c781"},"vehicle_type_id":"4","last_reported":1724004578,"current_range_meters":5600,"station_id":"ce4bgv92rcd13ifvqcr0","pricing_plan_id":"cebpf4jnsgd1na2vs0mg"},{"bike_id":"ccc770a6-0b2b-483e-b72b-94c47284707f","system_id":"levelo_inurba_marseille","lat":43.310804,"lon":5.38359,"is_reserved":false,"is_disabled":false,"rental_uris":{"android":"levelo://app?vid=ccc770a6-0b2b-483e-b72b-94c47284707f","ios":"levelo://app?vid=ccc770a6-0b2b-483e-b72b-94c47284707f"},"vehicle_type_id":"4","last_reported":1724004578,"current_range_meters":31200,"station_id":"ce4bgv92rcd13ifvqcr0","pricing_plan_id":"cebpf4jnsgd1na2vs0mg"},{"bike_id":"ad20047b-d946-477a-b876-03c7b9af0843","system_id":"levelo_inurba_marseille","lat":43.310804,"lon":5.38359,"is_reserved":false,"is_disabled":false,"rental_uris":{"android":"levelo://app?vid=ad20047b-d946-477a-b876-03c7b9af0843","ios":"levelo://app?vid=ad20047b-d946-477a-b876-03c7b9af0843"},"vehicle_type_id":"4","last_reported":1724004578,"current_range_meters":13200,"station_id":"ce4bgv92rcd13ifvqcr0","pricing_plan_id":"cebpf4jnsgd1na2vs0mg"},{"bike_id":"15ae4734-1c2c-4576-be99-32e704b2bea2","system_id":"levelo_inurba_marseille","lat":43.310804,"lon":5.38359,"is_reserved":false,"is_disabled":false,"rental_uris":{"android":"levelo://app?vid=15ae4734-1c2c-4576-be99-32e704b2bea2","ios":"levelo://app?vid=15ae4734-1c2c-4576-be99-32e704b2bea2"},"vehicle_type_id":"4","last_reported":1724004578,"current_range_meters":0,"station_id":"ce4bgv92rcd13ifvqcr0","pricing_plan_id":"cebpf4jnsgd1na2vs0mg"},{"bike_id":"ecc876e1-5eaf-4b65-89c4-8afe708505a6","system_id":"levelo_inurba_marseille","lat":43.310804,"lon":5.38359,"is_reserved":false,"is_disabled":false,"rental_uris":{"android":"levelo://app?vid=ecc876e1-5eaf-4b65-89c4-8afe708505a6","ios":"levelo://app?vid=ecc876e1-5eaf-4b65-89c4-8afe708505a6"},"vehicle_type_id":"4","last_reported":1724004578,"current_range_meters":4800,"station_id":"ce4bgv92rcd13ifvqcr0","pricing_plan_id":"cebpf4jnsgd1na2vs0mg"},{"bike_id":"1aad0b06-ad54-4974-b394-07a1d469f870","system_id":"levelo_inurba_marseille","lat":43.310696,"lon":5.383632,"is_reserved":false,"is_disabled":false,"rental_uris":{"android":"levelo://app?vid=1aad0b06-ad54-4974-b394-07a1d469f870","ios":"levelo://app?vid=1aad0b06-ad54-4974-b394-07a1d469f870"},"vehicle_type_id":"4","last_reported":1724004578,"current_range_meters":1600,"station_id":"","pricing_plan_id":"cebpf4jnsgd1na2vs0mg"},{"bike_id":"472d38a7-b631-48c9-82ce-fe8c75370ef6","system_id":"levelo_inurba_marseille","lat":43.301429,"lon":5.37413,"is_reserved":false,"is_disabled":false,"rental_uris":{"android":"levelo://app?vid=472d38a7-b631-48c9-82ce-fe8c75370ef6","ios":"levelo://app?vid=472d38a7-b631-48c9-82ce-fe8c75370ef6"},"vehicle_type_id":"4","last_reported":1724004578,"current_range_meters":18400,"station_id":"ce4bgs92rcd13ifvqcc0","pricing_plan_id":"cebpf4jnsgd1na2vs0mg"},{"bike_id":"b96963fa-ad27-4b4e-b575-e26ac893e37f","system_id":"levelo_inurba_marseille","lat":43.30143,"lon":5.37413,"is_reserved":false,"is_disabled":false,"rental_uris":{"android":"levelo://app?vid=b96963fa-ad27-4b4e-b575-e26ac893e37f","ios":"levelo://app?vid=b96963fa-ad27-4b4e-b575-e26ac893e37f"},"vehicle_type_id":"4","last_reported":1724004578,"current_range_meters":11600,"station_id":"ce4bgs92rcd13ifvqcc0","pricing_plan_id":"cebpf4jnsgd1na2vs0mg"},{"bike_id":"15d6e31d-bb70-4690-a0ac-b1161d896f8a","system_id":"levelo_inurba_marseille","lat":43.30138,"lon":5.37425,"is_reserved":false,"is_disabled":false,"rental_uris":{"android":"levelo://app?vid=15d6e31d-bb70-4690-a0ac-b1161d896f8a","ios":"levelo://app?vid=15d6e31d-bb70-4690-a0ac-b1161d896f8a"},"vehicle_type_id":"4","last_reported":1724004578,"current_range_meters":2000,"station_id":"ce4bgs92rcd13ifvqcc0","pricing_plan_id":"cebpf4jnsgd1na2vs0mg"},{"bike_id":"12f24074-b3ed-4294-9712-3012f3f35e88","system_id":"levelo_inurba_marseille","lat":43.30578,"lon":5.38174,"is_reserved":false,"is_disabled":false,"rental_uris":{"android":"levelo://app?vid=12f24074-b3ed-4294-9712-3012f3f35e88","ios":"levelo://app?vid=12f24074-b3ed-4294-9712-3012f3f35e88"},"vehicle_type_id":"4","last_reported":1724004578,"current_range_meters":6800,"station_id":"","pricing_plan_id":"cebpf4jnsgd1na2vs0mg"},{"bike_id":"a6430c9e-6d87-4467-95d2-cb55c4503ee7","system_id":"levelo_inurba_marseille","lat":43.313571,"lon":5.384829,"is_reserved":false,"is_disabled":false,"rental_uris":{"android":"levelo://app?vid=a6430c9e-6d87-4467-95d2-cb55c4503ee7","ios":"levelo://app?vid=a6430c9e-6d87-4467-95d2-cb55c4503ee7"},"vehicle_type_id":"4","last_reported":1724004578,"current_range_meters":9600,"station_id":"ce4bgt92rcd13ifvqcf0","pricing_plan_id":"cebpf4jnsgd1na2vs0mg"},{"bike_id":"d968b6fa-65e8-433d-a161-8c9b61eb353a","system_id":"levelo_inurba_marseille","lat":43.29977,"lon":5.3718,"is_reserved":false,"is_disabled":false,"rental_uris":{"android":"levelo://app?vid=d968b6fa-65e8-433d-a161-8c9b61eb353a","ios":"levelo://app?vid=d968b6fa-65e8-433d-a161-8c9b61eb353a"},"vehicle_type_id":"4","last_reported":1724004578,"current_range_meters":0,"station_id":"ce4bgr92rcd13ifvqc7g","pricing_plan_id":"cebpf4jnsgd1na2vs0mg"},{"bike_id":"966b4420-82c8-4463-807c-ee3d7f1395ea","system_id":"levelo_inurba_marseille","lat":43.299222,"lon":5.365554,"is_reserved":false,"is_disabled":false,"rental_uris":{"android":"levelo://app?vid=966b4420-82c8-4463-807c-ee3d7f1395ea","ios":"levelo://app?vid=966b4420-82c8-4463-807c-ee3d7f1395ea"},"vehicle_type_id":"4","last_reported":1724004578,"current_range_meters":21200,"station_id":"ce4bgm92rcd13ifvqbr0","pricing_plan_id":"cebpf4jnsgd1na2vs0mg"},{"bike_id":"2504c46a-457e-4bbd-9180-acb667ad6b4e","system_id":"levelo_inurba_marseille","lat":43.311722,"lon":5.387247,"is_reserved":false,"is_disabled":false,"rental_uris":{"android":"levelo://app?vid=2504c46a-457e-4bbd-9180-acb667ad6b4e","ios":"levelo://app?vid=2504c46a-457e-4bbd-9180-acb667ad6b4e"},"vehicle_type_id":"4","last_reported":1724004578,"current_range_meters":13600,"station_id":"ce4bgv12rcd13ifvqcp0","pricing_plan_id":"cebpf4jnsgd1na2vs0mg"},{"bike_id":"2e7916c5-4bc6-4a9b-9772-9aad2631dd79","system_id":"levelo_inurba_marseille","lat":43.299243,"lon":5.374807,"is_reserved":false,"is_disabled":false,"rental_uris":{"android":"levelo://app?vid=2e7916c5-4bc6-4a9b-9772-9aad2631dd79","ios":"levelo://app?vid=2e7916c5-4bc6-4a9b-9772-9aad2631dd79"},"vehicle_type_id":"4","last_reported":1724004578,"current_range_meters":8000,"station_id":"ce4bgjh2rcd13ifvqbg0","pricing_plan_id":"cebpf4jnsgd1na2vs0mg"},{"bike_id":"d23b99a6-e7ae-4035-8306-c56ad5bdf642","system_id":"levelo_inurba_marseille","lat":43.311722,"lon":5.387247,"is_reserved":false,"is_disabled":false,"rental_uris":{"android":"levelo://app?vid=d23b99a6-e7ae-4035-8306-c56ad5bdf642","ios":"levelo://app?vid=d23b99a6-e7ae-4035-8306-c56ad5bdf642"},"vehicle_type_id":"4","last_reported":1724004578,"current_range_meters":6800,"station_id":"ce4bgv12rcd13ifvqcp0","pricing_plan_id":"cebpf4jnsgd1na2vs0mg"},{"bike_id":"61d1eb09-5717-4164-a93d-a18fb36f5b09","system_id":"levelo_inurba_marseille","lat":43.29788,"lon":5.37105,"is_reserved":false,"is_disabled":false,"rental_uris":{"android":"levelo://app?vid=61d1eb09-5717-4164-a93d-a18fb36f5b09","ios":"levelo://app?vid=61d1eb09-5717-4164-a93d-a18fb36f5b09"},"vehicle_type_id":"4","last_reported":1724004578,"current_range_meters":0,"station_id":"ce4bgop2rcd13ifvqc1g","pricing_plan_id":"cebpf4jnsgd1na2vs0mg"},{"bike_id":"515f104a-124a-4080-a11b-3ff32a11fadf","system_id":"levelo_inurba_marseille","lat":43.32288,"lon":5.38269,"is_reserved":false,"is_disabled":false,"rental_uris":{"android":"levelo://app?vid=515f104a-124a-4080-a11b-3ff32a11fadf","ios":"levelo://app?vid=515f104a-124a-4080-a11b-3ff32a11fadf"},"vehicle_type_id":"4","last_reported":1724004578,"current_range_meters":18000,"station_id":"ce4bhr12rcd13ifvqhqg","pricing_plan_id":"cebpf4jnsgd1na2vs0mg"},{"bike_id":"b9219f2f-1c94-4bf1-9c5e-a1ddf0def11a","system_id":"levelo_inurba_marseille","lat":43.297317,"lon":5.368836,"is_reserved":false,"is_disabled":false,"rental_uris":{"android":"levelo://app?vid=b9219f2f-1c94-4bf1-9c5e-a1ddf0def11a","ios":"levelo://app?vid=b9219f2f-1c94-4bf1-9c5e-a1ddf0def11a"},"vehicle_type_id":"4","last_reported":1724004578,"current_range_meters":21600,"station_id":"","pricing_plan_id":"cebpf4jnsgd1na2vs0mg"},{"bike_id":"0d9b9b39-3f68-4cdc-aec5-7bbec061e213","system_id":"levelo_inurba_marseille","lat":43.297163,"lon":5.365866,"is_reserved":false,"is_disabled":false,"rental_uris":{"android":"levelo://app?vid=0d9b9b39-3f68-4cdc-aec5-7bbec061e213","ios":"levelo://app?vid=0d9b9b39-3f68-4cdc-aec5-7bbec061e213"},"vehicle_type_id":"4","last_reported":1724004578,"current_range_meters":23200,"station_id":"ce4bgn12rcd13ifvqbt0","pricing_plan_id":"cebpf4jnsgd1na2vs0mg"},{"bike_id":"1e7da78e-984c-4832-ac03-06e72ff6a132","system_id":"levelo_inurba_marseille","lat":43.2968,"lon":5.37291,"is_reserved":false,"is_disabled":false,"rental_uris":{"android":"levelo://app?vid=1e7da78e-984c-4832-ac03-06e72ff6a132","ios":"levelo://app?vid=1e7da78e-984c-4832-ac03-06e72ff6a132"},"vehicle_type_id":"4","last_reported":1724004578,"current_range_meters":0,"station_id":"ce4bgk12rcd13ifvqbj0","pricing_plan_id":"cebpf4jnsgd1na2vs0mg"},{"bike_id":"f164e0c0-92e3-4bf8-9930-b0ed090809d9","system_id":"levelo_inurba_marseille","lat":43.296131,"lon":5.370791,"is_reserved":false,"is_disabled":false,"rental_uris":{"android":"levelo://app?vid=f164e0c0-92e3-4bf8-9930-b0ed090809d9","ios":"levelo://app?vid=f164e0c0-92e3-4bf8-9930-b0ed090809d9"},"vehicle_type_id":"4","last_reported":1724004578,"current_range_meters":24800,"station_id":"ce4bgnh2rcd13ifvqc0g","pricing_plan_id":"cebpf4jnsgd1na2vs0mg"},{"bike_id":"113ae283-4d2e-4b4d-bb8c-bb43994dbdee","system_id":"levelo_inurba_marseille","lat":43.29619,"lon":5.37147,"is_reserved":false,"is_disabled":false,"rental_uris":{"android":"levelo://app?vid=113ae283-4d2e-4b4d-bb8c-bb43994dbdee","ios":"levelo://app?vid=113ae283-4d2e-4b4d-bb8c-bb43994dbdee"},"vehicle_type_id":"4","last_reported":1724004578,"current_range_meters":0,"station_id":"ce4bgnh2rcd13ifvqc0g","pricing_plan_id":"cebpf4jnsgd1na2vs0mg"},{"bike_id":"6503cc8f-08ff-46a4-be51-e5273cc7f04d","system_id":"levelo_inurba_marseille","lat":43.296131,"lon":5.370773,"is_reserved":false,"is_disabled":false,"rental_uris":{"android":"levelo://app?vid=6503cc8f-08ff-46a4-be51-e5273cc7f04d","ios":"levelo://app?vid=6503cc8f-08ff-46a4-be51-e5273cc7f04d"},"vehicle_type_id":"4","last_reported":1724004578,"current_range_meters":18400,"station_id":"ce4bgnh2rcd13ifvqc0g","pricing_plan_id":"cebpf4jnsgd1na2vs0mg"},{"bike_id":"ea942dd5-9612-402a-a0bd-adffa30afa0b","system_id":"levelo_inurba_marseille","lat":43.296131,"lon":5.370773,"is_reserved":false,"is_disabled":false,"rental_uris":{"android":"levelo://app?vid=ea942dd5-9612-402a-a0bd-adffa30afa0b","ios":"levelo://app?vid=ea942dd5-9612-402a-a0bd-adffa30afa0b"},"vehicle_type_id":"4","last_reported":1724004578,"current_range_meters":17200,"station_id":"ce4bgnh2rcd13ifvqc0g","pricing_plan_id":"cebpf4jnsgd1na2vs0mg"},{"bike_id":"ad9f15b0-ac32-456c-befe-58fadda49103","system_id":"levelo_inurba_marseille","lat":43.29581,"lon":5.36731,"is_reserved":false,"is_disabled":false,"rental_uris":{"android":"levelo://app?vid=ad9f15b0-ac32-456c-befe-58fadda49103","ios":"levelo://app?vid=ad9f15b0-ac32-456c-befe-58fadda49103"},"vehicle_type_id":"4","last_reported":1724004578,"current_range_meters":0,"station_id":"ce4bgph2rcd13ifvqc2g","pricing_plan_id":"cebpf4jnsgd1na2vs0mg"},{"bike_id":"67f09f1b-a055-450e-bc99-aec1b1178c47","system_id":"levelo_inurba_marseille","lat":43.29573,"lon":5.367355,"is_reserved":false,"is_disabled":false,"rental_uris":{"android":"levelo://app?vid=67f09f1b-a055-450e-bc99-aec1b1178c47","ios":"levelo://app?vid=67f09f1b-a055-450e-bc99-aec1b1178c47"},"vehicle_type_id":"4","last_reported":1724004578,"current_range_meters":2400,"station_id":"ce4bgph2rcd13ifvqc2g","pricing_plan_id":"cebpf4jnsgd1na2vs0mg"},{"bike_id":"baec8738-a08b-4028-a79b-89b06bb42ccd","system_id":"levelo_inurba_marseille","lat":43.29573,"lon":5.367355,"is_reserved":false,"is_disabled":false,"rental_uris":{"android":"levelo://app?vid=baec8738-a08b-4028-a79b-89b06bb42ccd","ios":"levelo://app?vid=baec8738-a08b-4028-a79b-89b06bb42ccd"},"vehicle_type_id":"4","last_reported":1724004578,"current_range_meters":24400,"station_id":"ce4bgph2rcd13ifvqc2g","pricing_plan_id":"cebpf4jnsgd1na2vs0mg"},{"bike_id":"e5fd0ea9-a3e4-44b8-bdcc-2a3290fbf736","system_id":"levelo_inurba_marseille","lat":43.299028,"lon":5.381509,"is_reserved":false,"is_disabled":false,"rental_uris":{"android":"levelo://app?vid=e5fd0ea9-a3e4-44b8-bdcc-2a3290fbf736","ios":"levelo://app?vid=e5fd0ea9-a3e4-44b8-bdcc-2a3290fbf736"},"vehicle_type_id":"4","last_reported":1724004578,"current_range_meters":3200,"station_id":"ce4bgj12rcd13ifvqbc0","pricing_plan_id":"cebpf4jnsgd1na2vs0mg"},{"bike_id":"b3b8be87-6e38-45a6-b98b-7e03be2c5c32","system_id":"levelo_inurba_marseille","lat":43.32228,"lon":5.38656,"is_reserved":false,"is_disabled":false,"rental_uris":{"android":"levelo://app?vid=b3b8be87-6e38-45a6-b98b-7e03be2c5c32","ios":"levelo://app?vid=b3b8be87-6e38-45a6-b98b-7e03be2c5c32"},"vehicle_type_id":"4","last_reported":1724004578,"current_range_meters":1200,"station_id":"","pricing_plan_id":"cebpf4jnsgd1na2vs0mg"},{"bike_id":"af791b6f-98fb-4250-8b95-4821f27d09dc","system_id":"levelo_inurba_marseille","lat":43.296921,"lon":5.376579,"is_reserved":false,"is_disabled":false,"rental_uris":{"android":"levelo://app?vid=af791b6f-98fb-4250-8b95-4821f27d09dc","ios":"levelo://app?vid=af791b6f-98fb-4250-8b95-4821f27d09dc"},"vehicle_type_id":"4","last_reported":1724004578,"current_range_meters":31200,"station_id":"ce4bgkh2rcd13ifvqbl0","pricing_plan_id":"cebpf4jnsgd1na2vs0mg"},{"bike_id":"102aba32-0df8-46df-bcd6-eab9b1617f19","system_id":"levelo_inurba_marseille","lat":43.309589,"lon":5.390258,"is_reserved":false,"is_disabled":false,"rental_uris":{"android":"levelo://app?vid=102aba32-0df8-46df-bcd6-eab9b1617f19","ios":"levelo://app?vid=102aba32-0df8-46df-bcd6-eab9b1617f19"},"vehicle_type_id":"4","last_reported":1724004578,"current_range_meters":13200,"station_id":"ce4bgup2rcd13ifvqco0","pricing_plan_id":"cebpf4jnsgd1na2vs0mg"},{"bike_id":"abf1b19f-9ff7-48bf-a77e-a600c29e5856","system_id":"levelo_inurba_marseille","lat":43.309589,"lon":5.390258,"is_reserved":false,"is_disabled":false,"rental_uris":{"android":"levelo://app?vid=abf1b19f-9ff7-48bf-a77e-a600c29e5856","ios":"levelo://app?vid=abf1b19f-9ff7-48bf-a77e-a600c29e5856"},"vehicle_type_id":"4","last_reported":1724004578,"current_range_meters":30000,"station_id":"ce4bgup2rcd13ifvqco0","pricing_plan_id":"cebpf4jnsgd1na2vs0mg"},{"bike_id":"b893d568-dc9d-4077-8951-506b0805f4df","system_id":"levelo_inurba_marseille","lat":43.309589,"lon":5.390258,"is_reserved":false,"is_disabled":false,"rental_uris":{"android":"levelo://app?vid=b893d568-dc9d-4077-8951-506b0805f4df","ios":"levelo://app?vid=b893d568-dc9d-4077-8951-506b0805f4df"},"vehicle_type_id":"4","last_reported":1724004578,"current_range_meters":7600,"station_id":"ce4bgup2rcd13ifvqco0","pricing_plan_id":"cebpf4jnsgd1na2vs0mg"},{"bike_id":"92d77f81-b869-4ed4-818f-21ec374beeab","system_id":"levelo_inurba_marseille","lat":43.309589,"lon":5.390258,"is_reserved":false,"is_disabled":false,"rental_uris":{"android":"levelo://app?vid=92d77f81-b869-4ed4-818f-21ec374beeab","ios":"levelo://app?vid=92d77f81-b869-4ed4-818f-21ec374beeab"},"vehicle_type_id":"4","last_reported":1724004578,"current_range_meters":21200,"station_id":"ce4bgup2rcd13ifvqco0","pricing_plan_id":"cebpf4jnsgd1na2vs0mg"},{"bike_id":"7533cb11-ec26-4365-9f59-ba28c394377e","system_id":"levelo_inurba_marseille","lat":43.296921,"lon":5.376579,"is_reserved":false,"is_disabled":false,"rental_uris":{"android":"levelo://app?vid=7533cb11-ec26-4365-9f59-ba28c394377e","ios":"levelo://app?vid=7533cb11-ec26-4365-9f59-ba28c394377e"},"vehicle_type_id":"4","last_reported":1724004578,"current_range_meters":3200,"station_id":"ce4bgkh2rcd13ifvqbl0","pricing_plan_id":"cebpf4jnsgd1na2vs0mg"},{"bike_id":"900e748d-55ae-4475-9b00-7b0d8f7d58a7","system_id":"levelo_inurba_marseille","lat":43.29909,"lon":5.38152,"is_reserved":false,"is_disabled":false,"rental_uris":{"android":"levelo://app?vid=900e748d-55ae-4475-9b00-7b0d8f7d58a7","ios":"levelo://app?vid=900e748d-55ae-4475-9b00-7b0d8f7d58a7"},"vehicle_type_id":"4","last_reported":1724004578,"current_range_meters":31200,"station_id":"ce4bgj12rcd13ifvqbc0","pricing_plan_id":"cebpf4jnsgd1na2vs0mg"},{"bike_id":"a7c146aa-c14c-47a9-aa0d-284141422a1f","system_id":"levelo_inurba_marseille","lat":43.296921,"lon":5.376579,"is_reserved":false,"is_disabled":false,"rental_uris":{"android":"levelo://app?vid=a7c146aa-c14c-47a9-aa0d-284141422a1f","ios":"levelo://app?vid=a7c146aa-c14c-47a9-aa0d-284141422a1f"},"vehicle_type_id":"4","last_reported":1724004578,"current_range_meters":18000,"station_id":"ce4bgkh2rcd13ifvqbl0","pricing_plan_id":"cebpf4jnsgd1na2vs0mg"},{"bike_id":"37fe1a95-2881-4eca-8103-64749dfbc3e9","system_id":"levelo_inurba_marseille","lat":43.309589,"lon":5.390258,"is_reserved":false,"is_disabled":false,"rental_uris":{"android":"levelo://app?vid=37fe1a95-2881-4eca-8103-64749dfbc3e9","ios":"levelo://app?vid=37fe1a95-2881-4eca-8103-64749dfbc3e9"},"vehicle_type_id":"4","last_reported":1724004578,"current_range_meters":12800,"station_id":"ce4bgup2rcd13ifvqco0","pricing_plan_id":"cebpf4jnsgd1na2vs0mg"},{"bike_id":"dcf856af-1b71-443b-bda2-cc343bc4bd9c","system_id":"levelo_inurba_marseille","lat":43.309589,"lon":5.390258,"is_reserved":false,"is_disabled":false,"rental_uris":{"android":"levelo://app?vid=dcf856af-1b71-443b-bda2-cc343bc4bd9c","ios":"levelo://app?vid=dcf856af-1b71-443b-bda2-cc343bc4bd9c"},"vehicle_type_id":"4","last_reported":1724004578,"current_range_meters":9600,"station_id":"ce4bgup2rcd13ifvqco0","pricing_plan_id":"cebpf4jnsgd1na2vs0mg"},{"bike_id":"26e32fcf-ec99-422c-b479-fb76a3cd1955","system_id":"levelo_inurba_marseille","lat":43.309589,"lon":5.390258,"is_reserved":false,"is_disabled":false,"rental_uris":{"android":"levelo://app?vid=26e32fcf-ec99-422c-b479-fb76a3cd1955","ios":"levelo://app?vid=26e32fcf-ec99-422c-b479-fb76a3cd1955"},"vehicle_type_id":"4","last_reported":1724004578,"current_range_meters":11600,"station_id":"ce4bgup2rcd13ifvqco0","pricing_plan_id":"cebpf4jnsgd1na2vs0mg"},{"bike_id":"339e4549-7c27-4f03-898c-adecb378fd1f","system_id":"levelo_inurba_marseille","lat":43.309589,"lon":5.390258,"is_reserved":false,"is_disabled":false,"rental_uris":{"android":"levelo://app?vid=339e4549-7c27-4f03-898c-adecb378fd1f","ios":"levelo://app?vid=339e4549-7c27-4f03-898c-adecb378fd1f"},"vehicle_type_id":"4","last_reported":1724004578,"current_range_meters":10000,"station_id":"ce4bgup2rcd13ifvqco0","pricing_plan_id":"cebpf4jnsgd1na2vs0mg"},{"bike_id":"0ff0a450-d483-4bc5-80ab-6e492f21d9cb","system_id":"levelo_inurba_marseille","lat":43.309589,"lon":5.390258,"is_reserved":false,"is_disabled":false,"rental_uris":{"android":"levelo://app?vid=0ff0a450-d483-4bc5-80ab-6e492f21d9cb","ios":"levelo://app?vid=0ff0a450-d483-4bc5-80ab-6e492f21d9cb"},"vehicle_type_id":"4","last_reported":1724004578,"current_range_meters":29200,"station_id":"ce4bgup2rcd13ifvqco0","pricing_plan_id":"cebpf4jnsgd1na2vs0mg"},{"bike_id":"b66f534b-1816-4c49-a09d-76fd38632fb8","system_id":"levelo_inurba_marseille","lat":43.309589,"lon":5.390258,"is_reserved":false,"is_disabled":false,"rental_uris":{"android":"levelo://app?vid=b66f534b-1816-4c49-a09d-76fd38632fb8","ios":"levelo://app?vid=b66f534b-1816-4c49-a09d-76fd38632fb8"},"vehicle_type_id":"4","last_reported":1724004578,"current_range_meters":23600,"station_id":"ce4bgup2rcd13ifvqco0","pricing_plan_id":"cebpf4jnsgd1na2vs0mg"},{"bike_id":"3e93b02b-0f30-4398-a98c-28106104a922","system_id":"levelo_inurba_marseille","lat":43.309589,"lon":5.390258,"is_reserved":false,"is_disabled":false,"rental_uris":{"android":"levelo://app?vid=3e93b02b-0f30-4398-a98c-28106104a922","ios":"levelo://app?vid=3e93b02b-0f30-4398-a98c-28106104a922"},"vehicle_type_id":"4","last_reported":1724004578,"current_range_meters":12400,"station_id":"ce4bgup2rcd13ifvqco0","pricing_plan_id":"cebpf4jnsgd1na2vs0mg"},{"bike_id":"49c04827-ffd6-456e-ae92-e5b611066efa","system_id":"levelo_inurba_marseille","lat":43.309589,"lon":5.390258,"is_reserved":false,"is_disabled":false,"rental_uris":{"android":"levelo://app?vid=49c04827-ffd6-456e-ae92-e5b611066efa","ios":"levelo://app?vid=49c04827-ffd6-456e-ae92-e5b611066efa"},"vehicle_type_id":"4","last_reported":1724004578,"current_range_meters":3600,"station_id":"ce4bgup2rcd13ifvqco0","pricing_plan_id":"cebpf4jnsgd1na2vs0mg"},{"bike_id":"69eaf954-552c-4ce6-9afd-32e3390cbdeb","system_id":"levelo_inurba_marseille","lat":43.309589,"lon":5.390258,"is_reserved":false,"is_disabled":false,"rental_uris":{"android":"levelo://app?vid=69eaf954-552c-4ce6-9afd-32e3390cbdeb","ios":"levelo://app?vid=69eaf954-552c-4ce6-9afd-32e3390cbdeb"},"vehicle_type_id":"4","last_reported":1724004578,"current_range_meters":18400,"station_id":"ce4bgup2rcd13ifvqco0","pricing_plan_id":"cebpf4jnsgd1na2vs0mg"},{"bike_id":"7ef25bbb-d84a-4bfd-b72a-7319cff17c70","system_id":"levelo_inurba_marseille","lat":43.309589,"lon":5.390258,"is_reserved":false,"is_disabled":false,"rental_uris":{"android":"levelo://app?vid=7ef25bbb-d84a-4bfd-b72a-7319cff17c70","ios":"levelo://app?vid=7ef25bbb-d84a-4bfd-b72a-7319cff17c70"},"vehicle_type_id":"4","last_reported":1724004578,"current_range_meters":4400,"station_id":"ce4bgup2rcd13ifvqco0","pricing_plan_id":"cebpf4jnsgd1na2vs0mg"},{"bike_id":"0fa2aa39-0c69-4bc4-bf41-340c3010ed0b","system_id":"levelo_inurba_marseille","lat":43.309589,"lon":5.390258,"is_reserved":false,"is_disabled":false,"rental_uris":{"android":"levelo://app?vid=0fa2aa39-0c69-4bc4-bf41-340c3010ed0b","ios":"levelo://app?vid=0fa2aa39-0c69-4bc4-bf41-340c3010ed0b"},"vehicle_type_id":"4","last_reported":1724004578,"current_range_meters":16000,"station_id":"ce4bgup2rcd13ifvqco0","pricing_plan_id":"cebpf4jnsgd1na2vs0mg"},{"bike_id":"cc07ed16-5e46-4a75-a38d-0450c152bd00","system_id":"levelo_inurba_marseille","lat":43.309589,"lon":5.390258,"is_reserved":false,"is_disabled":false,"rental_uris":{"android":"levelo://app?vid=cc07ed16-5e46-4a75-a38d-0450c152bd00","ios":"levelo://app?vid=cc07ed16-5e46-4a75-a38d-0450c152bd00"},"vehicle_type_id":"4","last_reported":1724004578,"current_range_meters":8800,"station_id":"ce4bgup2rcd13ifvqco0","pricing_plan_id":"cebpf4jnsgd1na2vs0mg"},{"bike_id":"9e73e839-8940-4262-92d6-319e89691aab","system_id":"levelo_inurba_marseille","lat":43.309589,"lon":5.390258,"is_reserved":false,"is_disabled":false,"rental_uris":{"android":"levelo://app?vid=9e73e839-8940-4262-92d6-319e89691aab","ios":"levelo://app?vid=9e73e839-8940-4262-92d6-319e89691aab"},"vehicle_type_id":"4","last_reported":1724004578,"current_range_meters":10000,"station_id":"ce4bgup2rcd13ifvqco0","pricing_plan_id":"cebpf4jnsgd1na2vs0mg"},{"bike_id":"9120c890-25be-47b3-8dad-cdab5f162f8a","system_id":"levelo_inurba_marseille","lat":43.309589,"lon":5.390258,"is_reserved":false,"is_disabled":false,"rental_uris":{"android":"levelo://app?vid=9120c890-25be-47b3-8dad-cdab5f162f8a","ios":"levelo://app?vid=9120c890-25be-47b3-8dad-cdab5f162f8a"},"vehicle_type_id":"4","last_reported":1724004578,"current_range_meters":26800,"station_id":"ce4bgup2rcd13ifvqco0","pricing_plan_id":"cebpf4jnsgd1na2vs0mg"},{"bike_id":"2fec4533-9de0-494a-b7df-51e93502bd8e","system_id":"levelo_inurba_marseille","lat":43.309589,"lon":5.390258,"is_reserved":false,"is_disabled":false,"rental_uris":{"android":"levelo://app?vid=2fec4533-9de0-494a-b7df-51e93502bd8e","ios":"levelo://app?vid=2fec4533-9de0-494a-b7df-51e93502bd8e"},"vehicle_type_id":"4","last_reported":1724004578,"current_range_meters":28000,"station_id":"ce4bgup2rcd13ifvqco0","pricing_plan_id":"cebpf4jnsgd1na2vs0mg"},{"bike_id":"0ac50b1d-a00d-4eba-8d24-555796af603b","system_id":"levelo_inurba_marseille","lat":43.317557,"lon":5.390173,"is_reserved":false,"is_disabled":false,"rental_uris":{"android":"levelo://app?vid=0ac50b1d-a00d-4eba-8d24-555796af603b","ios":"levelo://app?vid=0ac50b1d-a00d-4eba-8d24-555796af603b"},"vehicle_type_id":"4","last_reported":1724004578,"current_range_meters":0,"station_id":"ce4bhqp2rcd13ifvqhng","pricing_plan_id":"cebpf4jnsgd1na2vs0mg"},{"bike_id":"0deab43c-50e5-4180-a03f-e467ee1d0ed6","system_id":"levelo_inurba_marseille","lat":43.304274,"lon":5.388873,"is_reserved":false,"is_disabled":false,"rental_uris":{"android":"levelo://app?vid=0deab43c-50e5-4180-a03f-e467ee1d0ed6","ios":"levelo://app?vid=0deab43c-50e5-4180-a03f-e467ee1d0ed6"},"vehicle_type_id":"4","last_reported":1724004578,"current_range_meters":3200,"station_id":"ce4bgk12rcd13ifvqbi0","pricing_plan_id":"cebpf4jnsgd1na2vs0mg"},{"bike_id":"a87b9c8b-c04a-40df-84a2-f30bcf4f3daf","system_id":"levelo_inurba_marseille","lat":43.296263,"lon":5.377094,"is_reserved":false,"is_disabled":false,"rental_uris":{"android":"levelo://app?vid=a87b9c8b-c04a-40df-84a2-f30bcf4f3daf","ios":"levelo://app?vid=a87b9c8b-c04a-40df-84a2-f30bcf4f3daf"},"vehicle_type_id":"4","last_reported":1724004578,"current_range_meters":8800,"station_id":"ce4bgi92rcd13ifvqb90","pricing_plan_id":"cebpf4jnsgd1na2vs0mg"},{"bike_id":"bef4b585-58f9-4fb3-9d7b-adce548e33de","system_id":"levelo_inurba_marseille","lat":43.299028,"lon":5.381509,"is_reserved":false,"is_disabled":false,"rental_uris":{"android":"levelo://app?vid=bef4b585-58f9-4fb3-9d7b-adce548e33de","ios":"levelo://app?vid=bef4b585-58f9-4fb3-9d7b-adce548e33de"},"vehicle_type_id":"4","last_reported":1724004578,"current_range_meters":18800,"station_id":"ce4bgj12rcd13ifvqbc0","pricing_plan_id":"cebpf4jnsgd1na2vs0mg"},{"bike_id":"dc006751-6f02-4755-8a22-05f107b0f136","system_id":"levelo_inurba_marseille","lat":43.29536,"lon":5.37499,"is_reserved":false,"is_disabled":false,"rental_uris":{"android":"levelo://app?vid=dc006751-6f02-4755-8a22-05f107b0f136","ios":"levelo://app?vid=dc006751-6f02-4755-8a22-05f107b0f136"},"vehicle_type_id":"4","last_reported":1724004578,"current_range_meters":4400,"station_id":"ce4bgkp2rcd13ifvqbmg","pricing_plan_id":"cebpf4jnsgd1na2vs0mg"},{"bike_id":"6c7e251c-8dd9-4bf2-801d-eed0e4d56206","system_id":"levelo_inurba_marseille","lat":43.295279,"lon":5.375048,"is_reserved":false,"is_disabled":false,"rental_uris":{"android":"levelo://app?vid=6c7e251c-8dd9-4bf2-801d-eed0e4d56206","ios":"levelo://app?vid=6c7e251c-8dd9-4bf2-801d-eed0e4d56206"},"vehicle_type_id":"4","last_reported":1724004578,"current_range_meters":29600,"station_id":"ce4bgkp2rcd13ifvqbmg","pricing_plan_id":"cebpf4jnsgd1na2vs0mg"},{"bike_id":"52447e86-bd84-47c4-9c19-9eb2a3294f0c","system_id":"levelo_inurba_marseille","lat":43.299717,"lon":5.384845,"is_reserved":false,"is_disabled":false,"rental_uris":{"android":"levelo://app?vid=52447e86-bd84-47c4-9c19-9eb2a3294f0c","ios":"levelo://app?vid=52447e86-bd84-47c4-9c19-9eb2a3294f0c"},"vehicle_type_id":"4","last_reported":1724004578,"current_range_meters":27600,"station_id":"ce4bgj92rcd13ifvqbd0","pricing_plan_id":"cebpf4jnsgd1na2vs0mg"},{"bike_id":"751937cc-9ac2-44f8-b045-ab351853e54a","system_id":"levelo_inurba_marseille","lat":43.301396,"lon":5.387812,"is_reserved":false,"is_disabled":false,"rental_uris":{"android":"levelo://app?vid=751937cc-9ac2-44f8-b045-ab351853e54a","ios":"levelo://app?vid=751937cc-9ac2-44f8-b045-ab351853e54a"},"vehicle_type_id":"4","last_reported":1724004578,"current_range_meters":6000,"station_id":"ce4bghh2rcd13ifvqb60","pricing_plan_id":"cebpf4jnsgd1na2vs0mg"},{"bike_id":"6a4ec61c-35db-46f6-ada8-482ba070651b","system_id":"levelo_inurba_marseille","lat":43.30133,"lon":5.38778,"is_reserved":false,"is_disabled":false,"rental_uris":{"android":"levelo://app?vid=6a4ec61c-35db-46f6-ada8-482ba070651b","ios":"levelo://app?vid=6a4ec61c-35db-46f6-ada8-482ba070651b"},"vehicle_type_id":"4","last_reported":1724004578,"current_range_meters":28400,"station_id":"ce4bghh2rcd13ifvqb60","pricing_plan_id":"cebpf4jnsgd1na2vs0mg"},{"bike_id":"3ed811cb-6c94-44a9-b938-a57f41e17063","system_id":"levelo_inurba_marseille","lat":43.30129,"lon":5.38781,"is_reserved":false,"is_disabled":false,"rental_uris":{"android":"levelo://app?vid=3ed811cb-6c94-44a9-b938-a57f41e17063","ios":"levelo://app?vid=3ed811cb-6c94-44a9-b938-a57f41e17063"},"vehicle_type_id":"4","last_reported":1724004578,"current_range_meters":30800,"station_id":"ce4bghh2rcd13ifvqb60","pricing_plan_id":"cebpf4jnsgd1na2vs0mg"},{"bike_id":"f9e9dcbf-0225-4454-9fb3-226f970101cd","system_id":"levelo_inurba_marseille","lat":43.32367,"lon":5.388836,"is_reserved":false,"is_disabled":false,"rental_uris":{"android":"levelo://app?vid=f9e9dcbf-0225-4454-9fb3-226f970101cd","ios":"levelo://app?vid=f9e9dcbf-0225-4454-9fb3-226f970101cd"},"vehicle_type_id":"4","last_reported":1724004578,"current_range_meters":9600,"station_id":"ce4bhqp2rcd13ifvqhog","pricing_plan_id":"cebpf4jnsgd1na2vs0mg"},{"bike_id":"f38c9ed0-9819-4764-88b5-d74e75982be6","system_id":"levelo_inurba_marseille","lat":43.32386,"lon":5.388696,"is_reserved":false,"is_disabled":false,"rental_uris":{"android":"levelo://app?vid=f38c9ed0-9819-4764-88b5-d74e75982be6","ios":"levelo://app?vid=f38c9ed0-9819-4764-88b5-d74e75982be6"},"vehicle_type_id":"4","last_reported":1724004578,"current_range_meters":800,"station_id":"","pricing_plan_id":"cebpf4jnsgd1na2vs0mg"},{"bike_id":"3919480f-8282-4de7-8f11-e0e40af28e86","system_id":"levelo_inurba_marseille","lat":43.29309,"lon":5.37184,"is_reserved":false,"is_disabled":false,"rental_uris":{"android":"levelo://app?vid=3919480f-8282-4de7-8f11-e0e40af28e86","ios":"levelo://app?vid=3919480f-8282-4de7-8f11-e0e40af28e86"},"vehicle_type_id":"4","last_reported":1724004578,"current_range_meters":0,"station_id":"ce4bgh92rcd13ifvqb40","pricing_plan_id":"cebpf4jnsgd1na2vs0mg"},{"bike_id":"4137ac92-b051-474a-a1bf-6ad396bb9923","system_id":"levelo_inurba_marseille","lat":43.29278,"lon":5.36836,"is_reserved":false,"is_disabled":false,"rental_uris":{"android":"levelo://app?vid=4137ac92-b051-474a-a1bf-6ad396bb9923","ios":"levelo://app?vid=4137ac92-b051-474a-a1bf-6ad396bb9923"},"vehicle_type_id":"4","last_reported":1724004578,"current_range_meters":21200,"station_id":"ce4bhbp2rcd13ifvqesg","pricing_plan_id":"cebpf4jnsgd1na2vs0mg"},{"bike_id":"9e3b1544-e581-420c-9660-087dd21dba99","system_id":"levelo_inurba_marseille","lat":43.29274,"lon":5.36836,"is_reserved":false,"is_disabled":false,"rental_uris":{"android":"levelo://app?vid=9e3b1544-e581-420c-9660-087dd21dba99","ios":"levelo://app?vid=9e3b1544-e581-420c-9660-087dd21dba99"},"vehicle_type_id":"4","last_reported":1724004578,"current_range_meters":0,"station_id":"ce4bhbp2rcd13ifvqesg","pricing_plan_id":"cebpf4jnsgd1na2vs0mg"},{"bike_id":"91594aff-f393-4f43-ad14-817555340540","system_id":"levelo_inurba_marseille","lat":43.29274,"lon":5.36844,"is_reserved":false,"is_disabled":false,"rental_uris":{"android":"levelo://app?vid=91594aff-f393-4f43-ad14-817555340540","ios":"levelo://app?vid=91594aff-f393-4f43-ad14-817555340540"},"vehicle_type_id":"4","last_reported":1724004578,"current_range_meters":400,"station_id":"ce4bhbp2rcd13ifvqesg","pricing_plan_id":"cebpf4jnsgd1na2vs0mg"},{"bike_id":"64b94a86-0d51-4e2c-8fff-e54c64f1a6ab","system_id":"levelo_inurba_marseille","lat":43.29273,"lon":5.36844,"is_reserved":false,"is_disabled":false,"rental_uris":{"android":"levelo://app?vid=64b94a86-0d51-4e2c-8fff-e54c64f1a6ab","ios":"levelo://app?vid=64b94a86-0d51-4e2c-8fff-e54c64f1a6ab"},"vehicle_type_id":"4","last_reported":1724004578,"current_range_meters":17200,"station_id":"ce4bhbp2rcd13ifvqesg","pricing_plan_id":"cebpf4jnsgd1na2vs0mg"},{"bike_id":"e3ad733a-abfd-4428-b73e-8ea18feaa3b3","system_id":"levelo_inurba_marseille","lat":43.29271,"lon":5.36839,"is_reserved":false,"is_disabled":false,"rental_uris":{"android":"levelo://app?vid=e3ad733a-abfd-4428-b73e-8ea18feaa3b3","ios":"levelo://app?vid=e3ad733a-abfd-4428-b73e-8ea18feaa3b3"},"vehicle_type_id":"4","last_reported":1724004578,"current_range_meters":0,"station_id":"ce4bhbp2rcd13ifvqesg","pricing_plan_id":"cebpf4jnsgd1na2vs0mg"},{"bike_id":"240c389b-410e-4108-adac-e149b2362e9b","system_id":"levelo_inurba_marseille","lat":43.2957,"lon":5.38152,"is_reserved":false,"is_disabled":false,"rental_uris":{"android":"levelo://app?vid=240c389b-410e-4108-adac-e149b2362e9b","ios":"levelo://app?vid=240c389b-410e-4108-adac-e149b2362e9b"},"vehicle_type_id":"4","last_reported":1724004578,"current_range_meters":4800,"station_id":"ce4bgl12rcd13ifvqbo0","pricing_plan_id":"cebpf4jnsgd1na2vs0mg"},{"bike_id":"464f78b8-d855-493c-854e-64195256e1e0","system_id":"levelo_inurba_marseille","lat":43.29445,"lon":5.37923,"is_reserved":false,"is_disabled":false,"rental_uris":{"android":"levelo://app?vid=464f78b8-d855-493c-854e-64195256e1e0","ios":"levelo://app?vid=464f78b8-d855-493c-854e-64195256e1e0"},"vehicle_type_id":"4","last_reported":1724004578,"current_range_meters":0,"station_id":"","pricing_plan_id":"cebpf4jnsgd1na2vs0mg"},{"bike_id":"77d831c0-836d-44d5-bd94-7e70fa3f96c9","system_id":"levelo_inurba_marseille","lat":43.293009,"lon":5.374584,"is_reserved":false,"is_disabled":false,"rental_uris":{"android":"levelo://app?vid=77d831c0-836d-44d5-bd94-7e70fa3f96c9","ios":"levelo://app?vid=77d831c0-836d-44d5-bd94-7e70fa3f96c9"},"vehicle_type_id":"4","last_reported":1724004578,"current_range_meters":30400,"station_id":"ce4bgi12rcd13ifvqb70","pricing_plan_id":"cebpf4jnsgd1na2vs0mg"},{"bike_id":"27cd996e-5e84-4f9f-8fa6-8834bcb19d11","system_id":"levelo_inurba_marseille","lat":43.29305,"lon":5.37461,"is_reserved":false,"is_disabled":false,"rental_uris":{"android":"levelo://app?vid=27cd996e-5e84-4f9f-8fa6-8834bcb19d11","ios":"levelo://app?vid=27cd996e-5e84-4f9f-8fa6-8834bcb19d11"},"vehicle_type_id":"4","last_reported":1724004578,"current_range_meters":14400,"station_id":"ce4bgi12rcd13ifvqb70","pricing_plan_id":"cebpf4jnsgd1na2vs0mg"},{"bike_id":"8e6e8355-7bfb-4d82-9887-10ce85fb5afc","system_id":"levelo_inurba_marseille","lat":43.293009,"lon":5.374584,"is_reserved":false,"is_disabled":false,"rental_uris":{"android":"levelo://app?vid=8e6e8355-7bfb-4d82-9887-10ce85fb5afc","ios":"levelo://app?vid=8e6e8355-7bfb-4d82-9887-10ce85fb5afc"},"vehicle_type_id":"4","last_reported":1724004578,"current_range_meters":30000,"station_id":"ce4bgi12rcd13ifvqb70","pricing_plan_id":"cebpf4jnsgd1na2vs0mg"},{"bike_id":"657ad990-9c0b-46d8-ae33-8a7995c284dc","system_id":"levelo_inurba_marseille","lat":43.293009,"lon":5.374584,"is_reserved":false,"is_disabled":false,"rental_uris":{"android":"levelo://app?vid=657ad990-9c0b-46d8-ae33-8a7995c284dc","ios":"levelo://app?vid=657ad990-9c0b-46d8-ae33-8a7995c284dc"},"vehicle_type_id":"4","last_reported":1724004578,"current_range_meters":14000,"station_id":"ce4bgi12rcd13ifvqb70","pricing_plan_id":"cebpf4jnsgd1na2vs0mg"},{"bike_id":"bb94d35c-d6be-40e5-88fe-c8b685961f10","system_id":"levelo_inurba_marseille","lat":43.293009,"lon":5.374584,"is_reserved":false,"is_disabled":false,"rental_uris":{"android":"levelo://app?vid=bb94d35c-d6be-40e5-88fe-c8b685961f10","ios":"levelo://app?vid=bb94d35c-d6be-40e5-88fe-c8b685961f10"},"vehicle_type_id":"4","last_reported":1724004578,"current_range_meters":29600,"station_id":"ce4bgi12rcd13ifvqb70","pricing_plan_id":"cebpf4jnsgd1na2vs0mg"},{"bike_id":"6bafa311-01bf-4062-8f66-685ba55c5e9c","system_id":"levelo_inurba_marseille","lat":43.293009,"lon":5.374584,"is_reserved":false,"is_disabled":false,"rental_uris":{"android":"levelo://app?vid=6bafa311-01bf-4062-8f66-685ba55c5e9c","ios":"levelo://app?vid=6bafa311-01bf-4062-8f66-685ba55c5e9c"},"vehicle_type_id":"4","last_reported":1724004578,"current_range_meters":1600,"station_id":"ce4bgi12rcd13ifvqb70","pricing_plan_id":"cebpf4jnsgd1na2vs0mg"},{"bike_id":"73604f24-337a-49df-873b-ec67d18af426","system_id":"levelo_inurba_marseille","lat":43.293009,"lon":5.374584,"is_reserved":false,"is_disabled":false,"rental_uris":{"android":"levelo://app?vid=73604f24-337a-49df-873b-ec67d18af426","ios":"levelo://app?vid=73604f24-337a-49df-873b-ec67d18af426"},"vehicle_type_id":"4","last_reported":1724004578,"current_range_meters":400,"station_id":"ce4bgi12rcd13ifvqb70","pricing_plan_id":"cebpf4jnsgd1na2vs0mg"},{"bike_id":"4e69aae2-27c1-4582-970b-83dcfffe7fe4","system_id":"levelo_inurba_marseille","lat":43.305994,"lon":5.393687,"is_reserved":false,"is_disabled":false,"rental_uris":{"android":"levelo://app?vid=4e69aae2-27c1-4582-970b-83dcfffe7fe4","ios":"levelo://app?vid=4e69aae2-27c1-4582-970b-83dcfffe7fe4"},"vehicle_type_id":"4","last_reported":1724004578,"current_range_meters":6800,"station_id":"ce4bh0p2rcd13ifvqd80","pricing_plan_id":"cebpf4jnsgd1na2vs0mg"},{"bike_id":"7fc8cf53-0822-403a-bcf7-63c89032244f","system_id":"levelo_inurba_marseille","lat":43.305994,"lon":5.393687,"is_reserved":false,"is_disabled":false,"rental_uris":{"android":"levelo://app?vid=7fc8cf53-0822-403a-bcf7-63c89032244f","ios":"levelo://app?vid=7fc8cf53-0822-403a-bcf7-63c89032244f"},"vehicle_type_id":"4","last_reported":1724004578,"current_range_meters":21200,"station_id":"ce4bh0p2rcd13ifvqd80","pricing_plan_id":"cebpf4jnsgd1na2vs0mg"},{"bike_id":"9bbd6e7e-7315-4da5-8492-b1a949aa18f7","system_id":"levelo_inurba_marseille","lat":43.2936,"lon":5.37835,"is_reserved":false,"is_disabled":false,"rental_uris":{"android":"levelo://app?vid=9bbd6e7e-7315-4da5-8492-b1a949aa18f7","ios":"levelo://app?vid=9bbd6e7e-7315-4da5-8492-b1a949aa18f7"},"vehicle_type_id":"4","last_reported":1724004578,"current_range_meters":1600,"station_id":"ce4bgjh2rcd13ifvqbf0","pricing_plan_id":"cebpf4jnsgd1na2vs0mg"},{"bike_id":"ffe1186e-e4fa-49b0-ab72-6c46c873ff72","system_id":"levelo_inurba_marseille","lat":43.2936,"lon":5.37835,"is_reserved":false,"is_disabled":false,"rental_uris":{"android":"levelo://app?vid=ffe1186e-e4fa-49b0-ab72-6c46c873ff72","ios":"levelo://app?vid=ffe1186e-e4fa-49b0-ab72-6c46c873ff72"},"vehicle_type_id":"4","last_reported":1724004578,"current_range_meters":4000,"station_id":"ce4bgjh2rcd13ifvqbf0","pricing_plan_id":"cebpf4jnsgd1na2vs0mg"},{"bike_id":"27df09eb-c49b-4daf-abe7-d7d8749ebdf3","system_id":"levelo_inurba_marseille","lat":43.2936,"lon":5.37835,"is_reserved":false,"is_disabled":false,"rental_uris":{"android":"levelo://app?vid=27df09eb-c49b-4daf-abe7-d7d8749ebdf3","ios":"levelo://app?vid=27df09eb-c49b-4daf-abe7-d7d8749ebdf3"},"vehicle_type_id":"4","last_reported":1724004578,"current_range_meters":0,"station_id":"ce4bgjh2rcd13ifvqbf0","pricing_plan_id":"cebpf4jnsgd1na2vs0mg"},{"bike_id":"81abf71c-c9e6-47bd-b768-3340894a74c2","system_id":"levelo_inurba_marseille","lat":43.292311,"lon":5.360731,"is_reserved":false,"is_disabled":false,"rental_uris":{"android":"levelo://app?vid=81abf71c-c9e6-47bd-b768-3340894a74c2","ios":"levelo://app?vid=81abf71c-c9e6-47bd-b768-3340894a74c2"},"vehicle_type_id":"4","last_reported":1724004578,"current_range_meters":0,"station_id":"ce4bhbh2rcd13ifvqeqg","pricing_plan_id":"cebpf4jnsgd1na2vs0mg"},{"bike_id":"bb92f9ec-a7bf-48d8-8174-b2b21b05df04","system_id":"levelo_inurba_marseille","lat":43.298764,"lon":5.388973,"is_reserved":false,"is_disabled":false,"rental_uris":{"android":"levelo://app?vid=bb92f9ec-a7bf-48d8-8174-b2b21b05df04","ios":"levelo://app?vid=bb92f9ec-a7bf-48d8-8174-b2b21b05df04"},"vehicle_type_id":"4","last_reported":1724004578,"current_range_meters":1200,"station_id":"ce4bh392rcd13ifvqdl0","pricing_plan_id":"cebpf4jnsgd1na2vs0mg"},{"bike_id":"9f022aba-398c-485d-86eb-e065a4bdc1cf","system_id":"levelo_inurba_marseille","lat":43.30085,"lon":5.390856,"is_reserved":false,"is_disabled":false,"rental_uris":{"android":"levelo://app?vid=9f022aba-398c-485d-86eb-e065a4bdc1cf","ios":"levelo://app?vid=9f022aba-398c-485d-86eb-e065a4bdc1cf"},"vehicle_type_id":"4","last_reported":1724004578,"current_range_meters":17600,"station_id":"ce4bh192rcd13ifvqdb0","pricing_plan_id":"cebpf4jnsgd1na2vs0mg"},{"bike_id":"55e50eef-2a41-4918-847b-fe0ec2acd8e8","system_id":"levelo_inurba_marseille","lat":43.291675,"lon":5.371583,"is_reserved":false,"is_disabled":false,"rental_uris":{"android":"levelo://app?vid=55e50eef-2a41-4918-847b-fe0ec2acd8e8","ios":"levelo://app?vid=55e50eef-2a41-4918-847b-fe0ec2acd8e8"},"vehicle_type_id":"4","last_reported":1724004578,"current_range_meters":31200,"station_id":"ce4bha92rcd13ifvqeh0","pricing_plan_id":"cebpf4jnsgd1na2vs0mg"},{"bike_id":"40a835f6-0b58-4b21-b627-866ed4f58d0a","system_id":"levelo_inurba_marseille","lat":43.297457,"lon":5.387457,"is_reserved":false,"is_disabled":false,"rental_uris":{"android":"levelo://app?vid=40a835f6-0b58-4b21-b627-866ed4f58d0a","ios":"levelo://app?vid=40a835f6-0b58-4b21-b627-866ed4f58d0a"},"vehicle_type_id":"4","last_reported":1724004578,"current_range_meters":22400,"station_id":"ce4bgih2rcd13ifvqba0","pricing_plan_id":"cebpf4jnsgd1na2vs0mg"},{"bike_id":"0752a040-fc5b-4099-b49f-605a19c84ed4","system_id":"levelo_inurba_marseille","lat":43.292005,"lon":5.357875,"is_reserved":false,"is_disabled":false,"rental_uris":{"android":"levelo://app?vid=0752a040-fc5b-4099-b49f-605a19c84ed4","ios":"levelo://app?vid=0752a040-fc5b-4099-b49f-605a19c84ed4"},"vehicle_type_id":"4","last_reported":1724004578,"current_range_meters":0,"station_id":"ce4bhb12rcd13ifvqel0","pricing_plan_id":"cebpf4jnsgd1na2vs0mg"},{"bike_id":"6c569119-2c2d-4a30-a77d-e101c0e074f1","system_id":"levelo_inurba_marseille","lat":43.292005,"lon":5.357875,"is_reserved":false,"is_disabled":false,"rental_uris":{"android":"levelo://app?vid=6c569119-2c2d-4a30-a77d-e101c0e074f1","ios":"levelo://app?vid=6c569119-2c2d-4a30-a77d-e101c0e074f1"},"vehicle_type_id":"4","last_reported":1724004578,"current_range_meters":0,"station_id":"ce4bhb12rcd13ifvqel0","pricing_plan_id":"cebpf4jnsgd1na2vs0mg"},{"bike_id":"82b879b7-a234-48fb-9dea-e1e813ebc8a1","system_id":"levelo_inurba_marseille","lat":43.292005,"lon":5.357875,"is_reserved":false,"is_disabled":false,"rental_uris":{"android":"levelo://app?vid=82b879b7-a234-48fb-9dea-e1e813ebc8a1","ios":"levelo://app?vid=82b879b7-a234-48fb-9dea-e1e813ebc8a1"},"vehicle_type_id":"4","last_reported":1724004578,"current_range_meters":7600,"station_id":"ce4bhb12rcd13ifvqel0","pricing_plan_id":"cebpf4jnsgd1na2vs0mg"},{"bike_id":"9d362a5c-7097-49d7-9e0a-ed6721073e53","system_id":"levelo_inurba_marseille","lat":43.309038,"lon":5.396546,"is_reserved":false,"is_disabled":false,"rental_uris":{"android":"levelo://app?vid=9d362a5c-7097-49d7-9e0a-ed6721073e53","ios":"levelo://app?vid=9d362a5c-7097-49d7-9e0a-ed6721073e53"},"vehicle_type_id":"4","last_reported":1724004578,"current_range_meters":30800,"station_id":"ce4bh012rcd13ifvqcv0","pricing_plan_id":"cebpf4jnsgd1na2vs0mg"},{"bike_id":"00177a2c-eb21-4178-82e6-6ba7a14d5f7f","system_id":"levelo_inurba_marseille","lat":43.292005,"lon":5.357875,"is_reserved":false,"is_disabled":false,"rental_uris":{"android":"levelo://app?vid=00177a2c-eb21-4178-82e6-6ba7a14d5f7f","ios":"levelo://app?vid=00177a2c-eb21-4178-82e6-6ba7a14d5f7f"},"vehicle_type_id":"4","last_reported":1724004578,"current_range_meters":0,"station_id":"ce4bhb12rcd13ifvqel0","pricing_plan_id":"cebpf4jnsgd1na2vs0mg"},{"bike_id":"3305fd04-8dce-47a1-8bfd-e737b1f540a6","system_id":"levelo_inurba_marseille","lat":43.292005,"lon":5.357875,"is_reserved":false,"is_disabled":false,"rental_uris":{"android":"levelo://app?vid=3305fd04-8dce-47a1-8bfd-e737b1f540a6","ios":"levelo://app?vid=3305fd04-8dce-47a1-8bfd-e737b1f540a6"},"vehicle_type_id":"4","last_reported":1724004578,"current_range_meters":26400,"station_id":"ce4bhb12rcd13ifvqel0","pricing_plan_id":"cebpf4jnsgd1na2vs0mg"},{"bike_id":"963516da-9d5c-4386-8018-52c0528c9737","system_id":"levelo_inurba_marseille","lat":43.292005,"lon":5.357875,"is_reserved":false,"is_disabled":false,"rental_uris":{"android":"levelo://app?vid=963516da-9d5c-4386-8018-52c0528c9737","ios":"levelo://app?vid=963516da-9d5c-4386-8018-52c0528c9737"},"vehicle_type_id":"4","last_reported":1724004578,"current_range_meters":13600,"station_id":"ce4bhb12rcd13ifvqel0","pricing_plan_id":"cebpf4jnsgd1na2vs0mg"},{"bike_id":"8ef9d538-cda8-47f8-b6fa-c33fda7929d3","system_id":"levelo_inurba_marseille","lat":43.309047,"lon":5.396551,"is_reserved":false,"is_disabled":false,"rental_uris":{"android":"levelo://app?vid=8ef9d538-cda8-47f8-b6fa-c33fda7929d3","ios":"levelo://app?vid=8ef9d538-cda8-47f8-b6fa-c33fda7929d3"},"vehicle_type_id":"4","last_reported":1724004578,"current_range_meters":9600,"station_id":"ce4bh012rcd13ifvqcv0","pricing_plan_id":"cebpf4jnsgd1na2vs0mg"},{"bike_id":"b20a2b8f-bf68-409e-bd4e-972221b0f966","system_id":"levelo_inurba_marseille","lat":43.309047,"lon":5.396551,"is_reserved":false,"is_disabled":false,"rental_uris":{"android":"levelo://app?vid=b20a2b8f-bf68-409e-bd4e-972221b0f966","ios":"levelo://app?vid=b20a2b8f-bf68-409e-bd4e-972221b0f966"},"vehicle_type_id":"4","last_reported":1724004578,"current_range_meters":23600,"station_id":"ce4bh012rcd13ifvqcv0","pricing_plan_id":"cebpf4jnsgd1na2vs0mg"},{"bike_id":"aac16f58-f8b9-4d59-8478-6a07a8c7838e","system_id":"levelo_inurba_marseille","lat":43.29085,"lon":5.36589,"is_reserved":false,"is_disabled":false,"rental_uris":{"android":"levelo://app?vid=aac16f58-f8b9-4d59-8478-6a07a8c7838e","ios":"levelo://app?vid=aac16f58-f8b9-4d59-8478-6a07a8c7838e"},"vehicle_type_id":"4","last_reported":1724004578,"current_range_meters":16800,"station_id":"","pricing_plan_id":"cebpf4jnsgd1na2vs0mg"},{"bike_id":"8a3b2518-822d-4d5b-819f-99593f9cce9a","system_id":"levelo_inurba_marseille","lat":43.29529,"lon":5.385581,"is_reserved":false,"is_disabled":false,"rental_uris":{"android":"levelo://app?vid=8a3b2518-822d-4d5b-819f-99593f9cce9a","ios":"levelo://app?vid=8a3b2518-822d-4d5b-819f-99593f9cce9a"},"vehicle_type_id":"4","last_reported":1724004578,"current_range_meters":16400,"station_id":"ce4bgih2rcd13ifvqba0","pricing_plan_id":"cebpf4jnsgd1na2vs0mg"},{"bike_id":"a649fc94-e5eb-4530-b3d5-053525625c6e","system_id":"levelo_inurba_marseille","lat":43.29529,"lon":5.3854,"is_reserved":false,"is_disabled":false,"rental_uris":{"android":"levelo://app?vid=a649fc94-e5eb-4530-b3d5-053525625c6e","ios":"levelo://app?vid=a649fc94-e5eb-4530-b3d5-053525625c6e"},"vehicle_type_id":"4","last_reported":1724004578,"current_range_meters":0,"station_id":"ce4bgih2rcd13ifvqba0","pricing_plan_id":"cebpf4jnsgd1na2vs0mg"},{"bike_id":"d556d453-4cee-4390-b43d-9175d232f00b","system_id":"levelo_inurba_marseille","lat":43.29529,"lon":5.385581,"is_reserved":false,"is_disabled":false,"rental_uris":{"android":"levelo://app?vid=d556d453-4cee-4390-b43d-9175d232f00b","ios":"levelo://app?vid=d556d453-4cee-4390-b43d-9175d232f00b"},"vehicle_type_id":"4","last_reported":1724004578,"current_range_meters":18000,"station_id":"ce4bgih2rcd13ifvqba0","pricing_plan_id":"cebpf4jnsgd1na2vs0mg"},{"bike_id":"9054e66b-f266-458f-a7e2-71600275afa7","system_id":"levelo_inurba_marseille","lat":43.29529,"lon":5.385581,"is_reserved":false,"is_disabled":false,"rental_uris":{"android":"levelo://app?vid=9054e66b-f266-458f-a7e2-71600275afa7","ios":"levelo://app?vid=9054e66b-f266-458f-a7e2-71600275afa7"},"vehicle_type_id":"4","last_reported":1724004578,"current_range_meters":12800,"station_id":"ce4bgih2rcd13ifvqba0","pricing_plan_id":"cebpf4jnsgd1na2vs0mg"},{"bike_id":"cad279b5-a69c-4f9b-ac13-de04ec10489f","system_id":"levelo_inurba_marseille","lat":43.290779,"lon":5.371482,"is_reserved":false,"is_disabled":false,"rental_uris":{"android":"levelo://app?vid=cad279b5-a69c-4f9b-ac13-de04ec10489f","ios":"levelo://app?vid=cad279b5-a69c-4f9b-ac13-de04ec10489f"},"vehicle_type_id":"4","last_reported":1724004578,"current_range_meters":16400,"station_id":"ce4bh5p2rcd13ifvqe4g","pricing_plan_id":"cebpf4jnsgd1na2vs0mg"},{"bike_id":"747405f2-07b1-4bca-9f8f-5b52c3db2d2f","system_id":"levelo_inurba_marseille","lat":43.290779,"lon":5.371482,"is_reserved":false,"is_disabled":false,"rental_uris":{"android":"levelo://app?vid=747405f2-07b1-4bca-9f8f-5b52c3db2d2f","ios":"levelo://app?vid=747405f2-07b1-4bca-9f8f-5b52c3db2d2f"},"vehicle_type_id":"4","last_reported":1724004578,"current_range_meters":2800,"station_id":"ce4bh5p2rcd13ifvqe4g","pricing_plan_id":"cebpf4jnsgd1na2vs0mg"},{"bike_id":"7d1905a1-d3e4-472b-8d97-226b5b02642b","system_id":"levelo_inurba_marseille","lat":43.290779,"lon":5.371482,"is_reserved":false,"is_disabled":false,"rental_uris":{"android":"levelo://app?vid=7d1905a1-d3e4-472b-8d97-226b5b02642b","ios":"levelo://app?vid=7d1905a1-d3e4-472b-8d97-226b5b02642b"},"vehicle_type_id":"4","last_reported":1724004578,"current_range_meters":14800,"station_id":"ce4bh5p2rcd13ifvqe4g","pricing_plan_id":"cebpf4jnsgd1na2vs0mg"},{"bike_id":"5ca67818-2a45-4a2a-bdc3-de9599ccf884","system_id":"levelo_inurba_marseille","lat":43.290779,"lon":5.371482,"is_reserved":false,"is_disabled":false,"rental_uris":{"android":"levelo://app?vid=5ca67818-2a45-4a2a-bdc3-de9599ccf884","ios":"levelo://app?vid=5ca67818-2a45-4a2a-bdc3-de9599ccf884"},"vehicle_type_id":"4","last_reported":1724004578,"current_range_meters":800,"station_id":"ce4bh5p2rcd13ifvqe4g","pricing_plan_id":"cebpf4jnsgd1na2vs0mg"},{"bike_id":"cb2adf34-9c10-40eb-a181-a54e9e93e94a","system_id":"levelo_inurba_marseille","lat":43.290624,"lon":5.359245,"is_reserved":false,"is_disabled":false,"rental_uris":{"android":"levelo://app?vid=cb2adf34-9c10-40eb-a181-a54e9e93e94a","ios":"levelo://app?vid=cb2adf34-9c10-40eb-a181-a54e9e93e94a"},"vehicle_type_id":"4","last_reported":1724004578,"current_range_meters":3200,"station_id":"ce4bha92rcd13ifvqeg0","pricing_plan_id":"cebpf4jnsgd1na2vs0mg"},{"bike_id":"d04bf915-45ab-4e48-953b-6ec916893b76","system_id":"levelo_inurba_marseille","lat":43.290624,"lon":5.359245,"is_reserved":false,"is_disabled":false,"rental_uris":{"android":"levelo://app?vid=d04bf915-45ab-4e48-953b-6ec916893b76","ios":"levelo://app?vid=d04bf915-45ab-4e48-953b-6ec916893b76"},"vehicle_type_id":"4","last_reported":1724004578,"current_range_meters":0,"station_id":"ce4bha92rcd13ifvqeg0","pricing_plan_id":"cebpf4jnsgd1na2vs0mg"},{"bike_id":"3ff43c90-376d-42d4-b61a-254342cf4235","system_id":"levelo_inurba_marseille","lat":43.290631,"lon":5.359244,"is_reserved":false,"is_disabled":false,"rental_uris":{"android":"levelo://app?vid=3ff43c90-376d-42d4-b61a-254342cf4235","ios":"levelo://app?vid=3ff43c90-376d-42d4-b61a-254342cf4235"},"vehicle_type_id":"4","last_reported":1724004578,"current_range_meters":0,"station_id":"ce4bha92rcd13ifvqeg0","pricing_plan_id":"cebpf4jnsgd1na2vs0mg"},{"bike_id":"ee96f4a5-9658-41b0-ad4c-f1fe64a1289e","system_id":"levelo_inurba_marseille","lat":43.29039,"lon":5.35918,"is_reserved":false,"is_disabled":false,"rental_uris":{"android":"levelo://app?vid=ee96f4a5-9658-41b0-ad4c-f1fe64a1289e","ios":"levelo://app?vid=ee96f4a5-9658-41b0-ad4c-f1fe64a1289e"},"vehicle_type_id":"4","last_reported":1724004578,"current_range_meters":0,"station_id":"ce4bha92rcd13ifvqeg0","pricing_plan_id":"cebpf4jnsgd1na2vs0mg"},{"bike_id":"1f306c4d-893e-4fbb-b8c7-8084ba00a583","system_id":"levelo_inurba_marseille","lat":43.294153,"lon":5.386305,"is_reserved":false,"is_disabled":false,"rental_uris":{"android":"levelo://app?vid=1f306c4d-893e-4fbb-b8c7-8084ba00a583","ios":"levelo://app?vid=1f306c4d-893e-4fbb-b8c7-8084ba00a583"},"vehicle_type_id":"4","last_reported":1724004578,"current_range_meters":11600,"station_id":"ce4bh2h2rcd13ifvqdh0","pricing_plan_id":"cebpf4jnsgd1na2vs0mg"},{"bike_id":"848f4f1e-8594-4103-a95c-eed4b522211f","system_id":"levelo_inurba_marseille","lat":43.29421,"lon":5.38615,"is_reserved":false,"is_disabled":false,"rental_uris":{"android":"levelo://app?vid=848f4f1e-8594-4103-a95c-eed4b522211f","ios":"levelo://app?vid=848f4f1e-8594-4103-a95c-eed4b522211f"},"vehicle_type_id":"4","last_reported":1724004578,"current_range_meters":15200,"station_id":"ce4bh2h2rcd13ifvqdh0","pricing_plan_id":"cebpf4jnsgd1na2vs0mg"},{"bike_id":"e6bc06db-8413-4e3e-b127-2e35ba5086e1","system_id":"levelo_inurba_marseille","lat":43.29038,"lon":5.37567,"is_reserved":false,"is_disabled":false,"rental_uris":{"android":"levelo://app?vid=e6bc06db-8413-4e3e-b127-2e35ba5086e1","ios":"levelo://app?vid=e6bc06db-8413-4e3e-b127-2e35ba5086e1"},"vehicle_type_id":"4","last_reported":1724004578,"current_range_meters":10800,"station_id":"ce4bh692rcd13ifvqe90","pricing_plan_id":"cebpf4jnsgd1na2vs0mg"},{"bike_id":"8c634a49-ed34-4a5f-9666-ba555d45f528","system_id":"levelo_inurba_marseille","lat":43.29422,"lon":5.38624,"is_reserved":false,"is_disabled":false,"rental_uris":{"android":"levelo://app?vid=8c634a49-ed34-4a5f-9666-ba555d45f528","ios":"levelo://app?vid=8c634a49-ed34-4a5f-9666-ba555d45f528"},"vehicle_type_id":"4","last_reported":1724004578,"current_range_meters":1200,"station_id":"ce4bh2h2rcd13ifvqdh0","pricing_plan_id":"cebpf4jnsgd1na2vs0mg"},{"bike_id":"291e2a59-c5f4-409a-9a45-e1596e865b4f","system_id":"levelo_inurba_marseille","lat":43.294153,"lon":5.386305,"is_reserved":false,"is_disabled":false,"rental_uris":{"android":"levelo://app?vid=291e2a59-c5f4-409a-9a45-e1596e865b4f","ios":"levelo://app?vid=291e2a59-c5f4-409a-9a45-e1596e865b4f"},"vehicle_type_id":"4","last_reported":1724004578,"current_range_meters":4000,"station_id":"ce4bh2h2rcd13ifvqdh0","pricing_plan_id":"cebpf4jnsgd1na2vs0mg"},{"bike_id":"d59fb288-3ca6-4917-8ba7-1edf158390b5","system_id":"levelo_inurba_marseille","lat":43.2942,"lon":5.38625,"is_reserved":false,"is_disabled":false,"rental_uris":{"android":"levelo://app?vid=d59fb288-3ca6-4917-8ba7-1edf158390b5","ios":"levelo://app?vid=d59fb288-3ca6-4917-8ba7-1edf158390b5"},"vehicle_type_id":"4","last_reported":1724004578,"current_range_meters":0,"station_id":"ce4bh2h2rcd13ifvqdh0","pricing_plan_id":"cebpf4jnsgd1na2vs0mg"},{"bike_id":"8f59cf0c-c430-4c2a-b42e-0a375b2ab826","system_id":"levelo_inurba_marseille","lat":43.29417,"lon":5.38621,"is_reserved":false,"is_disabled":false,"rental_uris":{"android":"levelo://app?vid=8f59cf0c-c430-4c2a-b42e-0a375b2ab826","ios":"levelo://app?vid=8f59cf0c-c430-4c2a-b42e-0a375b2ab826"},"vehicle_type_id":"4","last_reported":1724004578,"current_range_meters":0,"station_id":"ce4bh2h2rcd13ifvqdh0","pricing_plan_id":"cebpf4jnsgd1na2vs0mg"},{"bike_id":"a971de60-8e04-49c9-8aa6-8f1bb2e625c6","system_id":"levelo_inurba_marseille","lat":43.290319,"lon":5.375732,"is_reserved":false,"is_disabled":false,"rental_uris":{"android":"levelo://app?vid=a971de60-8e04-49c9-8aa6-8f1bb2e625c6","ios":"levelo://app?vid=a971de60-8e04-49c9-8aa6-8f1bb2e625c6"},"vehicle_type_id":"4","last_reported":1724004578,"current_range_meters":5600,"station_id":"ce4bh692rcd13ifvqe90","pricing_plan_id":"cebpf4jnsgd1na2vs0mg"},{"bike_id":"19c8a3f1-47a6-420b-acbb-41cf0b311c88","system_id":"levelo_inurba_marseille","lat":43.29417,"lon":5.38623,"is_reserved":false,"is_disabled":false,"rental_uris":{"android":"levelo://app?vid=19c8a3f1-47a6-420b-acbb-41cf0b311c88","ios":"levelo://app?vid=19c8a3f1-47a6-420b-acbb-41cf0b311c88"},"vehicle_type_id":"4","last_reported":1724004578,"current_range_meters":4400,"station_id":"ce4bh2h2rcd13ifvqdh0","pricing_plan_id":"cebpf4jnsgd1na2vs0mg"},{"bike_id":"e78a90d7-6b3b-4809-bcb2-18b7dfabcd2f","system_id":"levelo_inurba_marseille","lat":43.29414,"lon":5.38618,"is_reserved":false,"is_disabled":false,"rental_uris":{"android":"levelo://app?vid=e78a90d7-6b3b-4809-bcb2-18b7dfabcd2f","ios":"levelo://app?vid=e78a90d7-6b3b-4809-bcb2-18b7dfabcd2f"},"vehicle_type_id":"4","last_reported":1724004578,"current_range_meters":2000,"station_id":"ce4bh2h2rcd13ifvqdh0","pricing_plan_id":"cebpf4jnsgd1na2vs0mg"},{"bike_id":"6d896def-1fae-4407-862c-fdcdbc23946b","system_id":"levelo_inurba_marseille","lat":43.294153,"lon":5.386305,"is_reserved":false,"is_disabled":false,"rental_uris":{"android":"levelo://app?vid=6d896def-1fae-4407-862c-fdcdbc23946b","ios":"levelo://app?vid=6d896def-1fae-4407-862c-fdcdbc23946b"},"vehicle_type_id":"4","last_reported":1724004578,"current_range_meters":29200,"station_id":"ce4bh2h2rcd13ifvqdh0","pricing_plan_id":"cebpf4jnsgd1na2vs0mg"},{"bike_id":"80457515-8bff-4c5e-b132-787cf69ba99e","system_id":"levelo_inurba_marseille","lat":43.294153,"lon":5.386305,"is_reserved":false,"is_disabled":false,"rental_uris":{"android":"levelo://app?vid=80457515-8bff-4c5e-b132-787cf69ba99e","ios":"levelo://app?vid=80457515-8bff-4c5e-b132-787cf69ba99e"},"vehicle_type_id":"4","last_reported":1724004578,"current_range_meters":0,"station_id":"ce4bh2h2rcd13ifvqdh0","pricing_plan_id":"cebpf4jnsgd1na2vs0mg"},{"bike_id":"2f8cf76c-6849-491e-b18f-c88538a9533e","system_id":"levelo_inurba_marseille","lat":43.29419,"lon":5.38629,"is_reserved":false,"is_disabled":false,"rental_uris":{"android":"levelo://app?vid=2f8cf76c-6849-491e-b18f-c88538a9533e","ios":"levelo://app?vid=2f8cf76c-6849-491e-b18f-c88538a9533e"},"vehicle_type_id":"4","last_reported":1724004578,"current_range_meters":4000,"station_id":"ce4bh2h2rcd13ifvqdh0","pricing_plan_id":"cebpf4jnsgd1na2vs0mg"},{"bike_id":"b81b0f72-7855-48ed-a3a2-d3b38a7ab843","system_id":"levelo_inurba_marseille","lat":43.29415,"lon":5.38622,"is_reserved":false,"is_disabled":false,"rental_uris":{"android":"levelo://app?vid=b81b0f72-7855-48ed-a3a2-d3b38a7ab843","ios":"levelo://app?vid=b81b0f72-7855-48ed-a3a2-d3b38a7ab843"},"vehicle_type_id":"4","last_reported":1724004578,"current_range_meters":0,"station_id":"ce4bh2h2rcd13ifvqdh0","pricing_plan_id":"cebpf4jnsgd1na2vs0mg"},{"bike_id":"679e5e20-b15f-4832-84a1-1c9050cfc0e8","system_id":"levelo_inurba_marseille","lat":43.29416,"lon":5.38625,"is_reserved":false,"is_disabled":false,"rental_uris":{"android":"levelo://app?vid=679e5e20-b15f-4832-84a1-1c9050cfc0e8","ios":"levelo://app?vid=679e5e20-b15f-4832-84a1-1c9050cfc0e8"},"vehicle_type_id":"4","last_reported":1724004578,"current_range_meters":26800,"station_id":"ce4bh2h2rcd13ifvqdh0","pricing_plan_id":"cebpf4jnsgd1na2vs0mg"},{"bike_id":"4f78da5a-8118-40bf-99cd-f9305c21e6a2","system_id":"levelo_inurba_marseille","lat":43.28943,"lon":5.36628,"is_reserved":false,"is_disabled":false,"rental_uris":{"android":"levelo://app?vid=4f78da5a-8118-40bf-99cd-f9305c21e6a2","ios":"levelo://app?vid=4f78da5a-8118-40bf-99cd-f9305c21e6a2"},"vehicle_type_id":"4","last_reported":1724004578,"current_range_meters":9600,"station_id":"ce4bhap2rcd13ifvqek0","pricing_plan_id":"cebpf4jnsgd1na2vs0mg"},{"bike_id":"6f905c7a-dc6f-454f-9a0d-a7d7dfa2bfbf","system_id":"levelo_inurba_marseille","lat":43.29415,"lon":5.38627,"is_reserved":false,"is_disabled":false,"rental_uris":{"android":"levelo://app?vid=6f905c7a-dc6f-454f-9a0d-a7d7dfa2bfbf","ios":"levelo://app?vid=6f905c7a-dc6f-454f-9a0d-a7d7dfa2bfbf"},"vehicle_type_id":"4","last_reported":1724004578,"current_range_meters":7200,"station_id":"ce4bh2h2rcd13ifvqdh0","pricing_plan_id":"cebpf4jnsgd1na2vs0mg"},{"bike_id":"a61a29c9-126c-4147-9436-071541aa062e","system_id":"levelo_inurba_marseille","lat":43.29412,"lon":5.38622,"is_reserved":false,"is_disabled":false,"rental_uris":{"android":"levelo://app?vid=a61a29c9-126c-4147-9436-071541aa062e","ios":"levelo://app?vid=a61a29c9-126c-4147-9436-071541aa062e"},"vehicle_type_id":"4","last_reported":1724004578,"current_range_meters":0,"station_id":"ce4bh2h2rcd13ifvqdh0","pricing_plan_id":"cebpf4jnsgd1na2vs0mg"},{"bike_id":"b4ff56b4-a272-4aa3-8d51-0fb0b5801d24","system_id":"levelo_inurba_marseille","lat":43.29412,"lon":5.38627,"is_reserved":false,"is_disabled":false,"rental_uris":{"android":"levelo://app?vid=b4ff56b4-a272-4aa3-8d51-0fb0b5801d24","ios":"levelo://app?vid=b4ff56b4-a272-4aa3-8d51-0fb0b5801d24"},"vehicle_type_id":"4","last_reported":1724004578,"current_range_meters":24000,"station_id":"ce4bh2h2rcd13ifvqdh0","pricing_plan_id":"cebpf4jnsgd1na2vs0mg"},{"bike_id":"fb8dc639-3e08-47d9-b33e-1d5e43bf9beb","system_id":"levelo_inurba_marseille","lat":43.2894,"lon":5.36634,"is_reserved":false,"is_disabled":false,"rental_uris":{"android":"levelo://app?vid=fb8dc639-3e08-47d9-b33e-1d5e43bf9beb","ios":"levelo://app?vid=fb8dc639-3e08-47d9-b33e-1d5e43bf9beb"},"vehicle_type_id":"4","last_reported":1724004578,"current_range_meters":17600,"station_id":"ce4bhap2rcd13ifvqek0","pricing_plan_id":"cebpf4jnsgd1na2vs0mg"},{"bike_id":"e89479c1-1861-4a4e-89ea-7d56194aad53","system_id":"levelo_inurba_marseille","lat":43.28938,"lon":5.36631,"is_reserved":false,"is_disabled":false,"rental_uris":{"android":"levelo://app?vid=e89479c1-1861-4a4e-89ea-7d56194aad53","ios":"levelo://app?vid=e89479c1-1861-4a4e-89ea-7d56194aad53"},"vehicle_type_id":"4","last_reported":1724004578,"current_range_meters":16400,"station_id":"ce4bhap2rcd13ifvqek0","pricing_plan_id":"cebpf4jnsgd1na2vs0mg"},{"bike_id":"37ab308f-d2d4-4cb7-bd73-ad9e35852119","system_id":"levelo_inurba_marseille","lat":43.289468,"lon":5.363719,"is_reserved":false,"is_disabled":false,"rental_uris":{"android":"levelo://app?vid=37ab308f-d2d4-4cb7-bd73-ad9e35852119","ios":"levelo://app?vid=37ab308f-d2d4-4cb7-bd73-ad9e35852119"},"vehicle_type_id":"4","last_reported":1724004578,"current_range_meters":4800,"station_id":"ce4bhc92rcd13ifvqetg","pricing_plan_id":"cebpf4jnsgd1na2vs0mg"},{"bike_id":"7414636f-4d7f-4d25-86d2-4f9e68526a46","system_id":"levelo_inurba_marseille","lat":43.28938,"lon":5.36387,"is_reserved":false,"is_disabled":false,"rental_uris":{"android":"levelo://app?vid=7414636f-4d7f-4d25-86d2-4f9e68526a46","ios":"levelo://app?vid=7414636f-4d7f-4d25-86d2-4f9e68526a46"},"vehicle_type_id":"4","last_reported":1724004578,"current_range_meters":13600,"station_id":"ce4bhc92rcd13ifvqetg","pricing_plan_id":"cebpf4jnsgd1na2vs0mg"},{"bike_id":"49856533-f507-43c1-9de0-8d22f8b77b2d","system_id":"levelo_inurba_marseille","lat":43.28937,"lon":5.36398,"is_reserved":false,"is_disabled":false,"rental_uris":{"android":"levelo://app?vid=49856533-f507-43c1-9de0-8d22f8b77b2d","ios":"levelo://app?vid=49856533-f507-43c1-9de0-8d22f8b77b2d"},"vehicle_type_id":"4","last_reported":1724004578,"current_range_meters":0,"station_id":"ce4bhc92rcd13ifvqetg","pricing_plan_id":"cebpf4jnsgd1na2vs0mg"},{"bike_id":"de527776-ca36-4585-8dd1-9b6468df1a52","system_id":"levelo_inurba_marseille","lat":43.30423,"lon":5.397263,"is_reserved":false,"is_disabled":false,"rental_uris":{"android":"levelo://app?vid=de527776-ca36-4585-8dd1-9b6468df1a52","ios":"levelo://app?vid=de527776-ca36-4585-8dd1-9b6468df1a52"},"vehicle_type_id":"4","last_reported":1724004578,"current_range_meters":0,"station_id":"","pricing_plan_id":"cebpf4jnsgd1na2vs0mg"},{"bike_id":"16bd0f8b-1e6b-4f3a-b8a2-bd0dd71804a1","system_id":"levelo_inurba_marseille","lat":43.29272,"lon":5.38436,"is_reserved":false,"is_disabled":false,"rental_uris":{"android":"levelo://app?vid=16bd0f8b-1e6b-4f3a-b8a2-bd0dd71804a1","ios":"levelo://app?vid=16bd0f8b-1e6b-4f3a-b8a2-bd0dd71804a1"},"vehicle_type_id":"4","last_reported":1724004578,"current_range_meters":1200,"station_id":"ce4bh692rcd13ifvqea0","pricing_plan_id":"cebpf4jnsgd1na2vs0mg"},{"bike_id":"9f06b467-c0f2-4251-96bd-18b95039e3a4","system_id":"levelo_inurba_marseille","lat":43.304274,"lon":5.397513,"is_reserved":false,"is_disabled":false,"rental_uris":{"android":"levelo://app?vid=9f06b467-c0f2-4251-96bd-18b95039e3a4","ios":"levelo://app?vid=9f06b467-c0f2-4251-96bd-18b95039e3a4"},"vehicle_type_id":"4","last_reported":1724004578,"current_range_meters":30400,"station_id":"ce4bh092rcd13ifvqd20","pricing_plan_id":"cebpf4jnsgd1na2vs0mg"},{"bike_id":"8e1a7462-8dd5-4bf5-8282-c45fd71b7b24","system_id":"levelo_inurba_marseille","lat":43.304296,"lon":5.397513,"is_reserved":false,"is_disabled":false,"rental_uris":{"android":"levelo://app?vid=8e1a7462-8dd5-4bf5-8282-c45fd71b7b24","ios":"levelo://app?vid=8e1a7462-8dd5-4bf5-8282-c45fd71b7b24"},"vehicle_type_id":"4","last_reported":1724004578,"current_range_meters":28400,"station_id":"ce4bh092rcd13ifvqd20","pricing_plan_id":"cebpf4jnsgd1na2vs0mg"},{"bike_id":"6881fd1c-b9e3-4af4-8ed7-32c99d360948","system_id":"levelo_inurba_marseille","lat":43.304296,"lon":5.397513,"is_reserved":false,"is_disabled":false,"rental_uris":{"android":"levelo://app?vid=6881fd1c-b9e3-4af4-8ed7-32c99d360948","ios":"levelo://app?vid=6881fd1c-b9e3-4af4-8ed7-32c99d360948"},"vehicle_type_id":"4","last_reported":1724004578,"current_range_meters":22800,"station_id":"ce4bh092rcd13ifvqd20","pricing_plan_id":"cebpf4jnsgd1na2vs0mg"},{"bike_id":"1d8a1dae-52ed-4920-85ba-69baa2d164eb","system_id":"levelo_inurba_marseille","lat":43.304296,"lon":5.397513,"is_reserved":false,"is_disabled":false,"rental_uris":{"android":"levelo://app?vid=1d8a1dae-52ed-4920-85ba-69baa2d164eb","ios":"levelo://app?vid=1d8a1dae-52ed-4920-85ba-69baa2d164eb"},"vehicle_type_id":"4","last_reported":1724004578,"current_range_meters":28400,"station_id":"ce4bh092rcd13ifvqd20","pricing_plan_id":"cebpf4jnsgd1na2vs0mg"},{"bike_id":"50622275-9868-4f4c-a071-198f009ea5af","system_id":"levelo_inurba_marseille","lat":43.304274,"lon":5.397513,"is_reserved":false,"is_disabled":false,"rental_uris":{"android":"levelo://app?vid=50622275-9868-4f4c-a071-198f009ea5af","ios":"levelo://app?vid=50622275-9868-4f4c-a071-198f009ea5af"},"vehicle_type_id":"4","last_reported":1724004578,"current_range_meters":4800,"station_id":"ce4bh092rcd13ifvqd20","pricing_plan_id":"cebpf4jnsgd1na2vs0mg"},{"bike_id":"e7fa2465-8a87-4be4-813a-d55afcee7f33","system_id":"levelo_inurba_marseille","lat":43.29263,"lon":5.384487,"is_reserved":false,"is_disabled":false,"rental_uris":{"android":"levelo://app?vid=e7fa2465-8a87-4be4-813a-d55afcee7f33","ios":"levelo://app?vid=e7fa2465-8a87-4be4-813a-d55afcee7f33"},"vehicle_type_id":"4","last_reported":1724004578,"current_range_meters":2000,"station_id":"ce4bh692rcd13ifvqea0","pricing_plan_id":"cebpf4jnsgd1na2vs0mg"},{"bike_id":"cb682fcf-76a8-42a8-8456-0bc1955e8764","system_id":"levelo_inurba_marseille","lat":43.29008,"lon":5.35606,"is_reserved":false,"is_disabled":false,"rental_uris":{"android":"levelo://app?vid=cb682fcf-76a8-42a8-8456-0bc1955e8764","ios":"levelo://app?vid=cb682fcf-76a8-42a8-8456-0bc1955e8764"},"vehicle_type_id":"4","last_reported":1724004578,"current_range_meters":400,"station_id":"ce4bhb92rcd13ifvqen0","pricing_plan_id":"cebpf4jnsgd1na2vs0mg"},{"bike_id":"6e1caf61-a089-4422-a4d1-44b5f0f326f0","system_id":"levelo_inurba_marseille","lat":43.29005,"lon":5.35617,"is_reserved":false,"is_disabled":false,"rental_uris":{"android":"levelo://app?vid=6e1caf61-a089-4422-a4d1-44b5f0f326f0","ios":"levelo://app?vid=6e1caf61-a089-4422-a4d1-44b5f0f326f0"},"vehicle_type_id":"4","last_reported":1724004578,"current_range_meters":7200,"station_id":"ce4bhb92rcd13ifvqen0","pricing_plan_id":"cebpf4jnsgd1na2vs0mg"},{"bike_id":"2e88944e-727a-4ccb-91ac-08e345bae67c","system_id":"levelo_inurba_marseille","lat":43.290103,"lon":5.356114,"is_reserved":false,"is_disabled":false,"rental_uris":{"android":"levelo://app?vid=2e88944e-727a-4ccb-91ac-08e345bae67c","ios":"levelo://app?vid=2e88944e-727a-4ccb-91ac-08e345bae67c"},"vehicle_type_id":"4","last_reported":1724004578,"current_range_meters":1200,"station_id":"ce4bhb92rcd13ifvqen0","pricing_plan_id":"cebpf4jnsgd1na2vs0mg"},{"bike_id":"9e8a7c1b-bb1f-4782-8799-70e93eeafa78","system_id":"levelo_inurba_marseille","lat":43.290104,"lon":5.356111,"is_reserved":false,"is_disabled":false,"rental_uris":{"android":"levelo://app?vid=9e8a7c1b-bb1f-4782-8799-70e93eeafa78","ios":"levelo://app?vid=9e8a7c1b-bb1f-4782-8799-70e93eeafa78"},"vehicle_type_id":"4","last_reported":1724004578,"current_range_meters":7200,"station_id":"ce4bhb92rcd13ifvqen0","pricing_plan_id":"cebpf4jnsgd1na2vs0mg"},{"bike_id":"fe12f16b-b81f-4150-829d-ad726b62f203","system_id":"levelo_inurba_marseille","lat":43.290103,"lon":5.356114,"is_reserved":false,"is_disabled":false,"rental_uris":{"android":"levelo://app?vid=fe12f16b-b81f-4150-829d-ad726b62f203","ios":"levelo://app?vid=fe12f16b-b81f-4150-829d-ad726b62f203"},"vehicle_type_id":"4","last_reported":1724004578,"current_range_meters":24400,"station_id":"ce4bhb92rcd13ifvqen0","pricing_plan_id":"cebpf4jnsgd1na2vs0mg"},{"bike_id":"19e7b998-be48-4c4e-b187-c89c17a0ba76","system_id":"levelo_inurba_marseille","lat":43.29003,"lon":5.35617,"is_reserved":false,"is_disabled":false,"rental_uris":{"android":"levelo://app?vid=19e7b998-be48-4c4e-b187-c89c17a0ba76","ios":"levelo://app?vid=19e7b998-be48-4c4e-b187-c89c17a0ba76"},"vehicle_type_id":"4","last_reported":1724004578,"current_range_meters":14400,"station_id":"ce4bhb92rcd13ifvqen0","pricing_plan_id":"cebpf4jnsgd1na2vs0mg"},{"bike_id":"51f020c2-c7c5-4c08-8479-01c26cd6e8b6","system_id":"levelo_inurba_marseille","lat":43.290104,"lon":5.356111,"is_reserved":false,"is_disabled":false,"rental_uris":{"android":"levelo://app?vid=51f020c2-c7c5-4c08-8479-01c26cd6e8b6","ios":"levelo://app?vid=51f020c2-c7c5-4c08-8479-01c26cd6e8b6"},"vehicle_type_id":"4","last_reported":1724004578,"current_range_meters":0,"station_id":"ce4bhb92rcd13ifvqen0","pricing_plan_id":"cebpf4jnsgd1na2vs0mg"},{"bike_id":"5c68d413-d1b4-4cf4-a3b0-3fd43f290669","system_id":"levelo_inurba_marseille","lat":43.29005,"lon":5.35602,"is_reserved":false,"is_disabled":false,"rental_uris":{"android":"levelo://app?vid=5c68d413-d1b4-4cf4-a3b0-3fd43f290669","ios":"levelo://app?vid=5c68d413-d1b4-4cf4-a3b0-3fd43f290669"},"vehicle_type_id":"4","last_reported":1724004578,"current_range_meters":14800,"station_id":"ce4bhb92rcd13ifvqen0","pricing_plan_id":"cebpf4jnsgd1na2vs0mg"},{"bike_id":"2b1b1f88-eea6-47f8-a66a-ac2306b60460","system_id":"levelo_inurba_marseille","lat":43.290104,"lon":5.356111,"is_reserved":false,"is_disabled":false,"rental_uris":{"android":"levelo://app?vid=2b1b1f88-eea6-47f8-a66a-ac2306b60460","ios":"levelo://app?vid=2b1b1f88-eea6-47f8-a66a-ac2306b60460"},"vehicle_type_id":"4","last_reported":1724004578,"current_range_meters":31200,"station_id":"ce4bhb92rcd13ifvqen0","pricing_plan_id":"cebpf4jnsgd1na2vs0mg"},{"bike_id":"a1c53730-e163-4d0d-be93-2d4889fc27e7","system_id":"levelo_inurba_marseille","lat":43.29004,"lon":5.35604,"is_reserved":false,"is_disabled":false,"rental_uris":{"android":"levelo://app?vid=a1c53730-e163-4d0d-be93-2d4889fc27e7","ios":"levelo://app?vid=a1c53730-e163-4d0d-be93-2d4889fc27e7"},"vehicle_type_id":"4","last_reported":1724004578,"current_range_meters":16000,"station_id":"ce4bhb92rcd13ifvqen0","pricing_plan_id":"cebpf4jnsgd1na2vs0mg"},{"bike_id":"20ec0fb6-b4c4-4712-9e4f-2bf45a322c6b","system_id":"levelo_inurba_marseille","lat":43.290104,"lon":5.356111,"is_reserved":false,"is_disabled":false,"rental_uris":{"android":"levelo://app?vid=20ec0fb6-b4c4-4712-9e4f-2bf45a322c6b","ios":"levelo://app?vid=20ec0fb6-b4c4-4712-9e4f-2bf45a322c6b"},"vehicle_type_id":"4","last_reported":1724004578,"current_range_meters":4400,"station_id":"ce4bhb92rcd13ifvqen0","pricing_plan_id":"cebpf4jnsgd1na2vs0mg"},{"bike_id":"42ab0980-7491-4c02-950b-43635b5c2bc7","system_id":"levelo_inurba_marseille","lat":43.290103,"lon":5.356114,"is_reserved":false,"is_disabled":false,"rental_uris":{"android":"levelo://app?vid=42ab0980-7491-4c02-950b-43635b5c2bc7","ios":"levelo://app?vid=42ab0980-7491-4c02-950b-43635b5c2bc7"},"vehicle_type_id":"4","last_reported":1724004578,"current_range_meters":6400,"station_id":"ce4bhb92rcd13ifvqen0","pricing_plan_id":"cebpf4jnsgd1na2vs0mg"},{"bike_id":"18212a4a-d8fc-4ba0-9a5a-aed7f7e2c072","system_id":"levelo_inurba_marseille","lat":43.29002,"lon":5.35606,"is_reserved":false,"is_disabled":false,"rental_uris":{"android":"levelo://app?vid=18212a4a-d8fc-4ba0-9a5a-aed7f7e2c072","ios":"levelo://app?vid=18212a4a-d8fc-4ba0-9a5a-aed7f7e2c072"},"vehicle_type_id":"4","last_reported":1724004578,"current_range_meters":11600,"station_id":"ce4bhb92rcd13ifvqen0","pricing_plan_id":"cebpf4jnsgd1na2vs0mg"},{"bike_id":"096c2455-1c3f-4264-922a-29d9b3b9456d","system_id":"levelo_inurba_marseille","lat":43.29794,"lon":5.39341,"is_reserved":false,"is_disabled":false,"rental_uris":{"android":"levelo://app?vid=096c2455-1c3f-4264-922a-29d9b3b9456d","ios":"levelo://app?vid=096c2455-1c3f-4264-922a-29d9b3b9456d"},"vehicle_type_id":"4","last_reported":1724004578,"current_range_meters":0,"station_id":"chh1huq6cuj3fo74tm60","pricing_plan_id":"cebpf4jnsgd1na2vs0mg"},{"bike_id":"fb70f85a-7a65-438d-a9c4-36fcdb4bb45f","system_id":"levelo_inurba_marseille","lat":43.330442,"lon":5.389148,"is_reserved":false,"is_disabled":false,"rental_uris":{"android":"levelo://app?vid=fb70f85a-7a65-438d-a9c4-36fcdb4bb45f","ios":"levelo://app?vid=fb70f85a-7a65-438d-a9c4-36fcdb4bb45f"},"vehicle_type_id":"4","last_reported":1724004578,"current_range_meters":12800,"station_id":"ce4bhr92rcd13ifvqhrg","pricing_plan_id":"cebpf4jnsgd1na2vs0mg"},{"bike_id":"ec347d91-8554-4575-93b5-317006853349","system_id":"levelo_inurba_marseille","lat":43.330442,"lon":5.389148,"is_reserved":false,"is_disabled":false,"rental_uris":{"android":"levelo://app?vid=ec347d91-8554-4575-93b5-317006853349","ios":"levelo://app?vid=ec347d91-8554-4575-93b5-317006853349"},"vehicle_type_id":"4","last_reported":1724004578,"current_range_meters":27600,"station_id":"ce4bhr92rcd13ifvqhrg","pricing_plan_id":"cebpf4jnsgd1na2vs0mg"},{"bike_id":"7abe3d7b-5b47-414c-ac53-cf8d8e3b7f33","system_id":"levelo_inurba_marseille","lat":43.33025,"lon":5.39032,"is_reserved":false,"is_disabled":false,"rental_uris":{"android":"levelo://app?vid=7abe3d7b-5b47-414c-ac53-cf8d8e3b7f33","ios":"levelo://app?vid=7abe3d7b-5b47-414c-ac53-cf8d8e3b7f33"},"vehicle_type_id":"4","last_reported":1724004578,"current_range_meters":4800,"station_id":"ce4bhr92rcd13ifvqhrg","pricing_plan_id":"cebpf4jnsgd1na2vs0mg"},{"bike_id":"dda070fa-5372-43b7-922c-bd9fb64c7b2a","system_id":"levelo_inurba_marseille","lat":43.330442,"lon":5.389148,"is_reserved":false,"is_disabled":false,"rental_uris":{"android":"levelo://app?vid=dda070fa-5372-43b7-922c-bd9fb64c7b2a","ios":"levelo://app?vid=dda070fa-5372-43b7-922c-bd9fb64c7b2a"},"vehicle_type_id":"4","last_reported":1724004578,"current_range_meters":14800,"station_id":"ce4bhr92rcd13ifvqhrg","pricing_plan_id":"cebpf4jnsgd1na2vs0mg"},{"bike_id":"5f91043c-7d80-4beb-be21-3dd01238c8ce","system_id":"levelo_inurba_marseille","lat":43.330442,"lon":5.389148,"is_reserved":false,"is_disabled":false,"rental_uris":{"android":"levelo://app?vid=5f91043c-7d80-4beb-be21-3dd01238c8ce","ios":"levelo://app?vid=5f91043c-7d80-4beb-be21-3dd01238c8ce"},"vehicle_type_id":"4","last_reported":1724004578,"current_range_meters":26000,"station_id":"ce4bhr92rcd13ifvqhrg","pricing_plan_id":"cebpf4jnsgd1na2vs0mg"},{"bike_id":"4e6724ba-c256-46a5-b7fb-a766650a6acb","system_id":"levelo_inurba_marseille","lat":43.330442,"lon":5.389148,"is_reserved":false,"is_disabled":false,"rental_uris":{"android":"levelo://app?vid=4e6724ba-c256-46a5-b7fb-a766650a6acb","ios":"levelo://app?vid=4e6724ba-c256-46a5-b7fb-a766650a6acb"},"vehicle_type_id":"4","last_reported":1724004578,"current_range_meters":20000,"station_id":"ce4bhr92rcd13ifvqhrg","pricing_plan_id":"cebpf4jnsgd1na2vs0mg"},{"bike_id":"deed0b49-b5a2-4d41-ac11-c40db2ef6dfa","system_id":"levelo_inurba_marseille","lat":43.33021,"lon":5.39043,"is_reserved":false,"is_disabled":false,"rental_uris":{"android":"levelo://app?vid=deed0b49-b5a2-4d41-ac11-c40db2ef6dfa","ios":"levelo://app?vid=deed0b49-b5a2-4d41-ac11-c40db2ef6dfa"},"vehicle_type_id":"4","last_reported":1724004578,"current_range_meters":0,"station_id":"ce4bhr92rcd13ifvqhrg","pricing_plan_id":"cebpf4jnsgd1na2vs0mg"},{"bike_id":"4256bdd8-ac38-4465-8ac7-0946c96eea9b","system_id":"levelo_inurba_marseille","lat":43.330442,"lon":5.389148,"is_reserved":false,"is_disabled":false,"rental_uris":{"android":"levelo://app?vid=4256bdd8-ac38-4465-8ac7-0946c96eea9b","ios":"levelo://app?vid=4256bdd8-ac38-4465-8ac7-0946c96eea9b"},"vehicle_type_id":"4","last_reported":1724004578,"current_range_meters":24000,"station_id":"ce4bhr92rcd13ifvqhrg","pricing_plan_id":"cebpf4jnsgd1na2vs0mg"},{"bike_id":"0eb95b4f-6700-4c40-b995-e0691d83ce64","system_id":"levelo_inurba_marseille","lat":43.330442,"lon":5.389148,"is_reserved":false,"is_disabled":false,"rental_uris":{"android":"levelo://app?vid=0eb95b4f-6700-4c40-b995-e0691d83ce64","ios":"levelo://app?vid=0eb95b4f-6700-4c40-b995-e0691d83ce64"},"vehicle_type_id":"4","last_reported":1724004578,"current_range_meters":8400,"station_id":"ce4bhr92rcd13ifvqhrg","pricing_plan_id":"cebpf4jnsgd1na2vs0mg"},{"bike_id":"8041bf46-200c-4436-8aa6-7bd56af27107","system_id":"levelo_inurba_marseille","lat":43.330442,"lon":5.389148,"is_reserved":false,"is_disabled":false,"rental_uris":{"android":"levelo://app?vid=8041bf46-200c-4436-8aa6-7bd56af27107","ios":"levelo://app?vid=8041bf46-200c-4436-8aa6-7bd56af27107"},"vehicle_type_id":"4","last_reported":1724004578,"current_range_meters":18000,"station_id":"ce4bhr92rcd13ifvqhrg","pricing_plan_id":"cebpf4jnsgd1na2vs0mg"},{"bike_id":"6600ee24-80c7-438d-94db-4bc319d99b84","system_id":"levelo_inurba_marseille","lat":43.310634,"lon":5.400717,"is_reserved":false,"is_disabled":false,"rental_uris":{"android":"levelo://app?vid=6600ee24-80c7-438d-94db-4bc319d99b84","ios":"levelo://app?vid=6600ee24-80c7-438d-94db-4bc319d99b84"},"vehicle_type_id":"4","last_reported":1724004578,"current_range_meters":19200,"station_id":"","pricing_plan_id":"cebpf4jnsgd1na2vs0mg"},{"bike_id":"e3b062dc-39ea-4574-9bad-6c292f711e87","system_id":"levelo_inurba_marseille","lat":43.31074,"lon":5.40084,"is_reserved":false,"is_disabled":false,"rental_uris":{"android":"levelo://app?vid=e3b062dc-39ea-4574-9bad-6c292f711e87","ios":"levelo://app?vid=e3b062dc-39ea-4574-9bad-6c292f711e87"},"vehicle_type_id":"4","last_reported":1724004578,"current_range_meters":2400,"station_id":"","pricing_plan_id":"cebpf4jnsgd1na2vs0mg"},{"bike_id":"7501d212-9d34-4400-9307-f15d01635cd3","system_id":"levelo_inurba_marseille","lat":43.28856,"lon":5.358371,"is_reserved":false,"is_disabled":false,"rental_uris":{"android":"levelo://app?vid=7501d212-9d34-4400-9307-f15d01635cd3","ios":"levelo://app?vid=7501d212-9d34-4400-9307-f15d01635cd3"},"vehicle_type_id":"4","last_reported":1724004578,"current_range_meters":22800,"station_id":"ce4bhb12rcd13ifvqem0","pricing_plan_id":"cebpf4jnsgd1na2vs0mg"},{"bike_id":"b5ed8803-5cbc-43e2-a419-0c71fbd6827b","system_id":"levelo_inurba_marseille","lat":43.3105,"lon":5.40116,"is_reserved":false,"is_disabled":false,"rental_uris":{"android":"levelo://app?vid=b5ed8803-5cbc-43e2-a419-0c71fbd6827b","ios":"levelo://app?vid=b5ed8803-5cbc-43e2-a419-0c71fbd6827b"},"vehicle_type_id":"4","last_reported":1724004578,"current_range_meters":31200,"station_id":"","pricing_plan_id":"cebpf4jnsgd1na2vs0mg"},{"bike_id":"9b17781e-c5b4-46df-b27e-bd3e6b14c21f","system_id":"levelo_inurba_marseille","lat":43.312609,"lon":5.401662,"is_reserved":false,"is_disabled":false,"rental_uris":{"android":"levelo://app?vid=9b17781e-c5b4-46df-b27e-bd3e6b14c21f","ios":"levelo://app?vid=9b17781e-c5b4-46df-b27e-bd3e6b14c21f"},"vehicle_type_id":"4","last_reported":1724004578,"current_range_meters":18400,"station_id":"ce4bh092rcd13ifvqd30","pricing_plan_id":"cebpf4jnsgd1na2vs0mg"},{"bike_id":"2dde2a90-712f-4c89-9f67-eb6e73f8bbdd","system_id":"levelo_inurba_marseille","lat":43.312609,"lon":5.401662,"is_reserved":false,"is_disabled":false,"rental_uris":{"android":"levelo://app?vid=2dde2a90-712f-4c89-9f67-eb6e73f8bbdd","ios":"levelo://app?vid=2dde2a90-712f-4c89-9f67-eb6e73f8bbdd"},"vehicle_type_id":"4","last_reported":1724004578,"current_range_meters":28800,"station_id":"ce4bh092rcd13ifvqd30","pricing_plan_id":"cebpf4jnsgd1na2vs0mg"},{"bike_id":"43af498b-2b0e-4347-ac54-870e83b6d1f0","system_id":"levelo_inurba_marseille","lat":43.312745,"lon":5.401596,"is_reserved":false,"is_disabled":false,"rental_uris":{"android":"levelo://app?vid=43af498b-2b0e-4347-ac54-870e83b6d1f0","ios":"levelo://app?vid=43af498b-2b0e-4347-ac54-870e83b6d1f0"},"vehicle_type_id":"4","last_reported":1724004578,"current_range_meters":31200,"station_id":"ce4bh092rcd13ifvqd30","pricing_plan_id":"cebpf4jnsgd1na2vs0mg"},{"bike_id":"743278e9-bb98-4248-ae17-5b05fcd15c5b","system_id":"levelo_inurba_marseille","lat":43.31272,"lon":5.40165,"is_reserved":false,"is_disabled":false,"rental_uris":{"android":"levelo://app?vid=743278e9-bb98-4248-ae17-5b05fcd15c5b","ios":"levelo://app?vid=743278e9-bb98-4248-ae17-5b05fcd15c5b"},"vehicle_type_id":"4","last_reported":1724004578,"current_range_meters":31200,"station_id":"ce4bh092rcd13ifvqd30","pricing_plan_id":"cebpf4jnsgd1na2vs0mg"},{"bike_id":"ebc4a019-0e6a-4cf1-8618-bbbf822f52e1","system_id":"levelo_inurba_marseille","lat":43.3094,"lon":5.40139,"is_reserved":false,"is_disabled":false,"rental_uris":{"android":"levelo://app?vid=ebc4a019-0e6a-4cf1-8618-bbbf822f52e1","ios":"levelo://app?vid=ebc4a019-0e6a-4cf1-8618-bbbf822f52e1"},"vehicle_type_id":"4","last_reported":1724004578,"current_range_meters":11600,"station_id":"ce4bgvp2rcd13ifvqct0","pricing_plan_id":"cebpf4jnsgd1na2vs0mg"},{"bike_id":"f44674a6-e2e6-46e0-ba58-20b4eadf3ac0","system_id":"levelo_inurba_marseille","lat":43.3093,"lon":5.40138,"is_reserved":false,"is_disabled":false,"rental_uris":{"android":"levelo://app?vid=f44674a6-e2e6-46e0-ba58-20b4eadf3ac0","ios":"levelo://app?vid=f44674a6-e2e6-46e0-ba58-20b4eadf3ac0"},"vehicle_type_id":"4","last_reported":1724004578,"current_range_meters":31200,"station_id":"ce4bgvp2rcd13ifvqct0","pricing_plan_id":"cebpf4jnsgd1na2vs0mg"},{"bike_id":"ac75d8e5-5139-4e43-a64e-51e7994c2517","system_id":"levelo_inurba_marseille","lat":43.337444,"lon":5.374475,"is_reserved":false,"is_disabled":false,"rental_uris":{"android":"levelo://app?vid=ac75d8e5-5139-4e43-a64e-51e7994c2517","ios":"levelo://app?vid=ac75d8e5-5139-4e43-a64e-51e7994c2517"},"vehicle_type_id":"3","last_reported":1724004578,"current_range_meters":24800,"station_id":"","pricing_plan_id":"cebpf4jnsgd1na2vs0mg"},{"bike_id":"9f6eba27-d771-49a6-8cf7-4c0bfc69d4de","system_id":"levelo_inurba_marseille","lat":43.30928,"lon":5.401379,"is_reserved":false,"is_disabled":false,"rental_uris":{"android":"levelo://app?vid=9f6eba27-d771-49a6-8cf7-4c0bfc69d4de","ios":"levelo://app?vid=9f6eba27-d771-49a6-8cf7-4c0bfc69d4de"},"vehicle_type_id":"4","last_reported":1724004578,"current_range_meters":0,"station_id":"ce4bgvp2rcd13ifvqct0","pricing_plan_id":"cebpf4jnsgd1na2vs0mg"},{"bike_id":"86c06fca-6b8f-4783-9633-305ff5cc4cda","system_id":"levelo_inurba_marseille","lat":43.30929,"lon":5.40139,"is_reserved":false,"is_disabled":false,"rental_uris":{"android":"levelo://app?vid=86c06fca-6b8f-4783-9633-305ff5cc4cda","ios":"levelo://app?vid=86c06fca-6b8f-4783-9633-305ff5cc4cda"},"vehicle_type_id":"4","last_reported":1724004578,"current_range_meters":21200,"station_id":"ce4bgvp2rcd13ifvqct0","pricing_plan_id":"cebpf4jnsgd1na2vs0mg"},{"bike_id":"72ea2811-25a1-430b-9bcb-ebc4d122a5c0","system_id":"levelo_inurba_marseille","lat":43.309371,"lon":5.401449,"is_reserved":false,"is_disabled":false,"rental_uris":{"android":"levelo://app?vid=72ea2811-25a1-430b-9bcb-ebc4d122a5c0","ios":"levelo://app?vid=72ea2811-25a1-430b-9bcb-ebc4d122a5c0"},"vehicle_type_id":"4","last_reported":1724004578,"current_range_meters":12400,"station_id":"ce4bgvp2rcd13ifvqct0","pricing_plan_id":"cebpf4jnsgd1na2vs0mg"},{"bike_id":"37406ba8-e906-4aa8-9d66-8669b5435095","system_id":"levelo_inurba_marseille","lat":43.306412,"lon":5.401035,"is_reserved":false,"is_disabled":false,"rental_uris":{"android":"levelo://app?vid=37406ba8-e906-4aa8-9d66-8669b5435095","ios":"levelo://app?vid=37406ba8-e906-4aa8-9d66-8669b5435095"},"vehicle_type_id":"4","last_reported":1724004578,"current_range_meters":22000,"station_id":"ce4bh112rcd13ifvqda0","pricing_plan_id":"cebpf4jnsgd1na2vs0mg"},{"bike_id":"3c41009f-2d18-48d8-a23d-2ea0c78e24ec","system_id":"levelo_inurba_marseille","lat":43.3376,"lon":5.37479,"is_reserved":false,"is_disabled":false,"rental_uris":{"android":"levelo://app?vid=3c41009f-2d18-48d8-a23d-2ea0c78e24ec","ios":"levelo://app?vid=3c41009f-2d18-48d8-a23d-2ea0c78e24ec"},"vehicle_type_id":"4","last_reported":1724004578,"current_range_meters":19600,"station_id":"","pricing_plan_id":"cebpf4jnsgd1na2vs0mg"},{"bike_id":"013cfb55-a2ad-4416-a977-5534ff73af07","system_id":"levelo_inurba_marseille","lat":43.337622,"lon":5.374694,"is_reserved":false,"is_disabled":false,"rental_uris":{"android":"levelo://app?vid=013cfb55-a2ad-4416-a977-5534ff73af07","ios":"levelo://app?vid=013cfb55-a2ad-4416-a977-5534ff73af07"},"vehicle_type_id":"4","last_reported":1724004578,"current_range_meters":23200,"station_id":"","pricing_plan_id":"cebpf4jnsgd1na2vs0mg"},{"bike_id":"c783e900-2cc5-48c1-8812-1c0cfdddf9e3","system_id":"levelo_inurba_marseille","lat":43.309371,"lon":5.401449,"is_reserved":false,"is_disabled":false,"rental_uris":{"android":"levelo://app?vid=c783e900-2cc5-48c1-8812-1c0cfdddf9e3","ios":"levelo://app?vid=c783e900-2cc5-48c1-8812-1c0cfdddf9e3"},"vehicle_type_id":"4","last_reported":1724004578,"current_range_meters":31200,"station_id":"ce4bgvp2rcd13ifvqct0","pricing_plan_id":"cebpf4jnsgd1na2vs0mg"},{"bike_id":"16a958e0-aafc-4396-b634-1d8af67abff0","system_id":"levelo_inurba_marseille","lat":43.33766,"lon":5.37481,"is_reserved":false,"is_disabled":false,"rental_uris":{"android":"levelo://app?vid=16a958e0-aafc-4396-b634-1d8af67abff0","ios":"levelo://app?vid=16a958e0-aafc-4396-b634-1d8af67abff0"},"vehicle_type_id":"4","last_reported":1724004578,"current_range_meters":19600,"station_id":"","pricing_plan_id":"cebpf4jnsgd1na2vs0mg"},