{"last_updated":1748686194,"ttl":60,"version":"2.2","data":{"bikes":[{"bike_id":"da360535-6034-4aaa-905b-f590494fec8c","system_id":"levelo_inurba_marseille","lat":43.23194,"lon":5.35557,"is_reserved":false,"is_disabled":false,"rental_uris":{"android":"levelo://app?vid=da360535-6034-4aaa-905b-f590494fec8c","ios":"levelo://app?vid=da360535-6034-4aaa-905b-f590494fec8c"},"vehicle_type_id":"4","last_reported":1748686195,"current_range_meters":2800,"station_id":"ce4bhu92rcd13ifvqi70","pricing_plan_id":"cebpf4jnsgd1na2vs0mg"},{"bike_id":"a24ed859-7ffe-447b-a280-957c836eb856","system_id":"levelo_inurba_marseille","lat":43.31373,"lon":5.37616,"is_reserved":false,"is_disabled":false,"rental_uris":{"android":"levelo://app?vid=a24ed859-7ffe-447b-a280-957c836eb856","ios":"levelo://app?vid=a24ed859-7ffe-447b-a280-957c836eb856"},"vehicle_type_id":"4","last_reported":1748686195,"current_range_meters":2800,"station_id":"","pricing_plan_id":"cebpf4jnsgd1na2vs0mg"},{"bike_id":"4606a288-c4b4-467c-bdcc-a9515d68faf4","system_id":"levelo_inurba_marseille","lat":43.27199,"lon":5.3901,"is_reserved":false,"is_disabled":false,"rental_uris":{"android":"levelo://app?vid=4606a288-c4b4-467c-bdcc-a9515d68faf4","ios":"levelo://app?vid=4606a288-c4b4-467c-bdcc-a9515d68faf4"},"vehicle_type_id":"4","last_reported":1748686195,"current_range_meters":2800,"station_id":"","pricing_plan_id":"cebpf4jnsgd1na2vs0mg"},{"bike_id":"f05db15e-4229-43ec-86b7-b715a3e1bcfd","system_id":"levelo_inurba_marseille","lat":43.23061,"lon":5.35491,"is_reserved":false,"is_disabled":false,"rental_uris":{"android":"levelo://app?vid=f05db15e-4229-43ec-86b7-b715a3e1bcfd","ios":"levelo://app?vid=f05db15e-4229-43ec-86b7-b715a3e1bcfd"},"vehicle_type_id":"4","last_reported":1748686195,"current_range_meters":2800,"station_id":"cpo3342slgdg3j2ifvpg","pricing_plan_id":"cebpf4jnsgd1na2vs0mg"},{"bike_id":"9bfc9256-0a8b-47e2-9b2a-e50bc7ddc402","system_id":"levelo_inurba_marseille","lat":43.33019,"lon":5.39042,"is_reserved":false,"is_disabled":false,"rental_uris":{"android":"levelo://app?vid=9bfc9256-0a8b-47e2-9b2a-e50bc7ddc402","ios":"levelo://app?vid=9bfc9256-0a8b-47e2-9b2a-e50bc7ddc402"},"vehicle_type_id":"4","last_reported":1748686195,"current_range_meters":3200,"station_id":"ce4bhr92rcd13ifvqhrg","pricing_plan_id":"cebpf4jnsgd1na2vs0mg"},{"bike_id":"36240f0a-66a2-43ec-8330-1f3a9d08cc7e","system_id":"levelo_inurba_marseille","lat":43.23901,"lon":5.36233,"is_reserved":false,"is_disabled":false,"rental_uris":{"android":"levelo://app?vid=36240f0a-66a2-43ec-8330-1f3a9d08cc7e","ios":"levelo://app?vid=36240f0a-66a2-43ec-8330-1f3a9d08cc7e"},"vehicle_type_id":"4","last_reported":1748686195,"current_range_meters":3200,"station_id":"","pricing_plan_id":"cebpf4jnsgd1na2vs0mg"},{"bike_id":"55080048-1445-433c-8653-9f436d843131","system_id":"levelo_inurba_marseille","lat":43.28566,"lon":5.37011,"is_reserved":false,"is_disabled":true,"rental_uris":{"android":"levelo://app?vid=55080048-1445-433c-8653-9f436d843131","ios":"levelo://app?vid=55080048-1445-433c-8653-9f436d843131"},"vehicle_type_id":"4","last_reported":1748686195,"current_range_meters":3600,"station_id":"","pricing_plan_id":"cebpf4jnsgd1na2vs0mg"},{"bike_id":"0196e848-da3b-4cdf-bb34-a0adc5733a67","system_id":"levelo_inurba_marseille","lat":43.3059,"lon":5.39363,"is_reserved":false,"is_disabled":false,"rental_uris":{"android":"levelo://app?vid=0196e848-da3b-4cdf-bb34-a0adc5733a67","ios":"levelo://app?vid=0196e848-da3b-4cdf-bb34-a0adc5733a67"},"vehicle_type_id":"4","last_reported":1748686195,"current_range_meters":3600,"station_id":"ce4bh0p2rcd13ifvqd80","pricing_plan_id":"cebpf4jnsgd1na2vs0mg"},{"bike_id":"96b8c4e4-fe75-48b8-97dd-b487c8e7f5fa","system_id":"levelo_inurba_marseille","lat":43.23062,"lon":5.35482,"is_reserved":false,"is_disabled":false,"rental_uris":{"android":"levelo://app?vid=96b8c4e4-fe75-48b8-97dd-b487c8e7f5fa","ios":"levelo://app?vid=96b8c4e4-fe75-48b8-97dd-b487c8e7f5fa"},"vehicle_type_id":"4","last_reported":1748686195,"current_range_meters":3600,"station_id":"cpo3342slgdg3j2ifvpg","pricing_plan_id":"cebpf4jnsgd1na2vs0mg"},{"bike_id":"e573d933-51c2-4712-98ab-e3d7ec295a82","system_id":"levelo_inurba_marseille","lat":43.28414,"lon":5.34974,"is_reserved":false,"is_disabled":false,"rental_uris":{"android":"levelo://app?vid=e573d933-51c2-4712-98ab-e3d7ec295a82","ios":"levelo://app?vid=e573d933-51c2-4712-98ab-e3d7ec295a82"},"vehicle_type_id":"4","last_reported":1748686195,"current_range_meters":3600,"station_id":"ce4bhbh2rcd13ifvqepg","pricing_plan_id":"cebpf4jnsgd1na2vs0mg"},{"bike_id":"26904eab-0040-4a23-9aec-04ac31ff2d99","system_id":"levelo_inurba_marseille","lat":43.24171,"lon":5.36389,"is_reserved":false,"is_disabled":false,"rental_uris":{"android":"levelo://app?vid=26904eab-0040-4a23-9aec-04ac31ff2d99","ios":"levelo://app?vid=26904eab-0040-4a23-9aec-04ac31ff2d99"},"vehicle_type_id":"4","last_reported":1748686195,"current_range_meters":3600,"station_id":"cpo36qri1sfpv3e86is0","pricing_plan_id":"cebpf4jnsgd1na2vs0mg"},{"bike_id":"232c4705-8474-4e07-8307-822c8fd53acb","system_id":"levelo_inurba_marseille","lat":43.248036,"lon":5.374433,"is_reserved":false,"is_disabled":false,"rental_uris":{"android":"levelo://app?vid=232c4705-8474-4e07-8307-822c8fd53acb","ios":"levelo://app?vid=232c4705-8474-4e07-8307-822c8fd53acb"},"vehicle_type_id":"4","last_reported":1748686195,"current_range_meters":3600,"station_id":"ce4bhgh2rcd13ifvqfb0","pricing_plan_id":"cebpf4jnsgd1na2vs0mg"},{"bike_id":"c40b5fb1-fb87-4a87-bbd6-c1f33aaedd7f","system_id":"levelo_inurba_marseille","lat":43.30365,"lon":5.42492,"is_reserved":false,"is_disabled":false,"rental_uris":{"android":"levelo://app?vid=c40b5fb1-fb87-4a87-bbd6-c1f33aaedd7f","ios":"levelo://app?vid=c40b5fb1-fb87-4a87-bbd6-c1f33aaedd7f"},"vehicle_type_id":"4","last_reported":1748686195,"current_range_meters":3600,"station_id":"ce4bhoh2rcd13ifvqh6g","pricing_plan_id":"cebpf4jnsgd1na2vs0mg"},{"bike_id":"4c5ea8c1-0290-4597-9a49-5818b57bbefe","system_id":"levelo_inurba_marseille","lat":43.30955,"lon":5.3903,"is_reserved":false,"is_disabled":false,"rental_uris":{"android":"levelo://app?vid=4c5ea8c1-0290-4597-9a49-5818b57bbefe","ios":"levelo://app?vid=4c5ea8c1-0290-4597-9a49-5818b57bbefe"},"vehicle_type_id":"4","last_reported":1748686195,"current_range_meters":4000,"station_id":"ce4bgup2rcd13ifvqco0","pricing_plan_id":"cebpf4jnsgd1na2vs0mg"},{"bike_id":"e5d113e9-a907-4483-a607-193e3c6f0534","system_id":"levelo_inurba_marseille","lat":43.2417,"lon":5.36378,"is_reserved":false,"is_disabled":false,"rental_uris":{"android":"levelo://app?vid=e5d113e9-a907-4483-a607-193e3c6f0534","ios":"levelo://app?vid=e5d113e9-a907-4483-a607-193e3c6f0534"},"vehicle_type_id":"4","last_reported":1748686195,"current_range_meters":4000,"station_id":"cpo36qri1sfpv3e86is0","pricing_plan_id":"cebpf4jnsgd1na2vs0mg"},{"bike_id":"9a26905f-db9c-4a1b-85fc-0fa6667b8242","system_id":"levelo_inurba_marseille","lat":43.28416,"lon":5.34973,"is_reserved":false,"is_disabled":false,"rental_uris":{"android":"levelo://app?vid=9a26905f-db9c-4a1b-85fc-0fa6667b8242","ios":"levelo://app?vid=9a26905f-db9c-4a1b-85fc-0fa6667b8242"},"vehicle_type_id":"4","last_reported":1748686195,"current_range_meters":4400,"station_id":"ce4bhbh2rcd13ifvqepg","pricing_plan_id":"cebpf4jnsgd1na2vs0mg"},{"bike_id":"4134fe01-5d14-4615-9d7b-0a524ae01da0","system_id":"levelo_inurba_marseille","lat":43.2314,"lon":5.43726,"is_reserved":false,"is_disabled":false,"rental_uris":{"android":"levelo://app?vid=4134fe01-5d14-4615-9d7b-0a524ae01da0","ios":"levelo://app?vid=4134fe01-5d14-4615-9d7b-0a524ae01da0"},"vehicle_type_id":"4","last_reported":1748686195,"current_range_meters":4400,"station_id":"ce4bhmp2rcd13ifvqgog","pricing_plan_id":"cebpf4jnsgd1na2vs0mg"},{"bike_id":"89ffc610-8c1d-49ab-a16f-8e7b4f049e54","system_id":"levelo_inurba_marseille","lat":43.23119,"lon":5.40117,"is_reserved":false,"is_disabled":false,"rental_uris":{"android":"levelo://app?vid=89ffc610-8c1d-49ab-a16f-8e7b4f049e54","ios":"levelo://app?vid=89ffc610-8c1d-49ab-a16f-8e7b4f049e54"},"vehicle_type_id":"4","last_reported":1748686195,"current_range_meters":4400,"station_id":"","pricing_plan_id":"cebpf4jnsgd1na2vs0mg"},{"bike_id":"7542c89b-0231-4b5c-ad09-3b5e68a0ead6","system_id":"levelo_inurba_marseille","lat":43.26057,"lon":5.39401,"is_reserved":false,"is_disabled":false,"rental_uris":{"android":"levelo://app?vid=7542c89b-0231-4b5c-ad09-3b5e68a0ead6","ios":"levelo://app?vid=7542c89b-0231-4b5c-ad09-3b5e68a0ead6"},"vehicle_type_id":"4","last_reported":1748686195,"current_range_meters":4400,"station_id":"ce4bhh92rcd13ifvqfj0","pricing_plan_id":"cebpf4jnsgd1na2vs0mg"},{"bike_id":"ff39dc87-0331-42c9-bc28-dbeb6e7cdcd1","system_id":"levelo_inurba_marseille","lat":43.30142,"lon":5.38084,"is_reserved":false,"is_disabled":false,"rental_uris":{"android":"levelo://app?vid=ff39dc87-0331-42c9-bc28-dbeb6e7cdcd1","ios":"levelo://app?vid=ff39dc87-0331-42c9-bc28-dbeb6e7cdcd1"},"vehicle_type_id":"4","last_reported":1748686195,"current_range_meters":4800,"station_id":"ce4bgjp2rcd13ifvqbh0","pricing_plan_id":"cebpf4jnsgd1na2vs0mg"},{"bike_id":"a426f99b-d34a-41bf-bbda-59f7dfd6939b","system_id":"levelo_inurba_marseille","lat":43.255796,"lon":5.382262,"is_reserved":false,"is_disabled":true,"rental_uris":{"android":"levelo://app?vid=a426f99b-d34a-41bf-bbda-59f7dfd6939b","ios":"levelo://app?vid=a426f99b-d34a-41bf-bbda-59f7dfd6939b"},"vehicle_type_id":"4","last_reported":1748686195,"current_range_meters":4800,"station_id":"ce501612rcd8frsf0b60","pricing_plan_id":"cebpf4jnsgd1na2vs0mg"},{"bike_id":"5a776783-0973-44b8-88ca-ac19e6763404","system_id":"levelo_inurba_marseille","lat":43.29298,"lon":5.37459,"is_reserved":false,"is_disabled":false,"rental_uris":{"android":"levelo://app?vid=5a776783-0973-44b8-88ca-ac19e6763404","ios":"levelo://app?vid=5a776783-0973-44b8-88ca-ac19e6763404"},"vehicle_type_id":"4","last_reported":1748686195,"current_range_meters":4400,"station_id":"ce4bgi12rcd13ifvqb70","pricing_plan_id":"cebpf4jnsgd1na2vs0mg"},{"bike_id":"10d75ef7-2da9-4b34-9988-e053cde9ff8e","system_id":"levelo_inurba_marseille","lat":43.26913,"lon":5.40262,"is_reserved":false,"is_disabled":false,"rental_uris":{"android":"levelo://app?vid=10d75ef7-2da9-4b34-9988-e053cde9ff8e","ios":"levelo://app?vid=10d75ef7-2da9-4b34-9988-e053cde9ff8e"},"vehicle_type_id":"4","last_reported":1748686195,"current_range_meters":4800,"station_id":"cjm6bp8fraef2m0cb0m0","pricing_plan_id":"cebpf4jnsgd1na2vs0mg"},{"bike_id":"18a73d07-6377-4722-9093-cfce08762ad1","system_id":"levelo_inurba_marseille","lat":43.27377,"lon":5.36254,"is_reserved":false,"is_disabled":false,"rental_uris":{"android":"levelo://app?vid=18a73d07-6377-4722-9093-cfce08762ad1","ios":"levelo://app?vid=18a73d07-6377-4722-9093-cfce08762ad1"},"vehicle_type_id":"4","last_reported":1748686195,"current_range_meters":4800,"station_id":"ce4bhbh2rcd13ifvqeo0","pricing_plan_id":"cebpf4jnsgd1na2vs0mg"},{"bike_id":"da5921cd-e75b-4ce7-b109-06c28f720590","system_id":"levelo_inurba_marseille","lat":43.28751,"lon":5.3614,"is_reserved":false,"is_disabled":false,"rental_uris":{"android":"levelo://app?vid=da5921cd-e75b-4ce7-b109-06c28f720590","ios":"levelo://app?vid=da5921cd-e75b-4ce7-b109-06c28f720590"},"vehicle_type_id":"4","last_reported":1748686195,"current_range_meters":5600,"station_id":"","pricing_plan_id":"cebpf4jnsgd1na2vs0mg"},{"bike_id":"b0ef799d-9ad8-4b33-97af-7fa7d8a21875","system_id":"levelo_inurba_marseille","lat":43.23962,"lon":5.36638,"is_reserved":false,"is_disabled":false,"rental_uris":{"android":"levelo://app?vid=b0ef799d-9ad8-4b33-97af-7fa7d8a21875","ios":"levelo://app?vid=b0ef799d-9ad8-4b33-97af-7fa7d8a21875"},"vehicle_type_id":"4","last_reported":1748686195,"current_range_meters":5600,"station_id":"ce4bhi12rcd13ifvqfp0","pricing_plan_id":"cebpf4jnsgd1na2vs0mg"},{"bike_id":"5e9ad4f4-364a-4535-b0ca-28bb17c2aa6a","system_id":"levelo_inurba_marseille","lat":43.27915,"lon":5.3958,"is_reserved":false,"is_disabled":false,"rental_uris":{"android":"levelo://app?vid=5e9ad4f4-364a-4535-b0ca-28bb17c2aa6a","ios":"levelo://app?vid=5e9ad4f4-364a-4535-b0ca-28bb17c2aa6a"},"vehicle_type_id":"4","last_reported":1748686195,"current_range_meters":5600,"station_id":"ce4bhf92rcd13ifvqf40","pricing_plan_id":"cebpf4jnsgd1na2vs0mg"},{"bike_id":"070b523f-a2b2-4153-aef3-db5292e8771d","system_id":"levelo_inurba_marseille","lat":43.28609,"lon":5.35096,"is_reserved":false,"is_disabled":false,"rental_uris":{"android":"levelo://app?vid=070b523f-a2b2-4153-aef3-db5292e8771d","ios":"levelo://app?vid=070b523f-a2b2-4153-aef3-db5292e8771d"},"vehicle_type_id":"4","last_reported":1748686195,"current_range_meters":5600,"station_id":"ce4bhch2rcd13ifvqeug","pricing_plan_id":"cebpf4jnsgd1na2vs0mg"},{"bike_id":"beff0fb5-5e10-4af8-805d-46042e8541b4","system_id":"levelo_inurba_marseille","lat":43.281218,"lon":5.37832,"is_reserved":false,"is_disabled":false,"rental_uris":{"android":"levelo://app?vid=beff0fb5-5e10-4af8-805d-46042e8541b4","ios":"levelo://app?vid=beff0fb5-5e10-4af8-805d-46042e8541b4"},"vehicle_type_id":"4","last_reported":1748686195,"current_range_meters":4800,"station_id":"ce4bha12rcd13ifvqee0","pricing_plan_id":"cebpf4jnsgd1na2vs0mg"},{"bike_id":"0c463a46-a510-4c5e-8ceb-69c661ee05c8","system_id":"levelo_inurba_marseille","lat":43.24177,"lon":5.39732,"is_reserved":false,"is_disabled":false,"rental_uris":{"android":"levelo://app?vid=0c463a46-a510-4c5e-8ceb-69c661ee05c8","ios":"levelo://app?vid=0c463a46-a510-4c5e-8ceb-69c661ee05c8"},"vehicle_type_id":"4","last_reported":1748686195,"current_range_meters":5600,"station_id":"ce4bhn12rcd13ifvqgpg","pricing_plan_id":"cebpf4jnsgd1na2vs0mg"},{"bike_id":"d35279df-65fa-4a1d-a5be-df30ee6e8cd3","system_id":"levelo_inurba_marseille","lat":43.28752,"lon":5.36281,"is_reserved":false,"is_disabled":false,"rental_uris":{"android":"levelo://app?vid=d35279df-65fa-4a1d-a5be-df30ee6e8cd3","ios":"levelo://app?vid=d35279df-65fa-4a1d-a5be-df30ee6e8cd3"},"vehicle_type_id":"4","last_reported":1748686195,"current_range_meters":6000,"station_id":"","pricing_plan_id":"cebpf4jnsgd1na2vs0mg"},{"bike_id":"83120baa-5e2f-445c-b3c0-c27db817844a","system_id":"levelo_inurba_marseille","lat":43.24389,"lon":5.37055,"is_reserved":false,"is_disabled":false,"rental_uris":{"android":"levelo://app?vid=83120baa-5e2f-445c-b3c0-c27db817844a","ios":"levelo://app?vid=83120baa-5e2f-445c-b3c0-c27db817844a"},"vehicle_type_id":"4","last_reported":1748686195,"current_range_meters":6400,"station_id":"ce4bhhh2rcd13ifvqfk0","pricing_plan_id":"cebpf4jnsgd1na2vs0mg"},{"bike_id":"8b649c72-8cca-4b2b-84dc-b51e030af54a","system_id":"levelo_inurba_marseille","lat":43.24806,"lon":5.3746,"is_reserved":false,"is_disabled":false,"rental_uris":{"android":"levelo://app?vid=8b649c72-8cca-4b2b-84dc-b51e030af54a","ios":"levelo://app?vid=8b649c72-8cca-4b2b-84dc-b51e030af54a"},"vehicle_type_id":"4","last_reported":1748686195,"current_range_meters":6400,"station_id":"ce4bhgh2rcd13ifvqfb0","pricing_plan_id":"cebpf4jnsgd1na2vs0mg"},{"bike_id":"86fccae8-f772-4e7a-8471-e6bb6d1ee7b8","system_id":"levelo_inurba_marseille","lat":43.27068,"lon":5.42283,"is_reserved":false,"is_disabled":false,"rental_uris":{"android":"levelo://app?vid=86fccae8-f772-4e7a-8471-e6bb6d1ee7b8","ios":"levelo://app?vid=86fccae8-f772-4e7a-8471-e6bb6d1ee7b8"},"vehicle_type_id":"4","last_reported":1748686195,"current_range_meters":6000,"station_id":"ce4bhk92rcd13ifvqgb0","pricing_plan_id":"cebpf4jnsgd1na2vs0mg"},{"bike_id":"5ac3febd-6c2a-411e-9a8f-db290e2abd46","system_id":"levelo_inurba_marseille","lat":43.24169,"lon":5.36394,"is_reserved":false,"is_disabled":false,"rental_uris":{"android":"levelo://app?vid=5ac3febd-6c2a-411e-9a8f-db290e2abd46","ios":"levelo://app?vid=5ac3febd-6c2a-411e-9a8f-db290e2abd46"},"vehicle_type_id":"4","last_reported":1748686195,"current_range_meters":6400,"station_id":"cpo36qri1sfpv3e86is0","pricing_plan_id":"cebpf4jnsgd1na2vs0mg"},{"bike_id":"57d8ed8b-d4b7-4706-962c-cdb6058adf19","system_id":"levelo_inurba_marseille","lat":43.26221,"lon":5.40442,"is_reserved":false,"is_disabled":false,"rental_uris":{"android":"levelo://app?vid=57d8ed8b-d4b7-4706-962c-cdb6058adf19","ios":"levelo://app?vid=57d8ed8b-d4b7-4706-962c-cdb6058adf19"},"vehicle_type_id":"4","last_reported":1748686195,"current_range_meters":6400,"station_id":"ce4bhmh2rcd13ifvqgmg","pricing_plan_id":"cebpf4jnsgd1na2vs0mg"},{"bike_id":"8a4491d9-efbb-413a-ba4d-ba261bf49d27","system_id":"levelo_inurba_marseille","lat":43.29867,"lon":5.39734,"is_reserved":false,"is_disabled":false,"rental_uris":{"android":"levelo://app?vid=8a4491d9-efbb-413a-ba4d-ba261bf49d27","ios":"levelo://app?vid=8a4491d9-efbb-413a-ba4d-ba261bf49d27"},"vehicle_type_id":"4","last_reported":1748686195,"current_range_meters":4000,"station_id":"ce4bh0h2rcd13ifvqd50","pricing_plan_id":"cebpf4jnsgd1na2vs0mg"},{"bike_id":"c4b3232f-483f-45eb-a9fc-e33deb92c068","system_id":"levelo_inurba_marseille","lat":43.2993,"lon":5.36548,"is_reserved":false,"is_disabled":false,"rental_uris":{"android":"levelo://app?vid=c4b3232f-483f-45eb-a9fc-e33deb92c068","ios":"levelo://app?vid=c4b3232f-483f-45eb-a9fc-e33deb92c068"},"vehicle_type_id":"4","last_reported":1748686195,"current_range_meters":6800,"station_id":"ce4bgm92rcd13ifvqbr0","pricing_plan_id":"cebpf4jnsgd1na2vs0mg"},{"bike_id":"7ffd5cb7-f338-48da-921a-b7f7ea8181d1","system_id":"levelo_inurba_marseille","lat":43.27206,"lon":5.39183,"is_reserved":false,"is_disabled":false,"rental_uris":{"android":"levelo://app?vid=7ffd5cb7-f338-48da-921a-b7f7ea8181d1","ios":"levelo://app?vid=7ffd5cb7-f338-48da-921a-b7f7ea8181d1"},"vehicle_type_id":"4","last_reported":1748686195,"current_range_meters":6800,"station_id":"ce4bhhp2rcd13ifvqfm0","pricing_plan_id":"cebpf4jnsgd1na2vs0mg"},{"bike_id":"73f25f04-1ae4-456a-b23d-608dfe573bc4","system_id":"levelo_inurba_marseille","lat":43.29871,"lon":5.38906,"is_reserved":false,"is_disabled":false,"rental_uris":{"android":"levelo://app?vid=73f25f04-1ae4-456a-b23d-608dfe573bc4","ios":"levelo://app?vid=73f25f04-1ae4-456a-b23d-608dfe573bc4"},"vehicle_type_id":"4","last_reported":1748686195,"current_range_meters":6400,"station_id":"ce4bh392rcd13ifvqdl0","pricing_plan_id":"cebpf4jnsgd1na2vs0mg"},{"bike_id":"d88e99c2-5e69-4bdd-85d9-434a050c2ba8","system_id":"levelo_inurba_marseille","lat":43.27815,"lon":5.4071,"is_reserved":false,"is_disabled":false,"rental_uris":{"android":"levelo://app?vid=d88e99c2-5e69-4bdd-85d9-434a050c2ba8","ios":"levelo://app?vid=d88e99c2-5e69-4bdd-85d9-434a050c2ba8"},"vehicle_type_id":"4","last_reported":1748686195,"current_range_meters":6800,"station_id":"ce4bhnh2rcd13ifvqgtg","pricing_plan_id":"cebpf4jnsgd1na2vs0mg"},{"bike_id":"f80006c7-2f10-4ba5-bb7c-2b0507fde45f","system_id":"levelo_inurba_marseille","lat":43.21744,"lon":5.346014,"is_reserved":false,"is_disabled":true,"rental_uris":{"android":"levelo://app?vid=f80006c7-2f10-4ba5-bb7c-2b0507fde45f","ios":"levelo://app?vid=f80006c7-2f10-4ba5-bb7c-2b0507fde45f"},"vehicle_type_id":"4","last_reported":1748686195,"current_range_meters":6800,"station_id":"st_cvj6r9ubvosntc0bgbag","pricing_plan_id":"cebpf4jnsgd1na2vs0mg"},{"bike_id":"586d7e68-1782-4f9f-9be5-9a1640e83e42","system_id":"levelo_inurba_marseille","lat":43.23196,"lon":5.35557,"is_reserved":false,"is_disabled":false,"rental_uris":{"android":"levelo://app?vid=586d7e68-1782-4f9f-9be5-9a1640e83e42","ios":"levelo://app?vid=586d7e68-1782-4f9f-9be5-9a1640e83e42"},"vehicle_type_id":"4","last_reported":1748686195,"current_range_meters":6800,"station_id":"ce4bhu92rcd13ifvqi70","pricing_plan_id":"cebpf4jnsgd1na2vs0mg"},{"bike_id":"4dfbb5a0-7aa6-41cf-b233-d5d5d96f5b1c","system_id":"levelo_inurba_marseille","lat":43.31236,"lon":5.36889,"is_reserved":false,"is_disabled":false,"rental_uris":{"android":"levelo://app?vid=4dfbb5a0-7aa6-41cf-b233-d5d5d96f5b1c","ios":"levelo://app?vid=4dfbb5a0-7aa6-41cf-b233-d5d5d96f5b1c"},"vehicle_type_id":"4","last_reported":1748686195,"current_range_meters":6800,"station_id":"ce4bgl92rcd13ifvqbq0","pricing_plan_id":"cebpf4jnsgd1na2vs0mg"},{"bike_id":"990df701-79a7-41ec-b963-3693dc590a87","system_id":"levelo_inurba_marseille","lat":43.30146,"lon":5.37904,"is_reserved":false,"is_disabled":false,"rental_uris":{"android":"levelo://app?vid=990df701-79a7-41ec-b963-3693dc590a87","ios":"levelo://app?vid=990df701-79a7-41ec-b963-3693dc590a87"},"vehicle_type_id":"4","last_reported":1748686195,"current_range_meters":6800,"station_id":"","pricing_plan_id":"cebpf4jnsgd1na2vs0mg"},{"bike_id":"d451e630-8fd8-4701-9cd1-43ccfdcc67c9","system_id":"levelo_inurba_marseille","lat":43.31524,"lon":5.38042,"is_reserved":false,"is_disabled":false,"rental_uris":{"android":"levelo://app?vid=d451e630-8fd8-4701-9cd1-43ccfdcc67c9","ios":"levelo://app?vid=d451e630-8fd8-4701-9cd1-43ccfdcc67c9"},"vehicle_type_id":"4","last_reported":1748686195,"current_range_meters":7200,"station_id":"ce4bhsp2rcd13ifvqi50","pricing_plan_id":"cebpf4jnsgd1na2vs0mg"},{"bike_id":"c0a405ca-cef1-4ad9-bc09-844c02573e44","system_id":"levelo_inurba_marseille","lat":43.29008,"lon":5.35608,"is_reserved":false,"is_disabled":false,"rental_uris":{"android":"levelo://app?vid=c0a405ca-cef1-4ad9-bc09-844c02573e44","ios":"levelo://app?vid=c0a405ca-cef1-4ad9-bc09-844c02573e44"},"vehicle_type_id":"4","last_reported":1748686195,"current_range_meters":7200,"station_id":"ce4bhb92rcd13ifvqen0","pricing_plan_id":"cebpf4jnsgd1na2vs0mg"},{"bike_id":"f7005840-3fcb-440d-a899-0476f19bf267","system_id":"levelo_inurba_marseille","lat":43.281625,"lon":5.426573,"is_reserved":false,"is_disabled":false,"rental_uris":{"android":"levelo://app?vid=f7005840-3fcb-440d-a899-0476f19bf267","ios":"levelo://app?vid=f7005840-3fcb-440d-a899-0476f19bf267"},"vehicle_type_id":"4","last_reported":1748686195,"current_range_meters":7200,"station_id":"ce4bhnh2rcd13ifvqgug","pricing_plan_id":"cebpf4jnsgd1na2vs0mg"},{"bike_id":"58677022-545c-4031-b8f3-6077e69a9de0","system_id":"levelo_inurba_marseille","lat":43.26201,"lon":5.40441,"is_reserved":false,"is_disabled":false,"rental_uris":{"android":"levelo://app?vid=58677022-545c-4031-b8f3-6077e69a9de0","ios":"levelo://app?vid=58677022-545c-4031-b8f3-6077e69a9de0"},"vehicle_type_id":"4","last_reported":1748686195,"current_range_meters":7200,"station_id":"ce4bhmh2rcd13ifvqgmg","pricing_plan_id":"cebpf4jnsgd1na2vs0mg"},{"bike_id":"4a7fcb66-5a14-41b4-b9c1-88d3616e3b62","system_id":"levelo_inurba_marseille","lat":43.21167,"lon":5.35069,"is_reserved":false,"is_disabled":false,"rental_uris":{"android":"levelo://app?vid=4a7fcb66-5a14-41b4-b9c1-88d3616e3b62","ios":"levelo://app?vid=4a7fcb66-5a14-41b4-b9c1-88d3616e3b62"},"vehicle_type_id":"4","last_reported":1748686195,"current_range_meters":8000,"station_id":"st_cvj6sg6p6f1abm77japg","pricing_plan_id":"cebpf4jnsgd1na2vs0mg"},{"bike_id":"a882f5db-172f-4f11-bf66-7e2c36364bb7","system_id":"levelo_inurba_marseille","lat":43.29543,"lon":5.42278,"is_reserved":false,"is_disabled":false,"rental_uris":{"android":"levelo://app?vid=a882f5db-172f-4f11-bf66-7e2c36364bb7","ios":"levelo://app?vid=a882f5db-172f-4f11-bf66-7e2c36364bb7"},"vehicle_type_id":"4","last_reported":1748686195,"current_range_meters":8000,"station_id":"ce4bhph2rcd13ifvqhdg","pricing_plan_id":"cebpf4jnsgd1na2vs0mg"},{"bike_id":"3feffd94-b1f8-4904-a4cf-e5629abe4092","system_id":"levelo_inurba_marseille","lat":43.25916,"lon":5.40891,"is_reserved":false,"is_disabled":false,"rental_uris":{"android":"levelo://app?vid=3feffd94-b1f8-4904-a4cf-e5629abe4092","ios":"levelo://app?vid=3feffd94-b1f8-4904-a4cf-e5629abe4092"},"vehicle_type_id":"4","last_reported":1748686195,"current_range_meters":8000,"station_id":"ce4bhm92rcd13ifvqglg","pricing_plan_id":"cebpf4jnsgd1na2vs0mg"},{"bike_id":"7243d7c8-02f5-4392-89cf-8c360e846d55","system_id":"levelo_inurba_marseille","lat":43.252778,"lon":5.378322,"is_reserved":false,"is_disabled":false,"rental_uris":{"android":"levelo://app?vid=7243d7c8-02f5-4392-89cf-8c360e846d55","ios":"levelo://app?vid=7243d7c8-02f5-4392-89cf-8c360e846d55"},"vehicle_type_id":"4","last_reported":1748686195,"current_range_meters":8400,"station_id":"","pricing_plan_id":"cebpf4jnsgd1na2vs0mg"},{"bike_id":"f0c9196a-153e-47e6-8a42-90fc4c8a896c","system_id":"levelo_inurba_marseille","lat":43.29227,"lon":5.36066,"is_reserved":false,"is_disabled":false,"rental_uris":{"android":"levelo://app?vid=f0c9196a-153e-47e6-8a42-90fc4c8a896c","ios":"levelo://app?vid=f0c9196a-153e-47e6-8a42-90fc4c8a896c"},"vehicle_type_id":"4","last_reported":1748686195,"current_range_meters":8400,"station_id":"ce4bhbh2rcd13ifvqeqg","pricing_plan_id":"cebpf4jnsgd1na2vs0mg"},{"bike_id":"7286235e-ea26-4a48-ba7e-145044ed7259","system_id":"levelo_inurba_marseille","lat":43.25111,"lon":5.40323,"is_reserved":false,"is_disabled":false,"rental_uris":{"android":"levelo://app?vid=7286235e-ea26-4a48-ba7e-145044ed7259","ios":"levelo://app?vid=7286235e-ea26-4a48-ba7e-145044ed7259"},"vehicle_type_id":"4","last_reported":1748686195,"current_range_meters":8400,"station_id":"ce4bhlh2rcd13ifvqgig","pricing_plan_id":"cebpf4jnsgd1na2vs0mg"},{"bike_id":"dac4a0aa-a72d-4723-b02b-d8444f987443","system_id":"levelo_inurba_marseille","lat":43.297,"lon":5.37694,"is_reserved":false,"is_disabled":false,"rental_uris":{"android":"levelo://app?vid=dac4a0aa-a72d-4723-b02b-d8444f987443","ios":"levelo://app?vid=dac4a0aa-a72d-4723-b02b-d8444f987443"},"vehicle_type_id":"4","last_reported":1748686195,"current_range_meters":8400,"station_id":"ce4bgkh2rcd13ifvqbl0","pricing_plan_id":"cebpf4jnsgd1na2vs0mg"},{"bike_id":"a326951f-0eaf-4b67-9913-457e6cd35573","system_id":"levelo_inurba_marseille","lat":43.23194,"lon":5.35555,"is_reserved":false,"is_disabled":false,"rental_uris":{"android":"levelo://app?vid=a326951f-0eaf-4b67-9913-457e6cd35573","ios":"levelo://app?vid=a326951f-0eaf-4b67-9913-457e6cd35573"},"vehicle_type_id":"4","last_reported":1748686195,"current_range_meters":8400,"station_id":"ce4bhu92rcd13ifvqi70","pricing_plan_id":"cebpf4jnsgd1na2vs0mg"},{"bike_id":"4dc07d80-e63c-43e9-9b6b-30ab182521fd","system_id":"levelo_inurba_marseille","lat":43.27314,"lon":5.391025,"is_reserved":false,"is_disabled":false,"rental_uris":{"android":"levelo://app?vid=4dc07d80-e63c-43e9-9b6b-30ab182521fd","ios":"levelo://app?vid=4dc07d80-e63c-43e9-9b6b-30ab182521fd"},"vehicle_type_id":"4","last_reported":1748686195,"current_range_meters":8400,"station_id":"ce4bhgp2rcd13ifvqfe0","pricing_plan_id":"cebpf4jnsgd1na2vs0mg"},{"bike_id":"34bf6413-9bf7-4cf3-995e-915be43862dc","system_id":"levelo_inurba_marseille","lat":43.2781,"lon":5.4071,"is_reserved":false,"is_disabled":false,"rental_uris":{"android":"levelo://app?vid=34bf6413-9bf7-4cf3-995e-915be43862dc","ios":"levelo://app?vid=34bf6413-9bf7-4cf3-995e-915be43862dc"},"vehicle_type_id":"4","last_reported":1748686195,"current_range_meters":8400,"station_id":"ce4bhnh2rcd13ifvqgtg","pricing_plan_id":"cebpf4jnsgd1na2vs0mg"},{"bike_id":"d02ba7d2-914d-425a-8b2a-f1259e1c2fbf","system_id":"levelo_inurba_marseille","lat":43.26226,"lon":5.40448,"is_reserved":false,"is_disabled":false,"rental_uris":{"android":"levelo://app?vid=d02ba7d2-914d-425a-8b2a-f1259e1c2fbf","ios":"levelo://app?vid=d02ba7d2-914d-425a-8b2a-f1259e1c2fbf"},"vehicle_type_id":"4","last_reported":1748686195,"current_range_meters":8400,"station_id":"ce4bhmh2rcd13ifvqgmg","pricing_plan_id":"cebpf4jnsgd1na2vs0mg"},{"bike_id":"471fccc4-e0a0-45c9-96ca-25361ad546a7","system_id":"levelo_inurba_marseille","lat":43.2175,"lon":5.34598,"is_reserved":false,"is_disabled":false,"rental_uris":{"android":"levelo://app?vid=471fccc4-e0a0-45c9-96ca-25361ad546a7","ios":"levelo://app?vid=471fccc4-e0a0-45c9-96ca-25361ad546a7"},"vehicle_type_id":"4","last_reported":1748686195,"current_range_meters":8800,"station_id":"","pricing_plan_id":"cebpf4jnsgd1na2vs0mg"},{"bike_id":"662af0d9-b4f1-4513-bbd2-fd65be6229e5","system_id":"levelo_inurba_marseille","lat":43.25898,"lon":5.40873,"is_reserved":false,"is_disabled":false,"rental_uris":{"android":"levelo://app?vid=662af0d9-b4f1-4513-bbd2-fd65be6229e5","ios":"levelo://app?vid=662af0d9-b4f1-4513-bbd2-fd65be6229e5"},"vehicle_type_id":"4","last_reported":1748686195,"current_range_meters":8800,"station_id":"ce4bhm92rcd13ifvqglg","pricing_plan_id":"cebpf4jnsgd1na2vs0mg"},{"bike_id":"189adaee-dd37-463c-a8f2-b162d20a9983","system_id":"levelo_inurba_marseille","lat":43.231926,"lon":5.355545,"is_reserved":false,"is_disabled":false,"rental_uris":{"android":"levelo://app?vid=189adaee-dd37-463c-a8f2-b162d20a9983","ios":"levelo://app?vid=189adaee-dd37-463c-a8f2-b162d20a9983"},"vehicle_type_id":"4","last_reported":1748686195,"current_range_meters":8800,"station_id":"ce4bhr12rcd13ifvqhqg","pricing_plan_id":"cebpf4jnsgd1na2vs0mg"},{"bike_id":"6cab2d10-7f2c-4dac-ba3d-4f103803cc6a","system_id":"levelo_inurba_marseille","lat":43.2891,"lon":5.38383,"is_reserved":false,"is_disabled":true,"rental_uris":{"android":"levelo://app?vid=6cab2d10-7f2c-4dac-ba3d-4f103803cc6a","ios":"levelo://app?vid=6cab2d10-7f2c-4dac-ba3d-4f103803cc6a"},"vehicle_type_id":"4","last_reported":1748686195,"current_range_meters":8800,"station_id":"","pricing_plan_id":"cebpf4jnsgd1na2vs0mg"},{"bike_id":"e6c35bea-2264-4fb6-a0eb-3ec678e2c516","system_id":"levelo_inurba_marseille","lat":43.26553,"lon":5.3728,"is_reserved":false,"is_disabled":false,"rental_uris":{"android":"levelo://app?vid=e6c35bea-2264-4fb6-a0eb-3ec678e2c516","ios":"levelo://app?vid=e6c35bea-2264-4fb6-a0eb-3ec678e2c516"},"vehicle_type_id":"4","last_reported":1748686195,"current_range_meters":9200,"station_id":"ce4bhg12rcd13ifvqf70","pricing_plan_id":"cebpf4jnsgd1na2vs0mg"},{"bike_id":"42c4ad42-1847-4eaa-a65a-cf0e13379744","system_id":"levelo_inurba_marseille","lat":43.29276,"lon":5.40128,"is_reserved":false,"is_disabled":false,"rental_uris":{"android":"levelo://app?vid=42c4ad42-1847-4eaa-a65a-cf0e13379744","ios":"levelo://app?vid=42c4ad42-1847-4eaa-a65a-cf0e13379744"},"vehicle_type_id":"4","last_reported":1748686195,"current_range_meters":9200,"station_id":"ce4bh312rcd13ifvqdk0","pricing_plan_id":"cebpf4jnsgd1na2vs0mg"},{"bike_id":"d16f5222-3d1e-4d65-a992-1bc93f719178","system_id":"levelo_inurba_marseille","lat":43.30306,"lon":5.36574,"is_reserved":false,"is_disabled":false,"rental_uris":{"android":"levelo://app?vid=d16f5222-3d1e-4d65-a992-1bc93f719178","ios":"levelo://app?vid=d16f5222-3d1e-4d65-a992-1bc93f719178"},"vehicle_type_id":"4","last_reported":1748686195,"current_range_meters":9200,"station_id":"","pricing_plan_id":"cebpf4jnsgd1na2vs0mg"},{"bike_id":"f834d568-f3e2-4973-beb0-7959512c9902","system_id":"levelo_inurba_marseille","lat":43.23963,"lon":5.36628,"is_reserved":false,"is_disabled":false,"rental_uris":{"android":"levelo://app?vid=f834d568-f3e2-4973-beb0-7959512c9902","ios":"levelo://app?vid=f834d568-f3e2-4973-beb0-7959512c9902"},"vehicle_type_id":"4","last_reported":1748686195,"current_range_meters":9200,"station_id":"ce4bhi12rcd13ifvqfp0","pricing_plan_id":"cebpf4jnsgd1na2vs0mg"},{"bike_id":"ef4b8ede-1877-41db-b371-aa67fb983004","system_id":"levelo_inurba_marseille","lat":43.281006,"lon":5.378302,"is_reserved":false,"is_disabled":true,"rental_uris":{"android":"levelo://app?vid=ef4b8ede-1877-41db-b371-aa67fb983004","ios":"levelo://app?vid=ef4b8ede-1877-41db-b371-aa67fb983004"},"vehicle_type_id":"4","last_reported":1748686195,"current_range_meters":9200,"station_id":"ce4bha12rcd13ifvqee0","pricing_plan_id":"cebpf4jnsgd1na2vs0mg"},{"bike_id":"19a8fb5f-b1d0-4f9b-aee8-d8167a0d94c3","system_id":"levelo_inurba_marseille","lat":43.24646,"lon":5.38898,"is_reserved":false,"is_disabled":false,"rental_uris":{"android":"levelo://app?vid=19a8fb5f-b1d0-4f9b-aee8-d8167a0d94c3","ios":"levelo://app?vid=19a8fb5f-b1d0-4f9b-aee8-d8167a0d94c3"},"vehicle_type_id":"4","last_reported":1748686195,"current_range_meters":8800,"station_id":"ce4bhg12rcd13ifvqf60","pricing_plan_id":"cebpf4jnsgd1na2vs0mg"},{"bike_id":"e31a1e1f-1f99-4d47-9ad9-848f9f016670","system_id":"levelo_inurba_marseille","lat":43.29261,"lon":5.37612,"is_reserved":false,"is_disabled":false,"rental_uris":{"android":"levelo://app?vid=e31a1e1f-1f99-4d47-9ad9-848f9f016670","ios":"levelo://app?vid=e31a1e1f-1f99-4d47-9ad9-848f9f016670"},"vehicle_type_id":"4","last_reported":1748686195,"current_range_meters":9200,"station_id":"ce4bgi12rcd13ifvqb80","pricing_plan_id":"cebpf4jnsgd1na2vs0mg"},{"bike_id":"76749e45-957b-40bb-9b95-4da7298a2cca","system_id":"levelo_inurba_marseille","lat":43.3045,"lon":5.38895,"is_reserved":false,"is_disabled":false,"rental_uris":{"android":"levelo://app?vid=76749e45-957b-40bb-9b95-4da7298a2cca","ios":"levelo://app?vid=76749e45-957b-40bb-9b95-4da7298a2cca"},"vehicle_type_id":"4","last_reported":1748686195,"current_range_meters":9200,"station_id":"ce4bgk12rcd13ifvqbi0","pricing_plan_id":"cebpf4jnsgd1na2vs0mg"},{"bike_id":"008a8b5c-da32-426f-bdcf-6db4c9f404d8","system_id":"levelo_inurba_marseille","lat":43.22941,"lon":5.35368,"is_reserved":false,"is_disabled":false,"rental_uris":{"android":"levelo://app?vid=008a8b5c-da32-426f-bdcf-6db4c9f404d8","ios":"levelo://app?vid=008a8b5c-da32-426f-bdcf-6db4c9f404d8"},"vehicle_type_id":"4","last_reported":1748686195,"current_range_meters":9200,"station_id":"cpo3532slgdg3j2ikp40","pricing_plan_id":"cebpf4jnsgd1na2vs0mg"},{"bike_id":"64a3d9b3-30f8-4a8c-b831-0d99a9fae7a2","system_id":"levelo_inurba_marseille","lat":43.31689,"lon":5.40475,"is_reserved":false,"is_disabled":false,"rental_uris":{"android":"levelo://app?vid=64a3d9b3-30f8-4a8c-b831-0d99a9fae7a2","ios":"levelo://app?vid=64a3d9b3-30f8-4a8c-b831-0d99a9fae7a2"},"vehicle_type_id":"4","last_reported":1748686195,"current_range_meters":9200,"station_id":"ce4bh012rcd13ifvqd00","pricing_plan_id":"cebpf4jnsgd1na2vs0mg"},{"bike_id":"4c0510fe-d739-4d44-961a-5e04c45ad73a","system_id":"levelo_inurba_marseille","lat":43.286149,"lon":5.351071,"is_reserved":false,"is_disabled":false,"rental_uris":{"android":"levelo://app?vid=4c0510fe-d739-4d44-961a-5e04c45ad73a","ios":"levelo://app?vid=4c0510fe-d739-4d44-961a-5e04c45ad73a"},"vehicle_type_id":"4","last_reported":1748686195,"current_range_meters":9200,"station_id":"ce4bhch2rcd13ifvqeug","pricing_plan_id":"cebpf4jnsgd1na2vs0mg"},{"bike_id":"f61266f9-9ef3-44c7-b1fc-8a9106712a53","system_id":"levelo_inurba_marseille","lat":43.21751,"lon":5.34587,"is_reserved":false,"is_disabled":false,"rental_uris":{"android":"levelo://app?vid=f61266f9-9ef3-44c7-b1fc-8a9106712a53","ios":"levelo://app?vid=f61266f9-9ef3-44c7-b1fc-8a9106712a53"},"vehicle_type_id":"4","last_reported":1748686195,"current_range_meters":9600,"station_id":"st_cvj6r9ubvosntc0bgbag","pricing_plan_id":"cebpf4jnsgd1na2vs0mg"},{"bike_id":"f1efafa8-defe-4c28-b345-1f20aa006d1d","system_id":"levelo_inurba_marseille","lat":43.30159,"lon":5.38087,"is_reserved":false,"is_disabled":false,"rental_uris":{"android":"levelo://app?vid=f1efafa8-defe-4c28-b345-1f20aa006d1d","ios":"levelo://app?vid=f1efafa8-defe-4c28-b345-1f20aa006d1d"},"vehicle_type_id":"4","last_reported":1748686195,"current_range_meters":9600,"station_id":"ce4bgjp2rcd13ifvqbh0","pricing_plan_id":"cebpf4jnsgd1na2vs0mg"},{"bike_id":"dfa43c4c-7c06-4ef3-bc0f-2418c1a843e8","system_id":"levelo_inurba_marseille","lat":43.24136,"lon":5.39778,"is_reserved":false,"is_disabled":false,"rental_uris":{"android":"levelo://app?vid=dfa43c4c-7c06-4ef3-bc0f-2418c1a843e8","ios":"levelo://app?vid=dfa43c4c-7c06-4ef3-bc0f-2418c1a843e8"},"vehicle_type_id":"4","last_reported":1748686195,"current_range_meters":9600,"station_id":"ce4bhn12rcd13ifvqgpg","pricing_plan_id":"cebpf4jnsgd1na2vs0mg"},{"bike_id":"e65bd054-61ce-4f54-bc47-3dec929b8cf5","system_id":"levelo_inurba_marseille","lat":43.291026,"lon":5.380891,"is_reserved":false,"is_disabled":false,"rental_uris":{"android":"levelo://app?vid=e65bd054-61ce-4f54-bc47-3dec929b8cf5","ios":"levelo://app?vid=e65bd054-61ce-4f54-bc47-3dec929b8cf5"},"vehicle_type_id":"4","last_reported":1748686195,"current_range_meters":9600,"station_id":"ce4bh512rcd13ifvqe2g","pricing_plan_id":"cebpf4jnsgd1na2vs0mg"},{"bike_id":"f0012670-04e8-44ad-ae17-5630e3d7eeb8","system_id":"levelo_inurba_marseille","lat":43.2318,"lon":5.39993,"is_reserved":false,"is_disabled":false,"rental_uris":{"android":"levelo://app?vid=f0012670-04e8-44ad-ae17-5630e3d7eeb8","ios":"levelo://app?vid=f0012670-04e8-44ad-ae17-5630e3d7eeb8"},"vehicle_type_id":"4","last_reported":1748686195,"current_range_meters":9600,"station_id":"ce4bhn12rcd13ifvqgqg","pricing_plan_id":"cebpf4jnsgd1na2vs0mg"},{"bike_id":"c69836ab-41ea-42e1-9c83-d11f51512923","system_id":"levelo_inurba_marseille","lat":43.27619,"lon":5.36097,"is_reserved":false,"is_disabled":false,"rental_uris":{"android":"levelo://app?vid=c69836ab-41ea-42e1-9c83-d11f51512923","ios":"levelo://app?vid=c69836ab-41ea-42e1-9c83-d11f51512923"},"vehicle_type_id":"4","last_reported":1748686195,"current_range_meters":9600,"station_id":"ce4bgj92rcd13ifvqbe0","pricing_plan_id":"cebpf4jnsgd1na2vs0mg"},{"bike_id":"a672e2ce-ff65-491a-baf8-b5fcce4f4059","system_id":"levelo_inurba_marseille","lat":43.31731,"lon":5.38991,"is_reserved":false,"is_disabled":false,"rental_uris":{"android":"levelo://app?vid=a672e2ce-ff65-491a-baf8-b5fcce4f4059","ios":"levelo://app?vid=a672e2ce-ff65-491a-baf8-b5fcce4f4059"},"vehicle_type_id":"4","last_reported":1748686195,"current_range_meters":10000,"station_id":"ce4bhqp2rcd13ifvqhng","pricing_plan_id":"cebpf4jnsgd1na2vs0mg"},{"bike_id":"69be9b5a-29fe-4d01-bada-ea9a138e51fb","system_id":"levelo_inurba_marseille","lat":43.26209,"lon":5.37442,"is_reserved":false,"is_disabled":false,"rental_uris":{"android":"levelo://app?vid=69be9b5a-29fe-4d01-bada-ea9a138e51fb","ios":"levelo://app?vid=69be9b5a-29fe-4d01-bada-ea9a138e51fb"},"vehicle_type_id":"4","last_reported":1748686195,"current_range_meters":10000,"station_id":"ce4bhgp2rcd13ifvqfc0","pricing_plan_id":"cebpf4jnsgd1na2vs0mg"},{"bike_id":"6c8a5fb5-fc76-4dd9-adc2-282b2edbe07b","system_id":"levelo_inurba_marseille","lat":43.260634,"lon":5.39398,"is_reserved":false,"is_disabled":false,"rental_uris":{"android":"levelo://app?vid=6c8a5fb5-fc76-4dd9-adc2-282b2edbe07b","ios":"levelo://app?vid=6c8a5fb5-fc76-4dd9-adc2-282b2edbe07b"},"vehicle_type_id":"4","last_reported":1748686195,"current_range_meters":10000,"station_id":"ce4bhh92rcd13ifvqfj0","pricing_plan_id":"cebpf4jnsgd1na2vs0mg"},{"bike_id":"a5e71df7-c0e4-41ae-9d6f-e112f20984c9","system_id":"levelo_inurba_marseille","lat":43.29798,"lon":5.40412,"is_reserved":false,"is_disabled":false,"rental_uris":{"android":"levelo://app?vid=a5e71df7-c0e4-41ae-9d6f-e112f20984c9","ios":"levelo://app?vid=a5e71df7-c0e4-41ae-9d6f-e112f20984c9"},"vehicle_type_id":"4","last_reported":1748686195,"current_range_meters":10000,"station_id":"ce4bh112rcd13ifvqd90","pricing_plan_id":"cebpf4jnsgd1na2vs0mg"},{"bike_id":"0c63b1a3-4647-48bd-bc95-cf1471b3552f","system_id":"levelo_inurba_marseille","lat":43.24069,"lon":5.3777,"is_reserved":false,"is_disabled":false,"rental_uris":{"android":"levelo://app?vid=0c63b1a3-4647-48bd-bc95-cf1471b3552f","ios":"levelo://app?vid=0c63b1a3-4647-48bd-bc95-cf1471b3552f"},"vehicle_type_id":"4","last_reported":1748686195,"current_range_meters":10000,"station_id":"ce4bhnp2rcd13ifvqgvg","pricing_plan_id":"cebpf4jnsgd1na2vs0mg"},{"bike_id":"556afdd1-4952-4918-bbdd-ad3be352acaa","system_id":"levelo_inurba_marseille","lat":43.30184,"lon":5.36624,"is_reserved":false,"is_disabled":false,"rental_uris":{"android":"levelo://app?vid=556afdd1-4952-4918-bbdd-ad3be352acaa","ios":"levelo://app?vid=556afdd1-4952-4918-bbdd-ad3be352acaa"},"vehicle_type_id":"4","last_reported":1748686195,"current_range_meters":10000,"station_id":"ce4bgrh2rcd13ifvqc8g","pricing_plan_id":"cebpf4jnsgd1na2vs0mg"},{"bike_id":"95cd80fa-c2e5-401c-95da-632e1df7bbde","system_id":"levelo_inurba_marseille","lat":43.2314,"lon":5.43713,"is_reserved":false,"is_disabled":false,"rental_uris":{"android":"levelo://app?vid=95cd80fa-c2e5-401c-95da-632e1df7bbde","ios":"levelo://app?vid=95cd80fa-c2e5-401c-95da-632e1df7bbde"},"vehicle_type_id":"4","last_reported":1748686195,"current_range_meters":10800,"station_id":"ce4bhmp2rcd13ifvqgog","pricing_plan_id":"cebpf4jnsgd1na2vs0mg"},{"bike_id":"b000c175-4cbf-433e-9672-aca43766da9c","system_id":"levelo_inurba_marseille","lat":43.23963,"lon":5.36629,"is_reserved":false,"is_disabled":false,"rental_uris":{"android":"levelo://app?vid=b000c175-4cbf-433e-9672-aca43766da9c","ios":"levelo://app?vid=b000c175-4cbf-433e-9672-aca43766da9c"},"vehicle_type_id":"4","last_reported":1748686195,"current_range_meters":10800,"station_id":"ce4bhi12rcd13ifvqfp0","pricing_plan_id":"cebpf4jnsgd1na2vs0mg"},{"bike_id":"c114fe61-9fd8-4001-9e56-2d1603386cfa","system_id":"levelo_inurba_marseille","lat":43.30239,"lon":5.40051,"is_reserved":false,"is_disabled":false,"rental_uris":{"android":"levelo://app?vid=c114fe61-9fd8-4001-9e56-2d1603386cfa","ios":"levelo://app?vid=c114fe61-9fd8-4001-9e56-2d1603386cfa"},"vehicle_type_id":"4","last_reported":1748686195,"current_range_meters":10000,"station_id":"ce4bgvh2rcd13ifvqcs0","pricing_plan_id":"cebpf4jnsgd1na2vs0mg"},{"bike_id":"8d48119e-760e-4c00-b401-59af0a322afa","system_id":"levelo_inurba_marseille","lat":43.256573,"lon":5.408526,"is_reserved":false,"is_disabled":false,"rental_uris":{"android":"levelo://app?vid=8d48119e-760e-4c00-b401-59af0a322afa","ios":"levelo://app?vid=8d48119e-760e-4c00-b401-59af0a322afa"},"vehicle_type_id":"4","last_reported":1748686195,"current_range_meters":10800,"station_id":"","pricing_plan_id":"cebpf4jnsgd1na2vs0mg"},{"bike_id":"a2b05694-d9e0-4b83-8e25-2604bfbf2718","system_id":"levelo_inurba_marseille","lat":43.29681,"lon":5.37288,"is_reserved":false,"is_disabled":false,"rental_uris":{"android":"levelo://app?vid=a2b05694-d9e0-4b83-8e25-2604bfbf2718","ios":"levelo://app?vid=a2b05694-d9e0-4b83-8e25-2604bfbf2718"},"vehicle_type_id":"4","last_reported":1748686195,"current_range_meters":10800,"station_id":"ce4bgk12rcd13ifvqbj0","pricing_plan_id":"cebpf4jnsgd1na2vs0mg"},{"bike_id":"5d499ed8-eea6-4e38-8682-13a5cb3cec96","system_id":"levelo_inurba_marseille","lat":43.241736,"lon":5.397161,"is_reserved":false,"is_disabled":false,"rental_uris":{"android":"levelo://app?vid=5d499ed8-eea6-4e38-8682-13a5cb3cec96","ios":"levelo://app?vid=5d499ed8-eea6-4e38-8682-13a5cb3cec96"},"vehicle_type_id":"4","last_reported":1748686195,"current_range_meters":10800,"station_id":"ce4bhn12rcd13ifvqgpg","pricing_plan_id":"cebpf4jnsgd1na2vs0mg"},{"bike_id":"5291cf4b-2021-40c9-9a7c-11e51c847979","system_id":"levelo_inurba_marseille","lat":43.231471,"lon":5.437345,"is_reserved":false,"is_disabled":false,"rental_uris":{"android":"levelo://app?vid=5291cf4b-2021-40c9-9a7c-11e51c847979","ios":"levelo://app?vid=5291cf4b-2021-40c9-9a7c-11e51c847979"},"vehicle_type_id":"4","last_reported":1748686195,"current_range_meters":10800,"station_id":"ce4bhmp2rcd13ifvqgog","pricing_plan_id":"cebpf4jnsgd1na2vs0mg"},{"bike_id":"c924fc56-d4eb-40f9-9575-b10f939251f4","system_id":"levelo_inurba_marseille","lat":43.28455,"lon":5.38418,"is_reserved":false,"is_disabled":false,"rental_uris":{"android":"levelo://app?vid=c924fc56-d4eb-40f9-9575-b10f939251f4","ios":"levelo://app?vid=c924fc56-d4eb-40f9-9575-b10f939251f4"},"vehicle_type_id":"4","last_reported":1748686195,"current_range_meters":10800,"station_id":"ce4bh512rcd13ifvqe3g","pricing_plan_id":"cebpf4jnsgd1na2vs0mg"},{"bike_id":"b18036e4-cdbb-441f-a4f1-99c9cdbece34","system_id":"levelo_inurba_marseille","lat":43.29495,"lon":5.39082,"is_reserved":false,"is_disabled":false,"rental_uris":{"android":"levelo://app?vid=b18036e4-cdbb-441f-a4f1-99c9cdbece34","ios":"levelo://app?vid=b18036e4-cdbb-441f-a4f1-99c9cdbece34"},"vehicle_type_id":"4","last_reported":1748686195,"current_range_meters":10800,"station_id":"ce4bh3p2rcd13ifvqdp0","pricing_plan_id":"cebpf4jnsgd1na2vs0mg"},{"bike_id":"84c1e71b-c6ad-414e-9795-3675bda248d5","system_id":"levelo_inurba_marseille","lat":43.23152,"lon":5.43697,"is_reserved":false,"is_disabled":false,"rental_uris":{"android":"levelo://app?vid=84c1e71b-c6ad-414e-9795-3675bda248d5","ios":"levelo://app?vid=84c1e71b-c6ad-414e-9795-3675bda248d5"},"vehicle_type_id":"4","last_reported":1748686195,"current_range_meters":10800,"station_id":"ce4bhmp2rcd13ifvqgog","pricing_plan_id":"cebpf4jnsgd1na2vs0mg"},{"bike_id":"aa0f1670-1558-471e-b38d-f40994aaf1d4","system_id":"levelo_inurba_marseille","lat":43.273785,"lon":5.362544,"is_reserved":false,"is_disabled":false,"rental_uris":{"android":"levelo://app?vid=aa0f1670-1558-471e-b38d-f40994aaf1d4","ios":"levelo://app?vid=aa0f1670-1558-471e-b38d-f40994aaf1d4"},"vehicle_type_id":"4","last_reported":1748686195,"current_range_meters":11200,"station_id":"","pricing_plan_id":"cebpf4jnsgd1na2vs0mg"},{"bike_id":"5526ab1d-775e-4081-b207-3b8e69fe4b52","system_id":"levelo_inurba_marseille","lat":43.24077,"lon":5.37755,"is_reserved":false,"is_disabled":false,"rental_uris":{"android":"levelo://app?vid=5526ab1d-775e-4081-b207-3b8e69fe4b52","ios":"levelo://app?vid=5526ab1d-775e-4081-b207-3b8e69fe4b52"},"vehicle_type_id":"4","last_reported":1748686195,"current_range_meters":10800,"station_id":"ce4bhnp2rcd13ifvqgvg","pricing_plan_id":"cebpf4jnsgd1na2vs0mg"},{"bike_id":"25866adb-6a96-4a09-8ec1-e154dc548fb4","system_id":"levelo_inurba_marseille","lat":43.231911,"lon":5.355503,"is_reserved":false,"is_disabled":false,"rental_uris":{"android":"levelo://app?vid=25866adb-6a96-4a09-8ec1-e154dc548fb4","ios":"levelo://app?vid=25866adb-6a96-4a09-8ec1-e154dc548fb4"},"vehicle_type_id":"4","last_reported":1748686195,"current_range_meters":11200,"station_id":"ce4bhu92rcd13ifvqi70","pricing_plan_id":"cebpf4jnsgd1na2vs0mg"},{"bike_id":"bb4de360-514f-448f-aa3e-f1d6a6bc6718","system_id":"levelo_inurba_marseille","lat":43.26685,"lon":5.38271,"is_reserved":false,"is_disabled":false,"rental_uris":{"android":"levelo://app?vid=bb4de360-514f-448f-aa3e-f1d6a6bc6718","ios":"levelo://app?vid=bb4de360-514f-448f-aa3e-f1d6a6bc6718"},"vehicle_type_id":"4","last_reported":1748686195,"current_range_meters":11200,"station_id":"ce4bhg92rcd13ifvqf90","pricing_plan_id":"cebpf4jnsgd1na2vs0mg"},{"bike_id":"c47cd710-0cec-46ee-85ce-385e621da6c0","system_id":"levelo_inurba_marseille","lat":43.243896,"lon":5.370605,"is_reserved":false,"is_disabled":false,"rental_uris":{"android":"levelo://app?vid=c47cd710-0cec-46ee-85ce-385e621da6c0","ios":"levelo://app?vid=c47cd710-0cec-46ee-85ce-385e621da6c0"},"vehicle_type_id":"4","last_reported":1748686195,"current_range_meters":11200,"station_id":"ce4bhhh2rcd13ifvqfk0","pricing_plan_id":"cebpf4jnsgd1na2vs0mg"},{"bike_id":"22116a92-caa5-4c8d-a89d-c92a8e472352","system_id":"levelo_inurba_marseille","lat":43.31681,"lon":5.40475,"is_reserved":false,"is_disabled":false,"rental_uris":{"android":"levelo://app?vid=22116a92-caa5-4c8d-a89d-c92a8e472352","ios":"levelo://app?vid=22116a92-caa5-4c8d-a89d-c92a8e472352"},"vehicle_type_id":"4","last_reported":1748686195,"current_range_meters":11200,"station_id":"ce4bh012rcd13ifvqd00","pricing_plan_id":"cebpf4jnsgd1na2vs0mg"},{"bike_id":"6dbec55b-fee0-4a3a-9ed2-723f9ae1c783","system_id":"levelo_inurba_marseille","lat":43.298937,"lon":5.436618,"is_reserved":false,"is_disabled":true,"rental_uris":{"android":"levelo://app?vid=6dbec55b-fee0-4a3a-9ed2-723f9ae1c783","ios":"levelo://app?vid=6dbec55b-fee0-4a3a-9ed2-723f9ae1c783"},"vehicle_type_id":"4","last_reported":1748686195,"current_range_meters":11600,"station_id":"ce4bhpp2rcd13ifvqhfg","pricing_plan_id":"cebpf4jnsgd1na2vs0mg"},{"bike_id":"b35fd950-24e0-465e-96d1-082254f22158","system_id":"levelo_inurba_marseille","lat":43.27838,"lon":5.39198,"is_reserved":false,"is_disabled":false,"rental_uris":{"android":"levelo://app?vid=b35fd950-24e0-465e-96d1-082254f22158","ios":"levelo://app?vid=b35fd950-24e0-465e-96d1-082254f22158"},"vehicle_type_id":"4","last_reported":1748686195,"current_range_meters":11600,"station_id":"ce4bhjp2rcd13ifvqga0","pricing_plan_id":"cebpf4jnsgd1na2vs0mg"},{"bike_id":"066968e8-529b-485f-b6ad-61d11d30e9ec","system_id":"levelo_inurba_marseille","lat":43.24388,"lon":5.37055,"is_reserved":false,"is_disabled":false,"rental_uris":{"android":"levelo://app?vid=066968e8-529b-485f-b6ad-61d11d30e9ec","ios":"levelo://app?vid=066968e8-529b-485f-b6ad-61d11d30e9ec"},"vehicle_type_id":"4","last_reported":1748686195,"current_range_meters":11200,"station_id":"ce4bhhh2rcd13ifvqfk0","pricing_plan_id":"cebpf4jnsgd1na2vs0mg"},{"bike_id":"0d3bab2f-26cf-41f1-82dd-bb5db963b288","system_id":"levelo_inurba_marseille","lat":43.32542,"lon":5.36483,"is_reserved":false,"is_disabled":true,"rental_uris":{"android":"levelo://app?vid=0d3bab2f-26cf-41f1-82dd-bb5db963b288","ios":"levelo://app?vid=0d3bab2f-26cf-41f1-82dd-bb5db963b288"},"vehicle_type_id":"4","last_reported":1748686195,"current_range_meters":11600,"station_id":"","pricing_plan_id":"cebpf4jnsgd1na2vs0mg"},{"bike_id":"559963ce-28cb-4a57-8722-1afbd33de613","system_id":"levelo_inurba_marseille","lat":43.28609,"lon":5.35101,"is_reserved":false,"is_disabled":false,"rental_uris":{"android":"levelo://app?vid=559963ce-28cb-4a57-8722-1afbd33de613","ios":"levelo://app?vid=559963ce-28cb-4a57-8722-1afbd33de613"},"vehicle_type_id":"4","last_reported":1748686195,"current_range_meters":12400,"station_id":"ce4bhch2rcd13ifvqeug","pricing_plan_id":"cebpf4jnsgd1na2vs0mg"},{"bike_id":"cf9c3a07-987d-4141-833e-026a6db65eb5","system_id":"levelo_inurba_marseille","lat":43.31266,"lon":5.36855,"is_reserved":false,"is_disabled":true,"rental_uris":{"android":"levelo://app?vid=cf9c3a07-987d-4141-833e-026a6db65eb5","ios":"levelo://app?vid=cf9c3a07-987d-4141-833e-026a6db65eb5"},"vehicle_type_id":"4","last_reported":1748686195,"current_range_meters":12400,"station_id":"ce4bgl92rcd13ifvqbq0","pricing_plan_id":"cebpf4jnsgd1na2vs0mg"},{"bike_id":"6d3665b2-054a-4877-be59-bac2478ebd6a","system_id":"levelo_inurba_marseille","lat":43.34148,"lon":5.40901,"is_reserved":false,"is_disabled":false,"rental_uris":{"android":"levelo://app?vid=6d3665b2-054a-4877-be59-bac2478ebd6a","ios":"levelo://app?vid=6d3665b2-054a-4877-be59-bac2478ebd6a"},"vehicle_type_id":"4","last_reported":1748686195,"current_range_meters":12400,"station_id":"ce4bhqh2rcd13ifvqhlg","pricing_plan_id":"cebpf4jnsgd1na2vs0mg"},{"bike_id":"ceec63f8-4d68-4ef4-acb9-88e6eab98764","system_id":"levelo_inurba_marseille","lat":43.27997,"lon":5.41662,"is_reserved":false,"is_disabled":false,"rental_uris":{"android":"levelo://app?vid=ceec63f8-4d68-4ef4-acb9-88e6eab98764","ios":"levelo://app?vid=ceec63f8-4d68-4ef4-acb9-88e6eab98764"},"vehicle_type_id":"4","last_reported":1748686195,"current_range_meters":12000,"station_id":"ce4bho12rcd13ifvqh1g","pricing_plan_id":"cebpf4jnsgd1na2vs0mg"},{"bike_id":"67614841-9f24-4f1f-81f7-acf09b9bb6b8","system_id":"levelo_inurba_marseille","lat":43.25718,"lon":5.41112,"is_reserved":false,"is_disabled":false,"rental_uris":{"android":"levelo://app?vid=67614841-9f24-4f1f-81f7-acf09b9bb6b8","ios":"levelo://app?vid=67614841-9f24-4f1f-81f7-acf09b9bb6b8"},"vehicle_type_id":"4","last_reported":1748686195,"current_range_meters":12400,"station_id":"ce4bhkp2rcd13ifvqgd0","pricing_plan_id":"cebpf4jnsgd1na2vs0mg"},{"bike_id":"0a9ffdd7-c167-4d81-8c08-db4e255360a4","system_id":"levelo_inurba_marseille","lat":43.27997,"lon":5.40002,"is_reserved":false,"is_disabled":false,"rental_uris":{"android":"levelo://app?vid=0a9ffdd7-c167-4d81-8c08-db4e255360a4","ios":"levelo://app?vid=0a9ffdd7-c167-4d81-8c08-db4e255360a4"},"vehicle_type_id":"4","last_reported":1748686195,"current_range_meters":12400,"station_id":"ce4bho92rcd13ifvqh4g","pricing_plan_id":"cebpf4jnsgd1na2vs0mg"},{"bike_id":"42060358-49d8-44c6-acbb-a8fdaec06f62","system_id":"levelo_inurba_marseille","lat":43.26207,"lon":5.40403,"is_reserved":false,"is_disabled":false,"rental_uris":{"android":"levelo://app?vid=42060358-49d8-44c6-acbb-a8fdaec06f62","ios":"levelo://app?vid=42060358-49d8-44c6-acbb-a8fdaec06f62"},"vehicle_type_id":"4","last_reported":1748686195,"current_range_meters":12400,"station_id":"ce4bhmh2rcd13ifvqgmg","pricing_plan_id":"cebpf4jnsgd1na2vs0mg"},{"bike_id":"934904aa-b6fe-443c-8d85-9d5ac099efe4","system_id":"levelo_inurba_marseille","lat":43.21749,"lon":5.34601,"is_reserved":false,"is_disabled":false,"rental_uris":{"android":"levelo://app?vid=934904aa-b6fe-443c-8d85-9d5ac099efe4","ios":"levelo://app?vid=934904aa-b6fe-443c-8d85-9d5ac099efe4"},"vehicle_type_id":"4","last_reported":1748686195,"current_range_meters":12400,"station_id":"st_cvj6r9ubvosntc0bgbag","pricing_plan_id":"cebpf4jnsgd1na2vs0mg"},{"bike_id":"ca45ae50-8fdf-43fd-8443-30c134198d86","system_id":"levelo_inurba_marseille","lat":43.26565,"lon":5.40324,"is_reserved":false,"is_disabled":false,"rental_uris":{"android":"levelo://app?vid=ca45ae50-8fdf-43fd-8443-30c134198d86","ios":"levelo://app?vid=ca45ae50-8fdf-43fd-8443-30c134198d86"},"vehicle_type_id":"4","last_reported":1748686195,"current_range_meters":12400,"station_id":"","pricing_plan_id":"cebpf4jnsgd1na2vs0mg"},{"bike_id":"03c1751e-ef60-4175-a52f-4759bb9df88b","system_id":"levelo_inurba_marseille","lat":43.27956,"lon":5.38742,"is_reserved":false,"is_disabled":false,"rental_uris":{"android":"levelo://app?vid=03c1751e-ef60-4175-a52f-4759bb9df88b","ios":"levelo://app?vid=03c1751e-ef60-4175-a52f-4759bb9df88b"},"vehicle_type_id":"4","last_reported":1748686195,"current_range_meters":12400,"station_id":"ce4bhg12rcd13ifvqf80","pricing_plan_id":"cebpf4jnsgd1na2vs0mg"},{"bike_id":"4ccc6dfb-70dc-4679-9fce-f90a5761edbf","system_id":"levelo_inurba_marseille","lat":43.28611,"lon":5.35102,"is_reserved":false,"is_disabled":false,"rental_uris":{"android":"levelo://app?vid=4ccc6dfb-70dc-4679-9fce-f90a5761edbf","ios":"levelo://app?vid=4ccc6dfb-70dc-4679-9fce-f90a5761edbf"},"vehicle_type_id":"4","last_reported":1748686195,"current_range_meters":12800,"station_id":"ce4bhch2rcd13ifvqeug","pricing_plan_id":"cebpf4jnsgd1na2vs0mg"},{"bike_id":"d8af0821-bc5d-459f-b24d-bbfca9521714","system_id":"levelo_inurba_marseille","lat":43.24177,"lon":5.39708,"is_reserved":false,"is_disabled":false,"rental_uris":{"android":"levelo://app?vid=d8af0821-bc5d-459f-b24d-bbfca9521714","ios":"levelo://app?vid=d8af0821-bc5d-459f-b24d-bbfca9521714"},"vehicle_type_id":"4","last_reported":1748686195,"current_range_meters":12800,"station_id":"ce4bhn12rcd13ifvqgpg","pricing_plan_id":"cebpf4jnsgd1na2vs0mg"},{"bike_id":"e09836a0-a88a-4b81-ba5f-0a0566889c80","system_id":"levelo_inurba_marseille","lat":43.29197,"lon":5.35791,"is_reserved":false,"is_disabled":false,"rental_uris":{"android":"levelo://app?vid=e09836a0-a88a-4b81-ba5f-0a0566889c80","ios":"levelo://app?vid=e09836a0-a88a-4b81-ba5f-0a0566889c80"},"vehicle_type_id":"4","last_reported":1748686195,"current_range_meters":12800,"station_id":"ce4bhb12rcd13ifvqel0","pricing_plan_id":"cebpf4jnsgd1na2vs0mg"},{"bike_id":"c9a8ab5e-4f64-4e9c-8db2-4dbad5a71d1d","system_id":"levelo_inurba_marseille","lat":43.21751,"lon":5.34601,"is_reserved":false,"is_disabled":false,"rental_uris":{"android":"levelo://app?vid=c9a8ab5e-4f64-4e9c-8db2-4dbad5a71d1d","ios":"levelo://app?vid=c9a8ab5e-4f64-4e9c-8db2-4dbad5a71d1d"},"vehicle_type_id":"4","last_reported":1748686195,"current_range_meters":12800,"station_id":"st_cvj6r9ubvosntc0bgbag","pricing_plan_id":"cebpf4jnsgd1na2vs0mg"},{"bike_id":"fddfdbc6-8f25-484d-951a-69864df23d59","system_id":"levelo_inurba_marseille","lat":43.29744,"lon":5.37686,"is_reserved":false,"is_disabled":false,"rental_uris":{"android":"levelo://app?vid=fddfdbc6-8f25-484d-951a-69864df23d59","ios":"levelo://app?vid=fddfdbc6-8f25-484d-951a-69864df23d59"},"vehicle_type_id":"4","last_reported":1748686195,"current_range_meters":13600,"station_id":"ce4bgkh2rcd13ifvqbl0","pricing_plan_id":"cebpf4jnsgd1na2vs0mg"},{"bike_id":"c8dd8316-c3af-4bfb-9652-f19539818f02","system_id":"levelo_inurba_marseille","lat":43.31722,"lon":5.42396,"is_reserved":false,"is_disabled":false,"rental_uris":{"android":"levelo://app?vid=c8dd8316-c3af-4bfb-9652-f19539818f02","ios":"levelo://app?vid=c8dd8316-c3af-4bfb-9652-f19539818f02"},"vehicle_type_id":"4","last_reported":1748686195,"current_range_meters":13600,"station_id":"ce4bhp92rcd13ifvqhbg","pricing_plan_id":"cebpf4jnsgd1na2vs0mg"},{"bike_id":"85b57ead-8a3b-4148-81a7-7994880056e9","system_id":"levelo_inurba_marseille","lat":43.21744,"lon":5.34605,"is_reserved":false,"is_disabled":false,"rental_uris":{"android":"levelo://app?vid=85b57ead-8a3b-4148-81a7-7994880056e9","ios":"levelo://app?vid=85b57ead-8a3b-4148-81a7-7994880056e9"},"vehicle_type_id":"4","last_reported":1748686195,"current_range_meters":13600,"station_id":"st_cvj6r9ubvosntc0bgbag","pricing_plan_id":"cebpf4jnsgd1na2vs0mg"},{"bike_id":"d5d0bfbb-f2bc-4297-a453-115bac476736","system_id":"levelo_inurba_marseille","lat":43.29369,"lon":5.37494,"is_reserved":false,"is_disabled":false,"rental_uris":{"android":"levelo://app?vid=d5d0bfbb-f2bc-4297-a453-115bac476736","ios":"levelo://app?vid=d5d0bfbb-f2bc-4297-a453-115bac476736"},"vehicle_type_id":"4","last_reported":1748686195,"current_range_meters":13600,"station_id":"","pricing_plan_id":"cebpf4jnsgd1na2vs0mg"},{"bike_id":"d1341ef1-52c3-4b98-9f52-7cf973b4f978","system_id":"levelo_inurba_marseille","lat":43.29523,"lon":5.37482,"is_reserved":false,"is_disabled":false,"rental_uris":{"android":"levelo://app?vid=d1341ef1-52c3-4b98-9f52-7cf973b4f978","ios":"levelo://app?vid=d1341ef1-52c3-4b98-9f52-7cf973b4f978"},"vehicle_type_id":"4","last_reported":1748686195,"current_range_meters":13600,"station_id":"ce4bgkp2rcd13ifvqbmg","pricing_plan_id":"cebpf4jnsgd1na2vs0mg"},{"bike_id":"a1afee0d-636a-4145-8e38-9b2384426a66","system_id":"levelo_inurba_marseille","lat":43.322817,"lon":5.382704,"is_reserved":false,"is_disabled":false,"rental_uris":{"android":"levelo://app?vid=a1afee0d-636a-4145-8e38-9b2384426a66","ios":"levelo://app?vid=a1afee0d-636a-4145-8e38-9b2384426a66"},"vehicle_type_id":"4","last_reported":1748686195,"current_range_meters":14000,"station_id":"ce4bhr12rcd13ifvqhqg","pricing_plan_id":"cebpf4jnsgd1na2vs0mg"},{"bike_id":"a7bc0857-ba13-43fa-9be2-c26b232e5a26","system_id":"levelo_inurba_marseille","lat":43.25908,"lon":5.40864,"is_reserved":false,"is_disabled":false,"rental_uris":{"android":"levelo://app?vid=a7bc0857-ba13-43fa-9be2-c26b232e5a26","ios":"levelo://app?vid=a7bc0857-ba13-43fa-9be2-c26b232e5a26"},"vehicle_type_id":"4","last_reported":1748686195,"current_range_meters":14000,"station_id":"ce4bhm92rcd13ifvqglg","pricing_plan_id":"cebpf4jnsgd1na2vs0mg"},{"bike_id":"2c897d13-25ac-4b3b-aa93-d1f5241f5fe8","system_id":"levelo_inurba_marseille","lat":43.27161,"lon":5.41008,"is_reserved":false,"is_disabled":false,"rental_uris":{"android":"levelo://app?vid=2c897d13-25ac-4b3b-aa93-d1f5241f5fe8","ios":"levelo://app?vid=2c897d13-25ac-4b3b-aa93-d1f5241f5fe8"},"vehicle_type_id":"4","last_reported":1748686195,"current_range_meters":14000,"station_id":"ce4bhl12rcd13ifvqgf0","pricing_plan_id":"cebpf4jnsgd1na2vs0mg"},{"bike_id":"fa24c62a-7a59-4d4b-9eec-79da840fcafc","system_id":"levelo_inurba_marseille","lat":43.26223,"lon":5.40453,"is_reserved":false,"is_disabled":false,"rental_uris":{"android":"levelo://app?vid=fa24c62a-7a59-4d4b-9eec-79da840fcafc","ios":"levelo://app?vid=fa24c62a-7a59-4d4b-9eec-79da840fcafc"},"vehicle_type_id":"4","last_reported":1748686195,"current_range_meters":14000,"station_id":"ce4bhmh2rcd13ifvqgmg","pricing_plan_id":"cebpf4jnsgd1na2vs0mg"},{"bike_id":"e6901d81-8f28-4d7d-9700-121d525d1548","system_id":"levelo_inurba_marseille","lat":43.2174,"lon":5.34604,"is_reserved":false,"is_disabled":false,"rental_uris":{"android":"levelo://app?vid=e6901d81-8f28-4d7d-9700-121d525d1548","ios":"levelo://app?vid=e6901d81-8f28-4d7d-9700-121d525d1548"},"vehicle_type_id":"4","last_reported":1748686195,"current_range_meters":14000,"station_id":"","pricing_plan_id":"cebpf4jnsgd1na2vs0mg"},{"bike_id":"b5e7c5da-4a72-499d-b836-838107a6451c","system_id":"levelo_inurba_marseille","lat":43.21746,"lon":5.34599,"is_reserved":false,"is_disabled":false,"rental_uris":{"android":"levelo://app?vid=b5e7c5da-4a72-499d-b836-838107a6451c","ios":"levelo://app?vid=b5e7c5da-4a72-499d-b836-838107a6451c"},"vehicle_type_id":"4","last_reported":1748686195,"current_range_meters":14000,"station_id":"st_cvj6r9ubvosntc0bgbag","pricing_plan_id":"cebpf4jnsgd1na2vs0mg"},{"bike_id":"937f9e3f-8b13-4a88-a638-6f5372018cc9","system_id":"levelo_inurba_marseille","lat":43.29855,"lon":5.36284,"is_reserved":false,"is_disabled":false,"rental_uris":{"android":"levelo://app?vid=937f9e3f-8b13-4a88-a638-6f5372018cc9","ios":"levelo://app?vid=937f9e3f-8b13-4a88-a638-6f5372018cc9"},"vehicle_type_id":"4","last_reported":1748686195,"current_range_meters":14400,"station_id":"ce4bgpp2rcd13ifvqc3g","pricing_plan_id":"cebpf4jnsgd1na2vs0mg"},{"bike_id":"b4a389d7-474d-4a9d-8dec-223a88612b5c","system_id":"levelo_inurba_marseille","lat":43.24994,"lon":5.37935,"is_reserved":false,"is_disabled":false,"rental_uris":{"android":"levelo://app?vid=b4a389d7-474d-4a9d-8dec-223a88612b5c","ios":"levelo://app?vid=b4a389d7-474d-4a9d-8dec-223a88612b5c"},"vehicle_type_id":"4","last_reported":1748686195,"current_range_meters":14400,"station_id":"","pricing_plan_id":"cebpf4jnsgd1na2vs0mg"},{"bike_id":"e7177d95-1523-44fc-8625-8d734cdfb209","system_id":"levelo_inurba_marseille","lat":43.21744,"lon":5.34602,"is_reserved":false,"is_disabled":false,"rental_uris":{"android":"levelo://app?vid=e7177d95-1523-44fc-8625-8d734cdfb209","ios":"levelo://app?vid=e7177d95-1523-44fc-8625-8d734cdfb209"},"vehicle_type_id":"4","last_reported":1748686195,"current_range_meters":14400,"station_id":"st_cvj6r9ubvosntc0bgbag","pricing_plan_id":"cebpf4jnsgd1na2vs0mg"},{"bike_id":"e95b1ff2-6ef7-4dc6-8cf6-1d136aec0b39","system_id":"levelo_inurba_marseille","lat":43.3025,"lon":5.40072,"is_reserved":false,"is_disabled":false,"rental_uris":{"android":"levelo://app?vid=e95b1ff2-6ef7-4dc6-8cf6-1d136aec0b39","ios":"levelo://app?vid=e95b1ff2-6ef7-4dc6-8cf6-1d136aec0b39"},"vehicle_type_id":"4","last_reported":1748686195,"current_range_meters":14400,"station_id":"ce4bgvh2rcd13ifvqcs0","pricing_plan_id":"cebpf4jnsgd1na2vs0mg"},{"bike_id":"fafa605c-41de-4def-a99a-5baad40749f1","system_id":"levelo_inurba_marseille","lat":43.29578,"lon":5.37518,"is_reserved":false,"is_disabled":false,"rental_uris":{"android":"levelo://app?vid=fafa605c-41de-4def-a99a-5baad40749f1","ios":"levelo://app?vid=fafa605c-41de-4def-a99a-5baad40749f1"},"vehicle_type_id":"4","last_reported":1748686195,"current_range_meters":14400,"station_id":"ce4bgh92rcd13ifvqb50","pricing_plan_id":"cebpf4jnsgd1na2vs0mg"},{"bike_id":"348ddc31-f232-46b0-bbef-5931b86212cf","system_id":"levelo_inurba_marseille","lat":43.24174,"lon":5.39729,"is_reserved":false,"is_disabled":false,"rental_uris":{"android":"levelo://app?vid=348ddc31-f232-46b0-bbef-5931b86212cf","ios":"levelo://app?vid=348ddc31-f232-46b0-bbef-5931b86212cf"},"vehicle_type_id":"4","last_reported":1748686195,"current_range_meters":14400,"station_id":"ce4bhn12rcd13ifvqgpg","pricing_plan_id":"cebpf4jnsgd1na2vs0mg"},{"bike_id":"14036455-f919-44f7-8d5e-0b2e84f48674","system_id":"levelo_inurba_marseille","lat":43.309204,"lon":5.403953,"is_reserved":false,"is_disabled":false,"rental_uris":{"android":"levelo://app?vid=14036455-f919-44f7-8d5e-0b2e84f48674","ios":"levelo://app?vid=14036455-f919-44f7-8d5e-0b2e84f48674"},"vehicle_type_id":"4","last_reported":1748686195,"current_range_meters":14400,"station_id":"","pricing_plan_id":"cebpf4jnsgd1na2vs0mg"},{"bike_id":"37043473-d992-43da-b797-334787de3be6","system_id":"levelo_inurba_marseille","lat":43.29598,"lon":5.38101,"is_reserved":false,"is_disabled":false,"rental_uris":{"android":"levelo://app?vid=37043473-d992-43da-b797-334787de3be6","ios":"levelo://app?vid=37043473-d992-43da-b797-334787de3be6"},"vehicle_type_id":"4","last_reported":1748686195,"current_range_meters":14400,"station_id":"ce4bgl12rcd13ifvqbo0","pricing_plan_id":"cebpf4jnsgd1na2vs0mg"},{"bike_id":"662f1aa5-32c1-4668-a5c3-f32fb84d4751","system_id":"levelo_inurba_marseille","lat":43.296307,"lon":5.377275,"is_reserved":false,"is_disabled":false,"rental_uris":{"android":"levelo://app?vid=662f1aa5-32c1-4668-a5c3-f32fb84d4751","ios":"levelo://app?vid=662f1aa5-32c1-4668-a5c3-f32fb84d4751"},"vehicle_type_id":"4","last_reported":1748686195,"current_range_meters":14800,"station_id":"ce4bgi92rcd13ifvqb90","pricing_plan_id":"cebpf4jnsgd1na2vs0mg"},{"bike_id":"9dd8b8cc-b2f3-445f-a172-5fd0cc0494af","system_id":"levelo_inurba_marseille","lat":43.28214,"lon":5.42622,"is_reserved":false,"is_disabled":false,"rental_uris":{"android":"levelo://app?vid=9dd8b8cc-b2f3-445f-a172-5fd0cc0494af","ios":"levelo://app?vid=9dd8b8cc-b2f3-445f-a172-5fd0cc0494af"},"vehicle_type_id":"4","last_reported":1748686195,"current_range_meters":14800,"station_id":"","pricing_plan_id":"cebpf4jnsgd1na2vs0mg"},{"bike_id":"c80da720-7696-48ce-9601-aa9551f45be5","system_id":"levelo_inurba_marseille","lat":43.28427,"lon":5.34988,"is_reserved":false,"is_disabled":true,"rental_uris":{"android":"levelo://app?vid=c80da720-7696-48ce-9601-aa9551f45be5","ios":"levelo://app?vid=c80da720-7696-48ce-9601-aa9551f45be5"},"vehicle_type_id":"4","last_reported":1748686195,"current_range_meters":14800,"station_id":"ce4bhbh2rcd13ifvqepg","pricing_plan_id":"cebpf4jnsgd1na2vs0mg"},{"bike_id":"0b248cd5-f7f1-4616-ab60-adc75f0b322e","system_id":"levelo_inurba_marseille","lat":43.22501,"lon":5.34787,"is_reserved":false,"is_disabled":false,"rental_uris":{"android":"levelo://app?vid=0b248cd5-f7f1-4616-ab60-adc75f0b322e","ios":"levelo://app?vid=0b248cd5-f7f1-4616-ab60-adc75f0b322e"},"vehicle_type_id":"4","last_reported":1748686195,"current_range_meters":14800,"station_id":"st_cvj5dfep6f1abm77gieg","pricing_plan_id":"cebpf4jnsgd1na2vs0mg"},{"bike_id":"9dd94b1e-3bfc-4f8b-a0a5-d4af263f001d","system_id":"levelo_inurba_marseille","lat":43.28719,"lon":5.3794,"is_reserved":false,"is_disabled":false,"rental_uris":{"android":"levelo://app?vid=9dd94b1e-3bfc-4f8b-a0a5-d4af263f001d","ios":"levelo://app?vid=9dd94b1e-3bfc-4f8b-a0a5-d4af263f001d"},"vehicle_type_id":"4","last_reported":1748686195,"current_range_meters":15200,"station_id":"ce4bh9p2rcd13ifvqec0","pricing_plan_id":"cebpf4jnsgd1na2vs0mg"},{"bike_id":"45754ac1-53f3-4153-8b8d-8e4c362d497f","system_id":"levelo_inurba_marseille","lat":43.27841,"lon":5.39201,"is_reserved":false,"is_disabled":false,"rental_uris":{"android":"levelo://app?vid=45754ac1-53f3-4153-8b8d-8e4c362d497f","ios":"levelo://app?vid=45754ac1-53f3-4153-8b8d-8e4c362d497f"},"vehicle_type_id":"4","last_reported":1748686195,"current_range_meters":15200,"station_id":"ce4bhjp2rcd13ifvqga0","pricing_plan_id":"cebpf4jnsgd1na2vs0mg"},{"bike_id":"5cd21e12-9776-46fe-916c-9968bdc150c4","system_id":"levelo_inurba_marseille","lat":43.25107,"lon":5.40324,"is_reserved":false,"is_disabled":false,"rental_uris":{"android":"levelo://app?vid=5cd21e12-9776-46fe-916c-9968bdc150c4","ios":"levelo://app?vid=5cd21e12-9776-46fe-916c-9968bdc150c4"},"vehicle_type_id":"4","last_reported":1748686195,"current_range_meters":15200,"station_id":"ce4bhlh2rcd13ifvqgig","pricing_plan_id":"cebpf4jnsgd1na2vs0mg"},{"bike_id":"5f224e55-2261-440e-bf2f-3cbcb28e1363","system_id":"levelo_inurba_marseille","lat":43.21743,"lon":5.34605,"is_reserved":false,"is_disabled":false,"rental_uris":{"android":"levelo://app?vid=5f224e55-2261-440e-bf2f-3cbcb28e1363","ios":"levelo://app?vid=5f224e55-2261-440e-bf2f-3cbcb28e1363"},"vehicle_type_id":"4","last_reported":1748686195,"current_range_meters":16000,"station_id":"st_cvj6r9ubvosntc0bgbag","pricing_plan_id":"cebpf4jnsgd1na2vs0mg"},{"bike_id":"1e3afdce-4772-41e6-b0a8-ad3714dc985c","system_id":"levelo_inurba_marseille","lat":43.27942,"lon":5.41039,"is_reserved":false,"is_disabled":false,"rental_uris":{"android":"levelo://app?vid=1e3afdce-4772-41e6-b0a8-ad3714dc985c","ios":"levelo://app?vid=1e3afdce-4772-41e6-b0a8-ad3714dc985c"},"vehicle_type_id":"4","last_reported":1748686195,"current_range_meters":16000,"station_id":"ce4bhnp2rcd13ifvqh0g","pricing_plan_id":"cebpf4jnsgd1na2vs0mg"},{"bike_id":"413fb428-b0b3-4bea-92b1-d0a1d3888a4f","system_id":"levelo_inurba_marseille","lat":43.23963,"lon":5.36626,"is_reserved":false,"is_disabled":false,"rental_uris":{"android":"levelo://app?vid=413fb428-b0b3-4bea-92b1-d0a1d3888a4f","ios":"levelo://app?vid=413fb428-b0b3-4bea-92b1-d0a1d3888a4f"},"vehicle_type_id":"4","last_reported":1748686195,"current_range_meters":16000,"station_id":"ce4bhi12rcd13ifvqfp0","pricing_plan_id":"cebpf4jnsgd1na2vs0mg"},{"bike_id":"d94ad4e9-ef56-400a-81a8-14ac56c6093e","system_id":"levelo_inurba_marseille","lat":43.21747,"lon":5.34598,"is_reserved":false,"is_disabled":false,"rental_uris":{"android":"levelo://app?vid=d94ad4e9-ef56-400a-81a8-14ac56c6093e","ios":"levelo://app?vid=d94ad4e9-ef56-400a-81a8-14ac56c6093e"},"vehicle_type_id":"4","last_reported":1748686195,"current_range_meters":16000,"station_id":"st_cvj6r9ubvosntc0bgbag","pricing_plan_id":"cebpf4jnsgd1na2vs0mg"},{"bike_id":"e35f13ce-a6c7-4a08-9fa1-ffa4b3601a0b","system_id":"levelo_inurba_marseille","lat":43.21191,"lon":5.35067,"is_reserved":false,"is_disabled":false,"rental_uris":{"android":"levelo://app?vid=e35f13ce-a6c7-4a08-9fa1-ffa4b3601a0b","ios":"levelo://app?vid=e35f13ce-a6c7-4a08-9fa1-ffa4b3601a0b"},"vehicle_type_id":"4","last_reported":1748686195,"current_range_meters":16000,"station_id":"st_cvj6sg6p6f1abm77japg","pricing_plan_id":"cebpf4jnsgd1na2vs0mg"},{"bike_id":"acf16947-b203-4b81-91fe-aabb86c76086","system_id":"levelo_inurba_marseille","lat":43.25697,"lon":5.41007,"is_reserved":false,"is_disabled":false,"rental_uris":{"android":"levelo://app?vid=acf16947-b203-4b81-91fe-aabb86c76086","ios":"levelo://app?vid=acf16947-b203-4b81-91fe-aabb86c76086"},"vehicle_type_id":"4","last_reported":1748686195,"current_range_meters":16000,"station_id":"","pricing_plan_id":"cebpf4jnsgd1na2vs0mg"},{"bike_id":"72a9e512-30c7-40f8-94ef-65ea88c41814","system_id":"levelo_inurba_marseille","lat":43.29198,"lon":5.35793,"is_reserved":false,"is_disabled":false,"rental_uris":{"android":"levelo://app?vid=72a9e512-30c7-40f8-94ef-65ea88c41814","ios":"levelo://app?vid=72a9e512-30c7-40f8-94ef-65ea88c41814"},"vehicle_type_id":"4","last_reported":1748686195,"current_range_meters":16000,"station_id":"ce4bhb12rcd13ifvqel0","pricing_plan_id":"cebpf4jnsgd1na2vs0mg"},{"bike_id":"9254371f-ed75-4a30-b12f-3b2c75728ef3","system_id":"levelo_inurba_marseille","lat":43.26558,"lon":5.37274,"is_reserved":false,"is_disabled":false,"rental_uris":{"android":"levelo://app?vid=9254371f-ed75-4a30-b12f-3b2c75728ef3","ios":"levelo://app?vid=9254371f-ed75-4a30-b12f-3b2c75728ef3"},"vehicle_type_id":"4","last_reported":1748686195,"current_range_meters":16000,"station_id":"ce4bhg12rcd13ifvqf70","pricing_plan_id":"cebpf4jnsgd1na2vs0mg"},{"bike_id":"9a724ef8-d819-47e7-a9f7-9a3986491294","system_id":"levelo_inurba_marseille","lat":43.29352,"lon":5.38826,"is_reserved":false,"is_disabled":false,"rental_uris":{"android":"levelo://app?vid=9a724ef8-d819-47e7-a9f7-9a3986491294","ios":"levelo://app?vid=9a724ef8-d819-47e7-a9f7-9a3986491294"},"vehicle_type_id":"4","last_reported":1748686195,"current_range_meters":16400,"station_id":"","pricing_plan_id":"cebpf4jnsgd1na2vs0mg"},{"bike_id":"5dae0668-833e-4f25-993a-cb99cb88669d","system_id":"levelo_inurba_marseille","lat":43.21754,"lon":5.34596,"is_reserved":false,"is_disabled":false,"rental_uris":{"android":"levelo://app?vid=5dae0668-833e-4f25-993a-cb99cb88669d","ios":"levelo://app?vid=5dae0668-833e-4f25-993a-cb99cb88669d"},"vehicle_type_id":"4","last_reported":1748686195,"current_range_meters":16400,"station_id":"st_cvj6r9ubvosntc0bgbag","pricing_plan_id":"cebpf4jnsgd1na2vs0mg"},{"bike_id":"fd58be44-efe0-4ddd-a4ac-a9782f7bce3c","system_id":"levelo_inurba_marseille","lat":43.28267,"lon":5.35062,"is_reserved":false,"is_disabled":false,"rental_uris":{"android":"levelo://app?vid=fd58be44-efe0-4ddd-a4ac-a9782f7bce3c","ios":"levelo://app?vid=fd58be44-efe0-4ddd-a4ac-a9782f7bce3c"},"vehicle_type_id":"4","last_reported":1748686195,"current_range_meters":16400,"station_id":"ce4bhbp2rcd13ifvqerg","pricing_plan_id":"cebpf4jnsgd1na2vs0mg"},{"bike_id":"10cccf0e-5e24-4b75-8e4f-e089b2d3e656","system_id":"levelo_inurba_marseille","lat":43.231843,"lon":5.399812,"is_reserved":false,"is_disabled":false,"rental_uris":{"android":"levelo://app?vid=10cccf0e-5e24-4b75-8e4f-e089b2d3e656","ios":"levelo://app?vid=10cccf0e-5e24-4b75-8e4f-e089b2d3e656"},"vehicle_type_id":"4","last_reported":1748686195,"current_range_meters":16400,"station_id":"ce4bhn12rcd13ifvqgqg","pricing_plan_id":"cebpf4jnsgd1na2vs0mg"},{"bike_id":"9a189ee8-27ed-444b-b171-f705371af28f","system_id":"levelo_inurba_marseille","lat":43.28257,"lon":5.34904,"is_reserved":false,"is_disabled":false,"rental_uris":{"android":"levelo://app?vid=9a189ee8-27ed-444b-b171-f705371af28f","ios":"levelo://app?vid=9a189ee8-27ed-444b-b171-f705371af28f"},"vehicle_type_id":"4","last_reported":1748686195,"current_range_meters":16800,"station_id":"","pricing_plan_id":"cebpf4jnsgd1na2vs0mg"},{"bike_id":"61b86620-def2-4760-9d0a-205ac26592db","system_id":"levelo_inurba_marseille","lat":43.28274,"lon":5.35047,"is_reserved":false,"is_disabled":false,"rental_uris":{"android":"levelo://app?vid=61b86620-def2-4760-9d0a-205ac26592db","ios":"levelo://app?vid=61b86620-def2-4760-9d0a-205ac26592db"},"vehicle_type_id":"4","last_reported":1748686195,"current_range_meters":16800,"station_id":"ce4bhbp2rcd13ifvqerg","pricing_plan_id":"cebpf4jnsgd1na2vs0mg"},{"bike_id":"2f727641-8372-4e37-b639-88cbef7c9941","system_id":"levelo_inurba_marseille","lat":43.2706,"lon":5.40256,"is_reserved":false,"is_disabled":true,"rental_uris":{"android":"levelo://app?vid=2f727641-8372-4e37-b639-88cbef7c9941","ios":"levelo://app?vid=2f727641-8372-4e37-b639-88cbef7c9941"},"vehicle_type_id":"4","last_reported":1748686195,"current_range_meters":16800,"station_id":"ce4bhk92rcd13ifvqgc0","pricing_plan_id":"cebpf4jnsgd1na2vs0mg"},{"bike_id":"e210be7e-07b8-44d3-ae09-6702f28e2ae8","system_id":"levelo_inurba_marseille","lat":43.25127,"lon":5.3936,"is_reserved":false,"is_disabled":false,"rental_uris":{"android":"levelo://app?vid=e210be7e-07b8-44d3-ae09-6702f28e2ae8","ios":"levelo://app?vid=e210be7e-07b8-44d3-ae09-6702f28e2ae8"},"vehicle_type_id":"4","last_reported":1748686195,"current_range_meters":16800,"station_id":"","pricing_plan_id":"cebpf4jnsgd1na2vs0mg"},{"bike_id":"4634b1a0-27fb-4f28-89df-b2b50c9cbade","system_id":"levelo_inurba_marseille","lat":43.28608,"lon":5.37064,"is_reserved":false,"is_disabled":false,"rental_uris":{"android":"levelo://app?vid=4634b1a0-27fb-4f28-89df-b2b50c9cbade","ios":"levelo://app?vid=4634b1a0-27fb-4f28-89df-b2b50c9cbade"},"vehicle_type_id":"4","last_reported":1748686195,"current_range_meters":17200,"station_id":"ce4bht12rcd13ifvqi60","pricing_plan_id":"cebpf4jnsgd1na2vs0mg"},{"bike_id":"d9ec35c4-388c-4ab8-ae02-d1cc8b808a2b","system_id":"levelo_inurba_marseille","lat":43.21749,"lon":5.34592,"is_reserved":false,"is_disabled":false,"rental_uris":{"android":"levelo://app?vid=d9ec35c4-388c-4ab8-ae02-d1cc8b808a2b","ios":"levelo://app?vid=d9ec35c4-388c-4ab8-ae02-d1cc8b808a2b"},"vehicle_type_id":"4","last_reported":1748686195,"current_range_meters":17200,"station_id":"st_cvj6r9ubvosntc0bgbag","pricing_plan_id":"cebpf4jnsgd1na2vs0mg"},{"bike_id":"32503fa7-7208-4269-b40f-34ba3dae0f9e","system_id":"levelo_inurba_marseille","lat":43.308676,"lon":5.403732,"is_reserved":false,"is_disabled":false,"rental_uris":{"android":"levelo://app?vid=32503fa7-7208-4269-b40f-34ba3dae0f9e","ios":"levelo://app?vid=32503fa7-7208-4269-b40f-34ba3dae0f9e"},"vehicle_type_id":"4","last_reported":1748686195,"current_range_meters":17200,"station_id":"","pricing_plan_id":"cebpf4jnsgd1na2vs0mg"},{"bike_id":"f5a90625-b7e8-48a8-90c6-777efe255a32","system_id":"levelo_inurba_marseille","lat":43.25094,"lon":5.40973,"is_reserved":false,"is_disabled":false,"rental_uris":{"android":"levelo://app?vid=f5a90625-b7e8-48a8-90c6-777efe255a32","ios":"levelo://app?vid=f5a90625-b7e8-48a8-90c6-777efe255a32"},"vehicle_type_id":"4","last_reported":1748686195,"current_range_meters":17200,"station_id":"","pricing_plan_id":"cebpf4jnsgd1na2vs0mg"},{"bike_id":"83c0c9b1-470f-4411-bf15-02d71a1f2100","system_id":"levelo_inurba_marseille","lat":43.29976,"lon":5.37174,"is_reserved":false,"is_disabled":false,"rental_uris":{"android":"levelo://app?vid=83c0c9b1-470f-4411-bf15-02d71a1f2100","ios":"levelo://app?vid=83c0c9b1-470f-4411-bf15-02d71a1f2100"},"vehicle_type_id":"4","last_reported":1748686195,"current_range_meters":17200,"station_id":"ce4bgr92rcd13ifvqc7g","pricing_plan_id":"cebpf4jnsgd1na2vs0mg"},{"bike_id":"59cc9f64-369b-40a4-aef4-571b231df862","system_id":"levelo_inurba_marseille","lat":43.28081,"lon":5.35219,"is_reserved":false,"is_disabled":false,"rental_uris":{"android":"levelo://app?vid=59cc9f64-369b-40a4-aef4-571b231df862","ios":"levelo://app?vid=59cc9f64-369b-40a4-aef4-571b231df862"},"vehicle_type_id":"4","last_reported":1748686195,"current_range_meters":17200,"station_id":"","pricing_plan_id":"cebpf4jnsgd1na2vs0mg"},{"bike_id":"b433c371-fa62-4ef0-9c6a-19d8581a9331","system_id":"levelo_inurba_marseille","lat":43.28144,"lon":5.38166,"is_reserved":false,"is_disabled":false,"rental_uris":{"android":"levelo://app?vid=b433c371-fa62-4ef0-9c6a-19d8581a9331","ios":"levelo://app?vid=b433c371-fa62-4ef0-9c6a-19d8581a9331"},"vehicle_type_id":"4","last_reported":1748686195,"current_range_meters":17200,"station_id":"","pricing_plan_id":"cebpf4jnsgd1na2vs0mg"},{"bike_id":"c2c9a056-ac46-4716-b14a-bbd4354c60cf","system_id":"levelo_inurba_marseille","lat":43.23193,"lon":5.35554,"is_reserved":false,"is_disabled":false,"rental_uris":{"android":"levelo://app?vid=c2c9a056-ac46-4716-b14a-bbd4354c60cf","ios":"levelo://app?vid=c2c9a056-ac46-4716-b14a-bbd4354c60cf"},"vehicle_type_id":"4","last_reported":1748686195,"current_range_meters":17600,"station_id":"ce4bhu92rcd13ifvqi70","pricing_plan_id":"cebpf4jnsgd1na2vs0mg"},{"bike_id":"0f0391fa-243c-447d-9db1-b3e75d377cac","system_id":"levelo_inurba_marseille","lat":43.31329,"lon":5.39685,"is_reserved":false,"is_disabled":false,"rental_uris":{"android":"levelo://app?vid=0f0391fa-243c-447d-9db1-b3e75d377cac","ios":"levelo://app?vid=0f0391fa-243c-447d-9db1-b3e75d377cac"},"vehicle_type_id":"4","last_reported":1748686195,"current_range_meters":17600,"station_id":"ce4bgvp2rcd13ifvqcu0","pricing_plan_id":"cebpf4jnsgd1na2vs0mg"},{"bike_id":"92a2ae3d-96c0-46b9-8fdb-6aec92f06239","system_id":"levelo_inurba_marseille","lat":43.23064,"lon":5.35495,"is_reserved":false,"is_disabled":false,"rental_uris":{"android":"levelo://app?vid=92a2ae3d-96c0-46b9-8fdb-6aec92f06239","ios":"levelo://app?vid=92a2ae3d-96c0-46b9-8fdb-6aec92f06239"},"vehicle_type_id":"4","last_reported":1748686195,"current_range_meters":17600,"station_id":"cpo3342slgdg3j2ifvpg","pricing_plan_id":"cebpf4jnsgd1na2vs0mg"},{"bike_id":"4d9035a1-4135-4911-9f5a-65e8a1a4939f","system_id":"levelo_inurba_marseille","lat":43.21752,"lon":5.346,"is_reserved":false,"is_disabled":false,"rental_uris":{"android":"levelo://app?vid=4d9035a1-4135-4911-9f5a-65e8a1a4939f","ios":"levelo://app?vid=4d9035a1-4135-4911-9f5a-65e8a1a4939f"},"vehicle_type_id":"4","last_reported":1748686195,"current_range_meters":17600,"station_id":"st_cvj6r9ubvosntc0bgbag","pricing_plan_id":"cebpf4jnsgd1na2vs0mg"},{"bike_id":"b6e39948-375e-417a-a900-b0304599c5f8","system_id":"levelo_inurba_marseille","lat":43.29568,"lon":5.37521,"is_reserved":false,"is_disabled":false,"rental_uris":{"android":"levelo://app?vid=b6e39948-375e-417a-a900-b0304599c5f8","ios":"levelo://app?vid=b6e39948-375e-417a-a900-b0304599c5f8"},"vehicle_type_id":"4","last_reported":1748686195,"current_range_meters":17600,"station_id":"ce4bgh92rcd13ifvqb50","pricing_plan_id":"cebpf4jnsgd1na2vs0mg"},{"bike_id":"051e91a3-414c-4673-a60b-2f11564d4476","system_id":"levelo_inurba_marseille","lat":43.30462,"lon":5.37906,"is_reserved":false,"is_disabled":false,"rental_uris":{"android":"levelo://app?vid=051e91a3-414c-4673-a60b-2f11564d4476","ios":"levelo://app?vid=051e91a3-414c-4673-a60b-2f11564d4476"},"vehicle_type_id":"4","last_reported":1748686195,"current_range_meters":17600,"station_id":"ce4bgup2rcd13ifvqcn0","pricing_plan_id":"cebpf4jnsgd1na2vs0mg"},{"bike_id":"62b02994-5210-426a-980f-6cb47507004d","system_id":"levelo_inurba_marseille","lat":43.29225,"lon":5.36042,"is_reserved":false,"is_disabled":false,"rental_uris":{"android":"levelo://app?vid=62b02994-5210-426a-980f-6cb47507004d","ios":"levelo://app?vid=62b02994-5210-426a-980f-6cb47507004d"},"vehicle_type_id":"4","last_reported":1748686195,"current_range_meters":17600,"station_id":"ce4bhbh2rcd13ifvqeqg","pricing_plan_id":"cebpf4jnsgd1na2vs0mg"},{"bike_id":"b03af9a1-ffd5-48d8-bbe8-efa51113aa51","system_id":"levelo_inurba_marseille","lat":43.25115,"lon":5.4032,"is_reserved":false,"is_disabled":false,"rental_uris":{"android":"levelo://app?vid=b03af9a1-ffd5-48d8-bbe8-efa51113aa51","ios":"levelo://app?vid=b03af9a1-ffd5-48d8-bbe8-efa51113aa51"},"vehicle_type_id":"4","last_reported":1748686195,"current_range_meters":17600,"station_id":"ce4bhlh2rcd13ifvqgig","pricing_plan_id":"cebpf4jnsgd1na2vs0mg"},{"bike_id":"14a2f417-634c-4d8e-8f50-467cbd99ad0c","system_id":"levelo_inurba_marseille","lat":43.31332,"lon":5.39691,"is_reserved":false,"is_disabled":false,"rental_uris":{"android":"levelo://app?vid=14a2f417-634c-4d8e-8f50-467cbd99ad0c","ios":"levelo://app?vid=14a2f417-634c-4d8e-8f50-467cbd99ad0c"},"vehicle_type_id":"4","last_reported":1748686195,"current_range_meters":17600,"station_id":"ce4bgvp2rcd13ifvqcu0","pricing_plan_id":"cebpf4jnsgd1na2vs0mg"},{"bike_id":"582bd81b-7056-4021-bde2-4d412641f1bc","system_id":"levelo_inurba_marseille","lat":43.30583,"lon":5.36476,"is_reserved":false,"is_disabled":false,"rental_uris":{"android":"levelo://app?vid=582bd81b-7056-4021-bde2-4d412641f1bc","ios":"levelo://app?vid=582bd81b-7056-4021-bde2-4d412641f1bc"},"vehicle_type_id":"4","last_reported":1748686195,"current_range_meters":18000,"station_id":"","pricing_plan_id":"cebpf4jnsgd1na2vs0mg"},{"bike_id":"9a87b717-f8e2-4016-bc78-03583a62a953","system_id":"levelo_inurba_marseille","lat":43.26556,"lon":5.40317,"is_reserved":false,"is_disabled":false,"rental_uris":{"android":"levelo://app?vid=9a87b717-f8e2-4016-bc78-03583a62a953","ios":"levelo://app?vid=9a87b717-f8e2-4016-bc78-03583a62a953"},"vehicle_type_id":"4","last_reported":1748686195,"current_range_meters":18000,"station_id":"","pricing_plan_id":"cebpf4jnsgd1na2vs0mg"},{"bike_id":"77c8d843-097d-4a21-9eaf-ceba89e1d972","system_id":"levelo_inurba_marseille","lat":43.24156,"lon":5.36402,"is_reserved":false,"is_disabled":false,"rental_uris":{"android":"levelo://app?vid=77c8d843-097d-4a21-9eaf-ceba89e1d972","ios":"levelo://app?vid=77c8d843-097d-4a21-9eaf-ceba89e1d972"},"vehicle_type_id":"4","last_reported":1748686195,"current_range_meters":18000,"station_id":"cpo36qri1sfpv3e86is0","pricing_plan_id":"cebpf4jnsgd1na2vs0mg"},{"bike_id":"d2dd3510-eb8b-47f5-ae18-f18358da230e","system_id":"levelo_inurba_marseille","lat":43.217367,"lon":5.346007,"is_reserved":false,"is_disabled":false,"rental_uris":{"android":"levelo://app?vid=d2dd3510-eb8b-47f5-ae18-f18358da230e","ios":"levelo://app?vid=d2dd3510-eb8b-47f5-ae18-f18358da230e"},"vehicle_type_id":"4","last_reported":1748686195,"current_range_meters":18000,"station_id":"st_cvj6r9ubvosntc0bgbag","pricing_plan_id":"cebpf4jnsgd1na2vs0mg"},{"bike_id":"77520d45-03bf-4b26-9f9b-8ac6c162ce6b","system_id":"levelo_inurba_marseille","lat":43.243588,"lon":5.411467,"is_reserved":false,"is_disabled":false,"rental_uris":{"android":"levelo://app?vid=77520d45-03bf-4b26-9f9b-8ac6c162ce6b","ios":"levelo://app?vid=77520d45-03bf-4b26-9f9b-8ac6c162ce6b"},"vehicle_type_id":"4","last_reported":1748686195,"current_range_meters":18000,"station_id":"","pricing_plan_id":"cebpf4jnsgd1na2vs0mg"},{"bike_id":"56ed4761-a43c-4469-9ea6-f227f320ed7f","system_id":"levelo_inurba_marseille","lat":43.23099,"lon":5.4373,"is_reserved":false,"is_disabled":false,"rental_uris":{"android":"levelo://app?vid=56ed4761-a43c-4469-9ea6-f227f320ed7f","ios":"levelo://app?vid=56ed4761-a43c-4469-9ea6-f227f320ed7f"},"vehicle_type_id":"4","last_reported":1748686195,"current_range_meters":18000,"station_id":"","pricing_plan_id":"cebpf4jnsgd1na2vs0mg"},{"bike_id":"1ce8333f-7f4e-4626-a189-6f6fdcda36dd","system_id":"levelo_inurba_marseille","lat":43.27837,"lon":5.39196,"is_reserved":false,"is_disabled":false,"rental_uris":{"android":"levelo://app?vid=1ce8333f-7f4e-4626-a189-6f6fdcda36dd","ios":"levelo://app?vid=1ce8333f-7f4e-4626-a189-6f6fdcda36dd"},"vehicle_type_id":"4","last_reported":1748686195,"current_range_meters":18800,"station_id":"ce4bhjp2rcd13ifvqga0","pricing_plan_id":"cebpf4jnsgd1na2vs0mg"},{"bike_id":"5cef1e88-0507-4e10-a6d0-1a45f9626c0b","system_id":"levelo_inurba_marseille","lat":43.23057,"lon":5.35491,"is_reserved":false,"is_disabled":false,"rental_uris":{"android":"levelo://app?vid=5cef1e88-0507-4e10-a6d0-1a45f9626c0b","ios":"levelo://app?vid=5cef1e88-0507-4e10-a6d0-1a45f9626c0b"},"vehicle_type_id":"4","last_reported":1748686195,"current_range_meters":18800,"station_id":"cpo3342slgdg3j2ifvpg","pricing_plan_id":"cebpf4jnsgd1na2vs0mg"},{"bike_id":"cf99540e-56c9-47fd-bb37-414f9e70e2e8","system_id":"levelo_inurba_marseille","lat":43.29846,"lon":5.36286,"is_reserved":false,"is_disabled":false,"rental_uris":{"android":"levelo://app?vid=cf99540e-56c9-47fd-bb37-414f9e70e2e8","ios":"levelo://app?vid=cf99540e-56c9-47fd-bb37-414f9e70e2e8"},"vehicle_type_id":"4","last_reported":1748686195,"current_range_meters":18800,"station_id":"ce4bgpp2rcd13ifvqc3g","pricing_plan_id":"cebpf4jnsgd1na2vs0mg"},{"bike_id":"aefac582-ac07-49e3-95f0-b9b85fd7ae0d","system_id":"levelo_inurba_marseille","lat":43.29628,"lon":5.40594,"is_reserved":false,"is_disabled":false,"rental_uris":{"android":"levelo://app?vid=aefac582-ac07-49e3-95f0-b9b85fd7ae0d","ios":"levelo://app?vid=aefac582-ac07-49e3-95f0-b9b85fd7ae0d"},"vehicle_type_id":"4","last_reported":1748686195,"current_range_meters":18800,"station_id":"ce4bh0h2rcd13ifvqd60","pricing_plan_id":"cebpf4jnsgd1na2vs0mg"},{"bike_id":"96fd4ecb-791c-4507-ba52-aed708661266","system_id":"levelo_inurba_marseille","lat":43.25122,"lon":5.40312,"is_reserved":false,"is_disabled":false,"rental_uris":{"android":"levelo://app?vid=96fd4ecb-791c-4507-ba52-aed708661266","ios":"levelo://app?vid=96fd4ecb-791c-4507-ba52-aed708661266"},"vehicle_type_id":"4","last_reported":1748686195,"current_range_meters":18800,"station_id":"ce4bhlh2rcd13ifvqgig","pricing_plan_id":"cebpf4jnsgd1na2vs0mg"},{"bike_id":"07cc432b-34ff-437e-9ff8-8475bd1fc1cd","system_id":"levelo_inurba_marseille","lat":43.27982,"lon":5.41656,"is_reserved":false,"is_disabled":false,"rental_uris":{"android":"levelo://app?vid=07cc432b-34ff-437e-9ff8-8475bd1fc1cd","ios":"levelo://app?vid=07cc432b-34ff-437e-9ff8-8475bd1fc1cd"},"vehicle_type_id":"4","last_reported":1748686195,"current_range_meters":18800,"station_id":"ce4bho12rcd13ifvqh1g","pricing_plan_id":"cebpf4jnsgd1na2vs0mg"},{"bike_id":"52138315-f13b-4871-ab78-9e5155a1008c","system_id":"levelo_inurba_marseille","lat":43.32288,"lon":5.38275,"is_reserved":false,"is_disabled":false,"rental_uris":{"android":"levelo://app?vid=52138315-f13b-4871-ab78-9e5155a1008c","ios":"levelo://app?vid=52138315-f13b-4871-ab78-9e5155a1008c"},"vehicle_type_id":"4","last_reported":1748686195,"current_range_meters":18800,"station_id":"ce4bhr12rcd13ifvqhqg","pricing_plan_id":"cebpf4jnsgd1na2vs0mg"},{"bike_id":"9489efda-03a9-4d77-8dea-e05cc0490906","system_id":"levelo_inurba_marseille","lat":43.30546,"lon":5.36713,"is_reserved":false,"is_disabled":false,"rental_uris":{"android":"levelo://app?vid=9489efda-03a9-4d77-8dea-e05cc0490906","ios":"levelo://app?vid=9489efda-03a9-4d77-8dea-e05cc0490906"},"vehicle_type_id":"4","last_reported":1748686195,"current_range_meters":18800,"station_id":"ce4bgrp2rcd13ifvqc9g","pricing_plan_id":"cebpf4jnsgd1na2vs0mg"},{"bike_id":"a3eff81f-3de8-42e1-ab30-9b0ba49a524c","system_id":"levelo_inurba_marseille","lat":43.27966,"lon":5.38731,"is_reserved":false,"is_disabled":false,"rental_uris":{"android":"levelo://app?vid=a3eff81f-3de8-42e1-ab30-9b0ba49a524c","ios":"levelo://app?vid=a3eff81f-3de8-42e1-ab30-9b0ba49a524c"},"vehicle_type_id":"4","last_reported":1748686195,"current_range_meters":19200,"station_id":"ce4bhg12rcd13ifvqf80","pricing_plan_id":"cebpf4jnsgd1na2vs0mg"},{"bike_id":"37da63eb-922c-43a2-a033-1797e8a35c14","system_id":"levelo_inurba_marseille","lat":43.27909,"lon":5.3959,"is_reserved":false,"is_disabled":false,"rental_uris":{"android":"levelo://app?vid=37da63eb-922c-43a2-a033-1797e8a35c14","ios":"levelo://app?vid=37da63eb-922c-43a2-a033-1797e8a35c14"},"vehicle_type_id":"4","last_reported":1748686195,"current_range_meters":19200,"station_id":"ce4bhf92rcd13ifvqf40","pricing_plan_id":"cebpf4jnsgd1na2vs0mg"},{"bike_id":"cb0bfac2-c2d3-4d9e-8e37-bb9beda6d44a","system_id":"levelo_inurba_marseille","lat":43.21198,"lon":5.35061,"is_reserved":false,"is_disabled":false,"rental_uris":{"android":"levelo://app?vid=cb0bfac2-c2d3-4d9e-8e37-bb9beda6d44a","ios":"levelo://app?vid=cb0bfac2-c2d3-4d9e-8e37-bb9beda6d44a"},"vehicle_type_id":"4","last_reported":1748686195,"current_range_meters":19200,"station_id":"st_cvj6sg6p6f1abm77japg","pricing_plan_id":"cebpf4jnsgd1na2vs0mg"},{"bike_id":"2fe6278c-5afa-4ac6-8c9d-653e87261e2b","system_id":"levelo_inurba_marseille","lat":43.23192,"lon":5.39982,"is_reserved":false,"is_disabled":false,"rental_uris":{"android":"levelo://app?vid=2fe6278c-5afa-4ac6-8c9d-653e87261e2b","ios":"levelo://app?vid=2fe6278c-5afa-4ac6-8c9d-653e87261e2b"},"vehicle_type_id":"4","last_reported":1748686195,"current_range_meters":19200,"station_id":"ce4bhn12rcd13ifvqgqg","pricing_plan_id":"cebpf4jnsgd1na2vs0mg"},{"bike_id":"31e7bf4d-33ca-44e5-a66f-0d2a9a4dc06c","system_id":"levelo_inurba_marseille","lat":43.299252,"lon":5.374461,"is_reserved":false,"is_disabled":false,"rental_uris":{"android":"levelo://app?vid=31e7bf4d-33ca-44e5-a66f-0d2a9a4dc06c","ios":"levelo://app?vid=31e7bf4d-33ca-44e5-a66f-0d2a9a4dc06c"},"vehicle_type_id":"4","last_reported":1748686195,"current_range_meters":19200,"station_id":"","pricing_plan_id":"cebpf4jnsgd1na2vs0mg"},{"bike_id":"0cd0f35a-8fb8-4853-b498-8b85d9daafee","system_id":"levelo_inurba_marseille","lat":43.21191,"lon":5.35072,"is_reserved":false,"is_disabled":false,"rental_uris":{"android":"levelo://app?vid=0cd0f35a-8fb8-4853-b498-8b85d9daafee","ios":"levelo://app?vid=0cd0f35a-8fb8-4853-b498-8b85d9daafee"},"vehicle_type_id":"4","last_reported":1748686195,"current_range_meters":19200,"station_id":"st_cvj6sg6p6f1abm77japg","pricing_plan_id":"cebpf4jnsgd1na2vs0mg"},{"bike_id":"40ec5158-e937-46a3-9a06-884370ed5e3d","system_id":"levelo_inurba_marseille","lat":43.24169,"lon":5.39728,"is_reserved":false,"is_disabled":false,"rental_uris":{"android":"levelo://app?vid=40ec5158-e937-46a3-9a06-884370ed5e3d","ios":"levelo://app?vid=40ec5158-e937-46a3-9a06-884370ed5e3d"},"vehicle_type_id":"4","last_reported":1748686195,"current_range_meters":19200,"station_id":"ce4bhn12rcd13ifvqgpg","pricing_plan_id":"cebpf4jnsgd1na2vs0mg"},{"bike_id":"18fa9a24-85b2-4d2f-986e-4e414af349d9","system_id":"levelo_inurba_marseille","lat":43.21752,"lon":5.34602,"is_reserved":false,"is_disabled":false,"rental_uris":{"android":"levelo://app?vid=18fa9a24-85b2-4d2f-986e-4e414af349d9","ios":"levelo://app?vid=18fa9a24-85b2-4d2f-986e-4e414af349d9"},"vehicle_type_id":"4","last_reported":1748686195,"current_range_meters":19200,"station_id":"st_cvj6r9ubvosntc0bgbag","pricing_plan_id":"cebpf4jnsgd1na2vs0mg"},{"bike_id":"2f650bb1-6027-4191-83d2-16315820a0a7","system_id":"levelo_inurba_marseille","lat":43.30009,"lon":5.37361,"is_reserved":false,"is_disabled":false,"rental_uris":{"android":"levelo://app?vid=2f650bb1-6027-4191-83d2-16315820a0a7","ios":"levelo://app?vid=2f650bb1-6027-4191-83d2-16315820a0a7"},"vehicle_type_id":"4","last_reported":1748686195,"current_range_meters":19200,"station_id":"","pricing_plan_id":"cebpf4jnsgd1na2vs0mg"},{"bike_id":"e53f7662-4d31-4934-80dd-5a8ab496ea67","system_id":"levelo_inurba_marseille","lat":43.25116,"lon":5.40316,"is_reserved":false,"is_disabled":false,"rental_uris":{"android":"levelo://app?vid=e53f7662-4d31-4934-80dd-5a8ab496ea67","ios":"levelo://app?vid=e53f7662-4d31-4934-80dd-5a8ab496ea67"},"vehicle_type_id":"4","last_reported":1748686195,"current_range_meters":19600,"station_id":"ce4bhlh2rcd13ifvqgig","pricing_plan_id":"cebpf4jnsgd1na2vs0mg"},{"bike_id":"f365caa8-1088-42e4-9d08-18d155792df5","system_id":"levelo_inurba_marseille","lat":43.21747,"lon":5.34603,"is_reserved":false,"is_disabled":false,"rental_uris":{"android":"levelo://app?vid=f365caa8-1088-42e4-9d08-18d155792df5","ios":"levelo://app?vid=f365caa8-1088-42e4-9d08-18d155792df5"},"vehicle_type_id":"4","last_reported":1748686195,"current_range_meters":19600,"station_id":"st_cvj6r9ubvosntc0bgbag","pricing_plan_id":"cebpf4jnsgd1na2vs0mg"},{"bike_id":"870e5d7b-d9a3-497f-a960-cc4dd98e5973","system_id":"levelo_inurba_marseille","lat":43.29594,"lon":5.38103,"is_reserved":false,"is_disabled":false,"rental_uris":{"android":"levelo://app?vid=870e5d7b-d9a3-497f-a960-cc4dd98e5973","ios":"levelo://app?vid=870e5d7b-d9a3-497f-a960-cc4dd98e5973"},"vehicle_type_id":"4","last_reported":1748686195,"current_range_meters":19600,"station_id":"ce4bgl12rcd13ifvqbo0","pricing_plan_id":"cebpf4jnsgd1na2vs0mg"},{"bike_id":"a4846a43-19a0-42fc-82d6-2c56aa6153ec","system_id":"levelo_inurba_marseille","lat":43.248,"lon":5.37453,"is_reserved":false,"is_disabled":false,"rental_uris":{"android":"levelo://app?vid=a4846a43-19a0-42fc-82d6-2c56aa6153ec","ios":"levelo://app?vid=a4846a43-19a0-42fc-82d6-2c56aa6153ec"},"vehicle_type_id":"4","last_reported":1748686195,"current_range_meters":19600,"station_id":"ce4bhgh2rcd13ifvqfb0","pricing_plan_id":"cebpf4jnsgd1na2vs0mg"},{"bike_id":"3528ca7f-30d6-456a-aaf7-c5ee0d0ae008","system_id":"levelo_inurba_marseille","lat":43.29935,"lon":5.36529,"is_reserved":false,"is_disabled":false,"rental_uris":{"android":"levelo://app?vid=3528ca7f-30d6-456a-aaf7-c5ee0d0ae008","ios":"levelo://app?vid=3528ca7f-30d6-456a-aaf7-c5ee0d0ae008"},"vehicle_type_id":"4","last_reported":1748686195,"current_range_meters":19600,"station_id":"ce4bgm92rcd13ifvqbr0","pricing_plan_id":"cebpf4jnsgd1na2vs0mg"},{"bike_id":"f90ef706-52d8-4cde-a1d4-03885d22b7f4","system_id":"levelo_inurba_marseille","lat":43.29268,"lon":5.38465,"is_reserved":false,"is_disabled":false,"rental_uris":{"android":"levelo://app?vid=f90ef706-52d8-4cde-a1d4-03885d22b7f4","ios":"levelo://app?vid=f90ef706-52d8-4cde-a1d4-03885d22b7f4"},"vehicle_type_id":"4","last_reported":1748686195,"current_range_meters":19600,"station_id":"ce4bh692rcd13ifvqea0","pricing_plan_id":"cebpf4jnsgd1na2vs0mg"},{"bike_id":"ce1210dc-ad07-4097-8bb7-95f8a95c9063","system_id":"levelo_inurba_marseille","lat":43.21745,"lon":5.34606,"is_reserved":false,"is_disabled":false,"rental_uris":{"android":"levelo://app?vid=ce1210dc-ad07-4097-8bb7-95f8a95c9063","ios":"levelo://app?vid=ce1210dc-ad07-4097-8bb7-95f8a95c9063"},"vehicle_type_id":"4","last_reported":1748686195,"current_range_meters":19600,"station_id":"st_cvj6r9ubvosntc0bgbag","pricing_plan_id":"cebpf4jnsgd1na2vs0mg"},{"bike_id":"c2319c95-523a-4385-a540-a2f6322d592b","system_id":"levelo_inurba_marseille","lat":43.27825,"lon":5.3921,"is_reserved":false,"is_disabled":false,"rental_uris":{"android":"levelo://app?vid=c2319c95-523a-4385-a540-a2f6322d592b","ios":"levelo://app?vid=c2319c95-523a-4385-a540-a2f6322d592b"},"vehicle_type_id":"4","last_reported":1748686195,"current_range_meters":19600,"station_id":"ce4bhjp2rcd13ifvqga0","pricing_plan_id":"cebpf4jnsgd1na2vs0mg"},{"bike_id":"06d84860-65e0-4134-b6ad-1e0fe5ddc0d6","system_id":"levelo_inurba_marseille","lat":43.25695,"lon":5.37672,"is_reserved":false,"is_disabled":false,"rental_uris":{"android":"levelo://app?vid=06d84860-65e0-4134-b6ad-1e0fe5ddc0d6","ios":"levelo://app?vid=06d84860-65e0-4134-b6ad-1e0fe5ddc0d6"},"vehicle_type_id":"4","last_reported":1748686195,"current_range_meters":19600,"station_id":"","pricing_plan_id":"cebpf4jnsgd1na2vs0mg"},{"bike_id":"b8a13ef2-f75f-43cc-b6c5-56549b3ab028","system_id":"levelo_inurba_marseille","lat":43.23196,"lon":5.35556,"is_reserved":false,"is_disabled":false,"rental_uris":{"android":"levelo://app?vid=b8a13ef2-f75f-43cc-b6c5-56549b3ab028","ios":"levelo://app?vid=b8a13ef2-f75f-43cc-b6c5-56549b3ab028"},"vehicle_type_id":"4","last_reported":1748686195,"current_range_meters":20000,"station_id":"ce4bhu92rcd13ifvqi70","pricing_plan_id":"cebpf4jnsgd1na2vs0mg"},{"bike_id":"cfdaee7c-2100-4fe4-b398-d082d5cab5f4","system_id":"levelo_inurba_marseille","lat":43.23195,"lon":5.35551,"is_reserved":false,"is_disabled":false,"rental_uris":{"android":"levelo://app?vid=cfdaee7c-2100-4fe4-b398-d082d5cab5f4","ios":"levelo://app?vid=cfdaee7c-2100-4fe4-b398-d082d5cab5f4"},"vehicle_type_id":"4","last_reported":1748686195,"current_range_meters":20000,"station_id":"ce4bhu92rcd13ifvqi70","pricing_plan_id":"cebpf4jnsgd1na2vs0mg"},{"bike_id":"ff8ebc33-dacf-43b2-bf69-0225bf40c44e","system_id":"levelo_inurba_marseille","lat":43.28848,"lon":5.3929,"is_reserved":false,"is_disabled":false,"rental_uris":{"android":"levelo://app?vid=ff8ebc33-dacf-43b2-bf69-0225bf40c44e","ios":"levelo://app?vid=ff8ebc33-dacf-43b2-bf69-0225bf40c44e"},"vehicle_type_id":"4","last_reported":1748686195,"current_range_meters":20000,"station_id":"ce4bh2p2rcd13ifvqdi0","pricing_plan_id":"cebpf4jnsgd1na2vs0mg"},{"bike_id":"86fc7eca-d4ea-47c2-a633-bd1673572323","system_id":"levelo_inurba_marseille","lat":43.29009,"lon":5.35608,"is_reserved":false,"is_disabled":false,"rental_uris":{"android":"levelo://app?vid=86fc7eca-d4ea-47c2-a633-bd1673572323","ios":"levelo://app?vid=86fc7eca-d4ea-47c2-a633-bd1673572323"},"vehicle_type_id":"4","last_reported":1748686195,"current_range_meters":20000,"station_id":"ce4bhb92rcd13ifvqen0","pricing_plan_id":"cebpf4jnsgd1na2vs0mg"},{"bike_id":"c1b33d3e-f453-4f82-a16d-18fc51fe49fb","system_id":"levelo_inurba_marseille","lat":43.30144,"lon":5.38074,"is_reserved":false,"is_disabled":false,"rental_uris":{"android":"levelo://app?vid=c1b33d3e-f453-4f82-a16d-18fc51fe49fb","ios":"levelo://app?vid=c1b33d3e-f453-4f82-a16d-18fc51fe49fb"},"vehicle_type_id":"4","last_reported":1748686195,"current_range_meters":20000,"station_id":"ce4bgjp2rcd13ifvqbh0","pricing_plan_id":"cebpf4jnsgd1na2vs0mg"},{"bike_id":"9df70647-ad82-4e2a-b657-060a85e868d5","system_id":"levelo_inurba_marseille","lat":43.30201,"lon":5.39478,"is_reserved":false,"is_disabled":false,"rental_uris":{"android":"levelo://app?vid=9df70647-ad82-4e2a-b657-060a85e868d5","ios":"levelo://app?vid=9df70647-ad82-4e2a-b657-060a85e868d5"},"vehicle_type_id":"4","last_reported":1748686195,"current_range_meters":20000,"station_id":"ce4bh0p2rcd13ifvqd70","pricing_plan_id":"cebpf4jnsgd1na2vs0mg"},{"bike_id":"0bbc3a3e-d90f-43e6-8a96-01c2bf4d8264","system_id":"levelo_inurba_marseille","lat":43.29784,"lon":5.39336,"is_reserved":false,"is_disabled":false,"rental_uris":{"android":"levelo://app?vid=0bbc3a3e-d90f-43e6-8a96-01c2bf4d8264","ios":"levelo://app?vid=0bbc3a3e-d90f-43e6-8a96-01c2bf4d8264"},"vehicle_type_id":"4","last_reported":1748686195,"current_range_meters":20400,"station_id":"chh1huq6cuj3fo74tm60","pricing_plan_id":"cebpf4jnsgd1na2vs0mg"},{"bike_id":"8d58868a-90c7-4354-bd95-c9b1424e7e94","system_id":"levelo_inurba_marseille","lat":43.30873,"lon":5.37409,"is_reserved":false,"is_disabled":false,"rental_uris":{"android":"levelo://app?vid=8d58868a-90c7-4354-bd95-c9b1424e7e94","ios":"levelo://app?vid=8d58868a-90c7-4354-bd95-c9b1424e7e94"},"vehicle_type_id":"4","last_reported":1748686195,"current_range_meters":20400,"station_id":"","pricing_plan_id":"cebpf4jnsgd1na2vs0mg"},{"bike_id":"4e06c97b-cef3-4984-a01b-946e60a79690","system_id":"levelo_inurba_marseille","lat":43.253269,"lon":5.393839,"is_reserved":false,"is_disabled":false,"rental_uris":{"android":"levelo://app?vid=4e06c97b-cef3-4984-a01b-946e60a79690","ios":"levelo://app?vid=4e06c97b-cef3-4984-a01b-946e60a79690"},"vehicle_type_id":"4","last_reported":1748686195,"current_range_meters":20400,"station_id":"","pricing_plan_id":"cebpf4jnsgd1na2vs0mg"},