{"last_updated":1687986412,"ttl":30,"version":"2.2","data":{"bikes":[{"bike_id":"666c1415-28e9-4944-87f5-29a628446c75","system_id":"levelo_inurba_marseille","lat":43.312239,"lon":5.368562,"is_reserved":false,"is_disabled":false,"rental_uris":{"android":"levelo://app?vid=666c1415-28e9-4944-87f5-29a628446c75","ios":"levelo://app?vid=666c1415-28e9-4944-87f5-29a628446c75"},"vehicle_type_id":"4","last_reported":1687986412,"current_range_meters":31200,"station_id":"ce4bgl92rcd13ifvqbq0","pricing_plan_id":"free"},{"bike_id":"6c375352-028b-489f-8cf3-aa0c85950576","system_id":"levelo_inurba_marseille","lat":43.309076,"lon":5.368465,"is_reserved":false,"is_disabled":false,"rental_uris":{"android":"levelo://app?vid=6c375352-028b-489f-8cf3-aa0c85950576","ios":"levelo://app?vid=6c375352-028b-489f-8cf3-aa0c85950576"},"vehicle_type_id":"4","last_reported":1687986412,"current_range_meters":2800,"station_id":"ce4bgn92rcd13ifvqbvg","pricing_plan_id":"free"},{"bike_id":"f6b230b5-2947-49f6-b2ac-2eeb3319fc23","system_id":"levelo_inurba_marseille","lat":43.314811,"lon":5.373103,"is_reserved":false,"is_disabled":false,"rental_uris":{"android":"levelo://app?vid=f6b230b5-2947-49f6-b2ac-2eeb3319fc23","ios":"levelo://app?vid=f6b230b5-2947-49f6-b2ac-2eeb3319fc23"},"vehicle_type_id":"4","last_reported":1687986412,"current_range_meters":0,"station_id":"ce4bgt12rcd13ifvqcd0","pricing_plan_id":"free"},{"bike_id":"27629fa5-c003-4c5f-b01d-0c7c1c5b96bb","system_id":"levelo_inurba_marseille","lat":43.314811,"lon":5.373104,"is_reserved":false,"is_disabled":false,"rental_uris":{"android":"levelo://app?vid=27629fa5-c003-4c5f-b01d-0c7c1c5b96bb","ios":"levelo://app?vid=27629fa5-c003-4c5f-b01d-0c7c1c5b96bb"},"vehicle_type_id":"4","last_reported":1687986412,"current_range_meters":400,"station_id":"ce4bgt12rcd13ifvqcd0","pricing_plan_id":"free"},{"bike_id":"b47242af-9788-438a-baf0-002a9a09b0fb","system_id":"levelo_inurba_marseille","lat":43.31502,"lon":5.37312,"is_reserved":false,"is_disabled":false,"rental_uris":{"android":"levelo://app?vid=b47242af-9788-438a-baf0-002a9a09b0fb","ios":"levelo://app?vid=b47242af-9788-438a-baf0-002a9a09b0fb"},"vehicle_type_id":"4","last_reported":1687986412,"current_range_meters":0,"station_id":"ce4bgt12rcd13ifvqcd0","pricing_plan_id":"free"},{"bike_id":"0cc34ff3-d70f-4bcd-b6c5-73bf3e4ab26a","system_id":"levelo_inurba_marseille","lat":43.308606,"lon":5.372099,"is_reserved":false,"is_disabled":false,"rental_uris":{"android":"levelo://app?vid=0cc34ff3-d70f-4bcd-b6c5-73bf3e4ab26a","ios":"levelo://app?vid=0cc34ff3-d70f-4bcd-b6c5-73bf3e4ab26a"},"vehicle_type_id":"4","last_reported":1687986412,"current_range_meters":6800,"station_id":"ce4bguh2rcd13ifvqckg","pricing_plan_id":"free"},{"bike_id":"12218e18-242f-4c6b-97b2-f963db0cb0e1","system_id":"levelo_inurba_marseille","lat":43.30543,"lon":5.36715,"is_reserved":false,"is_disabled":false,"rental_uris":{"android":"levelo://app?vid=12218e18-242f-4c6b-97b2-f963db0cb0e1","ios":"levelo://app?vid=12218e18-242f-4c6b-97b2-f963db0cb0e1"},"vehicle_type_id":"4","last_reported":1687986412,"current_range_meters":12400,"station_id":"ce4bgrp2rcd13ifvqc9g","pricing_plan_id":"free"},{"bike_id":"ba9781f0-d6f1-4059-b165-a524a3e59bd9","system_id":"levelo_inurba_marseille","lat":43.305368,"lon":5.367343,"is_reserved":false,"is_disabled":false,"rental_uris":{"android":"levelo://app?vid=ba9781f0-d6f1-4059-b165-a524a3e59bd9","ios":"levelo://app?vid=ba9781f0-d6f1-4059-b165-a524a3e59bd9"},"vehicle_type_id":"4","last_reported":1687986412,"current_range_meters":23200,"station_id":"ce4bgrp2rcd13ifvqc9g","pricing_plan_id":"free"},{"bike_id":"db6cdcc4-2cd8-4229-85e4-c0a7f5ce0492","system_id":"levelo_inurba_marseille","lat":43.305368,"lon":5.367343,"is_reserved":false,"is_disabled":false,"rental_uris":{"android":"levelo://app?vid=db6cdcc4-2cd8-4229-85e4-c0a7f5ce0492","ios":"levelo://app?vid=db6cdcc4-2cd8-4229-85e4-c0a7f5ce0492"},"vehicle_type_id":"4","last_reported":1687986412,"current_range_meters":4800,"station_id":"ce4bgrp2rcd13ifvqc9g","pricing_plan_id":"free"},{"bike_id":"a56cf08a-d06a-4af6-a7fa-960741a7030d","system_id":"levelo_inurba_marseille","lat":43.305989,"lon":5.37225,"is_reserved":false,"is_disabled":false,"rental_uris":{"android":"levelo://app?vid=a56cf08a-d06a-4af6-a7fa-960741a7030d","ios":"levelo://app?vid=a56cf08a-d06a-4af6-a7fa-960741a7030d"},"vehicle_type_id":"4","last_reported":1687986412,"current_range_meters":25200,"station_id":"ce4bgqh2rcd13ifvqc4g","pricing_plan_id":"free"},{"bike_id":"23d38d8a-48fa-406a-97b3-4925176051e9","system_id":"levelo_inurba_marseille","lat":43.305989,"lon":5.37225,"is_reserved":false,"is_disabled":false,"rental_uris":{"android":"levelo://app?vid=23d38d8a-48fa-406a-97b3-4925176051e9","ios":"levelo://app?vid=23d38d8a-48fa-406a-97b3-4925176051e9"},"vehicle_type_id":"4","last_reported":1687986412,"current_range_meters":3200,"station_id":"ce4bgqh2rcd13ifvqc4g","pricing_plan_id":"free"},{"bike_id":"ddaf1801-b153-4d90-b63e-af4f7d9b9af3","system_id":"levelo_inurba_marseille","lat":43.315289,"lon":5.380349,"is_reserved":false,"is_disabled":false,"rental_uris":{"android":"levelo://app?vid=ddaf1801-b153-4d90-b63e-af4f7d9b9af3","ios":"levelo://app?vid=ddaf1801-b153-4d90-b63e-af4f7d9b9af3"},"vehicle_type_id":"4","last_reported":1687986412,"current_range_meters":27600,"station_id":"ce4bhsp2rcd13ifvqi50","pricing_plan_id":"free"},{"bike_id":"bfa2ea86-2d5f-48f3-9948-85929b75c514","system_id":"levelo_inurba_marseille","lat":43.315289,"lon":5.380349,"is_reserved":false,"is_disabled":false,"rental_uris":{"android":"levelo://app?vid=bfa2ea86-2d5f-48f3-9948-85929b75c514","ios":"levelo://app?vid=bfa2ea86-2d5f-48f3-9948-85929b75c514"},"vehicle_type_id":"4","last_reported":1687986412,"current_range_meters":5200,"station_id":"ce4bhsp2rcd13ifvqi50","pricing_plan_id":"free"},{"bike_id":"b2a69c58-8bb4-4d9d-85e9-7ab6715faf83","system_id":"levelo_inurba_marseille","lat":43.315293,"lon":5.380349,"is_reserved":false,"is_disabled":false,"rental_uris":{"android":"levelo://app?vid=b2a69c58-8bb4-4d9d-85e9-7ab6715faf83","ios":"levelo://app?vid=b2a69c58-8bb4-4d9d-85e9-7ab6715faf83"},"vehicle_type_id":"4","last_reported":1687986412,"current_range_meters":0,"station_id":"ce4bhsp2rcd13ifvqi50","pricing_plan_id":"free"},{"bike_id":"0e96561e-5591-4c15-8d00-eb7a00456621","system_id":"levelo_inurba_marseille","lat":43.315289,"lon":5.380349,"is_reserved":false,"is_disabled":false,"rental_uris":{"android":"levelo://app?vid=0e96561e-5591-4c15-8d00-eb7a00456621","ios":"levelo://app?vid=0e96561e-5591-4c15-8d00-eb7a00456621"},"vehicle_type_id":"4","last_reported":1687986412,"current_range_meters":4000,"station_id":"ce4bhsp2rcd13ifvqi50","pricing_plan_id":"free"},{"bike_id":"e8626e5c-30cd-4f2d-b0f2-6b9343eb83bf","system_id":"levelo_inurba_marseille","lat":43.308052,"lon":5.381495,"is_reserved":false,"is_disabled":false,"rental_uris":{"android":"levelo://app?vid=e8626e5c-30cd-4f2d-b0f2-6b9343eb83bf","ios":"levelo://app?vid=e8626e5c-30cd-4f2d-b0f2-6b9343eb83bf"},"vehicle_type_id":"4","last_reported":1687986412,"current_range_meters":21200,"station_id":"","pricing_plan_id":"free"},{"bike_id":"f266b268-5fce-4b4b-8253-4e4bd26be0e2","system_id":"levelo_inurba_marseille","lat":43.30791,"lon":5.38163,"is_reserved":false,"is_disabled":false,"rental_uris":{"android":"levelo://app?vid=f266b268-5fce-4b4b-8253-4e4bd26be0e2","ios":"levelo://app?vid=f266b268-5fce-4b4b-8253-4e4bd26be0e2"},"vehicle_type_id":"4","last_reported":1687986412,"current_range_meters":7600,"station_id":"ce4bgt12rcd13ifvqce0","pricing_plan_id":"free"},{"bike_id":"72177a71-de61-4a3a-b65e-860489a12d69","system_id":"levelo_inurba_marseille","lat":43.304606,"lon":5.379026,"is_reserved":false,"is_disabled":false,"rental_uris":{"android":"levelo://app?vid=72177a71-de61-4a3a-b65e-860489a12d69","ios":"levelo://app?vid=72177a71-de61-4a3a-b65e-860489a12d69"},"vehicle_type_id":"4","last_reported":1687986412,"current_range_meters":1600,"station_id":"ce4bgup2rcd13ifvqcn0","pricing_plan_id":"free"},{"bike_id":"5d8d9e72-1827-4852-92be-11ab546deeec","system_id":"levelo_inurba_marseille","lat":43.304606,"lon":5.379026,"is_reserved":false,"is_disabled":false,"rental_uris":{"android":"levelo://app?vid=5d8d9e72-1827-4852-92be-11ab546deeec","ios":"levelo://app?vid=5d8d9e72-1827-4852-92be-11ab546deeec"},"vehicle_type_id":"4","last_reported":1687986412,"current_range_meters":8400,"station_id":"ce4bgup2rcd13ifvqcn0","pricing_plan_id":"free"},{"bike_id":"322f321b-18ad-44f7-8ee3-5015e313f918","system_id":"levelo_inurba_marseille","lat":43.302784,"lon":5.377158,"is_reserved":false,"is_disabled":false,"rental_uris":{"android":"levelo://app?vid=322f321b-18ad-44f7-8ee3-5015e313f918","ios":"levelo://app?vid=322f321b-18ad-44f7-8ee3-5015e313f918"},"vehicle_type_id":"4","last_reported":1687986412,"current_range_meters":28000,"station_id":"ce4bguh2rcd13ifvqcj0","pricing_plan_id":"free"},{"bike_id":"8ab32b00-71b0-4ede-a2c4-ba4aeec6aef8","system_id":"levelo_inurba_marseille","lat":43.302784,"lon":5.377158,"is_reserved":false,"is_disabled":false,"rental_uris":{"android":"levelo://app?vid=8ab32b00-71b0-4ede-a2c4-ba4aeec6aef8","ios":"levelo://app?vid=8ab32b00-71b0-4ede-a2c4-ba4aeec6aef8"},"vehicle_type_id":"4","last_reported":1687986412,"current_range_meters":26800,"station_id":"ce4bguh2rcd13ifvqcj0","pricing_plan_id":"free"},{"bike_id":"7043d29c-9857-4293-af6f-871ced6ffaab","system_id":"levelo_inurba_marseille","lat":43.30141,"lon":5.37415,"is_reserved":false,"is_disabled":false,"rental_uris":{"android":"levelo://app?vid=7043d29c-9857-4293-af6f-871ced6ffaab","ios":"levelo://app?vid=7043d29c-9857-4293-af6f-871ced6ffaab"},"vehicle_type_id":"4","last_reported":1687986412,"current_range_meters":23200,"station_id":"ce4bgs92rcd13ifvqcc0","pricing_plan_id":"free"},{"bike_id":"ff7fb76d-81c8-413b-945d-7a839b4cd655","system_id":"levelo_inurba_marseille","lat":43.313571,"lon":5.384829,"is_reserved":false,"is_disabled":false,"rental_uris":{"android":"levelo://app?vid=ff7fb76d-81c8-413b-945d-7a839b4cd655","ios":"levelo://app?vid=ff7fb76d-81c8-413b-945d-7a839b4cd655"},"vehicle_type_id":"4","last_reported":1687986412,"current_range_meters":0,"station_id":"ce4bgt92rcd13ifvqcf0","pricing_plan_id":"free"},{"bike_id":"2ce1c985-b584-445e-af31-61a8b9435db5","system_id":"levelo_inurba_marseille","lat":43.313571,"lon":5.384829,"is_reserved":false,"is_disabled":false,"rental_uris":{"android":"levelo://app?vid=2ce1c985-b584-445e-af31-61a8b9435db5","ios":"levelo://app?vid=2ce1c985-b584-445e-af31-61a8b9435db5"},"vehicle_type_id":"4","last_reported":1687986412,"current_range_meters":17600,"station_id":"ce4bgt92rcd13ifvqcf0","pricing_plan_id":"free"},{"bike_id":"aee421b6-4ad1-4a02-ab59-e2bf055db3b5","system_id":"levelo_inurba_marseille","lat":43.313571,"lon":5.384829,"is_reserved":false,"is_disabled":false,"rental_uris":{"android":"levelo://app?vid=aee421b6-4ad1-4a02-ab59-e2bf055db3b5","ios":"levelo://app?vid=aee421b6-4ad1-4a02-ab59-e2bf055db3b5"},"vehicle_type_id":"4","last_reported":1687986412,"current_range_meters":21200,"station_id":"ce4bgt92rcd13ifvqcf0","pricing_plan_id":"free"},{"bike_id":"5eb4b862-d704-4117-83ba-342173ea1738","system_id":"levelo_inurba_marseille","lat":43.305364,"lon":5.384119,"is_reserved":false,"is_disabled":false,"rental_uris":{"android":"levelo://app?vid=5eb4b862-d704-4117-83ba-342173ea1738","ios":"levelo://app?vid=5eb4b862-d704-4117-83ba-342173ea1738"},"vehicle_type_id":"4","last_reported":1687986412,"current_range_meters":15600,"station_id":"ce4bgg92rcd13ifvqb30","pricing_plan_id":"free"},{"bike_id":"204cbbf9-c1aa-4bcb-8594-7544641c38f5","system_id":"levelo_inurba_marseille","lat":43.29922,"lon":5.37469,"is_reserved":false,"is_disabled":false,"rental_uris":{"android":"levelo://app?vid=204cbbf9-c1aa-4bcb-8594-7544641c38f5","ios":"levelo://app?vid=204cbbf9-c1aa-4bcb-8594-7544641c38f5"},"vehicle_type_id":"4","last_reported":1687986412,"current_range_meters":25200,"station_id":"","pricing_plan_id":"free"},{"bike_id":"ffb24939-c01e-43fb-9a7e-48251abac925","system_id":"levelo_inurba_marseille","lat":43.311722,"lon":5.387247,"is_reserved":false,"is_disabled":false,"rental_uris":{"android":"levelo://app?vid=ffb24939-c01e-43fb-9a7e-48251abac925","ios":"levelo://app?vid=ffb24939-c01e-43fb-9a7e-48251abac925"},"vehicle_type_id":"4","last_reported":1687986412,"current_range_meters":14000,"station_id":"ce4bgv12rcd13ifvqcp0","pricing_plan_id":"free"},{"bike_id":"789d17c1-5e4a-47c8-8579-e7e32b5f77ea","system_id":"levelo_inurba_marseille","lat":43.311722,"lon":5.387247,"is_reserved":false,"is_disabled":false,"rental_uris":{"android":"levelo://app?vid=789d17c1-5e4a-47c8-8579-e7e32b5f77ea","ios":"levelo://app?vid=789d17c1-5e4a-47c8-8579-e7e32b5f77ea"},"vehicle_type_id":"4","last_reported":1687986412,"current_range_meters":18800,"station_id":"ce4bgv12rcd13ifvqcp0","pricing_plan_id":"free"},{"bike_id":"373a1eaa-eac3-475f-acf7-f8b60349e28e","system_id":"levelo_inurba_marseille","lat":43.311722,"lon":5.387247,"is_reserved":false,"is_disabled":false,"rental_uris":{"android":"levelo://app?vid=373a1eaa-eac3-475f-acf7-f8b60349e28e","ios":"levelo://app?vid=373a1eaa-eac3-475f-acf7-f8b60349e28e"},"vehicle_type_id":"4","last_reported":1687986412,"current_range_meters":27600,"station_id":"ce4bgv12rcd13ifvqcp0","pricing_plan_id":"free"},{"bike_id":"1acd8146-33c8-4f91-ba37-de96e801bf02","system_id":"levelo_inurba_marseille","lat":43.311722,"lon":5.387247,"is_reserved":false,"is_disabled":false,"rental_uris":{"android":"levelo://app?vid=1acd8146-33c8-4f91-ba37-de96e801bf02","ios":"levelo://app?vid=1acd8146-33c8-4f91-ba37-de96e801bf02"},"vehicle_type_id":"4","last_reported":1687986412,"current_range_meters":10400,"station_id":"ce4bgv12rcd13ifvqcp0","pricing_plan_id":"free"},{"bike_id":"7c098f19-bbc5-4f21-9f5f-590190b5b7d1","system_id":"levelo_inurba_marseille","lat":43.311722,"lon":5.387247,"is_reserved":false,"is_disabled":false,"rental_uris":{"android":"levelo://app?vid=7c098f19-bbc5-4f21-9f5f-590190b5b7d1","ios":"levelo://app?vid=7c098f19-bbc5-4f21-9f5f-590190b5b7d1"},"vehicle_type_id":"4","last_reported":1687986412,"current_range_meters":9600,"station_id":"ce4bgv12rcd13ifvqcp0","pricing_plan_id":"free"},{"bike_id":"1e76fcbe-c67e-4065-83e9-de1bfdcd8c82","system_id":"levelo_inurba_marseille","lat":43.311722,"lon":5.387247,"is_reserved":false,"is_disabled":false,"rental_uris":{"android":"levelo://app?vid=1e76fcbe-c67e-4065-83e9-de1bfdcd8c82","ios":"levelo://app?vid=1e76fcbe-c67e-4065-83e9-de1bfdcd8c82"},"vehicle_type_id":"4","last_reported":1687986412,"current_range_meters":7200,"station_id":"ce4bgv12rcd13ifvqcp0","pricing_plan_id":"free"},{"bike_id":"86b9fb7f-a2c3-4082-9faa-7e3f901f5c30","system_id":"levelo_inurba_marseille","lat":43.328371,"lon":5.366909,"is_reserved":false,"is_disabled":false,"rental_uris":{"android":"levelo://app?vid=86b9fb7f-a2c3-4082-9faa-7e3f901f5c30","ios":"levelo://app?vid=86b9fb7f-a2c3-4082-9faa-7e3f901f5c30"},"vehicle_type_id":"4","last_reported":1687986412,"current_range_meters":18800,"station_id":"ce4bhs92rcd13ifvqi0g","pricing_plan_id":"free"},{"bike_id":"6582f173-7b2c-4a42-844c-19148b9fbe1b","system_id":"levelo_inurba_marseille","lat":43.328371,"lon":5.366909,"is_reserved":false,"is_disabled":false,"rental_uris":{"android":"levelo://app?vid=6582f173-7b2c-4a42-844c-19148b9fbe1b","ios":"levelo://app?vid=6582f173-7b2c-4a42-844c-19148b9fbe1b"},"vehicle_type_id":"4","last_reported":1687986412,"current_range_meters":17600,"station_id":"ce4bhs92rcd13ifvqi0g","pricing_plan_id":"free"},{"bike_id":"07fc5e4e-23c0-4e7f-baff-848452f6a527","system_id":"levelo_inurba_marseille","lat":43.32827,"lon":5.36679,"is_reserved":false,"is_disabled":false,"rental_uris":{"android":"levelo://app?vid=07fc5e4e-23c0-4e7f-baff-848452f6a527","ios":"levelo://app?vid=07fc5e4e-23c0-4e7f-baff-848452f6a527"},"vehicle_type_id":"4","last_reported":1687986412,"current_range_meters":21600,"station_id":"ce4bhs92rcd13ifvqi0g","pricing_plan_id":"free"},{"bike_id":"74960633-2b88-4c2f-a74e-024991efb4ba","system_id":"levelo_inurba_marseille","lat":43.328371,"lon":5.366909,"is_reserved":false,"is_disabled":false,"rental_uris":{"android":"levelo://app?vid=74960633-2b88-4c2f-a74e-024991efb4ba","ios":"levelo://app?vid=74960633-2b88-4c2f-a74e-024991efb4ba"},"vehicle_type_id":"4","last_reported":1687986412,"current_range_meters":22400,"station_id":"ce4bhs92rcd13ifvqi0g","pricing_plan_id":"free"},{"bike_id":"aba24cac-9149-4a7e-be6a-f15d19b76734","system_id":"levelo_inurba_marseille","lat":43.3283,"lon":5.36692,"is_reserved":false,"is_disabled":false,"rental_uris":{"android":"levelo://app?vid=aba24cac-9149-4a7e-be6a-f15d19b76734","ios":"levelo://app?vid=aba24cac-9149-4a7e-be6a-f15d19b76734"},"vehicle_type_id":"4","last_reported":1687986412,"current_range_meters":400,"station_id":"ce4bhs92rcd13ifvqi0g","pricing_plan_id":"free"},{"bike_id":"4ad0820a-b4f0-4687-9297-85e68595ea74","system_id":"levelo_inurba_marseille","lat":43.328371,"lon":5.366909,"is_reserved":false,"is_disabled":false,"rental_uris":{"android":"levelo://app?vid=4ad0820a-b4f0-4687-9297-85e68595ea74","ios":"levelo://app?vid=4ad0820a-b4f0-4687-9297-85e68595ea74"},"vehicle_type_id":"4","last_reported":1687986412,"current_range_meters":14800,"station_id":"ce4bhs92rcd13ifvqi0g","pricing_plan_id":"free"},{"bike_id":"52c17931-f235-4280-a010-fb1d15e44b39","system_id":"levelo_inurba_marseille","lat":43.32832,"lon":5.3668,"is_reserved":false,"is_disabled":false,"rental_uris":{"android":"levelo://app?vid=52c17931-f235-4280-a010-fb1d15e44b39","ios":"levelo://app?vid=52c17931-f235-4280-a010-fb1d15e44b39"},"vehicle_type_id":"4","last_reported":1687986412,"current_range_meters":27600,"station_id":"ce4bhs92rcd13ifvqi0g","pricing_plan_id":"free"},{"bike_id":"8d98417a-cbe4-4269-8bc9-598373a7d5de","system_id":"levelo_inurba_marseille","lat":43.32867,"lon":5.363,"is_reserved":false,"is_disabled":false,"rental_uris":{"android":"levelo://app?vid=8d98417a-cbe4-4269-8bc9-598373a7d5de","ios":"levelo://app?vid=8d98417a-cbe4-4269-8bc9-598373a7d5de"},"vehicle_type_id":"4","last_reported":1687986412,"current_range_meters":1200,"station_id":"","pricing_plan_id":"free"},{"bike_id":"50a3ed65-66ef-4b6f-9596-a3c8d6a83a37","system_id":"levelo_inurba_marseille","lat":43.296935,"lon":5.376544,"is_reserved":false,"is_disabled":false,"rental_uris":{"android":"levelo://app?vid=50a3ed65-66ef-4b6f-9596-a3c8d6a83a37","ios":"levelo://app?vid=50a3ed65-66ef-4b6f-9596-a3c8d6a83a37"},"vehicle_type_id":"4","last_reported":1687986412,"current_range_meters":8400,"station_id":"ce4bgkh2rcd13ifvqbl0","pricing_plan_id":"free"},{"bike_id":"fc440594-44bf-4b76-8779-16bea19d624e","system_id":"levelo_inurba_marseille","lat":43.29914,"lon":5.38151,"is_reserved":false,"is_disabled":false,"rental_uris":{"android":"levelo://app?vid=fc440594-44bf-4b76-8779-16bea19d624e","ios":"levelo://app?vid=fc440594-44bf-4b76-8779-16bea19d624e"},"vehicle_type_id":"4","last_reported":1687986412,"current_range_meters":12000,"station_id":"ce4bgj12rcd13ifvqbc0","pricing_plan_id":"free"},{"bike_id":"90297635-fb1b-4415-b771-1f795e340119","system_id":"levelo_inurba_marseille","lat":43.296935,"lon":5.376544,"is_reserved":false,"is_disabled":false,"rental_uris":{"android":"levelo://app?vid=90297635-fb1b-4415-b771-1f795e340119","ios":"levelo://app?vid=90297635-fb1b-4415-b771-1f795e340119"},"vehicle_type_id":"4","last_reported":1687986412,"current_range_meters":1600,"station_id":"ce4bgkh2rcd13ifvqbl0","pricing_plan_id":"free"},{"bike_id":"75b07940-e91d-404a-ad6e-65cb5a84c5bc","system_id":"levelo_inurba_marseille","lat":43.309589,"lon":5.390258,"is_reserved":false,"is_disabled":false,"rental_uris":{"android":"levelo://app?vid=75b07940-e91d-404a-ad6e-65cb5a84c5bc","ios":"levelo://app?vid=75b07940-e91d-404a-ad6e-65cb5a84c5bc"},"vehicle_type_id":"4","last_reported":1687986412,"current_range_meters":26800,"station_id":"ce4bgup2rcd13ifvqco0","pricing_plan_id":"free"},{"bike_id":"58f0c486-dfb5-470c-b6f2-f9313f0a4857","system_id":"levelo_inurba_marseille","lat":43.30951,"lon":5.39042,"is_reserved":false,"is_disabled":false,"rental_uris":{"android":"levelo://app?vid=58f0c486-dfb5-470c-b6f2-f9313f0a4857","ios":"levelo://app?vid=58f0c486-dfb5-470c-b6f2-f9313f0a4857"},"vehicle_type_id":"4","last_reported":1687986412,"current_range_meters":2800,"station_id":"","pricing_plan_id":"free"},{"bike_id":"aa7666b1-f636-4796-b20e-0434ebb94ca6","system_id":"levelo_inurba_marseille","lat":43.309589,"lon":5.390258,"is_reserved":false,"is_disabled":false,"rental_uris":{"android":"levelo://app?vid=aa7666b1-f636-4796-b20e-0434ebb94ca6","ios":"levelo://app?vid=aa7666b1-f636-4796-b20e-0434ebb94ca6"},"vehicle_type_id":"4","last_reported":1687986412,"current_range_meters":27200,"station_id":"ce4bgup2rcd13ifvqco0","pricing_plan_id":"free"},{"bike_id":"6e697468-4b87-48f1-bb0e-7028d9af6005","system_id":"levelo_inurba_marseille","lat":43.317557,"lon":5.390173,"is_reserved":false,"is_disabled":false,"rental_uris":{"android":"levelo://app?vid=6e697468-4b87-48f1-bb0e-7028d9af6005","ios":"levelo://app?vid=6e697468-4b87-48f1-bb0e-7028d9af6005"},"vehicle_type_id":"4","last_reported":1687986412,"current_range_meters":10000,"station_id":"ce4bhqp2rcd13ifvqhng","pricing_plan_id":"free"},{"bike_id":"87fe7ecc-58f3-4d60-a392-44f44f76d63a","system_id":"levelo_inurba_marseille","lat":43.317557,"lon":5.390173,"is_reserved":false,"is_disabled":false,"rental_uris":{"android":"levelo://app?vid=87fe7ecc-58f3-4d60-a392-44f44f76d63a","ios":"levelo://app?vid=87fe7ecc-58f3-4d60-a392-44f44f76d63a"},"vehicle_type_id":"4","last_reported":1687986412,"current_range_meters":26400,"station_id":"ce4bhqp2rcd13ifvqhng","pricing_plan_id":"free"},{"bike_id":"a23ece68-c8bc-4030-a075-93a16187a3f8","system_id":"levelo_inurba_marseille","lat":43.317557,"lon":5.390173,"is_reserved":false,"is_disabled":false,"rental_uris":{"android":"levelo://app?vid=a23ece68-c8bc-4030-a075-93a16187a3f8","ios":"levelo://app?vid=a23ece68-c8bc-4030-a075-93a16187a3f8"},"vehicle_type_id":"4","last_reported":1687986412,"current_range_meters":13200,"station_id":"ce4bhqp2rcd13ifvqhng","pricing_plan_id":"free"},{"bike_id":"85dc18e1-dedd-449e-a51c-90ae514b182b","system_id":"levelo_inurba_marseille","lat":43.317557,"lon":5.390173,"is_reserved":false,"is_disabled":false,"rental_uris":{"android":"levelo://app?vid=85dc18e1-dedd-449e-a51c-90ae514b182b","ios":"levelo://app?vid=85dc18e1-dedd-449e-a51c-90ae514b182b"},"vehicle_type_id":"4","last_reported":1687986412,"current_range_meters":30000,"station_id":"ce4bhqp2rcd13ifvqhng","pricing_plan_id":"free"},{"bike_id":"d8962691-8297-4c68-abb7-fe030e507a5a","system_id":"levelo_inurba_marseille","lat":43.317557,"lon":5.390173,"is_reserved":false,"is_disabled":false,"rental_uris":{"android":"levelo://app?vid=d8962691-8297-4c68-abb7-fe030e507a5a","ios":"levelo://app?vid=d8962691-8297-4c68-abb7-fe030e507a5a"},"vehicle_type_id":"4","last_reported":1687986412,"current_range_meters":26000,"station_id":"ce4bhqp2rcd13ifvqhng","pricing_plan_id":"free"},{"bike_id":"f332d4b1-5253-4e04-b6be-6078ffe12241","system_id":"levelo_inurba_marseille","lat":43.317557,"lon":5.390173,"is_reserved":false,"is_disabled":false,"rental_uris":{"android":"levelo://app?vid=f332d4b1-5253-4e04-b6be-6078ffe12241","ios":"levelo://app?vid=f332d4b1-5253-4e04-b6be-6078ffe12241"},"vehicle_type_id":"4","last_reported":1687986412,"current_range_meters":28800,"station_id":"ce4bhqp2rcd13ifvqhng","pricing_plan_id":"free"},{"bike_id":"1d733ba0-0b57-4c2c-b0dd-585e51d7de22","system_id":"levelo_inurba_marseille","lat":43.296935,"lon":5.376544,"is_reserved":false,"is_disabled":false,"rental_uris":{"android":"levelo://app?vid=1d733ba0-0b57-4c2c-b0dd-585e51d7de22","ios":"levelo://app?vid=1d733ba0-0b57-4c2c-b0dd-585e51d7de22"},"vehicle_type_id":"4","last_reported":1687986412,"current_range_meters":400,"station_id":"ce4bgkh2rcd13ifvqbl0","pricing_plan_id":"free"},{"bike_id":"3cadf37c-d23b-4f29-ac0e-9b9ca2d74a0f","system_id":"levelo_inurba_marseille","lat":43.29798,"lon":5.38093,"is_reserved":false,"is_disabled":false,"rental_uris":{"android":"levelo://app?vid=3cadf37c-d23b-4f29-ac0e-9b9ca2d74a0f","ios":"levelo://app?vid=3cadf37c-d23b-4f29-ac0e-9b9ca2d74a0f"},"vehicle_type_id":"4","last_reported":1687986412,"current_range_meters":21200,"station_id":"ce4bgip2rcd13ifvqbb0","pricing_plan_id":"free"},{"bike_id":"f5e4a36a-06d7-4c46-b4d1-8853044daa4f","system_id":"levelo_inurba_marseille","lat":43.298037,"lon":5.381066,"is_reserved":false,"is_disabled":false,"rental_uris":{"android":"levelo://app?vid=f5e4a36a-06d7-4c46-b4d1-8853044daa4f","ios":"levelo://app?vid=f5e4a36a-06d7-4c46-b4d1-8853044daa4f"},"vehicle_type_id":"4","last_reported":1687986412,"current_range_meters":11200,"station_id":"ce4bgip2rcd13ifvqbb0","pricing_plan_id":"free"},{"bike_id":"23d747d4-96c5-4691-8757-e407d4f877e6","system_id":"levelo_inurba_marseille","lat":43.3043,"lon":5.38891,"is_reserved":false,"is_disabled":false,"rental_uris":{"android":"levelo://app?vid=23d747d4-96c5-4691-8757-e407d4f877e6","ios":"levelo://app?vid=23d747d4-96c5-4691-8757-e407d4f877e6"},"vehicle_type_id":"4","last_reported":1687986412,"current_range_meters":18800,"station_id":"ce4bgk12rcd13ifvqbi0","pricing_plan_id":"free"},{"bike_id":"7fd58b2a-c3a4-4244-b1d2-3085c53e0810","system_id":"levelo_inurba_marseille","lat":43.299717,"lon":5.384845,"is_reserved":false,"is_disabled":false,"rental_uris":{"android":"levelo://app?vid=7fd58b2a-c3a4-4244-b1d2-3085c53e0810","ios":"levelo://app?vid=7fd58b2a-c3a4-4244-b1d2-3085c53e0810"},"vehicle_type_id":"4","last_reported":1687986412,"current_range_meters":5200,"station_id":"ce4bgj92rcd13ifvqbd0","pricing_plan_id":"free"},{"bike_id":"6047a7c6-8c97-46b2-8fe1-2c9b8980c374","system_id":"levelo_inurba_marseille","lat":43.32367,"lon":5.388836,"is_reserved":false,"is_disabled":false,"rental_uris":{"android":"levelo://app?vid=6047a7c6-8c97-46b2-8fe1-2c9b8980c374","ios":"levelo://app?vid=6047a7c6-8c97-46b2-8fe1-2c9b8980c374"},"vehicle_type_id":"4","last_reported":1687986412,"current_range_meters":4000,"station_id":"ce4bhqp2rcd13ifvqhog","pricing_plan_id":"free"},{"bike_id":"4b4e611d-1b21-4fe6-a41f-8225e3e3ac40","system_id":"levelo_inurba_marseille","lat":43.32367,"lon":5.388836,"is_reserved":false,"is_disabled":false,"rental_uris":{"android":"levelo://app?vid=4b4e611d-1b21-4fe6-a41f-8225e3e3ac40","ios":"levelo://app?vid=4b4e611d-1b21-4fe6-a41f-8225e3e3ac40"},"vehicle_type_id":"4","last_reported":1687986412,"current_range_meters":400,"station_id":"ce4bhqp2rcd13ifvqhog","pricing_plan_id":"free"},{"bike_id":"3b460742-8001-4680-8942-abbbe8bfcb64","system_id":"levelo_inurba_marseille","lat":43.32367,"lon":5.38882,"is_reserved":false,"is_disabled":false,"rental_uris":{"android":"levelo://app?vid=3b460742-8001-4680-8942-abbbe8bfcb64","ios":"levelo://app?vid=3b460742-8001-4680-8942-abbbe8bfcb64"},"vehicle_type_id":"4","last_reported":1687986412,"current_range_meters":24400,"station_id":"ce4bhqp2rcd13ifvqhog","pricing_plan_id":"free"},{"bike_id":"dc198606-a22d-4666-8f25-25f1597c7a6b","system_id":"levelo_inurba_marseille","lat":43.32367,"lon":5.388836,"is_reserved":false,"is_disabled":false,"rental_uris":{"android":"levelo://app?vid=dc198606-a22d-4666-8f25-25f1597c7a6b","ios":"levelo://app?vid=dc198606-a22d-4666-8f25-25f1597c7a6b"},"vehicle_type_id":"4","last_reported":1687986412,"current_range_meters":14400,"station_id":"ce4bhqp2rcd13ifvqhog","pricing_plan_id":"free"},{"bike_id":"dfb50179-c345-41ab-a383-532269ec033a","system_id":"levelo_inurba_marseille","lat":43.32367,"lon":5.388836,"is_reserved":false,"is_disabled":false,"rental_uris":{"android":"levelo://app?vid=dfb50179-c345-41ab-a383-532269ec033a","ios":"levelo://app?vid=dfb50179-c345-41ab-a383-532269ec033a"},"vehicle_type_id":"4","last_reported":1687986412,"current_range_meters":13200,"station_id":"ce4bhqp2rcd13ifvqhog","pricing_plan_id":"free"},{"bike_id":"eb5d817d-b48a-410f-b93c-98bafcec3519","system_id":"levelo_inurba_marseille","lat":43.32367,"lon":5.388836,"is_reserved":false,"is_disabled":false,"rental_uris":{"android":"levelo://app?vid=eb5d817d-b48a-410f-b93c-98bafcec3519","ios":"levelo://app?vid=eb5d817d-b48a-410f-b93c-98bafcec3519"},"vehicle_type_id":"4","last_reported":1687986412,"current_range_meters":17600,"station_id":"ce4bhqp2rcd13ifvqhog","pricing_plan_id":"free"},{"bike_id":"c737b305-2f9e-411a-b1ca-26b0f745d0f2","system_id":"levelo_inurba_marseille","lat":43.33191,"lon":5.36162,"is_reserved":false,"is_disabled":false,"rental_uris":{"android":"levelo://app?vid=c737b305-2f9e-411a-b1ca-26b0f745d0f2","ios":"levelo://app?vid=c737b305-2f9e-411a-b1ca-26b0f745d0f2"},"vehicle_type_id":"4","last_reported":1687986412,"current_range_meters":9200,"station_id":"","pricing_plan_id":"free"},{"bike_id":"86b880d6-73e9-45bd-9b86-03493560c3d0","system_id":"levelo_inurba_marseille","lat":43.293009,"lon":5.374584,"is_reserved":false,"is_disabled":false,"rental_uris":{"android":"levelo://app?vid=86b880d6-73e9-45bd-9b86-03493560c3d0","ios":"levelo://app?vid=86b880d6-73e9-45bd-9b86-03493560c3d0"},"vehicle_type_id":"4","last_reported":1687986412,"current_range_meters":0,"station_id":"ce4bgi12rcd13ifvqb70","pricing_plan_id":"free"},{"bike_id":"fb5186ff-870c-4644-8f31-cefca3d781d1","system_id":"levelo_inurba_marseille","lat":43.305994,"lon":5.393687,"is_reserved":false,"is_disabled":false,"rental_uris":{"android":"levelo://app?vid=fb5186ff-870c-4644-8f31-cefca3d781d1","ios":"levelo://app?vid=fb5186ff-870c-4644-8f31-cefca3d781d1"},"vehicle_type_id":"4","last_reported":1687986412,"current_range_meters":9600,"station_id":"ce4bh0p2rcd13ifvqd80","pricing_plan_id":"free"},{"bike_id":"c64b4bc1-8fb5-4b1f-bd86-e95c52d3b0e6","system_id":"levelo_inurba_marseille","lat":43.29882,"lon":5.38804,"is_reserved":false,"is_disabled":false,"rental_uris":{"android":"levelo://app?vid=c64b4bc1-8fb5-4b1f-bd86-e95c52d3b0e6","ios":"levelo://app?vid=c64b4bc1-8fb5-4b1f-bd86-e95c52d3b0e6"},"vehicle_type_id":"4","last_reported":1687986412,"current_range_meters":9200,"station_id":"","pricing_plan_id":"free"},{"bike_id":"12e54e1d-dace-4ba8-9d3a-71418c5be373","system_id":"levelo_inurba_marseille","lat":43.302992,"lon":5.392136,"is_reserved":false,"is_disabled":false,"rental_uris":{"android":"levelo://app?vid=12e54e1d-dace-4ba8-9d3a-71418c5be373","ios":"levelo://app?vid=12e54e1d-dace-4ba8-9d3a-71418c5be373"},"vehicle_type_id":"4","last_reported":1687986412,"current_range_meters":6400,"station_id":"ce4bgkh2rcd13ifvqbk0","pricing_plan_id":"free"},{"bike_id":"c82f813b-8f4c-4152-8805-e054c0b9809b","system_id":"levelo_inurba_marseille","lat":43.300852,"lon":5.390859,"is_reserved":false,"is_disabled":false,"rental_uris":{"android":"levelo://app?vid=c82f813b-8f4c-4152-8805-e054c0b9809b","ios":"levelo://app?vid=c82f813b-8f4c-4152-8805-e054c0b9809b"},"vehicle_type_id":"4","last_reported":1687986412,"current_range_meters":6800,"station_id":"ce4bh192rcd13ifvqdb0","pricing_plan_id":"free"},{"bike_id":"0b8328a1-3bdd-45f3-b53d-831e3a2b9978","system_id":"levelo_inurba_marseille","lat":43.298764,"lon":5.388973,"is_reserved":false,"is_disabled":false,"rental_uris":{"android":"levelo://app?vid=0b8328a1-3bdd-45f3-b53d-831e3a2b9978","ios":"levelo://app?vid=0b8328a1-3bdd-45f3-b53d-831e3a2b9978"},"vehicle_type_id":"4","last_reported":1687986412,"current_range_meters":8800,"station_id":"ce4bh392rcd13ifvqdl0","pricing_plan_id":"free"},{"bike_id":"f623c67b-099c-4fae-9e28-73241dfc438f","system_id":"levelo_inurba_marseille","lat":43.298764,"lon":5.388973,"is_reserved":false,"is_disabled":false,"rental_uris":{"android":"levelo://app?vid=f623c67b-099c-4fae-9e28-73241dfc438f","ios":"levelo://app?vid=f623c67b-099c-4fae-9e28-73241dfc438f"},"vehicle_type_id":"4","last_reported":1687986412,"current_range_meters":20400,"station_id":"ce4bh392rcd13ifvqdl0","pricing_plan_id":"free"},{"bike_id":"6447d040-5943-4cbc-8178-6a95bfb78e73","system_id":"levelo_inurba_marseille","lat":43.292663,"lon":5.376389,"is_reserved":false,"is_disabled":false,"rental_uris":{"android":"levelo://app?vid=6447d040-5943-4cbc-8178-6a95bfb78e73","ios":"levelo://app?vid=6447d040-5943-4cbc-8178-6a95bfb78e73"},"vehicle_type_id":"4","last_reported":1687986412,"current_range_meters":800,"station_id":"ce4bgi12rcd13ifvqb80","pricing_plan_id":"free"},{"bike_id":"ea969a68-4e21-47ee-b610-c1550e135a0e","system_id":"levelo_inurba_marseille","lat":43.309038,"lon":5.396546,"is_reserved":false,"is_disabled":false,"rental_uris":{"android":"levelo://app?vid=ea969a68-4e21-47ee-b610-c1550e135a0e","ios":"levelo://app?vid=ea969a68-4e21-47ee-b610-c1550e135a0e"},"vehicle_type_id":"4","last_reported":1687986412,"current_range_meters":2800,"station_id":"ce4bh012rcd13ifvqcv0","pricing_plan_id":"free"},{"bike_id":"f77ecad7-f123-4c0a-bf68-57befe5e94b6","system_id":"levelo_inurba_marseille","lat":43.309038,"lon":5.396546,"is_reserved":false,"is_disabled":false,"rental_uris":{"android":"levelo://app?vid=f77ecad7-f123-4c0a-bf68-57befe5e94b6","ios":"levelo://app?vid=f77ecad7-f123-4c0a-bf68-57befe5e94b6"},"vehicle_type_id":"4","last_reported":1687986412,"current_range_meters":9600,"station_id":"ce4bh012rcd13ifvqcv0","pricing_plan_id":"free"},{"bike_id":"92291d41-4ed5-4e41-af6a-70ad261aa6a6","system_id":"levelo_inurba_marseille","lat":43.309038,"lon":5.396546,"is_reserved":false,"is_disabled":false,"rental_uris":{"android":"levelo://app?vid=92291d41-4ed5-4e41-af6a-70ad261aa6a6","ios":"levelo://app?vid=92291d41-4ed5-4e41-af6a-70ad261aa6a6"},"vehicle_type_id":"4","last_reported":1687986412,"current_range_meters":8400,"station_id":"ce4bh012rcd13ifvqcv0","pricing_plan_id":"free"},{"bike_id":"95e9287a-ba5a-46f7-b4bb-7be33bf6e61d","system_id":"levelo_inurba_marseille","lat":43.309038,"lon":5.396546,"is_reserved":false,"is_disabled":false,"rental_uris":{"android":"levelo://app?vid=95e9287a-ba5a-46f7-b4bb-7be33bf6e61d","ios":"levelo://app?vid=95e9287a-ba5a-46f7-b4bb-7be33bf6e61d"},"vehicle_type_id":"4","last_reported":1687986412,"current_range_meters":11200,"station_id":"ce4bh012rcd13ifvqcv0","pricing_plan_id":"free"},{"bike_id":"9836ceda-c455-4fc0-be08-89cad1b3c575","system_id":"levelo_inurba_marseille","lat":43.3133,"lon":5.39692,"is_reserved":false,"is_disabled":false,"rental_uris":{"android":"levelo://app?vid=9836ceda-c455-4fc0-be08-89cad1b3c575","ios":"levelo://app?vid=9836ceda-c455-4fc0-be08-89cad1b3c575"},"vehicle_type_id":"4","last_reported":1687986412,"current_range_meters":20400,"station_id":"ce4bgvp2rcd13ifvqcu0","pricing_plan_id":"free"},{"bike_id":"3488bca4-9c87-4b3e-8597-fc289ad66beb","system_id":"levelo_inurba_marseille","lat":43.31326,"lon":5.39693,"is_reserved":false,"is_disabled":false,"rental_uris":{"android":"levelo://app?vid=3488bca4-9c87-4b3e-8597-fc289ad66beb","ios":"levelo://app?vid=3488bca4-9c87-4b3e-8597-fc289ad66beb"},"vehicle_type_id":"4","last_reported":1687986412,"current_range_meters":10800,"station_id":"ce4bgvp2rcd13ifvqcu0","pricing_plan_id":"free"},{"bike_id":"05cdaff0-2dee-4d32-8dee-c8536b3712f2","system_id":"levelo_inurba_marseille","lat":43.31328,"lon":5.39694,"is_reserved":false,"is_disabled":false,"rental_uris":{"android":"levelo://app?vid=05cdaff0-2dee-4d32-8dee-c8536b3712f2","ios":"levelo://app?vid=05cdaff0-2dee-4d32-8dee-c8536b3712f2"},"vehicle_type_id":"4","last_reported":1687986412,"current_range_meters":24000,"station_id":"ce4bgvp2rcd13ifvqcu0","pricing_plan_id":"free"},{"bike_id":"32619e63-ef17-4ad1-adde-eadaf014f053","system_id":"levelo_inurba_marseille","lat":43.31331,"lon":5.39702,"is_reserved":false,"is_disabled":false,"rental_uris":{"android":"levelo://app?vid=32619e63-ef17-4ad1-adde-eadaf014f053","ios":"levelo://app?vid=32619e63-ef17-4ad1-adde-eadaf014f053"},"vehicle_type_id":"4","last_reported":1687986412,"current_range_meters":3200,"station_id":"ce4bgvp2rcd13ifvqcu0","pricing_plan_id":"free"},{"bike_id":"6c308751-20b5-4a7a-96b0-db9927cc6aa5","system_id":"levelo_inurba_marseille","lat":43.29183,"lon":5.35795,"is_reserved":false,"is_disabled":false,"rental_uris":{"android":"levelo://app?vid=6c308751-20b5-4a7a-96b0-db9927cc6aa5","ios":"levelo://app?vid=6c308751-20b5-4a7a-96b0-db9927cc6aa5"},"vehicle_type_id":"4","last_reported":1687986412,"current_range_meters":31200,"station_id":"ce4bhb12rcd13ifvqel0","pricing_plan_id":"free"},{"bike_id":"2b6ae0d0-03ab-4b5a-9775-35bab913e6ff","system_id":"levelo_inurba_marseille","lat":43.29183,"lon":5.35792,"is_reserved":false,"is_disabled":false,"rental_uris":{"android":"levelo://app?vid=2b6ae0d0-03ab-4b5a-9775-35bab913e6ff","ios":"levelo://app?vid=2b6ae0d0-03ab-4b5a-9775-35bab913e6ff"},"vehicle_type_id":"4","last_reported":1687986412,"current_range_meters":31600,"station_id":"ce4bhb12rcd13ifvqel0","pricing_plan_id":"free"},{"bike_id":"bf0ae3d6-0756-4b59-a3f7-421e51976890","system_id":"levelo_inurba_marseille","lat":43.309038,"lon":5.396546,"is_reserved":false,"is_disabled":false,"rental_uris":{"android":"levelo://app?vid=bf0ae3d6-0756-4b59-a3f7-421e51976890","ios":"levelo://app?vid=bf0ae3d6-0756-4b59-a3f7-421e51976890"},"vehicle_type_id":"4","last_reported":1687986412,"current_range_meters":4800,"station_id":"ce4bh012rcd13ifvqcv0","pricing_plan_id":"free"},{"bike_id":"a730323b-4d07-447d-837d-a0aa24ef6512","system_id":"levelo_inurba_marseille","lat":43.29529,"lon":5.385581,"is_reserved":false,"is_disabled":false,"rental_uris":{"android":"levelo://app?vid=a730323b-4d07-447d-837d-a0aa24ef6512","ios":"levelo://app?vid=a730323b-4d07-447d-837d-a0aa24ef6512"},"vehicle_type_id":"4","last_reported":1687986412,"current_range_meters":14400,"station_id":"ce4bgih2rcd13ifvqba0","pricing_plan_id":"free"},{"bike_id":"174d8bfe-63dd-4f23-ae39-50aee564c344","system_id":"levelo_inurba_marseille","lat":43.302008,"lon":5.394694,"is_reserved":false,"is_disabled":false,"rental_uris":{"android":"levelo://app?vid=174d8bfe-63dd-4f23-ae39-50aee564c344","ios":"levelo://app?vid=174d8bfe-63dd-4f23-ae39-50aee564c344"},"vehicle_type_id":"4","last_reported":1687986412,"current_range_meters":7600,"station_id":"ce4bh0p2rcd13ifvqd70","pricing_plan_id":"free"},{"bike_id":"ac8099c2-ca7e-4bea-abdb-2ec7c5b5f05c","system_id":"levelo_inurba_marseille","lat":43.294153,"lon":5.386305,"is_reserved":false,"is_disabled":false,"rental_uris":{"android":"levelo://app?vid=ac8099c2-ca7e-4bea-abdb-2ec7c5b5f05c","ios":"levelo://app?vid=ac8099c2-ca7e-4bea-abdb-2ec7c5b5f05c"},"vehicle_type_id":"4","last_reported":1687986412,"current_range_meters":17200,"station_id":"ce4bh2h2rcd13ifvqdh0","pricing_plan_id":"free"},{"bike_id":"aaf7edb3-ec1d-442b-8553-318e333d49a6","system_id":"levelo_inurba_marseille","lat":43.294162,"lon":5.386292,"is_reserved":false,"is_disabled":false,"rental_uris":{"android":"levelo://app?vid=aaf7edb3-ec1d-442b-8553-318e333d49a6","ios":"levelo://app?vid=aaf7edb3-ec1d-442b-8553-318e333d49a6"},"vehicle_type_id":"4","last_reported":1687986412,"current_range_meters":9200,"station_id":"ce4bh2h2rcd13ifvqdh0","pricing_plan_id":"free"},{"bike_id":"6867df42-30dd-4825-b7fe-404564247748","system_id":"levelo_inurba_marseille","lat":43.294174,"lon":5.386231,"is_reserved":false,"is_disabled":false,"rental_uris":{"android":"levelo://app?vid=6867df42-30dd-4825-b7fe-404564247748","ios":"levelo://app?vid=6867df42-30dd-4825-b7fe-404564247748"},"vehicle_type_id":"4","last_reported":1687986412,"current_range_meters":9600,"station_id":"","pricing_plan_id":"free"},{"bike_id":"399ef6b6-bd49-40a3-a085-0dfa050cfb9f","system_id":"levelo_inurba_marseille","lat":43.29411,"lon":5.38614,"is_reserved":false,"is_disabled":false,"rental_uris":{"android":"levelo://app?vid=399ef6b6-bd49-40a3-a085-0dfa050cfb9f","ios":"levelo://app?vid=399ef6b6-bd49-40a3-a085-0dfa050cfb9f"},"vehicle_type_id":"4","last_reported":1687986412,"current_range_meters":2400,"station_id":"","pricing_plan_id":"free"},{"bike_id":"389a5de1-7dec-43c1-b021-70f0712cf826","system_id":"levelo_inurba_marseille","lat":43.294162,"lon":5.386292,"is_reserved":false,"is_disabled":false,"rental_uris":{"android":"levelo://app?vid=389a5de1-7dec-43c1-b021-70f0712cf826","ios":"levelo://app?vid=389a5de1-7dec-43c1-b021-70f0712cf826"},"vehicle_type_id":"4","last_reported":1687986412,"current_range_meters":12800,"station_id":"ce4bh2h2rcd13ifvqdh0","pricing_plan_id":"free"},{"bike_id":"a69985a5-68fd-497d-a349-f73c91f32517","system_id":"levelo_inurba_marseille","lat":43.29417,"lon":5.38628,"is_reserved":false,"is_disabled":false,"rental_uris":{"android":"levelo://app?vid=a69985a5-68fd-497d-a349-f73c91f32517","ios":"levelo://app?vid=a69985a5-68fd-497d-a349-f73c91f32517"},"vehicle_type_id":"4","last_reported":1687986412,"current_range_meters":400,"station_id":"ce4bh2h2rcd13ifvqdh0","pricing_plan_id":"free"},{"bike_id":"651b9745-820d-4f6f-a4d8-067fb669a83a","system_id":"levelo_inurba_marseille","lat":43.294162,"lon":5.386292,"is_reserved":false,"is_disabled":false,"rental_uris":{"android":"levelo://app?vid=651b9745-820d-4f6f-a4d8-067fb669a83a","ios":"levelo://app?vid=651b9745-820d-4f6f-a4d8-067fb669a83a"},"vehicle_type_id":"4","last_reported":1687986412,"current_range_meters":4800,"station_id":"ce4bh2h2rcd13ifvqdh0","pricing_plan_id":"free"},{"bike_id":"8a9564fc-ec40-4ac1-9e52-f5da2c58d3f8","system_id":"levelo_inurba_marseille","lat":43.294162,"lon":5.386292,"is_reserved":false,"is_disabled":false,"rental_uris":{"android":"levelo://app?vid=8a9564fc-ec40-4ac1-9e52-f5da2c58d3f8","ios":"levelo://app?vid=8a9564fc-ec40-4ac1-9e52-f5da2c58d3f8"},"vehicle_type_id":"4","last_reported":1687986412,"current_range_meters":3200,"station_id":"ce4bh2h2rcd13ifvqdh0","pricing_plan_id":"free"},{"bike_id":"0ef634cb-358f-4436-8514-7e18d315e275","system_id":"levelo_inurba_marseille","lat":43.289468,"lon":5.363719,"is_reserved":false,"is_disabled":false,"rental_uris":{"android":"levelo://app?vid=0ef634cb-358f-4436-8514-7e18d315e275","ios":"levelo://app?vid=0ef634cb-358f-4436-8514-7e18d315e275"},"vehicle_type_id":"4","last_reported":1687986412,"current_range_meters":13600,"station_id":"ce4bhc92rcd13ifvqetg","pricing_plan_id":"free"},{"bike_id":"fcb07381-13ac-4bcd-a381-837ea5c0f6ae","system_id":"levelo_inurba_marseille","lat":43.294,"lon":5.3865,"is_reserved":false,"is_disabled":false,"rental_uris":{"android":"levelo://app?vid=fcb07381-13ac-4bcd-a381-837ea5c0f6ae","ios":"levelo://app?vid=fcb07381-13ac-4bcd-a381-837ea5c0f6ae"},"vehicle_type_id":"4","last_reported":1687986412,"current_range_meters":2400,"station_id":"ce4bh2h2rcd13ifvqdh0","pricing_plan_id":"free"},{"bike_id":"1da22f17-3913-4498-8aad-5dccf42095ed","system_id":"levelo_inurba_marseille","lat":43.29265,"lon":5.38448,"is_reserved":false,"is_disabled":false,"rental_uris":{"android":"levelo://app?vid=1da22f17-3913-4498-8aad-5dccf42095ed","ios":"levelo://app?vid=1da22f17-3913-4498-8aad-5dccf42095ed"},"vehicle_type_id":"4","last_reported":1687986412,"current_range_meters":0,"station_id":"ce4bh692rcd13ifvqea0","pricing_plan_id":"free"},{"bike_id":"dc41910d-322a-450c-ae26-da6783f4c6d8","system_id":"levelo_inurba_marseille","lat":43.33044,"lon":5.38915,"is_reserved":false,"is_disabled":false,"rental_uris":{"android":"levelo://app?vid=dc41910d-322a-450c-ae26-da6783f4c6d8","ios":"levelo://app?vid=dc41910d-322a-450c-ae26-da6783f4c6d8"},"vehicle_type_id":"4","last_reported":1687986412,"current_range_meters":22800,"station_id":"ce4bhr92rcd13ifvqhrg","pricing_plan_id":"free"},{"bike_id":"f791cd7c-b8f7-43c1-93df-17bc665123c7","system_id":"levelo_inurba_marseille","lat":43.33042,"lon":5.3892,"is_reserved":false,"is_disabled":false,"rental_uris":{"android":"levelo://app?vid=f791cd7c-b8f7-43c1-93df-17bc665123c7","ios":"levelo://app?vid=f791cd7c-b8f7-43c1-93df-17bc665123c7"},"vehicle_type_id":"4","last_reported":1687986412,"current_range_meters":24000,"station_id":"ce4bhr92rcd13ifvqhrg","pricing_plan_id":"free"},{"bike_id":"56e56a8f-6758-414d-8770-da800265c565","system_id":"levelo_inurba_marseille","lat":43.3304,"lon":5.38923,"is_reserved":false,"is_disabled":false,"rental_uris":{"android":"levelo://app?vid=56e56a8f-6758-414d-8770-da800265c565","ios":"levelo://app?vid=56e56a8f-6758-414d-8770-da800265c565"},"vehicle_type_id":"4","last_reported":1687986412,"current_range_meters":5200,"station_id":"ce4bhr92rcd13ifvqhrg","pricing_plan_id":"free"},{"bike_id":"1deec734-5210-439e-b390-725ec2f70134","system_id":"levelo_inurba_marseille","lat":43.33041,"lon":5.38922,"is_reserved":false,"is_disabled":false,"rental_uris":{"android":"levelo://app?vid=1deec734-5210-439e-b390-725ec2f70134","ios":"levelo://app?vid=1deec734-5210-439e-b390-725ec2f70134"},"vehicle_type_id":"4","last_reported":1687986412,"current_range_meters":18800,"station_id":"ce4bhr92rcd13ifvqhrg","pricing_plan_id":"free"},{"bike_id":"98a66c15-e112-4037-8800-08627a655de6","system_id":"levelo_inurba_marseille","lat":43.29213,"lon":5.3838,"is_reserved":false,"is_disabled":false,"rental_uris":{"android":"levelo://app?vid=98a66c15-e112-4037-8800-08627a655de6","ios":"levelo://app?vid=98a66c15-e112-4037-8800-08627a655de6"},"vehicle_type_id":"4","last_reported":1687986412,"current_range_meters":23200,"station_id":"","pricing_plan_id":"free"},{"bike_id":"857e5190-aaf2-4ea0-8ae9-629d142b934d","system_id":"levelo_inurba_marseille","lat":43.33045,"lon":5.3892,"is_reserved":false,"is_disabled":false,"rental_uris":{"android":"levelo://app?vid=857e5190-aaf2-4ea0-8ae9-629d142b934d","ios":"levelo://app?vid=857e5190-aaf2-4ea0-8ae9-629d142b934d"},"vehicle_type_id":"4","last_reported":1687986412,"current_range_meters":0,"station_id":"ce4bhr92rcd13ifvqhrg","pricing_plan_id":"free"},{"bike_id":"72836f1e-c3b5-49a6-990f-24793c2bc533","system_id":"levelo_inurba_marseille","lat":43.33046,"lon":5.3892,"is_reserved":false,"is_disabled":false,"rental_uris":{"android":"levelo://app?vid=72836f1e-c3b5-49a6-990f-24793c2bc533","ios":"levelo://app?vid=72836f1e-c3b5-49a6-990f-24793c2bc533"},"vehicle_type_id":"4","last_reported":1687986412,"current_range_meters":12000,"station_id":"ce4bhr92rcd13ifvqhrg","pricing_plan_id":"free"},{"bike_id":"4a2cdf91-026f-4398-bd8c-ee7de08f08c1","system_id":"levelo_inurba_marseille","lat":43.290995,"lon":5.381361,"is_reserved":false,"is_disabled":false,"rental_uris":{"android":"levelo://app?vid=4a2cdf91-026f-4398-bd8c-ee7de08f08c1","ios":"levelo://app?vid=4a2cdf91-026f-4398-bd8c-ee7de08f08c1"},"vehicle_type_id":"4","last_reported":1687986412,"current_range_meters":13600,"station_id":"ce4bh512rcd13ifvqe2g","pricing_plan_id":"free"},{"bike_id":"e3b588e0-cd84-4026-8ac9-f6b5e13bfa2f","system_id":"levelo_inurba_marseille","lat":43.290995,"lon":5.381361,"is_reserved":false,"is_disabled":false,"rental_uris":{"android":"levelo://app?vid=e3b588e0-cd84-4026-8ac9-f6b5e13bfa2f","ios":"levelo://app?vid=e3b588e0-cd84-4026-8ac9-f6b5e13bfa2f"},"vehicle_type_id":"4","last_reported":1687986412,"current_range_meters":20000,"station_id":"ce4bh512rcd13ifvqe2g","pricing_plan_id":"free"},{"bike_id":"1abfe572-1321-4fda-b0bc-86bf8f7064d4","system_id":"levelo_inurba_marseille","lat":43.290995,"lon":5.381361,"is_reserved":false,"is_disabled":false,"rental_uris":{"android":"levelo://app?vid=1abfe572-1321-4fda-b0bc-86bf8f7064d4","ios":"levelo://app?vid=1abfe572-1321-4fda-b0bc-86bf8f7064d4"},"vehicle_type_id":"4","last_reported":1687986412,"current_range_meters":12000,"station_id":"ce4bh512rcd13ifvqe2g","pricing_plan_id":"free"},{"bike_id":"07b70507-7d28-41b4-a405-5b85f43b8717","system_id":"levelo_inurba_marseille","lat":43.297815,"lon":5.393548,"is_reserved":false,"is_disabled":false,"rental_uris":{"android":"levelo://app?vid=07b70507-7d28-41b4-a405-5b85f43b8717","ios":"levelo://app?vid=07b70507-7d28-41b4-a405-5b85f43b8717"},"vehicle_type_id":"4","last_reported":1687986412,"current_range_meters":14800,"station_id":"chh1huq6cuj3fo74tm60","pricing_plan_id":"free"},{"bike_id":"222f69c7-3bd1-429f-b141-b0028acc06e5","system_id":"levelo_inurba_marseille","lat":43.295169,"lon":5.390426,"is_reserved":false,"is_disabled":false,"rental_uris":{"android":"levelo://app?vid=222f69c7-3bd1-429f-b141-b0028acc06e5","ios":"levelo://app?vid=222f69c7-3bd1-429f-b141-b0028acc06e5"},"vehicle_type_id":"4","last_reported":1687986412,"current_range_meters":4800,"station_id":"ce4bh3p2rcd13ifvqdp0","pricing_plan_id":"free"},{"bike_id":"de3cac22-8541-446f-bfec-11a54518ab8b","system_id":"levelo_inurba_marseille","lat":43.295169,"lon":5.390426,"is_reserved":false,"is_disabled":false,"rental_uris":{"android":"levelo://app?vid=de3cac22-8541-446f-bfec-11a54518ab8b","ios":"levelo://app?vid=de3cac22-8541-446f-bfec-11a54518ab8b"},"vehicle_type_id":"4","last_reported":1687986412,"current_range_meters":5600,"station_id":"ce4bh3p2rcd13ifvqdp0","pricing_plan_id":"free"},{"bike_id":"314f5ef1-4b3d-414b-aeec-067ea37d4b85","system_id":"levelo_inurba_marseille","lat":43.289743,"lon":5.378304,"is_reserved":false,"is_disabled":false,"rental_uris":{"android":"levelo://app?vid=314f5ef1-4b3d-414b-aeec-067ea37d4b85","ios":"levelo://app?vid=314f5ef1-4b3d-414b-aeec-067ea37d4b85"},"vehicle_type_id":"4","last_reported":1687986412,"current_range_meters":12000,"station_id":"ce4bh9p2rcd13ifvqed0","pricing_plan_id":"free"},{"bike_id":"478fa282-bf81-4b40-ab45-664229071605","system_id":"levelo_inurba_marseille","lat":43.309371,"lon":5.401449,"is_reserved":false,"is_disabled":false,"rental_uris":{"android":"levelo://app?vid=478fa282-bf81-4b40-ab45-664229071605","ios":"levelo://app?vid=478fa282-bf81-4b40-ab45-664229071605"},"vehicle_type_id":"4","last_reported":1687986412,"current_range_meters":10000,"station_id":"ce4bgvp2rcd13ifvqct0","pricing_plan_id":"free"},{"bike_id":"3eb3507e-137a-4a17-b9bd-8dfe6df4767d","system_id":"levelo_inurba_marseille","lat":43.29035,"lon":5.38135,"is_reserved":false,"is_disabled":false,"rental_uris":{"android":"levelo://app?vid=3eb3507e-137a-4a17-b9bd-8dfe6df4767d","ios":"levelo://app?vid=3eb3507e-137a-4a17-b9bd-8dfe6df4767d"},"vehicle_type_id":"4","last_reported":1687986412,"current_range_meters":27600,"station_id":"ce4bh4p2rcd13ifvqe1g","pricing_plan_id":"free"},{"bike_id":"486eb29b-2120-4c38-9a59-2b3111a361a9","system_id":"levelo_inurba_marseille","lat":43.29023,"lon":5.38131,"is_reserved":false,"is_disabled":false,"rental_uris":{"android":"levelo://app?vid=486eb29b-2120-4c38-9a59-2b3111a361a9","ios":"levelo://app?vid=486eb29b-2120-4c38-9a59-2b3111a361a9"},"vehicle_type_id":"4","last_reported":1687986412,"current_range_meters":28400,"station_id":"ce4bh4p2rcd13ifvqe1g","pricing_plan_id":"free"},{"bike_id":"08c64e80-134a-4f10-a2e7-066845b37057","system_id":"levelo_inurba_marseille","lat":43.2901,"lon":5.381269,"is_reserved":false,"is_disabled":false,"rental_uris":{"android":"levelo://app?vid=08c64e80-134a-4f10-a2e7-066845b37057","ios":"levelo://app?vid=08c64e80-134a-4f10-a2e7-066845b37057"},"vehicle_type_id":"4","last_reported":1687986412,"current_range_meters":14800,"station_id":"ce4bh4p2rcd13ifvqe1g","pricing_plan_id":"free"},{"bike_id":"1f14f89c-2a13-483f-98c3-bca6706c8ae0","system_id":"levelo_inurba_marseille","lat":43.29027,"lon":5.38149,"is_reserved":false,"is_disabled":false,"rental_uris":{"android":"levelo://app?vid=1f14f89c-2a13-483f-98c3-bca6706c8ae0","ios":"levelo://app?vid=1f14f89c-2a13-483f-98c3-bca6706c8ae0"},"vehicle_type_id":"4","last_reported":1687986412,"current_range_meters":29600,"station_id":"ce4bh4p2rcd13ifvqe1g","pricing_plan_id":"free"},{"bike_id":"a7f47369-84d3-4991-bbb2-8e9d875c90da","system_id":"levelo_inurba_marseille","lat":43.2901,"lon":5.381269,"is_reserved":false,"is_disabled":false,"rental_uris":{"android":"levelo://app?vid=a7f47369-84d3-4991-bbb2-8e9d875c90da","ios":"levelo://app?vid=a7f47369-84d3-4991-bbb2-8e9d875c90da"},"vehicle_type_id":"4","last_reported":1687986412,"current_range_meters":23600,"station_id":"ce4bh4p2rcd13ifvqe1g","pricing_plan_id":"free"},{"bike_id":"456bdd59-e1e3-47ca-ab7b-a2fc66ac76b2","system_id":"levelo_inurba_marseille","lat":43.2901,"lon":5.381269,"is_reserved":false,"is_disabled":false,"rental_uris":{"android":"levelo://app?vid=456bdd59-e1e3-47ca-ab7b-a2fc66ac76b2","ios":"levelo://app?vid=456bdd59-e1e3-47ca-ab7b-a2fc66ac76b2"},"vehicle_type_id":"4","last_reported":1687986412,"current_range_meters":23200,"station_id":"ce4bh4p2rcd13ifvqe1g","pricing_plan_id":"free"},{"bike_id":"50addb93-59ca-464f-9bd3-af34b1190966","system_id":"levelo_inurba_marseille","lat":43.33747,"lon":5.37432,"is_reserved":false,"is_disabled":false,"rental_uris":{"android":"levelo://app?vid=50addb93-59ca-464f-9bd3-af34b1190966","ios":"levelo://app?vid=50addb93-59ca-464f-9bd3-af34b1190966"},"vehicle_type_id":"4","last_reported":1687986412,"current_range_meters":31200,"station_id":"","pricing_plan_id":"free"},{"bike_id":"b152602a-aaa7-4eed-93ba-89050d9c58ba","system_id":"levelo_inurba_marseille","lat":43.3067,"lon":5.40078,"is_reserved":false,"is_disabled":false,"rental_uris":{"android":"levelo://app?vid=b152602a-aaa7-4eed-93ba-89050d9c58ba","ios":"levelo://app?vid=b152602a-aaa7-4eed-93ba-89050d9c58ba"},"vehicle_type_id":"4","last_reported":1687986412,"current_range_meters":22000,"station_id":"","pricing_plan_id":"free"},{"bike_id":"476cd57c-2e9c-4f0d-a086-f93a7e3396f6","system_id":"levelo_inurba_marseille","lat":43.337516,"lon":5.374747,"is_reserved":false,"is_disabled":false,"rental_uris":{"android":"levelo://app?vid=476cd57c-2e9c-4f0d-a086-f93a7e3396f6","ios":"levelo://app?vid=476cd57c-2e9c-4f0d-a086-f93a7e3396f6"},"vehicle_type_id":"4","last_reported":1687986412,"current_range_meters":27200,"station_id":"","pricing_plan_id":"free"},{"bike_id":"d6ccaf9b-dd26-4769-a5db-3864ee5ba274","system_id":"levelo_inurba_marseille","lat":43.30642,"lon":5.401031,"is_reserved":false,"is_disabled":false,"rental_uris":{"android":"levelo://app?vid=d6ccaf9b-dd26-4769-a5db-3864ee5ba274","ios":"levelo://app?vid=d6ccaf9b-dd26-4769-a5db-3864ee5ba274"},"vehicle_type_id":"4","last_reported":1687986412,"current_range_meters":0,"station_id":"ce4bh112rcd13ifvqda0","pricing_plan_id":"free"},{"bike_id":"cf53834f-9cf2-4a7b-881a-7191fce09ed8","system_id":"levelo_inurba_marseille","lat":43.30642,"lon":5.401031,"is_reserved":false,"is_disabled":false,"rental_uris":{"android":"levelo://app?vid=cf53834f-9cf2-4a7b-881a-7191fce09ed8","ios":"levelo://app?vid=cf53834f-9cf2-4a7b-881a-7191fce09ed8"},"vehicle_type_id":"4","last_reported":1687986412,"current_range_meters":25600,"station_id":"ce4bh112rcd13ifvqda0","pricing_plan_id":"free"},{"bike_id":"bf9e0207-3acf-4ac6-b663-10ac898a08ca","system_id":"levelo_inurba_marseille","lat":43.301117,"lon":5.398795,"is_reserved":false,"is_disabled":false,"rental_uris":{"android":"levelo://app?vid=bf9e0207-3acf-4ac6-b663-10ac898a08ca","ios":"levelo://app?vid=bf9e0207-3acf-4ac6-b663-10ac898a08ca"},"vehicle_type_id":"4","last_reported":1687986412,"current_range_meters":13600,"station_id":"ce4bh0h2rcd13ifvqd40","pricing_plan_id":"free"},{"bike_id":"c45d345a-721e-4d49-a27b-3bf3fe27eb91","system_id":"levelo_inurba_marseille","lat":43.298681,"lon":5.397225,"is_reserved":false,"is_disabled":false,"rental_uris":{"android":"levelo://app?vid=c45d345a-721e-4d49-a27b-3bf3fe27eb91","ios":"levelo://app?vid=c45d345a-721e-4d49-a27b-3bf3fe27eb91"},"vehicle_type_id":"4","last_reported":1687986412,"current_range_meters":14400,"station_id":"ce4bh0h2rcd13ifvqd50","pricing_plan_id":"free"},{"bike_id":"e222fccb-0c3b-47f4-9f26-7e7a973e7b30","system_id":"levelo_inurba_marseille","lat":43.286591,"lon":5.363346,"is_reserved":false,"is_disabled":false,"rental_uris":{"android":"levelo://app?vid=e222fccb-0c3b-47f4-9f26-7e7a973e7b30","ios":"levelo://app?vid=e222fccb-0c3b-47f4-9f26-7e7a973e7b30"},"vehicle_type_id":"4","last_reported":1687986412,"current_range_meters":28800,"station_id":"ce4bhah2rcd13ifvqej0","pricing_plan_id":"free"},{"bike_id":"c917a831-670f-4945-aec1-a18d1452d0f2","system_id":"levelo_inurba_marseille","lat":43.28702,"lon":5.37389,"is_reserved":false,"is_disabled":false,"rental_uris":{"android":"levelo://app?vid=c917a831-670f-4945-aec1-a18d1452d0f2","ios":"levelo://app?vid=c917a831-670f-4945-aec1-a18d1452d0f2"},"vehicle_type_id":"4","last_reported":1687986412,"current_range_meters":14800,"station_id":"ce4bh3p2rcd13ifvqdq0","pricing_plan_id":"free"},{"bike_id":"011768d9-1a1d-4bcb-9051-b7c75ffb0ff7","system_id":"levelo_inurba_marseille","lat":43.298681,"lon":5.397225,"is_reserved":false,"is_disabled":false,"rental_uris":{"android":"levelo://app?vid=011768d9-1a1d-4bcb-9051-b7c75ffb0ff7","ios":"levelo://app?vid=011768d9-1a1d-4bcb-9051-b7c75ffb0ff7"},"vehicle_type_id":"4","last_reported":1687986412,"current_range_meters":19600,"station_id":"ce4bh0h2rcd13ifvqd50","pricing_plan_id":"free"},{"bike_id":"0b5faef8-7e0d-4d29-b832-84e59779576c","system_id":"levelo_inurba_marseille","lat":43.295196,"lon":5.39397,"is_reserved":false,"is_disabled":false,"rental_uris":{"android":"levelo://app?vid=0b5faef8-7e0d-4d29-b832-84e59779576c","ios":"levelo://app?vid=0b5faef8-7e0d-4d29-b832-84e59779576c"},"vehicle_type_id":"4","last_reported":1687986412,"current_range_meters":0,"station_id":"ce4bh292rcd13ifvqdf0","pricing_plan_id":"free"},{"bike_id":"c7645bc7-0b25-4d7e-b85b-2dabfc209e96","system_id":"levelo_inurba_marseille","lat":43.295194,"lon":5.39397,"is_reserved":false,"is_disabled":false,"rental_uris":{"android":"levelo://app?vid=c7645bc7-0b25-4d7e-b85b-2dabfc209e96","ios":"levelo://app?vid=c7645bc7-0b25-4d7e-b85b-2dabfc209e96"},"vehicle_type_id":"4","last_reported":1687986412,"current_range_meters":20400,"station_id":"ce4bh292rcd13ifvqdf0","pricing_plan_id":"free"},{"bike_id":"5c84551a-2ad2-4472-a34b-3e6712bc273c","system_id":"levelo_inurba_marseille","lat":43.290345,"lon":5.38646,"is_reserved":false,"is_disabled":false,"rental_uris":{"android":"levelo://app?vid=5c84551a-2ad2-4472-a34b-3e6712bc273c","ios":"levelo://app?vid=5c84551a-2ad2-4472-a34b-3e6712bc273c"},"vehicle_type_id":"4","last_reported":1687986412,"current_range_meters":20000,"station_id":"ce4bh4p2rcd13ifvqe0g","pricing_plan_id":"free"},{"bike_id":"df764034-05f6-49f0-b813-0dc7c010031e","system_id":"levelo_inurba_marseille","lat":43.290345,"lon":5.38646,"is_reserved":false,"is_disabled":false,"rental_uris":{"android":"levelo://app?vid=df764034-05f6-49f0-b813-0dc7c010031e","ios":"levelo://app?vid=df764034-05f6-49f0-b813-0dc7c010031e"},"vehicle_type_id":"4","last_reported":1687986412,"current_range_meters":0,"station_id":"ce4bh4p2rcd13ifvqe0g","pricing_plan_id":"free"},{"bike_id":"3b6ea0c4-57fb-4f9e-b8ca-658c426a7b99","system_id":"levelo_inurba_marseille","lat":43.29027,"lon":5.38653,"is_reserved":false,"is_disabled":false,"rental_uris":{"android":"levelo://app?vid=3b6ea0c4-57fb-4f9e-b8ca-658c426a7b99","ios":"levelo://app?vid=3b6ea0c4-57fb-4f9e-b8ca-658c426a7b99"},"vehicle_type_id":"4","last_reported":1687986412,"current_range_meters":11600,"station_id":"ce4bh4p2rcd13ifvqe0g","pricing_plan_id":"free"},{"bike_id":"7ead98cf-0b1b-461e-960d-23bdc79dd39f","system_id":"levelo_inurba_marseille","lat":43.287184,"lon":5.37937,"is_reserved":false,"is_disabled":false,"rental_uris":{"android":"levelo://app?vid=7ead98cf-0b1b-461e-960d-23bdc79dd39f","ios":"levelo://app?vid=7ead98cf-0b1b-461e-960d-23bdc79dd39f"},"vehicle_type_id":"4","last_reported":1687986412,"current_range_meters":23200,"station_id":"ce4bh9p2rcd13ifvqec0","pricing_plan_id":"free"},{"bike_id":"a40b689f-9a57-4af5-a3a0-64cee623b93e","system_id":"levelo_inurba_marseille","lat":43.287184,"lon":5.37937,"is_reserved":false,"is_disabled":false,"rental_uris":{"android":"levelo://app?vid=a40b689f-9a57-4af5-a3a0-64cee623b93e","ios":"levelo://app?vid=a40b689f-9a57-4af5-a3a0-64cee623b93e"},"vehicle_type_id":"4","last_reported":1687986412,"current_range_meters":31200,"station_id":"ce4bh9p2rcd13ifvqec0","pricing_plan_id":"free"},{"bike_id":"11079199-aa2a-4fa2-a190-c73754f9f28d","system_id":"levelo_inurba_marseille","lat":43.316517,"lon":5.404375,"is_reserved":false,"is_disabled":false,"rental_uris":{"android":"levelo://app?vid=11079199-aa2a-4fa2-a190-c73754f9f28d","ios":"levelo://app?vid=11079199-aa2a-4fa2-a190-c73754f9f28d"},"vehicle_type_id":"4","last_reported":1687986412,"current_range_meters":0,"station_id":"ce4bh012rcd13ifvqd00","pricing_plan_id":"free"},{"bike_id":"d69fed3a-efe9-46fb-b1dc-1240b8978d3e","system_id":"levelo_inurba_marseille","lat":43.316517,"lon":5.404375,"is_reserved":false,"is_disabled":false,"rental_uris":{"android":"levelo://app?vid=d69fed3a-efe9-46fb-b1dc-1240b8978d3e","ios":"levelo://app?vid=d69fed3a-efe9-46fb-b1dc-1240b8978d3e"},"vehicle_type_id":"4","last_reported":1687986412,"current_range_meters":24400,"station_id":"ce4bh012rcd13ifvqd00","pricing_plan_id":"free"},{"bike_id":"f1e3911c-d444-443e-bd17-a5210ccc444f","system_id":"levelo_inurba_marseille","lat":43.316517,"lon":5.404375,"is_reserved":false,"is_disabled":false,"rental_uris":{"android":"levelo://app?vid=f1e3911c-d444-443e-bd17-a5210ccc444f","ios":"levelo://app?vid=f1e3911c-d444-443e-bd17-a5210ccc444f"},"vehicle_type_id":"4","last_reported":1687986412,"current_range_meters":19200,"station_id":"ce4bh012rcd13ifvqd00","pricing_plan_id":"free"},{"bike_id":"a1061082-72cd-4df6-ab2e-ad89367acf22","system_id":"levelo_inurba_marseille","lat":43.291994,"lon":5.392907,"is_reserved":false,"is_disabled":false,"rental_uris":{"android":"levelo://app?vid=a1061082-72cd-4df6-ab2e-ad89367acf22","ios":"levelo://app?vid=a1061082-72cd-4df6-ab2e-ad89367acf22"},"vehicle_type_id":"4","last_reported":1687986412,"current_range_meters":20000,"station_id":"ce4bh192rcd13ifvqdd0","pricing_plan_id":"free"},{"bike_id":"57f6521a-e698-4854-a1e2-f3b35368000a","system_id":"levelo_inurba_marseille","lat":43.291994,"lon":5.392907,"is_reserved":false,"is_disabled":false,"rental_uris":{"android":"levelo://app?vid=57f6521a-e698-4854-a1e2-f3b35368000a","ios":"levelo://app?vid=57f6521a-e698-4854-a1e2-f3b35368000a"},"vehicle_type_id":"4","last_reported":1687986412,"current_range_meters":17200,"station_id":"ce4bh192rcd13ifvqdd0","pricing_plan_id":"free"},{"bike_id":"35a2c88a-7698-4197-ab66-d14ea2b978c5","system_id":"levelo_inurba_marseille","lat":43.294314,"lon":5.397498,"is_reserved":false,"is_disabled":false,"rental_uris":{"android":"levelo://app?vid=35a2c88a-7698-4197-ab66-d14ea2b978c5","ios":"levelo://app?vid=35a2c88a-7698-4197-ab66-d14ea2b978c5"},"vehicle_type_id":"4","last_reported":1687986412,"current_range_meters":21200,"station_id":"ce4bh3h2rcd13ifvqdo0","pricing_plan_id":"free"},{"bike_id":"1bf00298-bbb9-42fe-bd90-2016960f6429","system_id":"levelo_inurba_marseille","lat":43.284534,"lon":5.358662,"is_reserved":false,"is_disabled":false,"rental_uris":{"android":"levelo://app?vid=1bf00298-bbb9-42fe-bd90-2016960f6429","ios":"levelo://app?vid=1bf00298-bbb9-42fe-bd90-2016960f6429"},"vehicle_type_id":"4","last_reported":1687986412,"current_range_meters":29600,"station_id":"ce4bhah2rcd13ifvqei0","pricing_plan_id":"free"},{"bike_id":"9bb32af3-9144-4822-872d-0dc6a435a80d","system_id":"levelo_inurba_marseille","lat":43.29437,"lon":5.39756,"is_reserved":false,"is_disabled":false,"rental_uris":{"android":"levelo://app?vid=9bb32af3-9144-4822-872d-0dc6a435a80d","ios":"levelo://app?vid=9bb32af3-9144-4822-872d-0dc6a435a80d"},"vehicle_type_id":"4","last_reported":1687986412,"current_range_meters":11600,"station_id":"ce4bh3h2rcd13ifvqdo0","pricing_plan_id":"free"},{"bike_id":"f50ae5bf-278f-48ef-b838-f4623a38d353","system_id":"levelo_inurba_marseille","lat":43.286212,"lon":5.351099,"is_reserved":false,"is_disabled":false,"rental_uris":{"android":"levelo://app?vid=f50ae5bf-278f-48ef-b838-f4623a38d353","ios":"levelo://app?vid=f50ae5bf-278f-48ef-b838-f4623a38d353"},"vehicle_type_id":"4","last_reported":1687986412,"current_range_meters":15200,"station_id":"","pricing_plan_id":"free"},{"bike_id":"a9dbbbf5-cd27-45c6-a4bc-40cc1a49cd95","system_id":"levelo_inurba_marseille","lat":43.295713,"lon":5.399639,"is_reserved":false,"is_disabled":false,"rental_uris":{"android":"levelo://app?vid=a9dbbbf5-cd27-45c6-a4bc-40cc1a49cd95","ios":"levelo://app?vid=a9dbbbf5-cd27-45c6-a4bc-40cc1a49cd95"},"vehicle_type_id":"4","last_reported":1687986412,"current_range_meters":17600,"station_id":"ce4bh312rcd13ifvqdj0","pricing_plan_id":"free"},{"bike_id":"c04010b0-06c5-4649-b6f8-1639ecc4ae34","system_id":"levelo_inurba_marseille","lat":43.295713,"lon":5.399639,"is_reserved":false,"is_disabled":false,"rental_uris":{"android":"levelo://app?vid=c04010b0-06c5-4649-b6f8-1639ecc4ae34","ios":"levelo://app?vid=c04010b0-06c5-4649-b6f8-1639ecc4ae34"},"vehicle_type_id":"4","last_reported":1687986412,"current_range_meters":4800,"station_id":"ce4bh312rcd13ifvqdj0","pricing_plan_id":"free"},{"bike_id":"0db9baf4-2405-4011-8c33-fb66858da91a","system_id":"levelo_inurba_marseille","lat":43.295713,"lon":5.399639,"is_reserved":false,"is_disabled":false,"rental_uris":{"android":"levelo://app?vid=0db9baf4-2405-4011-8c33-fb66858da91a","ios":"levelo://app?vid=0db9baf4-2405-4011-8c33-fb66858da91a"},"vehicle_type_id":"4","last_reported":1687986412,"current_range_meters":3200,"station_id":"ce4bh312rcd13ifvqdj0","pricing_plan_id":"free"},{"bike_id":"a223e2a7-fcbb-4889-87b5-f31faa9537f9","system_id":"levelo_inurba_marseille","lat":43.295713,"lon":5.399639,"is_reserved":false,"is_disabled":false,"rental_uris":{"android":"levelo://app?vid=a223e2a7-fcbb-4889-87b5-f31faa9537f9","ios":"levelo://app?vid=a223e2a7-fcbb-4889-87b5-f31faa9537f9"},"vehicle_type_id":"4","last_reported":1687986412,"current_range_meters":21600,"station_id":"ce4bh312rcd13ifvqdj0","pricing_plan_id":"free"},{"bike_id":"ac1f2f58-6977-4e42-92b7-838df1711fba","system_id":"levelo_inurba_marseille","lat":43.286752,"lon":5.386615,"is_reserved":false,"is_disabled":false,"rental_uris":{"android":"levelo://app?vid=ac1f2f58-6977-4e42-92b7-838df1711fba","ios":"levelo://app?vid=ac1f2f58-6977-4e42-92b7-838df1711fba"},"vehicle_type_id":"4","last_reported":1687986412,"current_range_meters":31200,"station_id":"ce4bh492rcd13ifvqdug","pricing_plan_id":"free"},{"bike_id":"b4c950db-352f-4a1a-8e3c-c05101a6dad0","system_id":"levelo_inurba_marseille","lat":43.28808,"lon":5.39136,"is_reserved":false,"is_disabled":false,"rental_uris":{"android":"levelo://app?vid=b4c950db-352f-4a1a-8e3c-c05101a6dad0","ios":"levelo://app?vid=b4c950db-352f-4a1a-8e3c-c05101a6dad0"},"vehicle_type_id":"4","last_reported":1687986412,"current_range_meters":31200,"station_id":"","pricing_plan_id":"free"},{"bike_id":"99d4aa44-1f4d-40e2-b49b-3758c1f84c63","system_id":"levelo_inurba_marseille","lat":43.32346,"lon":5.40618,"is_reserved":false,"is_disabled":false,"rental_uris":{"android":"levelo://app?vid=99d4aa44-1f4d-40e2-b49b-3758c1f84c63","ios":"levelo://app?vid=99d4aa44-1f4d-40e2-b49b-3758c1f84c63"},"vehicle_type_id":"4","last_reported":1687986412,"current_range_meters":11600,"station_id":"ce4bhq92rcd13ifvqhjg","pricing_plan_id":"free"},{"bike_id":"5664168e-cb34-4f87-a461-59b0337d1487","system_id":"levelo_inurba_marseille","lat":43.284787,"lon":5.384116,"is_reserved":false,"is_disabled":false,"rental_uris":{"android":"levelo://app?vid=5664168e-cb34-4f87-a461-59b0337d1487","ios":"levelo://app?vid=5664168e-cb34-4f87-a461-59b0337d1487"},"vehicle_type_id":"4","last_reported":1687986412,"current_range_meters":0,"station_id":"ce4bh512rcd13ifvqe3g","pricing_plan_id":"free"},{"bike_id":"1e98a582-42cb-4b47-a7f9-ad575a02ee0b","system_id":"levelo_inurba_marseille","lat":43.288501,"lon":5.393087,"is_reserved":false,"is_disabled":false,"rental_uris":{"android":"levelo://app?vid=1e98a582-42cb-4b47-a7f9-ad575a02ee0b","ios":"levelo://app?vid=1e98a582-42cb-4b47-a7f9-ad575a02ee0b"},"vehicle_type_id":"4","last_reported":1687986412,"current_range_meters":6000,"station_id":"ce4bh2p2rcd13ifvqdi0","pricing_plan_id":"free"},{"bike_id":"0f47c565-32eb-443d-97dd-0a0c4bf3d9ae","system_id":"levelo_inurba_marseille","lat":43.288501,"lon":5.393087,"is_reserved":false,"is_disabled":false,"rental_uris":{"android":"levelo://app?vid=0f47c565-32eb-443d-97dd-0a0c4bf3d9ae","ios":"levelo://app?vid=0f47c565-32eb-443d-97dd-0a0c4bf3d9ae"},"vehicle_type_id":"4","last_reported":1687986412,"current_range_meters":31200,"station_id":"ce4bh2p2rcd13ifvqdi0","pricing_plan_id":"free"},{"bike_id":"60f30575-f9c1-465d-bc70-e5407a435c7a","system_id":"levelo_inurba_marseille","lat":43.288501,"lon":5.393087,"is_reserved":false,"is_disabled":false,"rental_uris":{"android":"levelo://app?vid=60f30575-f9c1-465d-bc70-e5407a435c7a","ios":"levelo://app?vid=60f30575-f9c1-465d-bc70-e5407a435c7a"},"vehicle_type_id":"4","last_reported":1687986412,"current_range_meters":31200,"station_id":"ce4bh2p2rcd13ifvqdi0","pricing_plan_id":"free"},{"bike_id":"f99a20d4-1f5f-43f1-86ba-c4014cb85d0a","system_id":"levelo_inurba_marseille","lat":43.288501,"lon":5.393087,"is_reserved":false,"is_disabled":false,"rental_uris":{"android":"levelo://app?vid=f99a20d4-1f5f-43f1-86ba-c4014cb85d0a","ios":"levelo://app?vid=f99a20d4-1f5f-43f1-86ba-c4014cb85d0a"},"vehicle_type_id":"4","last_reported":1687986412,"current_range_meters":31200,"station_id":"ce4bh2p2rcd13ifvqdi0","pricing_plan_id":"free"},{"bike_id":"476d9dd9-9bd1-4d65-8c75-78bb7248ff71","system_id":"levelo_inurba_marseille","lat":43.288501,"lon":5.393087,"is_reserved":false,"is_disabled":false,"rental_uris":{"android":"levelo://app?vid=476d9dd9-9bd1-4d65-8c75-78bb7248ff71","ios":"levelo://app?vid=476d9dd9-9bd1-4d65-8c75-78bb7248ff71"},"vehicle_type_id":"4","last_reported":1687986412,"current_range_meters":14800,"station_id":"ce4bh2p2rcd13ifvqdi0","pricing_plan_id":"free"},{"bike_id":"e8f4da5c-89c5-4811-9b8a-4dd6e64f1bfc","system_id":"levelo_inurba_marseille","lat":43.283494,"lon":5.380945,"is_reserved":false,"is_disabled":false,"rental_uris":{"android":"levelo://app?vid=e8f4da5c-89c5-4811-9b8a-4dd6e64f1bfc","ios":"levelo://app?vid=e8f4da5c-89c5-4811-9b8a-4dd6e64f1bfc"},"vehicle_type_id":"4","last_reported":1687986412,"current_range_meters":27200,"station_id":"ce4bh412rcd13ifvqdr0","pricing_plan_id":"free"},{"bike_id":"1af885da-546c-4cb9-a361-2dea704bf0f8","system_id":"levelo_inurba_marseille","lat":43.283498,"lon":5.380948,"is_reserved":false,"is_disabled":false,"rental_uris":{"android":"levelo://app?vid=1af885da-546c-4cb9-a361-2dea704bf0f8","ios":"levelo://app?vid=1af885da-546c-4cb9-a361-2dea704bf0f8"},"vehicle_type_id":"4","last_reported":1687986412,"current_range_meters":4000,"station_id":"ce4bh412rcd13ifvqdr0","pricing_plan_id":"free"},{"bike_id":"91eb9f7c-576f-4a05-b383-f82d41fb4f32","system_id":"levelo_inurba_marseille","lat":43.283494,"lon":5.380945,"is_reserved":false,"is_disabled":false,"rental_uris":{"android":"levelo://app?vid=91eb9f7c-576f-4a05-b383-f82d41fb4f32","ios":"levelo://app?vid=91eb9f7c-576f-4a05-b383-f82d41fb4f32"},"vehicle_type_id":"4","last_reported":1687986412,"current_range_meters":16000,"station_id":"ce4bh412rcd13ifvqdr0","pricing_plan_id":"free"},{"bike_id":"a61fd4a6-304e-48d0-be1e-d0b0ce44d616","system_id":"levelo_inurba_marseille","lat":43.288501,"lon":5.393087,"is_reserved":false,"is_disabled":false,"rental_uris":{"android":"levelo://app?vid=a61fd4a6-304e-48d0-be1e-d0b0ce44d616","ios":"levelo://app?vid=a61fd4a6-304e-48d0-be1e-d0b0ce44d616"},"vehicle_type_id":"4","last_reported":1687986412,"current_range_meters":24000,"station_id":"ce4bh2p2rcd13ifvqdi0","pricing_plan_id":"free"},{"bike_id":"a171c72f-518a-4474-aab3-5e18952cd52e","system_id":"levelo_inurba_marseille","lat":43.283498,"lon":5.380948,"is_reserved":false,"is_disabled":false,"rental_uris":{"android":"levelo://app?vid=a171c72f-518a-4474-aab3-5e18952cd52e","ios":"levelo://app?vid=a171c72f-518a-4474-aab3-5e18952cd52e"},"vehicle_type_id":"4","last_reported":1687986412,"current_range_meters":13200,"station_id":"ce4bh412rcd13ifvqdr0","pricing_plan_id":"free"},{"bike_id":"1306e9be-868c-4336-a8ba-f9126d05ec73","system_id":"levelo_inurba_marseille","lat":43.289363,"lon":5.396322,"is_reserved":false,"is_disabled":false,"rental_uris":{"android":"levelo://app?vid=1306e9be-868c-4336-a8ba-f9126d05ec73","ios":"levelo://app?vid=1306e9be-868c-4336-a8ba-f9126d05ec73"},"vehicle_type_id":"4","last_reported":1687986412,"current_range_meters":3600,"station_id":"ce4bh3h2rcd13ifvqdn0","pricing_plan_id":"free"},{"bike_id":"d2b736df-646f-4bbd-8e01-25e5c94febea","system_id":"levelo_inurba_marseille","lat":43.28394,"lon":5.38514,"is_reserved":false,"is_disabled":false,"rental_uris":{"android":"levelo://app?vid=d2b736df-646f-4bbd-8e01-25e5c94febea","ios":"levelo://app?vid=d2b736df-646f-4bbd-8e01-25e5c94febea"},"vehicle_type_id":"4","last_reported":1687986412,"current_range_meters":0,"station_id":"","pricing_plan_id":"free"},{"bike_id":"020d46a2-726c-4f67-8f21-fae350b83883","system_id":"levelo_inurba_marseille","lat":43.292724,"lon":5.401131,"is_reserved":false,"is_disabled":false,"rental_uris":{"android":"levelo://app?vid=020d46a2-726c-4f67-8f21-fae350b83883","ios":"levelo://app?vid=020d46a2-726c-4f67-8f21-fae350b83883"},"vehicle_type_id":"4","last_reported":1687986412,"current_range_meters":21200,"station_id":"ce4bh312rcd13ifvqdk0","pricing_plan_id":"free"},{"bike_id":"6ddcf230-b08c-4553-b5dd-9fb2765dfe4d","system_id":"levelo_inurba_marseille","lat":43.292724,"lon":5.401131,"is_reserved":false,"is_disabled":false,"rental_uris":{"android":"levelo://app?vid=6ddcf230-b08c-4553-b5dd-9fb2765dfe4d","ios":"levelo://app?vid=6ddcf230-b08c-4553-b5dd-9fb2765dfe4d"},"vehicle_type_id":"4","last_reported":1687986412,"current_range_meters":29200,"station_id":"ce4bh312rcd13ifvqdk0","pricing_plan_id":"free"},{"bike_id":"001fff55-0cfe-42bd-971e-29dc4e340b0b","system_id":"levelo_inurba_marseille","lat":43.306125,"lon":5.409943,"is_reserved":false,"is_disabled":false,"rental_uris":{"android":"levelo://app?vid=001fff55-0cfe-42bd-971e-29dc4e340b0b","ios":"levelo://app?vid=001fff55-0cfe-42bd-971e-29dc4e340b0b"},"vehicle_type_id":"4","last_reported":1687986412,"current_range_meters":0,"station_id":"","pricing_plan_id":"free"},{"bike_id":"ba1e462a-0e23-485f-a371-201b5d396fbb","system_id":"levelo_inurba_marseille","lat":43.28268,"lon":5.35073,"is_reserved":false,"is_disabled":false,"rental_uris":{"android":"levelo://app?vid=ba1e462a-0e23-485f-a371-201b5d396fbb","ios":"levelo://app?vid=ba1e462a-0e23-485f-a371-201b5d396fbb"},"vehicle_type_id":"4","last_reported":1687986412,"current_range_meters":400,"station_id":"ce4bhbp2rcd13ifvqerg","pricing_plan_id":"free"},{"bike_id":"aae6f822-ea2c-4519-bac2-9038a38efd7e","system_id":"levelo_inurba_marseille","lat":43.28265,"lon":5.35072,"is_reserved":false,"is_disabled":false,"rental_uris":{"android":"levelo://app?vid=aae6f822-ea2c-4519-bac2-9038a38efd7e","ios":"levelo://app?vid=aae6f822-ea2c-4519-bac2-9038a38efd7e"},"vehicle_type_id":"4","last_reported":1687986412,"current_range_meters":0,"station_id":"ce4bhbp2rcd13ifvqerg","pricing_plan_id":"free"},{"bike_id":"69aef9dc-9079-4d72-aa90-647c61a1edeb","system_id":"levelo_inurba_marseille","lat":43.282744,"lon":5.350533,"is_reserved":false,"is_disabled":false,"rental_uris":{"android":"levelo://app?vid=69aef9dc-9079-4d72-aa90-647c61a1edeb","ios":"levelo://app?vid=69aef9dc-9079-4d72-aa90-647c61a1edeb"},"vehicle_type_id":"4","last_reported":1687986412,"current_range_meters":0,"station_id":"ce4bhbp2rcd13ifvqerg","pricing_plan_id":"free"},{"bike_id":"1f0e115f-d6ef-4abc-8f93-a12a383d68ca","system_id":"levelo_inurba_marseille","lat":43.283502,"lon":5.386471,"is_reserved":false,"is_disabled":false,"rental_uris":{"android":"levelo://app?vid=1f0e115f-d6ef-4abc-8f93-a12a383d68ca","ios":"levelo://app?vid=1f0e115f-d6ef-4abc-8f93-a12a383d68ca"},"vehicle_type_id":"4","last_reported":1687986412,"current_range_meters":4000,"station_id":"ce4bh492rcd13ifvqdvg","pricing_plan_id":"free"},{"bike_id":"4639f45b-d251-449d-8787-135c74358038","system_id":"levelo_inurba_marseille","lat":43.283502,"lon":5.386471,"is_reserved":false,"is_disabled":false,"rental_uris":{"android":"levelo://app?vid=4639f45b-d251-449d-8787-135c74358038","ios":"levelo://app?vid=4639f45b-d251-449d-8787-135c74358038"},"vehicle_type_id":"4","last_reported":1687986412,"current_range_meters":0,"station_id":"ce4bh492rcd13ifvqdvg","pricing_plan_id":"free"},{"bike_id":"857d9614-9cd0-40d7-863c-9437f5f3b6ba","system_id":"levelo_inurba_marseille","lat":43.280382,"lon":5.369291,"is_reserved":false,"is_disabled":false,"rental_uris":{"android":"levelo://app?vid=857d9614-9cd0-40d7-863c-9437f5f3b6ba","ios":"levelo://app?vid=857d9614-9cd0-40d7-863c-9437f5f3b6ba"},"vehicle_type_id":"4","last_reported":1687986412,"current_range_meters":0,"station_id":"ce4bha12rcd13ifvqef0","pricing_plan_id":"free"},{"bike_id":"59c7b21d-640f-4532-a87c-ed0d32b6d205","system_id":"levelo_inurba_marseille","lat":43.280382,"lon":5.369291,"is_reserved":false,"is_disabled":false,"rental_uris":{"android":"levelo://app?vid=59c7b21d-640f-4532-a87c-ed0d32b6d205","ios":"levelo://app?vid=59c7b21d-640f-4532-a87c-ed0d32b6d205"},"vehicle_type_id":"4","last_reported":1687986412,"current_range_meters":26400,"station_id":"ce4bha12rcd13ifvqef0","pricing_plan_id":"free"},{"bike_id":"b9f97323-74d4-4932-a161-e4bc681f2d24","system_id":"levelo_inurba_marseille","lat":43.29045,"lon":5.39932,"is_reserved":false,"is_disabled":false,"rental_uris":{"android":"levelo://app?vid=b9f97323-74d4-4932-a161-e4bc681f2d24","ios":"levelo://app?vid=b9f97323-74d4-4932-a161-e4bc681f2d24"},"vehicle_type_id":"4","last_reported":1687986412,"current_range_meters":31200,"station_id":"ce4bh392rcd13ifvqdm0","pricing_plan_id":"free"},{"bike_id":"3b03b23b-e177-4712-9239-5caad8aabfda","system_id":"levelo_inurba_marseille","lat":43.280382,"lon":5.369291,"is_reserved":false,"is_disabled":false,"rental_uris":{"android":"levelo://app?vid=3b03b23b-e177-4712-9239-5caad8aabfda","ios":"levelo://app?vid=3b03b23b-e177-4712-9239-5caad8aabfda"},"vehicle_type_id":"4","last_reported":1687986412,"current_range_meters":5200,"station_id":"ce4bha12rcd13ifvqef0","pricing_plan_id":"free"},{"bike_id":"b8b9556e-d3a0-4baa-a33c-189963161131","system_id":"levelo_inurba_marseille","lat":43.280382,"lon":5.369291,"is_reserved":false,"is_disabled":false,"rental_uris":{"android":"levelo://app?vid=b8b9556e-d3a0-4baa-a33c-189963161131","ios":"levelo://app?vid=b8b9556e-d3a0-4baa-a33c-189963161131"},"vehicle_type_id":"4","last_reported":1687986412,"current_range_meters":31600,"station_id":"ce4bha12rcd13ifvqef0","pricing_plan_id":"free"},{"bike_id":"dacc69b8-4b92-44d6-ab5a-e67c92a29b54","system_id":"levelo_inurba_marseille","lat":43.29042,"lon":5.39967,"is_reserved":false,"is_disabled":false,"rental_uris":{"android":"levelo://app?vid=dacc69b8-4b92-44d6-ab5a-e67c92a29b54","ios":"levelo://app?vid=dacc69b8-4b92-44d6-ab5a-e67c92a29b54"},"vehicle_type_id":"4","last_reported":1687986412,"current_range_meters":20800,"station_id":"ce4bh392rcd13ifvqdm0","pricing_plan_id":"free"},{"bike_id":"c6b6c656-493f-4741-88a3-93d04beb41ef","system_id":"levelo_inurba_marseille","lat":43.29055,"lon":5.39991,"is_reserved":false,"is_disabled":false,"rental_uris":{"android":"levelo://app?vid=c6b6c656-493f-4741-88a3-93d04beb41ef","ios":"levelo://app?vid=c6b6c656-493f-4741-88a3-93d04beb41ef"},"vehicle_type_id":"4","last_reported":1687986412,"current_range_meters":31200,"station_id":"ce4bh392rcd13ifvqdm0","pricing_plan_id":"free"},{"bike_id":"8da6969a-c308-46de-a1b8-d75f362300a6","system_id":"levelo_inurba_marseille","lat":43.2904,"lon":5.39983,"is_reserved":false,"is_disabled":false,"rental_uris":{"android":"levelo://app?vid=8da6969a-c308-46de-a1b8-d75f362300a6","ios":"levelo://app?vid=8da6969a-c308-46de-a1b8-d75f362300a6"},"vehicle_type_id":"4","last_reported":1687986412,"current_range_meters":31200,"station_id":"ce4bh392rcd13ifvqdm0","pricing_plan_id":"free"},{"bike_id":"badfae77-18e9-4cbe-b87a-735dc42cfe3e","system_id":"levelo_inurba_marseille","lat":43.28104,"lon":5.37835,"is_reserved":false,"is_disabled":false,"rental_uris":{"android":"levelo://app?vid=badfae77-18e9-4cbe-b87a-735dc42cfe3e","ios":"levelo://app?vid=badfae77-18e9-4cbe-b87a-735dc42cfe3e"},"vehicle_type_id":"4","last_reported":1687986412,"current_range_meters":13600,"station_id":"ce4bha12rcd13ifvqee0","pricing_plan_id":"free"},{"bike_id":"72efc7d1-6af6-41d9-93c6-cc38747ab86e","system_id":"levelo_inurba_marseille","lat":43.28105,"lon":5.37845,"is_reserved":false,"is_disabled":false,"rental_uris":{"android":"levelo://app?vid=72efc7d1-6af6-41d9-93c6-cc38747ab86e","ios":"levelo://app?vid=72efc7d1-6af6-41d9-93c6-cc38747ab86e"},"vehicle_type_id":"4","last_reported":1687986412,"current_range_meters":4000,"station_id":"ce4bha12rcd13ifvqee0","pricing_plan_id":"free"},{"bike_id":"48ab4c71-005c-4e51-bcd5-f71003ff37ad","system_id":"levelo_inurba_marseille","lat":43.28104,"lon":5.3785,"is_reserved":false,"is_disabled":false,"rental_uris":{"android":"levelo://app?vid=48ab4c71-005c-4e51-bcd5-f71003ff37ad","ios":"levelo://app?vid=48ab4c71-005c-4e51-bcd5-f71003ff37ad"},"vehicle_type_id":"4","last_reported":1687986412,"current_range_meters":1200,"station_id":"ce4bha12rcd13ifvqee0","pricing_plan_id":"free"},{"bike_id":"c8e6ce45-f2b5-4772-a564-3c2039eea91a","system_id":"levelo_inurba_marseille","lat":43.33077,"lon":5.40566,"is_reserved":false,"is_disabled":false,"rental_uris":{"android":"levelo://app?vid=c8e6ce45-f2b5-4772-a564-3c2039eea91a","ios":"levelo://app?vid=c8e6ce45-f2b5-4772-a564-3c2039eea91a"},"vehicle_type_id":"4","last_reported":1687986412,"current_range_meters":1200,"station_id":"","pricing_plan_id":"free"},{"bike_id":"33066033-4b6b-4d57-8001-ba9e3be99e26","system_id":"levelo_inurba_marseille","lat":43.33075,"lon":5.40569,"is_reserved":false,"is_disabled":false,"rental_uris":{"android":"levelo://app?vid=33066033-4b6b-4d57-8001-ba9e3be99e26","ios":"levelo://app?vid=33066033-4b6b-4d57-8001-ba9e3be99e26"},"vehicle_type_id":"4","last_reported":1687986412,"current_range_meters":23600,"station_id":"","pricing_plan_id":"free"},{"bike_id":"91cc09d8-bb90-46f3-bcd3-ad8d9addf4e4","system_id":"levelo_inurba_marseille","lat":43.284462,"lon":5.392121,"is_reserved":false,"is_disabled":false,"rental_uris":{"android":"levelo://app?vid=91cc09d8-bb90-46f3-bcd3-ad8d9addf4e4","ios":"levelo://app?vid=91cc09d8-bb90-46f3-bcd3-ad8d9addf4e4"},"vehicle_type_id":"4","last_reported":1687986412,"current_range_meters":20000,"station_id":"ce4bhoh2rcd13ifvqh5g","pricing_plan_id":"free"},{"bike_id":"dea081cf-1e4c-4d3d-9140-fa54305c6ab9","system_id":"levelo_inurba_marseille","lat":43.284462,"lon":5.392121,"is_reserved":false,"is_disabled":false,"rental_uris":{"android":"levelo://app?vid=dea081cf-1e4c-4d3d-9140-fa54305c6ab9","ios":"levelo://app?vid=dea081cf-1e4c-4d3d-9140-fa54305c6ab9"},"vehicle_type_id":"4","last_reported":1687986412,"current_range_meters":24400,"station_id":"ce4bhoh2rcd13ifvqh5g","pricing_plan_id":"free"},{"bike_id":"170525f6-ec73-405d-b4c5-34486d224959","system_id":"levelo_inurba_marseille","lat":43.284462,"lon":5.392121,"is_reserved":false,"is_disabled":false,"rental_uris":{"android":"levelo://app?vid=170525f6-ec73-405d-b4c5-34486d224959","ios":"levelo://app?vid=170525f6-ec73-405d-b4c5-34486d224959"},"vehicle_type_id":"4","last_reported":1687986412,"current_range_meters":22800,"station_id":"ce4bhoh2rcd13ifvqh5g","pricing_plan_id":"free"},{"bike_id":"96c22520-7500-4782-8292-c9926b188f84","system_id":"levelo_inurba_marseille","lat":43.28573,"lon":5.394992,"is_reserved":false,"is_disabled":false,"rental_uris":{"android":"levelo://app?vid=96c22520-7500-4782-8292-c9926b188f84","ios":"levelo://app?vid=96c22520-7500-4782-8292-c9926b188f84"},"vehicle_type_id":"4","last_reported":1687986412,"current_range_meters":25600,"station_id":"ce4bh292rcd13ifvqdg0","pricing_plan_id":"free"},{"bike_id":"dd4c99a3-89f9-4ae5-922c-c32c48850555","system_id":"levelo_inurba_marseille","lat":43.284462,"lon":5.392121,"is_reserved":false,"is_disabled":false,"rental_uris":{"android":"levelo://app?vid=dd4c99a3-89f9-4ae5-922c-c32c48850555","ios":"levelo://app?vid=dd4c99a3-89f9-4ae5-922c-c32c48850555"},"vehicle_type_id":"4","last_reported":1687986412,"current_range_meters":400,"station_id":"ce4bhoh2rcd13ifvqh5g","pricing_plan_id":"free"},{"bike_id":"92d0d094-55e7-4858-9fa6-645924d3f85b","system_id":"levelo_inurba_marseille","lat":43.285742,"lon":5.395004,"is_reserved":false,"is_disabled":false,"rental_uris":{"android":"levelo://app?vid=92d0d094-55e7-4858-9fa6-645924d3f85b","ios":"levelo://app?vid=92d0d094-55e7-4858-9fa6-645924d3f85b"},"vehicle_type_id":"4","last_reported":1687986412,"current_range_meters":31200,"station_id":"ce4bh292rcd13ifvqdg0","pricing_plan_id":"free"},{"bike_id":"cc130bd4-5a0b-4133-9a8c-ca21cd128bb8","system_id":"levelo_inurba_marseille","lat":43.28573,"lon":5.394992,"is_reserved":false,"is_disabled":false,"rental_uris":{"android":"levelo://app?vid=cc130bd4-5a0b-4133-9a8c-ca21cd128bb8","ios":"levelo://app?vid=cc130bd4-5a0b-4133-9a8c-ca21cd128bb8"},"vehicle_type_id":"4","last_reported":1687986412,"current_range_meters":19200,"station_id":"ce4bh292rcd13ifvqdg0","pricing_plan_id":"free"},{"bike_id":"5ae1d541-604d-486c-885b-6b88419249f1","system_id":"levelo_inurba_marseille","lat":43.32659,"lon":5.40991,"is_reserved":false,"is_disabled":false,"rental_uris":{"android":"levelo://app?vid=5ae1d541-604d-486c-885b-6b88419249f1","ios":"levelo://app?vid=5ae1d541-604d-486c-885b-6b88419249f1"},"vehicle_type_id":"4","last_reported":1687986412,"current_range_meters":15600,"station_id":"ce4bhpp2rcd13ifvqhgg","pricing_plan_id":"free"},{"bike_id":"75449481-f82f-4483-b7a3-84ee0f611873","system_id":"levelo_inurba_marseille","lat":43.326605,"lon":5.409903,"is_reserved":false,"is_disabled":false,"rental_uris":{"android":"levelo://app?vid=75449481-f82f-4483-b7a3-84ee0f611873","ios":"levelo://app?vid=75449481-f82f-4483-b7a3-84ee0f611873"},"vehicle_type_id":"4","last_reported":1687986412,"current_range_meters":23600,"station_id":"ce4bhpp2rcd13ifvqhgg","pricing_plan_id":"free"},{"bike_id":"30ea16c7-20c4-46b9-b78d-6f1da17beb48","system_id":"levelo_inurba_marseille","lat":43.326605,"lon":5.409903,"is_reserved":false,"is_disabled":false,"rental_uris":{"android":"levelo://app?vid=30ea16c7-20c4-46b9-b78d-6f1da17beb48","ios":"levelo://app?vid=30ea16c7-20c4-46b9-b78d-6f1da17beb48"},"vehicle_type_id":"4","last_reported":1687986412,"current_range_meters":21600,"station_id":"ce4bhpp2rcd13ifvqhgg","pricing_plan_id":"free"},{"bike_id":"0c9eee73-532e-4f1f-8b23-5a0693e22298","system_id":"levelo_inurba_marseille","lat":43.326605,"lon":5.409903,"is_reserved":false,"is_disabled":false,"rental_uris":{"android":"levelo://app?vid=0c9eee73-532e-4f1f-8b23-5a0693e22298","ios":"levelo://app?vid=0c9eee73-532e-4f1f-8b23-5a0693e22298"},"vehicle_type_id":"4","last_reported":1687986412,"current_range_meters":26000,"station_id":"ce4bhpp2rcd13ifvqhgg","pricing_plan_id":"free"},{"bike_id":"94cd5cee-81d7-4ad5-a0b7-988b3afd962f","system_id":"levelo_inurba_marseille","lat":43.32667,"lon":5.40994,"is_reserved":false,"is_disabled":false,"rental_uris":{"android":"levelo://app?vid=94cd5cee-81d7-4ad5-a0b7-988b3afd962f","ios":"levelo://app?vid=94cd5cee-81d7-4ad5-a0b7-988b3afd962f"},"vehicle_type_id":"4","last_reported":1687986412,"current_range_meters":24000,"station_id":"ce4bhpp2rcd13ifvqhgg","pricing_plan_id":"free"},{"bike_id":"c5af72cb-8204-4dc3-8e3a-fc7b4542cef4","system_id":"levelo_inurba_marseille","lat":43.279087,"lon":5.380114,"is_reserved":false,"is_disabled":false,"rental_uris":{"android":"levelo://app?vid=c5af72cb-8204-4dc3-8e3a-fc7b4542cef4","ios":"levelo://app?vid=c5af72cb-8204-4dc3-8e3a-fc7b4542cef4"},"vehicle_type_id":"4","last_reported":1687986412,"current_range_meters":18400,"station_id":"ce4bhf92rcd13ifvqf50","pricing_plan_id":"free"},{"bike_id":"50fd953c-9754-45f4-aec7-ae52bb9eb6fe","system_id":"levelo_inurba_marseille","lat":43.287154,"lon":5.399979,"is_reserved":false,"is_disabled":false,"rental_uris":{"android":"levelo://app?vid=50fd953c-9754-45f4-aec7-ae52bb9eb6fe","ios":"levelo://app?vid=50fd953c-9754-45f4-aec7-ae52bb9eb6fe"},"vehicle_type_id":"4","last_reported":1687986412,"current_range_meters":31200,"station_id":"ce4bho92rcd13ifvqh3g","pricing_plan_id":"free"},{"bike_id":"4f8250f5-f0dd-4529-80a7-57299fc83c07","system_id":"levelo_inurba_marseille","lat":43.287154,"lon":5.399979,"is_reserved":false,"is_disabled":false,"rental_uris":{"android":"levelo://app?vid=4f8250f5-f0dd-4529-80a7-57299fc83c07","ios":"levelo://app?vid=4f8250f5-f0dd-4529-80a7-57299fc83c07"},"vehicle_type_id":"4","last_reported":1687986412,"current_range_meters":10000,"station_id":"ce4bho92rcd13ifvqh3g","pricing_plan_id":"free"},{"bike_id":"6a962138-fd94-4af0-b6fd-bcecb1910a33","system_id":"levelo_inurba_marseille","lat":43.287154,"lon":5.399979,"is_reserved":false,"is_disabled":false,"rental_uris":{"android":"levelo://app?vid=6a962138-fd94-4af0-b6fd-bcecb1910a33","ios":"levelo://app?vid=6a962138-fd94-4af0-b6fd-bcecb1910a33"},"vehicle_type_id":"4","last_reported":1687986412,"current_range_meters":4000,"station_id":"ce4bho92rcd13ifvqh3g","pricing_plan_id":"free"},{"bike_id":"27668602-30f3-4045-b4ae-b99c05e4f781","system_id":"levelo_inurba_marseille","lat":43.287154,"lon":5.399979,"is_reserved":false,"is_disabled":false,"rental_uris":{"android":"levelo://app?vid=27668602-30f3-4045-b4ae-b99c05e4f781","ios":"levelo://app?vid=27668602-30f3-4045-b4ae-b99c05e4f781"},"vehicle_type_id":"4","last_reported":1687986412,"current_range_meters":15600,"station_id":"ce4bho92rcd13ifvqh3g","pricing_plan_id":"free"},{"bike_id":"05ff1055-5295-4a28-a6c6-a86488a7abbc","system_id":"levelo_inurba_marseille","lat":43.287154,"lon":5.399979,"is_reserved":false,"is_disabled":false,"rental_uris":{"android":"levelo://app?vid=05ff1055-5295-4a28-a6c6-a86488a7abbc","ios":"levelo://app?vid=05ff1055-5295-4a28-a6c6-a86488a7abbc"},"vehicle_type_id":"4","last_reported":1687986412,"current_range_meters":0,"station_id":"ce4bho92rcd13ifvqh3g","pricing_plan_id":"free"},{"bike_id":"e091ac62-4020-4c21-a71a-e887bbaada0e","system_id":"levelo_inurba_marseille","lat":43.287154,"lon":5.399979,"is_reserved":false,"is_disabled":false,"rental_uris":{"android":"levelo://app?vid=e091ac62-4020-4c21-a71a-e887bbaada0e","ios":"levelo://app?vid=e091ac62-4020-4c21-a71a-e887bbaada0e"},"vehicle_type_id":"4","last_reported":1687986412,"current_range_meters":28800,"station_id":"ce4bho92rcd13ifvqh3g","pricing_plan_id":"free"},{"bike_id":"3b250c13-7a71-4a24-b20b-7fcf1737c676","system_id":"levelo_inurba_marseille","lat":43.287154,"lon":5.399979,"is_reserved":false,"is_disabled":false,"rental_uris":{"android":"levelo://app?vid=3b250c13-7a71-4a24-b20b-7fcf1737c676","ios":"levelo://app?vid=3b250c13-7a71-4a24-b20b-7fcf1737c676"},"vehicle_type_id":"4","last_reported":1687986412,"current_range_meters":24800,"station_id":"ce4bho92rcd13ifvqh3g","pricing_plan_id":"free"},{"bike_id":"56dc4884-372f-4d58-8f63-388a3e3396a5","system_id":"levelo_inurba_marseille","lat":43.287154,"lon":5.399979,"is_reserved":false,"is_disabled":false,"rental_uris":{"android":"levelo://app?vid=56dc4884-372f-4d58-8f63-388a3e3396a5","ios":"levelo://app?vid=56dc4884-372f-4d58-8f63-388a3e3396a5"},"vehicle_type_id":"4","last_reported":1687986412,"current_range_meters":18800,"station_id":"ce4bho92rcd13ifvqh3g","pricing_plan_id":"free"},{"bike_id":"d0dddfce-107f-4f7e-b159-f5f177e9a925","system_id":"levelo_inurba_marseille","lat":43.287154,"lon":5.399979,"is_reserved":false,"is_disabled":false,"rental_uris":{"android":"levelo://app?vid=d0dddfce-107f-4f7e-b159-f5f177e9a925","ios":"levelo://app?vid=d0dddfce-107f-4f7e-b159-f5f177e9a925"},"vehicle_type_id":"4","last_reported":1687986412,"current_range_meters":4400,"station_id":"ce4bho92rcd13ifvqh3g","pricing_plan_id":"free"},{"bike_id":"32b7592c-3255-42a8-9d55-207f68b4a961","system_id":"levelo_inurba_marseille","lat":43.32046,"lon":5.41533,"is_reserved":false,"is_disabled":false,"rental_uris":{"android":"levelo://app?vid=32b7592c-3255-42a8-9d55-207f68b4a961","ios":"levelo://app?vid=32b7592c-3255-42a8-9d55-207f68b4a961"},"vehicle_type_id":"4","last_reported":1687986412,"current_range_meters":1600,"station_id":"ce4bhq92rcd13ifvqhkg","pricing_plan_id":"free"},{"bike_id":"8fb71bd9-5370-4bca-aba7-d2cc46115403","system_id":"levelo_inurba_marseille","lat":43.320045,"lon":5.415046,"is_reserved":false,"is_disabled":false,"rental_uris":{"android":"levelo://app?vid=8fb71bd9-5370-4bca-aba7-d2cc46115403","ios":"levelo://app?vid=8fb71bd9-5370-4bca-aba7-d2cc46115403"},"vehicle_type_id":"4","last_reported":1687986412,"current_range_meters":20400,"station_id":"ce4bhq92rcd13ifvqhkg","pricing_plan_id":"free"},{"bike_id":"010303de-9f53-47c9-8014-4eeafc88e3fa","system_id":"levelo_inurba_marseille","lat":43.320499,"lon":5.415475,"is_reserved":false,"is_disabled":false,"rental_uris":{"android":"levelo://app?vid=010303de-9f53-47c9-8014-4eeafc88e3fa","ios":"levelo://app?vid=010303de-9f53-47c9-8014-4eeafc88e3fa"},"vehicle_type_id":"4","last_reported":1687986412,"current_range_meters":31200,"station_id":"ce4bhq92rcd13ifvqhkg","pricing_plan_id":"free"},{"bike_id":"6bd2a702-2094-4ad0-8b41-6afbbd934ce2","system_id":"levelo_inurba_marseille","lat":43.292571,"lon":5.409107,"is_reserved":false,"is_disabled":false,"rental_uris":{"android":"levelo://app?vid=6bd2a702-2094-4ad0-8b41-6afbbd934ce2","ios":"levelo://app?vid=6bd2a702-2094-4ad0-8b41-6afbbd934ce2"},"vehicle_type_id":"4","last_reported":1687986412,"current_range_meters":4800,"station_id":"ce4bh192rcd13ifvqdc0","pricing_plan_id":"free"},{"bike_id":"a1282fbc-e369-41c6-a1ba-01111a016b42","system_id":"levelo_inurba_marseille","lat":43.29262,"lon":5.40908,"is_reserved":false,"is_disabled":false,"rental_uris":{"android":"levelo://app?vid=a1282fbc-e369-41c6-a1ba-01111a016b42","ios":"levelo://app?vid=a1282fbc-e369-41c6-a1ba-01111a016b42"},"vehicle_type_id":"4","last_reported":1687986412,"current_range_meters":17200,"station_id":"ce4bh192rcd13ifvqdc0","pricing_plan_id":"free"},{"bike_id":"9f6a3a6d-c130-40d9-bcc3-748a9bf9b9b0","system_id":"levelo_inurba_marseille","lat":43.2926,"lon":5.40908,"is_reserved":false,"is_disabled":false,"rental_uris":{"android":"levelo://app?vid=9f6a3a6d-c130-40d9-bcc3-748a9bf9b9b0","ios":"levelo://app?vid=9f6a3a6d-c130-40d9-bcc3-748a9bf9b9b0"},"vehicle_type_id":"4","last_reported":1687986412,"current_range_meters":12800,"station_id":"ce4bh192rcd13ifvqdc0","pricing_plan_id":"free"},{"bike_id":"7d7569a9-e6cb-49ec-9272-219f13f90408","system_id":"levelo_inurba_marseille","lat":43.292571,"lon":5.409107,"is_reserved":false,"is_disabled":false,"rental_uris":{"android":"levelo://app?vid=7d7569a9-e6cb-49ec-9272-219f13f90408","ios":"levelo://app?vid=7d7569a9-e6cb-49ec-9272-219f13f90408"},"vehicle_type_id":"4","last_reported":1687986412,"current_range_meters":21600,"station_id":"ce4bh192rcd13ifvqdc0","pricing_plan_id":"free"},{"bike_id":"9b838443-a02b-40d1-85bb-4785a5feb50b","system_id":"levelo_inurba_marseille","lat":43.29259,"lon":5.40914,"is_reserved":false,"is_disabled":false,"rental_uris":{"android":"levelo://app?vid=9b838443-a02b-40d1-85bb-4785a5feb50b","ios":"levelo://app?vid=9b838443-a02b-40d1-85bb-4785a5feb50b"},"vehicle_type_id":"4","last_reported":1687986412,"current_range_meters":7600,"station_id":"ce4bh192rcd13ifvqdc0","pricing_plan_id":"free"},{"bike_id":"528912a9-44e3-4db1-83ad-2a8880568f61","system_id":"levelo_inurba_marseille","lat":43.292569,"lon":5.409107,"is_reserved":false,"is_disabled":false,"rental_uris":{"android":"levelo://app?vid=528912a9-44e3-4db1-83ad-2a8880568f61","ios":"levelo://app?vid=528912a9-44e3-4db1-83ad-2a8880568f61"},"vehicle_type_id":"4","last_reported":1687986412,"current_range_meters":18400,"station_id":"ce4bh192rcd13ifvqdc0","pricing_plan_id":"free"},{"bike_id":"39872439-624e-4395-bcbb-d9671b616e68","system_id":"levelo_inurba_marseille","lat":43.278399,"lon":5.392139,"is_reserved":false,"is_disabled":false,"rental_uris":{"android":"levelo://app?vid=39872439-624e-4395-bcbb-d9671b616e68","ios":"levelo://app?vid=39872439-624e-4395-bcbb-d9671b616e68"},"vehicle_type_id":"4","last_reported":1687986412,"current_range_meters":31200,"station_id":"ce4bhjp2rcd13ifvqga0","pricing_plan_id":"free"},{"bike_id":"a7acc400-1a7b-45a6-a8d2-150959302c57","system_id":"levelo_inurba_marseille","lat":43.278399,"lon":5.392139,"is_reserved":false,"is_disabled":false,"rental_uris":{"android":"levelo://app?vid=a7acc400-1a7b-45a6-a8d2-150959302c57","ios":"levelo://app?vid=a7acc400-1a7b-45a6-a8d2-150959302c57"},"vehicle_type_id":"4","last_reported":1687986412,"current_range_meters":13200,"station_id":"ce4bhjp2rcd13ifvqga0","pricing_plan_id":"free"},{"bike_id":"ac71198a-73f7-43ed-b1ba-73cbee8b15a9","system_id":"levelo_inurba_marseille","lat":43.278399,"lon":5.392139,"is_reserved":false,"is_disabled":false,"rental_uris":{"android":"levelo://app?vid=ac71198a-73f7-43ed-b1ba-73cbee8b15a9","ios":"levelo://app?vid=ac71198a-73f7-43ed-b1ba-73cbee8b15a9"},"vehicle_type_id":"4","last_reported":1687986412,"current_range_meters":22400,"station_id":"ce4bhjp2rcd13ifvqga0","pricing_plan_id":"free"},{"bike_id":"d121dca8-2596-4f85-a2a1-3d6410e5eda4","system_id":"levelo_inurba_marseille","lat":43.33599,"lon":5.40995,"is_reserved":false,"is_disabled":false,"rental_uris":{"android":"levelo://app?vid=d121dca8-2596-4f85-a2a1-3d6410e5eda4","ios":"levelo://app?vid=d121dca8-2596-4f85-a2a1-3d6410e5eda4"},"vehicle_type_id":"4","last_reported":1687986412,"current_range_meters":24400,"station_id":"ce4bhqh2rcd13ifvqhmg","pricing_plan_id":"free"},{"bike_id":"adf26b57-d9c9-48b4-a5ee-45f9e9b52f18","system_id":"levelo_inurba_marseille","lat":43.275625,"lon":5.384392,"is_reserved":false,"is_disabled":false,"rental_uris":{"android":"levelo://app?vid=adf26b57-d9c9-48b4-a5ee-45f9e9b52f18","ios":"levelo://app?vid=adf26b57-d9c9-48b4-a5ee-45f9e9b52f18"},"vehicle_type_id":"4","last_reported":1687986412,"current_range_meters":21200,"station_id":"ce4bhh92rcd13ifvqfi0","pricing_plan_id":"free"},{"bike_id":"b1c671a1-e97b-41b7-9f22-29ba7a082702","system_id":"levelo_inurba_marseille","lat":43.336134,"lon":5.410341,"is_reserved":false,"is_disabled":false,"rental_uris":{"android":"levelo://app?vid=b1c671a1-e97b-41b7-9f22-29ba7a082702","ios":"levelo://app?vid=b1c671a1-e97b-41b7-9f22-29ba7a082702"},"vehicle_type_id":"4","last_reported":1687986412,"current_range_meters":31200,"station_id":"ce4bhqh2rcd13ifvqhmg","pricing_plan_id":"free"},{"bike_id":"8bdfecce-ddb7-481a-b1ed-62f98c618409","system_id":"levelo_inurba_marseille","lat":43.33601,"lon":5.41032,"is_reserved":false,"is_disabled":false,"rental_uris":{"android":"levelo://app?vid=8bdfecce-ddb7-481a-b1ed-62f98c618409","ios":"levelo://app?vid=8bdfecce-ddb7-481a-b1ed-62f98c618409"},"vehicle_type_id":"4","last_reported":1687986412,"current_range_meters":28000,"station_id":"ce4bhqh2rcd13ifvqhmg","pricing_plan_id":"free"},{"bike_id":"2906275a-a92a-4c58-bffd-1c95b68be23b","system_id":"levelo_inurba_marseille","lat":43.33612,"lon":5.410321,"is_reserved":false,"is_disabled":false,"rental_uris":{"android":"levelo://app?vid=2906275a-a92a-4c58-bffd-1c95b68be23b","ios":"levelo://app?vid=2906275a-a92a-4c58-bffd-1c95b68be23b"},"vehicle_type_id":"4","last_reported":1687986412,"current_range_meters":25200,"station_id":"ce4bhqh2rcd13ifvqhmg","pricing_plan_id":"free"},{"bike_id":"d16a5057-335c-4f77-856e-44973c141fd2","system_id":"levelo_inurba_marseille","lat":43.33611,"lon":5.41026,"is_reserved":false,"is_disabled":false,"rental_uris":{"android":"levelo://app?vid=d16a5057-335c-4f77-856e-44973c141fd2","ios":"levelo://app?vid=d16a5057-335c-4f77-856e-44973c141fd2"},"vehicle_type_id":"4","last_reported":1687986412,"current_range_meters":8000,"station_id":"ce4bhqh2rcd13ifvqhmg","pricing_plan_id":"free"},{"bike_id":"ac1bc89d-414d-4e6c-8f7a-859a695a64ab","system_id":"levelo_inurba_marseille","lat":43.336134,"lon":5.410341,"is_reserved":false,"is_disabled":false,"rental_uris":{"android":"levelo://app?vid=ac1bc89d-414d-4e6c-8f7a-859a695a64ab","ios":"levelo://app?vid=ac1bc89d-414d-4e6c-8f7a-859a695a64ab"},"vehicle_type_id":"4","last_reported":1687986412,"current_range_meters":20000,"station_id":"ce4bhqh2rcd13ifvqhmg","pricing_plan_id":"free"},{"bike_id":"edaae0a7-6d00-474f-8616-a5d37efb803c","system_id":"levelo_inurba_marseille","lat":43.33609,"lon":5.41032,"is_reserved":false,"is_disabled":false,"rental_uris":{"android":"levelo://app?vid=edaae0a7-6d00-474f-8616-a5d37efb803c","ios":"levelo://app?vid=edaae0a7-6d00-474f-8616-a5d37efb803c"},"vehicle_type_id":"4","last_reported":1687986412,"current_range_meters":12000,"station_id":"ce4bhqh2rcd13ifvqhmg","pricing_plan_id":"free"},