{"last_updated":1743686412,"ttl":60,"version":"2.2","data":{"bikes":[{"bike_id":"cc3281e0-4895-49fe-8086-484a2934ae53","system_id":"levelo_inurba_marseille","lat":43.282755,"lon":5.350689,"is_reserved":false,"is_disabled":false,"rental_uris":{"android":"levelo://app?vid=cc3281e0-4895-49fe-8086-484a2934ae53","ios":"levelo://app?vid=cc3281e0-4895-49fe-8086-484a2934ae53"},"vehicle_type_id":"4","last_reported":1743686412,"current_range_meters":2800,"station_id":"ce4bhbp2rcd13ifvqerg","pricing_plan_id":"cebpf4jnsgd1na2vs0mg"},{"bike_id":"730abadd-9fe4-4779-9d4b-0bf741ec4f83","system_id":"levelo_inurba_marseille","lat":43.30803,"lon":5.38155,"is_reserved":false,"is_disabled":false,"rental_uris":{"android":"levelo://app?vid=730abadd-9fe4-4779-9d4b-0bf741ec4f83","ios":"levelo://app?vid=730abadd-9fe4-4779-9d4b-0bf741ec4f83"},"vehicle_type_id":"4","last_reported":1743686412,"current_range_meters":2800,"station_id":"ce4bgt12rcd13ifvqce0","pricing_plan_id":"cebpf4jnsgd1na2vs0mg"},{"bike_id":"de66f069-4686-4c41-9577-ab3d692da3f7","system_id":"levelo_inurba_marseille","lat":43.30069,"lon":5.39003,"is_reserved":false,"is_disabled":false,"rental_uris":{"android":"levelo://app?vid=de66f069-4686-4c41-9577-ab3d692da3f7","ios":"levelo://app?vid=de66f069-4686-4c41-9577-ab3d692da3f7"},"vehicle_type_id":"4","last_reported":1743686412,"current_range_meters":3200,"station_id":"","pricing_plan_id":"cebpf4jnsgd1na2vs0mg"},{"bike_id":"d5db183a-c891-4c4b-a2c1-dec71168d39a","system_id":"levelo_inurba_marseille","lat":43.275,"lon":5.4246,"is_reserved":false,"is_disabled":true,"rental_uris":{"android":"levelo://app?vid=d5db183a-c891-4c4b-a2c1-dec71168d39a","ios":"levelo://app?vid=d5db183a-c891-4c4b-a2c1-dec71168d39a"},"vehicle_type_id":"4","last_reported":1743686412,"current_range_meters":3600,"station_id":"ce4bhn92rcd13ifvqgrg","pricing_plan_id":"cebpf4jnsgd1na2vs0mg"},{"bike_id":"db291e60-71b6-4b6a-8026-b097b875cc82","system_id":"levelo_inurba_marseille","lat":43.2808,"lon":5.39659,"is_reserved":false,"is_disabled":false,"rental_uris":{"android":"levelo://app?vid=db291e60-71b6-4b6a-8026-b097b875cc82","ios":"levelo://app?vid=db291e60-71b6-4b6a-8026-b097b875cc82"},"vehicle_type_id":"4","last_reported":1743686412,"current_range_meters":3600,"station_id":"ce4bho12rcd13ifvqh2g","pricing_plan_id":"cebpf4jnsgd1na2vs0mg"},{"bike_id":"71178357-52ea-4831-8874-e0f73eb10477","system_id":"levelo_inurba_marseille","lat":43.23181,"lon":5.39985,"is_reserved":false,"is_disabled":false,"rental_uris":{"android":"levelo://app?vid=71178357-52ea-4831-8874-e0f73eb10477","ios":"levelo://app?vid=71178357-52ea-4831-8874-e0f73eb10477"},"vehicle_type_id":"4","last_reported":1743686412,"current_range_meters":2000,"station_id":"ce4bhn12rcd13ifvqgqg","pricing_plan_id":"cebpf4jnsgd1na2vs0mg"},{"bike_id":"1b7418be-c7be-4bf4-92f1-4a53122423aa","system_id":"levelo_inurba_marseille","lat":43.29595,"lon":5.38093,"is_reserved":false,"is_disabled":false,"rental_uris":{"android":"levelo://app?vid=1b7418be-c7be-4bf4-92f1-4a53122423aa","ios":"levelo://app?vid=1b7418be-c7be-4bf4-92f1-4a53122423aa"},"vehicle_type_id":"4","last_reported":1743686412,"current_range_meters":3600,"station_id":"ce4bgl12rcd13ifvqbo0","pricing_plan_id":"cebpf4jnsgd1na2vs0mg"},{"bike_id":"43f61c1c-3b45-4029-95ca-39a6e5969c79","system_id":"levelo_inurba_marseille","lat":43.29778,"lon":5.371,"is_reserved":false,"is_disabled":false,"rental_uris":{"android":"levelo://app?vid=43f61c1c-3b45-4029-95ca-39a6e5969c79","ios":"levelo://app?vid=43f61c1c-3b45-4029-95ca-39a6e5969c79"},"vehicle_type_id":"4","last_reported":1743686412,"current_range_meters":3600,"station_id":"ce4bgop2rcd13ifvqc1g","pricing_plan_id":"cebpf4jnsgd1na2vs0mg"},{"bike_id":"190cba3a-6ca9-484d-87d0-6495d1b75538","system_id":"levelo_inurba_marseille","lat":43.30544,"lon":5.36699,"is_reserved":false,"is_disabled":false,"rental_uris":{"android":"levelo://app?vid=190cba3a-6ca9-484d-87d0-6495d1b75538","ios":"levelo://app?vid=190cba3a-6ca9-484d-87d0-6495d1b75538"},"vehicle_type_id":"4","last_reported":1743686412,"current_range_meters":4000,"station_id":"ce4bgrp2rcd13ifvqc9g","pricing_plan_id":"cebpf4jnsgd1na2vs0mg"},{"bike_id":"fd379b95-103a-4d01-af5e-ef4e254699fe","system_id":"levelo_inurba_marseille","lat":43.232,"lon":5.35556,"is_reserved":false,"is_disabled":false,"rental_uris":{"android":"levelo://app?vid=fd379b95-103a-4d01-af5e-ef4e254699fe","ios":"levelo://app?vid=fd379b95-103a-4d01-af5e-ef4e254699fe"},"vehicle_type_id":"4","last_reported":1743686412,"current_range_meters":4000,"station_id":"ce4bhu92rcd13ifvqi70","pricing_plan_id":"cebpf4jnsgd1na2vs0mg"},{"bike_id":"42e30925-c0ce-4e6d-825b-a16b0a93c5a0","system_id":"levelo_inurba_marseille","lat":43.243234,"lon":5.370181,"is_reserved":false,"is_disabled":false,"rental_uris":{"android":"levelo://app?vid=42e30925-c0ce-4e6d-825b-a16b0a93c5a0","ios":"levelo://app?vid=42e30925-c0ce-4e6d-825b-a16b0a93c5a0"},"vehicle_type_id":"4","last_reported":1743686412,"current_range_meters":4000,"station_id":"ce4bhhh2rcd13ifvqfk0","pricing_plan_id":"cebpf4jnsgd1na2vs0mg"},{"bike_id":"2cf61775-cb21-4b86-a7af-7925ef8f8bd8","system_id":"levelo_inurba_marseille","lat":43.22954,"lon":5.35366,"is_reserved":false,"is_disabled":false,"rental_uris":{"android":"levelo://app?vid=2cf61775-cb21-4b86-a7af-7925ef8f8bd8","ios":"levelo://app?vid=2cf61775-cb21-4b86-a7af-7925ef8f8bd8"},"vehicle_type_id":"4","last_reported":1743686412,"current_range_meters":4000,"station_id":"cpo3532slgdg3j2ikp40","pricing_plan_id":"cebpf4jnsgd1na2vs0mg"},{"bike_id":"f4b14bcf-a142-4da9-ab32-238fd81896b1","system_id":"levelo_inurba_marseille","lat":43.27149,"lon":5.40411,"is_reserved":false,"is_disabled":false,"rental_uris":{"android":"levelo://app?vid=f4b14bcf-a142-4da9-ab32-238fd81896b1","ios":"levelo://app?vid=f4b14bcf-a142-4da9-ab32-238fd81896b1"},"vehicle_type_id":"4","last_reported":1743686412,"current_range_meters":4000,"station_id":"","pricing_plan_id":"cebpf4jnsgd1na2vs0mg"},{"bike_id":"e6b69cd2-f965-4a12-9e02-6f28a269f9f9","system_id":"levelo_inurba_marseille","lat":43.23051,"lon":5.35493,"is_reserved":false,"is_disabled":false,"rental_uris":{"android":"levelo://app?vid=e6b69cd2-f965-4a12-9e02-6f28a269f9f9","ios":"levelo://app?vid=e6b69cd2-f965-4a12-9e02-6f28a269f9f9"},"vehicle_type_id":"4","last_reported":1743686412,"current_range_meters":4400,"station_id":"cpo3342slgdg3j2ifvpg","pricing_plan_id":"cebpf4jnsgd1na2vs0mg"},{"bike_id":"12b5e061-2678-473f-9ed7-3d823c808278","system_id":"levelo_inurba_marseille","lat":43.2438,"lon":5.37049,"is_reserved":false,"is_disabled":false,"rental_uris":{"android":"levelo://app?vid=12b5e061-2678-473f-9ed7-3d823c808278","ios":"levelo://app?vid=12b5e061-2678-473f-9ed7-3d823c808278"},"vehicle_type_id":"4","last_reported":1743686412,"current_range_meters":4400,"station_id":"ce4bhhh2rcd13ifvqfk0","pricing_plan_id":"cebpf4jnsgd1na2vs0mg"},{"bike_id":"39c94d58-86dd-4c73-88fa-10ad22a1d6b2","system_id":"levelo_inurba_marseille","lat":43.2315,"lon":5.43719,"is_reserved":false,"is_disabled":false,"rental_uris":{"android":"levelo://app?vid=39c94d58-86dd-4c73-88fa-10ad22a1d6b2","ios":"levelo://app?vid=39c94d58-86dd-4c73-88fa-10ad22a1d6b2"},"vehicle_type_id":"4","last_reported":1743686412,"current_range_meters":4400,"station_id":"ce4bhmp2rcd13ifvqgog","pricing_plan_id":"cebpf4jnsgd1na2vs0mg"},{"bike_id":"0f6d4fd9-060f-4d87-b742-649962cb68ad","system_id":"levelo_inurba_marseille","lat":43.27501,"lon":5.42447,"is_reserved":false,"is_disabled":false,"rental_uris":{"android":"levelo://app?vid=0f6d4fd9-060f-4d87-b742-649962cb68ad","ios":"levelo://app?vid=0f6d4fd9-060f-4d87-b742-649962cb68ad"},"vehicle_type_id":"4","last_reported":1743686412,"current_range_meters":4400,"station_id":"ce4bhn92rcd13ifvqgrg","pricing_plan_id":"cebpf4jnsgd1na2vs0mg"},{"bike_id":"101ee90b-f857-4a50-8b85-491d1b3d5efc","system_id":"levelo_inurba_marseille","lat":43.23205,"lon":5.35559,"is_reserved":false,"is_disabled":false,"rental_uris":{"android":"levelo://app?vid=101ee90b-f857-4a50-8b85-491d1b3d5efc","ios":"levelo://app?vid=101ee90b-f857-4a50-8b85-491d1b3d5efc"},"vehicle_type_id":"4","last_reported":1743686412,"current_range_meters":4400,"station_id":"ce4bhu92rcd13ifvqi70","pricing_plan_id":"cebpf4jnsgd1na2vs0mg"},{"bike_id":"3e5329f3-c0cd-422c-afb1-2f46242590da","system_id":"levelo_inurba_marseille","lat":43.3192,"lon":5.37559,"is_reserved":false,"is_disabled":false,"rental_uris":{"android":"levelo://app?vid=3e5329f3-c0cd-422c-afb1-2f46242590da","ios":"levelo://app?vid=3e5329f3-c0cd-422c-afb1-2f46242590da"},"vehicle_type_id":"4","last_reported":1743686412,"current_range_meters":4400,"station_id":"","pricing_plan_id":"cebpf4jnsgd1na2vs0mg"},{"bike_id":"d157a8ac-f1ea-480a-a1ee-9ac00962bb01","system_id":"levelo_inurba_marseille","lat":43.29548,"lon":5.4229,"is_reserved":false,"is_disabled":false,"rental_uris":{"android":"levelo://app?vid=d157a8ac-f1ea-480a-a1ee-9ac00962bb01","ios":"levelo://app?vid=d157a8ac-f1ea-480a-a1ee-9ac00962bb01"},"vehicle_type_id":"4","last_reported":1743686412,"current_range_meters":4800,"station_id":"ce4bhph2rcd13ifvqhdg","pricing_plan_id":"cebpf4jnsgd1na2vs0mg"},{"bike_id":"2ec85761-1712-422d-b883-48b01832652a","system_id":"levelo_inurba_marseille","lat":43.29361,"lon":5.37837,"is_reserved":false,"is_disabled":false,"rental_uris":{"android":"levelo://app?vid=2ec85761-1712-422d-b883-48b01832652a","ios":"levelo://app?vid=2ec85761-1712-422d-b883-48b01832652a"},"vehicle_type_id":"4","last_reported":1743686412,"current_range_meters":4400,"station_id":"ce4bgjh2rcd13ifvqbf0","pricing_plan_id":"cebpf4jnsgd1na2vs0mg"},{"bike_id":"f55695a6-b65f-4a30-99ab-94b2bfa63268","system_id":"levelo_inurba_marseille","lat":43.23221,"lon":5.35549,"is_reserved":false,"is_disabled":false,"rental_uris":{"android":"levelo://app?vid=f55695a6-b65f-4a30-99ab-94b2bfa63268","ios":"levelo://app?vid=f55695a6-b65f-4a30-99ab-94b2bfa63268"},"vehicle_type_id":"4","last_reported":1743686412,"current_range_meters":4800,"station_id":"ce4bhu92rcd13ifvqi70","pricing_plan_id":"cebpf4jnsgd1na2vs0mg"},{"bike_id":"fa720cd8-9c9a-455d-a587-22594ed9bdb8","system_id":"levelo_inurba_marseille","lat":43.30936,"lon":5.40156,"is_reserved":false,"is_disabled":false,"rental_uris":{"android":"levelo://app?vid=fa720cd8-9c9a-455d-a587-22594ed9bdb8","ios":"levelo://app?vid=fa720cd8-9c9a-455d-a587-22594ed9bdb8"},"vehicle_type_id":"4","last_reported":1743686412,"current_range_meters":6000,"station_id":"ce4bgvp2rcd13ifvqct0","pricing_plan_id":"cebpf4jnsgd1na2vs0mg"},{"bike_id":"d9d413bd-dd64-4a5a-9215-df816d54100e","system_id":"levelo_inurba_marseille","lat":43.27213,"lon":5.39174,"is_reserved":false,"is_disabled":false,"rental_uris":{"android":"levelo://app?vid=d9d413bd-dd64-4a5a-9215-df816d54100e","ios":"levelo://app?vid=d9d413bd-dd64-4a5a-9215-df816d54100e"},"vehicle_type_id":"4","last_reported":1743686412,"current_range_meters":6400,"station_id":"ce4bhhp2rcd13ifvqfm0","pricing_plan_id":"cebpf4jnsgd1na2vs0mg"},{"bike_id":"36e0c13c-6f27-4230-a226-822cec73bf56","system_id":"levelo_inurba_marseille","lat":43.24547,"lon":5.39529,"is_reserved":false,"is_disabled":false,"rental_uris":{"android":"levelo://app?vid=36e0c13c-6f27-4230-a226-822cec73bf56","ios":"levelo://app?vid=36e0c13c-6f27-4230-a226-822cec73bf56"},"vehicle_type_id":"4","last_reported":1743686412,"current_range_meters":6000,"station_id":"ce4bhlp2rcd13ifvqgjg","pricing_plan_id":"cebpf4jnsgd1na2vs0mg"},{"bike_id":"29802665-07bd-468f-8af1-5541db64803b","system_id":"levelo_inurba_marseille","lat":43.2749,"lon":5.42451,"is_reserved":false,"is_disabled":false,"rental_uris":{"android":"levelo://app?vid=29802665-07bd-468f-8af1-5541db64803b","ios":"levelo://app?vid=29802665-07bd-468f-8af1-5541db64803b"},"vehicle_type_id":"4","last_reported":1743686412,"current_range_meters":6000,"station_id":"ce4bhn92rcd13ifvqgrg","pricing_plan_id":"cebpf4jnsgd1na2vs0mg"},{"bike_id":"2d852c82-ae6a-4739-92da-48a433ac3774","system_id":"levelo_inurba_marseille","lat":43.28446,"lon":5.39209,"is_reserved":false,"is_disabled":false,"rental_uris":{"android":"levelo://app?vid=2d852c82-ae6a-4739-92da-48a433ac3774","ios":"levelo://app?vid=2d852c82-ae6a-4739-92da-48a433ac3774"},"vehicle_type_id":"4","last_reported":1743686412,"current_range_meters":6000,"station_id":"ce4bhoh2rcd13ifvqh5g","pricing_plan_id":"cebpf4jnsgd1na2vs0mg"},{"bike_id":"8056fae5-7334-4c2d-9e0d-b7df89809c99","system_id":"levelo_inurba_marseille","lat":43.293025,"lon":5.374525,"is_reserved":false,"is_disabled":false,"rental_uris":{"android":"levelo://app?vid=8056fae5-7334-4c2d-9e0d-b7df89809c99","ios":"levelo://app?vid=8056fae5-7334-4c2d-9e0d-b7df89809c99"},"vehicle_type_id":"4","last_reported":1743686412,"current_range_meters":6400,"station_id":"ce4bgi12rcd13ifvqb70","pricing_plan_id":"cebpf4jnsgd1na2vs0mg"},{"bike_id":"2efefdad-13af-4dd7-b53d-d18e706054cb","system_id":"levelo_inurba_marseille","lat":43.23181,"lon":5.39983,"is_reserved":false,"is_disabled":false,"rental_uris":{"android":"levelo://app?vid=2efefdad-13af-4dd7-b53d-d18e706054cb","ios":"levelo://app?vid=2efefdad-13af-4dd7-b53d-d18e706054cb"},"vehicle_type_id":"4","last_reported":1743686412,"current_range_meters":6400,"station_id":"ce4bhn12rcd13ifvqgqg","pricing_plan_id":"cebpf4jnsgd1na2vs0mg"},{"bike_id":"115d0126-c1fb-4ebe-8782-6a89d6d4b0a0","system_id":"levelo_inurba_marseille","lat":43.301793,"lon":5.369745,"is_reserved":false,"is_disabled":false,"rental_uris":{"android":"levelo://app?vid=115d0126-c1fb-4ebe-8782-6a89d6d4b0a0","ios":"levelo://app?vid=115d0126-c1fb-4ebe-8782-6a89d6d4b0a0"},"vehicle_type_id":"4","last_reported":1743686412,"current_range_meters":6400,"station_id":"ce4bh392rcd13ifvqdm0","pricing_plan_id":"cebpf4jnsgd1na2vs0mg"},{"bike_id":"c78d8500-7d26-4fbf-b03a-76f2b13bc696","system_id":"levelo_inurba_marseille","lat":43.31235,"lon":5.36883,"is_reserved":false,"is_disabled":false,"rental_uris":{"android":"levelo://app?vid=c78d8500-7d26-4fbf-b03a-76f2b13bc696","ios":"levelo://app?vid=c78d8500-7d26-4fbf-b03a-76f2b13bc696"},"vehicle_type_id":"4","last_reported":1743686412,"current_range_meters":6400,"station_id":"ce4bgl92rcd13ifvqbq0","pricing_plan_id":"cebpf4jnsgd1na2vs0mg"},{"bike_id":"7bc507c4-187b-4cb2-a5ef-07322f924baf","system_id":"levelo_inurba_marseille","lat":43.2294,"lon":5.35386,"is_reserved":false,"is_disabled":false,"rental_uris":{"android":"levelo://app?vid=7bc507c4-187b-4cb2-a5ef-07322f924baf","ios":"levelo://app?vid=7bc507c4-187b-4cb2-a5ef-07322f924baf"},"vehicle_type_id":"4","last_reported":1743686412,"current_range_meters":6400,"station_id":"cpo3532slgdg3j2ikp40","pricing_plan_id":"cebpf4jnsgd1na2vs0mg"},{"bike_id":"2cebad35-f1c5-4880-b03b-c2c790b2b01a","system_id":"levelo_inurba_marseille","lat":43.31334,"lon":5.39697,"is_reserved":false,"is_disabled":false,"rental_uris":{"android":"levelo://app?vid=2cebad35-f1c5-4880-b03b-c2c790b2b01a","ios":"levelo://app?vid=2cebad35-f1c5-4880-b03b-c2c790b2b01a"},"vehicle_type_id":"4","last_reported":1743686412,"current_range_meters":6400,"station_id":"ce4bgvp2rcd13ifvqcu0","pricing_plan_id":"cebpf4jnsgd1na2vs0mg"},{"bike_id":"66759b34-8c5d-42bd-b75c-38104d2ee14f","system_id":"levelo_inurba_marseille","lat":43.30602,"lon":5.39349,"is_reserved":false,"is_disabled":false,"rental_uris":{"android":"levelo://app?vid=66759b34-8c5d-42bd-b75c-38104d2ee14f","ios":"levelo://app?vid=66759b34-8c5d-42bd-b75c-38104d2ee14f"},"vehicle_type_id":"4","last_reported":1743686412,"current_range_meters":6400,"station_id":"ce4bh0p2rcd13ifvqd80","pricing_plan_id":"cebpf4jnsgd1na2vs0mg"},{"bike_id":"d53777c8-71ae-4227-ab5d-b5d248512007","system_id":"levelo_inurba_marseille","lat":43.23152,"lon":5.43721,"is_reserved":false,"is_disabled":false,"rental_uris":{"android":"levelo://app?vid=d53777c8-71ae-4227-ab5d-b5d248512007","ios":"levelo://app?vid=d53777c8-71ae-4227-ab5d-b5d248512007"},"vehicle_type_id":"4","last_reported":1743686412,"current_range_meters":6400,"station_id":"ce4bhmp2rcd13ifvqgog","pricing_plan_id":"cebpf4jnsgd1na2vs0mg"},{"bike_id":"0735e8d9-d121-4ec1-bbf8-fe2682791f86","system_id":"levelo_inurba_marseille","lat":43.28357,"lon":5.38109,"is_reserved":false,"is_disabled":false,"rental_uris":{"android":"levelo://app?vid=0735e8d9-d121-4ec1-bbf8-fe2682791f86","ios":"levelo://app?vid=0735e8d9-d121-4ec1-bbf8-fe2682791f86"},"vehicle_type_id":"4","last_reported":1743686412,"current_range_meters":6400,"station_id":"ce4bh412rcd13ifvqdr0","pricing_plan_id":"cebpf4jnsgd1na2vs0mg"},{"bike_id":"04556df8-715f-45d8-b288-9c8fd51282f9","system_id":"levelo_inurba_marseille","lat":43.23199,"lon":5.35548,"is_reserved":false,"is_disabled":false,"rental_uris":{"android":"levelo://app?vid=04556df8-715f-45d8-b288-9c8fd51282f9","ios":"levelo://app?vid=04556df8-715f-45d8-b288-9c8fd51282f9"},"vehicle_type_id":"4","last_reported":1743686412,"current_range_meters":6800,"station_id":"ce4bhu92rcd13ifvqi70","pricing_plan_id":"cebpf4jnsgd1na2vs0mg"},{"bike_id":"988a4b2a-1fca-4561-9342-57ad8b6adb1c","system_id":"levelo_inurba_marseille","lat":43.22928,"lon":5.35376,"is_reserved":false,"is_disabled":false,"rental_uris":{"android":"levelo://app?vid=988a4b2a-1fca-4561-9342-57ad8b6adb1c","ios":"levelo://app?vid=988a4b2a-1fca-4561-9342-57ad8b6adb1c"},"vehicle_type_id":"4","last_reported":1743686412,"current_range_meters":6800,"station_id":"cpo3532slgdg3j2ikp40","pricing_plan_id":"cebpf4jnsgd1na2vs0mg"},{"bike_id":"f87e996c-206a-47d9-8697-84a2d463fdc3","system_id":"levelo_inurba_marseille","lat":43.23186,"lon":5.35558,"is_reserved":false,"is_disabled":false,"rental_uris":{"android":"levelo://app?vid=f87e996c-206a-47d9-8697-84a2d463fdc3","ios":"levelo://app?vid=f87e996c-206a-47d9-8697-84a2d463fdc3"},"vehicle_type_id":"4","last_reported":1743686412,"current_range_meters":6800,"station_id":"ce4bhu92rcd13ifvqi70","pricing_plan_id":"cebpf4jnsgd1na2vs0mg"},{"bike_id":"1e56f8b0-0569-43fd-956b-7c3d45c8ba02","system_id":"levelo_inurba_marseille","lat":43.29327,"lon":5.41146,"is_reserved":false,"is_disabled":false,"rental_uris":{"android":"levelo://app?vid=1e56f8b0-0569-43fd-956b-7c3d45c8ba02","ios":"levelo://app?vid=1e56f8b0-0569-43fd-956b-7c3d45c8ba02"},"vehicle_type_id":"4","last_reported":1743686412,"current_range_meters":6800,"station_id":"","pricing_plan_id":"cebpf4jnsgd1na2vs0mg"},{"bike_id":"fe147b08-794f-4cc8-a62c-e589ca5791a1","system_id":"levelo_inurba_marseille","lat":43.25923,"lon":5.40925,"is_reserved":false,"is_disabled":false,"rental_uris":{"android":"levelo://app?vid=fe147b08-794f-4cc8-a62c-e589ca5791a1","ios":"levelo://app?vid=fe147b08-794f-4cc8-a62c-e589ca5791a1"},"vehicle_type_id":"4","last_reported":1743686412,"current_range_meters":6800,"station_id":"ce4bhm92rcd13ifvqglg","pricing_plan_id":"cebpf4jnsgd1na2vs0mg"},{"bike_id":"d3c79605-f5d1-48ff-a8ed-0411290f1105","system_id":"levelo_inurba_marseille","lat":43.30541,"lon":5.38427,"is_reserved":false,"is_disabled":true,"rental_uris":{"android":"levelo://app?vid=d3c79605-f5d1-48ff-a8ed-0411290f1105","ios":"levelo://app?vid=d3c79605-f5d1-48ff-a8ed-0411290f1105"},"vehicle_type_id":"4","last_reported":1743686412,"current_range_meters":6800,"station_id":"ce4bgg92rcd13ifvqb30","pricing_plan_id":"cebpf4jnsgd1na2vs0mg"},{"bike_id":"557cb540-1c6b-43d7-b168-aa36eccf4d99","system_id":"levelo_inurba_marseille","lat":43.2656,"lon":5.37292,"is_reserved":false,"is_disabled":false,"rental_uris":{"android":"levelo://app?vid=557cb540-1c6b-43d7-b168-aa36eccf4d99","ios":"levelo://app?vid=557cb540-1c6b-43d7-b168-aa36eccf4d99"},"vehicle_type_id":"4","last_reported":1743686412,"current_range_meters":6800,"station_id":"ce4bhg12rcd13ifvqf70","pricing_plan_id":"cebpf4jnsgd1na2vs0mg"},{"bike_id":"a018c5a1-9493-4f76-9d4a-80de73a4b404","system_id":"levelo_inurba_marseille","lat":43.26566,"lon":5.38999,"is_reserved":false,"is_disabled":false,"rental_uris":{"android":"levelo://app?vid=a018c5a1-9493-4f76-9d4a-80de73a4b404","ios":"levelo://app?vid=a018c5a1-9493-4f76-9d4a-80de73a4b404"},"vehicle_type_id":"4","last_reported":1743686412,"current_range_meters":7200,"station_id":"ce4bhe12rcd13ifvqf30","pricing_plan_id":"cebpf4jnsgd1na2vs0mg"},{"bike_id":"3b948fbe-ea54-4e7f-8a80-214f816bc66c","system_id":"levelo_inurba_marseille","lat":43.24174,"lon":5.39729,"is_reserved":false,"is_disabled":false,"rental_uris":{"android":"levelo://app?vid=3b948fbe-ea54-4e7f-8a80-214f816bc66c","ios":"levelo://app?vid=3b948fbe-ea54-4e7f-8a80-214f816bc66c"},"vehicle_type_id":"4","last_reported":1743686412,"current_range_meters":7200,"station_id":"ce4bhn12rcd13ifvqgpg","pricing_plan_id":"cebpf4jnsgd1na2vs0mg"},{"bike_id":"f1760784-c110-42da-90b6-730dd2c7c9e6","system_id":"levelo_inurba_marseille","lat":43.32484,"lon":5.36551,"is_reserved":false,"is_disabled":false,"rental_uris":{"android":"levelo://app?vid=f1760784-c110-42da-90b6-730dd2c7c9e6","ios":"levelo://app?vid=f1760784-c110-42da-90b6-730dd2c7c9e6"},"vehicle_type_id":"4","last_reported":1743686412,"current_range_meters":7200,"station_id":"ce4bhs12rcd13ifvqhvg","pricing_plan_id":"cebpf4jnsgd1na2vs0mg"},{"bike_id":"d55e5eb4-d8f3-4db7-909f-246faeb61fc9","system_id":"levelo_inurba_marseille","lat":43.273933,"lon":5.42377,"is_reserved":false,"is_disabled":false,"rental_uris":{"android":"levelo://app?vid=d55e5eb4-d8f3-4db7-909f-246faeb61fc9","ios":"levelo://app?vid=d55e5eb4-d8f3-4db7-909f-246faeb61fc9"},"vehicle_type_id":"4","last_reported":1743686412,"current_range_meters":7200,"station_id":"","pricing_plan_id":"cebpf4jnsgd1na2vs0mg"},{"bike_id":"c8c097cc-00f2-49a0-9238-138b03cf8284","system_id":"levelo_inurba_marseille","lat":43.23145,"lon":5.43711,"is_reserved":false,"is_disabled":false,"rental_uris":{"android":"levelo://app?vid=c8c097cc-00f2-49a0-9238-138b03cf8284","ios":"levelo://app?vid=c8c097cc-00f2-49a0-9238-138b03cf8284"},"vehicle_type_id":"4","last_reported":1743686412,"current_range_meters":7200,"station_id":"ce4bhmp2rcd13ifvqgog","pricing_plan_id":"cebpf4jnsgd1na2vs0mg"},{"bike_id":"8f611ba8-7812-4db2-9f22-5fa67057abba","system_id":"levelo_inurba_marseille","lat":43.27689,"lon":5.38867,"is_reserved":false,"is_disabled":false,"rental_uris":{"android":"levelo://app?vid=8f611ba8-7812-4db2-9f22-5fa67057abba","ios":"levelo://app?vid=8f611ba8-7812-4db2-9f22-5fa67057abba"},"vehicle_type_id":"4","last_reported":1743686412,"current_range_meters":6800,"station_id":"ce4bhi12rcd13ifvqfo0","pricing_plan_id":"cebpf4jnsgd1na2vs0mg"},{"bike_id":"52236e7f-598f-46a0-bc68-1ba5353f4299","system_id":"levelo_inurba_marseille","lat":43.29794,"lon":5.37098,"is_reserved":false,"is_disabled":false,"rental_uris":{"android":"levelo://app?vid=52236e7f-598f-46a0-bc68-1ba5353f4299","ios":"levelo://app?vid=52236e7f-598f-46a0-bc68-1ba5353f4299"},"vehicle_type_id":"4","last_reported":1743686412,"current_range_meters":7200,"station_id":"ce4bgop2rcd13ifvqc1g","pricing_plan_id":"cebpf4jnsgd1na2vs0mg"},{"bike_id":"546380d0-0813-4737-817f-a21e056e8d2e","system_id":"levelo_inurba_marseille","lat":43.32363,"lon":5.36772,"is_reserved":false,"is_disabled":false,"rental_uris":{"android":"levelo://app?vid=546380d0-0813-4737-817f-a21e056e8d2e","ios":"levelo://app?vid=546380d0-0813-4737-817f-a21e056e8d2e"},"vehicle_type_id":"4","last_reported":1743686412,"current_range_meters":7200,"station_id":"ce4bhsh2rcd13ifvqi2g","pricing_plan_id":"cebpf4jnsgd1na2vs0mg"},{"bike_id":"2e1d0491-8046-4a1c-910c-6d230f4ca468","system_id":"levelo_inurba_marseille","lat":43.30675,"lon":5.37359,"is_reserved":false,"is_disabled":false,"rental_uris":{"android":"levelo://app?vid=2e1d0491-8046-4a1c-910c-6d230f4ca468","ios":"levelo://app?vid=2e1d0491-8046-4a1c-910c-6d230f4ca468"},"vehicle_type_id":"4","last_reported":1743686412,"current_range_meters":7200,"station_id":"","pricing_plan_id":"cebpf4jnsgd1na2vs0mg"},{"bike_id":"9757ee6c-efcc-4257-8d7e-6ce39e5f7f90","system_id":"levelo_inurba_marseille","lat":43.31122,"lon":5.37759,"is_reserved":false,"is_disabled":false,"rental_uris":{"android":"levelo://app?vid=9757ee6c-efcc-4257-8d7e-6ce39e5f7f90","ios":"levelo://app?vid=9757ee6c-efcc-4257-8d7e-6ce39e5f7f90"},"vehicle_type_id":"4","last_reported":1743686412,"current_range_meters":8000,"station_id":"ce4bgt92rcd13ifvqcg0","pricing_plan_id":"cebpf4jnsgd1na2vs0mg"},{"bike_id":"78d6b7cd-ac07-453b-bc94-98692716d8c6","system_id":"levelo_inurba_marseille","lat":43.231869,"lon":5.35555,"is_reserved":false,"is_disabled":false,"rental_uris":{"android":"levelo://app?vid=78d6b7cd-ac07-453b-bc94-98692716d8c6","ios":"levelo://app?vid=78d6b7cd-ac07-453b-bc94-98692716d8c6"},"vehicle_type_id":"4","last_reported":1743686412,"current_range_meters":8000,"station_id":"ce4bhu92rcd13ifvqi70","pricing_plan_id":"cebpf4jnsgd1na2vs0mg"},{"bike_id":"ecac53c7-1761-431e-93a5-c1352259aa2f","system_id":"levelo_inurba_marseille","lat":43.28952,"lon":5.46531,"is_reserved":false,"is_disabled":false,"rental_uris":{"android":"levelo://app?vid=ecac53c7-1761-431e-93a5-c1352259aa2f","ios":"levelo://app?vid=ecac53c7-1761-431e-93a5-c1352259aa2f"},"vehicle_type_id":"4","last_reported":1743686412,"current_range_meters":8000,"station_id":"","pricing_plan_id":"cebpf4jnsgd1na2vs0mg"},{"bike_id":"3945780b-3464-4b52-8543-cf05282ae10d","system_id":"levelo_inurba_marseille","lat":43.31232,"lon":5.36871,"is_reserved":false,"is_disabled":false,"rental_uris":{"android":"levelo://app?vid=3945780b-3464-4b52-8543-cf05282ae10d","ios":"levelo://app?vid=3945780b-3464-4b52-8543-cf05282ae10d"},"vehicle_type_id":"4","last_reported":1743686412,"current_range_meters":8000,"station_id":"ce4bgl92rcd13ifvqbq0","pricing_plan_id":"cebpf4jnsgd1na2vs0mg"},{"bike_id":"15dad4cd-33fe-4a8a-a1a6-a69612d93350","system_id":"levelo_inurba_marseille","lat":43.24653,"lon":5.38897,"is_reserved":false,"is_disabled":false,"rental_uris":{"android":"levelo://app?vid=15dad4cd-33fe-4a8a-a1a6-a69612d93350","ios":"levelo://app?vid=15dad4cd-33fe-4a8a-a1a6-a69612d93350"},"vehicle_type_id":"4","last_reported":1743686412,"current_range_meters":7200,"station_id":"ce4bhg12rcd13ifvqf60","pricing_plan_id":"cebpf4jnsgd1na2vs0mg"},{"bike_id":"32a978e0-d0c2-43d4-9b03-19a5c41c27de","system_id":"levelo_inurba_marseille","lat":43.31073,"lon":5.38347,"is_reserved":false,"is_disabled":true,"rental_uris":{"android":"levelo://app?vid=32a978e0-d0c2-43d4-9b03-19a5c41c27de","ios":"levelo://app?vid=32a978e0-d0c2-43d4-9b03-19a5c41c27de"},"vehicle_type_id":"4","last_reported":1743686412,"current_range_meters":8000,"station_id":"ce4bgv92rcd13ifvqcr0","pricing_plan_id":"cebpf4jnsgd1na2vs0mg"},{"bike_id":"bef8e331-3549-4f36-81e6-abc4e1f90545","system_id":"levelo_inurba_marseille","lat":43.24811,"lon":5.3745,"is_reserved":false,"is_disabled":false,"rental_uris":{"android":"levelo://app?vid=bef8e331-3549-4f36-81e6-abc4e1f90545","ios":"levelo://app?vid=bef8e331-3549-4f36-81e6-abc4e1f90545"},"vehicle_type_id":"4","last_reported":1743686412,"current_range_meters":7200,"station_id":"ce4bhgh2rcd13ifvqfb0","pricing_plan_id":"cebpf4jnsgd1na2vs0mg"},{"bike_id":"7ae86ad2-92db-4bf7-84c4-d980cf71d360","system_id":"levelo_inurba_marseille","lat":43.29621,"lon":5.37156,"is_reserved":false,"is_disabled":false,"rental_uris":{"android":"levelo://app?vid=7ae86ad2-92db-4bf7-84c4-d980cf71d360","ios":"levelo://app?vid=7ae86ad2-92db-4bf7-84c4-d980cf71d360"},"vehicle_type_id":"4","last_reported":1743686412,"current_range_meters":8000,"station_id":"ce4bgnh2rcd13ifvqc0g","pricing_plan_id":"cebpf4jnsgd1na2vs0mg"},{"bike_id":"7d2e6685-306b-49ef-b0c1-d858bde17c05","system_id":"levelo_inurba_marseille","lat":43.28848,"lon":5.39324,"is_reserved":false,"is_disabled":false,"rental_uris":{"android":"levelo://app?vid=7d2e6685-306b-49ef-b0c1-d858bde17c05","ios":"levelo://app?vid=7d2e6685-306b-49ef-b0c1-d858bde17c05"},"vehicle_type_id":"4","last_reported":1743686412,"current_range_meters":7200,"station_id":"ce4bh2p2rcd13ifvqdi0","pricing_plan_id":"cebpf4jnsgd1na2vs0mg"},{"bike_id":"4b3fde0a-6e7b-46df-a1a8-2b3adab8050c","system_id":"levelo_inurba_marseille","lat":43.28616,"lon":5.35118,"is_reserved":false,"is_disabled":false,"rental_uris":{"android":"levelo://app?vid=4b3fde0a-6e7b-46df-a1a8-2b3adab8050c","ios":"levelo://app?vid=4b3fde0a-6e7b-46df-a1a8-2b3adab8050c"},"vehicle_type_id":"4","last_reported":1743686412,"current_range_meters":8000,"station_id":"ce4bhch2rcd13ifvqeug","pricing_plan_id":"cebpf4jnsgd1na2vs0mg"},{"bike_id":"eb57c575-1ed3-4f2b-a992-f05740f947c7","system_id":"levelo_inurba_marseille","lat":43.32344,"lon":5.40615,"is_reserved":false,"is_disabled":false,"rental_uris":{"android":"levelo://app?vid=eb57c575-1ed3-4f2b-a992-f05740f947c7","ios":"levelo://app?vid=eb57c575-1ed3-4f2b-a992-f05740f947c7"},"vehicle_type_id":"4","last_reported":1743686412,"current_range_meters":8000,"station_id":"ce4bhq92rcd13ifvqhjg","pricing_plan_id":"cebpf4jnsgd1na2vs0mg"},{"bike_id":"0c15f1cd-b230-45ce-84f4-8f6170d4bf71","system_id":"levelo_inurba_marseille","lat":43.27497,"lon":5.424505,"is_reserved":false,"is_disabled":false,"rental_uris":{"android":"levelo://app?vid=0c15f1cd-b230-45ce-84f4-8f6170d4bf71","ios":"levelo://app?vid=0c15f1cd-b230-45ce-84f4-8f6170d4bf71"},"vehicle_type_id":"4","last_reported":1743686412,"current_range_meters":8000,"station_id":"ce4bhn92rcd13ifvqgrg","pricing_plan_id":"cebpf4jnsgd1na2vs0mg"},{"bike_id":"75dae32f-059a-4b5b-a5e8-963c6eda2f66","system_id":"levelo_inurba_marseille","lat":43.27516,"lon":5.41029,"is_reserved":false,"is_disabled":false,"rental_uris":{"android":"levelo://app?vid=75dae32f-059a-4b5b-a5e8-963c6eda2f66","ios":"levelo://app?vid=75dae32f-059a-4b5b-a5e8-963c6eda2f66"},"vehicle_type_id":"4","last_reported":1743686412,"current_range_meters":8000,"station_id":"","pricing_plan_id":"cebpf4jnsgd1na2vs0mg"},{"bike_id":"e10c64b6-2aa5-4b89-a4f7-cd852b20e1d7","system_id":"levelo_inurba_marseille","lat":43.26559,"lon":5.37281,"is_reserved":false,"is_disabled":false,"rental_uris":{"android":"levelo://app?vid=e10c64b6-2aa5-4b89-a4f7-cd852b20e1d7","ios":"levelo://app?vid=e10c64b6-2aa5-4b89-a4f7-cd852b20e1d7"},"vehicle_type_id":"4","last_reported":1743686412,"current_range_meters":8000,"station_id":"ce4bhg12rcd13ifvqf70","pricing_plan_id":"cebpf4jnsgd1na2vs0mg"},{"bike_id":"fbe13428-14ca-4e07-8835-ec0f9593f729","system_id":"levelo_inurba_marseille","lat":43.26687,"lon":5.3829,"is_reserved":false,"is_disabled":false,"rental_uris":{"android":"levelo://app?vid=fbe13428-14ca-4e07-8835-ec0f9593f729","ios":"levelo://app?vid=fbe13428-14ca-4e07-8835-ec0f9593f729"},"vehicle_type_id":"4","last_reported":1743686412,"current_range_meters":8400,"station_id":"ce4bhg92rcd13ifvqf90","pricing_plan_id":"cebpf4jnsgd1na2vs0mg"},{"bike_id":"3374421a-949f-40b6-870f-59a2d8ba0de4","system_id":"levelo_inurba_marseille","lat":43.24162,"lon":5.36416,"is_reserved":false,"is_disabled":false,"rental_uris":{"android":"levelo://app?vid=3374421a-949f-40b6-870f-59a2d8ba0de4","ios":"levelo://app?vid=3374421a-949f-40b6-870f-59a2d8ba0de4"},"vehicle_type_id":"4","last_reported":1743686412,"current_range_meters":8400,"station_id":"cpo36qri1sfpv3e86is0","pricing_plan_id":"cebpf4jnsgd1na2vs0mg"},{"bike_id":"c2e6881a-04a3-4a38-9cc0-75cacf165e78","system_id":"levelo_inurba_marseille","lat":43.28832,"lon":5.364645,"is_reserved":false,"is_disabled":false,"rental_uris":{"android":"levelo://app?vid=c2e6881a-04a3-4a38-9cc0-75cacf165e78","ios":"levelo://app?vid=c2e6881a-04a3-4a38-9cc0-75cacf165e78"},"vehicle_type_id":"4","last_reported":1743686412,"current_range_meters":8400,"station_id":"","pricing_plan_id":"cebpf4jnsgd1na2vs0mg"},{"bike_id":"75698c8a-115f-44be-905b-fe8fb1ec3256","system_id":"levelo_inurba_marseille","lat":43.30141,"lon":5.38765,"is_reserved":false,"is_disabled":false,"rental_uris":{"android":"levelo://app?vid=75698c8a-115f-44be-905b-fe8fb1ec3256","ios":"levelo://app?vid=75698c8a-115f-44be-905b-fe8fb1ec3256"},"vehicle_type_id":"4","last_reported":1743686412,"current_range_meters":8400,"station_id":"ce4bghh2rcd13ifvqb60","pricing_plan_id":"cebpf4jnsgd1na2vs0mg"},{"bike_id":"b5fa61b4-55c0-4d0f-b518-f0583e71aca3","system_id":"levelo_inurba_marseille","lat":43.2294,"lon":5.35345,"is_reserved":false,"is_disabled":false,"rental_uris":{"android":"levelo://app?vid=b5fa61b4-55c0-4d0f-b518-f0583e71aca3","ios":"levelo://app?vid=b5fa61b4-55c0-4d0f-b518-f0583e71aca3"},"vehicle_type_id":"4","last_reported":1743686412,"current_range_meters":8400,"station_id":"cpo3532slgdg3j2ikp40","pricing_plan_id":"cebpf4jnsgd1na2vs0mg"},{"bike_id":"f48e3712-a1f9-454e-a3a8-cb8da8cda512","system_id":"levelo_inurba_marseille","lat":43.265833,"lon":5.390327,"is_reserved":false,"is_disabled":false,"rental_uris":{"android":"levelo://app?vid=f48e3712-a1f9-454e-a3a8-cb8da8cda512","ios":"levelo://app?vid=f48e3712-a1f9-454e-a3a8-cb8da8cda512"},"vehicle_type_id":"4","last_reported":1743686412,"current_range_meters":8400,"station_id":"ce4bhe12rcd13ifvqf30","pricing_plan_id":"cebpf4jnsgd1na2vs0mg"},{"bike_id":"3d73cb21-6a50-4000-a400-96628ddbeecf","system_id":"levelo_inurba_marseille","lat":43.29799,"lon":5.38094,"is_reserved":false,"is_disabled":false,"rental_uris":{"android":"levelo://app?vid=3d73cb21-6a50-4000-a400-96628ddbeecf","ios":"levelo://app?vid=3d73cb21-6a50-4000-a400-96628ddbeecf"},"vehicle_type_id":"4","last_reported":1743686412,"current_range_meters":8400,"station_id":"ce4bgip2rcd13ifvqbb0","pricing_plan_id":"cebpf4jnsgd1na2vs0mg"},{"bike_id":"6b901243-5970-4d41-950d-b84f98e2f80e","system_id":"levelo_inurba_marseille","lat":43.292558,"lon":5.376217,"is_reserved":false,"is_disabled":false,"rental_uris":{"android":"levelo://app?vid=6b901243-5970-4d41-950d-b84f98e2f80e","ios":"levelo://app?vid=6b901243-5970-4d41-950d-b84f98e2f80e"},"vehicle_type_id":"4","last_reported":1743686412,"current_range_meters":8400,"station_id":"ce4bgi12rcd13ifvqb80","pricing_plan_id":"cebpf4jnsgd1na2vs0mg"},{"bike_id":"806f15f5-826d-41fe-94bf-7198bfd375b1","system_id":"levelo_inurba_marseille","lat":43.23148,"lon":5.43718,"is_reserved":false,"is_disabled":false,"rental_uris":{"android":"levelo://app?vid=806f15f5-826d-41fe-94bf-7198bfd375b1","ios":"levelo://app?vid=806f15f5-826d-41fe-94bf-7198bfd375b1"},"vehicle_type_id":"4","last_reported":1743686412,"current_range_meters":8400,"station_id":"ce4bhmp2rcd13ifvqgog","pricing_plan_id":"cebpf4jnsgd1na2vs0mg"},{"bike_id":"4efe08bc-3ed4-4dd1-ad00-43917e8a6048","system_id":"levelo_inurba_marseille","lat":43.28084,"lon":5.37791,"is_reserved":false,"is_disabled":false,"rental_uris":{"android":"levelo://app?vid=4efe08bc-3ed4-4dd1-ad00-43917e8a6048","ios":"levelo://app?vid=4efe08bc-3ed4-4dd1-ad00-43917e8a6048"},"vehicle_type_id":"4","last_reported":1743686412,"current_range_meters":8400,"station_id":"ce4bha12rcd13ifvqee0","pricing_plan_id":"cebpf4jnsgd1na2vs0mg"},{"bike_id":"9001ba53-59b1-44e0-bcf4-e0b766d80a6e","system_id":"levelo_inurba_marseille","lat":43.265657,"lon":5.37291,"is_reserved":false,"is_disabled":false,"rental_uris":{"android":"levelo://app?vid=9001ba53-59b1-44e0-bcf4-e0b766d80a6e","ios":"levelo://app?vid=9001ba53-59b1-44e0-bcf4-e0b766d80a6e"},"vehicle_type_id":"4","last_reported":1743686412,"current_range_meters":8400,"station_id":"ce4bhg12rcd13ifvqf70","pricing_plan_id":"cebpf4jnsgd1na2vs0mg"},{"bike_id":"15ea3e20-e3c1-434f-8b50-88d1ebba3f71","system_id":"levelo_inurba_marseille","lat":43.23194,"lon":5.3557,"is_reserved":false,"is_disabled":false,"rental_uris":{"android":"levelo://app?vid=15ea3e20-e3c1-434f-8b50-88d1ebba3f71","ios":"levelo://app?vid=15ea3e20-e3c1-434f-8b50-88d1ebba3f71"},"vehicle_type_id":"4","last_reported":1743686412,"current_range_meters":8400,"station_id":"ce4bhu92rcd13ifvqi70","pricing_plan_id":"cebpf4jnsgd1na2vs0mg"},{"bike_id":"e1b03b21-5eb0-483c-b4ac-ea8a29304382","system_id":"levelo_inurba_marseille","lat":43.28463,"lon":5.359,"is_reserved":false,"is_disabled":false,"rental_uris":{"android":"levelo://app?vid=e1b03b21-5eb0-483c-b4ac-ea8a29304382","ios":"levelo://app?vid=e1b03b21-5eb0-483c-b4ac-ea8a29304382"},"vehicle_type_id":"4","last_reported":1743686412,"current_range_meters":8800,"station_id":"ce4bhah2rcd13ifvqei0","pricing_plan_id":"cebpf4jnsgd1na2vs0mg"},{"bike_id":"8bced5d8-9686-4ff7-bb63-5bff6b073512","system_id":"levelo_inurba_marseille","lat":43.25584,"lon":5.38235,"is_reserved":false,"is_disabled":false,"rental_uris":{"android":"levelo://app?vid=8bced5d8-9686-4ff7-bb63-5bff6b073512","ios":"levelo://app?vid=8bced5d8-9686-4ff7-bb63-5bff6b073512"},"vehicle_type_id":"4","last_reported":1743686412,"current_range_meters":15200,"station_id":"ce4bhih2rcd13ifvqfs0","pricing_plan_id":"cebpf4jnsgd1na2vs0mg"},{"bike_id":"ed575fc5-e6a5-41ac-947e-2a2e50c9dfff","system_id":"levelo_inurba_marseille","lat":43.292664,"lon":5.384361,"is_reserved":false,"is_disabled":false,"rental_uris":{"android":"levelo://app?vid=ed575fc5-e6a5-41ac-947e-2a2e50c9dfff","ios":"levelo://app?vid=ed575fc5-e6a5-41ac-947e-2a2e50c9dfff"},"vehicle_type_id":"4","last_reported":1743686412,"current_range_meters":8800,"station_id":"ce4bh692rcd13ifvqea0","pricing_plan_id":"cebpf4jnsgd1na2vs0mg"},{"bike_id":"61da1036-90fb-4e6f-ad89-ef7fc71db220","system_id":"levelo_inurba_marseille","lat":43.26557,"lon":5.37286,"is_reserved":false,"is_disabled":false,"rental_uris":{"android":"levelo://app?vid=61da1036-90fb-4e6f-ad89-ef7fc71db220","ios":"levelo://app?vid=61da1036-90fb-4e6f-ad89-ef7fc71db220"},"vehicle_type_id":"4","last_reported":1743686412,"current_range_meters":8800,"station_id":"ce4bhg12rcd13ifvqf70","pricing_plan_id":"cebpf4jnsgd1na2vs0mg"},{"bike_id":"679d741e-96b8-4f6b-b24c-fb38dc7ac00a","system_id":"levelo_inurba_marseille","lat":43.2794,"lon":5.3873,"is_reserved":false,"is_disabled":false,"rental_uris":{"android":"levelo://app?vid=679d741e-96b8-4f6b-b24c-fb38dc7ac00a","ios":"levelo://app?vid=679d741e-96b8-4f6b-b24c-fb38dc7ac00a"},"vehicle_type_id":"4","last_reported":1743686412,"current_range_meters":8800,"station_id":"ce4bhg12rcd13ifvqf80","pricing_plan_id":"cebpf4jnsgd1na2vs0mg"},{"bike_id":"c9494fbf-7cdd-4618-a59b-c5a096c31d65","system_id":"levelo_inurba_marseille","lat":43.2906,"lon":5.37168,"is_reserved":false,"is_disabled":false,"rental_uris":{"android":"levelo://app?vid=c9494fbf-7cdd-4618-a59b-c5a096c31d65","ios":"levelo://app?vid=c9494fbf-7cdd-4618-a59b-c5a096c31d65"},"vehicle_type_id":"4","last_reported":1743686412,"current_range_meters":8400,"station_id":"ce4bh5p2rcd13ifvqe4g","pricing_plan_id":"cebpf4jnsgd1na2vs0mg"},{"bike_id":"fbc45515-600f-451c-9baf-d636f9cafd47","system_id":"levelo_inurba_marseille","lat":43.28486,"lon":5.38535,"is_reserved":false,"is_disabled":false,"rental_uris":{"android":"levelo://app?vid=fbc45515-600f-451c-9baf-d636f9cafd47","ios":"levelo://app?vid=fbc45515-600f-451c-9baf-d636f9cafd47"},"vehicle_type_id":"4","last_reported":1743686412,"current_range_meters":8400,"station_id":"ce4bh8p2rcd13ifvqeb0","pricing_plan_id":"cebpf4jnsgd1na2vs0mg"},{"bike_id":"4a8d215f-728c-4424-bfbf-5faa62888e2d","system_id":"levelo_inurba_marseille","lat":43.295101,"lon":5.394076,"is_reserved":false,"is_disabled":true,"rental_uris":{"android":"levelo://app?vid=4a8d215f-728c-4424-bfbf-5faa62888e2d","ios":"levelo://app?vid=4a8d215f-728c-4424-bfbf-5faa62888e2d"},"vehicle_type_id":"4","last_reported":1743686412,"current_range_meters":8800,"station_id":"ce4bh292rcd13ifvqdf0","pricing_plan_id":"cebpf4jnsgd1na2vs0mg"},{"bike_id":"5ca485bb-481f-4015-9aa9-0277a5a252a5","system_id":"levelo_inurba_marseille","lat":43.32468,"lon":5.36572,"is_reserved":false,"is_disabled":false,"rental_uris":{"android":"levelo://app?vid=5ca485bb-481f-4015-9aa9-0277a5a252a5","ios":"levelo://app?vid=5ca485bb-481f-4015-9aa9-0277a5a252a5"},"vehicle_type_id":"4","last_reported":1743686412,"current_range_meters":9200,"station_id":"ce4bhs12rcd13ifvqhvg","pricing_plan_id":"cebpf4jnsgd1na2vs0mg"},{"bike_id":"cd83c8ac-ed09-4369-9279-b6f36f2bbd3c","system_id":"levelo_inurba_marseille","lat":43.30802,"lon":5.38248,"is_reserved":false,"is_disabled":false,"rental_uris":{"android":"levelo://app?vid=cd83c8ac-ed09-4369-9279-b6f36f2bbd3c","ios":"levelo://app?vid=cd83c8ac-ed09-4369-9279-b6f36f2bbd3c"},"vehicle_type_id":"4","last_reported":1743686412,"current_range_meters":9200,"station_id":"","pricing_plan_id":"cebpf4jnsgd1na2vs0mg"},{"bike_id":"8a169090-dd81-4734-8645-39197e0ac108","system_id":"levelo_inurba_marseille","lat":43.30132,"lon":5.38777,"is_reserved":false,"is_disabled":false,"rental_uris":{"android":"levelo://app?vid=8a169090-dd81-4734-8645-39197e0ac108","ios":"levelo://app?vid=8a169090-dd81-4734-8645-39197e0ac108"},"vehicle_type_id":"4","last_reported":1743686412,"current_range_meters":9200,"station_id":"ce4bghh2rcd13ifvqb60","pricing_plan_id":"cebpf4jnsgd1na2vs0mg"},{"bike_id":"b582af56-0bd0-419a-9e3a-5a6495f9bc4b","system_id":"levelo_inurba_marseille","lat":43.299652,"lon":5.38497,"is_reserved":false,"is_disabled":false,"rental_uris":{"android":"levelo://app?vid=b582af56-0bd0-419a-9e3a-5a6495f9bc4b","ios":"levelo://app?vid=b582af56-0bd0-419a-9e3a-5a6495f9bc4b"},"vehicle_type_id":"4","last_reported":1743686412,"current_range_meters":9200,"station_id":"ce4bgj92rcd13ifvqbd0","pricing_plan_id":"cebpf4jnsgd1na2vs0mg"},{"bike_id":"0882c3dc-4bea-466d-a8bb-9b25c7216c2f","system_id":"levelo_inurba_marseille","lat":43.30537,"lon":5.36566,"is_reserved":false,"is_disabled":false,"rental_uris":{"android":"levelo://app?vid=0882c3dc-4bea-466d-a8bb-9b25c7216c2f","ios":"levelo://app?vid=0882c3dc-4bea-466d-a8bb-9b25c7216c2f"},"vehicle_type_id":"4","last_reported":1743686412,"current_range_meters":9200,"station_id":"ce4bgs12rcd13ifvqcag","pricing_plan_id":"cebpf4jnsgd1na2vs0mg"},{"bike_id":"7d49898d-4c6e-4131-9fdb-37de62f2c79c","system_id":"levelo_inurba_marseille","lat":43.289,"lon":5.37131,"is_reserved":false,"is_disabled":false,"rental_uris":{"android":"levelo://app?vid=7d49898d-4c6e-4131-9fdb-37de62f2c79c","ios":"levelo://app?vid=7d49898d-4c6e-4131-9fdb-37de62f2c79c"},"vehicle_type_id":"4","last_reported":1743686412,"current_range_meters":9200,"station_id":"","pricing_plan_id":"cebpf4jnsgd1na2vs0mg"},{"bike_id":"58e66669-53ab-4d39-8504-5d085a462eeb","system_id":"levelo_inurba_marseille","lat":43.25938,"lon":5.40905,"is_reserved":false,"is_disabled":false,"rental_uris":{"android":"levelo://app?vid=58e66669-53ab-4d39-8504-5d085a462eeb","ios":"levelo://app?vid=58e66669-53ab-4d39-8504-5d085a462eeb"},"vehicle_type_id":"4","last_reported":1743686412,"current_range_meters":9200,"station_id":"ce4bhm92rcd13ifvqglg","pricing_plan_id":"cebpf4jnsgd1na2vs0mg"},{"bike_id":"18a9d8f6-95fb-45e4-b66e-20f545cc6c15","system_id":"levelo_inurba_marseille","lat":43.30541,"lon":5.36707,"is_reserved":false,"is_disabled":false,"rental_uris":{"android":"levelo://app?vid=18a9d8f6-95fb-45e4-b66e-20f545cc6c15","ios":"levelo://app?vid=18a9d8f6-95fb-45e4-b66e-20f545cc6c15"},"vehicle_type_id":"4","last_reported":1743686412,"current_range_meters":9200,"station_id":"ce4bgrp2rcd13ifvqc9g","pricing_plan_id":"cebpf4jnsgd1na2vs0mg"},{"bike_id":"c461a114-9207-49e6-a84f-b7367626da5f","system_id":"levelo_inurba_marseille","lat":43.29269,"lon":5.38454,"is_reserved":false,"is_disabled":false,"rental_uris":{"android":"levelo://app?vid=c461a114-9207-49e6-a84f-b7367626da5f","ios":"levelo://app?vid=c461a114-9207-49e6-a84f-b7367626da5f"},"vehicle_type_id":"4","last_reported":1743686412,"current_range_meters":9600,"station_id":"ce4bh692rcd13ifvqea0","pricing_plan_id":"cebpf4jnsgd1na2vs0mg"},{"bike_id":"2a582391-da1a-4497-a539-b5cc3a712450","system_id":"levelo_inurba_marseille","lat":43.27213,"lon":5.39175,"is_reserved":false,"is_disabled":false,"rental_uris":{"android":"levelo://app?vid=2a582391-da1a-4497-a539-b5cc3a712450","ios":"levelo://app?vid=2a582391-da1a-4497-a539-b5cc3a712450"},"vehicle_type_id":"4","last_reported":1743686412,"current_range_meters":9600,"station_id":"ce4bhhp2rcd13ifvqfm0","pricing_plan_id":"cebpf4jnsgd1na2vs0mg"},{"bike_id":"6b04b6c2-6bd5-4038-ac04-8cb37928e09c","system_id":"levelo_inurba_marseille","lat":43.30327,"lon":5.40441,"is_reserved":false,"is_disabled":false,"rental_uris":{"android":"levelo://app?vid=6b04b6c2-6bd5-4038-ac04-8cb37928e09c","ios":"levelo://app?vid=6b04b6c2-6bd5-4038-ac04-8cb37928e09c"},"vehicle_type_id":"4","last_reported":1743686412,"current_range_meters":9600,"station_id":"ce4bh012rcd13ifvqd10","pricing_plan_id":"cebpf4jnsgd1na2vs0mg"},{"bike_id":"353c3092-d698-44f4-b096-a14786a4eb7a","system_id":"levelo_inurba_marseille","lat":43.30462,"lon":5.37903,"is_reserved":false,"is_disabled":false,"rental_uris":{"android":"levelo://app?vid=353c3092-d698-44f4-b096-a14786a4eb7a","ios":"levelo://app?vid=353c3092-d698-44f4-b096-a14786a4eb7a"},"vehicle_type_id":"4","last_reported":1743686412,"current_range_meters":9600,"station_id":"ce4bgup2rcd13ifvqcn0","pricing_plan_id":"cebpf4jnsgd1na2vs0mg"},{"bike_id":"49837274-bdb4-4061-b93a-2ec4d7cb9b80","system_id":"levelo_inurba_marseille","lat":43.28468,"lon":5.38413,"is_reserved":false,"is_disabled":false,"rental_uris":{"android":"levelo://app?vid=49837274-bdb4-4061-b93a-2ec4d7cb9b80","ios":"levelo://app?vid=49837274-bdb4-4061-b93a-2ec4d7cb9b80"},"vehicle_type_id":"4","last_reported":1743686412,"current_range_meters":10000,"station_id":"ce4bh512rcd13ifvqe3g","pricing_plan_id":"cebpf4jnsgd1na2vs0mg"},{"bike_id":"eae1c1f9-7db0-41d8-acdc-37132416b428","system_id":"levelo_inurba_marseille","lat":43.27432,"lon":5.39398,"is_reserved":false,"is_disabled":false,"rental_uris":{"android":"levelo://app?vid=eae1c1f9-7db0-41d8-acdc-37132416b428","ios":"levelo://app?vid=eae1c1f9-7db0-41d8-acdc-37132416b428"},"vehicle_type_id":"4","last_reported":1743686412,"current_range_meters":9600,"station_id":"ce4bhdp2rcd13ifvqf20","pricing_plan_id":"cebpf4jnsgd1na2vs0mg"},{"bike_id":"87ebaa08-417c-4e4c-9c6c-0870e96c7115","system_id":"levelo_inurba_marseille","lat":43.25004,"lon":5.38932,"is_reserved":false,"is_disabled":false,"rental_uris":{"android":"levelo://app?vid=87ebaa08-417c-4e4c-9c6c-0870e96c7115","ios":"levelo://app?vid=87ebaa08-417c-4e4c-9c6c-0870e96c7115"},"vehicle_type_id":"4","last_reported":1743686412,"current_range_meters":9600,"station_id":"ce4bhgp2rcd13ifvqfd0","pricing_plan_id":"cebpf4jnsgd1na2vs0mg"},{"bike_id":"74157fd8-0597-409e-9f68-969f3d916f32","system_id":"levelo_inurba_marseille","lat":43.25583,"lon":5.38252,"is_reserved":false,"is_disabled":false,"rental_uris":{"android":"levelo://app?vid=74157fd8-0597-409e-9f68-969f3d916f32","ios":"levelo://app?vid=74157fd8-0597-409e-9f68-969f3d916f32"},"vehicle_type_id":"4","last_reported":1743686412,"current_range_meters":9600,"station_id":"ce4bhih2rcd13ifvqfs0","pricing_plan_id":"cebpf4jnsgd1na2vs0mg"},{"bike_id":"6c51a2a4-1207-41d6-8962-c4f070bd2bd2","system_id":"levelo_inurba_marseille","lat":43.2706,"lon":5.42259,"is_reserved":false,"is_disabled":false,"rental_uris":{"android":"levelo://app?vid=6c51a2a4-1207-41d6-8962-c4f070bd2bd2","ios":"levelo://app?vid=6c51a2a4-1207-41d6-8962-c4f070bd2bd2"},"vehicle_type_id":"4","last_reported":1743686412,"current_range_meters":9600,"station_id":"ce4bhk92rcd13ifvqgb0","pricing_plan_id":"cebpf4jnsgd1na2vs0mg"},{"bike_id":"73d854ad-9eb6-4d68-8878-e9b2295ae65a","system_id":"levelo_inurba_marseille","lat":43.23071,"lon":5.35501,"is_reserved":false,"is_disabled":false,"rental_uris":{"android":"levelo://app?vid=73d854ad-9eb6-4d68-8878-e9b2295ae65a","ios":"levelo://app?vid=73d854ad-9eb6-4d68-8878-e9b2295ae65a"},"vehicle_type_id":"4","last_reported":1743686412,"current_range_meters":10000,"station_id":"cpo3342slgdg3j2ifvpg","pricing_plan_id":"cebpf4jnsgd1na2vs0mg"},{"bike_id":"9a01609b-5c8b-499f-9feb-521c7bd78f99","system_id":"levelo_inurba_marseille","lat":43.29278,"lon":5.40136,"is_reserved":false,"is_disabled":false,"rental_uris":{"android":"levelo://app?vid=9a01609b-5c8b-499f-9feb-521c7bd78f99","ios":"levelo://app?vid=9a01609b-5c8b-499f-9feb-521c7bd78f99"},"vehicle_type_id":"4","last_reported":1743686412,"current_range_meters":10000,"station_id":"ce4bh312rcd13ifvqdk0","pricing_plan_id":"cebpf4jnsgd1na2vs0mg"},{"bike_id":"e82d3ee0-1d60-4058-a155-6a7d5ea8d517","system_id":"levelo_inurba_marseille","lat":43.30214,"lon":5.39459,"is_reserved":false,"is_disabled":false,"rental_uris":{"android":"levelo://app?vid=e82d3ee0-1d60-4058-a155-6a7d5ea8d517","ios":"levelo://app?vid=e82d3ee0-1d60-4058-a155-6a7d5ea8d517"},"vehicle_type_id":"4","last_reported":1743686412,"current_range_meters":10000,"station_id":"ce4bh0p2rcd13ifvqd70","pricing_plan_id":"cebpf4jnsgd1na2vs0mg"},{"bike_id":"6b53d01e-77c7-4299-99ae-dda20d28569d","system_id":"levelo_inurba_marseille","lat":43.27968,"lon":5.38731,"is_reserved":false,"is_disabled":false,"rental_uris":{"android":"levelo://app?vid=6b53d01e-77c7-4299-99ae-dda20d28569d","ios":"levelo://app?vid=6b53d01e-77c7-4299-99ae-dda20d28569d"},"vehicle_type_id":"4","last_reported":1743686412,"current_range_meters":10000,"station_id":"ce4bhg12rcd13ifvqf80","pricing_plan_id":"cebpf4jnsgd1na2vs0mg"},{"bike_id":"8073569a-23c7-45b8-b854-282c3d0a58a5","system_id":"levelo_inurba_marseille","lat":43.28148,"lon":5.42634,"is_reserved":false,"is_disabled":false,"rental_uris":{"android":"levelo://app?vid=8073569a-23c7-45b8-b854-282c3d0a58a5","ios":"levelo://app?vid=8073569a-23c7-45b8-b854-282c3d0a58a5"},"vehicle_type_id":"4","last_reported":1743686412,"current_range_meters":10000,"station_id":"ce4bhnh2rcd13ifvqgug","pricing_plan_id":"cebpf4jnsgd1na2vs0mg"},{"bike_id":"8084a1e5-3eb2-4a07-82e8-309719c1a80e","system_id":"levelo_inurba_marseille","lat":43.26225,"lon":5.40461,"is_reserved":false,"is_disabled":false,"rental_uris":{"android":"levelo://app?vid=8084a1e5-3eb2-4a07-82e8-309719c1a80e","ios":"levelo://app?vid=8084a1e5-3eb2-4a07-82e8-309719c1a80e"},"vehicle_type_id":"4","last_reported":1743686412,"current_range_meters":10000,"station_id":"ce4bhmh2rcd13ifvqgmg","pricing_plan_id":"cebpf4jnsgd1na2vs0mg"},{"bike_id":"2635283e-ffd4-4c1f-b9e8-1b146ac4c8cc","system_id":"levelo_inurba_marseille","lat":43.30212,"lon":5.41925,"is_reserved":false,"is_disabled":false,"rental_uris":{"android":"levelo://app?vid=2635283e-ffd4-4c1f-b9e8-1b146ac4c8cc","ios":"levelo://app?vid=2635283e-ffd4-4c1f-b9e8-1b146ac4c8cc"},"vehicle_type_id":"4","last_reported":1743686412,"current_range_meters":10000,"station_id":"","pricing_plan_id":"cebpf4jnsgd1na2vs0mg"},{"bike_id":"7b0c06c1-6086-4c80-acde-e32cbb97463e","system_id":"levelo_inurba_marseille","lat":43.31886,"lon":5.40747,"is_reserved":false,"is_disabled":false,"rental_uris":{"android":"levelo://app?vid=7b0c06c1-6086-4c80-acde-e32cbb97463e","ios":"levelo://app?vid=7b0c06c1-6086-4c80-acde-e32cbb97463e"},"vehicle_type_id":"4","last_reported":1743686412,"current_range_meters":10000,"station_id":"ce4bhq12rcd13ifvqhig","pricing_plan_id":"cebpf4jnsgd1na2vs0mg"},{"bike_id":"c1c63035-c83b-4419-8cbf-133778d95125","system_id":"levelo_inurba_marseille","lat":43.29781,"lon":5.39361,"is_reserved":false,"is_disabled":true,"rental_uris":{"android":"levelo://app?vid=c1c63035-c83b-4419-8cbf-133778d95125","ios":"levelo://app?vid=c1c63035-c83b-4419-8cbf-133778d95125"},"vehicle_type_id":"4","last_reported":1743686412,"current_range_meters":10800,"station_id":"chh1huq6cuj3fo74tm60","pricing_plan_id":"cebpf4jnsgd1na2vs0mg"},{"bike_id":"c13336a2-47ce-488c-b5b6-77c01a3ac1d1","system_id":"levelo_inurba_marseille","lat":43.319,"lon":5.40739,"is_reserved":false,"is_disabled":true,"rental_uris":{"android":"levelo://app?vid=c13336a2-47ce-488c-b5b6-77c01a3ac1d1","ios":"levelo://app?vid=c13336a2-47ce-488c-b5b6-77c01a3ac1d1"},"vehicle_type_id":"4","last_reported":1743686412,"current_range_meters":10800,"station_id":"ce4bhq12rcd13ifvqhig","pricing_plan_id":"cebpf4jnsgd1na2vs0mg"},{"bike_id":"89632a6e-df4a-479e-a710-feb11145499c","system_id":"levelo_inurba_marseille","lat":43.26557,"lon":5.373,"is_reserved":false,"is_disabled":false,"rental_uris":{"android":"levelo://app?vid=89632a6e-df4a-479e-a710-feb11145499c","ios":"levelo://app?vid=89632a6e-df4a-479e-a710-feb11145499c"},"vehicle_type_id":"4","last_reported":1743686412,"current_range_meters":10800,"station_id":"ce4bhg12rcd13ifvqf70","pricing_plan_id":"cebpf4jnsgd1na2vs0mg"},{"bike_id":"63c19073-a7de-46ed-a396-8639743b910e","system_id":"levelo_inurba_marseille","lat":43.232,"lon":5.35544,"is_reserved":false,"is_disabled":false,"rental_uris":{"android":"levelo://app?vid=63c19073-a7de-46ed-a396-8639743b910e","ios":"levelo://app?vid=63c19073-a7de-46ed-a396-8639743b910e"},"vehicle_type_id":"4","last_reported":1743686412,"current_range_meters":10800,"station_id":"ce4bhu92rcd13ifvqi70","pricing_plan_id":"cebpf4jnsgd1na2vs0mg"},{"bike_id":"70e5b39f-29e3-4ea9-aa83-5a60a8eec6f8","system_id":"levelo_inurba_marseille","lat":43.2506,"lon":5.41684,"is_reserved":false,"is_disabled":false,"rental_uris":{"android":"levelo://app?vid=70e5b39f-29e3-4ea9-aa83-5a60a8eec6f8","ios":"levelo://app?vid=70e5b39f-29e3-4ea9-aa83-5a60a8eec6f8"},"vehicle_type_id":"4","last_reported":1743686412,"current_range_meters":10800,"station_id":"","pricing_plan_id":"cebpf4jnsgd1na2vs0mg"},{"bike_id":"97896511-69ea-46eb-be23-6e4cbf1927e9","system_id":"levelo_inurba_marseille","lat":43.24071,"lon":5.37764,"is_reserved":false,"is_disabled":false,"rental_uris":{"android":"levelo://app?vid=97896511-69ea-46eb-be23-6e4cbf1927e9","ios":"levelo://app?vid=97896511-69ea-46eb-be23-6e4cbf1927e9"},"vehicle_type_id":"4","last_reported":1743686412,"current_range_meters":10800,"station_id":"ce4bhnp2rcd13ifvqgvg","pricing_plan_id":"cebpf4jnsgd1na2vs0mg"},{"bike_id":"d31085be-5bea-42f6-8067-8d77e4446086","system_id":"levelo_inurba_marseille","lat":43.31719,"lon":5.43704,"is_reserved":false,"is_disabled":false,"rental_uris":{"android":"levelo://app?vid=d31085be-5bea-42f6-8067-8d77e4446086","ios":"levelo://app?vid=d31085be-5bea-42f6-8067-8d77e4446086"},"vehicle_type_id":"4","last_reported":1743686412,"current_range_meters":10800,"station_id":"ce4bhp92rcd13ifvqhcg","pricing_plan_id":"cebpf4jnsgd1na2vs0mg"},{"bike_id":"e887e1b0-3e28-4312-9fbe-6970a3a27c4a","system_id":"levelo_inurba_marseille","lat":43.25928,"lon":5.40897,"is_reserved":false,"is_disabled":false,"rental_uris":{"android":"levelo://app?vid=e887e1b0-3e28-4312-9fbe-6970a3a27c4a","ios":"levelo://app?vid=e887e1b0-3e28-4312-9fbe-6970a3a27c4a"},"vehicle_type_id":"4","last_reported":1743686412,"current_range_meters":11200,"station_id":"ce4bhm92rcd13ifvqglg","pricing_plan_id":"cebpf4jnsgd1na2vs0mg"},{"bike_id":"85d52ac0-4bee-4257-89a0-86469614f9c1","system_id":"levelo_inurba_marseille","lat":43.28085,"lon":5.39655,"is_reserved":false,"is_disabled":false,"rental_uris":{"android":"levelo://app?vid=85d52ac0-4bee-4257-89a0-86469614f9c1","ios":"levelo://app?vid=85d52ac0-4bee-4257-89a0-86469614f9c1"},"vehicle_type_id":"4","last_reported":1743686412,"current_range_meters":11200,"station_id":"ce4bho12rcd13ifvqh2g","pricing_plan_id":"cebpf4jnsgd1na2vs0mg"},{"bike_id":"929aa6ab-d61d-4fac-9ce0-4667602e1f8f","system_id":"levelo_inurba_marseille","lat":43.33026,"lon":5.39035,"is_reserved":false,"is_disabled":false,"rental_uris":{"android":"levelo://app?vid=929aa6ab-d61d-4fac-9ce0-4667602e1f8f","ios":"levelo://app?vid=929aa6ab-d61d-4fac-9ce0-4667602e1f8f"},"vehicle_type_id":"4","last_reported":1743686412,"current_range_meters":11200,"station_id":"ce4bhr92rcd13ifvqhrg","pricing_plan_id":"cebpf4jnsgd1na2vs0mg"},{"bike_id":"0fc1eb97-bf85-46f3-a4fa-025c1ace8968","system_id":"levelo_inurba_marseille","lat":43.23961,"lon":5.36645,"is_reserved":false,"is_disabled":false,"rental_uris":{"android":"levelo://app?vid=0fc1eb97-bf85-46f3-a4fa-025c1ace8968","ios":"levelo://app?vid=0fc1eb97-bf85-46f3-a4fa-025c1ace8968"},"vehicle_type_id":"4","last_reported":1743686412,"current_range_meters":10800,"station_id":"ce4bhi12rcd13ifvqfp0","pricing_plan_id":"cebpf4jnsgd1na2vs0mg"},{"bike_id":"e3a29d38-a611-4b12-87ef-2fb8a21c41d5","system_id":"levelo_inurba_marseille","lat":43.22938,"lon":5.35384,"is_reserved":false,"is_disabled":false,"rental_uris":{"android":"levelo://app?vid=e3a29d38-a611-4b12-87ef-2fb8a21c41d5","ios":"levelo://app?vid=e3a29d38-a611-4b12-87ef-2fb8a21c41d5"},"vehicle_type_id":"4","last_reported":1743686412,"current_range_meters":11200,"station_id":"cpo3532slgdg3j2ikp40","pricing_plan_id":"cebpf4jnsgd1na2vs0mg"},{"bike_id":"3ae1c99b-5c67-48ae-a72d-6e9ab88dc302","system_id":"levelo_inurba_marseille","lat":43.26954,"lon":5.38644,"is_reserved":false,"is_disabled":false,"rental_uris":{"android":"levelo://app?vid=3ae1c99b-5c67-48ae-a72d-6e9ab88dc302","ios":"levelo://app?vid=3ae1c99b-5c67-48ae-a72d-6e9ab88dc302"},"vehicle_type_id":"4","last_reported":1743686412,"current_range_meters":11200,"station_id":"ce4bhh92rcd13ifvqfh0","pricing_plan_id":"cebpf4jnsgd1na2vs0mg"},{"bike_id":"74318912-2819-4b6b-9a19-7f4dbd5a77ca","system_id":"levelo_inurba_marseille","lat":43.30594,"lon":5.39357,"is_reserved":false,"is_disabled":false,"rental_uris":{"android":"levelo://app?vid=74318912-2819-4b6b-9a19-7f4dbd5a77ca","ios":"levelo://app?vid=74318912-2819-4b6b-9a19-7f4dbd5a77ca"},"vehicle_type_id":"4","last_reported":1743686412,"current_range_meters":11200,"station_id":"ce4bh0p2rcd13ifvqd80","pricing_plan_id":"cebpf4jnsgd1na2vs0mg"},{"bike_id":"4c368d75-6263-4f01-8e1e-15d4de7130e3","system_id":"levelo_inurba_marseille","lat":43.25003,"lon":5.38929,"is_reserved":false,"is_disabled":false,"rental_uris":{"android":"levelo://app?vid=4c368d75-6263-4f01-8e1e-15d4de7130e3","ios":"levelo://app?vid=4c368d75-6263-4f01-8e1e-15d4de7130e3"},"vehicle_type_id":"4","last_reported":1743686412,"current_range_meters":10800,"station_id":"ce4bhgp2rcd13ifvqfd0","pricing_plan_id":"cebpf4jnsgd1na2vs0mg"},{"bike_id":"03621e27-7737-4553-a20f-2f2e0e6120b9","system_id":"levelo_inurba_marseille","lat":43.26228,"lon":5.4046,"is_reserved":false,"is_disabled":false,"rental_uris":{"android":"levelo://app?vid=03621e27-7737-4553-a20f-2f2e0e6120b9","ios":"levelo://app?vid=03621e27-7737-4553-a20f-2f2e0e6120b9"},"vehicle_type_id":"4","last_reported":1743686412,"current_range_meters":11600,"station_id":"ce4bhmh2rcd13ifvqgmg","pricing_plan_id":"cebpf4jnsgd1na2vs0mg"},{"bike_id":"b8755bc2-7edf-490c-91a9-51a6e2730bf8","system_id":"levelo_inurba_marseille","lat":43.29724,"lon":5.36608,"is_reserved":false,"is_disabled":false,"rental_uris":{"android":"levelo://app?vid=b8755bc2-7edf-490c-91a9-51a6e2730bf8","ios":"levelo://app?vid=b8755bc2-7edf-490c-91a9-51a6e2730bf8"},"vehicle_type_id":"4","last_reported":1743686412,"current_range_meters":11600,"station_id":"ce4bgn12rcd13ifvqbt0","pricing_plan_id":"cebpf4jnsgd1na2vs0mg"},{"bike_id":"692f3245-71a2-4a5e-be47-09d1b72325ea","system_id":"levelo_inurba_marseille","lat":43.30536,"lon":5.36538,"is_reserved":false,"is_disabled":false,"rental_uris":{"android":"levelo://app?vid=692f3245-71a2-4a5e-be47-09d1b72325ea","ios":"levelo://app?vid=692f3245-71a2-4a5e-be47-09d1b72325ea"},"vehicle_type_id":"4","last_reported":1743686412,"current_range_meters":11600,"station_id":"ce4bgs12rcd13ifvqcag","pricing_plan_id":"cebpf4jnsgd1na2vs0mg"},{"bike_id":"efddeda7-6eb2-4c14-868d-fa0ce0b35ef3","system_id":"levelo_inurba_marseille","lat":43.31283,"lon":5.38266,"is_reserved":false,"is_disabled":false,"rental_uris":{"android":"levelo://app?vid=efddeda7-6eb2-4c14-868d-fa0ce0b35ef3","ios":"levelo://app?vid=efddeda7-6eb2-4c14-868d-fa0ce0b35ef3"},"vehicle_type_id":"4","last_reported":1743686412,"current_range_meters":11600,"station_id":"","pricing_plan_id":"cebpf4jnsgd1na2vs0mg"},{"bike_id":"c3e3b7d4-0f4e-4566-aa27-5f2213ffc559","system_id":"levelo_inurba_marseille","lat":43.27945,"lon":5.4104,"is_reserved":false,"is_disabled":false,"rental_uris":{"android":"levelo://app?vid=c3e3b7d4-0f4e-4566-aa27-5f2213ffc559","ios":"levelo://app?vid=c3e3b7d4-0f4e-4566-aa27-5f2213ffc559"},"vehicle_type_id":"4","last_reported":1743686412,"current_range_meters":11600,"station_id":"ce4bhnp2rcd13ifvqh0g","pricing_plan_id":"cebpf4jnsgd1na2vs0mg"},{"bike_id":"d70e7dea-81b8-4e2d-9c30-648be7f5af48","system_id":"levelo_inurba_marseille","lat":43.29232,"lon":5.36074,"is_reserved":false,"is_disabled":false,"rental_uris":{"android":"levelo://app?vid=d70e7dea-81b8-4e2d-9c30-648be7f5af48","ios":"levelo://app?vid=d70e7dea-81b8-4e2d-9c30-648be7f5af48"},"vehicle_type_id":"4","last_reported":1743686412,"current_range_meters":11200,"station_id":"ce4bhbh2rcd13ifvqeqg","pricing_plan_id":"cebpf4jnsgd1na2vs0mg"},{"bike_id":"ed838b43-d643-4a59-b039-fac70dd39f47","system_id":"levelo_inurba_marseille","lat":43.26229,"lon":5.40456,"is_reserved":false,"is_disabled":false,"rental_uris":{"android":"levelo://app?vid=ed838b43-d643-4a59-b039-fac70dd39f47","ios":"levelo://app?vid=ed838b43-d643-4a59-b039-fac70dd39f47"},"vehicle_type_id":"4","last_reported":1743686412,"current_range_meters":11600,"station_id":"ce4bhmh2rcd13ifvqgmg","pricing_plan_id":"cebpf4jnsgd1na2vs0mg"},{"bike_id":"caf1b957-71f5-44e7-849c-22f9515c7ed6","system_id":"levelo_inurba_marseille","lat":43.24056,"lon":5.37707,"is_reserved":false,"is_disabled":false,"rental_uris":{"android":"levelo://app?vid=caf1b957-71f5-44e7-849c-22f9515c7ed6","ios":"levelo://app?vid=caf1b957-71f5-44e7-849c-22f9515c7ed6"},"vehicle_type_id":"4","last_reported":1743686412,"current_range_meters":12000,"station_id":"ce4bhnp2rcd13ifvqgvg","pricing_plan_id":"cebpf4jnsgd1na2vs0mg"},{"bike_id":"0f858709-49fe-4ee0-866f-f454b7389c9f","system_id":"levelo_inurba_marseille","lat":43.26956,"lon":5.38634,"is_reserved":false,"is_disabled":false,"rental_uris":{"android":"levelo://app?vid=0f858709-49fe-4ee0-866f-f454b7389c9f","ios":"levelo://app?vid=0f858709-49fe-4ee0-866f-f454b7389c9f"},"vehicle_type_id":"4","last_reported":1743686412,"current_range_meters":11600,"station_id":"ce4bhh92rcd13ifvqfh0","pricing_plan_id":"cebpf4jnsgd1na2vs0mg"},{"bike_id":"2c036d83-05b1-4f2d-827b-4f2e35d29d20","system_id":"levelo_inurba_marseille","lat":43.26556,"lon":5.37287,"is_reserved":false,"is_disabled":false,"rental_uris":{"android":"levelo://app?vid=2c036d83-05b1-4f2d-827b-4f2e35d29d20","ios":"levelo://app?vid=2c036d83-05b1-4f2d-827b-4f2e35d29d20"},"vehicle_type_id":"4","last_reported":1743686412,"current_range_meters":12000,"station_id":"ce4bhg12rcd13ifvqf70","pricing_plan_id":"cebpf4jnsgd1na2vs0mg"},{"bike_id":"51b3797b-1c8b-4ea1-97d8-446b7df6b963","system_id":"levelo_inurba_marseille","lat":43.298238,"lon":5.382843,"is_reserved":false,"is_disabled":false,"rental_uris":{"android":"levelo://app?vid=51b3797b-1c8b-4ea1-97d8-446b7df6b963","ios":"levelo://app?vid=51b3797b-1c8b-4ea1-97d8-446b7df6b963"},"vehicle_type_id":"4","last_reported":1743686412,"current_range_meters":12000,"station_id":"ce4bgj92rcd13ifvqbd0","pricing_plan_id":"cebpf4jnsgd1na2vs0mg"},{"bike_id":"940d0471-9ca0-417f-a188-0ca323d0dd2d","system_id":"levelo_inurba_marseille","lat":43.28414,"lon":5.34987,"is_reserved":false,"is_disabled":false,"rental_uris":{"android":"levelo://app?vid=940d0471-9ca0-417f-a188-0ca323d0dd2d","ios":"levelo://app?vid=940d0471-9ca0-417f-a188-0ca323d0dd2d"},"vehicle_type_id":"4","last_reported":1743686412,"current_range_meters":12000,"station_id":"ce4bhbh2rcd13ifvqepg","pricing_plan_id":"cebpf4jnsgd1na2vs0mg"},{"bike_id":"493f4c79-38d2-4be9-a979-a474321b8ece","system_id":"levelo_inurba_marseille","lat":43.29252,"lon":5.3763,"is_reserved":false,"is_disabled":false,"rental_uris":{"android":"levelo://app?vid=493f4c79-38d2-4be9-a979-a474321b8ece","ios":"levelo://app?vid=493f4c79-38d2-4be9-a979-a474321b8ece"},"vehicle_type_id":"4","last_reported":1743686412,"current_range_meters":12000,"station_id":"ce4bgi12rcd13ifvqb80","pricing_plan_id":"cebpf4jnsgd1na2vs0mg"},{"bike_id":"c6544980-1e17-4054-9fa5-ef3391dbce24","system_id":"levelo_inurba_marseille","lat":43.29973,"lon":5.37185,"is_reserved":false,"is_disabled":false,"rental_uris":{"android":"levelo://app?vid=c6544980-1e17-4054-9fa5-ef3391dbce24","ios":"levelo://app?vid=c6544980-1e17-4054-9fa5-ef3391dbce24"},"vehicle_type_id":"4","last_reported":1743686412,"current_range_meters":12000,"station_id":"ce4bgr92rcd13ifvqc7g","pricing_plan_id":"cebpf4jnsgd1na2vs0mg"},{"bike_id":"276e5959-8a6d-4206-9da2-b4034630cc74","system_id":"levelo_inurba_marseille","lat":43.27435,"lon":5.3943,"is_reserved":false,"is_disabled":false,"rental_uris":{"android":"levelo://app?vid=276e5959-8a6d-4206-9da2-b4034630cc74","ios":"levelo://app?vid=276e5959-8a6d-4206-9da2-b4034630cc74"},"vehicle_type_id":"4","last_reported":1743686412,"current_range_meters":12000,"station_id":"ce4bhdp2rcd13ifvqf20","pricing_plan_id":"cebpf4jnsgd1na2vs0mg"},{"bike_id":"8e4581a0-ac48-45f0-8881-72e126b8df71","system_id":"levelo_inurba_marseille","lat":43.31235,"lon":5.36857,"is_reserved":false,"is_disabled":false,"rental_uris":{"android":"levelo://app?vid=8e4581a0-ac48-45f0-8881-72e126b8df71","ios":"levelo://app?vid=8e4581a0-ac48-45f0-8881-72e126b8df71"},"vehicle_type_id":"4","last_reported":1743686412,"current_range_meters":12000,"station_id":"ce4bgl92rcd13ifvqbq0","pricing_plan_id":"cebpf4jnsgd1na2vs0mg"},{"bike_id":"8131976e-a19a-452d-8f81-137449755be0","system_id":"levelo_inurba_marseille","lat":43.2841,"lon":5.3502,"is_reserved":false,"is_disabled":false,"rental_uris":{"android":"levelo://app?vid=8131976e-a19a-452d-8f81-137449755be0","ios":"levelo://app?vid=8131976e-a19a-452d-8f81-137449755be0"},"vehicle_type_id":"4","last_reported":1743686412,"current_range_meters":12400,"station_id":"ce4bhbh2rcd13ifvqepg","pricing_plan_id":"cebpf4jnsgd1na2vs0mg"},{"bike_id":"88fe0602-5033-4610-b8b3-85d796ebfed7","system_id":"levelo_inurba_marseille","lat":43.26053,"lon":5.39389,"is_reserved":false,"is_disabled":false,"rental_uris":{"android":"levelo://app?vid=88fe0602-5033-4610-b8b3-85d796ebfed7","ios":"levelo://app?vid=88fe0602-5033-4610-b8b3-85d796ebfed7"},"vehicle_type_id":"4","last_reported":1743686412,"current_range_meters":12400,"station_id":"ce4bhh92rcd13ifvqfj0","pricing_plan_id":"cebpf4jnsgd1na2vs0mg"},{"bike_id":"e35bb1e3-bd5c-4799-8537-6d1bb84d0e1a","system_id":"levelo_inurba_marseille","lat":43.30212,"lon":5.39474,"is_reserved":false,"is_disabled":false,"rental_uris":{"android":"levelo://app?vid=e35bb1e3-bd5c-4799-8537-6d1bb84d0e1a","ios":"levelo://app?vid=e35bb1e3-bd5c-4799-8537-6d1bb84d0e1a"},"vehicle_type_id":"4","last_reported":1743686412,"current_range_meters":12000,"station_id":"ce4bh0p2rcd13ifvqd70","pricing_plan_id":"cebpf4jnsgd1na2vs0mg"},{"bike_id":"26bfbb98-54cd-4e2c-bbfd-3cfa1608f24e","system_id":"levelo_inurba_marseille","lat":43.28711,"lon":5.40009,"is_reserved":false,"is_disabled":false,"rental_uris":{"android":"levelo://app?vid=26bfbb98-54cd-4e2c-bbfd-3cfa1608f24e","ios":"levelo://app?vid=26bfbb98-54cd-4e2c-bbfd-3cfa1608f24e"},"vehicle_type_id":"4","last_reported":1743686412,"current_range_meters":12400,"station_id":"ce4bho92rcd13ifvqh3g","pricing_plan_id":"cebpf4jnsgd1na2vs0mg"},{"bike_id":"e7748123-e42c-423e-a37d-5a1df5da89bb","system_id":"levelo_inurba_marseille","lat":43.31484,"lon":5.37299,"is_reserved":false,"is_disabled":false,"rental_uris":{"android":"levelo://app?vid=e7748123-e42c-423e-a37d-5a1df5da89bb","ios":"levelo://app?vid=e7748123-e42c-423e-a37d-5a1df5da89bb"},"vehicle_type_id":"4","last_reported":1743686412,"current_range_meters":12400,"station_id":"ce4bgt12rcd13ifvqcd0","pricing_plan_id":"cebpf4jnsgd1na2vs0mg"},{"bike_id":"301156b7-e9e2-4fbc-88ce-e2edf0d34844","system_id":"levelo_inurba_marseille","lat":43.29018,"lon":5.38107,"is_reserved":false,"is_disabled":true,"rental_uris":{"android":"levelo://app?vid=301156b7-e9e2-4fbc-88ce-e2edf0d34844","ios":"levelo://app?vid=301156b7-e9e2-4fbc-88ce-e2edf0d34844"},"vehicle_type_id":"4","last_reported":1743686412,"current_range_meters":12400,"station_id":"ce4bh4p2rcd13ifvqe1g","pricing_plan_id":"cebpf4jnsgd1na2vs0mg"},{"bike_id":"05e69972-f53d-4738-8c62-5435396870a4","system_id":"levelo_inurba_marseille","lat":43.2928,"lon":5.40131,"is_reserved":false,"is_disabled":false,"rental_uris":{"android":"levelo://app?vid=05e69972-f53d-4738-8c62-5435396870a4","ios":"levelo://app?vid=05e69972-f53d-4738-8c62-5435396870a4"},"vehicle_type_id":"4","last_reported":1743686412,"current_range_meters":12400,"station_id":"ce4bh312rcd13ifvqdk0","pricing_plan_id":"cebpf4jnsgd1na2vs0mg"},{"bike_id":"d29af186-550d-40b6-aa3e-bf594ff930b0","system_id":"levelo_inurba_marseille","lat":43.29871,"lon":5.39728,"is_reserved":false,"is_disabled":false,"rental_uris":{"android":"levelo://app?vid=d29af186-550d-40b6-aa3e-bf594ff930b0","ios":"levelo://app?vid=d29af186-550d-40b6-aa3e-bf594ff930b0"},"vehicle_type_id":"4","last_reported":1743686412,"current_range_meters":12400,"station_id":"ce4bh0h2rcd13ifvqd50","pricing_plan_id":"cebpf4jnsgd1na2vs0mg"},{"bike_id":"841946bd-6940-4794-9af4-41cbe287891a","system_id":"levelo_inurba_marseille","lat":43.27373,"lon":5.3624,"is_reserved":false,"is_disabled":false,"rental_uris":{"android":"levelo://app?vid=841946bd-6940-4794-9af4-41cbe287891a","ios":"levelo://app?vid=841946bd-6940-4794-9af4-41cbe287891a"},"vehicle_type_id":"4","last_reported":1743686412,"current_range_meters":12800,"station_id":"ce4bhbh2rcd13ifvqeo0","pricing_plan_id":"cebpf4jnsgd1na2vs0mg"},{"bike_id":"63139285-137c-4e8d-8e95-6c2a275f8333","system_id":"levelo_inurba_marseille","lat":43.32099,"lon":5.36818,"is_reserved":false,"is_disabled":false,"rental_uris":{"android":"levelo://app?vid=63139285-137c-4e8d-8e95-6c2a275f8333","ios":"levelo://app?vid=63139285-137c-4e8d-8e95-6c2a275f8333"},"vehicle_type_id":"4","last_reported":1743686412,"current_range_meters":12800,"station_id":"ce4bhrh2rcd13ifvqhug","pricing_plan_id":"cebpf4jnsgd1na2vs0mg"},{"bike_id":"7d05682b-7611-4261-9f80-a784a651f3b6","system_id":"levelo_inurba_marseille","lat":43.30173,"lon":5.37383,"is_reserved":false,"is_disabled":false,"rental_uris":{"android":"levelo://app?vid=7d05682b-7611-4261-9f80-a784a651f3b6","ios":"levelo://app?vid=7d05682b-7611-4261-9f80-a784a651f3b6"},"vehicle_type_id":"4","last_reported":1743686412,"current_range_meters":12800,"station_id":"ce4bgs92rcd13ifvqcc0","pricing_plan_id":"cebpf4jnsgd1na2vs0mg"},{"bike_id":"dd3acac7-c2fe-4925-b2fe-414268d8048e","system_id":"levelo_inurba_marseille","lat":43.29726,"lon":5.37697,"is_reserved":false,"is_disabled":false,"rental_uris":{"android":"levelo://app?vid=dd3acac7-c2fe-4925-b2fe-414268d8048e","ios":"levelo://app?vid=dd3acac7-c2fe-4925-b2fe-414268d8048e"},"vehicle_type_id":"4","last_reported":1743686412,"current_range_meters":12400,"station_id":"ce4bgkh2rcd13ifvqbl0","pricing_plan_id":"cebpf4jnsgd1na2vs0mg"},{"bike_id":"1f962412-902d-4aa7-afbb-f3190a07a0ab","system_id":"levelo_inurba_marseille","lat":43.297843,"lon":5.371024,"is_reserved":false,"is_disabled":false,"rental_uris":{"android":"levelo://app?vid=1f962412-902d-4aa7-afbb-f3190a07a0ab","ios":"levelo://app?vid=1f962412-902d-4aa7-afbb-f3190a07a0ab"},"vehicle_type_id":"4","last_reported":1743686412,"current_range_meters":13600,"station_id":"ce4bgop2rcd13ifvqc1g","pricing_plan_id":"cebpf4jnsgd1na2vs0mg"},{"bike_id":"199c3c3b-ebb4-41c7-84db-ba5823d71066","system_id":"levelo_inurba_marseille","lat":43.30549,"lon":5.36516,"is_reserved":false,"is_disabled":false,"rental_uris":{"android":"levelo://app?vid=199c3c3b-ebb4-41c7-84db-ba5823d71066","ios":"levelo://app?vid=199c3c3b-ebb4-41c7-84db-ba5823d71066"},"vehicle_type_id":"4","last_reported":1743686412,"current_range_meters":13600,"station_id":"ce4bgs12rcd13ifvqcag","pricing_plan_id":"cebpf4jnsgd1na2vs0mg"},{"bike_id":"22b8702c-0dfe-451a-841a-e968657038a3","system_id":"levelo_inurba_marseille","lat":43.32459,"lon":5.36542,"is_reserved":false,"is_disabled":false,"rental_uris":{"android":"levelo://app?vid=22b8702c-0dfe-451a-841a-e968657038a3","ios":"levelo://app?vid=22b8702c-0dfe-451a-841a-e968657038a3"},"vehicle_type_id":"4","last_reported":1743686412,"current_range_meters":13600,"station_id":"ce4bhs12rcd13ifvqhvg","pricing_plan_id":"cebpf4jnsgd1na2vs0mg"},{"bike_id":"3e4aebda-a52f-4359-959c-13f23d9355e0","system_id":"levelo_inurba_marseille","lat":43.26677,"lon":5.38275,"is_reserved":false,"is_disabled":false,"rental_uris":{"android":"levelo://app?vid=3e4aebda-a52f-4359-959c-13f23d9355e0","ios":"levelo://app?vid=3e4aebda-a52f-4359-959c-13f23d9355e0"},"vehicle_type_id":"4","last_reported":1743686412,"current_range_meters":13600,"station_id":"ce4bhg92rcd13ifvqf90","pricing_plan_id":"cebpf4jnsgd1na2vs0mg"},{"bike_id":"69c0db05-6ded-4dc6-9720-2452c83c1020","system_id":"levelo_inurba_marseille","lat":43.22931,"lon":5.35382,"is_reserved":false,"is_disabled":false,"rental_uris":{"android":"levelo://app?vid=69c0db05-6ded-4dc6-9720-2452c83c1020","ios":"levelo://app?vid=69c0db05-6ded-4dc6-9720-2452c83c1020"},"vehicle_type_id":"4","last_reported":1743686412,"current_range_meters":13600,"station_id":"cpo3532slgdg3j2ikp40","pricing_plan_id":"cebpf4jnsgd1na2vs0mg"},{"bike_id":"6afd5ee7-5ba7-4a27-a998-4fa3f919ec0f","system_id":"levelo_inurba_marseille","lat":43.2621,"lon":5.37446,"is_reserved":false,"is_disabled":false,"rental_uris":{"android":"levelo://app?vid=6afd5ee7-5ba7-4a27-a998-4fa3f919ec0f","ios":"levelo://app?vid=6afd5ee7-5ba7-4a27-a998-4fa3f919ec0f"},"vehicle_type_id":"4","last_reported":1743686412,"current_range_meters":13600,"station_id":"ce4bhgp2rcd13ifvqfc0","pricing_plan_id":"cebpf4jnsgd1na2vs0mg"},{"bike_id":"b7d8ee14-e918-4e0a-bb46-ebce37baadf7","system_id":"levelo_inurba_marseille","lat":43.29717,"lon":5.37701,"is_reserved":false,"is_disabled":false,"rental_uris":{"android":"levelo://app?vid=b7d8ee14-e918-4e0a-bb46-ebce37baadf7","ios":"levelo://app?vid=b7d8ee14-e918-4e0a-bb46-ebce37baadf7"},"vehicle_type_id":"4","last_reported":1743686412,"current_range_meters":13600,"station_id":"ce4bgkh2rcd13ifvqbl0","pricing_plan_id":"cebpf4jnsgd1na2vs0mg"},{"bike_id":"94b8f2c1-d876-417e-94df-ab56d52f3a48","system_id":"levelo_inurba_marseille","lat":43.2713,"lon":5.40414,"is_reserved":false,"is_disabled":false,"rental_uris":{"android":"levelo://app?vid=94b8f2c1-d876-417e-94df-ab56d52f3a48","ios":"levelo://app?vid=94b8f2c1-d876-417e-94df-ab56d52f3a48"},"vehicle_type_id":"4","last_reported":1743686412,"current_range_meters":14000,"station_id":"","pricing_plan_id":"cebpf4jnsgd1na2vs0mg"},{"bike_id":"fad4f32d-431e-4eea-b1ea-c72559b38dac","system_id":"levelo_inurba_marseille","lat":43.30648,"lon":5.40105,"is_reserved":false,"is_disabled":false,"rental_uris":{"android":"levelo://app?vid=fad4f32d-431e-4eea-b1ea-c72559b38dac","ios":"levelo://app?vid=fad4f32d-431e-4eea-b1ea-c72559b38dac"},"vehicle_type_id":"4","last_reported":1743686412,"current_range_meters":13600,"station_id":"ce4bh112rcd13ifvqda0","pricing_plan_id":"cebpf4jnsgd1na2vs0mg"},{"bike_id":"5f46717b-05d1-4f34-a220-8087932d755b","system_id":"levelo_inurba_marseille","lat":43.30102,"lon":5.3695,"is_reserved":false,"is_disabled":false,"rental_uris":{"android":"levelo://app?vid=5f46717b-05d1-4f34-a220-8087932d755b","ios":"levelo://app?vid=5f46717b-05d1-4f34-a220-8087932d755b"},"vehicle_type_id":"4","last_reported":1743686412,"current_range_meters":13600,"station_id":"","pricing_plan_id":"cebpf4jnsgd1na2vs0mg"},{"bike_id":"28431d52-0962-4366-880a-a55a6c25965c","system_id":"levelo_inurba_marseille","lat":43.29522,"lon":5.39403,"is_reserved":false,"is_disabled":false,"rental_uris":{"android":"levelo://app?vid=28431d52-0962-4366-880a-a55a6c25965c","ios":"levelo://app?vid=28431d52-0962-4366-880a-a55a6c25965c"},"vehicle_type_id":"4","last_reported":1743686412,"current_range_meters":14000,"station_id":"ce4bh292rcd13ifvqdf0","pricing_plan_id":"cebpf4jnsgd1na2vs0mg"},{"bike_id":"3f1ade07-a56c-4cc8-a59b-77e0bd7de2ee","system_id":"levelo_inurba_marseille","lat":43.270571,"lon":5.402738,"is_reserved":false,"is_disabled":false,"rental_uris":{"android":"levelo://app?vid=3f1ade07-a56c-4cc8-a59b-77e0bd7de2ee","ios":"levelo://app?vid=3f1ade07-a56c-4cc8-a59b-77e0bd7de2ee"},"vehicle_type_id":"4","last_reported":1743686412,"current_range_meters":14000,"station_id":"ce4bhnh2rcd13ifvqgtg","pricing_plan_id":"cebpf4jnsgd1na2vs0mg"},{"bike_id":"21b65b62-2684-4fc7-8920-573a961d7a1b","system_id":"levelo_inurba_marseille","lat":43.28278,"lon":5.350624,"is_reserved":false,"is_disabled":false,"rental_uris":{"android":"levelo://app?vid=21b65b62-2684-4fc7-8920-573a961d7a1b","ios":"levelo://app?vid=21b65b62-2684-4fc7-8920-573a961d7a1b"},"vehicle_type_id":"4","last_reported":1743686412,"current_range_meters":14000,"station_id":"ce4bhbp2rcd13ifvqerg","pricing_plan_id":"cebpf4jnsgd1na2vs0mg"},{"bike_id":"a6303451-5b45-435c-bf0e-748f94cc010d","system_id":"levelo_inurba_marseille","lat":43.23202,"lon":5.35544,"is_reserved":false,"is_disabled":false,"rental_uris":{"android":"levelo://app?vid=a6303451-5b45-435c-bf0e-748f94cc010d","ios":"levelo://app?vid=a6303451-5b45-435c-bf0e-748f94cc010d"},"vehicle_type_id":"4","last_reported":1743686412,"current_range_meters":14000,"station_id":"ce4bhu92rcd13ifvqi70","pricing_plan_id":"cebpf4jnsgd1na2vs0mg"},{"bike_id":"66ba0715-324e-438a-b05d-abd1c89d8bb3","system_id":"levelo_inurba_marseille","lat":43.33636,"lon":5.40952,"is_reserved":false,"is_disabled":false,"rental_uris":{"android":"levelo://app?vid=66ba0715-324e-438a-b05d-abd1c89d8bb3","ios":"levelo://app?vid=66ba0715-324e-438a-b05d-abd1c89d8bb3"},"vehicle_type_id":"4","last_reported":1743686412,"current_range_meters":13600,"station_id":"ce4bhqh2rcd13ifvqhmg","pricing_plan_id":"cebpf4jnsgd1na2vs0mg"},{"bike_id":"c611372a-1bd7-4682-a269-9a02ba50eeab","system_id":"levelo_inurba_marseille","lat":43.2998,"lon":5.38488,"is_reserved":false,"is_disabled":true,"rental_uris":{"android":"levelo://app?vid=c611372a-1bd7-4682-a269-9a02ba50eeab","ios":"levelo://app?vid=c611372a-1bd7-4682-a269-9a02ba50eeab"},"vehicle_type_id":"4","last_reported":1743686412,"current_range_meters":14000,"station_id":"ce4bgj92rcd13ifvqbd0","pricing_plan_id":"cebpf4jnsgd1na2vs0mg"},{"bike_id":"f1e5f20d-e5bb-4349-9a72-f7ab8a004414","system_id":"levelo_inurba_marseille","lat":43.30336,"lon":5.40413,"is_reserved":false,"is_disabled":true,"rental_uris":{"android":"levelo://app?vid=f1e5f20d-e5bb-4349-9a72-f7ab8a004414","ios":"levelo://app?vid=f1e5f20d-e5bb-4349-9a72-f7ab8a004414"},"vehicle_type_id":"4","last_reported":1743686412,"current_range_meters":14000,"station_id":"ce4bh012rcd13ifvqd10","pricing_plan_id":"cebpf4jnsgd1na2vs0mg"},{"bike_id":"678cb0c1-8fa5-451e-846e-3af84d26cea0","system_id":"levelo_inurba_marseille","lat":43.26803,"lon":5.40266,"is_reserved":false,"is_disabled":false,"rental_uris":{"android":"levelo://app?vid=678cb0c1-8fa5-451e-846e-3af84d26cea0","ios":"levelo://app?vid=678cb0c1-8fa5-451e-846e-3af84d26cea0"},"vehicle_type_id":"4","last_reported":1743686412,"current_range_meters":14000,"station_id":"ce501612rcd8frsf0b60","pricing_plan_id":"cebpf4jnsgd1na2vs0mg"},{"bike_id":"8b22284e-2008-48cf-acf9-8bc40bb78137","system_id":"levelo_inurba_marseille","lat":43.31166,"lon":5.38714,"is_reserved":false,"is_disabled":false,"rental_uris":{"android":"levelo://app?vid=8b22284e-2008-48cf-acf9-8bc40bb78137","ios":"levelo://app?vid=8b22284e-2008-48cf-acf9-8bc40bb78137"},"vehicle_type_id":"4","last_reported":1743686412,"current_range_meters":13600,"station_id":"ce4bgv12rcd13ifvqcp0","pricing_plan_id":"cebpf4jnsgd1na2vs0mg"},{"bike_id":"b234580f-7a43-470b-a9ff-325307537c40","system_id":"levelo_inurba_marseille","lat":43.325432,"lon":5.414324,"is_reserved":false,"is_disabled":false,"rental_uris":{"android":"levelo://app?vid=b234580f-7a43-470b-a9ff-325307537c40","ios":"levelo://app?vid=b234580f-7a43-470b-a9ff-325307537c40"},"vehicle_type_id":"4","last_reported":1743686412,"current_range_meters":14000,"station_id":"ce4bhpp2rcd13ifvqhgg","pricing_plan_id":"cebpf4jnsgd1na2vs0mg"},{"bike_id":"ddece980-9bf4-4cd1-87d5-3d4126bbcba8","system_id":"levelo_inurba_marseille","lat":43.23197,"lon":5.3555,"is_reserved":false,"is_disabled":false,"rental_uris":{"android":"levelo://app?vid=ddece980-9bf4-4cd1-87d5-3d4126bbcba8","ios":"levelo://app?vid=ddece980-9bf4-4cd1-87d5-3d4126bbcba8"},"vehicle_type_id":"4","last_reported":1743686412,"current_range_meters":14800,"station_id":"ce4bhu92rcd13ifvqi70","pricing_plan_id":"cebpf4jnsgd1na2vs0mg"},{"bike_id":"33084556-c386-4fed-bcb3-71588aab549f","system_id":"levelo_inurba_marseille","lat":43.30888,"lon":5.39648,"is_reserved":false,"is_disabled":false,"rental_uris":{"android":"levelo://app?vid=33084556-c386-4fed-bcb3-71588aab549f","ios":"levelo://app?vid=33084556-c386-4fed-bcb3-71588aab549f"},"vehicle_type_id":"4","last_reported":1743686412,"current_range_meters":14400,"station_id":"ce4bh012rcd13ifvqcv0","pricing_plan_id":"cebpf4jnsgd1na2vs0mg"},{"bike_id":"0aa69f03-0878-4038-837b-a34d05729b70","system_id":"levelo_inurba_marseille","lat":43.30535,"lon":5.36701,"is_reserved":false,"is_disabled":false,"rental_uris":{"android":"levelo://app?vid=0aa69f03-0878-4038-837b-a34d05729b70","ios":"levelo://app?vid=0aa69f03-0878-4038-837b-a34d05729b70"},"vehicle_type_id":"4","last_reported":1743686412,"current_range_meters":14400,"station_id":"ce4bgrp2rcd13ifvqc9g","pricing_plan_id":"cebpf4jnsgd1na2vs0mg"},{"bike_id":"adb6820f-98d5-4398-ac72-0657a0bb39ed","system_id":"levelo_inurba_marseille","lat":43.29181,"lon":5.37138,"is_reserved":false,"is_disabled":false,"rental_uris":{"android":"levelo://app?vid=adb6820f-98d5-4398-ac72-0657a0bb39ed","ios":"levelo://app?vid=adb6820f-98d5-4398-ac72-0657a0bb39ed"},"vehicle_type_id":"4","last_reported":1743686412,"current_range_meters":14400,"station_id":"ce4bha92rcd13ifvqeh0","pricing_plan_id":"cebpf4jnsgd1na2vs0mg"},{"bike_id":"e9947125-e4b1-4977-bee9-fb031515997e","system_id":"levelo_inurba_marseille","lat":43.24552,"lon":5.39516,"is_reserved":false,"is_disabled":false,"rental_uris":{"android":"levelo://app?vid=e9947125-e4b1-4977-bee9-fb031515997e","ios":"levelo://app?vid=e9947125-e4b1-4977-bee9-fb031515997e"},"vehicle_type_id":"4","last_reported":1743686412,"current_range_meters":14400,"station_id":"ce4bhlp2rcd13ifvqgjg","pricing_plan_id":"cebpf4jnsgd1na2vs0mg"},{"bike_id":"d126d5b7-9b80-4545-ada9-e50bec254514","system_id":"levelo_inurba_marseille","lat":43.322641,"lon":5.406842,"is_reserved":false,"is_disabled":false,"rental_uris":{"android":"levelo://app?vid=d126d5b7-9b80-4545-ada9-e50bec254514","ios":"levelo://app?vid=d126d5b7-9b80-4545-ada9-e50bec254514"},"vehicle_type_id":"4","last_reported":1743686412,"current_range_meters":14400,"station_id":"ce4bhq92rcd13ifvqhjg","pricing_plan_id":"cebpf4jnsgd1na2vs0mg"},{"bike_id":"c6dbfbad-c5e4-4444-9b15-94527aba01a5","system_id":"levelo_inurba_marseille","lat":43.30623,"lon":5.36427,"is_reserved":false,"is_disabled":true,"rental_uris":{"android":"levelo://app?vid=c6dbfbad-c5e4-4444-9b15-94527aba01a5","ios":"levelo://app?vid=c6dbfbad-c5e4-4444-9b15-94527aba01a5"},"vehicle_type_id":"4","last_reported":1743686412,"current_range_meters":14400,"station_id":"ce4bgs12rcd13ifvqcag","pricing_plan_id":"cebpf4jnsgd1na2vs0mg"},{"bike_id":"0da307f0-a737-4f3f-8786-4dd451d57e79","system_id":"levelo_inurba_marseille","lat":43.30836,"lon":5.36728,"is_reserved":false,"is_disabled":false,"rental_uris":{"android":"levelo://app?vid=0da307f0-a737-4f3f-8786-4dd451d57e79","ios":"levelo://app?vid=0da307f0-a737-4f3f-8786-4dd451d57e79"},"vehicle_type_id":"4","last_reported":1743686412,"current_range_meters":14800,"station_id":"","pricing_plan_id":"cebpf4jnsgd1na2vs0mg"},{"bike_id":"ee071da7-ca94-4ce2-9e33-f50401452823","system_id":"levelo_inurba_marseille","lat":43.27496,"lon":5.42459,"is_reserved":false,"is_disabled":false,"rental_uris":{"android":"levelo://app?vid=ee071da7-ca94-4ce2-9e33-f50401452823","ios":"levelo://app?vid=ee071da7-ca94-4ce2-9e33-f50401452823"},"vehicle_type_id":"4","last_reported":1743686412,"current_range_meters":14800,"station_id":"ce4bhn92rcd13ifvqgrg","pricing_plan_id":"cebpf4jnsgd1na2vs0mg"},{"bike_id":"f9abdea7-e129-4950-a8fb-9cd0b510ff74","system_id":"levelo_inurba_marseille","lat":43.25504,"lon":5.37655,"is_reserved":false,"is_disabled":false,"rental_uris":{"android":"levelo://app?vid=f9abdea7-e129-4950-a8fb-9cd0b510ff74","ios":"levelo://app?vid=f9abdea7-e129-4950-a8fb-9cd0b510ff74"},"vehicle_type_id":"4","last_reported":1743686412,"current_range_meters":14400,"station_id":"ce4bhh12rcd13ifvqff0","pricing_plan_id":"cebpf4jnsgd1na2vs0mg"},{"bike_id":"31bfff23-054e-40aa-ab5b-459b54f4e6fb","system_id":"levelo_inurba_marseille","lat":43.29196,"lon":5.39312,"is_reserved":false,"is_disabled":false,"rental_uris":{"android":"levelo://app?vid=31bfff23-054e-40aa-ab5b-459b54f4e6fb","ios":"levelo://app?vid=31bfff23-054e-40aa-ab5b-459b54f4e6fb"},"vehicle_type_id":"4","last_reported":1743686412,"current_range_meters":14800,"station_id":"ce4bh192rcd13ifvqdd0","pricing_plan_id":"cebpf4jnsgd1na2vs0mg"},{"bike_id":"6b95e7d2-eea6-4a45-b5e2-6a288925ff44","system_id":"levelo_inurba_marseille","lat":43.275,"lon":5.42458,"is_reserved":false,"is_disabled":false,"rental_uris":{"android":"levelo://app?vid=6b95e7d2-eea6-4a45-b5e2-6a288925ff44","ios":"levelo://app?vid=6b95e7d2-eea6-4a45-b5e2-6a288925ff44"},"vehicle_type_id":"4","last_reported":1743686412,"current_range_meters":15200,"station_id":"ce4bhn92rcd13ifvqgrg","pricing_plan_id":"cebpf4jnsgd1na2vs0mg"},{"bike_id":"5a670507-1979-4b98-8c90-ecde60222578","system_id":"levelo_inurba_marseille","lat":43.26222,"lon":5.4045,"is_reserved":false,"is_disabled":false,"rental_uris":{"android":"levelo://app?vid=5a670507-1979-4b98-8c90-ecde60222578","ios":"levelo://app?vid=5a670507-1979-4b98-8c90-ecde60222578"},"vehicle_type_id":"4","last_reported":1743686412,"current_range_meters":15200,"station_id":"ce4bhmh2rcd13ifvqgmg","pricing_plan_id":"cebpf4jnsgd1na2vs0mg"},{"bike_id":"268c2c45-f3bd-4f74-8b60-f0dd3108c906","system_id":"levelo_inurba_marseille","lat":43.303294,"lon":5.404399,"is_reserved":false,"is_disabled":false,"rental_uris":{"android":"levelo://app?vid=268c2c45-f3bd-4f74-8b60-f0dd3108c906","ios":"levelo://app?vid=268c2c45-f3bd-4f74-8b60-f0dd3108c906"},"vehicle_type_id":"4","last_reported":1743686412,"current_range_meters":15200,"station_id":"ce4bh012rcd13ifvqd10","pricing_plan_id":"cebpf4jnsgd1na2vs0mg"},{"bike_id":"3745c546-1b51-4ad2-a507-f0f4a7fc0b1c","system_id":"levelo_inurba_marseille","lat":43.33722,"lon":5.39187,"is_reserved":false,"is_disabled":false,"rental_uris":{"android":"levelo://app?vid=3745c546-1b51-4ad2-a507-f0f4a7fc0b1c","ios":"levelo://app?vid=3745c546-1b51-4ad2-a507-f0f4a7fc0b1c"},"vehicle_type_id":"4","last_reported":1743686412,"current_range_meters":15200,"station_id":"ce4bhr92rcd13ifvqhsg","pricing_plan_id":"cebpf4jnsgd1na2vs0mg"},{"bike_id":"bfdead3d-14fb-467f-a5cf-e2895e874c08","system_id":"levelo_inurba_marseille","lat":43.2974,"lon":5.37696,"is_reserved":false,"is_disabled":false,"rental_uris":{"android":"levelo://app?vid=bfdead3d-14fb-467f-a5cf-e2895e874c08","ios":"levelo://app?vid=bfdead3d-14fb-467f-a5cf-e2895e874c08"},"vehicle_type_id":"4","last_reported":1743686412,"current_range_meters":16000,"station_id":"ce4bgkh2rcd13ifvqbl0","pricing_plan_id":"cebpf4jnsgd1na2vs0mg"},{"bike_id":"21bb0a6d-7ac6-400f-85fa-68146121b37a","system_id":"levelo_inurba_marseille","lat":43.31382,"lon":5.3675,"is_reserved":false,"is_disabled":false,"rental_uris":{"android":"levelo://app?vid=21bb0a6d-7ac6-400f-85fa-68146121b37a","ios":"levelo://app?vid=21bb0a6d-7ac6-400f-85fa-68146121b37a"},"vehicle_type_id":"4","last_reported":1743686412,"current_range_meters":16000,"station_id":"ce4bgr92rcd13ifvqc6g","pricing_plan_id":"cebpf4jnsgd1na2vs0mg"},{"bike_id":"9d7b4579-2f49-4625-9d98-42fe0dd225fc","system_id":"levelo_inurba_marseille","lat":43.30209,"lon":5.41895,"is_reserved":false,"is_disabled":false,"rental_uris":{"android":"levelo://app?vid=9d7b4579-2f49-4625-9d98-42fe0dd225fc","ios":"levelo://app?vid=9d7b4579-2f49-4625-9d98-42fe0dd225fc"},"vehicle_type_id":"4","last_reported":1743686412,"current_range_meters":16000,"station_id":"","pricing_plan_id":"cebpf4jnsgd1na2vs0mg"},{"bike_id":"489c4a41-a912-4d18-b4aa-563bfe077e03","system_id":"levelo_inurba_marseille","lat":43.29605,"lon":5.38106,"is_reserved":false,"is_disabled":false,"rental_uris":{"android":"levelo://app?vid=489c4a41-a912-4d18-b4aa-563bfe077e03","ios":"levelo://app?vid=489c4a41-a912-4d18-b4aa-563bfe077e03"},"vehicle_type_id":"4","last_reported":1743686412,"current_range_meters":16000,"station_id":"ce4bgl12rcd13ifvqbo0","pricing_plan_id":"cebpf4jnsgd1na2vs0mg"},{"bike_id":"220b5a1e-ad83-49aa-94fb-26792a9f1e2d","system_id":"levelo_inurba_marseille","lat":43.27496,"lon":5.42455,"is_reserved":false,"is_disabled":false,"rental_uris":{"android":"levelo://app?vid=220b5a1e-ad83-49aa-94fb-26792a9f1e2d","ios":"levelo://app?vid=220b5a1e-ad83-49aa-94fb-26792a9f1e2d"},"vehicle_type_id":"4","last_reported":1743686412,"current_range_meters":15200,"station_id":"ce4bhn92rcd13ifvqgrg","pricing_plan_id":"cebpf4jnsgd1na2vs0mg"},{"bike_id":"cb29c5b9-4893-4508-bed3-7b83f38c16b1","system_id":"levelo_inurba_marseille","lat":43.26949,"lon":5.38638,"is_reserved":false,"is_disabled":false,"rental_uris":{"android":"levelo://app?vid=cb29c5b9-4893-4508-bed3-7b83f38c16b1","ios":"levelo://app?vid=cb29c5b9-4893-4508-bed3-7b83f38c16b1"},"vehicle_type_id":"4","last_reported":1743686412,"current_range_meters":16000,"station_id":"ce4bhh92rcd13ifvqfh0","pricing_plan_id":"cebpf4jnsgd1na2vs0mg"},{"bike_id":"c0e36771-dbe7-477f-9122-f8476f7b7779","system_id":"levelo_inurba_marseille","lat":43.32358,"lon":5.36748,"is_reserved":false,"is_disabled":false,"rental_uris":{"android":"levelo://app?vid=c0e36771-dbe7-477f-9122-f8476f7b7779","ios":"levelo://app?vid=c0e36771-dbe7-477f-9122-f8476f7b7779"},"vehicle_type_id":"4","last_reported":1743686412,"current_range_meters":16000,"station_id":"ce4bhsh2rcd13ifvqi2g","pricing_plan_id":"cebpf4jnsgd1na2vs0mg"},{"bike_id":"65c86302-8ef0-46f4-ab6e-bac7149a2865","system_id":"levelo_inurba_marseille","lat":43.32098,"lon":5.36798,"is_reserved":false,"is_disabled":false,"rental_uris":{"android":"levelo://app?vid=65c86302-8ef0-46f4-ab6e-bac7149a2865","ios":"levelo://app?vid=65c86302-8ef0-46f4-ab6e-bac7149a2865"},"vehicle_type_id":"4","last_reported":1743686412,"current_range_meters":16000,"station_id":"ce4bhrh2rcd13ifvqhug","pricing_plan_id":"cebpf4jnsgd1na2vs0mg"},{"bike_id":"10dba690-16cc-4e3a-8cf1-837f9f6eb283","system_id":"levelo_inurba_marseille","lat":43.30155,"lon":5.37407,"is_reserved":false,"is_disabled":false,"rental_uris":{"android":"levelo://app?vid=10dba690-16cc-4e3a-8cf1-837f9f6eb283","ios":"levelo://app?vid=10dba690-16cc-4e3a-8cf1-837f9f6eb283"},"vehicle_type_id":"4","last_reported":1743686412,"current_range_meters":16000,"station_id":"ce4bgs92rcd13ifvqcc0","pricing_plan_id":"cebpf4jnsgd1na2vs0mg"},{"bike_id":"fce80e29-a09c-4017-9b2d-b490d8fedf3e","system_id":"levelo_inurba_marseille","lat":43.29731,"lon":5.36579,"is_reserved":false,"is_disabled":false,"rental_uris":{"android":"levelo://app?vid=fce80e29-a09c-4017-9b2d-b490d8fedf3e","ios":"levelo://app?vid=fce80e29-a09c-4017-9b2d-b490d8fedf3e"},"vehicle_type_id":"4","last_reported":1743686412,"current_range_meters":16000,"station_id":"ce4bgn12rcd13ifvqbt0","pricing_plan_id":"cebpf4jnsgd1na2vs0mg"},{"bike_id":"955338a0-012b-4e84-861b-8757cf81f287","system_id":"levelo_inurba_marseille","lat":43.22932,"lon":5.35384,"is_reserved":false,"is_disabled":false,"rental_uris":{"android":"levelo://app?vid=955338a0-012b-4e84-861b-8757cf81f287","ios":"levelo://app?vid=955338a0-012b-4e84-861b-8757cf81f287"},"vehicle_type_id":"4","last_reported":1743686412,"current_range_meters":16400,"station_id":"cpo3532slgdg3j2ikp40","pricing_plan_id":"cebpf4jnsgd1na2vs0mg"},{"bike_id":"fb348b09-6abb-47a4-a266-91f2eeaee291","system_id":"levelo_inurba_marseille","lat":43.32105,"lon":5.36811,"is_reserved":false,"is_disabled":false,"rental_uris":{"android":"levelo://app?vid=fb348b09-6abb-47a4-a266-91f2eeaee291","ios":"levelo://app?vid=fb348b09-6abb-47a4-a266-91f2eeaee291"},"vehicle_type_id":"4","last_reported":1743686412,"current_range_meters":16400,"station_id":"ce4bhrh2rcd13ifvqhug","pricing_plan_id":"cebpf4jnsgd1na2vs0mg"},{"bike_id":"0df0e7a9-81b2-41f8-8fc9-9278b36af5a7","system_id":"levelo_inurba_marseille","lat":43.2509,"lon":5.39529,"is_reserved":false,"is_disabled":false,"rental_uris":{"android":"levelo://app?vid=0df0e7a9-81b2-41f8-8fc9-9278b36af5a7","ios":"levelo://app?vid=0df0e7a9-81b2-41f8-8fc9-9278b36af5a7"},"vehicle_type_id":"4","last_reported":1743686412,"current_range_meters":16400,"station_id":"ce4bhm12rcd13ifvqgkg","pricing_plan_id":"cebpf4jnsgd1na2vs0mg"},{"bike_id":"403dd03e-77f9-4fde-aef9-0293362afb60","system_id":"levelo_inurba_marseille","lat":43.31707,"lon":5.3778,"is_reserved":false,"is_disabled":false,"rental_uris":{"android":"levelo://app?vid=403dd03e-77f9-4fde-aef9-0293362afb60","ios":"levelo://app?vid=403dd03e-77f9-4fde-aef9-0293362afb60"},"vehicle_type_id":"4","last_reported":1743686412,"current_range_meters":16400,"station_id":"ce4bgth2rcd13ifvqch0","pricing_plan_id":"cebpf4jnsgd1na2vs0mg"},{"bike_id":"43541db4-ee87-46d2-b56d-1dccea10c45a","system_id":"levelo_inurba_marseille","lat":43.3052,"lon":5.36715,"is_reserved":false,"is_disabled":false,"rental_uris":{"android":"levelo://app?vid=43541db4-ee87-46d2-b56d-1dccea10c45a","ios":"levelo://app?vid=43541db4-ee87-46d2-b56d-1dccea10c45a"},"vehicle_type_id":"4","last_reported":1743686412,"current_range_meters":16400,"station_id":"ce4bgrp2rcd13ifvqc9g","pricing_plan_id":"cebpf4jnsgd1na2vs0mg"},{"bike_id":"c8d0988a-de2a-492c-995a-175e95b71dc9","system_id":"levelo_inurba_marseille","lat":43.27564,"lon":5.38417,"is_reserved":false,"is_disabled":false,"rental_uris":{"android":"levelo://app?vid=c8d0988a-de2a-492c-995a-175e95b71dc9","ios":"levelo://app?vid=c8d0988a-de2a-492c-995a-175e95b71dc9"},"vehicle_type_id":"4","last_reported":1743686412,"current_range_meters":17600,"station_id":"ce4bhh92rcd13ifvqfi0","pricing_plan_id":"cebpf4jnsgd1na2vs0mg"},{"bike_id":"229ba492-02d9-4033-b935-7f43b75a8976","system_id":"levelo_inurba_marseille","lat":43.3056,"lon":5.36547,"is_reserved":false,"is_disabled":false,"rental_uris":{"android":"levelo://app?vid=229ba492-02d9-4033-b935-7f43b75a8976","ios":"levelo://app?vid=229ba492-02d9-4033-b935-7f43b75a8976"},"vehicle_type_id":"4","last_reported":1743686412,"current_range_meters":16400,"station_id":"ce4bgs12rcd13ifvqcag","pricing_plan_id":"cebpf4jnsgd1na2vs0mg"},{"bike_id":"8b5a7420-7dda-4ff5-9659-2710246b9739","system_id":"levelo_inurba_marseille","lat":43.2511,"lon":5.40336,"is_reserved":false,"is_disabled":false,"rental_uris":{"android":"levelo://app?vid=8b5a7420-7dda-4ff5-9659-2710246b9739","ios":"levelo://app?vid=8b5a7420-7dda-4ff5-9659-2710246b9739"},"vehicle_type_id":"4","last_reported":1743686412,"current_range_meters":16800,"station_id":"ce4bhlh2rcd13ifvqgig","pricing_plan_id":"cebpf4jnsgd1na2vs0mg"},{"bike_id":"59d5ca93-6c32-4fe5-bdac-1013c7e4adc1","system_id":"levelo_inurba_marseille","lat":43.29267,"lon":5.40141,"is_reserved":false,"is_disabled":false,"rental_uris":{"android":"levelo://app?vid=59d5ca93-6c32-4fe5-bdac-1013c7e4adc1","ios":"levelo://app?vid=59d5ca93-6c32-4fe5-bdac-1013c7e4adc1"},"vehicle_type_id":"4","last_reported":1743686412,"current_range_meters":16800,"station_id":"ce4bh312rcd13ifvqdk0","pricing_plan_id":"cebpf4jnsgd1na2vs0mg"},{"bike_id":"e181c381-ff0d-4e76-8f1e-7418f5f7dce0","system_id":"levelo_inurba_marseille","lat":43.30551,"lon":5.36717,"is_reserved":false,"is_disabled":false,"rental_uris":{"android":"levelo://app?vid=e181c381-ff0d-4e76-8f1e-7418f5f7dce0","ios":"levelo://app?vid=e181c381-ff0d-4e76-8f1e-7418f5f7dce0"},"vehicle_type_id":"4","last_reported":1743686412,"current_range_meters":16800,"station_id":"ce4bgrp2rcd13ifvqc9g","pricing_plan_id":"cebpf4jnsgd1na2vs0mg"},{"bike_id":"b2f4490f-edf0-49ca-9d34-1b76be892ddc","system_id":"levelo_inurba_marseille","lat":43.26216,"lon":5.40431,"is_reserved":false,"is_disabled":false,"rental_uris":{"android":"levelo://app?vid=b2f4490f-edf0-49ca-9d34-1b76be892ddc","ios":"levelo://app?vid=b2f4490f-edf0-49ca-9d34-1b76be892ddc"},"vehicle_type_id":"4","last_reported":1743686412,"current_range_meters":16800,"station_id":"ce4bhmh2rcd13ifvqgmg","pricing_plan_id":"cebpf4jnsgd1na2vs0mg"},{"bike_id":"3b8b84cf-e43b-4f9b-a4b2-4195d7c78821","system_id":"levelo_inurba_marseille","lat":43.28662,"lon":5.36357,"is_reserved":false,"is_disabled":false,"rental_uris":{"android":"levelo://app?vid=3b8b84cf-e43b-4f9b-a4b2-4195d7c78821","ios":"levelo://app?vid=3b8b84cf-e43b-4f9b-a4b2-4195d7c78821"},"vehicle_type_id":"4","last_reported":1743686412,"current_range_meters":16800,"station_id":"ce4bhah2rcd13ifvqej0","pricing_plan_id":"cebpf4jnsgd1na2vs0mg"},{"bike_id":"1bed8de1-dfbd-4ed2-9617-bfca701597ff","system_id":"levelo_inurba_marseille","lat":43.29617,"lon":5.37177,"is_reserved":false,"is_disabled":false,"rental_uris":{"android":"levelo://app?vid=1bed8de1-dfbd-4ed2-9617-bfca701597ff","ios":"levelo://app?vid=1bed8de1-dfbd-4ed2-9617-bfca701597ff"},"vehicle_type_id":"4","last_reported":1743686412,"current_range_meters":16800,"station_id":"ce4bgnh2rcd13ifvqc0g","pricing_plan_id":"cebpf4jnsgd1na2vs0mg"},{"bike_id":"5fdcec94-d97d-49ee-80e0-23dd594f9993","system_id":"levelo_inurba_marseille","lat":43.26562,"lon":5.3902,"is_reserved":false,"is_disabled":false,"rental_uris":{"android":"levelo://app?vid=5fdcec94-d97d-49ee-80e0-23dd594f9993","ios":"levelo://app?vid=5fdcec94-d97d-49ee-80e0-23dd594f9993"},"vehicle_type_id":"4","last_reported":1743686412,"current_range_meters":16800,"station_id":"ce4bhe12rcd13ifvqf30","pricing_plan_id":"cebpf4jnsgd1na2vs0mg"},{"bike_id":"4c6c26e9-c2c0-42ca-bbad-340608c64a5a","system_id":"levelo_inurba_marseille","lat":43.3132,"lon":5.36716,"is_reserved":false,"is_disabled":false,"rental_uris":{"android":"levelo://app?vid=4c6c26e9-c2c0-42ca-bbad-340608c64a5a","ios":"levelo://app?vid=4c6c26e9-c2c0-42ca-bbad-340608c64a5a"},"vehicle_type_id":"4","last_reported":1743686412,"current_range_meters":17200,"station_id":"ce4bgr92rcd13ifvqc6g","pricing_plan_id":"cebpf4jnsgd1na2vs0mg"},{"bike_id":"ba05521f-e8e5-4c85-877c-5542fdcfb429","system_id":"levelo_inurba_marseille","lat":43.26237,"lon":5.40456,"is_reserved":false,"is_disabled":false,"rental_uris":{"android":"levelo://app?vid=ba05521f-e8e5-4c85-877c-5542fdcfb429","ios":"levelo://app?vid=ba05521f-e8e5-4c85-877c-5542fdcfb429"},"vehicle_type_id":"4","last_reported":1743686412,"current_range_meters":16800,"station_id":"ce4bhmh2rcd13ifvqgmg","pricing_plan_id":"cebpf4jnsgd1na2vs0mg"},{"bike_id":"fb4cfac6-d54b-4f49-96fe-f3cb5cad9b95","system_id":"levelo_inurba_marseille","lat":43.30532,"lon":5.36489,"is_reserved":false,"is_disabled":false,"rental_uris":{"android":"levelo://app?vid=fb4cfac6-d54b-4f49-96fe-f3cb5cad9b95","ios":"levelo://app?vid=fb4cfac6-d54b-4f49-96fe-f3cb5cad9b95"},"vehicle_type_id":"4","last_reported":1743686412,"current_range_meters":16800,"station_id":"ce4bgs12rcd13ifvqcag","pricing_plan_id":"cebpf4jnsgd1na2vs0mg"},{"bike_id":"19224d95-e048-4cbb-8884-43e0e6b3db9b","system_id":"levelo_inurba_marseille","lat":43.29884,"lon":5.39755,"is_reserved":false,"is_disabled":true,"rental_uris":{"android":"levelo://app?vid=19224d95-e048-4cbb-8884-43e0e6b3db9b","ios":"levelo://app?vid=19224d95-e048-4cbb-8884-43e0e6b3db9b"},"vehicle_type_id":"4","last_reported":1743686412,"current_range_meters":16800,"station_id":"ce4bh0h2rcd13ifvqd50","pricing_plan_id":"cebpf4jnsgd1na2vs0mg"},{"bike_id":"bdfdd776-1ef3-498f-a34b-6c8e5b7ac6c2","system_id":"levelo_inurba_marseille","lat":43.29576,"lon":5.37531,"is_reserved":false,"is_disabled":false,"rental_uris":{"android":"levelo://app?vid=bdfdd776-1ef3-498f-a34b-6c8e5b7ac6c2","ios":"levelo://app?vid=bdfdd776-1ef3-498f-a34b-6c8e5b7ac6c2"},"vehicle_type_id":"4","last_reported":1743686412,"current_range_meters":16800,"station_id":"ce4bgh92rcd13ifvqb50","pricing_plan_id":"cebpf4jnsgd1na2vs0mg"},{"bike_id":"4caff8e0-340c-490f-8a5a-b26f15704f76","system_id":"levelo_inurba_marseille","lat":43.28615,"lon":5.38407,"is_reserved":false,"is_disabled":false,"rental_uris":{"android":"levelo://app?vid=4caff8e0-340c-490f-8a5a-b26f15704f76","ios":"levelo://app?vid=4caff8e0-340c-490f-8a5a-b26f15704f76"},"vehicle_type_id":"4","last_reported":1743686412,"current_range_meters":17200,"station_id":"","pricing_plan_id":"cebpf4jnsgd1na2vs0mg"},{"bike_id":"2b3a7a5d-2e3b-46bd-a1f6-9bd096c5f58d","system_id":"levelo_inurba_marseille","lat":43.26227,"lon":5.4045,"is_reserved":false,"is_disabled":false,"rental_uris":{"android":"levelo://app?vid=2b3a7a5d-2e3b-46bd-a1f6-9bd096c5f58d","ios":"levelo://app?vid=2b3a7a5d-2e3b-46bd-a1f6-9bd096c5f58d"},