{"last_updated":1746371347,"ttl":60,"version":"2.2","data":{"bikes":[{"bike_id":"2d87f24b-bb92-4f5a-9c64-611905425c8d","system_id":"levelo_inurba_marseille","lat":43.23667,"lon":5.39143,"is_reserved":false,"is_disabled":true,"rental_uris":{"android":"levelo://app?vid=2d87f24b-bb92-4f5a-9c64-611905425c8d","ios":"levelo://app?vid=2d87f24b-bb92-4f5a-9c64-611905425c8d"},"vehicle_type_id":"4","last_reported":1746371347,"current_range_meters":0,"station_id":"","pricing_plan_id":"cebpf4jnsgd1na2vs0mg"},{"bike_id":"7f770ba9-2e48-47c9-8bb4-942855273bad","system_id":"levelo_inurba_marseille","lat":43.25322,"lon":5.42398,"is_reserved":false,"is_disabled":true,"rental_uris":{"android":"levelo://app?vid=7f770ba9-2e48-47c9-8bb4-942855273bad","ios":"levelo://app?vid=7f770ba9-2e48-47c9-8bb4-942855273bad"},"vehicle_type_id":"4","last_reported":1746371347,"current_range_meters":0,"station_id":"","pricing_plan_id":"cebpf4jnsgd1na2vs0mg"},{"bike_id":"f73daf93-45c7-48c0-a61a-2d28ac89db8d","system_id":"levelo_inurba_marseille","lat":43.33894,"lon":5.42058,"is_reserved":false,"is_disabled":true,"rental_uris":{"android":"levelo://app?vid=f73daf93-45c7-48c0-a61a-2d28ac89db8d","ios":"levelo://app?vid=f73daf93-45c7-48c0-a61a-2d28ac89db8d"},"vehicle_type_id":"4","last_reported":1746371347,"current_range_meters":0,"station_id":"","pricing_plan_id":"cebpf4jnsgd1na2vs0mg"},{"bike_id":"e93b949e-1738-47f2-ad13-8f512df2ffaf","system_id":"levelo_inurba_marseille","lat":43.281494,"lon":5.443435,"is_reserved":false,"is_disabled":true,"rental_uris":{"android":"levelo://app?vid=e93b949e-1738-47f2-ad13-8f512df2ffaf","ios":"levelo://app?vid=e93b949e-1738-47f2-ad13-8f512df2ffaf"},"vehicle_type_id":"4","last_reported":1746371347,"current_range_meters":0,"station_id":"","pricing_plan_id":"cebpf4jnsgd1na2vs0mg"},{"bike_id":"d33a5ca9-498e-4646-99d6-243e2e91da6f","system_id":"levelo_inurba_marseille","lat":43.27961,"lon":5.38744,"is_reserved":false,"is_disabled":true,"rental_uris":{"android":"levelo://app?vid=d33a5ca9-498e-4646-99d6-243e2e91da6f","ios":"levelo://app?vid=d33a5ca9-498e-4646-99d6-243e2e91da6f"},"vehicle_type_id":"4","last_reported":1746371347,"current_range_meters":0,"station_id":"ce4bhg12rcd13ifvqf80","pricing_plan_id":"cebpf4jnsgd1na2vs0mg"},{"bike_id":"3a04f052-e41a-4a5a-843f-76192effd301","system_id":"levelo_inurba_marseille","lat":43.26202,"lon":5.37921,"is_reserved":false,"is_disabled":true,"rental_uris":{"android":"levelo://app?vid=3a04f052-e41a-4a5a-843f-76192effd301","ios":"levelo://app?vid=3a04f052-e41a-4a5a-843f-76192effd301"},"vehicle_type_id":"4","last_reported":1746371347,"current_range_meters":0,"station_id":"ce4bhjp2rcd13ifvqg90","pricing_plan_id":"cebpf4jnsgd1na2vs0mg"},{"bike_id":"e292b74c-e60d-4314-9296-5f8e681eaa73","system_id":"levelo_inurba_marseille","lat":43.25113,"lon":5.40319,"is_reserved":false,"is_disabled":true,"rental_uris":{"android":"levelo://app?vid=e292b74c-e60d-4314-9296-5f8e681eaa73","ios":"levelo://app?vid=e292b74c-e60d-4314-9296-5f8e681eaa73"},"vehicle_type_id":"4","last_reported":1746371347,"current_range_meters":0,"station_id":"ce4bhlh2rcd13ifvqgig","pricing_plan_id":"cebpf4jnsgd1na2vs0mg"},{"bike_id":"22ede1ac-87a3-4f13-869c-d3ae614bb960","system_id":"levelo_inurba_marseille","lat":43.2417,"lon":5.36397,"is_reserved":false,"is_disabled":true,"rental_uris":{"android":"levelo://app?vid=22ede1ac-87a3-4f13-869c-d3ae614bb960","ios":"levelo://app?vid=22ede1ac-87a3-4f13-869c-d3ae614bb960"},"vehicle_type_id":"4","last_reported":1746371347,"current_range_meters":0,"station_id":"cpo36qri1sfpv3e86is0","pricing_plan_id":"cebpf4jnsgd1na2vs0mg"},{"bike_id":"fc957e4a-6d17-4a74-87c3-72c3cf5ce821","system_id":"levelo_inurba_marseille","lat":43.30722,"lon":5.4243,"is_reserved":false,"is_disabled":true,"rental_uris":{"android":"levelo://app?vid=fc957e4a-6d17-4a74-87c3-72c3cf5ce821","ios":"levelo://app?vid=fc957e4a-6d17-4a74-87c3-72c3cf5ce821"},"vehicle_type_id":"4","last_reported":1746371347,"current_range_meters":0,"station_id":"st_cvj6ca6bvosntc0bfgr0","pricing_plan_id":"cebpf4jnsgd1na2vs0mg"},{"bike_id":"460dd371-6e7a-4a88-b74e-9bdea4989ea2","system_id":"levelo_inurba_marseille","lat":43.26952,"lon":5.38634,"is_reserved":false,"is_disabled":true,"rental_uris":{"android":"levelo://app?vid=460dd371-6e7a-4a88-b74e-9bdea4989ea2","ios":"levelo://app?vid=460dd371-6e7a-4a88-b74e-9bdea4989ea2"},"vehicle_type_id":"4","last_reported":1746371347,"current_range_meters":800,"station_id":"ce4bhh92rcd13ifvqfh0","pricing_plan_id":"cebpf4jnsgd1na2vs0mg"},{"bike_id":"131284ec-0573-447e-95d8-832ad1b61bfb","system_id":"levelo_inurba_marseille","lat":43.26203,"lon":5.37933,"is_reserved":false,"is_disabled":true,"rental_uris":{"android":"levelo://app?vid=131284ec-0573-447e-95d8-832ad1b61bfb","ios":"levelo://app?vid=131284ec-0573-447e-95d8-832ad1b61bfb"},"vehicle_type_id":"4","last_reported":1746371347,"current_range_meters":800,"station_id":"ce4bhjp2rcd13ifvqg90","pricing_plan_id":"cebpf4jnsgd1na2vs0mg"},{"bike_id":"2534b4e7-147c-4154-bc2a-f9573a309f97","system_id":"levelo_inurba_marseille","lat":43.27374,"lon":5.36262,"is_reserved":false,"is_disabled":true,"rental_uris":{"android":"levelo://app?vid=2534b4e7-147c-4154-bc2a-f9573a309f97","ios":"levelo://app?vid=2534b4e7-147c-4154-bc2a-f9573a309f97"},"vehicle_type_id":"4","last_reported":1746371347,"current_range_meters":1600,"station_id":"ce4bhbh2rcd13ifvqeo0","pricing_plan_id":"cebpf4jnsgd1na2vs0mg"},{"bike_id":"bfde4c09-4802-4193-9d99-6cd2e1675207","system_id":"levelo_inurba_marseille","lat":43.32537,"lon":5.41427,"is_reserved":false,"is_disabled":true,"rental_uris":{"android":"levelo://app?vid=bfde4c09-4802-4193-9d99-6cd2e1675207","ios":"levelo://app?vid=bfde4c09-4802-4193-9d99-6cd2e1675207"},"vehicle_type_id":"4","last_reported":1746371347,"current_range_meters":1600,"station_id":"ce4bhq12rcd13ifvqhhg","pricing_plan_id":"cebpf4jnsgd1na2vs0mg"},{"bike_id":"336043ef-277a-4c59-9453-dfe001d33a02","system_id":"levelo_inurba_marseille","lat":43.21194,"lon":5.35069,"is_reserved":false,"is_disabled":true,"rental_uris":{"android":"levelo://app?vid=336043ef-277a-4c59-9453-dfe001d33a02","ios":"levelo://app?vid=336043ef-277a-4c59-9453-dfe001d33a02"},"vehicle_type_id":"4","last_reported":1746371347,"current_range_meters":2000,"station_id":"st_cvj6sg6p6f1abm77japg","pricing_plan_id":"cebpf4jnsgd1na2vs0mg"},{"bike_id":"b9cc67ce-80a0-460a-a527-03216aeb2af8","system_id":"levelo_inurba_marseille","lat":43.2867,"lon":5.36343,"is_reserved":false,"is_disabled":false,"rental_uris":{"android":"levelo://app?vid=b9cc67ce-80a0-460a-a527-03216aeb2af8","ios":"levelo://app?vid=b9cc67ce-80a0-460a-a527-03216aeb2af8"},"vehicle_type_id":"4","last_reported":1746371347,"current_range_meters":2800,"station_id":"ce4bhah2rcd13ifvqej0","pricing_plan_id":"cebpf4jnsgd1na2vs0mg"},{"bike_id":"0b2f9f32-6e02-4bda-8088-cf65d46fc2cb","system_id":"levelo_inurba_marseille","lat":43.25493,"lon":5.37646,"is_reserved":false,"is_disabled":false,"rental_uris":{"android":"levelo://app?vid=0b2f9f32-6e02-4bda-8088-cf65d46fc2cb","ios":"levelo://app?vid=0b2f9f32-6e02-4bda-8088-cf65d46fc2cb"},"vehicle_type_id":"4","last_reported":1746371347,"current_range_meters":2800,"station_id":"ce4bhh12rcd13ifvqff0","pricing_plan_id":"cebpf4jnsgd1na2vs0mg"},{"bike_id":"db186bf1-6dcc-4d1c-8904-153cdb2ca201","system_id":"levelo_inurba_marseille","lat":43.29609,"lon":5.37747,"is_reserved":false,"is_disabled":false,"rental_uris":{"android":"levelo://app?vid=db186bf1-6dcc-4d1c-8904-153cdb2ca201","ios":"levelo://app?vid=db186bf1-6dcc-4d1c-8904-153cdb2ca201"},"vehicle_type_id":"4","last_reported":1746371347,"current_range_meters":3200,"station_id":"ce4bgi92rcd13ifvqb90","pricing_plan_id":"cebpf4jnsgd1na2vs0mg"},{"bike_id":"b49123d1-1902-4f8e-96fb-53d93d8f1946","system_id":"levelo_inurba_marseille","lat":43.24661,"lon":5.38172,"is_reserved":false,"is_disabled":false,"rental_uris":{"android":"levelo://app?vid=b49123d1-1902-4f8e-96fb-53d93d8f1946","ios":"levelo://app?vid=b49123d1-1902-4f8e-96fb-53d93d8f1946"},"vehicle_type_id":"4","last_reported":1746371347,"current_range_meters":3200,"station_id":"ce4bhih2rcd13ifvqfr0","pricing_plan_id":"cebpf4jnsgd1na2vs0mg"},{"bike_id":"75c35565-89f3-4f92-b3b3-af9134ea6aba","system_id":"levelo_inurba_marseille","lat":43.307328,"lon":5.424377,"is_reserved":false,"is_disabled":false,"rental_uris":{"android":"levelo://app?vid=75c35565-89f3-4f92-b3b3-af9134ea6aba","ios":"levelo://app?vid=75c35565-89f3-4f92-b3b3-af9134ea6aba"},"vehicle_type_id":"4","last_reported":1746371347,"current_range_meters":3200,"station_id":"st_cvj6ca6bvosntc0bfgr0","pricing_plan_id":"cebpf4jnsgd1na2vs0mg"},{"bike_id":"441771cd-0001-4237-b26e-f2e1502d0768","system_id":"levelo_inurba_marseille","lat":43.23644,"lon":5.36596,"is_reserved":false,"is_disabled":false,"rental_uris":{"android":"levelo://app?vid=441771cd-0001-4237-b26e-f2e1502d0768","ios":"levelo://app?vid=441771cd-0001-4237-b26e-f2e1502d0768"},"vehicle_type_id":"4","last_reported":1746371347,"current_range_meters":3600,"station_id":"","pricing_plan_id":"cebpf4jnsgd1na2vs0mg"},{"bike_id":"570b486c-50df-4f1f-97df-caa86c0d419e","system_id":"levelo_inurba_marseille","lat":43.33689,"lon":5.35578,"is_reserved":false,"is_disabled":false,"rental_uris":{"android":"levelo://app?vid=570b486c-50df-4f1f-97df-caa86c0d419e","ios":"levelo://app?vid=570b486c-50df-4f1f-97df-caa86c0d419e"},"vehicle_type_id":"4","last_reported":1746371347,"current_range_meters":4000,"station_id":"","pricing_plan_id":"cebpf4jnsgd1na2vs0mg"},{"bike_id":"909825d5-7ad2-409e-b0de-cec7d5b4fa06","system_id":"levelo_inurba_marseille","lat":43.24223,"lon":5.36729,"is_reserved":false,"is_disabled":false,"rental_uris":{"android":"levelo://app?vid=909825d5-7ad2-409e-b0de-cec7d5b4fa06","ios":"levelo://app?vid=909825d5-7ad2-409e-b0de-cec7d5b4fa06"},"vehicle_type_id":"4","last_reported":1746371347,"current_range_meters":4400,"station_id":"","pricing_plan_id":"cebpf4jnsgd1na2vs0mg"},{"bike_id":"39d83911-e17e-4776-b8f2-6450602c8696","system_id":"levelo_inurba_marseille","lat":43.29902,"lon":5.43664,"is_reserved":false,"is_disabled":false,"rental_uris":{"android":"levelo://app?vid=39d83911-e17e-4776-b8f2-6450602c8696","ios":"levelo://app?vid=39d83911-e17e-4776-b8f2-6450602c8696"},"vehicle_type_id":"4","last_reported":1746371347,"current_range_meters":4400,"station_id":"ce4bhpp2rcd13ifvqhfg","pricing_plan_id":"cebpf4jnsgd1na2vs0mg"},{"bike_id":"582f7fac-49be-4020-a1dd-9094322bdead","system_id":"levelo_inurba_marseille","lat":43.30927,"lon":5.40143,"is_reserved":false,"is_disabled":false,"rental_uris":{"android":"levelo://app?vid=582f7fac-49be-4020-a1dd-9094322bdead","ios":"levelo://app?vid=582f7fac-49be-4020-a1dd-9094322bdead"},"vehicle_type_id":"4","last_reported":1746371347,"current_range_meters":4800,"station_id":"ce4bgvp2rcd13ifvqct0","pricing_plan_id":"cebpf4jnsgd1na2vs0mg"},{"bike_id":"66dce13d-1890-42a9-9b15-3f00aefc820e","system_id":"levelo_inurba_marseille","lat":43.26787,"lon":5.3943,"is_reserved":false,"is_disabled":false,"rental_uris":{"android":"levelo://app?vid=66dce13d-1890-42a9-9b15-3f00aefc820e","ios":"levelo://app?vid=66dce13d-1890-42a9-9b15-3f00aefc820e"},"vehicle_type_id":"4","last_reported":1746371347,"current_range_meters":4800,"station_id":"ce4bhh12rcd13ifvqfg0","pricing_plan_id":"cebpf4jnsgd1na2vs0mg"},{"bike_id":"27d157ca-c5c1-443e-8f14-30c2fad4061e","system_id":"levelo_inurba_marseille","lat":43.29199,"lon":5.39323,"is_reserved":false,"is_disabled":false,"rental_uris":{"android":"levelo://app?vid=27d157ca-c5c1-443e-8f14-30c2fad4061e","ios":"levelo://app?vid=27d157ca-c5c1-443e-8f14-30c2fad4061e"},"vehicle_type_id":"4","last_reported":1746371347,"current_range_meters":5600,"station_id":"ce4bh192rcd13ifvqdd0","pricing_plan_id":"cebpf4jnsgd1na2vs0mg"},{"bike_id":"1e372de8-09ef-418d-903e-d6c845a35c13","system_id":"levelo_inurba_marseille","lat":43.26557,"lon":5.3901,"is_reserved":false,"is_disabled":false,"rental_uris":{"android":"levelo://app?vid=1e372de8-09ef-418d-903e-d6c845a35c13","ios":"levelo://app?vid=1e372de8-09ef-418d-903e-d6c845a35c13"},"vehicle_type_id":"4","last_reported":1746371347,"current_range_meters":5600,"station_id":"ce4bhe12rcd13ifvqf30","pricing_plan_id":"cebpf4jnsgd1na2vs0mg"},{"bike_id":"6012e73f-a97d-4080-8451-31be47c04cb3","system_id":"levelo_inurba_marseille","lat":43.241831,"lon":5.3971,"is_reserved":false,"is_disabled":false,"rental_uris":{"android":"levelo://app?vid=6012e73f-a97d-4080-8451-31be47c04cb3","ios":"levelo://app?vid=6012e73f-a97d-4080-8451-31be47c04cb3"},"vehicle_type_id":"4","last_reported":1746371347,"current_range_meters":5600,"station_id":"ce4bhn12rcd13ifvqgpg","pricing_plan_id":"cebpf4jnsgd1na2vs0mg"},{"bike_id":"75c937ce-cab5-43b3-94a0-f6786643217c","system_id":"levelo_inurba_marseille","lat":43.25499,"lon":5.37646,"is_reserved":false,"is_disabled":false,"rental_uris":{"android":"levelo://app?vid=75c937ce-cab5-43b3-94a0-f6786643217c","ios":"levelo://app?vid=75c937ce-cab5-43b3-94a0-f6786643217c"},"vehicle_type_id":"4","last_reported":1746371347,"current_range_meters":6000,"station_id":"ce4bhh12rcd13ifvqff0","pricing_plan_id":"cebpf4jnsgd1na2vs0mg"},{"bike_id":"dfb3396e-96f5-457c-af11-f6f27dad33e9","system_id":"levelo_inurba_marseille","lat":43.271955,"lon":5.36473,"is_reserved":false,"is_disabled":false,"rental_uris":{"android":"levelo://app?vid=dfb3396e-96f5-457c-af11-f6f27dad33e9","ios":"levelo://app?vid=dfb3396e-96f5-457c-af11-f6f27dad33e9"},"vehicle_type_id":"4","last_reported":1746371347,"current_range_meters":6400,"station_id":"","pricing_plan_id":"cebpf4jnsgd1na2vs0mg"},{"bike_id":"8df6e310-0880-40a9-a691-cd475dfa3928","system_id":"levelo_inurba_marseille","lat":43.285792,"lon":5.442435,"is_reserved":false,"is_disabled":false,"rental_uris":{"android":"levelo://app?vid=8df6e310-0880-40a9-a691-cd475dfa3928","ios":"levelo://app?vid=8df6e310-0880-40a9-a691-cd475dfa3928"},"vehicle_type_id":"4","last_reported":1746371347,"current_range_meters":6400,"station_id":"","pricing_plan_id":"cebpf4jnsgd1na2vs0mg"},{"bike_id":"fefd08ec-5881-4aed-9781-2a8173dd5fb9","system_id":"levelo_inurba_marseille","lat":43.29427,"lon":5.38248,"is_reserved":false,"is_disabled":false,"rental_uris":{"android":"levelo://app?vid=fefd08ec-5881-4aed-9781-2a8173dd5fb9","ios":"levelo://app?vid=fefd08ec-5881-4aed-9781-2a8173dd5fb9"},"vehicle_type_id":"4","last_reported":1746371347,"current_range_meters":6400,"station_id":"","pricing_plan_id":"cebpf4jnsgd1na2vs0mg"},{"bike_id":"3247a1fa-19e7-42ef-a77a-3c1dbfc7649b","system_id":"levelo_inurba_marseille","lat":43.27622,"lon":5.36098,"is_reserved":false,"is_disabled":false,"rental_uris":{"android":"levelo://app?vid=3247a1fa-19e7-42ef-a77a-3c1dbfc7649b","ios":"levelo://app?vid=3247a1fa-19e7-42ef-a77a-3c1dbfc7649b"},"vehicle_type_id":"4","last_reported":1746371347,"current_range_meters":6400,"station_id":"ce4bgj92rcd13ifvqbe0","pricing_plan_id":"cebpf4jnsgd1na2vs0mg"},{"bike_id":"8df37787-a611-4ce6-9e65-032cb168f59b","system_id":"levelo_inurba_marseille","lat":43.21195,"lon":5.35078,"is_reserved":false,"is_disabled":false,"rental_uris":{"android":"levelo://app?vid=8df37787-a611-4ce6-9e65-032cb168f59b","ios":"levelo://app?vid=8df37787-a611-4ce6-9e65-032cb168f59b"},"vehicle_type_id":"4","last_reported":1746371347,"current_range_meters":6400,"station_id":"st_cvj6sg6p6f1abm77japg","pricing_plan_id":"cebpf4jnsgd1na2vs0mg"},{"bike_id":"7d6c3519-1496-4d81-ac33-47df36cc8682","system_id":"levelo_inurba_marseille","lat":43.29626,"lon":5.37736,"is_reserved":false,"is_disabled":false,"rental_uris":{"android":"levelo://app?vid=7d6c3519-1496-4d81-ac33-47df36cc8682","ios":"levelo://app?vid=7d6c3519-1496-4d81-ac33-47df36cc8682"},"vehicle_type_id":"4","last_reported":1746371347,"current_range_meters":7200,"station_id":"ce4bgi92rcd13ifvqb90","pricing_plan_id":"cebpf4jnsgd1na2vs0mg"},{"bike_id":"3451fdef-4d8d-41ef-b951-e619d83dcfe4","system_id":"levelo_inurba_marseille","lat":43.30434,"lon":5.38889,"is_reserved":false,"is_disabled":false,"rental_uris":{"android":"levelo://app?vid=3451fdef-4d8d-41ef-b951-e619d83dcfe4","ios":"levelo://app?vid=3451fdef-4d8d-41ef-b951-e619d83dcfe4"},"vehicle_type_id":"4","last_reported":1746371347,"current_range_meters":7200,"station_id":"ce4bgk12rcd13ifvqbi0","pricing_plan_id":"cebpf4jnsgd1na2vs0mg"},{"bike_id":"85510d9d-fe07-43bc-9ea8-1ee2f63c444f","system_id":"levelo_inurba_marseille","lat":43.30552,"lon":5.36549,"is_reserved":false,"is_disabled":false,"rental_uris":{"android":"levelo://app?vid=85510d9d-fe07-43bc-9ea8-1ee2f63c444f","ios":"levelo://app?vid=85510d9d-fe07-43bc-9ea8-1ee2f63c444f"},"vehicle_type_id":"4","last_reported":1746371347,"current_range_meters":7200,"station_id":"ce4bgs12rcd13ifvqcag","pricing_plan_id":"cebpf4jnsgd1na2vs0mg"},{"bike_id":"6ae9068b-8534-47e2-832a-cb0e5255371d","system_id":"levelo_inurba_marseille","lat":43.337444,"lon":5.374475,"is_reserved":false,"is_disabled":false,"rental_uris":{"android":"levelo://app?vid=6ae9068b-8534-47e2-832a-cb0e5255371d","ios":"levelo://app?vid=6ae9068b-8534-47e2-832a-cb0e5255371d"},"vehicle_type_id":"4","last_reported":1746371347,"current_range_meters":7200,"station_id":"ce4bgvp2rcd13ifvqct0","pricing_plan_id":"cebpf4jnsgd1na2vs0mg"},{"bike_id":"b07dd6c1-f98e-4fd2-b06b-f10067e85f5c","system_id":"levelo_inurba_marseille","lat":43.28707,"lon":5.39997,"is_reserved":false,"is_disabled":false,"rental_uris":{"android":"levelo://app?vid=b07dd6c1-f98e-4fd2-b06b-f10067e85f5c","ios":"levelo://app?vid=b07dd6c1-f98e-4fd2-b06b-f10067e85f5c"},"vehicle_type_id":"4","last_reported":1746371347,"current_range_meters":7200,"station_id":"ce4bho92rcd13ifvqh3g","pricing_plan_id":"cebpf4jnsgd1na2vs0mg"},{"bike_id":"a9e81389-04bf-4a2a-ad52-b64e50e776c4","system_id":"levelo_inurba_marseille","lat":43.2512,"lon":5.40318,"is_reserved":false,"is_disabled":false,"rental_uris":{"android":"levelo://app?vid=a9e81389-04bf-4a2a-ad52-b64e50e776c4","ios":"levelo://app?vid=a9e81389-04bf-4a2a-ad52-b64e50e776c4"},"vehicle_type_id":"4","last_reported":1746371347,"current_range_meters":8000,"station_id":"ce4bhlh2rcd13ifvqgig","pricing_plan_id":"cebpf4jnsgd1na2vs0mg"},{"bike_id":"f0259f55-382d-4317-a5a3-c63365a0d76b","system_id":"levelo_inurba_marseille","lat":43.25547,"lon":5.41795,"is_reserved":false,"is_disabled":false,"rental_uris":{"android":"levelo://app?vid=f0259f55-382d-4317-a5a3-c63365a0d76b","ios":"levelo://app?vid=f0259f55-382d-4317-a5a3-c63365a0d76b"},"vehicle_type_id":"4","last_reported":1746371347,"current_range_meters":8400,"station_id":"","pricing_plan_id":"cebpf4jnsgd1na2vs0mg"},{"bike_id":"a0aae7b8-8c70-4466-a693-ceac31b60ff9","system_id":"levelo_inurba_marseille","lat":43.24389,"lon":5.37048,"is_reserved":false,"is_disabled":false,"rental_uris":{"android":"levelo://app?vid=a0aae7b8-8c70-4466-a693-ceac31b60ff9","ios":"levelo://app?vid=a0aae7b8-8c70-4466-a693-ceac31b60ff9"},"vehicle_type_id":"4","last_reported":1746371347,"current_range_meters":8400,"station_id":"ce4bhhh2rcd13ifvqfk0","pricing_plan_id":"cebpf4jnsgd1na2vs0mg"},{"bike_id":"4d9c785a-6a14-4f60-8bcb-eb74d56c9262","system_id":"levelo_inurba_marseille","lat":43.270771,"lon":5.422756,"is_reserved":false,"is_disabled":false,"rental_uris":{"android":"levelo://app?vid=4d9c785a-6a14-4f60-8bcb-eb74d56c9262","ios":"levelo://app?vid=4d9c785a-6a14-4f60-8bcb-eb74d56c9262"},"vehicle_type_id":"4","last_reported":1746371347,"current_range_meters":8400,"station_id":"ce4bhk92rcd13ifvqgb0","pricing_plan_id":"cebpf4jnsgd1na2vs0mg"},{"bike_id":"fd2c3c67-23a6-4380-b7ca-8f23c8f78921","system_id":"levelo_inurba_marseille","lat":43.323627,"lon":5.367431,"is_reserved":false,"is_disabled":false,"rental_uris":{"android":"levelo://app?vid=fd2c3c67-23a6-4380-b7ca-8f23c8f78921","ios":"levelo://app?vid=fd2c3c67-23a6-4380-b7ca-8f23c8f78921"},"vehicle_type_id":"4","last_reported":1746371347,"current_range_meters":8800,"station_id":"ce4bhsh2rcd13ifvqi2g","pricing_plan_id":"cebpf4jnsgd1na2vs0mg"},{"bike_id":"7c9f302f-84ec-4062-ae0c-5788a6786ad9","system_id":"levelo_inurba_marseille","lat":43.21741,"lon":5.34612,"is_reserved":false,"is_disabled":false,"rental_uris":{"android":"levelo://app?vid=7c9f302f-84ec-4062-ae0c-5788a6786ad9","ios":"levelo://app?vid=7c9f302f-84ec-4062-ae0c-5788a6786ad9"},"vehicle_type_id":"4","last_reported":1746371347,"current_range_meters":8800,"station_id":"st_cvj6r9ubvosntc0bgbag","pricing_plan_id":"cebpf4jnsgd1na2vs0mg"},{"bike_id":"bbb995e2-1b34-4d7d-84b0-0ba0cd7606a3","system_id":"levelo_inurba_marseille","lat":43.3015,"lon":5.3808,"is_reserved":false,"is_disabled":false,"rental_uris":{"android":"levelo://app?vid=bbb995e2-1b34-4d7d-84b0-0ba0cd7606a3","ios":"levelo://app?vid=bbb995e2-1b34-4d7d-84b0-0ba0cd7606a3"},"vehicle_type_id":"4","last_reported":1746371347,"current_range_meters":9200,"station_id":"ce4bgjp2rcd13ifvqbh0","pricing_plan_id":"cebpf4jnsgd1na2vs0mg"},{"bike_id":"e4856e11-0139-477e-a022-4b979369719b","system_id":"levelo_inurba_marseille","lat":43.23973,"lon":5.366,"is_reserved":false,"is_disabled":false,"rental_uris":{"android":"levelo://app?vid=e4856e11-0139-477e-a022-4b979369719b","ios":"levelo://app?vid=e4856e11-0139-477e-a022-4b979369719b"},"vehicle_type_id":"4","last_reported":1746371347,"current_range_meters":9200,"station_id":"ce4bhi12rcd13ifvqfp0","pricing_plan_id":"cebpf4jnsgd1na2vs0mg"},{"bike_id":"6338e318-2f80-4349-ae11-615c887b4fb9","system_id":"levelo_inurba_marseille","lat":43.25941,"lon":5.40879,"is_reserved":false,"is_disabled":false,"rental_uris":{"android":"levelo://app?vid=6338e318-2f80-4349-ae11-615c887b4fb9","ios":"levelo://app?vid=6338e318-2f80-4349-ae11-615c887b4fb9"},"vehicle_type_id":"4","last_reported":1746371347,"current_range_meters":9200,"station_id":"ce4bhm92rcd13ifvqglg","pricing_plan_id":"cebpf4jnsgd1na2vs0mg"},{"bike_id":"d55c8237-2304-4efd-993e-dc727f0f1b6a","system_id":"levelo_inurba_marseille","lat":43.22502,"lon":5.347837,"is_reserved":false,"is_disabled":false,"rental_uris":{"android":"levelo://app?vid=d55c8237-2304-4efd-993e-dc727f0f1b6a","ios":"levelo://app?vid=d55c8237-2304-4efd-993e-dc727f0f1b6a"},"vehicle_type_id":"4","last_reported":1746371347,"current_range_meters":9200,"station_id":"st_cvj5dfep6f1abm77gieg","pricing_plan_id":"cebpf4jnsgd1na2vs0mg"},{"bike_id":"cd9e986b-5b1d-4861-9c90-b95323103bab","system_id":"levelo_inurba_marseille","lat":43.24817,"lon":5.37457,"is_reserved":false,"is_disabled":false,"rental_uris":{"android":"levelo://app?vid=cd9e986b-5b1d-4861-9c90-b95323103bab","ios":"levelo://app?vid=cd9e986b-5b1d-4861-9c90-b95323103bab"},"vehicle_type_id":"4","last_reported":1746371347,"current_range_meters":9600,"station_id":"ce4bhgh2rcd13ifvqfb0","pricing_plan_id":"cebpf4jnsgd1na2vs0mg"},{"bike_id":"3ef55cc5-11a0-42cd-9c72-711403dffcfb","system_id":"levelo_inurba_marseille","lat":43.22932,"lon":5.35377,"is_reserved":false,"is_disabled":false,"rental_uris":{"android":"levelo://app?vid=3ef55cc5-11a0-42cd-9c72-711403dffcfb","ios":"levelo://app?vid=3ef55cc5-11a0-42cd-9c72-711403dffcfb"},"vehicle_type_id":"4","last_reported":1746371347,"current_range_meters":9600,"station_id":"cpo3532slgdg3j2ikp40","pricing_plan_id":"cebpf4jnsgd1na2vs0mg"},{"bike_id":"aedf206f-89f3-4f30-9da6-56fb7ff8915b","system_id":"levelo_inurba_marseille","lat":43.281175,"lon":5.403994,"is_reserved":false,"is_disabled":false,"rental_uris":{"android":"levelo://app?vid=aedf206f-89f3-4f30-9da6-56fb7ff8915b","ios":"levelo://app?vid=aedf206f-89f3-4f30-9da6-56fb7ff8915b"},"vehicle_type_id":"4","last_reported":1746371347,"current_range_meters":10000,"station_id":"","pricing_plan_id":"cebpf4jnsgd1na2vs0mg"},{"bike_id":"69aa30cd-f2b1-4ec7-8146-19e1fd94eb42","system_id":"levelo_inurba_marseille","lat":43.307922,"lon":5.381517,"is_reserved":false,"is_disabled":false,"rental_uris":{"android":"levelo://app?vid=69aa30cd-f2b1-4ec7-8146-19e1fd94eb42","ios":"levelo://app?vid=69aa30cd-f2b1-4ec7-8146-19e1fd94eb42"},"vehicle_type_id":"4","last_reported":1746371347,"current_range_meters":10000,"station_id":"ce4bgt12rcd13ifvqce0","pricing_plan_id":"cebpf4jnsgd1na2vs0mg"},{"bike_id":"b23e6477-0706-440b-9dde-1183a17007da","system_id":"levelo_inurba_marseille","lat":43.27074,"lon":5.42305,"is_reserved":false,"is_disabled":false,"rental_uris":{"android":"levelo://app?vid=b23e6477-0706-440b-9dde-1183a17007da","ios":"levelo://app?vid=b23e6477-0706-440b-9dde-1183a17007da"},"vehicle_type_id":"4","last_reported":1746371347,"current_range_meters":10000,"station_id":"ce4bhk92rcd13ifvqgb0","pricing_plan_id":"cebpf4jnsgd1na2vs0mg"},{"bike_id":"51e137dc-06d4-4721-8a2f-24e002c6d5d0","system_id":"levelo_inurba_marseille","lat":43.24047,"lon":5.37785,"is_reserved":false,"is_disabled":false,"rental_uris":{"android":"levelo://app?vid=51e137dc-06d4-4721-8a2f-24e002c6d5d0","ios":"levelo://app?vid=51e137dc-06d4-4721-8a2f-24e002c6d5d0"},"vehicle_type_id":"4","last_reported":1746371347,"current_range_meters":10000,"station_id":"ce4bhnp2rcd13ifvqgvg","pricing_plan_id":"cebpf4jnsgd1na2vs0mg"},{"bike_id":"c59dd5c1-a195-4870-b3d7-afb523598e23","system_id":"levelo_inurba_marseille","lat":43.30803,"lon":5.43532,"is_reserved":false,"is_disabled":false,"rental_uris":{"android":"levelo://app?vid=c59dd5c1-a195-4870-b3d7-afb523598e23","ios":"levelo://app?vid=c59dd5c1-a195-4870-b3d7-afb523598e23"},"vehicle_type_id":"4","last_reported":1746371347,"current_range_meters":10000,"station_id":"ce4bhph2rcd13ifvqheg","pricing_plan_id":"cebpf4jnsgd1na2vs0mg"},{"bike_id":"b10901bc-afb6-4657-8344-f1f4848ffd7a","system_id":"levelo_inurba_marseille","lat":43.31889,"lon":5.40735,"is_reserved":false,"is_disabled":false,"rental_uris":{"android":"levelo://app?vid=b10901bc-afb6-4657-8344-f1f4848ffd7a","ios":"levelo://app?vid=b10901bc-afb6-4657-8344-f1f4848ffd7a"},"vehicle_type_id":"4","last_reported":1746371347,"current_range_meters":10000,"station_id":"ce4bhq12rcd13ifvqhig","pricing_plan_id":"cebpf4jnsgd1na2vs0mg"},{"bike_id":"4badb9b6-3851-4c8c-a36e-7c02f91ea1d9","system_id":"levelo_inurba_marseille","lat":43.21195,"lon":5.35074,"is_reserved":false,"is_disabled":false,"rental_uris":{"android":"levelo://app?vid=4badb9b6-3851-4c8c-a36e-7c02f91ea1d9","ios":"levelo://app?vid=4badb9b6-3851-4c8c-a36e-7c02f91ea1d9"},"vehicle_type_id":"4","last_reported":1746371347,"current_range_meters":10000,"station_id":"st_cvj6sg6p6f1abm77japg","pricing_plan_id":"cebpf4jnsgd1na2vs0mg"},{"bike_id":"e458bcbf-6afe-4970-8ebd-2ed53232af52","system_id":"levelo_inurba_marseille","lat":43.2499,"lon":5.38929,"is_reserved":false,"is_disabled":false,"rental_uris":{"android":"levelo://app?vid=e458bcbf-6afe-4970-8ebd-2ed53232af52","ios":"levelo://app?vid=e458bcbf-6afe-4970-8ebd-2ed53232af52"},"vehicle_type_id":"4","last_reported":1746371347,"current_range_meters":10800,"station_id":"ce4bhgp2rcd13ifvqfd0","pricing_plan_id":"cebpf4jnsgd1na2vs0mg"},{"bike_id":"77e5fc0c-8247-4eae-976e-b65c5c479c47","system_id":"levelo_inurba_marseille","lat":43.24403,"lon":5.37045,"is_reserved":false,"is_disabled":false,"rental_uris":{"android":"levelo://app?vid=77e5fc0c-8247-4eae-976e-b65c5c479c47","ios":"levelo://app?vid=77e5fc0c-8247-4eae-976e-b65c5c479c47"},"vehicle_type_id":"4","last_reported":1746371347,"current_range_meters":10800,"station_id":"ce4bhhh2rcd13ifvqfk0","pricing_plan_id":"cebpf4jnsgd1na2vs0mg"},{"bike_id":"2ca7e5d2-f4a6-48bc-8c06-76ef7156ed2e","system_id":"levelo_inurba_marseille","lat":43.241776,"lon":5.397294,"is_reserved":false,"is_disabled":false,"rental_uris":{"android":"levelo://app?vid=2ca7e5d2-f4a6-48bc-8c06-76ef7156ed2e","ios":"levelo://app?vid=2ca7e5d2-f4a6-48bc-8c06-76ef7156ed2e"},"vehicle_type_id":"4","last_reported":1746371347,"current_range_meters":10800,"station_id":"ce4bhn12rcd13ifvqgpg","pricing_plan_id":"cebpf4jnsgd1na2vs0mg"},{"bike_id":"f503d375-3cc9-456c-9a3e-d2f199c0c9d5","system_id":"levelo_inurba_marseille","lat":43.31331,"lon":5.39692,"is_reserved":false,"is_disabled":false,"rental_uris":{"android":"levelo://app?vid=f503d375-3cc9-456c-9a3e-d2f199c0c9d5","ios":"levelo://app?vid=f503d375-3cc9-456c-9a3e-d2f199c0c9d5"},"vehicle_type_id":"4","last_reported":1746371347,"current_range_meters":11200,"station_id":"ce4bgvp2rcd13ifvqcu0","pricing_plan_id":"cebpf4jnsgd1na2vs0mg"},{"bike_id":"c9738f56-d41a-4daf-a9e7-e320aa9831d7","system_id":"levelo_inurba_marseille","lat":43.27907,"lon":5.3802,"is_reserved":false,"is_disabled":false,"rental_uris":{"android":"levelo://app?vid=c9738f56-d41a-4daf-a9e7-e320aa9831d7","ios":"levelo://app?vid=c9738f56-d41a-4daf-a9e7-e320aa9831d7"},"vehicle_type_id":"4","last_reported":1746371347,"current_range_meters":11200,"station_id":"ce4bhf92rcd13ifvqf50","pricing_plan_id":"cebpf4jnsgd1na2vs0mg"},{"bike_id":"22e10c6a-8d35-4996-aad9-f4837468cb7a","system_id":"levelo_inurba_marseille","lat":43.29576,"lon":5.39975,"is_reserved":false,"is_disabled":false,"rental_uris":{"android":"levelo://app?vid=22e10c6a-8d35-4996-aad9-f4837468cb7a","ios":"levelo://app?vid=22e10c6a-8d35-4996-aad9-f4837468cb7a"},"vehicle_type_id":"4","last_reported":1746371347,"current_range_meters":11600,"station_id":"ce4bh312rcd13ifvqdj0","pricing_plan_id":"cebpf4jnsgd1na2vs0mg"},{"bike_id":"c041e647-a532-4271-ab4c-b8d07e0d410f","system_id":"levelo_inurba_marseille","lat":43.24552,"lon":5.39546,"is_reserved":false,"is_disabled":false,"rental_uris":{"android":"levelo://app?vid=c041e647-a532-4271-ab4c-b8d07e0d410f","ios":"levelo://app?vid=c041e647-a532-4271-ab4c-b8d07e0d410f"},"vehicle_type_id":"4","last_reported":1746371347,"current_range_meters":11600,"station_id":"ce4bhlp2rcd13ifvqgjg","pricing_plan_id":"cebpf4jnsgd1na2vs0mg"},{"bike_id":"40d777f6-a608-4204-ac07-3ec674c6ebea","system_id":"levelo_inurba_marseille","lat":43.30216,"lon":5.39468,"is_reserved":false,"is_disabled":false,"rental_uris":{"android":"levelo://app?vid=40d777f6-a608-4204-ac07-3ec674c6ebea","ios":"levelo://app?vid=40d777f6-a608-4204-ac07-3ec674c6ebea"},"vehicle_type_id":"4","last_reported":1746371347,"current_range_meters":12400,"station_id":"ce4bh0p2rcd13ifvqd70","pricing_plan_id":"cebpf4jnsgd1na2vs0mg"},{"bike_id":"94bc407a-a968-43b4-992e-445a9d933c3f","system_id":"levelo_inurba_marseille","lat":43.31689,"lon":5.4047,"is_reserved":false,"is_disabled":false,"rental_uris":{"android":"levelo://app?vid=94bc407a-a968-43b4-992e-445a9d933c3f","ios":"levelo://app?vid=94bc407a-a968-43b4-992e-445a9d933c3f"},"vehicle_type_id":"4","last_reported":1746371347,"current_range_meters":12800,"station_id":"ce4bh012rcd13ifvqd00","pricing_plan_id":"cebpf4jnsgd1na2vs0mg"},{"bike_id":"e5e10673-0f01-459e-b6d7-bb8cfc2725cb","system_id":"levelo_inurba_marseille","lat":43.28612,"lon":5.37058,"is_reserved":false,"is_disabled":false,"rental_uris":{"android":"levelo://app?vid=e5e10673-0f01-459e-b6d7-bb8cfc2725cb","ios":"levelo://app?vid=e5e10673-0f01-459e-b6d7-bb8cfc2725cb"},"vehicle_type_id":"4","last_reported":1746371347,"current_range_meters":12800,"station_id":"ce4bht12rcd13ifvqi60","pricing_plan_id":"cebpf4jnsgd1na2vs0mg"},{"bike_id":"e234c9c4-65cf-42bc-b2d9-38acc77199c3","system_id":"levelo_inurba_marseille","lat":43.37411,"lon":5.43787,"is_reserved":false,"is_disabled":false,"rental_uris":{"android":"levelo://app?vid=e234c9c4-65cf-42bc-b2d9-38acc77199c3","ios":"levelo://app?vid=e234c9c4-65cf-42bc-b2d9-38acc77199c3"},"vehicle_type_id":"4","last_reported":1746371347,"current_range_meters":13600,"station_id":"","pricing_plan_id":"cebpf4jnsgd1na2vs0mg"},{"bike_id":"b1e94ec2-c124-4b45-af28-71d37328dcf1","system_id":"levelo_inurba_marseille","lat":43.2176,"lon":5.3461,"is_reserved":false,"is_disabled":false,"rental_uris":{"android":"levelo://app?vid=b1e94ec2-c124-4b45-af28-71d37328dcf1","ios":"levelo://app?vid=b1e94ec2-c124-4b45-af28-71d37328dcf1"},"vehicle_type_id":"4","last_reported":1746371347,"current_range_meters":14000,"station_id":"","pricing_plan_id":"cebpf4jnsgd1na2vs0mg"},{"bike_id":"e84eee43-7ebe-4b56-a08b-27d6e58561fd","system_id":"levelo_inurba_marseille","lat":43.241759,"lon":5.397236,"is_reserved":false,"is_disabled":false,"rental_uris":{"android":"levelo://app?vid=e84eee43-7ebe-4b56-a08b-27d6e58561fd","ios":"levelo://app?vid=e84eee43-7ebe-4b56-a08b-27d6e58561fd"},"vehicle_type_id":"4","last_reported":1746371347,"current_range_meters":14000,"station_id":"ce4bhn12rcd13ifvqgpg","pricing_plan_id":"cebpf4jnsgd1na2vs0mg"},{"bike_id":"2307226f-b402-4f40-a1b0-72a2abad9dc0","system_id":"levelo_inurba_marseille","lat":43.30801,"lon":5.43528,"is_reserved":false,"is_disabled":false,"rental_uris":{"android":"levelo://app?vid=2307226f-b402-4f40-a1b0-72a2abad9dc0","ios":"levelo://app?vid=2307226f-b402-4f40-a1b0-72a2abad9dc0"},"vehicle_type_id":"4","last_reported":1746371347,"current_range_meters":14000,"station_id":"ce4bhph2rcd13ifvqheg","pricing_plan_id":"cebpf4jnsgd1na2vs0mg"},{"bike_id":"fdef9e55-be0f-41e0-8526-8e8fa7260880","system_id":"levelo_inurba_marseille","lat":43.312921,"lon":5.373931,"is_reserved":false,"is_disabled":false,"rental_uris":{"android":"levelo://app?vid=fdef9e55-be0f-41e0-8526-8e8fa7260880","ios":"levelo://app?vid=fdef9e55-be0f-41e0-8526-8e8fa7260880"},"vehicle_type_id":"4","last_reported":1746371347,"current_range_meters":14400,"station_id":"","pricing_plan_id":"cebpf4jnsgd1na2vs0mg"},{"bike_id":"b6f0c3c0-90b5-4b63-a4ab-c512cbc1288f","system_id":"levelo_inurba_marseille","lat":43.30143,"lon":5.38064,"is_reserved":false,"is_disabled":false,"rental_uris":{"android":"levelo://app?vid=b6f0c3c0-90b5-4b63-a4ab-c512cbc1288f","ios":"levelo://app?vid=b6f0c3c0-90b5-4b63-a4ab-c512cbc1288f"},"vehicle_type_id":"4","last_reported":1746371347,"current_range_meters":14400,"station_id":"ce4bgjp2rcd13ifvqbh0","pricing_plan_id":"cebpf4jnsgd1na2vs0mg"},{"bike_id":"d8477083-07e6-469a-a26c-51dd50f6038a","system_id":"levelo_inurba_marseille","lat":43.3014,"lon":5.380771,"is_reserved":false,"is_disabled":false,"rental_uris":{"android":"levelo://app?vid=d8477083-07e6-469a-a26c-51dd50f6038a","ios":"levelo://app?vid=d8477083-07e6-469a-a26c-51dd50f6038a"},"vehicle_type_id":"4","last_reported":1746371347,"current_range_meters":14400,"station_id":"ce4bgjp2rcd13ifvqbh0","pricing_plan_id":"cebpf4jnsgd1na2vs0mg"},{"bike_id":"3cdbc85c-9d63-442a-a013-9783ed014c94","system_id":"levelo_inurba_marseille","lat":43.24072,"lon":5.37765,"is_reserved":false,"is_disabled":false,"rental_uris":{"android":"levelo://app?vid=3cdbc85c-9d63-442a-a013-9783ed014c94","ios":"levelo://app?vid=3cdbc85c-9d63-442a-a013-9783ed014c94"},"vehicle_type_id":"4","last_reported":1746371347,"current_range_meters":14400,"station_id":"ce4bhnp2rcd13ifvqgvg","pricing_plan_id":"cebpf4jnsgd1na2vs0mg"},{"bike_id":"d46524f4-a168-4e2d-8c3a-62a0c064e2aa","system_id":"levelo_inurba_marseille","lat":43.30155,"lon":5.38075,"is_reserved":false,"is_disabled":false,"rental_uris":{"android":"levelo://app?vid=d46524f4-a168-4e2d-8c3a-62a0c064e2aa","ios":"levelo://app?vid=d46524f4-a168-4e2d-8c3a-62a0c064e2aa"},"vehicle_type_id":"4","last_reported":1746371347,"current_range_meters":14800,"station_id":"ce4bgjp2rcd13ifvqbh0","pricing_plan_id":"cebpf4jnsgd1na2vs0mg"},{"bike_id":"f7468600-dc0e-4824-9ccf-6ed7b908f035","system_id":"levelo_inurba_marseille","lat":43.295028,"lon":5.387221,"is_reserved":false,"is_disabled":false,"rental_uris":{"android":"levelo://app?vid=f7468600-dc0e-4824-9ccf-6ed7b908f035","ios":"levelo://app?vid=f7468600-dc0e-4824-9ccf-6ed7b908f035"},"vehicle_type_id":"4","last_reported":1746371347,"current_range_meters":14800,"station_id":"ce4bh2h2rcd13ifvqdh0","pricing_plan_id":"cebpf4jnsgd1na2vs0mg"},{"bike_id":"43f220ab-0408-46b3-abe5-60437ce3bc1e","system_id":"levelo_inurba_marseille","lat":43.231899,"lon":5.355628,"is_reserved":false,"is_disabled":false,"rental_uris":{"android":"levelo://app?vid=43f220ab-0408-46b3-abe5-60437ce3bc1e","ios":"levelo://app?vid=43f220ab-0408-46b3-abe5-60437ce3bc1e"},"vehicle_type_id":"4","last_reported":1746371347,"current_range_meters":14800,"station_id":"ce4bhu92rcd13ifvqi70","pricing_plan_id":"cebpf4jnsgd1na2vs0mg"},{"bike_id":"14d15bb0-2bfb-452a-bf1d-c14bb7ec054e","system_id":"levelo_inurba_marseille","lat":43.30929,"lon":5.40147,"is_reserved":false,"is_disabled":false,"rental_uris":{"android":"levelo://app?vid=14d15bb0-2bfb-452a-bf1d-c14bb7ec054e","ios":"levelo://app?vid=14d15bb0-2bfb-452a-bf1d-c14bb7ec054e"},"vehicle_type_id":"4","last_reported":1746371347,"current_range_meters":15200,"station_id":"ce4bgvp2rcd13ifvqct0","pricing_plan_id":"cebpf4jnsgd1na2vs0mg"},{"bike_id":"f07cfc50-1350-4568-9581-0845ede0b590","system_id":"levelo_inurba_marseille","lat":43.27037,"lon":5.42324,"is_reserved":false,"is_disabled":false,"rental_uris":{"android":"levelo://app?vid=f07cfc50-1350-4568-9581-0845ede0b590","ios":"levelo://app?vid=f07cfc50-1350-4568-9581-0845ede0b590"},"vehicle_type_id":"4","last_reported":1746371347,"current_range_meters":16000,"station_id":"","pricing_plan_id":"cebpf4jnsgd1na2vs0mg"},{"bike_id":"049ab3f0-b297-4b22-99dd-295af0ed4532","system_id":"levelo_inurba_marseille","lat":43.26684,"lon":5.38265,"is_reserved":false,"is_disabled":false,"rental_uris":{"android":"levelo://app?vid=049ab3f0-b297-4b22-99dd-295af0ed4532","ios":"levelo://app?vid=049ab3f0-b297-4b22-99dd-295af0ed4532"},"vehicle_type_id":"4","last_reported":1746371347,"current_range_meters":16000,"station_id":"ce4bhg92rcd13ifvqf90","pricing_plan_id":"cebpf4jnsgd1na2vs0mg"},{"bike_id":"d94ace2f-a694-4d2b-9fa0-6d215239b455","system_id":"levelo_inurba_marseille","lat":43.243875,"lon":5.370711,"is_reserved":false,"is_disabled":false,"rental_uris":{"android":"levelo://app?vid=d94ace2f-a694-4d2b-9fa0-6d215239b455","ios":"levelo://app?vid=d94ace2f-a694-4d2b-9fa0-6d215239b455"},"vehicle_type_id":"4","last_reported":1746371347,"current_range_meters":16000,"station_id":"ce4bhhh2rcd13ifvqfk0","pricing_plan_id":"cebpf4jnsgd1na2vs0mg"},{"bike_id":"2f910b06-a250-435a-b7ef-9b1b2ca3f916","system_id":"levelo_inurba_marseille","lat":43.32475,"lon":5.36568,"is_reserved":false,"is_disabled":false,"rental_uris":{"android":"levelo://app?vid=2f910b06-a250-435a-b7ef-9b1b2ca3f916","ios":"levelo://app?vid=2f910b06-a250-435a-b7ef-9b1b2ca3f916"},"vehicle_type_id":"4","last_reported":1746371347,"current_range_meters":16000,"station_id":"ce4bhs12rcd13ifvqhvg","pricing_plan_id":"cebpf4jnsgd1na2vs0mg"},{"bike_id":"8ab46f99-9644-474c-9745-b78357bd9ec9","system_id":"levelo_inurba_marseille","lat":43.37417,"lon":5.43785,"is_reserved":false,"is_disabled":false,"rental_uris":{"android":"levelo://app?vid=8ab46f99-9644-474c-9745-b78357bd9ec9","ios":"levelo://app?vid=8ab46f99-9644-474c-9745-b78357bd9ec9"},"vehicle_type_id":"4","last_reported":1746371347,"current_range_meters":16400,"station_id":"","pricing_plan_id":"cebpf4jnsgd1na2vs0mg"},{"bike_id":"5df0ec5f-3682-4083-9cdd-a160fa73fbb3","system_id":"levelo_inurba_marseille","lat":43.29228,"lon":5.36069,"is_reserved":false,"is_disabled":false,"rental_uris":{"android":"levelo://app?vid=5df0ec5f-3682-4083-9cdd-a160fa73fbb3","ios":"levelo://app?vid=5df0ec5f-3682-4083-9cdd-a160fa73fbb3"},"vehicle_type_id":"4","last_reported":1746371347,"current_range_meters":16400,"station_id":"ce4bhbh2rcd13ifvqeqg","pricing_plan_id":"cebpf4jnsgd1na2vs0mg"},{"bike_id":"df2f5817-0f0c-4afd-a55f-019220475156","system_id":"levelo_inurba_marseille","lat":43.23192,"lon":5.39988,"is_reserved":false,"is_disabled":false,"rental_uris":{"android":"levelo://app?vid=df2f5817-0f0c-4afd-a55f-019220475156","ios":"levelo://app?vid=df2f5817-0f0c-4afd-a55f-019220475156"},"vehicle_type_id":"4","last_reported":1746371347,"current_range_meters":16400,"station_id":"ce4bhn12rcd13ifvqgqg","pricing_plan_id":"cebpf4jnsgd1na2vs0mg"},{"bike_id":"0abe7365-362a-4c2d-949a-e32faf9d4099","system_id":"levelo_inurba_marseille","lat":43.21197,"lon":5.35042,"is_reserved":false,"is_disabled":false,"rental_uris":{"android":"levelo://app?vid=0abe7365-362a-4c2d-949a-e32faf9d4099","ios":"levelo://app?vid=0abe7365-362a-4c2d-949a-e32faf9d4099"},"vehicle_type_id":"4","last_reported":1746371347,"current_range_meters":16400,"station_id":"st_cvj6sg6p6f1abm77japg","pricing_plan_id":"cebpf4jnsgd1na2vs0mg"},{"bike_id":"0a0ece37-539d-4aa3-b235-deb8a4daf593","system_id":"levelo_inurba_marseille","lat":43.3307,"lon":5.40816,"is_reserved":false,"is_disabled":false,"rental_uris":{"android":"levelo://app?vid=0a0ece37-539d-4aa3-b235-deb8a4daf593","ios":"levelo://app?vid=0a0ece37-539d-4aa3-b235-deb8a4daf593"},"vehicle_type_id":"4","last_reported":1746371347,"current_range_meters":16800,"station_id":"","pricing_plan_id":"cebpf4jnsgd1na2vs0mg"},{"bike_id":"13a70599-c598-499a-868e-fc3dc6c2d5e2","system_id":"levelo_inurba_marseille","lat":43.26951,"lon":5.38641,"is_reserved":false,"is_disabled":false,"rental_uris":{"android":"levelo://app?vid=13a70599-c598-499a-868e-fc3dc6c2d5e2","ios":"levelo://app?vid=13a70599-c598-499a-868e-fc3dc6c2d5e2"},"vehicle_type_id":"4","last_reported":1746371347,"current_range_meters":16800,"station_id":"ce4bhh92rcd13ifvqfh0","pricing_plan_id":"cebpf4jnsgd1na2vs0mg"},{"bike_id":"1885e4e4-787e-4399-a182-13afb5671e8f","system_id":"levelo_inurba_marseille","lat":43.31779,"lon":5.38964,"is_reserved":false,"is_disabled":false,"rental_uris":{"android":"levelo://app?vid=1885e4e4-787e-4399-a182-13afb5671e8f","ios":"levelo://app?vid=1885e4e4-787e-4399-a182-13afb5671e8f"},"vehicle_type_id":"4","last_reported":1746371347,"current_range_meters":17200,"station_id":"","pricing_plan_id":"cebpf4jnsgd1na2vs0mg"},{"bike_id":"95771af0-084f-4372-8f5d-96d735aead6f","system_id":"levelo_inurba_marseille","lat":43.23199,"lon":5.39985,"is_reserved":false,"is_disabled":false,"rental_uris":{"android":"levelo://app?vid=95771af0-084f-4372-8f5d-96d735aead6f","ios":"levelo://app?vid=95771af0-084f-4372-8f5d-96d735aead6f"},"vehicle_type_id":"4","last_reported":1746371347,"current_range_meters":17200,"station_id":"ce4bhn12rcd13ifvqgqg","pricing_plan_id":"cebpf4jnsgd1na2vs0mg"},{"bike_id":"4e88e66a-e60e-4a50-a177-89a2ed2787f0","system_id":"levelo_inurba_marseille","lat":43.26806,"lon":5.40268,"is_reserved":false,"is_disabled":false,"rental_uris":{"android":"levelo://app?vid=4e88e66a-e60e-4a50-a177-89a2ed2787f0","ios":"levelo://app?vid=4e88e66a-e60e-4a50-a177-89a2ed2787f0"},"vehicle_type_id":"4","last_reported":1746371347,"current_range_meters":17200,"station_id":"ce501612rcd8frsf0b60","pricing_plan_id":"cebpf4jnsgd1na2vs0mg"},{"bike_id":"086126b2-412a-4875-9dbb-85dc061d4895","system_id":"levelo_inurba_marseille","lat":43.31226,"lon":5.36843,"is_reserved":false,"is_disabled":false,"rental_uris":{"android":"levelo://app?vid=086126b2-412a-4875-9dbb-85dc061d4895","ios":"levelo://app?vid=086126b2-412a-4875-9dbb-85dc061d4895"},"vehicle_type_id":"4","last_reported":1746371347,"current_range_meters":17600,"station_id":"ce4bgl92rcd13ifvqbq0","pricing_plan_id":"cebpf4jnsgd1na2vs0mg"},{"bike_id":"69bc7518-c8f1-405e-b860-5037ccdd4634","system_id":"levelo_inurba_marseille","lat":43.27374,"lon":5.36259,"is_reserved":false,"is_disabled":false,"rental_uris":{"android":"levelo://app?vid=69bc7518-c8f1-405e-b860-5037ccdd4634","ios":"levelo://app?vid=69bc7518-c8f1-405e-b860-5037ccdd4634"},"vehicle_type_id":"4","last_reported":1746371347,"current_range_meters":17600,"station_id":"ce4bhbh2rcd13ifvqeo0","pricing_plan_id":"cebpf4jnsgd1na2vs0mg"},{"bike_id":"125ca05d-5a4c-4327-ae64-e200198cedf3","system_id":"levelo_inurba_marseille","lat":43.29555,"lon":5.42339,"is_reserved":false,"is_disabled":false,"rental_uris":{"android":"levelo://app?vid=125ca05d-5a4c-4327-ae64-e200198cedf3","ios":"levelo://app?vid=125ca05d-5a4c-4327-ae64-e200198cedf3"},"vehicle_type_id":"4","last_reported":1746371347,"current_range_meters":17600,"station_id":"ce4bhph2rcd13ifvqhdg","pricing_plan_id":"cebpf4jnsgd1na2vs0mg"},{"bike_id":"7ad04c1b-fc26-4c94-a72f-89c6e3ca5c32","system_id":"levelo_inurba_marseille","lat":43.311924,"lon":5.407615,"is_reserved":false,"is_disabled":false,"rental_uris":{"android":"levelo://app?vid=7ad04c1b-fc26-4c94-a72f-89c6e3ca5c32","ios":"levelo://app?vid=7ad04c1b-fc26-4c94-a72f-89c6e3ca5c32"},"vehicle_type_id":"4","last_reported":1746371347,"current_range_meters":18000,"station_id":"","pricing_plan_id":"cebpf4jnsgd1na2vs0mg"},{"bike_id":"28452dd8-3ac5-457a-b4f9-3f3654d58998","system_id":"levelo_inurba_marseille","lat":43.30155,"lon":5.38095,"is_reserved":false,"is_disabled":false,"rental_uris":{"android":"levelo://app?vid=28452dd8-3ac5-457a-b4f9-3f3654d58998","ios":"levelo://app?vid=28452dd8-3ac5-457a-b4f9-3f3654d58998"},"vehicle_type_id":"4","last_reported":1746371347,"current_range_meters":18000,"station_id":"ce4bgjp2rcd13ifvqbh0","pricing_plan_id":"cebpf4jnsgd1na2vs0mg"},{"bike_id":"f6c87c8d-fd04-431b-bb21-8779c4bd778e","system_id":"levelo_inurba_marseille","lat":43.30931,"lon":5.40147,"is_reserved":false,"is_disabled":false,"rental_uris":{"android":"levelo://app?vid=f6c87c8d-fd04-431b-bb21-8779c4bd778e","ios":"levelo://app?vid=f6c87c8d-fd04-431b-bb21-8779c4bd778e"},"vehicle_type_id":"4","last_reported":1746371347,"current_range_meters":18000,"station_id":"ce4bgvp2rcd13ifvqct0","pricing_plan_id":"cebpf4jnsgd1na2vs0mg"},{"bike_id":"e27ce41e-d31e-4411-a762-387f29d91877","system_id":"levelo_inurba_marseille","lat":43.29562,"lon":5.4226,"is_reserved":false,"is_disabled":false,"rental_uris":{"android":"levelo://app?vid=e27ce41e-d31e-4411-a762-387f29d91877","ios":"levelo://app?vid=e27ce41e-d31e-4411-a762-387f29d91877"},"vehicle_type_id":"4","last_reported":1746371347,"current_range_meters":18000,"station_id":"ce4bhph2rcd13ifvqhdg","pricing_plan_id":"cebpf4jnsgd1na2vs0mg"},{"bike_id":"a7393548-1ca4-426f-bec8-e094325f844e","system_id":"levelo_inurba_marseille","lat":43.26271,"lon":5.37428,"is_reserved":false,"is_disabled":false,"rental_uris":{"android":"levelo://app?vid=a7393548-1ca4-426f-bec8-e094325f844e","ios":"levelo://app?vid=a7393548-1ca4-426f-bec8-e094325f844e"},"vehicle_type_id":"4","last_reported":1746371347,"current_range_meters":18800,"station_id":"","pricing_plan_id":"cebpf4jnsgd1na2vs0mg"},{"bike_id":"13a4661d-2680-4a45-8d6f-3af4b2b426d6","system_id":"levelo_inurba_marseille","lat":43.29929,"lon":5.3654,"is_reserved":false,"is_disabled":false,"rental_uris":{"android":"levelo://app?vid=13a4661d-2680-4a45-8d6f-3af4b2b426d6","ios":"levelo://app?vid=13a4661d-2680-4a45-8d6f-3af4b2b426d6"},"vehicle_type_id":"4","last_reported":1746371347,"current_range_meters":18800,"station_id":"ce4bgm92rcd13ifvqbr0","pricing_plan_id":"cebpf4jnsgd1na2vs0mg"},{"bike_id":"758868a9-5616-41c5-937f-054deb71243f","system_id":"levelo_inurba_marseille","lat":43.31072,"lon":5.38344,"is_reserved":false,"is_disabled":false,"rental_uris":{"android":"levelo://app?vid=758868a9-5616-41c5-937f-054deb71243f","ios":"levelo://app?vid=758868a9-5616-41c5-937f-054deb71243f"},"vehicle_type_id":"4","last_reported":1746371347,"current_range_meters":18800,"station_id":"ce4bgv92rcd13ifvqcr0","pricing_plan_id":"cebpf4jnsgd1na2vs0mg"},{"bike_id":"1e7f375b-88bc-4637-8089-86694893e98b","system_id":"levelo_inurba_marseille","lat":43.309086,"lon":5.401524,"is_reserved":false,"is_disabled":false,"rental_uris":{"android":"levelo://app?vid=1e7f375b-88bc-4637-8089-86694893e98b","ios":"levelo://app?vid=1e7f375b-88bc-4637-8089-86694893e98b"},"vehicle_type_id":"4","last_reported":1746371347,"current_range_meters":19200,"station_id":"ce4bgvp2rcd13ifvqct0","pricing_plan_id":"cebpf4jnsgd1na2vs0mg"},{"bike_id":"66db1cf3-96fa-45c5-abd6-c2cb9f71abed","system_id":"levelo_inurba_marseille","lat":43.29627,"lon":5.40588,"is_reserved":false,"is_disabled":false,"rental_uris":{"android":"levelo://app?vid=66db1cf3-96fa-45c5-abd6-c2cb9f71abed","ios":"levelo://app?vid=66db1cf3-96fa-45c5-abd6-c2cb9f71abed"},"vehicle_type_id":"4","last_reported":1746371347,"current_range_meters":19200,"station_id":"ce4bh0h2rcd13ifvqd60","pricing_plan_id":"cebpf4jnsgd1na2vs0mg"},{"bike_id":"59150cc8-f8fc-4a52-ac58-70dad05f3d9a","system_id":"levelo_inurba_marseille","lat":43.27213,"lon":5.39178,"is_reserved":false,"is_disabled":false,"rental_uris":{"android":"levelo://app?vid=59150cc8-f8fc-4a52-ac58-70dad05f3d9a","ios":"levelo://app?vid=59150cc8-f8fc-4a52-ac58-70dad05f3d9a"},"vehicle_type_id":"4","last_reported":1746371347,"current_range_meters":19200,"station_id":"ce4bhhp2rcd13ifvqfm0","pricing_plan_id":"cebpf4jnsgd1na2vs0mg"},{"bike_id":"1bc89dec-24f6-4cf3-9a07-0634e2bc1366","system_id":"levelo_inurba_marseille","lat":43.23193,"lon":5.39993,"is_reserved":false,"is_disabled":false,"rental_uris":{"android":"levelo://app?vid=1bc89dec-24f6-4cf3-9a07-0634e2bc1366","ios":"levelo://app?vid=1bc89dec-24f6-4cf3-9a07-0634e2bc1366"},"vehicle_type_id":"4","last_reported":1746371347,"current_range_meters":19600,"station_id":"ce4bhn12rcd13ifvqgqg","pricing_plan_id":"cebpf4jnsgd1na2vs0mg"},{"bike_id":"bbba4a42-41f1-4d4c-a0ec-15062e1d6496","system_id":"levelo_inurba_marseille","lat":43.30797,"lon":5.43517,"is_reserved":false,"is_disabled":false,"rental_uris":{"android":"levelo://app?vid=bbba4a42-41f1-4d4c-a0ec-15062e1d6496","ios":"levelo://app?vid=bbba4a42-41f1-4d4c-a0ec-15062e1d6496"},"vehicle_type_id":"4","last_reported":1746371347,"current_range_meters":19600,"station_id":"ce4bhph2rcd13ifvqheg","pricing_plan_id":"cebpf4jnsgd1na2vs0mg"},{"bike_id":"9e174534-0b7f-41f7-9bb7-f68172cda9ce","system_id":"levelo_inurba_marseille","lat":43.21195,"lon":5.35077,"is_reserved":false,"is_disabled":false,"rental_uris":{"android":"levelo://app?vid=9e174534-0b7f-41f7-9bb7-f68172cda9ce","ios":"levelo://app?vid=9e174534-0b7f-41f7-9bb7-f68172cda9ce"},"vehicle_type_id":"4","last_reported":1746371347,"current_range_meters":19600,"station_id":"st_cvj6sg6p6f1abm77japg","pricing_plan_id":"cebpf4jnsgd1na2vs0mg"},{"bike_id":"4b1c0f38-5476-4efc-a803-e3bf82314bfd","system_id":"levelo_inurba_marseille","lat":43.31168,"lon":5.38705,"is_reserved":false,"is_disabled":false,"rental_uris":{"android":"levelo://app?vid=4b1c0f38-5476-4efc-a803-e3bf82314bfd","ios":"levelo://app?vid=4b1c0f38-5476-4efc-a803-e3bf82314bfd"},"vehicle_type_id":"4","last_reported":1746371347,"current_range_meters":20000,"station_id":"ce4bgv12rcd13ifvqcp0","pricing_plan_id":"cebpf4jnsgd1na2vs0mg"},{"bike_id":"150de57d-b375-4979-bc4e-8e850e6e9426","system_id":"levelo_inurba_marseille","lat":43.24999,"lon":5.38931,"is_reserved":false,"is_disabled":false,"rental_uris":{"android":"levelo://app?vid=150de57d-b375-4979-bc4e-8e850e6e9426","ios":"levelo://app?vid=150de57d-b375-4979-bc4e-8e850e6e9426"},"vehicle_type_id":"4","last_reported":1746371347,"current_range_meters":20000,"station_id":"ce4bhgp2rcd13ifvqfd0","pricing_plan_id":"cebpf4jnsgd1na2vs0mg"},{"bike_id":"06c41b83-5068-4edc-9d06-40c070ea9aa5","system_id":"levelo_inurba_marseille","lat":43.272064,"lon":5.391803,"is_reserved":false,"is_disabled":false,"rental_uris":{"android":"levelo://app?vid=06c41b83-5068-4edc-9d06-40c070ea9aa5","ios":"levelo://app?vid=06c41b83-5068-4edc-9d06-40c070ea9aa5"},"vehicle_type_id":"4","last_reported":1746371347,"current_range_meters":20000,"station_id":"ce4bhhp2rcd13ifvqfm0","pricing_plan_id":"cebpf4jnsgd1na2vs0mg"},{"bike_id":"2dce38cf-a8d4-49cd-9fcf-ef494d90a125","system_id":"levelo_inurba_marseille","lat":43.27142,"lon":5.36365,"is_reserved":false,"is_disabled":false,"rental_uris":{"android":"levelo://app?vid=2dce38cf-a8d4-49cd-9fcf-ef494d90a125","ios":"levelo://app?vid=2dce38cf-a8d4-49cd-9fcf-ef494d90a125"},"vehicle_type_id":"4","last_reported":1746371347,"current_range_meters":20400,"station_id":"","pricing_plan_id":"cebpf4jnsgd1na2vs0mg"},{"bike_id":"c0b69336-8e92-4998-8420-eca678cc0812","system_id":"levelo_inurba_marseille","lat":43.26553,"lon":5.37284,"is_reserved":false,"is_disabled":false,"rental_uris":{"android":"levelo://app?vid=c0b69336-8e92-4998-8420-eca678cc0812","ios":"levelo://app?vid=c0b69336-8e92-4998-8420-eca678cc0812"},"vehicle_type_id":"4","last_reported":1746371347,"current_range_meters":20400,"station_id":"ce4bhg12rcd13ifvqf70","pricing_plan_id":"cebpf4jnsgd1na2vs0mg"},{"bike_id":"bc25a972-1b15-4152-ac8b-e6e1eb9e7594","system_id":"levelo_inurba_marseille","lat":43.27972,"lon":5.38753,"is_reserved":false,"is_disabled":false,"rental_uris":{"android":"levelo://app?vid=bc25a972-1b15-4152-ac8b-e6e1eb9e7594","ios":"levelo://app?vid=bc25a972-1b15-4152-ac8b-e6e1eb9e7594"},"vehicle_type_id":"4","last_reported":1746371347,"current_range_meters":20400,"station_id":"ce4bhg12rcd13ifvqf80","pricing_plan_id":"cebpf4jnsgd1na2vs0mg"},{"bike_id":"bcdc0033-282e-4006-acda-7c1e0fdfff9e","system_id":"levelo_inurba_marseille","lat":43.31723,"lon":5.42401,"is_reserved":false,"is_disabled":false,"rental_uris":{"android":"levelo://app?vid=bcdc0033-282e-4006-acda-7c1e0fdfff9e","ios":"levelo://app?vid=bcdc0033-282e-4006-acda-7c1e0fdfff9e"},"vehicle_type_id":"4","last_reported":1746371347,"current_range_meters":20400,"station_id":"ce4bhp92rcd13ifvqhbg","pricing_plan_id":"cebpf4jnsgd1na2vs0mg"},{"bike_id":"ce7dbab7-9310-4b7e-bf0c-465a151ac403","system_id":"levelo_inurba_marseille","lat":43.3524,"lon":5.43776,"is_reserved":false,"is_disabled":false,"rental_uris":{"android":"levelo://app?vid=ce7dbab7-9310-4b7e-bf0c-465a151ac403","ios":"levelo://app?vid=ce7dbab7-9310-4b7e-bf0c-465a151ac403"},"vehicle_type_id":"4","last_reported":1746371347,"current_range_meters":20800,"station_id":"","pricing_plan_id":"cebpf4jnsgd1na2vs0mg"},{"bike_id":"c19aed51-1a77-4739-bfef-56bc918b1a34","system_id":"levelo_inurba_marseille","lat":43.30248,"lon":5.40052,"is_reserved":false,"is_disabled":false,"rental_uris":{"android":"levelo://app?vid=c19aed51-1a77-4739-bfef-56bc918b1a34","ios":"levelo://app?vid=c19aed51-1a77-4739-bfef-56bc918b1a34"},"vehicle_type_id":"4","last_reported":1746371347,"current_range_meters":20800,"station_id":"ce4bgvh2rcd13ifvqcs0","pricing_plan_id":"cebpf4jnsgd1na2vs0mg"},{"bike_id":"1ce5faab-c057-44d0-b6f7-996b2962169c","system_id":"levelo_inurba_marseille","lat":43.32357,"lon":5.36756,"is_reserved":false,"is_disabled":false,"rental_uris":{"android":"levelo://app?vid=1ce5faab-c057-44d0-b6f7-996b2962169c","ios":"levelo://app?vid=1ce5faab-c057-44d0-b6f7-996b2962169c"},"vehicle_type_id":"4","last_reported":1746371347,"current_range_meters":20800,"station_id":"ce4bhsh2rcd13ifvqi2g","pricing_plan_id":"cebpf4jnsgd1na2vs0mg"},{"bike_id":"deb95e6f-855d-4d61-8439-9acc0d09c8d0","system_id":"levelo_inurba_marseille","lat":43.29006,"lon":5.35607,"is_reserved":false,"is_disabled":false,"rental_uris":{"android":"levelo://app?vid=deb95e6f-855d-4d61-8439-9acc0d09c8d0","ios":"levelo://app?vid=deb95e6f-855d-4d61-8439-9acc0d09c8d0"},"vehicle_type_id":"4","last_reported":1746371347,"current_range_meters":21600,"station_id":"ce4bhb92rcd13ifvqen0","pricing_plan_id":"cebpf4jnsgd1na2vs0mg"},{"bike_id":"f5ef326e-2b66-47d3-86a0-767b8c27db7a","system_id":"levelo_inurba_marseille","lat":43.24389,"lon":5.37055,"is_reserved":false,"is_disabled":false,"rental_uris":{"android":"levelo://app?vid=f5ef326e-2b66-47d3-86a0-767b8c27db7a","ios":"levelo://app?vid=f5ef326e-2b66-47d3-86a0-767b8c27db7a"},"vehicle_type_id":"4","last_reported":1746371347,"current_range_meters":21600,"station_id":"ce4bhhh2rcd13ifvqfk0","pricing_plan_id":"cebpf4jnsgd1na2vs0mg"},{"bike_id":"55e2365c-b270-4dfe-a830-699a54b79cdb","system_id":"levelo_inurba_marseille","lat":43.255768,"lon":5.420986,"is_reserved":false,"is_disabled":false,"rental_uris":{"android":"levelo://app?vid=55e2365c-b270-4dfe-a830-699a54b79cdb","ios":"levelo://app?vid=55e2365c-b270-4dfe-a830-699a54b79cdb"},"vehicle_type_id":"4","last_reported":1746371347,"current_range_meters":22000,"station_id":"","pricing_plan_id":"cebpf4jnsgd1na2vs0mg"},{"bike_id":"cb18f575-9c1e-4e54-ba38-fab988ce4b38","system_id":"levelo_inurba_marseille","lat":43.29236,"lon":5.40893,"is_reserved":false,"is_disabled":false,"rental_uris":{"android":"levelo://app?vid=cb18f575-9c1e-4e54-ba38-fab988ce4b38","ios":"levelo://app?vid=cb18f575-9c1e-4e54-ba38-fab988ce4b38"},"vehicle_type_id":"4","last_reported":1746371347,"current_range_meters":22000,"station_id":"ce4bh192rcd13ifvqdc0","pricing_plan_id":"cebpf4jnsgd1na2vs0mg"},{"bike_id":"6be503f4-a789-452a-b3fa-9ac4c09cf77c","system_id":"levelo_inurba_marseille","lat":43.24802,"lon":5.37451,"is_reserved":false,"is_disabled":false,"rental_uris":{"android":"levelo://app?vid=6be503f4-a789-452a-b3fa-9ac4c09cf77c","ios":"levelo://app?vid=6be503f4-a789-452a-b3fa-9ac4c09cf77c"},"vehicle_type_id":"4","last_reported":1746371347,"current_range_meters":22000,"station_id":"ce4bhgh2rcd13ifvqfb0","pricing_plan_id":"cebpf4jnsgd1na2vs0mg"},{"bike_id":"4262d0ca-1fe5-4e18-bc69-eac4d99d069a","system_id":"levelo_inurba_marseille","lat":43.26502,"lon":5.39536,"is_reserved":false,"is_disabled":false,"rental_uris":{"android":"levelo://app?vid=4262d0ca-1fe5-4e18-bc69-eac4d99d069a","ios":"levelo://app?vid=4262d0ca-1fe5-4e18-bc69-eac4d99d069a"},"vehicle_type_id":"4","last_reported":1746371347,"current_range_meters":22000,"station_id":"ce4bhi12rcd13ifvqfq0","pricing_plan_id":"cebpf4jnsgd1na2vs0mg"},{"bike_id":"ae27255f-784c-402c-b5a9-ce08553b82ba","system_id":"levelo_inurba_marseille","lat":43.28665,"lon":5.36353,"is_reserved":false,"is_disabled":false,"rental_uris":{"android":"levelo://app?vid=ae27255f-784c-402c-b5a9-ce08553b82ba","ios":"levelo://app?vid=ae27255f-784c-402c-b5a9-ce08553b82ba"},"vehicle_type_id":"4","last_reported":1746371347,"current_range_meters":22400,"station_id":"ce4bhah2rcd13ifvqej0","pricing_plan_id":"cebpf4jnsgd1na2vs0mg"},{"bike_id":"99caa5c9-73c6-4674-850e-ae7cd663deab","system_id":"levelo_inurba_marseille","lat":43.21191,"lon":5.35075,"is_reserved":false,"is_disabled":false,"rental_uris":{"android":"levelo://app?vid=99caa5c9-73c6-4674-850e-ae7cd663deab","ios":"levelo://app?vid=99caa5c9-73c6-4674-850e-ae7cd663deab"},"vehicle_type_id":"4","last_reported":1746371347,"current_range_meters":22400,"station_id":"st_cvj6sg6p6f1abm77japg","pricing_plan_id":"cebpf4jnsgd1na2vs0mg"},{"bike_id":"eab2831c-d5b8-4d11-9807-f8d0242a1203","system_id":"levelo_inurba_marseille","lat":43.2784,"lon":5.40719,"is_reserved":false,"is_disabled":false,"rental_uris":{"android":"levelo://app?vid=eab2831c-d5b8-4d11-9807-f8d0242a1203","ios":"levelo://app?vid=eab2831c-d5b8-4d11-9807-f8d0242a1203"},"vehicle_type_id":"4","last_reported":1746371347,"current_range_meters":22800,"station_id":"ce4bhnh2rcd13ifvqgtg","pricing_plan_id":"cebpf4jnsgd1na2vs0mg"},{"bike_id":"d0bcf1fb-cbba-4142-876b-db3b580f0e4d","system_id":"levelo_inurba_marseille","lat":43.29567,"lon":5.4234,"is_reserved":false,"is_disabled":false,"rental_uris":{"android":"levelo://app?vid=d0bcf1fb-cbba-4142-876b-db3b580f0e4d","ios":"levelo://app?vid=d0bcf1fb-cbba-4142-876b-db3b580f0e4d"},"vehicle_type_id":"4","last_reported":1746371347,"current_range_meters":22800,"station_id":"ce4bhph2rcd13ifvqhdg","pricing_plan_id":"cebpf4jnsgd1na2vs0mg"},{"bike_id":"4de68094-7dca-45d9-8651-60765ce50220","system_id":"levelo_inurba_marseille","lat":43.29312,"lon":5.37164,"is_reserved":false,"is_disabled":false,"rental_uris":{"android":"levelo://app?vid=4de68094-7dca-45d9-8651-60765ce50220","ios":"levelo://app?vid=4de68094-7dca-45d9-8651-60765ce50220"},"vehicle_type_id":"4","last_reported":1746371347,"current_range_meters":23200,"station_id":"ce4bgh92rcd13ifvqb40","pricing_plan_id":"cebpf4jnsgd1na2vs0mg"},{"bike_id":"2d049cf7-0868-43b0-b89f-c8928d3fbfcf","system_id":"levelo_inurba_marseille","lat":43.30304,"lon":5.39208,"is_reserved":false,"is_disabled":false,"rental_uris":{"android":"levelo://app?vid=2d049cf7-0868-43b0-b89f-c8928d3fbfcf","ios":"levelo://app?vid=2d049cf7-0868-43b0-b89f-c8928d3fbfcf"},"vehicle_type_id":"4","last_reported":1746371347,"current_range_meters":23200,"station_id":"ce4bgkh2rcd13ifvqbk0","pricing_plan_id":"cebpf4jnsgd1na2vs0mg"},{"bike_id":"cd1f2f7c-cacc-49d8-a273-e0f1f316c2ac","system_id":"levelo_inurba_marseille","lat":43.30885,"lon":5.37185,"is_reserved":false,"is_disabled":false,"rental_uris":{"android":"levelo://app?vid=cd1f2f7c-cacc-49d8-a273-e0f1f316c2ac","ios":"levelo://app?vid=cd1f2f7c-cacc-49d8-a273-e0f1f316c2ac"},"vehicle_type_id":"4","last_reported":1746371347,"current_range_meters":23200,"station_id":"ce4bguh2rcd13ifvqckg","pricing_plan_id":"cebpf4jnsgd1na2vs0mg"},{"bike_id":"e9090538-99d5-4c33-a35a-2777c74b8d7c","system_id":"levelo_inurba_marseille","lat":43.29032,"lon":5.38646,"is_reserved":false,"is_disabled":false,"rental_uris":{"android":"levelo://app?vid=e9090538-99d5-4c33-a35a-2777c74b8d7c","ios":"levelo://app?vid=e9090538-99d5-4c33-a35a-2777c74b8d7c"},"vehicle_type_id":"4","last_reported":1746371347,"current_range_meters":23200,"station_id":"ce4bh4p2rcd13ifvqe0g","pricing_plan_id":"cebpf4jnsgd1na2vs0mg"},{"bike_id":"727e434d-81e0-4103-a737-7548a4453cb9","system_id":"levelo_inurba_marseille","lat":43.26788,"lon":5.3942,"is_reserved":false,"is_disabled":false,"rental_uris":{"android":"levelo://app?vid=727e434d-81e0-4103-a737-7548a4453cb9","ios":"levelo://app?vid=727e434d-81e0-4103-a737-7548a4453cb9"},"vehicle_type_id":"4","last_reported":1746371347,"current_range_meters":23200,"station_id":"ce4bhh12rcd13ifvqfg0","pricing_plan_id":"cebpf4jnsgd1na2vs0mg"},{"bike_id":"321e8ec9-5896-4299-914b-01dee7a1fc43","system_id":"levelo_inurba_marseille","lat":43.24378,"lon":5.37074,"is_reserved":false,"is_disabled":false,"rental_uris":{"android":"levelo://app?vid=321e8ec9-5896-4299-914b-01dee7a1fc43","ios":"levelo://app?vid=321e8ec9-5896-4299-914b-01dee7a1fc43"},"vehicle_type_id":"4","last_reported":1746371347,"current_range_meters":23200,"station_id":"ce4bhhh2rcd13ifvqfk0","pricing_plan_id":"cebpf4jnsgd1na2vs0mg"},{"bike_id":"e4c0e2c1-3ec1-400b-b207-609f3d8889aa","system_id":"levelo_inurba_marseille","lat":43.23623,"lon":5.36609,"is_reserved":false,"is_disabled":false,"rental_uris":{"android":"levelo://app?vid=e4c0e2c1-3ec1-400b-b207-609f3d8889aa","ios":"levelo://app?vid=e4c0e2c1-3ec1-400b-b207-609f3d8889aa"},"vehicle_type_id":"4","last_reported":1746371347,"current_range_meters":24000,"station_id":"","pricing_plan_id":"cebpf4jnsgd1na2vs0mg"},{"bike_id":"cd6c8a49-0ffb-46fc-a3ff-0d83f9de2c5d","system_id":"levelo_inurba_marseille","lat":43.30542,"lon":5.36537,"is_reserved":false,"is_disabled":false,"rental_uris":{"android":"levelo://app?vid=cd6c8a49-0ffb-46fc-a3ff-0d83f9de2c5d","ios":"levelo://app?vid=cd6c8a49-0ffb-46fc-a3ff-0d83f9de2c5d"},"vehicle_type_id":"4","last_reported":1746371347,"current_range_meters":24000,"station_id":"ce4bgs12rcd13ifvqcag","pricing_plan_id":"cebpf4jnsgd1na2vs0mg"},{"bike_id":"a6e2f142-3c3f-4bdd-86a7-098a6b05c4a8","system_id":"levelo_inurba_marseille","lat":43.29199,"lon":5.39325,"is_reserved":false,"is_disabled":false,"rental_uris":{"android":"levelo://app?vid=a6e2f142-3c3f-4bdd-86a7-098a6b05c4a8","ios":"levelo://app?vid=a6e2f142-3c3f-4bdd-86a7-098a6b05c4a8"},"vehicle_type_id":"4","last_reported":1746371347,"current_range_meters":24000,"station_id":"ce4bh192rcd13ifvqdd0","pricing_plan_id":"cebpf4jnsgd1na2vs0mg"},{"bike_id":"f1ffd2b9-91e9-4bf5-a319-6e95940b0de6","system_id":"levelo_inurba_marseille","lat":43.29559,"lon":5.42278,"is_reserved":false,"is_disabled":false,"rental_uris":{"android":"levelo://app?vid=f1ffd2b9-91e9-4bf5-a319-6e95940b0de6","ios":"levelo://app?vid=f1ffd2b9-91e9-4bf5-a319-6e95940b0de6"},"vehicle_type_id":"4","last_reported":1746371347,"current_range_meters":24000,"station_id":"ce4bhph2rcd13ifvqhdg","pricing_plan_id":"cebpf4jnsgd1na2vs0mg"},{"bike_id":"4866809e-6692-4bb1-8cc5-75481e30a24b","system_id":"levelo_inurba_marseille","lat":43.31577,"lon":5.40933,"is_reserved":false,"is_disabled":false,"rental_uris":{"android":"levelo://app?vid=4866809e-6692-4bb1-8cc5-75481e30a24b","ios":"levelo://app?vid=4866809e-6692-4bb1-8cc5-75481e30a24b"},"vehicle_type_id":"4","last_reported":1746371347,"current_range_meters":24400,"station_id":"","pricing_plan_id":"cebpf4jnsgd1na2vs0mg"},{"bike_id":"da325f28-02d0-40c8-a4ed-3f691f0f9a8e","system_id":"levelo_inurba_marseille","lat":43.30422,"lon":5.39742,"is_reserved":false,"is_disabled":false,"rental_uris":{"android":"levelo://app?vid=da325f28-02d0-40c8-a4ed-3f691f0f9a8e","ios":"levelo://app?vid=da325f28-02d0-40c8-a4ed-3f691f0f9a8e"},"vehicle_type_id":"4","last_reported":1746371347,"current_range_meters":24400,"station_id":"ce4bh092rcd13ifvqd20","pricing_plan_id":"cebpf4jnsgd1na2vs0mg"},{"bike_id":"d0f43f13-dd41-4297-b3ca-5133689ffeb5","system_id":"levelo_inurba_marseille","lat":43.29627,"lon":5.40606,"is_reserved":false,"is_disabled":false,"rental_uris":{"android":"levelo://app?vid=d0f43f13-dd41-4297-b3ca-5133689ffeb5","ios":"levelo://app?vid=d0f43f13-dd41-4297-b3ca-5133689ffeb5"},"vehicle_type_id":"4","last_reported":1746371347,"current_range_meters":24400,"station_id":"ce4bh0h2rcd13ifvqd60","pricing_plan_id":"cebpf4jnsgd1na2vs0mg"},{"bike_id":"4cacc418-9c48-4a2c-bb7f-b838e468ea26","system_id":"levelo_inurba_marseille","lat":43.26565,"lon":5.39025,"is_reserved":false,"is_disabled":false,"rental_uris":{"android":"levelo://app?vid=4cacc418-9c48-4a2c-bb7f-b838e468ea26","ios":"levelo://app?vid=4cacc418-9c48-4a2c-bb7f-b838e468ea26"},"vehicle_type_id":"4","last_reported":1746371347,"current_range_meters":24400,"station_id":"ce4bhe12rcd13ifvqf30","pricing_plan_id":"cebpf4jnsgd1na2vs0mg"},{"bike_id":"d81a05d5-5084-4696-ba60-390fdac5ecbd","system_id":"levelo_inurba_marseille","lat":43.28156,"lon":5.42646,"is_reserved":false,"is_disabled":false,"rental_uris":{"android":"levelo://app?vid=d81a05d5-5084-4696-ba60-390fdac5ecbd","ios":"levelo://app?vid=d81a05d5-5084-4696-ba60-390fdac5ecbd"},"vehicle_type_id":"4","last_reported":1746371347,"current_range_meters":24400,"station_id":"ce4bhnh2rcd13ifvqgug","pricing_plan_id":"cebpf4jnsgd1na2vs0mg"},{"bike_id":"2485b1f7-8465-47db-b3f9-2b33878c0d37","system_id":"levelo_inurba_marseille","lat":43.31086,"lon":5.42432,"is_reserved":false,"is_disabled":false,"rental_uris":{"android":"levelo://app?vid=2485b1f7-8465-47db-b3f9-2b33878c0d37","ios":"levelo://app?vid=2485b1f7-8465-47db-b3f9-2b33878c0d37"},"vehicle_type_id":"4","last_reported":1746371347,"current_range_meters":24400,"station_id":"ce4bhp92rcd13ifvqhag","pricing_plan_id":"cebpf4jnsgd1na2vs0mg"},{"bike_id":"48406110-a345-43b2-b145-b3298828c686","system_id":"levelo_inurba_marseille","lat":43.295353,"lon":5.422854,"is_reserved":false,"is_disabled":false,"rental_uris":{"android":"levelo://app?vid=48406110-a345-43b2-b145-b3298828c686","ios":"levelo://app?vid=48406110-a345-43b2-b145-b3298828c686"},"vehicle_type_id":"4","last_reported":1746371347,"current_range_meters":24400,"station_id":"ce4bhph2rcd13ifvqhdg","pricing_plan_id":"cebpf4jnsgd1na2vs0mg"},{"bike_id":"4ea6ae32-cf8d-49ab-9221-81c71431fc03","system_id":"levelo_inurba_marseille","lat":43.286937,"lon":5.373623,"is_reserved":false,"is_disabled":false,"rental_uris":{"android":"levelo://app?vid=4ea6ae32-cf8d-49ab-9221-81c71431fc03","ios":"levelo://app?vid=4ea6ae32-cf8d-49ab-9221-81c71431fc03"},"vehicle_type_id":"4","last_reported":1746371347,"current_range_meters":24800,"station_id":"ce4bh3p2rcd13ifvqdq0","pricing_plan_id":"cebpf4jnsgd1na2vs0mg"},{"bike_id":"8bcc6079-f9a5-4a43-b5fe-9b5ee9cfedd3","system_id":"levelo_inurba_marseille","lat":43.30371,"lon":5.42479,"is_reserved":false,"is_disabled":false,"rental_uris":{"android":"levelo://app?vid=8bcc6079-f9a5-4a43-b5fe-9b5ee9cfedd3","ios":"levelo://app?vid=8bcc6079-f9a5-4a43-b5fe-9b5ee9cfedd3"},"vehicle_type_id":"4","last_reported":1746371347,"current_range_meters":24800,"station_id":"ce4bhoh2rcd13ifvqh6g","pricing_plan_id":"cebpf4jnsgd1na2vs0mg"},{"bike_id":"892cf09d-1c12-4c56-8110-f5e8ae461caf","system_id":"levelo_inurba_marseille","lat":43.3108,"lon":5.42424,"is_reserved":false,"is_disabled":false,"rental_uris":{"android":"levelo://app?vid=892cf09d-1c12-4c56-8110-f5e8ae461caf","ios":"levelo://app?vid=892cf09d-1c12-4c56-8110-f5e8ae461caf"},"vehicle_type_id":"4","last_reported":1746371347,"current_range_meters":24800,"station_id":"ce4bhp92rcd13ifvqhag","pricing_plan_id":"cebpf4jnsgd1na2vs0mg"},{"bike_id":"788046ab-4020-4c6e-a0e2-de3aee25f874","system_id":"levelo_inurba_marseille","lat":43.21192,"lon":5.35078,"is_reserved":false,"is_disabled":false,"rental_uris":{"android":"levelo://app?vid=788046ab-4020-4c6e-a0e2-de3aee25f874","ios":"levelo://app?vid=788046ab-4020-4c6e-a0e2-de3aee25f874"},"vehicle_type_id":"4","last_reported":1746371347,"current_range_meters":24800,"station_id":"st_cvj6sg6p6f1abm77japg","pricing_plan_id":"cebpf4jnsgd1na2vs0mg"},{"bike_id":"ca5194b1-c943-4544-b43e-e8bd571b96b0","system_id":"levelo_inurba_marseille","lat":43.29561,"lon":5.42292,"is_reserved":false,"is_disabled":false,"rental_uris":{"android":"levelo://app?vid=ca5194b1-c943-4544-b43e-e8bd571b96b0","ios":"levelo://app?vid=ca5194b1-c943-4544-b43e-e8bd571b96b0"},"vehicle_type_id":"4","last_reported":1746371347,"current_range_meters":25200,"station_id":"ce4bhph2rcd13ifvqhdg","pricing_plan_id":"cebpf4jnsgd1na2vs0mg"},{"bike_id":"78359120-16cb-40b6-a039-0bed80a247f0","system_id":"levelo_inurba_marseille","lat":43.229325,"lon":5.353708,"is_reserved":false,"is_disabled":false,"rental_uris":{"android":"levelo://app?vid=78359120-16cb-40b6-a039-0bed80a247f0","ios":"levelo://app?vid=78359120-16cb-40b6-a039-0bed80a247f0"},"vehicle_type_id":"4","last_reported":1746371347,"current_range_meters":25200,"station_id":"cpo3532slgdg3j2ikp40","pricing_plan_id":"cebpf4jnsgd1na2vs0mg"},{"bike_id":"8c2e9168-90e6-4602-aec1-6ebe6241f24c","system_id":"levelo_inurba_marseille","lat":43.33164,"lon":5.38186,"is_reserved":false,"is_disabled":false,"rental_uris":{"android":"levelo://app?vid=8c2e9168-90e6-4602-aec1-6ebe6241f24c","ios":"levelo://app?vid=8c2e9168-90e6-4602-aec1-6ebe6241f24c"},"vehicle_type_id":"4","last_reported":1746371347,"current_range_meters":25600,"station_id":"","pricing_plan_id":"cebpf4jnsgd1na2vs0mg"},{"bike_id":"0ff18444-7a08-4eca-a075-7fa4609ecba3","system_id":"levelo_inurba_marseille","lat":43.25111,"lon":5.40326,"is_reserved":false,"is_disabled":false,"rental_uris":{"android":"levelo://app?vid=0ff18444-7a08-4eca-a075-7fa4609ecba3","ios":"levelo://app?vid=0ff18444-7a08-4eca-a075-7fa4609ecba3"},"vehicle_type_id":"4","last_reported":1746371347,"current_range_meters":25600,"station_id":"ce4bhlh2rcd13ifvqgig","pricing_plan_id":"cebpf4jnsgd1na2vs0mg"},{"bike_id":"5659183f-5a1b-4a72-a657-aa0073554816","system_id":"levelo_inurba_marseille","lat":43.24152,"lon":5.39773,"is_reserved":false,"is_disabled":false,"rental_uris":{"android":"levelo://app?vid=5659183f-5a1b-4a72-a657-aa0073554816","ios":"levelo://app?vid=5659183f-5a1b-4a72-a657-aa0073554816"},"vehicle_type_id":"4","last_reported":1746371347,"current_range_meters":25600,"station_id":"ce4bhn12rcd13ifvqgpg","pricing_plan_id":"cebpf4jnsgd1na2vs0mg"},{"bike_id":"b4b39a26-4b3e-406c-b8c9-672760fddf4a","system_id":"levelo_inurba_marseille","lat":43.30304,"lon":5.39216,"is_reserved":false,"is_disabled":false,"rental_uris":{"android":"levelo://app?vid=b4b39a26-4b3e-406c-b8c9-672760fddf4a","ios":"levelo://app?vid=b4b39a26-4b3e-406c-b8c9-672760fddf4a"},"vehicle_type_id":"4","last_reported":1746371347,"current_range_meters":26800,"station_id":"ce4bgkh2rcd13ifvqbk0","pricing_plan_id":"cebpf4jnsgd1na2vs0mg"},{"bike_id":"ace243df-4428-44e7-8e39-4eaf14e10d4a","system_id":"levelo_inurba_marseille","lat":43.24805,"lon":5.37442,"is_reserved":false,"is_disabled":false,"rental_uris":{"android":"levelo://app?vid=ace243df-4428-44e7-8e39-4eaf14e10d4a","ios":"levelo://app?vid=ace243df-4428-44e7-8e39-4eaf14e10d4a"},"vehicle_type_id":"4","last_reported":1746371347,"current_range_meters":26800,"station_id":"ce4bhgh2rcd13ifvqfb0","pricing_plan_id":"cebpf4jnsgd1na2vs0mg"},{"bike_id":"4aba946e-7e7d-42ee-a79f-18d809fede98","system_id":"levelo_inurba_marseille","lat":43.25494,"lon":5.37647,"is_reserved":false,"is_disabled":false,"rental_uris":{"android":"levelo://app?vid=4aba946e-7e7d-42ee-a79f-18d809fede98","ios":"levelo://app?vid=4aba946e-7e7d-42ee-a79f-18d809fede98"},"vehicle_type_id":"4","last_reported":1746371347,"current_range_meters":26800,"station_id":"ce4bhh12rcd13ifvqff0","pricing_plan_id":"cebpf4jnsgd1na2vs0mg"},{"bike_id":"eff38ccf-5e16-4eb4-9043-c351cf58a0b0","system_id":"levelo_inurba_marseille","lat":43.2607,"lon":5.39395,"is_reserved":false,"is_disabled":false,"rental_uris":{"android":"levelo://app?vid=eff38ccf-5e16-4eb4-9043-c351cf58a0b0","ios":"levelo://app?vid=eff38ccf-5e16-4eb4-9043-c351cf58a0b0"},"vehicle_type_id":"4","last_reported":1746371347,"current_range_meters":26800,"station_id":"ce4bhh92rcd13ifvqfj0","pricing_plan_id":"cebpf4jnsgd1na2vs0mg"},{"bike_id":"69351e63-4023-4ef0-81fa-7349f561a1fb","system_id":"levelo_inurba_marseille","lat":43.248078,"lon":5.374548,"is_reserved":false,"is_disabled":false,"rental_uris":{"android":"levelo://app?vid=69351e63-4023-4ef0-81fa-7349f561a1fb","ios":"levelo://app?vid=69351e63-4023-4ef0-81fa-7349f561a1fb"},"vehicle_type_id":"4","last_reported":1746371347,"current_range_meters":27200,"station_id":"ce4bhgh2rcd13ifvqfb0","pricing_plan_id":"cebpf4jnsgd1na2vs0mg"},{"bike_id":"75bb7589-eabc-433a-bef6-462a7d87b483","system_id":"levelo_inurba_marseille","lat":43.28157,"lon":5.42644,"is_reserved":false,"is_disabled":false,"rental_uris":{"android":"levelo://app?vid=75bb7589-eabc-433a-bef6-462a7d87b483","ios":"levelo://app?vid=75bb7589-eabc-433a-bef6-462a7d87b483"},"vehicle_type_id":"4","last_reported":1746371347,"current_range_meters":27200,"station_id":"ce4bhnh2rcd13ifvqgug","pricing_plan_id":"cebpf4jnsgd1na2vs0mg"},{"bike_id":"fbd914fd-e411-442d-bfbb-38ee758af97b","system_id":"levelo_inurba_marseille","lat":43.28153,"lon":5.42642,"is_reserved":false,"is_disabled":false,"rental_uris":{"android":"levelo://app?vid=fbd914fd-e411-442d-bfbb-38ee758af97b","ios":"levelo://app?vid=fbd914fd-e411-442d-bfbb-38ee758af97b"},"vehicle_type_id":"4","last_reported":1746371347,"current_range_meters":27200,"station_id":"ce4bhnh2rcd13ifvqgug","pricing_plan_id":"cebpf4jnsgd1na2vs0mg"},{"bike_id":"5ace45d5-815c-420e-8fb4-3e25d3405a6f","system_id":"levelo_inurba_marseille","lat":43.336,"lon":5.41034,"is_reserved":false,"is_disabled":false,"rental_uris":{"android":"levelo://app?vid=5ace45d5-815c-420e-8fb4-3e25d3405a6f","ios":"levelo://app?vid=5ace45d5-815c-420e-8fb4-3e25d3405a6f"},"vehicle_type_id":"4","last_reported":1746371347,"current_range_meters":27200,"station_id":"ce4bhqh2rcd13ifvqhmg","pricing_plan_id":"cebpf4jnsgd1na2vs0mg"},{"bike_id":"7814771e-2b1b-4f84-9d3b-5189a289bdf8","system_id":"levelo_inurba_marseille","lat":43.28607,"lon":5.37074,"is_reserved":false,"is_disabled":false,"rental_uris":{"android":"levelo://app?vid=7814771e-2b1b-4f84-9d3b-5189a289bdf8","ios":"levelo://app?vid=7814771e-2b1b-4f84-9d3b-5189a289bdf8"},"vehicle_type_id":"4","last_reported":1746371347,"current_range_meters":27200,"station_id":"ce4bht12rcd13ifvqi60","pricing_plan_id":"cebpf4jnsgd1na2vs0mg"},{"bike_id":"638d16bc-c6e8-422e-8907-cb54e849c916","system_id":"levelo_inurba_marseille","lat":43.22913,"lon":5.35384,"is_reserved":false,"is_disabled":false,"rental_uris":{"android":"levelo://app?vid=638d16bc-c6e8-422e-8907-cb54e849c916","ios":"levelo://app?vid=638d16bc-c6e8-422e-8907-cb54e849c916"},"vehicle_type_id":"4","last_reported":1746371347,"current_range_meters":27200,"station_id":"cpo3532slgdg3j2ikp40","pricing_plan_id":"cebpf4jnsgd1na2vs0mg"},{"bike_id":"4816de97-e264-468b-b3c3-74f635f7af5b","system_id":"levelo_inurba_marseille","lat":43.322051,"lon":5.382898,"is_reserved":false,"is_disabled":false,"rental_uris":{"android":"levelo://app?vid=4816de97-e264-468b-b3c3-74f635f7af5b","ios":"levelo://app?vid=4816de97-e264-468b-b3c3-74f635f7af5b"},"vehicle_type_id":"4","last_reported":1746371347,"current_range_meters":27600,"station_id":"","pricing_plan_id":"cebpf4jnsgd1na2vs0mg"},{"bike_id":"06a1e6eb-b9a8-42c0-8946-77f028d786fd","system_id":"levelo_inurba_marseille","lat":43.31421,"lon":5.37066,"is_reserved":false,"is_disabled":false,"rental_uris":{"android":"levelo://app?vid=06a1e6eb-b9a8-42c0-8946-77f028d786fd","ios":"levelo://app?vid=06a1e6eb-b9a8-42c0-8946-77f028d786fd"},"vehicle_type_id":"4","last_reported":1746371347,"current_range_meters":27600,"station_id":"","pricing_plan_id":"cebpf4jnsgd1na2vs0mg"},{"bike_id":"3c361a7f-6647-4aea-9bac-41909630dbe1","system_id":"levelo_inurba_marseille","lat":43.29704,"lon":5.3661,"is_reserved":false,"is_disabled":false,"rental_uris":{"android":"levelo://app?vid=3c361a7f-6647-4aea-9bac-41909630dbe1","ios":"levelo://app?vid=3c361a7f-6647-4aea-9bac-41909630dbe1"},"vehicle_type_id":"4","last_reported":1746371347,"current_range_meters":27600,"station_id":"ce4bgn12rcd13ifvqbt0","pricing_plan_id":"cebpf4jnsgd1na2vs0mg"},{"bike_id":"340c16d6-9b5f-4cf2-a5ae-833923e0bad6","system_id":"levelo_inurba_marseille","lat":43.30888,"lon":5.39651,"is_reserved":false,"is_disabled":false,"rental_uris":{"android":"levelo://app?vid=340c16d6-9b5f-4cf2-a5ae-833923e0bad6","ios":"levelo://app?vid=340c16d6-9b5f-4cf2-a5ae-833923e0bad6"},"vehicle_type_id":"4","last_reported":1746371347,"current_range_meters":27600,"station_id":"ce4bh012rcd13ifvqcv0","pricing_plan_id":"cebpf4jnsgd1na2vs0mg"},{"bike_id":"c8f85f97-457e-4a07-a2e8-c63e960263bd","system_id":"levelo_inurba_marseille","lat":43.27913,"lon":5.39575,"is_reserved":false,"is_disabled":false,"rental_uris":{"android":"levelo://app?vid=c8f85f97-457e-4a07-a2e8-c63e960263bd","ios":"levelo://app?vid=c8f85f97-457e-4a07-a2e8-c63e960263bd"},"vehicle_type_id":"4","last_reported":1746371347,"current_range_meters":27600,"station_id":"ce4bhf92rcd13ifvqf40","pricing_plan_id":"cebpf4jnsgd1na2vs0mg"},{"bike_id":"faa41b97-5a49-449c-8bc6-56fc4bcc0268","system_id":"levelo_inurba_marseille","lat":43.248078,"lon":5.374573,"is_reserved":false,"is_disabled":false,"rental_uris":{"android":"levelo://app?vid=faa41b97-5a49-449c-8bc6-56fc4bcc0268","ios":"levelo://app?vid=faa41b97-5a49-449c-8bc6-56fc4bcc0268"},"vehicle_type_id":"4","last_reported":1746371347,"current_range_meters":27600,"station_id":"ce4bhgh2rcd13ifvqfb0","pricing_plan_id":"cebpf4jnsgd1na2vs0mg"},{"bike_id":"193f0f80-7912-4069-a5e3-ca7bf85ffd92","system_id":"levelo_inurba_marseille","lat":43.24979,"lon":5.38965,"is_reserved":false,"is_disabled":false,"rental_uris":{"android":"levelo://app?vid=193f0f80-7912-4069-a5e3-ca7bf85ffd92","ios":"levelo://app?vid=193f0f80-7912-4069-a5e3-ca7bf85ffd92"},"vehicle_type_id":"4","last_reported":1746371347,"current_range_meters":27600,"station_id":"ce4bhgp2rcd13ifvqfd0","pricing_plan_id":"cebpf4jnsgd1na2vs0mg"},{"bike_id":"82b48ae8-6591-44c0-b17f-2e42a828b2ab","system_id":"levelo_inurba_marseille","lat":43.27073,"lon":5.42278,"is_reserved":false,"is_disabled":false,"rental_uris":{"android":"levelo://app?vid=82b48ae8-6591-44c0-b17f-2e42a828b2ab","ios":"levelo://app?vid=82b48ae8-6591-44c0-b17f-2e42a828b2ab"},"vehicle_type_id":"4","last_reported":1746371347,"current_range_meters":27600,"station_id":"ce4bhk92rcd13ifvqgb0","pricing_plan_id":"cebpf4jnsgd1na2vs0mg"},{"bike_id":"d097185d-16d4-4732-ab8e-68f401a39e98","system_id":"levelo_inurba_marseille","lat":43.24544,"lon":5.39526,"is_reserved":false,"is_disabled":false,"rental_uris":{"android":"levelo://app?vid=d097185d-16d4-4732-ab8e-68f401a39e98","ios":"levelo://app?vid=d097185d-16d4-4732-ab8e-68f401a39e98"},"vehicle_type_id":"4","last_reported":1746371347,"current_range_meters":27600,"station_id":"ce4bhlp2rcd13ifvqgjg","pricing_plan_id":"cebpf4jnsgd1na2vs0mg"},{"bike_id":"fff989e9-64dd-40de-8a4c-e30222516b94","system_id":"levelo_inurba_marseille","lat":43.28158,"lon":5.42648,"is_reserved":false,"is_disabled":false,"rental_uris":{"android":"levelo://app?vid=fff989e9-64dd-40de-8a4c-e30222516b94","ios":"levelo://app?vid=fff989e9-64dd-40de-8a4c-e30222516b94"},"vehicle_type_id":"4","last_reported":1746371347,"current_range_meters":27600,"station_id":"ce4bhnh2rcd13ifvqgug","pricing_plan_id":"cebpf4jnsgd1na2vs0mg"},{"bike_id":"f308cc31-5ac1-4178-a129-92caaac9178f","system_id":"levelo_inurba_marseille","lat":43.28004,"lon":5.40013,"is_reserved":false,"is_disabled":false,"rental_uris":{"android":"levelo://app?vid=f308cc31-5ac1-4178-a129-92caaac9178f","ios":"levelo://app?vid=f308cc31-5ac1-4178-a129-92caaac9178f"},"vehicle_type_id":"4","last_reported":1746371347,"current_range_meters":27600,"station_id":"ce4bho92rcd13ifvqh4g","pricing_plan_id":"cebpf4jnsgd1na2vs0mg"},{"bike_id":"23e1c95b-15c1-4b16-b6a4-1119326aa3cb","system_id":"levelo_inurba_marseille","lat":43.30378,"lon":5.42491,"is_reserved":false,"is_disabled":false,"rental_uris":{"android":"levelo://app?vid=23e1c95b-15c1-4b16-b6a4-1119326aa3cb","ios":"levelo://app?vid=23e1c95b-15c1-4b16-b6a4-1119326aa3cb"},"vehicle_type_id":"4","last_reported":1746371347,"current_range_meters":27600,"station_id":"ce4bhoh2rcd13ifvqh6g","pricing_plan_id":"cebpf4jnsgd1na2vs0mg"},{"bike_id":"3a63acc5-b352-4e5e-8ce6-37badecb6507","system_id":"levelo_inurba_marseille","lat":43.29468,"lon":5.41822,"is_reserved":false,"is_disabled":false,"rental_uris":{"android":"levelo://app?vid=3a63acc5-b352-4e5e-8ce6-37badecb6507","ios":"levelo://app?vid=3a63acc5-b352-4e5e-8ce6-37badecb6507"},"vehicle_type_id":"4","last_reported":1746371347,"current_range_meters":28000,"station_id":"","pricing_plan_id":"cebpf4jnsgd1na2vs0mg"},{"bike_id":"389d78ab-3b80-4ed6-8c72-e86ef2ca966e","system_id":"levelo_inurba_marseille","lat":43.30611,"lon":5.3722,"is_reserved":false,"is_disabled":false,"rental_uris":{"android":"levelo://app?vid=389d78ab-3b80-4ed6-8c72-e86ef2ca966e","ios":"levelo://app?vid=389d78ab-3b80-4ed6-8c72-e86ef2ca966e"},"vehicle_type_id":"4","last_reported":1746371347,"current_range_meters":28000,"station_id":"ce4bgqh2rcd13ifvqc4g","pricing_plan_id":"cebpf4jnsgd1na2vs0mg"},{"bike_id":"19794c3a-a5c4-4e7a-8a75-095e865def74","system_id":"levelo_inurba_marseille","lat":43.30428,"lon":5.39746,"is_reserved":false,"is_disabled":false,"rental_uris":{"android":"levelo://app?vid=19794c3a-a5c4-4e7a-8a75-095e865def74","ios":"levelo://app?vid=19794c3a-a5c4-4e7a-8a75-095e865def74"},"vehicle_type_id":"4","last_reported":1746371347,"current_range_meters":28000,"station_id":"ce4bh092rcd13ifvqd20","pricing_plan_id":"cebpf4jnsgd1na2vs0mg"},{"bike_id":"1ab5f032-2f65-4355-93ca-31d554df7ffd","system_id":"levelo_inurba_marseille","lat":43.31268,"lon":5.40174,"is_reserved":false,"is_disabled":false,"rental_uris":{"android":"levelo://app?vid=1ab5f032-2f65-4355-93ca-31d554df7ffd","ios":"levelo://app?vid=1ab5f032-2f65-4355-93ca-31d554df7ffd"},"vehicle_type_id":"4","last_reported":1746371347,"current_range_meters":28000,"station_id":"ce4bh092rcd13ifvqd30","pricing_plan_id":"cebpf4jnsgd1na2vs0mg"},{"bike_id":"051c0730-8753-48f7-836d-6a6fc9143d67","system_id":"levelo_inurba_marseille","lat":43.29005,"lon":5.35606,"is_reserved":false,"is_disabled":false,"rental_uris":{"android":"levelo://app?vid=051c0730-8753-48f7-836d-6a6fc9143d67","ios":"levelo://app?vid=051c0730-8753-48f7-836d-6a6fc9143d67"},"vehicle_type_id":"4","last_reported":1746371347,"current_range_meters":28000,"station_id":"ce4bhb92rcd13ifvqen0","pricing_plan_id":"cebpf4jnsgd1na2vs0mg"},{"bike_id":"f88ffc64-2083-4f58-84ca-5979fd9cb816","system_id":"levelo_inurba_marseille","lat":43.27943,"lon":5.4106,"is_reserved":false,"is_disabled":false,"rental_uris":{"android":"levelo://app?vid=f88ffc64-2083-4f58-84ca-5979fd9cb816","ios":"levelo://app?vid=f88ffc64-2083-4f58-84ca-5979fd9cb816"},"vehicle_type_id":"4","last_reported":1746371347,"current_range_meters":28000,"station_id":"ce4bhnp2rcd13ifvqh0g","pricing_plan_id":"cebpf4jnsgd1na2vs0mg"},{"bike_id":"93b551cc-d098-4d71-9ddb-2d168f3ce293","system_id":"levelo_inurba_marseille","lat":43.30599,"lon":5.37213,"is_reserved":false,"is_disabled":false,"rental_uris":{"android":"levelo://app?vid=93b551cc-d098-4d71-9ddb-2d168f3ce293","ios":"levelo://app?vid=93b551cc-d098-4d71-9ddb-2d168f3ce293"},"vehicle_type_id":"4","last_reported":1746371347,"current_range_meters":28400,"station_id":"ce4bgqh2rcd13ifvqc4g","pricing_plan_id":"cebpf4jnsgd1na2vs0mg"},{"bike_id":"cfea6c4d-e7fa-4fe9-8cb4-25840c4ba494","system_id":"levelo_inurba_marseille","lat":43.26557,"lon":5.37284,"is_reserved":false,"is_disabled":false,"rental_uris":{"android":"levelo://app?vid=cfea6c4d-e7fa-4fe9-8cb4-25840c4ba494","ios":"levelo://app?vid=cfea6c4d-e7fa-4fe9-8cb4-25840c4ba494"},"vehicle_type_id":"4","last_reported":1746371347,"current_range_meters":28400,"station_id":"ce4bhg12rcd13ifvqf70","pricing_plan_id":"cebpf4jnsgd1na2vs0mg"},{"bike_id":"c1d6c39d-e475-4225-a3ee-40354e9c27b3","system_id":"levelo_inurba_marseille","lat":43.26564,"lon":5.37283,"is_reserved":false,"is_disabled":false,"rental_uris":{"android":"levelo://app?vid=c1d6c39d-e475-4225-a3ee-40354e9c27b3","ios":"levelo://app?vid=c1d6c39d-e475-4225-a3ee-40354e9c27b3"},"vehicle_type_id":"4","last_reported":1746371347,"current_range_meters":28400,"station_id":"ce4bhg12rcd13ifvqf70","pricing_plan_id":"cebpf4jnsgd1na2vs0mg"},{"bike_id":"f8b0b83e-3275-4842-8279-54953a201dd7","system_id":"levelo_inurba_marseille","lat":43.26231,"lon":5.40434,"is_reserved":false,"is_disabled":false,"rental_uris":{"android":"levelo://app?vid=f8b0b83e-3275-4842-8279-54953a201dd7","ios":"levelo://app?vid=f8b0b83e-3275-4842-8279-54953a201dd7"},"vehicle_type_id":"4","last_reported":1746371347,"current_range_meters":28400,"station_id":"ce4bhmh2rcd13ifvqgmg","pricing_plan_id":"cebpf4jnsgd1na2vs0mg"},{"bike_id":"ded42051-0039-4cc2-a841-aeed54376989","system_id":"levelo_inurba_marseille","lat":43.265118,"lon":5.424436,"is_reserved":false,"is_disabled":false,"rental_uris":{"android":"levelo://app?vid=ded42051-0039-4cc2-a841-aeed54376989","ios":"levelo://app?vid=ded42051-0039-4cc2-a841-aeed54376989"},"vehicle_type_id":"4","last_reported":1746371347,"current_range_meters":28800,"station_id":"","pricing_plan_id":"cebpf4jnsgd1na2vs0mg"},{"bike_id":"1bcedd05-90fb-4c2c-b71e-896ea9a48d5f","system_id":"levelo_inurba_marseille","lat":43.29333,"lon":5.43437,"is_reserved":false,"is_disabled":false,"rental_uris":{"android":"levelo://app?vid=1bcedd05-90fb-4c2c-b71e-896ea9a48d5f","ios":"levelo://app?vid=1bcedd05-90fb-4c2c-b71e-896ea9a48d5f"},"vehicle_type_id":"4","last_reported":1746371347,"current_range_meters":28800,"station_id":"","pricing_plan_id":"cebpf4jnsgd1na2vs0mg"},{"bike_id":"310c26de-072b-4e93-bb70-593d0367587f","system_id":"levelo_inurba_marseille","lat":43.28459,"lon":5.35889,"is_reserved":false,"is_disabled":false,"rental_uris":{"android":"levelo://app?vid=310c26de-072b-4e93-bb70-593d0367587f","ios":"levelo://app?vid=310c26de-072b-4e93-bb70-593d0367587f"},"vehicle_type_id":"4","last_reported":1746371347,"current_range_meters":28800,"station_id":"ce4bhah2rcd13ifvqei0","pricing_plan_id":"cebpf4jnsgd1na2vs0mg"},{"bike_id":"0aa5b90f-550a-4efd-9bbc-22b1b2133141","system_id":"levelo_inurba_marseille","lat":43.27071,"lon":5.42276,"is_reserved":false,"is_disabled":false,"rental_uris":{"android":"levelo://app?vid=0aa5b90f-550a-4efd-9bbc-22b1b2133141","ios":"levelo://app?vid=0aa5b90f-550a-4efd-9bbc-22b1b2133141"},"vehicle_type_id":"4","last_reported":1746371347,"current_range_meters":28800,"station_id":"ce4bhk92rcd13ifvqgb0","pricing_plan_id":"cebpf4jnsgd1na2vs0mg"},{"bike_id":"977f4bb4-3d44-493d-b5a1-22093907125a","system_id":"levelo_inurba_marseille","lat":43.27068,"lon":5.42282,"is_reserved":false,"is_disabled":false,"rental_uris":{"android":"levelo://app?vid=977f4bb4-3d44-493d-b5a1-22093907125a","ios":"levelo://app?vid=977f4bb4-3d44-493d-b5a1-22093907125a"},"vehicle_type_id":"4","last_reported":1746371347,"current_range_meters":28800,"station_id":"ce4bhk92rcd13ifvqgb0","pricing_plan_id":"cebpf4jnsgd1na2vs0mg"},{"bike_id":"38214a63-ce33-4893-9845-0c7338a97e1e","system_id":"levelo_inurba_marseille","lat":43.32291,"lon":5.38299,"is_reserved":false,"is_disabled":false,"rental_uris":{"android":"levelo://app?vid=38214a63-ce33-4893-9845-0c7338a97e1e","ios":"levelo://app?vid=38214a63-ce33-4893-9845-0c7338a97e1e"},"vehicle_type_id":"4","last_reported":1746371347,"current_range_meters":28800,"station_id":"ce4bhr12rcd13ifvqhqg","pricing_plan_id":"cebpf4jnsgd1na2vs0mg"},{"bike_id":"9a16364a-65b7-4c2e-acbb-933dfd4f3fd9","system_id":"levelo_inurba_marseille","lat":43.25119,"lon":5.40319,"is_reserved":false,"is_disabled":false,"rental_uris":{"android":"levelo://app?vid=9a16364a-65b7-4c2e-acbb-933dfd4f3fd9","ios":"levelo://app?vid=9a16364a-65b7-4c2e-acbb-933dfd4f3fd9"},"vehicle_type_id":"4","last_reported":1746371347,"current_range_meters":29600,"station_id":"ce4bhlh2rcd13ifvqgig","pricing_plan_id":"cebpf4jnsgd1na2vs0mg"},{"bike_id":"b4b8b1bc-8f88-4e43-8726-4a60607ca4d8","system_id":"levelo_inurba_marseille","lat":43.2509,"lon":5.39509,"is_reserved":false,"is_disabled":false,"rental_uris":{"android":"levelo://app?vid=b4b8b1bc-8f88-4e43-8726-4a60607ca4d8","ios":"levelo://app?vid=b4b8b1bc-8f88-4e43-8726-4a60607ca4d8"},"vehicle_type_id":"4","last_reported":1746371347,"current_range_meters":29600,"station_id":"ce4bhm12rcd13ifvqgkg","pricing_plan_id":"cebpf4jnsgd1na2vs0mg"},{"bike_id":"02285ad8-610b-4e10-b666-1c75a573227b","system_id":"levelo_inurba_marseille","lat":43.241801,"lon":5.397304,"is_reserved":false,"is_disabled":false,"rental_uris":{"android":"levelo://app?vid=02285ad8-610b-4e10-b666-1c75a573227b","ios":"levelo://app?vid=02285ad8-610b-4e10-b666-1c75a573227b"},"vehicle_type_id":"4","last_reported":1746371347,"current_range_meters":29600,"station_id":"ce4bhn12rcd13ifvqgpg","pricing_plan_id":"cebpf4jnsgd1na2vs0mg"},{"bike_id":"505c6cb0-9945-457b-8566-a850f9d80017","system_id":"levelo_inurba_marseille","lat":43.21757,"lon":5.34608,"is_reserved":false,"is_disabled":false,"rental_uris":{"android":"levelo://app?vid=505c6cb0-9945-457b-8566-a850f9d80017","ios":"levelo://app?vid=505c6cb0-9945-457b-8566-a850f9d80017"},"vehicle_type_id":"4","last_reported":1746371347,"current_range_meters":29600,"station_id":"st_cvj6r9ubvosntc0bgbag","pricing_plan_id":"cebpf4jnsgd1na2vs0mg"},{"bike_id":"8d89c73d-8db6-4d7c-8cd3-185d7b8af262","system_id":"levelo_inurba_marseille","lat":43.29779,"lon":5.37097,"is_reserved":false,"is_disabled":false,"rental_uris":{"android":"levelo://app?vid=8d89c73d-8db6-4d7c-8cd3-185d7b8af262","ios":"levelo://app?vid=8d89c73d-8db6-4d7c-8cd3-185d7b8af262"},"vehicle_type_id":"4","last_reported":1746371347,"current_range_meters":30000,"station_id":"ce4bgop2rcd13ifvqc1g","pricing_plan_id":"cebpf4jnsgd1na2vs0mg"},{"bike_id":"20e29f00-00b9-436d-b82a-fb4ed778571f","system_id":"levelo_inurba_marseille","lat":43.30553,"lon":5.36734,"is_reserved":false,"is_disabled":false,"rental_uris":{"android":"levelo://app?vid=20e29f00-00b9-436d-b82a-fb4ed778571f","ios":"levelo://app?vid=20e29f00-00b9-436d-b82a-fb4ed778571f"},"vehicle_type_id":"4","last_reported":1746371347,"current_range_meters":30000,"station_id":"ce4bgrp2rcd13ifvqc9g","pricing_plan_id":"cebpf4jnsgd1na2vs0mg"},{"bike_id":"a9417710-8ce4-4be1-ba9f-4b130d549101","system_id":"levelo_inurba_marseille","lat":43.2606,"lon":5.3939,"is_reserved":false,"is_disabled":false,"rental_uris":{"android":"levelo://app?vid=a9417710-8ce4-4be1-ba9f-4b130d549101","ios":"levelo://app?vid=a9417710-8ce4-4be1-ba9f-4b130d549101"},"vehicle_type_id":"4","last_reported":1746371347,"current_range_meters":30000,"station_id":"ce4bhh92rcd13ifvqfj0","pricing_plan_id":"cebpf4jnsgd1na2vs0mg"},{"bike_id":"addaac3c-e8ba-43e6-b152-0a64eab75e0d","system_id":"levelo_inurba_marseille","lat":43.28715,"lon":5.37929,"is_reserved":false,"is_disabled":false,"rental_uris":{"android":"levelo://app?vid=addaac3c-e8ba-43e6-b152-0a64eab75e0d","ios":"levelo://app?vid=addaac3c-e8ba-43e6-b152-0a64eab75e0d"},"vehicle_type_id":"4","last_reported":1746371347,"current_range_meters":30400,"station_id":"ce4bh9p2rcd13ifvqec0","pricing_plan_id":"cebpf4jnsgd1na2vs0mg"},{"bike_id":"570e76ae-e054-4e6f-946e-3b988341e9a6","system_id":"levelo_inurba_marseille","lat":43.24183,"lon":5.3972,"is_reserved":false,"is_disabled":false,"rental_uris":{"android":"levelo://app?vid=570e76ae-e054-4e6f-946e-3b988341e9a6","ios":"levelo://app?vid=570e76ae-e054-4e6f-946e-3b988341e9a6"},"vehicle_type_id":"4","last_reported":1746371347,"current_range_meters":30400,"station_id":"ce4bhn12rcd13ifvqgpg","pricing_plan_id":"cebpf4jnsgd1na2vs0mg"},{"bike_id":"6808712c-211a-48eb-b77e-22e68b1e9b69","system_id":"levelo_inurba_marseille","lat":43.30598,"lon":5.37211,"is_reserved":false,"is_disabled":false,"rental_uris":{"android":"levelo://app?vid=6808712c-211a-48eb-b77e-22e68b1e9b69","ios":"levelo://app?vid=6808712c-211a-48eb-b77e-22e68b1e9b69"},"vehicle_type_id":"4","last_reported":1746371347,"current_range_meters":30800,"station_id":"ce4bgqh2rcd13ifvqc4g","pricing_plan_id":"cebpf4jnsgd1na2vs0mg"},{"bike_id":"fd64f9d6-7431-474b-b160-45d057a022eb","system_id":"levelo_inurba_marseille","lat":43.29871,"lon":5.39733,"is_reserved":false,"is_disabled":false,"rental_uris":{"android":"levelo://app?vid=fd64f9d6-7431-474b-b160-45d057a022eb","ios":"levelo://app?vid=fd64f9d6-7431-474b-b160-45d057a022eb"},"vehicle_type_id":"4","last_reported":1746371347,"current_range_meters":30800,"station_id":"ce4bh0h2rcd13ifvqd50","pricing_plan_id":"cebpf4jnsgd1na2vs0mg"},{"bike_id":"abe399cf-545c-4383-882b-f4d793de957b","system_id":"levelo_inurba_marseille","lat":43.25021,"lon":5.38921,"is_reserved":false,"is_disabled":false,"rental_uris":{"android":"levelo://app?vid=abe399cf-545c-4383-882b-f4d793de957b","ios":"levelo://app?vid=abe399cf-545c-4383-882b-f4d793de957b"},"vehicle_type_id":"4","last_reported":1746371347,"current_range_meters":30800,"station_id":"ce4bhgp2rcd13ifvqfd0","pricing_plan_id":"cebpf4jnsgd1na2vs0mg"},{"bike_id":"e7b8f268-9330-4a25-b9dc-b1073384cdf9","system_id":"levelo_inurba_marseille","lat":43.27171,"lon":5.41001,"is_reserved":false,"is_disabled":false,"rental_uris":{"android":"levelo://app?vid=e7b8f268-9330-4a25-b9dc-b1073384cdf9","ios":"levelo://app?vid=e7b8f268-9330-4a25-b9dc-b1073384cdf9"},"vehicle_type_id":"4","last_reported":1746371347,"current_range_meters":30800,"station_id":"ce4bhl12rcd13ifvqgf0","pricing_plan_id":"cebpf4jnsgd1na2vs0mg"},{"bike_id":"6f10c397-2fb9-4802-915f-b2f2dce9e14a","system_id":"levelo_inurba_marseille","lat":43.23036,"lon":5.35528,"is_reserved":false,"is_disabled":false,"rental_uris":{"android":"levelo://app?vid=6f10c397-2fb9-4802-915f-b2f2dce9e14a","ios":"levelo://app?vid=6f10c397-2fb9-4802-915f-b2f2dce9e14a"},"vehicle_type_id":"4","last_reported":1746371347,"current_range_meters":30800,"station_id":"cpo3342slgdg3j2ifvpg","pricing_plan_id":"cebpf4jnsgd1na2vs0mg"},{"bike_id":"aad36daf-6ec9-48c8-b7ba-994360b37d09","system_id":"levelo_inurba_marseille","lat":43.318843,"lon":5.37935,"is_reserved":false,"is_disabled":false,"rental_uris":{"android":"levelo://app?vid=aad36daf-6ec9-48c8-b7ba-994360b37d09","ios":"levelo://app?vid=aad36daf-6ec9-48c8-b7ba-994360b37d09"},"vehicle_type_id":"4","last_reported":1746371347,"current_range_meters":31200,"station_id":"","pricing_plan_id":"cebpf4jnsgd1na2vs0mg"},{"bike_id":"b2cf3e16-ba8c-4236-99d5-ed019964bad5","system_id":"levelo_inurba_marseille","lat":43.27072,"lon":5.42276,"is_reserved":false,"is_disabled":false,"rental_uris":{"android":"levelo://app?vid=b2cf3e16-ba8c-4236-99d5-ed019964bad5","ios":"levelo://app?vid=b2cf3e16-ba8c-4236-99d5-ed019964bad5"},"vehicle_type_id":"4","last_reported":1746371347,"current_range_meters":31200,"station_id":"ce4bhk92rcd13ifvqgb0","pricing_plan_id":"cebpf4jnsgd1na2vs0mg"},{"bike_id":"378c067c-8523-4393-a0a0-684faed188e4","system_id":"levelo_inurba_marseille","lat":43.23175,"lon":5.39989,"is_reserved":false,"is_disabled":false,"rental_uris":{"android":"levelo://app?vid=378c067c-8523-4393-a0a0-684faed188e4","ios":"levelo://app?vid=378c067c-8523-4393-a0a0-684faed188e4"},"vehicle_type_id":"4","last_reported":1746371347,"current_range_meters":31200,"station_id":"ce4bhn12rcd13ifvqgqg","pricing_plan_id":"cebpf4jnsgd1na2vs0mg"},{"bike_id":"607f5a81-5db3-4d32-88be-8c0d80a3fa8a","system_id":"levelo_inurba_marseille","lat":43.295556,"lon":5.422771,"is_reserved":false,"is_disabled":false,"rental_uris":{"android":"levelo://app?vid=607f5a81-5db3-4d32-88be-8c0d80a3fa8a","ios":"levelo://app?vid=607f5a81-5db3-4d32-88be-8c0d80a3fa8a"},"vehicle_type_id":"4","last_reported":1746371347,"current_range_meters":31200,"station_id":"ce4bhph2rcd13ifvqhdg","pricing_plan_id":"cebpf4jnsgd1na2vs0mg"},{"bike_id":"dd2b968c-69a3-4930-a55c-61d4d42604cf","system_id":"levelo_inurba_marseille","lat":43.32454,"lon":5.36626,"is_reserved":false,"is_disabled":false,"rental_uris":{"android":"levelo://app?vid=dd2b968c-69a3-4930-a55c-61d4d42604cf","ios":"levelo://app?vid=dd2b968c-69a3-4930-a55c-61d4d42604cf"},"vehicle_type_id":"4","last_reported":1746371347,"current_range_meters":32000,"station_id":"","pricing_plan_id":"cebpf4jnsgd1na2vs0mg"},{"bike_id":"54dc37ed-300d-41b5-bcee-67e4736ca037","system_id":"levelo_inurba_marseille","lat":43.30193,"lon":5.36626,"is_reserved":false,"is_disabled":false,"rental_uris":{"android":"levelo://app?vid=54dc37ed-300d-41b5-bcee-67e4736ca037","ios":"levelo://app?vid=54dc37ed-300d-41b5-bcee-67e4736ca037"},"vehicle_type_id":"4","last_reported":1746371347,"current_range_meters":32000,"station_id":"","pricing_plan_id":"cebpf4jnsgd1na2vs0mg"},{"bike_id":"d356875f-dd0b-4c2a-a0b4-68f1f552eb05","system_id":"levelo_inurba_marseille","lat":43.30536,"lon":5.36701,"is_reserved":false,"is_disabled":false,"rental_uris":{"android":"levelo://app?vid=d356875f-dd0b-4c2a-a0b4-68f1f552eb05","ios":"levelo://app?vid=d356875f-dd0b-4c2a-a0b4-68f1f552eb05"},"vehicle_type_id":"4","last_reported":1746371347,"current_range_meters":32000,"station_id":"ce4bgrp2rcd13ifvqc9g","pricing_plan_id":"cebpf4jnsgd1na2vs0mg"},{"bike_id":"6dd52497-4c45-4c8e-a511-52381515ab7f","system_id":"levelo_inurba_marseille","lat":43.29007,"lon":5.35604,"is_reserved":false,"is_disabled":false,"rental_uris":{"android":"levelo://app?vid=6dd52497-4c45-4c8e-a511-52381515ab7f","ios":"levelo://app?vid=6dd52497-4c45-4c8e-a511-52381515ab7f"},"vehicle_type_id":"4","last_reported":1746371347,"current_range_meters":32000,"station_id":"ce4bhb92rcd13ifvqen0","pricing_plan_id":"cebpf4jnsgd1na2vs0mg"},{"bike_id":"fcf475c5-b586-458d-a81f-f598914ca6c6","system_id":"levelo_inurba_marseille","lat":43.24819,"lon":5.37454,"is_reserved":false,"is_disabled":false,"rental_uris":{"android":"levelo://app?vid=fcf475c5-b586-458d-a81f-f598914ca6c6","ios":"levelo://app?vid=fcf475c5-b586-458d-a81f-f598914ca6c6"},"vehicle_type_id":"4","last_reported":1746371347,"current_range_meters":32000,"station_id":"ce4bhgh2rcd13ifvqfb0","pricing_plan_id":"cebpf4jnsgd1na2vs0mg"},{"bike_id":"40572c86-637a-45e4-a8a2-1e64737a91b7","system_id":"levelo_inurba_marseille","lat":43.23964,"lon":5.36644,"is_reserved":false,"is_disabled":false,"rental_uris":{"android":"levelo://app?vid=40572c86-637a-45e4-a8a2-1e64737a91b7","ios":"levelo://app?vid=40572c86-637a-45e4-a8a2-1e64737a91b7"},"vehicle_type_id":"4","last_reported":1746371347,"current_range_meters":32000,"station_id":"ce4bhi12rcd13ifvqfp0","pricing_plan_id":"cebpf4jnsgd1na2vs0mg"},{"bike_id":"6d5b84c5-ccaa-4bc6-9955-ca1617a0d0d7","system_id":"levelo_inurba_marseille","lat":43.279092,"lon":5.387576,"is_reserved":false,"is_disabled":false,"rental_uris":{"android":"levelo://app?vid=6d5b84c5-ccaa-4bc6-9955-ca1617a0d0d7","ios":"levelo://app?vid=6d5b84c5-ccaa-4bc6-9955-ca1617a0d0d7"},"vehicle_type_id":"4","last_reported":1746371347,"current_range_meters":32000,"station_id":"ce4bhi12rcd13ifvqfq0","pricing_plan_id":"cebpf4jnsgd1na2vs0mg"},{"bike_id":"8d3e0fad-d8eb-432f-b785-2dcbcb6344ec","system_id":"levelo_inurba_marseille","lat":43.2994,"lon":5.36518,"is_reserved":false,"is_disabled":false,"rental_uris":{"android":"levelo://app?vid=8d3e0fad-d8eb-432f-b785-2dcbcb6344ec","ios":"levelo://app?vid=8d3e0fad-d8eb-432f-b785-2dcbcb6344ec"},"vehicle_type_id":"4","last_reported":1746371347,"current_range_meters":32400,"station_id":"ce4bgm92rcd13ifvqbr0","pricing_plan_id":"cebpf4jnsgd1na2vs0mg"},{"bike_id":"f0571692-83f6-4e2a-b5e2-3ceb4595335d","system_id":"levelo_inurba_marseille","lat":43.29547,"lon":5.42284,"is_reserved":false,"is_disabled":false,"rental_uris":{"android":"levelo://app?vid=f0571692-83f6-4e2a-b5e2-3ceb4595335d","ios":"levelo://app?vid=f0571692-83f6-4e2a-b5e2-3ceb4595335d"},"vehicle_type_id":"4","last_reported":1746371347,"current_range_meters":32400,"station_id":"ce4bhph2rcd13ifvqhdg","pricing_plan_id":"cebpf4jnsgd1na2vs0mg"},