{"last_updated":1701184080,"ttl":30,"version":"2.2","data":{"bikes":[{"bike_id":"a66ef2ef-0f47-421a-9422-dc14d42fa8fc","system_id":"levelo_inurba_marseille","lat":43.31341,"lon":5.367098,"is_reserved":false,"is_disabled":false,"rental_uris":{"android":"levelo://app?vid=a66ef2ef-0f47-421a-9422-dc14d42fa8fc","ios":"levelo://app?vid=a66ef2ef-0f47-421a-9422-dc14d42fa8fc"},"vehicle_type_id":"4","last_reported":1701184080,"current_range_meters":22800,"station_id":"ce4bgr92rcd13ifvqc6g","pricing_plan_id":"free"},{"bike_id":"a3d56b78-18a4-4476-a1e0-1d275d94d39a","system_id":"levelo_inurba_marseille","lat":43.313391,"lon":5.36706,"is_reserved":false,"is_disabled":false,"rental_uris":{"android":"levelo://app?vid=a3d56b78-18a4-4476-a1e0-1d275d94d39a","ios":"levelo://app?vid=a3d56b78-18a4-4476-a1e0-1d275d94d39a"},"vehicle_type_id":"4","last_reported":1701184080,"current_range_meters":31600,"station_id":"ce4bgr92rcd13ifvqc6g","pricing_plan_id":"free"},{"bike_id":"3cb19d73-bef6-4e06-8ba5-af4738bae159","system_id":"levelo_inurba_marseille","lat":43.312239,"lon":5.368562,"is_reserved":false,"is_disabled":false,"rental_uris":{"android":"levelo://app?vid=3cb19d73-bef6-4e06-8ba5-af4738bae159","ios":"levelo://app?vid=3cb19d73-bef6-4e06-8ba5-af4738bae159"},"vehicle_type_id":"4","last_reported":1701184080,"current_range_meters":17200,"station_id":"ce4bgl92rcd13ifvqbq0","pricing_plan_id":"free"},{"bike_id":"bc42891d-e1d4-4fd8-8e24-4994046f69bf","system_id":"levelo_inurba_marseille","lat":43.310937,"lon":5.370973,"is_reserved":false,"is_disabled":false,"rental_uris":{"android":"levelo://app?vid=bc42891d-e1d4-4fd8-8e24-4994046f69bf","ios":"levelo://app?vid=bc42891d-e1d4-4fd8-8e24-4994046f69bf"},"vehicle_type_id":"4","last_reported":1701184080,"current_range_meters":24800,"station_id":"","pricing_plan_id":"free"},{"bike_id":"d7028a61-a13c-4e06-94da-7a98737582b8","system_id":"levelo_inurba_marseille","lat":43.30902,"lon":5.3686,"is_reserved":false,"is_disabled":false,"rental_uris":{"android":"levelo://app?vid=d7028a61-a13c-4e06-94da-7a98737582b8","ios":"levelo://app?vid=d7028a61-a13c-4e06-94da-7a98737582b8"},"vehicle_type_id":"4","last_reported":1701184080,"current_range_meters":13200,"station_id":"ce4bgn92rcd13ifvqbvg","pricing_plan_id":"free"},{"bike_id":"5126b0aa-d865-4589-8d50-8d8600ba8782","system_id":"levelo_inurba_marseille","lat":43.308479,"lon":5.36878,"is_reserved":false,"is_disabled":false,"rental_uris":{"android":"levelo://app?vid=5126b0aa-d865-4589-8d50-8d8600ba8782","ios":"levelo://app?vid=5126b0aa-d865-4589-8d50-8d8600ba8782"},"vehicle_type_id":"4","last_reported":1701184080,"current_range_meters":22000,"station_id":"","pricing_plan_id":"free"},{"bike_id":"ad652bbe-d385-40bf-bf71-093972d7577c","system_id":"levelo_inurba_marseille","lat":43.314811,"lon":5.373103,"is_reserved":false,"is_disabled":false,"rental_uris":{"android":"levelo://app?vid=ad652bbe-d385-40bf-bf71-093972d7577c","ios":"levelo://app?vid=ad652bbe-d385-40bf-bf71-093972d7577c"},"vehicle_type_id":"4","last_reported":1701184080,"current_range_meters":26000,"station_id":"ce4bgt12rcd13ifvqcd0","pricing_plan_id":"free"},{"bike_id":"47c1cdcf-4310-447f-8a7c-46cfc2ab2d2f","system_id":"levelo_inurba_marseille","lat":43.309039,"lon":5.371797,"is_reserved":false,"is_disabled":false,"rental_uris":{"android":"levelo://app?vid=47c1cdcf-4310-447f-8a7c-46cfc2ab2d2f","ios":"levelo://app?vid=47c1cdcf-4310-447f-8a7c-46cfc2ab2d2f"},"vehicle_type_id":"4","last_reported":1701184080,"current_range_meters":27600,"station_id":"ce4bguh2rcd13ifvqckg","pricing_plan_id":"free"},{"bike_id":"355ec015-d9f6-480f-b444-20f8a879f8dc","system_id":"levelo_inurba_marseille","lat":43.30544,"lon":5.36711,"is_reserved":false,"is_disabled":false,"rental_uris":{"android":"levelo://app?vid=355ec015-d9f6-480f-b444-20f8a879f8dc","ios":"levelo://app?vid=355ec015-d9f6-480f-b444-20f8a879f8dc"},"vehicle_type_id":"4","last_reported":1701184080,"current_range_meters":20400,"station_id":"ce4bgrp2rcd13ifvqc9g","pricing_plan_id":"free"},{"bike_id":"9c79144a-a69d-468c-b17c-299cb0c92bc3","system_id":"levelo_inurba_marseille","lat":43.30551,"lon":5.36536,"is_reserved":false,"is_disabled":false,"rental_uris":{"android":"levelo://app?vid=9c79144a-a69d-468c-b17c-299cb0c92bc3","ios":"levelo://app?vid=9c79144a-a69d-468c-b17c-299cb0c92bc3"},"vehicle_type_id":"4","last_reported":1701184080,"current_range_meters":28800,"station_id":"ce4bgs12rcd13ifvqcag","pricing_plan_id":"free"},{"bike_id":"a216349d-cb38-4ad2-b42d-fcef9e8701a5","system_id":"levelo_inurba_marseille","lat":43.305714,"lon":5.365633,"is_reserved":false,"is_disabled":false,"rental_uris":{"android":"levelo://app?vid=a216349d-cb38-4ad2-b42d-fcef9e8701a5","ios":"levelo://app?vid=a216349d-cb38-4ad2-b42d-fcef9e8701a5"},"vehicle_type_id":"4","last_reported":1701184080,"current_range_meters":6400,"station_id":"ce4bgs12rcd13ifvqcag","pricing_plan_id":"free"},{"bike_id":"b56647a9-60b7-4d75-b2e5-e85adb4a049f","system_id":"levelo_inurba_marseille","lat":43.305368,"lon":5.367343,"is_reserved":false,"is_disabled":false,"rental_uris":{"android":"levelo://app?vid=b56647a9-60b7-4d75-b2e5-e85adb4a049f","ios":"levelo://app?vid=b56647a9-60b7-4d75-b2e5-e85adb4a049f"},"vehicle_type_id":"4","last_reported":1701184080,"current_range_meters":24000,"station_id":"ce4bgrp2rcd13ifvqc9g","pricing_plan_id":"free"},{"bike_id":"5cbd8b4e-dcc7-418e-91a2-01d306fb34e4","system_id":"levelo_inurba_marseille","lat":43.30545,"lon":5.36558,"is_reserved":false,"is_disabled":false,"rental_uris":{"android":"levelo://app?vid=5cbd8b4e-dcc7-418e-91a2-01d306fb34e4","ios":"levelo://app?vid=5cbd8b4e-dcc7-418e-91a2-01d306fb34e4"},"vehicle_type_id":"4","last_reported":1701184080,"current_range_meters":16400,"station_id":"ce4bgs12rcd13ifvqcag","pricing_plan_id":"free"},{"bike_id":"143c736f-f605-4487-99a5-a3b4532bb421","system_id":"levelo_inurba_marseille","lat":43.305706,"lon":5.365654,"is_reserved":false,"is_disabled":false,"rental_uris":{"android":"levelo://app?vid=143c736f-f605-4487-99a5-a3b4532bb421","ios":"levelo://app?vid=143c736f-f605-4487-99a5-a3b4532bb421"},"vehicle_type_id":"4","last_reported":1701184080,"current_range_meters":24400,"station_id":"ce4bgs12rcd13ifvqcag","pricing_plan_id":"free"},{"bike_id":"20ede2da-9fc8-45c3-9388-6d4b521b4d46","system_id":"levelo_inurba_marseille","lat":43.30541,"lon":5.36528,"is_reserved":false,"is_disabled":false,"rental_uris":{"android":"levelo://app?vid=20ede2da-9fc8-45c3-9388-6d4b521b4d46","ios":"levelo://app?vid=20ede2da-9fc8-45c3-9388-6d4b521b4d46"},"vehicle_type_id":"4","last_reported":1701184080,"current_range_meters":8000,"station_id":"ce4bgs12rcd13ifvqcag","pricing_plan_id":"free"},{"bike_id":"5645b105-d7cf-4cf3-8f15-cd64b44086a9","system_id":"levelo_inurba_marseille","lat":43.305706,"lon":5.365654,"is_reserved":false,"is_disabled":false,"rental_uris":{"android":"levelo://app?vid=5645b105-d7cf-4cf3-8f15-cd64b44086a9","ios":"levelo://app?vid=5645b105-d7cf-4cf3-8f15-cd64b44086a9"},"vehicle_type_id":"4","last_reported":1701184080,"current_range_meters":16400,"station_id":"ce4bgs12rcd13ifvqcag","pricing_plan_id":"free"},{"bike_id":"4d249a31-57c1-4b32-9cb3-27f066361ec9","system_id":"levelo_inurba_marseille","lat":43.305706,"lon":5.365654,"is_reserved":false,"is_disabled":false,"rental_uris":{"android":"levelo://app?vid=4d249a31-57c1-4b32-9cb3-27f066361ec9","ios":"levelo://app?vid=4d249a31-57c1-4b32-9cb3-27f066361ec9"},"vehicle_type_id":"4","last_reported":1701184080,"current_range_meters":31200,"station_id":"ce4bgs12rcd13ifvqcag","pricing_plan_id":"free"},{"bike_id":"e4856767-e010-4a20-8a62-43ef35bf8b61","system_id":"levelo_inurba_marseille","lat":43.305378,"lon":5.365255,"is_reserved":false,"is_disabled":false,"rental_uris":{"android":"levelo://app?vid=e4856767-e010-4a20-8a62-43ef35bf8b61","ios":"levelo://app?vid=e4856767-e010-4a20-8a62-43ef35bf8b61"},"vehicle_type_id":"4","last_reported":1701184080,"current_range_meters":24400,"station_id":"ce4bgs12rcd13ifvqcag","pricing_plan_id":"free"},{"bike_id":"815df9e8-7d96-4a6a-a264-8a5925a0bb2a","system_id":"levelo_inurba_marseille","lat":43.305706,"lon":5.365654,"is_reserved":false,"is_disabled":false,"rental_uris":{"android":"levelo://app?vid=815df9e8-7d96-4a6a-a264-8a5925a0bb2a","ios":"levelo://app?vid=815df9e8-7d96-4a6a-a264-8a5925a0bb2a"},"vehicle_type_id":"4","last_reported":1701184080,"current_range_meters":19200,"station_id":"ce4bgs12rcd13ifvqcag","pricing_plan_id":"free"},{"bike_id":"707daf8a-c5cb-4d72-a7e8-2a483f7bd132","system_id":"levelo_inurba_marseille","lat":43.311131,"lon":5.377651,"is_reserved":false,"is_disabled":false,"rental_uris":{"android":"levelo://app?vid=707daf8a-c5cb-4d72-a7e8-2a483f7bd132","ios":"levelo://app?vid=707daf8a-c5cb-4d72-a7e8-2a483f7bd132"},"vehicle_type_id":"4","last_reported":1701184080,"current_range_meters":18400,"station_id":"ce4bgt92rcd13ifvqcg0","pricing_plan_id":"free"},{"bike_id":"c042bf3c-4a8d-4e87-aa5b-31669b74e1cd","system_id":"levelo_inurba_marseille","lat":43.31113,"lon":5.3777,"is_reserved":false,"is_disabled":false,"rental_uris":{"android":"levelo://app?vid=c042bf3c-4a8d-4e87-aa5b-31669b74e1cd","ios":"levelo://app?vid=c042bf3c-4a8d-4e87-aa5b-31669b74e1cd"},"vehicle_type_id":"4","last_reported":1701184080,"current_range_meters":12800,"station_id":"ce4bgt92rcd13ifvqcg0","pricing_plan_id":"free"},{"bike_id":"24162143-6712-4875-bd61-a103a7ebe0cb","system_id":"levelo_inurba_marseille","lat":43.311131,"lon":5.377651,"is_reserved":false,"is_disabled":false,"rental_uris":{"android":"levelo://app?vid=24162143-6712-4875-bd61-a103a7ebe0cb","ios":"levelo://app?vid=24162143-6712-4875-bd61-a103a7ebe0cb"},"vehicle_type_id":"4","last_reported":1701184080,"current_range_meters":17600,"station_id":"ce4bgt92rcd13ifvqcg0","pricing_plan_id":"free"},{"bike_id":"45b3ff23-a937-45d9-9f96-088c308c0189","system_id":"levelo_inurba_marseille","lat":43.308189,"lon":5.376589,"is_reserved":false,"is_disabled":false,"rental_uris":{"android":"levelo://app?vid=45b3ff23-a937-45d9-9f96-088c308c0189","ios":"levelo://app?vid=45b3ff23-a937-45d9-9f96-088c308c0189"},"vehicle_type_id":"4","last_reported":1701184080,"current_range_meters":14000,"station_id":"ce4bgv92rcd13ifvqcq0","pricing_plan_id":"free"},{"bike_id":"f427a2c3-6e4a-446b-ae2f-9be8aa7f4122","system_id":"levelo_inurba_marseille","lat":43.31719,"lon":5.376813,"is_reserved":false,"is_disabled":false,"rental_uris":{"android":"levelo://app?vid=f427a2c3-6e4a-446b-ae2f-9be8aa7f4122","ios":"levelo://app?vid=f427a2c3-6e4a-446b-ae2f-9be8aa7f4122"},"vehicle_type_id":"4","last_reported":1701184080,"current_range_meters":13200,"station_id":"ce4bgth2rcd13ifvqch0","pricing_plan_id":"free"},{"bike_id":"9de8c9e2-c2d7-4dcd-b2bc-d7d927ae1454","system_id":"levelo_inurba_marseille","lat":43.307945,"lon":5.376487,"is_reserved":false,"is_disabled":false,"rental_uris":{"android":"levelo://app?vid=9de8c9e2-c2d7-4dcd-b2bc-d7d927ae1454","ios":"levelo://app?vid=9de8c9e2-c2d7-4dcd-b2bc-d7d927ae1454"},"vehicle_type_id":"4","last_reported":1701184080,"current_range_meters":12400,"station_id":"ce4bgv92rcd13ifvqcq0","pricing_plan_id":"free"},{"bike_id":"e913f328-1e31-4c22-bd87-f809ea246de4","system_id":"levelo_inurba_marseille","lat":43.317168,"lon":5.376883,"is_reserved":false,"is_disabled":false,"rental_uris":{"android":"levelo://app?vid=e913f328-1e31-4c22-bd87-f809ea246de4","ios":"levelo://app?vid=e913f328-1e31-4c22-bd87-f809ea246de4"},"vehicle_type_id":"4","last_reported":1701184080,"current_range_meters":15200,"station_id":"ce4bgth2rcd13ifvqch0","pricing_plan_id":"free"},{"bike_id":"dd70327f-323a-4ba9-a0cd-f0e3f1a5c66c","system_id":"levelo_inurba_marseille","lat":43.31702,"lon":5.377347,"is_reserved":false,"is_disabled":false,"rental_uris":{"android":"levelo://app?vid=dd70327f-323a-4ba9-a0cd-f0e3f1a5c66c","ios":"levelo://app?vid=dd70327f-323a-4ba9-a0cd-f0e3f1a5c66c"},"vehicle_type_id":"4","last_reported":1701184080,"current_range_meters":31200,"station_id":"ce4bgth2rcd13ifvqch0","pricing_plan_id":"free"},{"bike_id":"e5930290-4de9-4592-b0ff-1380d2b4e48e","system_id":"levelo_inurba_marseille","lat":43.31605,"lon":5.37803,"is_reserved":false,"is_disabled":false,"rental_uris":{"android":"levelo://app?vid=e5930290-4de9-4592-b0ff-1380d2b4e48e","ios":"levelo://app?vid=e5930290-4de9-4592-b0ff-1380d2b4e48e"},"vehicle_type_id":"4","last_reported":1701184080,"current_range_meters":27200,"station_id":"","pricing_plan_id":"free"},{"bike_id":"b0d8d71b-d7e6-4ca0-9fc8-6ff224850219","system_id":"levelo_inurba_marseille","lat":43.317075,"lon":5.377367,"is_reserved":false,"is_disabled":false,"rental_uris":{"android":"levelo://app?vid=b0d8d71b-d7e6-4ca0-9fc8-6ff224850219","ios":"levelo://app?vid=b0d8d71b-d7e6-4ca0-9fc8-6ff224850219"},"vehicle_type_id":"4","last_reported":1701184080,"current_range_meters":28800,"station_id":"ce4bgth2rcd13ifvqch0","pricing_plan_id":"free"},{"bike_id":"d991b68b-e04e-4cc6-a514-df3e1f79038c","system_id":"levelo_inurba_marseille","lat":43.31538,"lon":5.38036,"is_reserved":false,"is_disabled":false,"rental_uris":{"android":"levelo://app?vid=d991b68b-e04e-4cc6-a514-df3e1f79038c","ios":"levelo://app?vid=d991b68b-e04e-4cc6-a514-df3e1f79038c"},"vehicle_type_id":"4","last_reported":1701184080,"current_range_meters":30400,"station_id":"ce4bhsp2rcd13ifvqi50","pricing_plan_id":"free"},{"bike_id":"a08b4599-7716-4713-94ae-f2c8dbcda5f6","system_id":"levelo_inurba_marseille","lat":43.31013,"lon":5.3818,"is_reserved":false,"is_disabled":false,"rental_uris":{"android":"levelo://app?vid=a08b4599-7716-4713-94ae-f2c8dbcda5f6","ios":"levelo://app?vid=a08b4599-7716-4713-94ae-f2c8dbcda5f6"},"vehicle_type_id":"4","last_reported":1701184080,"current_range_meters":25200,"station_id":"","pricing_plan_id":"free"},{"bike_id":"cbb681c9-afda-49b6-9b37-b13f1903d105","system_id":"levelo_inurba_marseille","lat":43.30798,"lon":5.38144,"is_reserved":false,"is_disabled":false,"rental_uris":{"android":"levelo://app?vid=cbb681c9-afda-49b6-9b37-b13f1903d105","ios":"levelo://app?vid=cbb681c9-afda-49b6-9b37-b13f1903d105"},"vehicle_type_id":"4","last_reported":1701184080,"current_range_meters":15600,"station_id":"ce4bgt12rcd13ifvqce0","pricing_plan_id":"free"},{"bike_id":"364eabcb-4b0f-4cd7-beb8-57169a6e0901","system_id":"levelo_inurba_marseille","lat":43.324771,"lon":5.36557,"is_reserved":false,"is_disabled":false,"rental_uris":{"android":"levelo://app?vid=364eabcb-4b0f-4cd7-beb8-57169a6e0901","ios":"levelo://app?vid=364eabcb-4b0f-4cd7-beb8-57169a6e0901"},"vehicle_type_id":"4","last_reported":1701184080,"current_range_meters":18800,"station_id":"ce4bhs12rcd13ifvqhvg","pricing_plan_id":"free"},{"bike_id":"84063b95-6db3-419f-bddc-1cf6fad1ed98","system_id":"levelo_inurba_marseille","lat":43.302784,"lon":5.377158,"is_reserved":false,"is_disabled":false,"rental_uris":{"android":"levelo://app?vid=84063b95-6db3-419f-bddc-1cf6fad1ed98","ios":"levelo://app?vid=84063b95-6db3-419f-bddc-1cf6fad1ed98"},"vehicle_type_id":"4","last_reported":1701184080,"current_range_meters":27600,"station_id":"ce4bguh2rcd13ifvqcj0","pricing_plan_id":"free"},{"bike_id":"2533247e-54ed-49f7-af00-a850421d5209","system_id":"levelo_inurba_marseille","lat":43.301429,"lon":5.37413,"is_reserved":false,"is_disabled":false,"rental_uris":{"android":"levelo://app?vid=2533247e-54ed-49f7-af00-a850421d5209","ios":"levelo://app?vid=2533247e-54ed-49f7-af00-a850421d5209"},"vehicle_type_id":"4","last_reported":1701184080,"current_range_meters":22800,"station_id":"ce4bgs92rcd13ifvqcc0","pricing_plan_id":"free"},{"bike_id":"eb8fd2f9-d231-4ca8-9ba9-f0bbf2c4e61e","system_id":"levelo_inurba_marseille","lat":43.302784,"lon":5.377158,"is_reserved":false,"is_disabled":false,"rental_uris":{"android":"levelo://app?vid=eb8fd2f9-d231-4ca8-9ba9-f0bbf2c4e61e","ios":"levelo://app?vid=eb8fd2f9-d231-4ca8-9ba9-f0bbf2c4e61e"},"vehicle_type_id":"4","last_reported":1701184080,"current_range_meters":14400,"station_id":"ce4bguh2rcd13ifvqcj0","pricing_plan_id":"free"},{"bike_id":"8e3a8d71-4aa4-41e6-bcc4-800412db1451","system_id":"levelo_inurba_marseille","lat":43.313571,"lon":5.384829,"is_reserved":false,"is_disabled":false,"rental_uris":{"android":"levelo://app?vid=8e3a8d71-4aa4-41e6-bcc4-800412db1451","ios":"levelo://app?vid=8e3a8d71-4aa4-41e6-bcc4-800412db1451"},"vehicle_type_id":"4","last_reported":1701184080,"current_range_meters":22400,"station_id":"ce4bgt92rcd13ifvqcf0","pricing_plan_id":"free"},{"bike_id":"5165f9cd-9832-4a03-8299-ed79ed816943","system_id":"levelo_inurba_marseille","lat":43.313571,"lon":5.384829,"is_reserved":false,"is_disabled":false,"rental_uris":{"android":"levelo://app?vid=5165f9cd-9832-4a03-8299-ed79ed816943","ios":"levelo://app?vid=5165f9cd-9832-4a03-8299-ed79ed816943"},"vehicle_type_id":"4","last_reported":1701184080,"current_range_meters":15200,"station_id":"ce4bgt92rcd13ifvqcf0","pricing_plan_id":"free"},{"bike_id":"96886a32-e2d5-464f-8bab-ffe862672798","system_id":"levelo_inurba_marseille","lat":43.313571,"lon":5.384829,"is_reserved":false,"is_disabled":false,"rental_uris":{"android":"levelo://app?vid=96886a32-e2d5-464f-8bab-ffe862672798","ios":"levelo://app?vid=96886a32-e2d5-464f-8bab-ffe862672798"},"vehicle_type_id":"4","last_reported":1701184080,"current_range_meters":19600,"station_id":"ce4bgt92rcd13ifvqcf0","pricing_plan_id":"free"},{"bike_id":"f2d37ad5-253a-4284-8bd6-92e5d36f30b7","system_id":"levelo_inurba_marseille","lat":43.313571,"lon":5.384829,"is_reserved":false,"is_disabled":false,"rental_uris":{"android":"levelo://app?vid=f2d37ad5-253a-4284-8bd6-92e5d36f30b7","ios":"levelo://app?vid=f2d37ad5-253a-4284-8bd6-92e5d36f30b7"},"vehicle_type_id":"4","last_reported":1701184080,"current_range_meters":27600,"station_id":"ce4bgt92rcd13ifvqcf0","pricing_plan_id":"free"},{"bike_id":"f2ab2c8a-3a31-48cd-b1d9-13498f1a9289","system_id":"levelo_inurba_marseille","lat":43.313571,"lon":5.384829,"is_reserved":false,"is_disabled":false,"rental_uris":{"android":"levelo://app?vid=f2ab2c8a-3a31-48cd-b1d9-13498f1a9289","ios":"levelo://app?vid=f2ab2c8a-3a31-48cd-b1d9-13498f1a9289"},"vehicle_type_id":"4","last_reported":1701184080,"current_range_meters":17600,"station_id":"ce4bgt92rcd13ifvqcf0","pricing_plan_id":"free"},{"bike_id":"5f973af3-ae5c-4c80-aaef-2f9c1b99db55","system_id":"levelo_inurba_marseille","lat":43.313571,"lon":5.384829,"is_reserved":false,"is_disabled":false,"rental_uris":{"android":"levelo://app?vid=5f973af3-ae5c-4c80-aaef-2f9c1b99db55","ios":"levelo://app?vid=5f973af3-ae5c-4c80-aaef-2f9c1b99db55"},"vehicle_type_id":"4","last_reported":1701184080,"current_range_meters":31200,"station_id":"ce4bgt92rcd13ifvqcf0","pricing_plan_id":"free"},{"bike_id":"d3d08817-45ad-479f-b103-49814d612826","system_id":"levelo_inurba_marseille","lat":43.313571,"lon":5.384829,"is_reserved":false,"is_disabled":false,"rental_uris":{"android":"levelo://app?vid=d3d08817-45ad-479f-b103-49814d612826","ios":"levelo://app?vid=d3d08817-45ad-479f-b103-49814d612826"},"vehicle_type_id":"4","last_reported":1701184080,"current_range_meters":14400,"station_id":"ce4bgt92rcd13ifvqcf0","pricing_plan_id":"free"},{"bike_id":"11ce891d-8263-48c2-85c1-56faec8daa43","system_id":"levelo_inurba_marseille","lat":43.299222,"lon":5.365554,"is_reserved":false,"is_disabled":false,"rental_uris":{"android":"levelo://app?vid=11ce891d-8263-48c2-85c1-56faec8daa43","ios":"levelo://app?vid=11ce891d-8263-48c2-85c1-56faec8daa43"},"vehicle_type_id":"4","last_reported":1701184080,"current_range_meters":22000,"station_id":"ce4bgm92rcd13ifvqbr0","pricing_plan_id":"free"},{"bike_id":"defc7b6d-7b47-42e2-9956-9542c0169a5e","system_id":"levelo_inurba_marseille","lat":43.299724,"lon":5.371829,"is_reserved":false,"is_disabled":false,"rental_uris":{"android":"levelo://app?vid=defc7b6d-7b47-42e2-9956-9542c0169a5e","ios":"levelo://app?vid=defc7b6d-7b47-42e2-9956-9542c0169a5e"},"vehicle_type_id":"4","last_reported":1701184080,"current_range_meters":28800,"station_id":"ce4bgr92rcd13ifvqc7g","pricing_plan_id":"free"},{"bike_id":"9c34c304-5edd-4762-97a9-a863036c03d5","system_id":"levelo_inurba_marseille","lat":43.29931,"lon":5.36559,"is_reserved":false,"is_disabled":false,"rental_uris":{"android":"levelo://app?vid=9c34c304-5edd-4762-97a9-a863036c03d5","ios":"levelo://app?vid=9c34c304-5edd-4762-97a9-a863036c03d5"},"vehicle_type_id":"4","last_reported":1701184080,"current_range_meters":29600,"station_id":"ce4bgm92rcd13ifvqbr0","pricing_plan_id":"free"},{"bike_id":"c494d314-47ac-4591-9604-84f461e83135","system_id":"levelo_inurba_marseille","lat":43.29854,"lon":5.36284,"is_reserved":false,"is_disabled":false,"rental_uris":{"android":"levelo://app?vid=c494d314-47ac-4591-9604-84f461e83135","ios":"levelo://app?vid=c494d314-47ac-4591-9604-84f461e83135"},"vehicle_type_id":"4","last_reported":1701184080,"current_range_meters":29600,"station_id":"ce4bgpp2rcd13ifvqc3g","pricing_plan_id":"free"},{"bike_id":"0923cdaf-f0e8-4595-b3f7-ac27770c3f74","system_id":"levelo_inurba_marseille","lat":43.29852,"lon":5.36275,"is_reserved":false,"is_disabled":false,"rental_uris":{"android":"levelo://app?vid=0923cdaf-f0e8-4595-b3f7-ac27770c3f74","ios":"levelo://app?vid=0923cdaf-f0e8-4595-b3f7-ac27770c3f74"},"vehicle_type_id":"4","last_reported":1701184080,"current_range_meters":6400,"station_id":"ce4bgpp2rcd13ifvqc3g","pricing_plan_id":"free"},{"bike_id":"fbb96849-60ea-477a-888a-4e7e6b30ea9d","system_id":"levelo_inurba_marseille","lat":43.2985,"lon":5.36286,"is_reserved":false,"is_disabled":false,"rental_uris":{"android":"levelo://app?vid=fbb96849-60ea-477a-888a-4e7e6b30ea9d","ios":"levelo://app?vid=fbb96849-60ea-477a-888a-4e7e6b30ea9d"},"vehicle_type_id":"4","last_reported":1701184080,"current_range_meters":23600,"station_id":"ce4bgpp2rcd13ifvqc3g","pricing_plan_id":"free"},{"bike_id":"6fcd6fdd-6fe9-4dd0-8344-464ba3163d98","system_id":"levelo_inurba_marseille","lat":43.305364,"lon":5.384119,"is_reserved":false,"is_disabled":false,"rental_uris":{"android":"levelo://app?vid=6fcd6fdd-6fe9-4dd0-8344-464ba3163d98","ios":"levelo://app?vid=6fcd6fdd-6fe9-4dd0-8344-464ba3163d98"},"vehicle_type_id":"4","last_reported":1701184080,"current_range_meters":24400,"station_id":"ce4bgg92rcd13ifvqb30","pricing_plan_id":"free"},{"bike_id":"f6bb7f7f-43c6-412e-9fae-e58c1468d008","system_id":"levelo_inurba_marseille","lat":43.311722,"lon":5.387247,"is_reserved":false,"is_disabled":false,"rental_uris":{"android":"levelo://app?vid=f6bb7f7f-43c6-412e-9fae-e58c1468d008","ios":"levelo://app?vid=f6bb7f7f-43c6-412e-9fae-e58c1468d008"},"vehicle_type_id":"4","last_reported":1701184080,"current_range_meters":17200,"station_id":"ce4bgv12rcd13ifvqcp0","pricing_plan_id":"free"},{"bike_id":"a6770371-ea26-4996-8272-a46ca85da7e0","system_id":"levelo_inurba_marseille","lat":43.299243,"lon":5.37481,"is_reserved":false,"is_disabled":false,"rental_uris":{"android":"levelo://app?vid=a6770371-ea26-4996-8272-a46ca85da7e0","ios":"levelo://app?vid=a6770371-ea26-4996-8272-a46ca85da7e0"},"vehicle_type_id":"4","last_reported":1701184080,"current_range_meters":26000,"station_id":"ce4bgjh2rcd13ifvqbg0","pricing_plan_id":"free"},{"bike_id":"5ff197b8-43b5-4899-a2ff-a0f85b7accaa","system_id":"levelo_inurba_marseille","lat":43.311722,"lon":5.387247,"is_reserved":false,"is_disabled":false,"rental_uris":{"android":"levelo://app?vid=5ff197b8-43b5-4899-a2ff-a0f85b7accaa","ios":"levelo://app?vid=5ff197b8-43b5-4899-a2ff-a0f85b7accaa"},"vehicle_type_id":"4","last_reported":1701184080,"current_range_meters":18000,"station_id":"ce4bgv12rcd13ifvqcp0","pricing_plan_id":"free"},{"bike_id":"facd294e-cb3a-469a-afce-93813b10a278","system_id":"levelo_inurba_marseille","lat":43.299243,"lon":5.37481,"is_reserved":false,"is_disabled":false,"rental_uris":{"android":"levelo://app?vid=facd294e-cb3a-469a-afce-93813b10a278","ios":"levelo://app?vid=facd294e-cb3a-469a-afce-93813b10a278"},"vehicle_type_id":"4","last_reported":1701184080,"current_range_meters":21600,"station_id":"ce4bgjh2rcd13ifvqbg0","pricing_plan_id":"free"},{"bike_id":"7480946d-351f-4d72-93ce-1d101a64758e","system_id":"levelo_inurba_marseille","lat":43.299243,"lon":5.37481,"is_reserved":false,"is_disabled":false,"rental_uris":{"android":"levelo://app?vid=7480946d-351f-4d72-93ce-1d101a64758e","ios":"levelo://app?vid=7480946d-351f-4d72-93ce-1d101a64758e"},"vehicle_type_id":"4","last_reported":1701184080,"current_range_meters":16000,"station_id":"ce4bgjh2rcd13ifvqbg0","pricing_plan_id":"free"},{"bike_id":"f675fd20-e9c3-46b6-9aba-e2d982e9eb0b","system_id":"levelo_inurba_marseille","lat":43.297794,"lon":5.370888,"is_reserved":false,"is_disabled":false,"rental_uris":{"android":"levelo://app?vid=f675fd20-e9c3-46b6-9aba-e2d982e9eb0b","ios":"levelo://app?vid=f675fd20-e9c3-46b6-9aba-e2d982e9eb0b"},"vehicle_type_id":"4","last_reported":1701184080,"current_range_meters":24400,"station_id":"ce4bgop2rcd13ifvqc1g","pricing_plan_id":"free"},{"bike_id":"dc298f33-51c4-4cb4-b66c-e8fb7024d9f6","system_id":"levelo_inurba_marseille","lat":43.297163,"lon":5.365866,"is_reserved":false,"is_disabled":false,"rental_uris":{"android":"levelo://app?vid=dc298f33-51c4-4cb4-b66c-e8fb7024d9f6","ios":"levelo://app?vid=dc298f33-51c4-4cb4-b66c-e8fb7024d9f6"},"vehicle_type_id":"4","last_reported":1701184080,"current_range_meters":28800,"station_id":"ce4bgn12rcd13ifvqbt0","pricing_plan_id":"free"},{"bike_id":"b574c080-db83-488f-aa0a-80d20eb43891","system_id":"levelo_inurba_marseille","lat":43.297163,"lon":5.365866,"is_reserved":false,"is_disabled":false,"rental_uris":{"android":"levelo://app?vid=b574c080-db83-488f-aa0a-80d20eb43891","ios":"levelo://app?vid=b574c080-db83-488f-aa0a-80d20eb43891"},"vehicle_type_id":"4","last_reported":1701184080,"current_range_meters":20000,"station_id":"ce4bgn12rcd13ifvqbt0","pricing_plan_id":"free"},{"bike_id":"1345374e-3a0f-48ed-b752-811b019274d7","system_id":"levelo_inurba_marseille","lat":43.32847,"lon":5.36668,"is_reserved":false,"is_disabled":false,"rental_uris":{"android":"levelo://app?vid=1345374e-3a0f-48ed-b752-811b019274d7","ios":"levelo://app?vid=1345374e-3a0f-48ed-b752-811b019274d7"},"vehicle_type_id":"4","last_reported":1701184080,"current_range_meters":9600,"station_id":"ce4bhs92rcd13ifvqi0g","pricing_plan_id":"free"},{"bike_id":"9f0f067c-4570-4779-9fe7-642e24984182","system_id":"levelo_inurba_marseille","lat":43.296148,"lon":5.365456,"is_reserved":false,"is_disabled":false,"rental_uris":{"android":"levelo://app?vid=9f0f067c-4570-4779-9fe7-642e24984182","ios":"levelo://app?vid=9f0f067c-4570-4779-9fe7-642e24984182"},"vehicle_type_id":"4","last_reported":1701184080,"current_range_meters":20000,"station_id":"","pricing_plan_id":"free"},{"bike_id":"282ce8df-f39b-45fb-a5b2-7e2861d24e44","system_id":"levelo_inurba_marseille","lat":43.309589,"lon":5.390258,"is_reserved":false,"is_disabled":false,"rental_uris":{"android":"levelo://app?vid=282ce8df-f39b-45fb-a5b2-7e2861d24e44","ios":"levelo://app?vid=282ce8df-f39b-45fb-a5b2-7e2861d24e44"},"vehicle_type_id":"4","last_reported":1701184080,"current_range_meters":14400,"station_id":"ce4bgup2rcd13ifvqco0","pricing_plan_id":"free"},{"bike_id":"0cf3d19e-40ea-44cc-8247-6962c2f0b6a4","system_id":"levelo_inurba_marseille","lat":43.296921,"lon":5.376579,"is_reserved":false,"is_disabled":false,"rental_uris":{"android":"levelo://app?vid=0cf3d19e-40ea-44cc-8247-6962c2f0b6a4","ios":"levelo://app?vid=0cf3d19e-40ea-44cc-8247-6962c2f0b6a4"},"vehicle_type_id":"4","last_reported":1701184080,"current_range_meters":22400,"station_id":"ce4bgkh2rcd13ifvqbl0","pricing_plan_id":"free"},{"bike_id":"6175aa07-2856-4722-ae80-c355e7aadac7","system_id":"levelo_inurba_marseille","lat":43.296935,"lon":5.376544,"is_reserved":false,"is_disabled":false,"rental_uris":{"android":"levelo://app?vid=6175aa07-2856-4722-ae80-c355e7aadac7","ios":"levelo://app?vid=6175aa07-2856-4722-ae80-c355e7aadac7"},"vehicle_type_id":"4","last_reported":1701184080,"current_range_meters":24000,"station_id":"ce4bgkh2rcd13ifvqbl0","pricing_plan_id":"free"},{"bike_id":"9aaa8fe7-c3cb-4651-904f-87e44fd886dc","system_id":"levelo_inurba_marseille","lat":43.296935,"lon":5.376544,"is_reserved":false,"is_disabled":false,"rental_uris":{"android":"levelo://app?vid=9aaa8fe7-c3cb-4651-904f-87e44fd886dc","ios":"levelo://app?vid=9aaa8fe7-c3cb-4651-904f-87e44fd886dc"},"vehicle_type_id":"4","last_reported":1701184080,"current_range_meters":28400,"station_id":"ce4bgkh2rcd13ifvqbl0","pricing_plan_id":"free"},{"bike_id":"6807ab58-3e4b-49b2-ba0a-e65fd172825a","system_id":"levelo_inurba_marseille","lat":43.299028,"lon":5.381509,"is_reserved":false,"is_disabled":false,"rental_uris":{"android":"levelo://app?vid=6807ab58-3e4b-49b2-ba0a-e65fd172825a","ios":"levelo://app?vid=6807ab58-3e4b-49b2-ba0a-e65fd172825a"},"vehicle_type_id":"4","last_reported":1701184080,"current_range_meters":28000,"station_id":"ce4bgj12rcd13ifvqbc0","pricing_plan_id":"free"},{"bike_id":"bb35a812-e24a-45bd-82cc-662ac79ba2b5","system_id":"levelo_inurba_marseille","lat":43.296935,"lon":5.376544,"is_reserved":false,"is_disabled":false,"rental_uris":{"android":"levelo://app?vid=bb35a812-e24a-45bd-82cc-662ac79ba2b5","ios":"levelo://app?vid=bb35a812-e24a-45bd-82cc-662ac79ba2b5"},"vehicle_type_id":"4","last_reported":1701184080,"current_range_meters":15600,"station_id":"ce4bgkh2rcd13ifvqbl0","pricing_plan_id":"free"},{"bike_id":"05cadef7-cf40-4da1-9536-fef594060c00","system_id":"levelo_inurba_marseille","lat":43.31753,"lon":5.39021,"is_reserved":false,"is_disabled":false,"rental_uris":{"android":"levelo://app?vid=05cadef7-cf40-4da1-9536-fef594060c00","ios":"levelo://app?vid=05cadef7-cf40-4da1-9536-fef594060c00"},"vehicle_type_id":"4","last_reported":1701184080,"current_range_meters":22800,"station_id":"ce4bhqp2rcd13ifvqhng","pricing_plan_id":"free"},{"bike_id":"c5ff301b-a0fa-4866-a724-6db718b379d7","system_id":"levelo_inurba_marseille","lat":43.298037,"lon":5.381066,"is_reserved":false,"is_disabled":false,"rental_uris":{"android":"levelo://app?vid=c5ff301b-a0fa-4866-a724-6db718b379d7","ios":"levelo://app?vid=c5ff301b-a0fa-4866-a724-6db718b379d7"},"vehicle_type_id":"4","last_reported":1701184080,"current_range_meters":31200,"station_id":"ce4bgip2rcd13ifvqbb0","pricing_plan_id":"free"},{"bike_id":"686d62c3-3f8c-407b-a91c-f1fe40e18e1d","system_id":"levelo_inurba_marseille","lat":43.298037,"lon":5.381066,"is_reserved":false,"is_disabled":false,"rental_uris":{"android":"levelo://app?vid=686d62c3-3f8c-407b-a91c-f1fe40e18e1d","ios":"levelo://app?vid=686d62c3-3f8c-407b-a91c-f1fe40e18e1d"},"vehicle_type_id":"4","last_reported":1701184080,"current_range_meters":18800,"station_id":"ce4bgip2rcd13ifvqbb0","pricing_plan_id":"free"},{"bike_id":"721a65af-a776-45e3-9e70-880c7d083dfe","system_id":"levelo_inurba_marseille","lat":43.298037,"lon":5.381066,"is_reserved":false,"is_disabled":false,"rental_uris":{"android":"levelo://app?vid=721a65af-a776-45e3-9e70-880c7d083dfe","ios":"levelo://app?vid=721a65af-a776-45e3-9e70-880c7d083dfe"},"vehicle_type_id":"4","last_reported":1701184080,"current_range_meters":31200,"station_id":"ce4bgip2rcd13ifvqbb0","pricing_plan_id":"free"},{"bike_id":"d25a4ac4-80f6-4612-8795-bc98dfe571d0","system_id":"levelo_inurba_marseille","lat":43.298037,"lon":5.381066,"is_reserved":false,"is_disabled":false,"rental_uris":{"android":"levelo://app?vid=d25a4ac4-80f6-4612-8795-bc98dfe571d0","ios":"levelo://app?vid=d25a4ac4-80f6-4612-8795-bc98dfe571d0"},"vehicle_type_id":"4","last_reported":1701184080,"current_range_meters":16000,"station_id":"ce4bgip2rcd13ifvqbb0","pricing_plan_id":"free"},{"bike_id":"849c190f-6e85-45c4-84b1-b13353259941","system_id":"levelo_inurba_marseille","lat":43.29618,"lon":5.37717,"is_reserved":false,"is_disabled":false,"rental_uris":{"android":"levelo://app?vid=849c190f-6e85-45c4-84b1-b13353259941","ios":"levelo://app?vid=849c190f-6e85-45c4-84b1-b13353259941"},"vehicle_type_id":"4","last_reported":1701184080,"current_range_meters":9600,"station_id":"ce4bgi92rcd13ifvqb90","pricing_plan_id":"free"},{"bike_id":"307db96f-e99d-432c-9290-5688758910db","system_id":"levelo_inurba_marseille","lat":43.296263,"lon":5.377094,"is_reserved":false,"is_disabled":false,"rental_uris":{"android":"levelo://app?vid=307db96f-e99d-432c-9290-5688758910db","ios":"levelo://app?vid=307db96f-e99d-432c-9290-5688758910db"},"vehicle_type_id":"4","last_reported":1701184080,"current_range_meters":21200,"station_id":"ce4bgi92rcd13ifvqb90","pricing_plan_id":"free"},{"bike_id":"931d4399-fed3-4715-99b6-0361a049d9f9","system_id":"levelo_inurba_marseille","lat":43.299707,"lon":5.384859,"is_reserved":false,"is_disabled":false,"rental_uris":{"android":"levelo://app?vid=931d4399-fed3-4715-99b6-0361a049d9f9","ios":"levelo://app?vid=931d4399-fed3-4715-99b6-0361a049d9f9"},"vehicle_type_id":"4","last_reported":1701184080,"current_range_meters":15600,"station_id":"ce4bgj92rcd13ifvqbd0","pricing_plan_id":"free"},{"bike_id":"822b26d0-5507-4031-94d1-bf52f84976c8","system_id":"levelo_inurba_marseille","lat":43.29268,"lon":5.36849,"is_reserved":false,"is_disabled":false,"rental_uris":{"android":"levelo://app?vid=822b26d0-5507-4031-94d1-bf52f84976c8","ios":"levelo://app?vid=822b26d0-5507-4031-94d1-bf52f84976c8"},"vehicle_type_id":"4","last_reported":1701184080,"current_range_meters":0,"station_id":"ce4bhbp2rcd13ifvqesg","pricing_plan_id":"free"},{"bike_id":"cbec52c5-3e6c-4ae2-95a8-4ac372e58f27","system_id":"levelo_inurba_marseille","lat":43.2936,"lon":5.37835,"is_reserved":false,"is_disabled":false,"rental_uris":{"android":"levelo://app?vid=cbec52c5-3e6c-4ae2-95a8-4ac372e58f27","ios":"levelo://app?vid=cbec52c5-3e6c-4ae2-95a8-4ac372e58f27"},"vehicle_type_id":"4","last_reported":1701184080,"current_range_meters":16800,"station_id":"ce4bgjh2rcd13ifvqbf0","pricing_plan_id":"free"},{"bike_id":"8ebeb058-f1da-4c59-b8dd-2bede0ffbcdb","system_id":"levelo_inurba_marseille","lat":43.292311,"lon":5.360731,"is_reserved":false,"is_disabled":false,"rental_uris":{"android":"levelo://app?vid=8ebeb058-f1da-4c59-b8dd-2bede0ffbcdb","ios":"levelo://app?vid=8ebeb058-f1da-4c59-b8dd-2bede0ffbcdb"},"vehicle_type_id":"4","last_reported":1701184080,"current_range_meters":800,"station_id":"ce4bhbh2rcd13ifvqeqg","pricing_plan_id":"free"},{"bike_id":"940de198-53d9-49ae-9e82-1cb2df3b75a3","system_id":"levelo_inurba_marseille","lat":43.292663,"lon":5.376394,"is_reserved":false,"is_disabled":false,"rental_uris":{"android":"levelo://app?vid=940de198-53d9-49ae-9e82-1cb2df3b75a3","ios":"levelo://app?vid=940de198-53d9-49ae-9e82-1cb2df3b75a3"},"vehicle_type_id":"4","last_reported":1701184080,"current_range_meters":28000,"station_id":"ce4bgi12rcd13ifvqb80","pricing_plan_id":"free"},{"bike_id":"52c20cdf-c354-4e65-9441-6ffbdd55ff71","system_id":"levelo_inurba_marseille","lat":43.292663,"lon":5.376389,"is_reserved":false,"is_disabled":false,"rental_uris":{"android":"levelo://app?vid=52c20cdf-c354-4e65-9441-6ffbdd55ff71","ios":"levelo://app?vid=52c20cdf-c354-4e65-9441-6ffbdd55ff71"},"vehicle_type_id":"4","last_reported":1701184080,"current_range_meters":28000,"station_id":"ce4bgi12rcd13ifvqb80","pricing_plan_id":"free"},{"bike_id":"7d6922f7-081b-4fae-93f7-9eb6f9c6478c","system_id":"levelo_inurba_marseille","lat":43.291675,"lon":5.371583,"is_reserved":false,"is_disabled":false,"rental_uris":{"android":"levelo://app?vid=7d6922f7-081b-4fae-93f7-9eb6f9c6478c","ios":"levelo://app?vid=7d6922f7-081b-4fae-93f7-9eb6f9c6478c"},"vehicle_type_id":"4","last_reported":1701184080,"current_range_meters":12800,"station_id":"ce4bha92rcd13ifvqeh0","pricing_plan_id":"free"},{"bike_id":"bdf63e22-80a3-4269-ba2c-2f21f219a29f","system_id":"levelo_inurba_marseille","lat":43.31331,"lon":5.39693,"is_reserved":false,"is_disabled":false,"rental_uris":{"android":"levelo://app?vid=bdf63e22-80a3-4269-ba2c-2f21f219a29f","ios":"levelo://app?vid=bdf63e22-80a3-4269-ba2c-2f21f219a29f"},"vehicle_type_id":"4","last_reported":1701184080,"current_range_meters":0,"station_id":"ce4bgvp2rcd13ifvqcu0","pricing_plan_id":"free"},{"bike_id":"252d3ec4-5c3b-4907-869c-2fb1e2ab7e53","system_id":"levelo_inurba_marseille","lat":43.29529,"lon":5.385581,"is_reserved":false,"is_disabled":false,"rental_uris":{"android":"levelo://app?vid=252d3ec4-5c3b-4907-869c-2fb1e2ab7e53","ios":"levelo://app?vid=252d3ec4-5c3b-4907-869c-2fb1e2ab7e53"},"vehicle_type_id":"4","last_reported":1701184080,"current_range_meters":30400,"station_id":"ce4bgih2rcd13ifvqba0","pricing_plan_id":"free"},{"bike_id":"228e4627-3e3e-41c4-9830-d2eca89833ab","system_id":"levelo_inurba_marseille","lat":43.302008,"lon":5.394694,"is_reserved":false,"is_disabled":false,"rental_uris":{"android":"levelo://app?vid=228e4627-3e3e-41c4-9830-d2eca89833ab","ios":"levelo://app?vid=228e4627-3e3e-41c4-9830-d2eca89833ab"},"vehicle_type_id":"4","last_reported":1701184080,"current_range_meters":29200,"station_id":"ce4bh0p2rcd13ifvqd70","pricing_plan_id":"free"},{"bike_id":"93518eb0-a078-49e2-bcf9-de6fa2b3ca6c","system_id":"levelo_inurba_marseille","lat":43.290624,"lon":5.359245,"is_reserved":false,"is_disabled":false,"rental_uris":{"android":"levelo://app?vid=93518eb0-a078-49e2-bcf9-de6fa2b3ca6c","ios":"levelo://app?vid=93518eb0-a078-49e2-bcf9-de6fa2b3ca6c"},"vehicle_type_id":"4","last_reported":1701184080,"current_range_meters":21600,"station_id":"ce4bha92rcd13ifvqeg0","pricing_plan_id":"free"},{"bike_id":"11e28c85-7ebc-4649-aac2-52b57c85ad8a","system_id":"levelo_inurba_marseille","lat":43.289184,"lon":5.366408,"is_reserved":false,"is_disabled":false,"rental_uris":{"android":"levelo://app?vid=11e28c85-7ebc-4649-aac2-52b57c85ad8a","ios":"levelo://app?vid=11e28c85-7ebc-4649-aac2-52b57c85ad8a"},"vehicle_type_id":"4","last_reported":1701184080,"current_range_meters":2400,"station_id":"ce4bhap2rcd13ifvqek0","pricing_plan_id":"free"},{"bike_id":"c4af6ec4-3319-4616-bbce-fd7265328bb4","system_id":"levelo_inurba_marseille","lat":43.292644,"lon":5.384257,"is_reserved":false,"is_disabled":false,"rental_uris":{"android":"levelo://app?vid=c4af6ec4-3319-4616-bbce-fd7265328bb4","ios":"levelo://app?vid=c4af6ec4-3319-4616-bbce-fd7265328bb4"},"vehicle_type_id":"4","last_reported":1701184080,"current_range_meters":5200,"station_id":"ce4bh692rcd13ifvqea0","pricing_plan_id":"free"},{"bike_id":"eed0fe19-783c-4f08-b3f8-725072aa4250","system_id":"levelo_inurba_marseille","lat":43.33044,"lon":5.38919,"is_reserved":false,"is_disabled":false,"rental_uris":{"android":"levelo://app?vid=eed0fe19-783c-4f08-b3f8-725072aa4250","ios":"levelo://app?vid=eed0fe19-783c-4f08-b3f8-725072aa4250"},"vehicle_type_id":"4","last_reported":1701184080,"current_range_meters":10000,"station_id":"ce4bhr92rcd13ifvqhrg","pricing_plan_id":"free"},{"bike_id":"cc21b753-5ea4-463c-a6a0-0e96731199a3","system_id":"levelo_inurba_marseille","lat":43.3304,"lon":5.38925,"is_reserved":false,"is_disabled":false,"rental_uris":{"android":"levelo://app?vid=cc21b753-5ea4-463c-a6a0-0e96731199a3","ios":"levelo://app?vid=cc21b753-5ea4-463c-a6a0-0e96731199a3"},"vehicle_type_id":"4","last_reported":1701184080,"current_range_meters":17600,"station_id":"ce4bhr92rcd13ifvqhrg","pricing_plan_id":"free"},{"bike_id":"543c79dd-b0a0-4278-8fce-9fae77154cbd","system_id":"levelo_inurba_marseille","lat":43.290995,"lon":5.381361,"is_reserved":false,"is_disabled":false,"rental_uris":{"android":"levelo://app?vid=543c79dd-b0a0-4278-8fce-9fae77154cbd","ios":"levelo://app?vid=543c79dd-b0a0-4278-8fce-9fae77154cbd"},"vehicle_type_id":"4","last_reported":1701184080,"current_range_meters":25600,"station_id":"ce4bh512rcd13ifvqe2g","pricing_plan_id":"free"},{"bike_id":"1a282a14-a0b5-4409-9c6d-49fb81b8606e","system_id":"levelo_inurba_marseille","lat":43.295169,"lon":5.390426,"is_reserved":false,"is_disabled":false,"rental_uris":{"android":"levelo://app?vid=1a282a14-a0b5-4409-9c6d-49fb81b8606e","ios":"levelo://app?vid=1a282a14-a0b5-4409-9c6d-49fb81b8606e"},"vehicle_type_id":"4","last_reported":1701184080,"current_range_meters":9600,"station_id":"ce4bh3p2rcd13ifvqdp0","pricing_plan_id":"free"},{"bike_id":"fceca74e-b7ba-48ab-867a-2a5fb84f998d","system_id":"levelo_inurba_marseille","lat":43.295169,"lon":5.390426,"is_reserved":false,"is_disabled":false,"rental_uris":{"android":"levelo://app?vid=fceca74e-b7ba-48ab-867a-2a5fb84f998d","ios":"levelo://app?vid=fceca74e-b7ba-48ab-867a-2a5fb84f998d"},"vehicle_type_id":"4","last_reported":1701184080,"current_range_meters":27600,"station_id":"ce4bh3p2rcd13ifvqdp0","pricing_plan_id":"free"},{"bike_id":"774af6f8-4743-4c85-9850-596fb4a2791a","system_id":"levelo_inurba_marseille","lat":43.295169,"lon":5.390426,"is_reserved":false,"is_disabled":false,"rental_uris":{"android":"levelo://app?vid=774af6f8-4743-4c85-9850-596fb4a2791a","ios":"levelo://app?vid=774af6f8-4743-4c85-9850-596fb4a2791a"},"vehicle_type_id":"4","last_reported":1701184080,"current_range_meters":18400,"station_id":"ce4bh3p2rcd13ifvqdp0","pricing_plan_id":"free"},{"bike_id":"c3d62513-9134-4cba-8817-d36f8c809d70","system_id":"levelo_inurba_marseille","lat":43.295169,"lon":5.390426,"is_reserved":false,"is_disabled":false,"rental_uris":{"android":"levelo://app?vid=c3d62513-9134-4cba-8817-d36f8c809d70","ios":"levelo://app?vid=c3d62513-9134-4cba-8817-d36f8c809d70"},"vehicle_type_id":"4","last_reported":1701184080,"current_range_meters":20000,"station_id":"ce4bh3p2rcd13ifvqdp0","pricing_plan_id":"free"},{"bike_id":"4021d200-672a-495c-8c9b-f0436b40ea38","system_id":"levelo_inurba_marseille","lat":43.312723,"lon":5.401707,"is_reserved":false,"is_disabled":false,"rental_uris":{"android":"levelo://app?vid=4021d200-672a-495c-8c9b-f0436b40ea38","ios":"levelo://app?vid=4021d200-672a-495c-8c9b-f0436b40ea38"},"vehicle_type_id":"4","last_reported":1701184080,"current_range_meters":10400,"station_id":"ce4bh092rcd13ifvqd30","pricing_plan_id":"free"},{"bike_id":"57cd8949-1be2-4ceb-94fc-46e281291cfc","system_id":"levelo_inurba_marseille","lat":43.30642,"lon":5.401031,"is_reserved":false,"is_disabled":false,"rental_uris":{"android":"levelo://app?vid=57cd8949-1be2-4ceb-94fc-46e281291cfc","ios":"levelo://app?vid=57cd8949-1be2-4ceb-94fc-46e281291cfc"},"vehicle_type_id":"4","last_reported":1701184080,"current_range_meters":7200,"station_id":"ce4bh112rcd13ifvqda0","pricing_plan_id":"free"},{"bike_id":"e2c61e4b-3d81-42fd-b7ab-c7d7ced9ca83","system_id":"levelo_inurba_marseille","lat":43.33763,"lon":5.37449,"is_reserved":false,"is_disabled":false,"rental_uris":{"android":"levelo://app?vid=e2c61e4b-3d81-42fd-b7ab-c7d7ced9ca83","ios":"levelo://app?vid=e2c61e4b-3d81-42fd-b7ab-c7d7ced9ca83"},"vehicle_type_id":"4","last_reported":1701184080,"current_range_meters":31200,"station_id":"","pricing_plan_id":"free"},{"bike_id":"7b45928a-9a35-4a39-8e74-ddc902d912ff","system_id":"levelo_inurba_marseille","lat":43.28727,"lon":5.36078,"is_reserved":false,"is_disabled":false,"rental_uris":{"android":"levelo://app?vid=7b45928a-9a35-4a39-8e74-ddc902d912ff","ios":"levelo://app?vid=7b45928a-9a35-4a39-8e74-ddc902d912ff"},"vehicle_type_id":"4","last_reported":1701184080,"current_range_meters":27200,"station_id":"cki0cbj6b192h4jlfktg","pricing_plan_id":"free"},{"bike_id":"e0b365d0-f7bb-40d5-b27c-22a378f08d8c","system_id":"levelo_inurba_marseille","lat":43.286591,"lon":5.363346,"is_reserved":false,"is_disabled":false,"rental_uris":{"android":"levelo://app?vid=e0b365d0-f7bb-40d5-b27c-22a378f08d8c","ios":"levelo://app?vid=e0b365d0-f7bb-40d5-b27c-22a378f08d8c"},"vehicle_type_id":"4","last_reported":1701184080,"current_range_meters":18800,"station_id":"ce4bhah2rcd13ifvqej0","pricing_plan_id":"free"},{"bike_id":"f3950424-cb26-4441-b600-41bf10d32a85","system_id":"levelo_inurba_marseille","lat":43.286961,"lon":5.373785,"is_reserved":false,"is_disabled":false,"rental_uris":{"android":"levelo://app?vid=f3950424-cb26-4441-b600-41bf10d32a85","ios":"levelo://app?vid=f3950424-cb26-4441-b600-41bf10d32a85"},"vehicle_type_id":"4","last_reported":1701184080,"current_range_meters":4800,"station_id":"ce4bh3p2rcd13ifvqdq0","pricing_plan_id":"free"},{"bike_id":"90fcb14b-ceca-4329-9ae2-91d9e7214634","system_id":"levelo_inurba_marseille","lat":43.295196,"lon":5.39397,"is_reserved":false,"is_disabled":false,"rental_uris":{"android":"levelo://app?vid=90fcb14b-ceca-4329-9ae2-91d9e7214634","ios":"levelo://app?vid=90fcb14b-ceca-4329-9ae2-91d9e7214634"},"vehicle_type_id":"4","last_reported":1701184080,"current_range_meters":21600,"station_id":"ce4bh292rcd13ifvqdf0","pricing_plan_id":"free"},{"bike_id":"33c544a4-34f7-4232-90e6-cd91f530871d","system_id":"levelo_inurba_marseille","lat":43.302759,"lon":5.400793,"is_reserved":false,"is_disabled":false,"rental_uris":{"android":"levelo://app?vid=33c544a4-34f7-4232-90e6-cd91f530871d","ios":"levelo://app?vid=33c544a4-34f7-4232-90e6-cd91f530871d"},"vehicle_type_id":"4","last_reported":1701184080,"current_range_meters":12800,"station_id":"ce4bgvh2rcd13ifvqcs0","pricing_plan_id":"free"},{"bike_id":"45812409-e4ac-4191-9af1-23fc584a7ad7","system_id":"levelo_inurba_marseille","lat":43.284538,"lon":5.358657,"is_reserved":false,"is_disabled":false,"rental_uris":{"android":"levelo://app?vid=45812409-e4ac-4191-9af1-23fc584a7ad7","ios":"levelo://app?vid=45812409-e4ac-4191-9af1-23fc584a7ad7"},"vehicle_type_id":"4","last_reported":1701184080,"current_range_meters":23200,"station_id":"ce4bhah2rcd13ifvqei0","pricing_plan_id":"free"},{"bike_id":"b5a141c0-e417-472a-a280-bbd4203638e3","system_id":"levelo_inurba_marseille","lat":43.285856,"lon":5.350771,"is_reserved":false,"is_disabled":false,"rental_uris":{"android":"levelo://app?vid=b5a141c0-e417-472a-a280-bbd4203638e3","ios":"levelo://app?vid=b5a141c0-e417-472a-a280-bbd4203638e3"},"vehicle_type_id":"4","last_reported":1701184080,"current_range_meters":26400,"station_id":"ce4bhch2rcd13ifvqeug","pricing_plan_id":"free"},{"bike_id":"5a014ce3-48f8-4762-a738-0c92091efcdf","system_id":"levelo_inurba_marseille","lat":43.28616,"lon":5.35104,"is_reserved":false,"is_disabled":false,"rental_uris":{"android":"levelo://app?vid=5a014ce3-48f8-4762-a738-0c92091efcdf","ios":"levelo://app?vid=5a014ce3-48f8-4762-a738-0c92091efcdf"},"vehicle_type_id":"4","last_reported":1701184080,"current_range_meters":8800,"station_id":"ce4bhch2rcd13ifvqeug","pricing_plan_id":"free"},{"bike_id":"1d09a79c-0f0b-44b7-a3b3-360fa49b2f71","system_id":"levelo_inurba_marseille","lat":43.28611,"lon":5.35112,"is_reserved":false,"is_disabled":false,"rental_uris":{"android":"levelo://app?vid=1d09a79c-0f0b-44b7-a3b3-360fa49b2f71","ios":"levelo://app?vid=1d09a79c-0f0b-44b7-a3b3-360fa49b2f71"},"vehicle_type_id":"4","last_reported":1701184080,"current_range_meters":18400,"station_id":"ce4bhch2rcd13ifvqeug","pricing_plan_id":"free"},{"bike_id":"656a2793-981a-416a-8ada-a2c9120a237b","system_id":"levelo_inurba_marseille","lat":43.283998,"lon":5.375062,"is_reserved":false,"is_disabled":false,"rental_uris":{"android":"levelo://app?vid=656a2793-981a-416a-8ada-a2c9120a237b","ios":"levelo://app?vid=656a2793-981a-416a-8ada-a2c9120a237b"},"vehicle_type_id":"4","last_reported":1701184080,"current_range_meters":26000,"station_id":"ce4bh412rcd13ifvqds0","pricing_plan_id":"free"},{"bike_id":"60835b22-9a0e-412f-8e38-0861b02a9aea","system_id":"levelo_inurba_marseille","lat":43.319179,"lon":5.407725,"is_reserved":false,"is_disabled":false,"rental_uris":{"android":"levelo://app?vid=60835b22-9a0e-412f-8e38-0861b02a9aea","ios":"levelo://app?vid=60835b22-9a0e-412f-8e38-0861b02a9aea"},"vehicle_type_id":"4","last_reported":1701184080,"current_range_meters":8400,"station_id":"ce4bhq12rcd13ifvqhig","pricing_plan_id":"free"},{"bike_id":"42e65a12-f278-4d45-b15b-86c7407672e6","system_id":"levelo_inurba_marseille","lat":43.323464,"lon":5.406297,"is_reserved":false,"is_disabled":false,"rental_uris":{"android":"levelo://app?vid=42e65a12-f278-4d45-b15b-86c7407672e6","ios":"levelo://app?vid=42e65a12-f278-4d45-b15b-86c7407672e6"},"vehicle_type_id":"4","last_reported":1701184080,"current_range_meters":30400,"station_id":"ce4bhq92rcd13ifvqhjg","pricing_plan_id":"free"},{"bike_id":"e0e06706-c8e0-4b95-9b13-0e5bec7f6dd9","system_id":"levelo_inurba_marseille","lat":43.284219,"lon":5.3497,"is_reserved":false,"is_disabled":false,"rental_uris":{"android":"levelo://app?vid=e0e06706-c8e0-4b95-9b13-0e5bec7f6dd9","ios":"levelo://app?vid=e0e06706-c8e0-4b95-9b13-0e5bec7f6dd9"},"vehicle_type_id":"4","last_reported":1701184080,"current_range_meters":30000,"station_id":"ce4bhbh2rcd13ifvqepg","pricing_plan_id":"free"},{"bike_id":"f4707a5c-0777-418d-8292-897594e6b09e","system_id":"levelo_inurba_marseille","lat":43.282744,"lon":5.350533,"is_reserved":false,"is_disabled":false,"rental_uris":{"android":"levelo://app?vid=f4707a5c-0777-418d-8292-897594e6b09e","ios":"levelo://app?vid=f4707a5c-0777-418d-8292-897594e6b09e"},"vehicle_type_id":"4","last_reported":1701184080,"current_range_meters":20800,"station_id":"ce4bhbp2rcd13ifvqerg","pricing_plan_id":"free"},{"bike_id":"835e6da1-b1c5-4079-9d25-6a7684aa03a9","system_id":"levelo_inurba_marseille","lat":43.282754,"lon":5.350519,"is_reserved":false,"is_disabled":false,"rental_uris":{"android":"levelo://app?vid=835e6da1-b1c5-4079-9d25-6a7684aa03a9","ios":"levelo://app?vid=835e6da1-b1c5-4079-9d25-6a7684aa03a9"},"vehicle_type_id":"4","last_reported":1701184080,"current_range_meters":23200,"station_id":"ce4bhbp2rcd13ifvqerg","pricing_plan_id":"free"},{"bike_id":"83861341-c1e8-450d-bd0b-f9a7cfce1192","system_id":"levelo_inurba_marseille","lat":43.28972,"lon":5.39986,"is_reserved":false,"is_disabled":false,"rental_uris":{"android":"levelo://app?vid=83861341-c1e8-450d-bd0b-f9a7cfce1192","ios":"levelo://app?vid=83861341-c1e8-450d-bd0b-f9a7cfce1192"},"vehicle_type_id":"4","last_reported":1701184080,"current_range_meters":0,"station_id":"","pricing_plan_id":"free"},{"bike_id":"018669b5-b90e-448e-8018-9fc0eb141755","system_id":"levelo_inurba_marseille","lat":43.285742,"lon":5.395004,"is_reserved":false,"is_disabled":false,"rental_uris":{"android":"levelo://app?vid=018669b5-b90e-448e-8018-9fc0eb141755","ios":"levelo://app?vid=018669b5-b90e-448e-8018-9fc0eb141755"},"vehicle_type_id":"4","last_reported":1701184080,"current_range_meters":6800,"station_id":"ce4bh292rcd13ifvqdg0","pricing_plan_id":"free"},{"bike_id":"f447b8a2-6b71-497f-a796-8a01003d833b","system_id":"levelo_inurba_marseille","lat":43.326605,"lon":5.409903,"is_reserved":false,"is_disabled":false,"rental_uris":{"android":"levelo://app?vid=f447b8a2-6b71-497f-a796-8a01003d833b","ios":"levelo://app?vid=f447b8a2-6b71-497f-a796-8a01003d833b"},"vehicle_type_id":"4","last_reported":1701184080,"current_range_meters":26000,"station_id":"ce4bhpp2rcd13ifvqhgg","pricing_plan_id":"free"},{"bike_id":"cdfbc04d-8146-42d9-b75c-e5a5a94cd0d3","system_id":"levelo_inurba_marseille","lat":43.326605,"lon":5.409903,"is_reserved":false,"is_disabled":false,"rental_uris":{"android":"levelo://app?vid=cdfbc04d-8146-42d9-b75c-e5a5a94cd0d3","ios":"levelo://app?vid=cdfbc04d-8146-42d9-b75c-e5a5a94cd0d3"},"vehicle_type_id":"4","last_reported":1701184080,"current_range_meters":10800,"station_id":"ce4bhpp2rcd13ifvqhgg","pricing_plan_id":"free"},{"bike_id":"a526a746-a646-4ccc-9b0b-73e7e7aa9589","system_id":"levelo_inurba_marseille","lat":43.287154,"lon":5.399979,"is_reserved":false,"is_disabled":false,"rental_uris":{"android":"levelo://app?vid=a526a746-a646-4ccc-9b0b-73e7e7aa9589","ios":"levelo://app?vid=a526a746-a646-4ccc-9b0b-73e7e7aa9589"},"vehicle_type_id":"4","last_reported":1701184080,"current_range_meters":28400,"station_id":"ce4bho92rcd13ifvqh3g","pricing_plan_id":"free"},{"bike_id":"53403f9b-22b5-4cb6-94ee-9dab880bc7ac","system_id":"levelo_inurba_marseille","lat":43.279742,"lon":5.38744,"is_reserved":false,"is_disabled":false,"rental_uris":{"android":"levelo://app?vid=53403f9b-22b5-4cb6-94ee-9dab880bc7ac","ios":"levelo://app?vid=53403f9b-22b5-4cb6-94ee-9dab880bc7ac"},"vehicle_type_id":"4","last_reported":1701184080,"current_range_meters":23200,"station_id":"ce4bhg12rcd13ifvqf80","pricing_plan_id":"free"},{"bike_id":"0cfb9387-11fa-44ec-a753-46db3c2e512a","system_id":"levelo_inurba_marseille","lat":43.320045,"lon":5.415048,"is_reserved":false,"is_disabled":false,"rental_uris":{"android":"levelo://app?vid=0cfb9387-11fa-44ec-a753-46db3c2e512a","ios":"levelo://app?vid=0cfb9387-11fa-44ec-a753-46db3c2e512a"},"vehicle_type_id":"4","last_reported":1701184080,"current_range_meters":22400,"station_id":"ce4bhq92rcd13ifvqhkg","pricing_plan_id":"free"},{"bike_id":"a2f53b58-71bd-4caf-9968-950be33c106a","system_id":"levelo_inurba_marseille","lat":43.279742,"lon":5.38744,"is_reserved":false,"is_disabled":false,"rental_uris":{"android":"levelo://app?vid=a2f53b58-71bd-4caf-9968-950be33c106a","ios":"levelo://app?vid=a2f53b58-71bd-4caf-9968-950be33c106a"},"vehicle_type_id":"4","last_reported":1701184080,"current_range_meters":13200,"station_id":"ce4bhg12rcd13ifvqf80","pricing_plan_id":"free"},{"bike_id":"d801d43d-b980-4a4a-a941-1ea6474612a8","system_id":"levelo_inurba_marseille","lat":43.325243,"lon":5.414326,"is_reserved":false,"is_disabled":false,"rental_uris":{"android":"levelo://app?vid=d801d43d-b980-4a4a-a941-1ea6474612a8","ios":"levelo://app?vid=d801d43d-b980-4a4a-a941-1ea6474612a8"},"vehicle_type_id":"4","last_reported":1701184080,"current_range_meters":1600,"station_id":"ce4bhq12rcd13ifvqhhg","pricing_plan_id":"free"},{"bike_id":"b871d849-d5bf-4e02-a1f9-4a8f701b338d","system_id":"levelo_inurba_marseille","lat":43.32529,"lon":5.41447,"is_reserved":false,"is_disabled":false,"rental_uris":{"android":"levelo://app?vid=b871d849-d5bf-4e02-a1f9-4a8f701b338d","ios":"levelo://app?vid=b871d849-d5bf-4e02-a1f9-4a8f701b338d"},"vehicle_type_id":"4","last_reported":1701184080,"current_range_meters":0,"station_id":"ce4bhq12rcd13ifvqhhg","pricing_plan_id":"free"},{"bike_id":"cc58b369-54eb-4446-9227-0fdcb23f9d5c","system_id":"levelo_inurba_marseille","lat":43.325243,"lon":5.414326,"is_reserved":false,"is_disabled":false,"rental_uris":{"android":"levelo://app?vid=cc58b369-54eb-4446-9227-0fdcb23f9d5c","ios":"levelo://app?vid=cc58b369-54eb-4446-9227-0fdcb23f9d5c"},"vehicle_type_id":"4","last_reported":1701184080,"current_range_meters":21200,"station_id":"ce4bhq12rcd13ifvqhhg","pricing_plan_id":"free"},{"bike_id":"e292fd5c-f88c-4ec9-956b-fcd907f9141e","system_id":"levelo_inurba_marseille","lat":43.276175,"lon":5.361113,"is_reserved":false,"is_disabled":false,"rental_uris":{"android":"levelo://app?vid=e292fd5c-f88c-4ec9-956b-fcd907f9141e","ios":"levelo://app?vid=e292fd5c-f88c-4ec9-956b-fcd907f9141e"},"vehicle_type_id":"4","last_reported":1701184080,"current_range_meters":7200,"station_id":"ce4bgj92rcd13ifvqbe0","pricing_plan_id":"free"},{"bike_id":"342715e4-824c-4406-86da-fc5ef9ef28cc","system_id":"levelo_inurba_marseille","lat":43.325243,"lon":5.414326,"is_reserved":false,"is_disabled":false,"rental_uris":{"android":"levelo://app?vid=342715e4-824c-4406-86da-fc5ef9ef28cc","ios":"levelo://app?vid=342715e4-824c-4406-86da-fc5ef9ef28cc"},"vehicle_type_id":"4","last_reported":1701184080,"current_range_meters":17200,"station_id":"ce4bhq12rcd13ifvqhhg","pricing_plan_id":"free"},{"bike_id":"3e09080e-9db5-4c48-951f-c5f672a60264","system_id":"levelo_inurba_marseille","lat":43.28555,"lon":5.4011,"is_reserved":false,"is_disabled":false,"rental_uris":{"android":"levelo://app?vid=3e09080e-9db5-4c48-951f-c5f672a60264","ios":"levelo://app?vid=3e09080e-9db5-4c48-951f-c5f672a60264"},"vehicle_type_id":"4","last_reported":1701184080,"current_range_meters":15600,"station_id":"","pricing_plan_id":"free"},{"bike_id":"9be7faf8-6c85-4ab2-b1d3-75428b5ded4c","system_id":"levelo_inurba_marseille","lat":43.280784,"lon":5.396622,"is_reserved":false,"is_disabled":false,"rental_uris":{"android":"levelo://app?vid=9be7faf8-6c85-4ab2-b1d3-75428b5ded4c","ios":"levelo://app?vid=9be7faf8-6c85-4ab2-b1d3-75428b5ded4c"},"vehicle_type_id":"4","last_reported":1701184080,"current_range_meters":20400,"station_id":"ce4bho12rcd13ifvqh2g","pricing_plan_id":"free"},{"bike_id":"f3f2b248-f075-47be-97c9-5e44eb8bc23e","system_id":"levelo_inurba_marseille","lat":43.280784,"lon":5.396622,"is_reserved":false,"is_disabled":false,"rental_uris":{"android":"levelo://app?vid=f3f2b248-f075-47be-97c9-5e44eb8bc23e","ios":"levelo://app?vid=f3f2b248-f075-47be-97c9-5e44eb8bc23e"},"vehicle_type_id":"4","last_reported":1701184080,"current_range_meters":16800,"station_id":"ce4bho12rcd13ifvqh2g","pricing_plan_id":"free"},{"bike_id":"02720801-aa6b-4980-8221-b8c4e93376fa","system_id":"levelo_inurba_marseille","lat":43.303837,"lon":5.418724,"is_reserved":false,"is_disabled":false,"rental_uris":{"android":"levelo://app?vid=02720801-aa6b-4980-8221-b8c4e93376fa","ios":"levelo://app?vid=02720801-aa6b-4980-8221-b8c4e93376fa"},"vehicle_type_id":"4","last_reported":1701184080,"current_range_meters":26800,"station_id":"ce4bhop2rcd13ifvqh7g","pricing_plan_id":"free"},{"bike_id":"cd30ed20-1c4b-4711-b2e7-9dc55cb84e93","system_id":"levelo_inurba_marseille","lat":43.273609,"lon":5.362708,"is_reserved":false,"is_disabled":false,"rental_uris":{"android":"levelo://app?vid=cd30ed20-1c4b-4711-b2e7-9dc55cb84e93","ios":"levelo://app?vid=cd30ed20-1c4b-4711-b2e7-9dc55cb84e93"},"vehicle_type_id":"4","last_reported":1701184080,"current_range_meters":20000,"station_id":"ce4bhbh2rcd13ifvqeo0","pricing_plan_id":"free"},{"bike_id":"d777abcc-4d39-46f1-98c9-af3c0f07c4ce","system_id":"levelo_inurba_marseille","lat":43.273609,"lon":5.362708,"is_reserved":false,"is_disabled":false,"rental_uris":{"android":"levelo://app?vid=d777abcc-4d39-46f1-98c9-af3c0f07c4ce","ios":"levelo://app?vid=d777abcc-4d39-46f1-98c9-af3c0f07c4ce"},"vehicle_type_id":"4","last_reported":1701184080,"current_range_meters":4400,"station_id":"ce4bhbh2rcd13ifvqeo0","pricing_plan_id":"free"},{"bike_id":"86e62d87-e7eb-4d37-94cc-ca42098617c8","system_id":"levelo_inurba_marseille","lat":43.276769,"lon":5.388787,"is_reserved":false,"is_disabled":false,"rental_uris":{"android":"levelo://app?vid=86e62d87-e7eb-4d37-94cc-ca42098617c8","ios":"levelo://app?vid=86e62d87-e7eb-4d37-94cc-ca42098617c8"},"vehicle_type_id":"4","last_reported":1701184080,"current_range_meters":25600,"station_id":"ce4bhi12rcd13ifvqfo0","pricing_plan_id":"free"},{"bike_id":"d0fbaac9-5f1b-4e04-a4c7-06abf4bd9547","system_id":"levelo_inurba_marseille","lat":43.279952,"lon":5.400085,"is_reserved":false,"is_disabled":false,"rental_uris":{"android":"levelo://app?vid=d0fbaac9-5f1b-4e04-a4c7-06abf4bd9547","ios":"levelo://app?vid=d0fbaac9-5f1b-4e04-a4c7-06abf4bd9547"},"vehicle_type_id":"4","last_reported":1701184080,"current_range_meters":22800,"station_id":"ce4bho92rcd13ifvqh4g","pricing_plan_id":"free"},{"bike_id":"d7f2b7b8-eaa7-4eb4-937a-2ec9d0bf94ea","system_id":"levelo_inurba_marseille","lat":43.310785,"lon":5.424305,"is_reserved":false,"is_disabled":false,"rental_uris":{"android":"levelo://app?vid=d7f2b7b8-eaa7-4eb4-937a-2ec9d0bf94ea","ios":"levelo://app?vid=d7f2b7b8-eaa7-4eb4-937a-2ec9d0bf94ea"},"vehicle_type_id":"4","last_reported":1701184080,"current_range_meters":11200,"station_id":"ce4bhp92rcd13ifvqhag","pricing_plan_id":"free"},{"bike_id":"aa89070f-7e0c-435d-bf0e-81d595e2b7c8","system_id":"levelo_inurba_marseille","lat":43.340804,"lon":5.410219,"is_reserved":false,"is_disabled":false,"rental_uris":{"android":"levelo://app?vid=aa89070f-7e0c-435d-bf0e-81d595e2b7c8","ios":"levelo://app?vid=aa89070f-7e0c-435d-bf0e-81d595e2b7c8"},"vehicle_type_id":"4","last_reported":1701184080,"current_range_meters":28400,"station_id":"ce4bhqh2rcd13ifvqhlg","pricing_plan_id":"free"},{"bike_id":"1126b198-3822-40be-a6c0-7cba5bc95aba","system_id":"levelo_inurba_marseille","lat":43.340804,"lon":5.410219,"is_reserved":false,"is_disabled":false,"rental_uris":{"android":"levelo://app?vid=1126b198-3822-40be-a6c0-7cba5bc95aba","ios":"levelo://app?vid=1126b198-3822-40be-a6c0-7cba5bc95aba"},"vehicle_type_id":"4","last_reported":1701184080,"current_range_meters":26400,"station_id":"ce4bhqh2rcd13ifvqhlg","pricing_plan_id":"free"},{"bike_id":"cc208c9a-0ddd-4ac8-a34f-842f571d5eac","system_id":"levelo_inurba_marseille","lat":43.274103,"lon":5.394016,"is_reserved":false,"is_disabled":false,"rental_uris":{"android":"levelo://app?vid=cc208c9a-0ddd-4ac8-a34f-842f571d5eac","ios":"levelo://app?vid=cc208c9a-0ddd-4ac8-a34f-842f571d5eac"},"vehicle_type_id":"4","last_reported":1701184080,"current_range_meters":26000,"station_id":"ce4bhdp2rcd13ifvqf20","pricing_plan_id":"free"},{"bike_id":"9a31a7c9-e12b-40cf-976b-234f33117370","system_id":"levelo_inurba_marseille","lat":43.274099,"lon":5.394019,"is_reserved":false,"is_disabled":false,"rental_uris":{"android":"levelo://app?vid=9a31a7c9-e12b-40cf-976b-234f33117370","ios":"levelo://app?vid=9a31a7c9-e12b-40cf-976b-234f33117370"},"vehicle_type_id":"4","last_reported":1701184080,"current_range_meters":20000,"station_id":"ce4bhdp2rcd13ifvqf20","pricing_plan_id":"free"},{"bike_id":"5278d51f-cc07-417e-ae33-8937d7e4cba2","system_id":"levelo_inurba_marseille","lat":43.274103,"lon":5.394016,"is_reserved":false,"is_disabled":false,"rental_uris":{"android":"levelo://app?vid=5278d51f-cc07-417e-ae33-8937d7e4cba2","ios":"levelo://app?vid=5278d51f-cc07-417e-ae33-8937d7e4cba2"},"vehicle_type_id":"4","last_reported":1701184080,"current_range_meters":800,"station_id":"ce4bhdp2rcd13ifvqf20","pricing_plan_id":"free"},{"bike_id":"8950dc5f-74f8-4663-922b-1df30c526401","system_id":"levelo_inurba_marseille","lat":43.272116,"lon":5.391747,"is_reserved":false,"is_disabled":false,"rental_uris":{"android":"levelo://app?vid=8950dc5f-74f8-4663-922b-1df30c526401","ios":"levelo://app?vid=8950dc5f-74f8-4663-922b-1df30c526401"},"vehicle_type_id":"4","last_reported":1701184080,"current_range_meters":25200,"station_id":"ce4bhhp2rcd13ifvqfm0","pricing_plan_id":"free"},{"bike_id":"62cfa572-51d4-4a04-9e45-ea785883caeb","system_id":"levelo_inurba_marseille","lat":43.272148,"lon":5.39262,"is_reserved":false,"is_disabled":false,"rental_uris":{"android":"levelo://app?vid=62cfa572-51d4-4a04-9e45-ea785883caeb","ios":"levelo://app?vid=62cfa572-51d4-4a04-9e45-ea785883caeb"},"vehicle_type_id":"4","last_reported":1701184080,"current_range_meters":12800,"station_id":"","pricing_plan_id":"free"},{"bike_id":"ae1b77ad-03f8-4b10-9a78-97c0eca416a1","system_id":"levelo_inurba_marseille","lat":43.278128,"lon":5.407195,"is_reserved":false,"is_disabled":false,"rental_uris":{"android":"levelo://app?vid=ae1b77ad-03f8-4b10-9a78-97c0eca416a1","ios":"levelo://app?vid=ae1b77ad-03f8-4b10-9a78-97c0eca416a1"},"vehicle_type_id":"4","last_reported":1701184080,"current_range_meters":31200,"station_id":"ce4bhnh2rcd13ifvqgtg","pricing_plan_id":"free"},{"bike_id":"79883540-cfdf-4460-941a-601e7535a235","system_id":"levelo_inurba_marseille","lat":43.26562,"lon":5.37286,"is_reserved":false,"is_disabled":false,"rental_uris":{"android":"levelo://app?vid=79883540-cfdf-4460-941a-601e7535a235","ios":"levelo://app?vid=79883540-cfdf-4460-941a-601e7535a235"},"vehicle_type_id":"4","last_reported":1701184080,"current_range_meters":5600,"station_id":"ce4bhg12rcd13ifvqf70","pricing_plan_id":"free"},{"bike_id":"915078b5-eda3-495c-9903-862fe4d3743d","system_id":"levelo_inurba_marseille","lat":43.265714,"lon":5.372891,"is_reserved":false,"is_disabled":false,"rental_uris":{"android":"levelo://app?vid=915078b5-eda3-495c-9903-862fe4d3743d","ios":"levelo://app?vid=915078b5-eda3-495c-9903-862fe4d3743d"},"vehicle_type_id":"4","last_reported":1701184080,"current_range_meters":23200,"station_id":"ce4bhg12rcd13ifvqf70","pricing_plan_id":"free"},{"bike_id":"60a249ae-9b13-4290-8251-63c52ec76ba0","system_id":"levelo_inurba_marseille","lat":43.26553,"lon":5.37286,"is_reserved":false,"is_disabled":false,"rental_uris":{"android":"levelo://app?vid=60a249ae-9b13-4290-8251-63c52ec76ba0","ios":"levelo://app?vid=60a249ae-9b13-4290-8251-63c52ec76ba0"},"vehicle_type_id":"4","last_reported":1701184080,"current_range_meters":16400,"station_id":"ce4bhg12rcd13ifvqf70","pricing_plan_id":"free"},{"bike_id":"ca8be00c-67ca-4e6c-9270-5da8519d54d5","system_id":"levelo_inurba_marseille","lat":43.27996,"lon":5.416624,"is_reserved":false,"is_disabled":false,"rental_uris":{"android":"levelo://app?vid=ca8be00c-67ca-4e6c-9270-5da8519d54d5","ios":"levelo://app?vid=ca8be00c-67ca-4e6c-9270-5da8519d54d5"},"vehicle_type_id":"4","last_reported":1701184080,"current_range_meters":10000,"station_id":"ce4bho12rcd13ifvqh1g","pricing_plan_id":"free"},{"bike_id":"af76f0d8-f035-4acc-a7ca-0e42efffab7d","system_id":"levelo_inurba_marseille","lat":43.27996,"lon":5.416624,"is_reserved":false,"is_disabled":false,"rental_uris":{"android":"levelo://app?vid=af76f0d8-f035-4acc-a7ca-0e42efffab7d","ios":"levelo://app?vid=af76f0d8-f035-4acc-a7ca-0e42efffab7d"},"vehicle_type_id":"4","last_reported":1701184080,"current_range_meters":19600,"station_id":"ce4bho12rcd13ifvqh1g","pricing_plan_id":"free"},{"bike_id":"15b8b200-e0c7-4824-8b51-a840df5b12c1","system_id":"levelo_inurba_marseille","lat":43.27996,"lon":5.416624,"is_reserved":false,"is_disabled":false,"rental_uris":{"android":"levelo://app?vid=15b8b200-e0c7-4824-8b51-a840df5b12c1","ios":"levelo://app?vid=15b8b200-e0c7-4824-8b51-a840df5b12c1"},"vehicle_type_id":"4","last_reported":1701184080,"current_range_meters":31200,"station_id":"ce4bho12rcd13ifvqh1g","pricing_plan_id":"free"},{"bike_id":"97c8d0b5-c708-4942-8ea3-7f3ca527076d","system_id":"levelo_inurba_marseille","lat":43.267966,"lon":5.393976,"is_reserved":false,"is_disabled":false,"rental_uris":{"android":"levelo://app?vid=97c8d0b5-c708-4942-8ea3-7f3ca527076d","ios":"levelo://app?vid=97c8d0b5-c708-4942-8ea3-7f3ca527076d"},"vehicle_type_id":"4","last_reported":1701184080,"current_range_meters":18400,"station_id":"ce4bhh12rcd13ifvqfg0","pricing_plan_id":"free"},{"bike_id":"d06a9627-bde0-467f-9e2b-71d2a969542c","system_id":"levelo_inurba_marseille","lat":43.267966,"lon":5.393976,"is_reserved":false,"is_disabled":false,"rental_uris":{"android":"levelo://app?vid=d06a9627-bde0-467f-9e2b-71d2a969542c","ios":"levelo://app?vid=d06a9627-bde0-467f-9e2b-71d2a969542c"},"vehicle_type_id":"4","last_reported":1701184080,"current_range_meters":31200,"station_id":"ce4bhh12rcd13ifvqfg0","pricing_plan_id":"free"},{"bike_id":"408d300f-e252-4e5b-b7e3-da2932f8326d","system_id":"levelo_inurba_marseille","lat":43.267966,"lon":5.393976,"is_reserved":false,"is_disabled":false,"rental_uris":{"android":"levelo://app?vid=408d300f-e252-4e5b-b7e3-da2932f8326d","ios":"levelo://app?vid=408d300f-e252-4e5b-b7e3-da2932f8326d"},"vehicle_type_id":"4","last_reported":1701184080,"current_range_meters":19200,"station_id":"ce4bhh12rcd13ifvqfg0","pricing_plan_id":"free"},{"bike_id":"06df07ae-7fc3-4243-b7be-907ff812541b","system_id":"levelo_inurba_marseille","lat":43.267966,"lon":5.393976,"is_reserved":false,"is_disabled":false,"rental_uris":{"android":"levelo://app?vid=06df07ae-7fc3-4243-b7be-907ff812541b","ios":"levelo://app?vid=06df07ae-7fc3-4243-b7be-907ff812541b"},"vehicle_type_id":"4","last_reported":1701184080,"current_range_meters":30400,"station_id":"ce4bhh12rcd13ifvqfg0","pricing_plan_id":"free"},{"bike_id":"1726261f-1e76-4ab3-ae37-b9c3fedb9f5c","system_id":"levelo_inurba_marseille","lat":43.26784,"lon":5.39426,"is_reserved":false,"is_disabled":false,"rental_uris":{"android":"levelo://app?vid=1726261f-1e76-4ab3-ae37-b9c3fedb9f5c","ios":"levelo://app?vid=1726261f-1e76-4ab3-ae37-b9c3fedb9f5c"},"vehicle_type_id":"4","last_reported":1701184080,"current_range_meters":31200,"station_id":"ce4bhh12rcd13ifvqfg0","pricing_plan_id":"free"},{"bike_id":"ac7f0d7f-ba25-4cab-a0b1-7b0a388f814e","system_id":"levelo_inurba_marseille","lat":43.267966,"lon":5.393976,"is_reserved":false,"is_disabled":false,"rental_uris":{"android":"levelo://app?vid=ac7f0d7f-ba25-4cab-a0b1-7b0a388f814e","ios":"levelo://app?vid=ac7f0d7f-ba25-4cab-a0b1-7b0a388f814e"},"vehicle_type_id":"4","last_reported":1701184080,"current_range_meters":11200,"station_id":"ce4bhh12rcd13ifvqfg0","pricing_plan_id":"free"},{"bike_id":"d2412fcf-581a-47e2-be99-6fea9f20262e","system_id":"levelo_inurba_marseille","lat":43.267966,"lon":5.393976,"is_reserved":false,"is_disabled":false,"rental_uris":{"android":"levelo://app?vid=d2412fcf-581a-47e2-be99-6fea9f20262e","ios":"levelo://app?vid=d2412fcf-581a-47e2-be99-6fea9f20262e"},"vehicle_type_id":"4","last_reported":1701184080,"current_range_meters":17600,"station_id":"ce4bhh12rcd13ifvqfg0","pricing_plan_id":"free"},{"bike_id":"7535fedc-74ac-474b-8a2d-12a425012ada","system_id":"levelo_inurba_marseille","lat":43.308051,"lon":5.43527,"is_reserved":false,"is_disabled":false,"rental_uris":{"android":"levelo://app?vid=7535fedc-74ac-474b-8a2d-12a425012ada","ios":"levelo://app?vid=7535fedc-74ac-474b-8a2d-12a425012ada"},"vehicle_type_id":"4","last_reported":1701184080,"current_range_meters":15200,"station_id":"ce4bhph2rcd13ifvqheg","pricing_plan_id":"free"},{"bike_id":"4c5566d0-9782-4b12-a043-41d416f1bb93","system_id":"levelo_inurba_marseille","lat":43.26568,"lon":5.39008,"is_reserved":false,"is_disabled":false,"rental_uris":{"android":"levelo://app?vid=4c5566d0-9782-4b12-a043-41d416f1bb93","ios":"levelo://app?vid=4c5566d0-9782-4b12-a043-41d416f1bb93"},"vehicle_type_id":"4","last_reported":1701184080,"current_range_meters":15200,"station_id":"ce4bhe12rcd13ifvqf30","pricing_plan_id":"free"},{"bike_id":"901a7d32-e285-4ddb-96f0-d36533c525c1","system_id":"levelo_inurba_marseille","lat":43.261782,"lon":5.374515,"is_reserved":false,"is_disabled":false,"rental_uris":{"android":"levelo://app?vid=901a7d32-e285-4ddb-96f0-d36533c525c1","ios":"levelo://app?vid=901a7d32-e285-4ddb-96f0-d36533c525c1"},"vehicle_type_id":"4","last_reported":1701184080,"current_range_meters":5200,"station_id":"ce4bhgp2rcd13ifvqfc0","pricing_plan_id":"free"},{"bike_id":"12ee55be-ae45-4b36-ba0b-cd98485e66e5","system_id":"levelo_inurba_marseille","lat":43.317104,"lon":5.436818,"is_reserved":false,"is_disabled":false,"rental_uris":{"android":"levelo://app?vid=12ee55be-ae45-4b36-ba0b-cd98485e66e5","ios":"levelo://app?vid=12ee55be-ae45-4b36-ba0b-cd98485e66e5"},"vehicle_type_id":"4","last_reported":1701184080,"current_range_meters":28400,"station_id":"ce4bhp92rcd13ifvqhcg","pricing_plan_id":"free"},{"bike_id":"bb25a6f9-5768-4fed-8293-33f0e9e4b88f","system_id":"levelo_inurba_marseille","lat":43.317104,"lon":5.436818,"is_reserved":false,"is_disabled":false,"rental_uris":{"android":"levelo://app?vid=bb25a6f9-5768-4fed-8293-33f0e9e4b88f","ios":"levelo://app?vid=bb25a6f9-5768-4fed-8293-33f0e9e4b88f"},"vehicle_type_id":"4","last_reported":1701184080,"current_range_meters":29600,"station_id":"ce4bhp92rcd13ifvqhcg","pricing_plan_id":"free"},{"bike_id":"8ce95f95-f1e1-425e-8519-b42b10e3fc8e","system_id":"levelo_inurba_marseille","lat":43.317104,"lon":5.436818,"is_reserved":false,"is_disabled":false,"rental_uris":{"android":"levelo://app?vid=8ce95f95-f1e1-425e-8519-b42b10e3fc8e","ios":"levelo://app?vid=8ce95f95-f1e1-425e-8519-b42b10e3fc8e"},"vehicle_type_id":"4","last_reported":1701184080,"current_range_meters":10400,"station_id":"ce4bhp92rcd13ifvqhcg","pricing_plan_id":"free"},{"bike_id":"3ee6d42b-be43-4558-85e1-d7d39f345c6b","system_id":"levelo_inurba_marseille","lat":43.317104,"lon":5.436818,"is_reserved":false,"is_disabled":false,"rental_uris":{"android":"levelo://app?vid=3ee6d42b-be43-4558-85e1-d7d39f345c6b","ios":"levelo://app?vid=3ee6d42b-be43-4558-85e1-d7d39f345c6b"},"vehicle_type_id":"4","last_reported":1701184080,"current_range_meters":29600,"station_id":"ce4bhp92rcd13ifvqhcg","pricing_plan_id":"free"},{"bike_id":"5edf4ffd-945c-46ca-853f-f4dc48bf88b7","system_id":"levelo_inurba_marseille","lat":43.26202,"lon":5.379299,"is_reserved":false,"is_disabled":false,"rental_uris":{"android":"levelo://app?vid=5edf4ffd-945c-46ca-853f-f4dc48bf88b7","ios":"levelo://app?vid=5edf4ffd-945c-46ca-853f-f4dc48bf88b7"},"vehicle_type_id":"4","last_reported":1701184080,"current_range_meters":27200,"station_id":"ce4bhjp2rcd13ifvqg90","pricing_plan_id":"free"},{"bike_id":"1b6e1605-822a-4d11-8a82-d6df3a659dce","system_id":"levelo_inurba_marseille","lat":43.271368,"lon":5.40928,"is_reserved":false,"is_disabled":false,"rental_uris":{"android":"levelo://app?vid=1b6e1605-822a-4d11-8a82-d6df3a659dce","ios":"levelo://app?vid=1b6e1605-822a-4d11-8a82-d6df3a659dce"},"vehicle_type_id":"4","last_reported":1701184080,"current_range_meters":5200,"station_id":"ce4bhl12rcd13ifvqgf0","pricing_plan_id":"free"},{"bike_id":"f4f2e1d5-dafa-412d-9b3a-3611814786ce","system_id":"levelo_inurba_marseille","lat":43.29895,"lon":5.43663,"is_reserved":false,"is_disabled":false,"rental_uris":{"android":"levelo://app?vid=f4f2e1d5-dafa-412d-9b3a-3611814786ce","ios":"levelo://app?vid=f4f2e1d5-dafa-412d-9b3a-3611814786ce"},"vehicle_type_id":"4","last_reported":1701184080,"current_range_meters":31200,"station_id":"ce4bhpp2rcd13ifvqhfg","pricing_plan_id":"free"},{"bike_id":"9713bde9-c9a7-4d76-bb95-dac32047e32a","system_id":"levelo_inurba_marseille","lat":43.29894,"lon":5.43668,"is_reserved":false,"is_disabled":false,"rental_uris":{"android":"levelo://app?vid=9713bde9-c9a7-4d76-bb95-dac32047e32a","ios":"levelo://app?vid=9713bde9-c9a7-4d76-bb95-dac32047e32a"},"vehicle_type_id":"4","last_reported":1701184080,"current_range_meters":29600,"station_id":"ce4bhpp2rcd13ifvqhfg","pricing_plan_id":"free"},{"bike_id":"bbd4ad1f-8d81-4392-8a90-c7c779d363a4","system_id":"levelo_inurba_marseille","lat":43.26035,"lon":5.37544,"is_reserved":false,"is_disabled":false,"rental_uris":{"android":"levelo://app?vid=bbd4ad1f-8d81-4392-8a90-c7c779d363a4","ios":"levelo://app?vid=bbd4ad1f-8d81-4392-8a90-c7c779d363a4"},"vehicle_type_id":"4","last_reported":1701184080,"current_range_meters":31200,"station_id":"ce4bhgh2rcd13ifvqfa0","pricing_plan_id":"free"},{"bike_id":"63686711-33c6-4a01-bf07-639f6f3b69e4","system_id":"levelo_inurba_marseille","lat":43.260219,"lon":5.37546,"is_reserved":false,"is_disabled":false,"rental_uris":{"android":"levelo://app?vid=63686711-33c6-4a01-bf07-639f6f3b69e4","ios":"levelo://app?vid=63686711-33c6-4a01-bf07-639f6f3b69e4"},"vehicle_type_id":"4","last_reported":1701184080,"current_range_meters":30000,"station_id":"ce4bhgh2rcd13ifvqfa0","pricing_plan_id":"free"},{"bike_id":"baa110bc-e6be-491b-9db8-5e934046b735","system_id":"levelo_inurba_marseille","lat":43.26023,"lon":5.37557,"is_reserved":false,"is_disabled":false,"rental_uris":{"android":"levelo://app?vid=baa110bc-e6be-491b-9db8-5e934046b735","ios":"levelo://app?vid=baa110bc-e6be-491b-9db8-5e934046b735"},"vehicle_type_id":"4","last_reported":1701184080,"current_range_meters":17200,"station_id":"ce4bhgh2rcd13ifvqfa0","pricing_plan_id":"free"},{"bike_id":"a6a262c1-5655-48d3-837d-17e6b7d02668","system_id":"levelo_inurba_marseille","lat":43.2607,"lon":5.393983,"is_reserved":false,"is_disabled":false,"rental_uris":{"android":"levelo://app?vid=a6a262c1-5655-48d3-837d-17e6b7d02668","ios":"levelo://app?vid=a6a262c1-5655-48d3-837d-17e6b7d02668"},"vehicle_type_id":"4","last_reported":1701184080,"current_range_meters":16000,"station_id":"ce4bhh92rcd13ifvqfj0","pricing_plan_id":"free"},{"bike_id":"610661f4-fa73-4367-80d6-922bb7e762d8","system_id":"levelo_inurba_marseille","lat":43.2607,"lon":5.393983,"is_reserved":false,"is_disabled":false,"rental_uris":{"android":"levelo://app?vid=610661f4-fa73-4367-80d6-922bb7e762d8","ios":"levelo://app?vid=610661f4-fa73-4367-80d6-922bb7e762d8"},"vehicle_type_id":"4","last_reported":1701184080,"current_range_meters":24400,"station_id":"ce4bhh92rcd13ifvqfj0","pricing_plan_id":"free"},{"bike_id":"c31eff14-bf1f-463c-9610-bcda13ae2802","system_id":"levelo_inurba_marseille","lat":43.25505,"lon":5.3765,"is_reserved":false,"is_disabled":false,"rental_uris":{"android":"levelo://app?vid=c31eff14-bf1f-463c-9610-bcda13ae2802","ios":"levelo://app?vid=c31eff14-bf1f-463c-9610-bcda13ae2802"},"vehicle_type_id":"4","last_reported":1701184080,"current_range_meters":30000,"station_id":"ce4bhh12rcd13ifvqff0","pricing_plan_id":"free"},{"bike_id":"7bac27d5-93a2-4fd1-87b6-c4ec1f10e0f3","system_id":"levelo_inurba_marseille","lat":43.258224,"lon":5.394369,"is_reserved":false,"is_disabled":false,"rental_uris":{"android":"levelo://app?vid=7bac27d5-93a2-4fd1-87b6-c4ec1f10e0f3","ios":"levelo://app?vid=7bac27d5-93a2-4fd1-87b6-c4ec1f10e0f3"},"vehicle_type_id":"4","last_reported":1701184080,"current_range_meters":5200,"station_id":"ce4bhip2rcd13ifvqft0","pricing_plan_id":"free"},{"bike_id":"be32455b-e813-47c5-9094-3dfc5a0d8d7a","system_id":"levelo_inurba_marseille","lat":43.255733,"lon":5.382433,"is_reserved":false,"is_disabled":false,"rental_uris":{"android":"levelo://app?vid=be32455b-e813-47c5-9094-3dfc5a0d8d7a","ios":"levelo://app?vid=be32455b-e813-47c5-9094-3dfc5a0d8d7a"},"vehicle_type_id":"4","last_reported":1701184080,"current_range_meters":10400,"station_id":"ce4bhih2rcd13ifvqfs0","pricing_plan_id":"free"},{"bike_id":"4612d166-4d24-4940-b44e-985dcd7f7575","system_id":"levelo_inurba_marseille","lat":43.25503,"lon":5.37648,"is_reserved":false,"is_disabled":false,"rental_uris":{"android":"levelo://app?vid=4612d166-4d24-4940-b44e-985dcd7f7575","ios":"levelo://app?vid=4612d166-4d24-4940-b44e-985dcd7f7575"},"vehicle_type_id":"4","last_reported":1701184080,"current_range_meters":28800,"station_id":"ce4bhh12rcd13ifvqff0","pricing_plan_id":"free"},{"bike_id":"539b0977-b087-4922-bb50-ffec0f961813","system_id":"levelo_inurba_marseille","lat":43.254947,"lon":5.376454,"is_reserved":false,"is_disabled":false,"rental_uris":{"android":"levelo://app?vid=539b0977-b087-4922-bb50-ffec0f961813","ios":"levelo://app?vid=539b0977-b087-4922-bb50-ffec0f961813"},"vehicle_type_id":"4","last_reported":1701184080,"current_range_meters":2400,"station_id":"ce4bhh12rcd13ifvqff0","pricing_plan_id":"free"},{"bike_id":"d0bbf467-5bb8-4d86-9699-d190208958fd","system_id":"levelo_inurba_marseille","lat":43.270721,"lon":5.422764,"is_reserved":false,"is_disabled":false,"rental_uris":{"android":"levelo://app?vid=d0bbf467-5bb8-4d86-9699-d190208958fd","ios":"levelo://app?vid=d0bbf467-5bb8-4d86-9699-d190208958fd"},"vehicle_type_id":"4","last_reported":1701184080,"current_range_meters":2000,"station_id":"ce4bhk92rcd13ifvqgb0","pricing_plan_id":"free"},{"bike_id":"7ac28bd8-4ee4-4c25-8860-922d323292dd","system_id":"levelo_inurba_marseille","lat":43.270721,"lon":5.422764,"is_reserved":false,"is_disabled":false,"rental_uris":{"android":"levelo://app?vid=7ac28bd8-4ee4-4c25-8860-922d323292dd","ios":"levelo://app?vid=7ac28bd8-4ee4-4c25-8860-922d323292dd"},"vehicle_type_id":"4","last_reported":1701184080,"current_range_meters":31200,"station_id":"ce4bhk92rcd13ifvqgb0","pricing_plan_id":"free"},{"bike_id":"90e4ff04-ca15-41d1-82c2-d8f2c905d342","system_id":"levelo_inurba_marseille","lat":43.258658,"lon":5.398935,"is_reserved":false,"is_disabled":false,"rental_uris":{"android":"levelo://app?vid=90e4ff04-ca15-41d1-82c2-d8f2c905d342","ios":"levelo://app?vid=90e4ff04-ca15-41d1-82c2-d8f2c905d342"},"vehicle_type_id":"4","last_reported":1701184080,"current_range_meters":22800,"station_id":"ce4bhl92rcd13ifvqghg","pricing_plan_id":"free"},{"bike_id":"db6d341f-d6f0-4958-9992-f9014ca2145b","system_id":"levelo_inurba_marseille","lat":43.257079,"lon":5.411051,"is_reserved":false,"is_disabled":false,"rental_uris":{"android":"levelo://app?vid=db6d341f-d6f0-4958-9992-f9014ca2145b","ios":"levelo://app?vid=db6d341f-d6f0-4958-9992-f9014ca2145b"},"vehicle_type_id":"4","last_reported":1701184080,"current_range_meters":31200,"station_id":"ce4bhkp2rcd13ifvqgd0","pricing_plan_id":"free"},{"bike_id":"cfe0e934-4a86-4658-a3fc-37dfe7dec3cc","system_id":"levelo_inurba_marseille","lat":43.257079,"lon":5.411051,"is_reserved":false,"is_disabled":false,"rental_uris":{"android":"levelo://app?vid=cfe0e934-4a86-4658-a3fc-37dfe7dec3cc","ios":"levelo://app?vid=cfe0e934-4a86-4658-a3fc-37dfe7dec3cc"},"vehicle_type_id":"4","last_reported":1701184080,"current_range_meters":7200,"station_id":"ce4bhkp2rcd13ifvqgd0","pricing_plan_id":"free"},{"bike_id":"c24123b4-ff50-4fc8-8386-8e3842198273","system_id":"levelo_inurba_marseille","lat":43.257252,"lon":5.411182,"is_reserved":false,"is_disabled":false,"rental_uris":{"android":"levelo://app?vid=c24123b4-ff50-4fc8-8386-8e3842198273","ios":"levelo://app?vid=c24123b4-ff50-4fc8-8386-8e3842198273"},"vehicle_type_id":"4","last_reported":1701184080,"current_range_meters":19600,"station_id":"ce4bhkp2rcd13ifvqgd0","pricing_plan_id":"free"},{"bike_id":"3dbc3ceb-c9e9-442a-a345-699a202b3a4e","system_id":"levelo_inurba_marseille","lat":43.250009,"lon":5.389195,"is_reserved":false,"is_disabled":false,"rental_uris":{"android":"levelo://app?vid=3dbc3ceb-c9e9-442a-a345-699a202b3a4e","ios":"levelo://app?vid=3dbc3ceb-c9e9-442a-a345-699a202b3a4e"},"vehicle_type_id":"4","last_reported":1701184080,"current_range_meters":28800,"station_id":"ce4bhgp2rcd13ifvqfd0","pricing_plan_id":"free"},{"bike_id":"ded7318f-133d-4cbb-a288-93aeac633796","system_id":"levelo_inurba_marseille","lat":43.250009,"lon":5.389195,"is_reserved":false,"is_disabled":false,"rental_uris":{"android":"levelo://app?vid=ded7318f-133d-4cbb-a288-93aeac633796","ios":"levelo://app?vid=ded7318f-133d-4cbb-a288-93aeac633796"},"vehicle_type_id":"4","last_reported":1701184080,"current_range_meters":22000,"station_id":"ce4bhgp2rcd13ifvqfd0","pricing_plan_id":"free"},{"bike_id":"fcc02197-4b50-4aed-a908-3222e6045ef6","system_id":"levelo_inurba_marseille","lat":43.250023,"lon":5.38919,"is_reserved":false,"is_disabled":false,"rental_uris":{"android":"levelo://app?vid=fcc02197-4b50-4aed-a908-3222e6045ef6","ios":"levelo://app?vid=fcc02197-4b50-4aed-a908-3222e6045ef6"},"vehicle_type_id":"4","last_reported":1701184080,"current_range_meters":29600,"station_id":"ce4bhgp2rcd13ifvqfd0","pricing_plan_id":"free"},{"bike_id":"ff9a1c23-668b-4f8c-8983-d861fb6ddf54","system_id":"levelo_inurba_marseille","lat":43.250009,"lon":5.389195,"is_reserved":false,"is_disabled":false,"rental_uris":{"android":"levelo://app?vid=ff9a1c23-668b-4f8c-8983-d861fb6ddf54","ios":"levelo://app?vid=ff9a1c23-668b-4f8c-8983-d861fb6ddf54"},"vehicle_type_id":"4","last_reported":1701184080,"current_range_meters":20800,"station_id":"ce4bhgp2rcd13ifvqfd0","pricing_plan_id":"free"},{"bike_id":"d63e91b8-30bb-44b1-8c1a-f728ba600043","system_id":"levelo_inurba_marseille","lat":43.250009,"lon":5.389195,"is_reserved":false,"is_disabled":false,"rental_uris":{"android":"levelo://app?vid=d63e91b8-30bb-44b1-8c1a-f728ba600043","ios":"levelo://app?vid=d63e91b8-30bb-44b1-8c1a-f728ba600043"},"vehicle_type_id":"4","last_reported":1701184080,"current_range_meters":16400,"station_id":"ce4bhgp2rcd13ifvqfd0","pricing_plan_id":"free"},{"bike_id":"04731280-ccf1-40fc-8839-92bcb7147b20","system_id":"levelo_inurba_marseille","lat":43.2479,"lon":5.374457,"is_reserved":false,"is_disabled":false,"rental_uris":{"android":"levelo://app?vid=04731280-ccf1-40fc-8839-92bcb7147b20","ios":"levelo://app?vid=04731280-ccf1-40fc-8839-92bcb7147b20"},"vehicle_type_id":"4","last_reported":1701184080,"current_range_meters":25200,"station_id":"ce4bhgh2rcd13ifvqfb0","pricing_plan_id":"free"},{"bike_id":"2d81ee7e-bc1d-4d6d-8df6-caf9aab4c55f","system_id":"levelo_inurba_marseille","lat":43.2479,"lon":5.374457,"is_reserved":false,"is_disabled":false,"rental_uris":{"android":"levelo://app?vid=2d81ee7e-bc1d-4d6d-8df6-caf9aab4c55f","ios":"levelo://app?vid=2d81ee7e-bc1d-4d6d-8df6-caf9aab4c55f"},"vehicle_type_id":"4","last_reported":1701184080,"current_range_meters":5200,"station_id":"ce4bhgh2rcd13ifvqfb0","pricing_plan_id":"free"},{"bike_id":"4c0c3118-7eaa-4ebd-8d87-d449bea3e021","system_id":"levelo_inurba_marseille","lat":43.250897,"lon":5.395161,"is_reserved":false,"is_disabled":false,"rental_uris":{"android":"levelo://app?vid=4c0c3118-7eaa-4ebd-8d87-d449bea3e021","ios":"levelo://app?vid=4c0c3118-7eaa-4ebd-8d87-d449bea3e021"},"vehicle_type_id":"4","last_reported":1701184080,"current_range_meters":16000,"station_id":"ce4bhm12rcd13ifvqgkg","pricing_plan_id":"free"},{"bike_id":"6e93f689-478a-4a7b-9536-cd0d6d5a7501","system_id":"levelo_inurba_marseille","lat":43.250966,"lon":5.395186,"is_reserved":false,"is_disabled":false,"rental_uris":{"android":"levelo://app?vid=6e93f689-478a-4a7b-9536-cd0d6d5a7501","ios":"levelo://app?vid=6e93f689-478a-4a7b-9536-cd0d6d5a7501"},"vehicle_type_id":"4","last_reported":1701184080,"current_range_meters":400,"station_id":"ce4bhm12rcd13ifvqgkg","pricing_plan_id":"free"},{"bike_id":"f9d01257-ef36-4a1d-82ce-09689757222b","system_id":"levelo_inurba_marseille","lat":43.250966,"lon":5.395186,"is_reserved":false,"is_disabled":false,"rental_uris":{"android":"levelo://app?vid=f9d01257-ef36-4a1d-82ce-09689757222b","ios":"levelo://app?vid=f9d01257-ef36-4a1d-82ce-09689757222b"},"vehicle_type_id":"4","last_reported":1701184080,"current_range_meters":2000,"station_id":"ce4bhm12rcd13ifvqgkg","pricing_plan_id":"free"},{"bike_id":"0023272b-f0c9-4df1-bf61-403981be25bc","system_id":"levelo_inurba_marseille","lat":43.250966,"lon":5.395186,"is_reserved":false,"is_disabled":false,"rental_uris":{"android":"levelo://app?vid=0023272b-f0c9-4df1-bf61-403981be25bc","ios":"levelo://app?vid=0023272b-f0c9-4df1-bf61-403981be25bc"},"vehicle_type_id":"4","last_reported":1701184080,"current_range_meters":13200,"station_id":"ce4bhm12rcd13ifvqgkg","pricing_plan_id":"free"},{"bike_id":"3c6d5b94-ac98-448e-b8e5-1e453be17d97","system_id":"levelo_inurba_marseille","lat":43.250966,"lon":5.395186,"is_reserved":false,"is_disabled":false,"rental_uris":{"android":"levelo://app?vid=3c6d5b94-ac98-448e-b8e5-1e453be17d97","ios":"levelo://app?vid=3c6d5b94-ac98-448e-b8e5-1e453be17d97"},"vehicle_type_id":"4","last_reported":1701184080,"current_range_meters":22400,"station_id":"ce4bhm12rcd13ifvqgkg","pricing_plan_id":"free"},{"bike_id":"2404ba5c-1be7-4a61-9c4a-759f40c70d09","system_id":"levelo_inurba_marseille","lat":43.24693,"lon":5.382096,"is_reserved":false,"is_disabled":false,"rental_uris":{"android":"levelo://app?vid=2404ba5c-1be7-4a61-9c4a-759f40c70d09","ios":"levelo://app?vid=2404ba5c-1be7-4a61-9c4a-759f40c70d09"},"vehicle_type_id":"4","last_reported":1701184080,"current_range_meters":6400,"station_id":"ce4bhih2rcd13ifvqfr0","pricing_plan_id":"free"},{"bike_id":"35ae4ff9-8a3f-4a55-aaa6-45fa0c4f2f9a","system_id":"levelo_inurba_marseille","lat":43.24693,"lon":5.382096,"is_reserved":false,"is_disabled":false,"rental_uris":{"android":"levelo://app?vid=35ae4ff9-8a3f-4a55-aaa6-45fa0c4f2f9a","ios":"levelo://app?vid=35ae4ff9-8a3f-4a55-aaa6-45fa0c4f2f9a"},"vehicle_type_id":"4","last_reported":1701184080,"current_range_meters":0,"station_id":"ce4bhih2rcd13ifvqfr0","pricing_plan_id":"free"},{"bike_id":"fcc6ce58-5863-4dfd-b30e-88a080363d51","system_id":"levelo_inurba_marseille","lat":43.25102,"lon":5.403214,"is_reserved":false,"is_disabled":false,"rental_uris":{"android":"levelo://app?vid=fcc6ce58-5863-4dfd-b30e-88a080363d51","ios":"levelo://app?vid=fcc6ce58-5863-4dfd-b30e-88a080363d51"},"vehicle_type_id":"4","last_reported":1701184080,"current_range_meters":8800,"station_id":"ce4bhlh2rcd13ifvqgig","pricing_plan_id":"free"},{"bike_id":"ff268154-f02c-4a83-8095-8ed2b98cb1a2","system_id":"levelo_inurba_marseille","lat":43.25107,"lon":5.40325,"is_reserved":false,"is_disabled":false,"rental_uris":{"android":"levelo://app?vid=ff268154-f02c-4a83-8095-8ed2b98cb1a2","ios":"levelo://app?vid=ff268154-f02c-4a83-8095-8ed2b98cb1a2"},"vehicle_type_id":"4","last_reported":1701184080,"current_range_meters":0,"station_id":"ce4bhlh2rcd13ifvqgig","pricing_plan_id":"free"},{"bike_id":"f1388486-ef3c-45a1-bd38-657b364d74cc","system_id":"levelo_inurba_marseille","lat":43.24658,"lon":5.389033,"is_reserved":false,"is_disabled":false,"rental_uris":{"android":"levelo://app?vid=f1388486-ef3c-45a1-bd38-657b364d74cc","ios":"levelo://app?vid=f1388486-ef3c-45a1-bd38-657b364d74cc"},"vehicle_type_id":"4","last_reported":1701184080,"current_range_meters":21600,"station_id":"ce4bhg12rcd13ifvqf60","pricing_plan_id":"free"},{"bike_id":"d077abcf-a9f7-488d-858f-7e6af7c7a8fb","system_id":"levelo_inurba_marseille","lat":43.246467,"lon":5.388984,"is_reserved":false,"is_disabled":false,"rental_uris":{"android":"levelo://app?vid=d077abcf-a9f7-488d-858f-7e6af7c7a8fb","ios":"levelo://app?vid=d077abcf-a9f7-488d-858f-7e6af7c7a8fb"},"vehicle_type_id":"4","last_reported":1701184080,"current_range_meters":31200,"station_id":"ce4bhg12rcd13ifvqf60","pricing_plan_id":"free"},{"bike_id":"9d0fa6c6-7d37-4709-9677-135aef041de9","system_id":"levelo_inurba_marseille","lat":43.246467,"lon":5.388984,"is_reserved":false,"is_disabled":false,"rental_uris":{"android":"levelo://app?vid=9d0fa6c6-7d37-4709-9677-135aef041de9","ios":"levelo://app?vid=9d0fa6c6-7d37-4709-9677-135aef041de9"},"vehicle_type_id":"4","last_reported":1701184080,"current_range_meters":24400,"station_id":"ce4bhg12rcd13ifvqf60","pricing_plan_id":"free"},{"bike_id":"2311c2d1-a5a1-48e1-a6ef-ce73c86bff31","system_id":"levelo_inurba_marseille","lat":43.243884,"lon":5.370737,"is_reserved":false,"is_disabled":false,"rental_uris":{"android":"levelo://app?vid=2311c2d1-a5a1-48e1-a6ef-ce73c86bff31","ios":"levelo://app?vid=2311c2d1-a5a1-48e1-a6ef-ce73c86bff31"},"vehicle_type_id":"4","last_reported":1701184080,"current_range_meters":13200,"station_id":"ce4bhhh2rcd13ifvqfk0","pricing_plan_id":"free"},{"bike_id":"fb3459a0-e796-475a-aa09-508857e00de2","system_id":"levelo_inurba_marseille","lat":43.243884,"lon":5.370737,"is_reserved":false,"is_disabled":false,"rental_uris":{"android":"levelo://app?vid=fb3459a0-e796-475a-aa09-508857e00de2","ios":"levelo://app?vid=fb3459a0-e796-475a-aa09-508857e00de2"},"vehicle_type_id":"4","last_reported":1701184080,"current_range_meters":12400,"station_id":"ce4bhhh2rcd13ifvqfk0","pricing_plan_id":"free"},{"bike_id":"e5910d44-6cab-4a24-8636-bdb3feee38e3","system_id":"levelo_inurba_marseille","lat":43.243884,"lon":5.370736,"is_reserved":false,"is_disabled":false,"rental_uris":{"android":"levelo://app?vid=e5910d44-6cab-4a24-8636-bdb3feee38e3","ios":"levelo://app?vid=e5910d44-6cab-4a24-8636-bdb3feee38e3"},"vehicle_type_id":"4","last_reported":1701184080,"current_range_meters":800,"station_id":"ce4bhhh2rcd13ifvqfk0","pricing_plan_id":"free"},{"bike_id":"a6fc9112-e35f-460a-accf-e975bcb77cfe","system_id":"levelo_inurba_marseille","lat":43.243884,"lon":5.370736,"is_reserved":false,"is_disabled":false,"rental_uris":{"android":"levelo://app?vid=a6fc9112-e35f-460a-accf-e975bcb77cfe","ios":"levelo://app?vid=a6fc9112-e35f-460a-accf-e975bcb77cfe"},"vehicle_type_id":"4","last_reported":1701184080,"current_range_meters":10400,"station_id":"ce4bhhh2rcd13ifvqfk0","pricing_plan_id":"free"},{"bike_id":"f38a14bf-6e03-4854-81c9-e0341699f748","system_id":"levelo_inurba_marseille","lat":43.245581,"lon":5.395069,"is_reserved":false,"is_disabled":false,"rental_uris":{"android":"levelo://app?vid=f38a14bf-6e03-4854-81c9-e0341699f748","ios":"levelo://app?vid=f38a14bf-6e03-4854-81c9-e0341699f748"},"vehicle_type_id":"4","last_reported":1701184080,"current_range_meters":9600,"station_id":"ce4bhlp2rcd13ifvqgjg","pricing_plan_id":"free"},{"bike_id":"42533388-4e31-4941-b634-9d1ef332813a","system_id":"levelo_inurba_marseille","lat":43.245581,"lon":5.395069,"is_reserved":false,"is_disabled":false,"rental_uris":{"android":"levelo://app?vid=42533388-4e31-4941-b634-9d1ef332813a","ios":"levelo://app?vid=42533388-4e31-4941-b634-9d1ef332813a"},"vehicle_type_id":"4","last_reported":1701184080,"current_range_meters":6800,"station_id":"ce4bhlp2rcd13ifvqgjg","pricing_plan_id":"free"},{"bike_id":"da0dcbe7-4106-46d4-bdfe-2354c8e5bb84","system_id":"levelo_inurba_marseille","lat":43.24076,"lon":5.37755,"is_reserved":false,"is_disabled":false,"rental_uris":{"android":"levelo://app?vid=da0dcbe7-4106-46d4-bdfe-2354c8e5bb84","ios":"levelo://app?vid=da0dcbe7-4106-46d4-bdfe-2354c8e5bb84"},"vehicle_type_id":"4","last_reported":1701184080,"current_range_meters":16800,"station_id":"ce4bhnp2rcd13ifvqgvg","pricing_plan_id":"free"},{"bike_id":"cc98ff31-5a8c-4af6-aeca-467e125f224a","system_id":"levelo_inurba_marseille","lat":43.24076,"lon":5.3776,"is_reserved":false,"is_disabled":false,"rental_uris":{"android":"levelo://app?vid=cc98ff31-5a8c-4af6-aeca-467e125f224a","ios":"levelo://app?vid=cc98ff31-5a8c-4af6-aeca-467e125f224a"},"vehicle_type_id":"4","last_reported":1701184080,"current_range_meters":25600,"station_id":"ce4bhnp2rcd13ifvqgvg","pricing_plan_id":"free"},{"bike_id":"84efaf38-b74a-4b60-9633-6a09706d810f","system_id":"levelo_inurba_marseille","lat":43.24074,"lon":5.37761,"is_reserved":false,"is_disabled":false,"rental_uris":{"android":"levelo://app?vid=84efaf38-b74a-4b60-9633-6a09706d810f","ios":"levelo://app?vid=84efaf38-b74a-4b60-9633-6a09706d810f"},"vehicle_type_id":"4","last_reported":1701184080,"current_range_meters":10400,"station_id":"ce4bhnp2rcd13ifvqgvg","pricing_plan_id":"free"},{"bike_id":"ca98d3eb-5369-47da-904d-15b43346d244","system_id":"levelo_inurba_marseille","lat":43.240623,"lon":5.377642,"is_reserved":false,"is_disabled":false,"rental_uris":{"android":"levelo://app?vid=ca98d3eb-5369-47da-904d-15b43346d244","ios":"levelo://app?vid=ca98d3eb-5369-47da-904d-15b43346d244"},"vehicle_type_id":"4","last_reported":1701184080,"current_range_meters":26400,"station_id":"ce4bhnp2rcd13ifvqgvg","pricing_plan_id":"free"},{"bike_id":"b239c686-324e-42f3-b0bc-e8cddafa32e4","system_id":"levelo_inurba_marseille","lat":43.24072,"lon":5.37765,"is_reserved":false,"is_disabled":false,"rental_uris":{"android":"levelo://app?vid=b239c686-324e-42f3-b0bc-e8cddafa32e4","ios":"levelo://app?vid=b239c686-324e-42f3-b0bc-e8cddafa32e4"},"vehicle_type_id":"4","last_reported":1701184080,"current_range_meters":20000,"station_id":"ce4bhnp2rcd13ifvqgvg","pricing_plan_id":"free"},{"bike_id":"da1a4177-e9f9-4482-86e5-51058b7e347e","system_id":"levelo_inurba_marseille","lat":43.240623,"lon":5.377642,"is_reserved":false,"is_disabled":false,"rental_uris":{"android":"levelo://app?vid=da1a4177-e9f9-4482-86e5-51058b7e347e","ios":"levelo://app?vid=da1a4177-e9f9-4482-86e5-51058b7e347e"},"vehicle_type_id":"4","last_reported":1701184080,"current_range_meters":18400,"station_id":"ce4bhnp2rcd13ifvqgvg","pricing_plan_id":"free"},{"bike_id":"8bdcfc80-60a9-45df-a110-46cf65452399","system_id":"levelo_inurba_marseille","lat":43.24071,"lon":5.37761,"is_reserved":false,"is_disabled":false,"rental_uris":{"android":"levelo://app?vid=8bdcfc80-60a9-45df-a110-46cf65452399","ios":"levelo://app?vid=8bdcfc80-60a9-45df-a110-46cf65452399"},"vehicle_type_id":"4","last_reported":1701184080,"current_range_meters":23200,"station_id":"ce4bhnp2rcd13ifvqgvg","pricing_plan_id":"free"},{"bike_id":"73076d5b-593c-464b-87af-f00242d242b5","system_id":"levelo_inurba_marseille","lat":43.2407,"lon":5.37762,"is_reserved":false,"is_disabled":false,"rental_uris":{"android":"levelo://app?vid=73076d5b-593c-464b-87af-f00242d242b5","ios":"levelo://app?vid=73076d5b-593c-464b-87af-f00242d242b5"},"vehicle_type_id":"4","last_reported":1701184080,"current_range_meters":0,"station_id":"ce4bhnp2rcd13ifvqgvg","pricing_plan_id":"free"},{"bike_id":"4de53fcc-6dc7-4ea1-be60-9db0be182977","system_id":"levelo_inurba_marseille","lat":43.240623,"lon":5.377642,"is_reserved":false,"is_disabled":false,"rental_uris":{"android":"levelo://app?vid=4de53fcc-6dc7-4ea1-be60-9db0be182977","ios":"levelo://app?vid=4de53fcc-6dc7-4ea1-be60-9db0be182977"},"vehicle_type_id":"4","last_reported":1701184080,"current_range_meters":20800,"station_id":"ce4bhnp2rcd13ifvqgvg","pricing_plan_id":"free"},{"bike_id":"c98fbf18-5baf-42c5-8365-f976905c2262","system_id":"levelo_inurba_marseille","lat":43.239588,"lon":5.366238,"is_reserved":false,"is_disabled":false,"rental_uris":{"android":"levelo://app?vid=c98fbf18-5baf-42c5-8365-f976905c2262","ios":"levelo://app?vid=c98fbf18-5baf-42c5-8365-f976905c2262"},"vehicle_type_id":"4","last_reported":1701184080,"current_range_meters":28000,"station_id":"ce4bhi12rcd13ifvqfp0","pricing_plan_id":"free"},{"bike_id":"02f836db-d0c9-4d7a-8466-29e57beb35fa","system_id":"levelo_inurba_marseille","lat":43.231919,"lon":5.355532,"is_reserved":false,"is_disabled":false,"rental_uris":{"android":"levelo://app?vid=02f836db-d0c9-4d7a-8466-29e57beb35fa","ios":"levelo://app?vid=02f836db-d0c9-4d7a-8466-29e57beb35fa"},"vehicle_type_id":"4","last_reported":1701184080,"current_range_meters":31200,"station_id":"ce4bhu92rcd13ifvqi70","pricing_plan_id":"free"},{"bike_id":"c298c075-4289-4e2a-8cbe-5956a8fee31d","system_id":"levelo_inurba_marseille","lat":43.231919,"lon":5.355532,"is_reserved":false,"is_disabled":false,"rental_uris":{"android":"levelo://app?vid=c298c075-4289-4e2a-8cbe-5956a8fee31d","ios":"levelo://app?vid=c298c075-4289-4e2a-8cbe-5956a8fee31d"},"vehicle_type_id":"4","last_reported":1701184080,"current_range_meters":11200,"station_id":"ce4bhu92rcd13ifvqi70","pricing_plan_id":"free"},{"bike_id":"a937d4e8-dc50-4f76-81e9-115342fe67e8","system_id":"levelo_inurba_marseille","lat":43.231919,"lon":5.355532,"is_reserved":false,"is_disabled":false,"rental_uris":{"android":"levelo://app?vid=a937d4e8-dc50-4f76-81e9-115342fe67e8","ios":"levelo://app?vid=a937d4e8-dc50-4f76-81e9-115342fe67e8"},"vehicle_type_id":"4","last_reported":1701184080,"current_range_meters":16000,"station_id":"ce4bhu92rcd13ifvqi70","pricing_plan_id":"free"},{"bike_id":"cb1ad581-4198-43f1-868c-486f2828ac05","system_id":"levelo_inurba_marseille","lat":43.231919,"lon":5.355532,"is_reserved":false,"is_disabled":false,"rental_uris":{"android":"levelo://app?vid=cb1ad581-4198-43f1-868c-486f2828ac05","ios":"levelo://app?vid=cb1ad581-4198-43f1-868c-486f2828ac05"},"vehicle_type_id":"4","last_reported":1701184080,"current_range_meters":22400,"station_id":"ce4bhu92rcd13ifvqi70","pricing_plan_id":"free"},{"bike_id":"8388bd6d-3236-4990-a869-ca1a9e233cac","system_id":"levelo_inurba_marseille","lat":43.231919,"lon":5.355532,"is_reserved":false,"is_disabled":false,"rental_uris":{"android":"levelo://app?vid=8388bd6d-3236-4990-a869-ca1a9e233cac","ios":"levelo://app?vid=8388bd6d-3236-4990-a869-ca1a9e233cac"},"vehicle_type_id":"4","last_reported":1701184080,"current_range_meters":9600,"station_id":"ce4bhu92rcd13ifvqi70","pricing_plan_id":"free"},{"bike_id":"d7b03b38-f119-4134-94e1-e00f1f58ff44","system_id":"levelo_inurba_marseille","lat":43.23183,"lon":5.3999,"is_reserved":false,"is_disabled":false,"rental_uris":{"android":"levelo://app?vid=d7b03b38-f119-4134-94e1-e00f1f58ff44","ios":"levelo://app?vid=d7b03b38-f119-4134-94e1-e00f1f58ff44"},"vehicle_type_id":"4","last_reported":1701184080,"current_range_meters":8400,"station_id":"ce4bhn12rcd13ifvqgqg","pricing_plan_id":"free"},{"bike_id":"70f8d6b1-3beb-4459-a185-9caece882463","system_id":"levelo_inurba_marseille","lat":43.231794,"lon":5.400052,"is_reserved":false,"is_disabled":false,"rental_uris":{"android":"levelo://app?vid=70f8d6b1-3beb-4459-a185-9caece882463","ios":"levelo://app?vid=70f8d6b1-3beb-4459-a185-9caece882463"},"vehicle_type_id":"4","last_reported":1701184080,"current_range_meters":4000,"station_id":"ce4bhn12rcd13ifvqgqg","pricing_plan_id":"free"},{"bike_id":"42a38387-074a-412b-a48f-f0ffd5a179ee","system_id":"levelo_inurba_marseille","lat":43.231562,"lon":5.436933,"is_reserved":false,"is_disabled":false,"rental_uris":{"android":"levelo://app?vid=42a38387-074a-412b-a48f-f0ffd5a179ee","ios":"levelo://app?vid=42a38387-074a-412b-a48f-f0ffd5a179ee"},"vehicle_type_id":"4","last_reported":1701184080,"current_range_meters":24800,"station_id":"ce4bhmp2rcd13ifvqgog","pricing_plan_id":"free"},{"bike_id":"1819be53-05e5-4a6f-a4b6-9a1e98d8cfd3","system_id":"levelo_inurba_marseille","lat":43.23154,"lon":5.43713,"is_reserved":false,"is_disabled":false,"rental_uris":{"android":"levelo://app?vid=1819be53-05e5-4a6f-a4b6-9a1e98d8cfd3","ios":"levelo://app?vid=1819be53-05e5-4a6f-a4b6-9a1e98d8cfd3"},"vehicle_type_id":"4","last_reported":1701184080,"current_range_meters":15200,"station_id":"ce4bhmp2rcd13ifvqgog","pricing_plan_id":"free"},{"bike_id":"19af526e-98e7-43cd-b756-dbcaad5928b7","system_id":"levelo_inurba_marseille","lat":43.23155,"lon":5.43716,"is_reserved":false,"is_disabled":false,"rental_uris":{"android":"levelo://app?vid=19af526e-98e7-43cd-b756-dbcaad5928b7","ios":"levelo://app?vid=19af526e-98e7-43cd-b756-dbcaad5928b7"},"vehicle_type_id":"4","last_reported":1701184080,"current_range_meters":800,"station_id":"ce4bhmp2rcd13ifvqgog","pricing_plan_id":"free"},