{"last_updated":1729851025,"ttl":60,"version":"2.2","data":{"bikes":[{"bike_id":"878c179f-78cc-4b76-9631-4e996ad12c07","system_id":"levelo_inurba_marseille","lat":43.30594,"lon":5.37236,"is_reserved":false,"is_disabled":false,"rental_uris":{"android":"levelo://app?vid=878c179f-78cc-4b76-9631-4e996ad12c07","ios":"levelo://app?vid=878c179f-78cc-4b76-9631-4e996ad12c07"},"vehicle_type_id":"4","last_reported":1729851025,"current_range_meters":21600,"station_id":"ce4bgqh2rcd13ifvqc4g","pricing_plan_id":"cebpf4jnsgd1na2vs0mg"},{"bike_id":"5ed98287-9219-4b77-96dd-59fb91b8b2f9","system_id":"levelo_inurba_marseille","lat":43.28439,"lon":5.3919,"is_reserved":false,"is_disabled":false,"rental_uris":{"android":"levelo://app?vid=5ed98287-9219-4b77-96dd-59fb91b8b2f9","ios":"levelo://app?vid=5ed98287-9219-4b77-96dd-59fb91b8b2f9"},"vehicle_type_id":"4","last_reported":1729851025,"current_range_meters":38800,"station_id":"ce4bhoh2rcd13ifvqh5g","pricing_plan_id":"cebpf4jnsgd1na2vs0mg"},{"bike_id":"d227bc31-1306-40f7-9ee1-53a5dc14a10d","system_id":"levelo_inurba_marseille","lat":43.2621,"lon":5.37444,"is_reserved":false,"is_disabled":false,"rental_uris":{"android":"levelo://app?vid=d227bc31-1306-40f7-9ee1-53a5dc14a10d","ios":"levelo://app?vid=d227bc31-1306-40f7-9ee1-53a5dc14a10d"},"vehicle_type_id":"4","last_reported":1729851025,"current_range_meters":38800,"station_id":"ce4bhgp2rcd13ifvqfc0","pricing_plan_id":"cebpf4jnsgd1na2vs0mg"},{"bike_id":"9c4bbb42-1924-4cd1-85f5-cb65dc1974a6","system_id":"levelo_inurba_marseille","lat":43.30215,"lon":5.39475,"is_reserved":false,"is_disabled":false,"rental_uris":{"android":"levelo://app?vid=9c4bbb42-1924-4cd1-85f5-cb65dc1974a6","ios":"levelo://app?vid=9c4bbb42-1924-4cd1-85f5-cb65dc1974a6"},"vehicle_type_id":"4","last_reported":1729851025,"current_range_meters":4800,"station_id":"ce4bh0p2rcd13ifvqd70","pricing_plan_id":"cebpf4jnsgd1na2vs0mg"},{"bike_id":"872430ef-7f87-4b6f-a16e-a80284ce9dbc","system_id":"levelo_inurba_marseille","lat":43.28481,"lon":5.38537,"is_reserved":false,"is_disabled":false,"rental_uris":{"android":"levelo://app?vid=872430ef-7f87-4b6f-a16e-a80284ce9dbc","ios":"levelo://app?vid=872430ef-7f87-4b6f-a16e-a80284ce9dbc"},"vehicle_type_id":"4","last_reported":1729851025,"current_range_meters":29600,"station_id":"ce4bh8p2rcd13ifvqeb0","pricing_plan_id":"cebpf4jnsgd1na2vs0mg"},{"bike_id":"0305f07b-3d86-40ef-b6b1-15fef9ab5479","system_id":"levelo_inurba_marseille","lat":43.23957,"lon":5.36637,"is_reserved":false,"is_disabled":false,"rental_uris":{"android":"levelo://app?vid=0305f07b-3d86-40ef-b6b1-15fef9ab5479","ios":"levelo://app?vid=0305f07b-3d86-40ef-b6b1-15fef9ab5479"},"vehicle_type_id":"4","last_reported":1729851025,"current_range_meters":35600,"station_id":"ce4bhi12rcd13ifvqfp0","pricing_plan_id":"cebpf4jnsgd1na2vs0mg"},{"bike_id":"129de7c7-46dd-461f-84a1-8827f6e8d6ed","system_id":"levelo_inurba_marseille","lat":43.29903,"lon":5.38146,"is_reserved":false,"is_disabled":false,"rental_uris":{"android":"levelo://app?vid=129de7c7-46dd-461f-84a1-8827f6e8d6ed","ios":"levelo://app?vid=129de7c7-46dd-461f-84a1-8827f6e8d6ed"},"vehicle_type_id":"4","last_reported":1729851025,"current_range_meters":12000,"station_id":"ce4bgj12rcd13ifvqbc0","pricing_plan_id":"cebpf4jnsgd1na2vs0mg"},{"bike_id":"5dbd4e97-606f-4b8b-af2c-f584021ff0f2","system_id":"levelo_inurba_marseille","lat":43.29843,"lon":5.36271,"is_reserved":false,"is_disabled":false,"rental_uris":{"android":"levelo://app?vid=5dbd4e97-606f-4b8b-af2c-f584021ff0f2","ios":"levelo://app?vid=5dbd4e97-606f-4b8b-af2c-f584021ff0f2"},"vehicle_type_id":"4","last_reported":1729851025,"current_range_meters":38800,"station_id":"ce4bgpp2rcd13ifvqc3g","pricing_plan_id":"cebpf4jnsgd1na2vs0mg"},{"bike_id":"17cc3263-8d87-4e65-91ba-1ec1f501875b","system_id":"levelo_inurba_marseille","lat":43.2985,"lon":5.36287,"is_reserved":false,"is_disabled":false,"rental_uris":{"android":"levelo://app?vid=17cc3263-8d87-4e65-91ba-1ec1f501875b","ios":"levelo://app?vid=17cc3263-8d87-4e65-91ba-1ec1f501875b"},"vehicle_type_id":"4","last_reported":1729851025,"current_range_meters":38400,"station_id":"ce4bgpp2rcd13ifvqc3g","pricing_plan_id":"cebpf4jnsgd1na2vs0mg"},{"bike_id":"306b2ea7-9316-4329-855b-a3e26ca327bd","system_id":"levelo_inurba_marseille","lat":43.27567,"lon":5.38421,"is_reserved":false,"is_disabled":false,"rental_uris":{"android":"levelo://app?vid=306b2ea7-9316-4329-855b-a3e26ca327bd","ios":"levelo://app?vid=306b2ea7-9316-4329-855b-a3e26ca327bd"},"vehicle_type_id":"4","last_reported":1729851025,"current_range_meters":9200,"station_id":"ce4bhh92rcd13ifvqfi0","pricing_plan_id":"cebpf4jnsgd1na2vs0mg"},{"bike_id":"f7cb4d3f-1921-4702-8703-5284a2844155","system_id":"levelo_inurba_marseille","lat":43.31356,"lon":5.36716,"is_reserved":false,"is_disabled":false,"rental_uris":{"android":"levelo://app?vid=f7cb4d3f-1921-4702-8703-5284a2844155","ios":"levelo://app?vid=f7cb4d3f-1921-4702-8703-5284a2844155"},"vehicle_type_id":"4","last_reported":1729851025,"current_range_meters":38800,"station_id":"ce4bgr92rcd13ifvqc6g","pricing_plan_id":"cebpf4jnsgd1na2vs0mg"},{"bike_id":"c7bd9ff5-6d8b-4a07-b8c5-98b9b11bf05b","system_id":"levelo_inurba_marseille","lat":43.28155,"lon":5.42658,"is_reserved":false,"is_disabled":false,"rental_uris":{"android":"levelo://app?vid=c7bd9ff5-6d8b-4a07-b8c5-98b9b11bf05b","ios":"levelo://app?vid=c7bd9ff5-6d8b-4a07-b8c5-98b9b11bf05b"},"vehicle_type_id":"4","last_reported":1729851025,"current_range_meters":32000,"station_id":"ce4bhnh2rcd13ifvqgug","pricing_plan_id":"cebpf4jnsgd1na2vs0mg"},{"bike_id":"26b9e837-5b91-41a1-ad8f-50c0e2155aef","system_id":"levelo_inurba_marseille","lat":43.29581,"lon":5.36745,"is_reserved":false,"is_disabled":false,"rental_uris":{"android":"levelo://app?vid=26b9e837-5b91-41a1-ad8f-50c0e2155aef","ios":"levelo://app?vid=26b9e837-5b91-41a1-ad8f-50c0e2155aef"},"vehicle_type_id":"4","last_reported":1729851025,"current_range_meters":32400,"station_id":"ce4bgph2rcd13ifvqc2g","pricing_plan_id":"cebpf4jnsgd1na2vs0mg"},{"bike_id":"e130cf78-8420-42ef-935c-589ad91611cf","system_id":"levelo_inurba_marseille","lat":43.326565,"lon":5.409999,"is_reserved":false,"is_disabled":false,"rental_uris":{"android":"levelo://app?vid=e130cf78-8420-42ef-935c-589ad91611cf","ios":"levelo://app?vid=e130cf78-8420-42ef-935c-589ad91611cf"},"vehicle_type_id":"4","last_reported":1729851025,"current_range_meters":39200,"station_id":"ce4bhpp2rcd13ifvqhgg","pricing_plan_id":"cebpf4jnsgd1na2vs0mg"},{"bike_id":"83b93c0d-fd1e-413e-9772-9048be31d163","system_id":"levelo_inurba_marseille","lat":43.31701,"lon":5.3775,"is_reserved":false,"is_disabled":false,"rental_uris":{"android":"levelo://app?vid=83b93c0d-fd1e-413e-9772-9048be31d163","ios":"levelo://app?vid=83b93c0d-fd1e-413e-9772-9048be31d163"},"vehicle_type_id":"4","last_reported":1729851025,"current_range_meters":38400,"station_id":"ce4bgth2rcd13ifvqch0","pricing_plan_id":"cebpf4jnsgd1na2vs0mg"},{"bike_id":"784dd773-f509-4455-843a-8e8b8177e5e1","system_id":"levelo_inurba_marseille","lat":43.31707,"lon":5.37752,"is_reserved":false,"is_disabled":false,"rental_uris":{"android":"levelo://app?vid=784dd773-f509-4455-843a-8e8b8177e5e1","ios":"levelo://app?vid=784dd773-f509-4455-843a-8e8b8177e5e1"},"vehicle_type_id":"4","last_reported":1729851025,"current_range_meters":38800,"station_id":"ce4bgth2rcd13ifvqch0","pricing_plan_id":"cebpf4jnsgd1na2vs0mg"},{"bike_id":"47cf77d5-0b54-4b1a-89e6-94bafc242fc7","system_id":"levelo_inurba_marseille","lat":43.30126,"lon":5.39852,"is_reserved":false,"is_disabled":false,"rental_uris":{"android":"levelo://app?vid=47cf77d5-0b54-4b1a-89e6-94bafc242fc7","ios":"levelo://app?vid=47cf77d5-0b54-4b1a-89e6-94bafc242fc7"},"vehicle_type_id":"4","last_reported":1729851025,"current_range_meters":27600,"station_id":"ce4bh0h2rcd13ifvqd40","pricing_plan_id":"cebpf4jnsgd1na2vs0mg"},{"bike_id":"ca621eda-8fdf-40e1-ab27-bd501d98f9ae","system_id":"levelo_inurba_marseille","lat":43.27377,"lon":5.36255,"is_reserved":false,"is_disabled":false,"rental_uris":{"android":"levelo://app?vid=ca621eda-8fdf-40e1-ab27-bd501d98f9ae","ios":"levelo://app?vid=ca621eda-8fdf-40e1-ab27-bd501d98f9ae"},"vehicle_type_id":"4","last_reported":1729851025,"current_range_meters":11200,"station_id":"ce4bhbh2rcd13ifvqeo0","pricing_plan_id":"cebpf4jnsgd1na2vs0mg"},{"bike_id":"477a05e3-ff20-4d77-9014-d23eaf544f51","system_id":"levelo_inurba_marseille","lat":43.30534,"lon":5.36534,"is_reserved":false,"is_disabled":false,"rental_uris":{"android":"levelo://app?vid=477a05e3-ff20-4d77-9014-d23eaf544f51","ios":"levelo://app?vid=477a05e3-ff20-4d77-9014-d23eaf544f51"},"vehicle_type_id":"4","last_reported":1729851025,"current_range_meters":36000,"station_id":"ce4bgs12rcd13ifvqcag","pricing_plan_id":"cebpf4jnsgd1na2vs0mg"},{"bike_id":"91b8c862-3f62-4df1-9e54-fa2f551617f3","system_id":"levelo_inurba_marseille","lat":43.2621,"lon":5.37442,"is_reserved":false,"is_disabled":false,"rental_uris":{"android":"levelo://app?vid=91b8c862-3f62-4df1-9e54-fa2f551617f3","ios":"levelo://app?vid=91b8c862-3f62-4df1-9e54-fa2f551617f3"},"vehicle_type_id":"4","last_reported":1729851025,"current_range_meters":37600,"station_id":"ce4bhgp2rcd13ifvqfc0","pricing_plan_id":"cebpf4jnsgd1na2vs0mg"},{"bike_id":"b5280a4e-5993-4f8e-83ef-b79f0bc022bd","system_id":"levelo_inurba_marseille","lat":43.24649,"lon":5.38882,"is_reserved":false,"is_disabled":false,"rental_uris":{"android":"levelo://app?vid=b5280a4e-5993-4f8e-83ef-b79f0bc022bd","ios":"levelo://app?vid=b5280a4e-5993-4f8e-83ef-b79f0bc022bd"},"vehicle_type_id":"4","last_reported":1729851025,"current_range_meters":8800,"station_id":"ce4bhg12rcd13ifvqf60","pricing_plan_id":"cebpf4jnsgd1na2vs0mg"},{"bike_id":"100a7276-cd5c-482c-93dc-fcf0b6d446f5","system_id":"levelo_inurba_marseille","lat":43.25597,"lon":5.39389,"is_reserved":false,"is_disabled":false,"rental_uris":{"android":"levelo://app?vid=100a7276-cd5c-482c-93dc-fcf0b6d446f5","ios":"levelo://app?vid=100a7276-cd5c-482c-93dc-fcf0b6d446f5"},"vehicle_type_id":"4","last_reported":1729851025,"current_range_meters":31200,"station_id":"ce4bhip2rcd13ifvqft0","pricing_plan_id":"cebpf4jnsgd1na2vs0mg"},{"bike_id":"c581c950-ca05-405f-abbb-d8283c71a504","system_id":"levelo_inurba_marseille","lat":43.28476,"lon":5.38409,"is_reserved":false,"is_disabled":false,"rental_uris":{"android":"levelo://app?vid=c581c950-ca05-405f-abbb-d8283c71a504","ios":"levelo://app?vid=c581c950-ca05-405f-abbb-d8283c71a504"},"vehicle_type_id":"4","last_reported":1729851025,"current_range_meters":27600,"station_id":"ce4bh512rcd13ifvqe3g","pricing_plan_id":"cebpf4jnsgd1na2vs0mg"},{"bike_id":"7969dd37-faf1-43ba-9922-f50db8b11586","system_id":"levelo_inurba_marseille","lat":43.32477,"lon":5.36572,"is_reserved":false,"is_disabled":false,"rental_uris":{"android":"levelo://app?vid=7969dd37-faf1-43ba-9922-f50db8b11586","ios":"levelo://app?vid=7969dd37-faf1-43ba-9922-f50db8b11586"},"vehicle_type_id":"4","last_reported":1729851025,"current_range_meters":22000,"station_id":"ce4bhs12rcd13ifvqhvg","pricing_plan_id":"cebpf4jnsgd1na2vs0mg"},{"bike_id":"46e85f9c-1bad-4940-8580-20c0eeba5600","system_id":"levelo_inurba_marseille","lat":43.32361,"lon":5.40609,"is_reserved":false,"is_disabled":false,"rental_uris":{"android":"levelo://app?vid=46e85f9c-1bad-4940-8580-20c0eeba5600","ios":"levelo://app?vid=46e85f9c-1bad-4940-8580-20c0eeba5600"},"vehicle_type_id":"4","last_reported":1729851025,"current_range_meters":37600,"station_id":"ce4bhq92rcd13ifvqhjg","pricing_plan_id":"cebpf4jnsgd1na2vs0mg"},{"bike_id":"3263d8af-9310-4682-954e-d8ed34eb8db0","system_id":"levelo_inurba_marseille","lat":43.281,"lon":5.37854,"is_reserved":false,"is_disabled":false,"rental_uris":{"android":"levelo://app?vid=3263d8af-9310-4682-954e-d8ed34eb8db0","ios":"levelo://app?vid=3263d8af-9310-4682-954e-d8ed34eb8db0"},"vehicle_type_id":"4","last_reported":1729851025,"current_range_meters":38800,"station_id":"ce4bha12rcd13ifvqee0","pricing_plan_id":"cebpf4jnsgd1na2vs0mg"},{"bike_id":"d8c777a5-ff2f-4acd-9afb-ab01807654a6","system_id":"levelo_inurba_marseille","lat":43.30885,"lon":5.37201,"is_reserved":false,"is_disabled":false,"rental_uris":{"android":"levelo://app?vid=d8c777a5-ff2f-4acd-9afb-ab01807654a6","ios":"levelo://app?vid=d8c777a5-ff2f-4acd-9afb-ab01807654a6"},"vehicle_type_id":"4","last_reported":1729851025,"current_range_meters":39200,"station_id":"ce4bguh2rcd13ifvqckg","pricing_plan_id":"cebpf4jnsgd1na2vs0mg"},{"bike_id":"cc485a49-a3bd-4f8b-85d5-8e9bbb66afcc","system_id":"levelo_inurba_marseille","lat":43.33024,"lon":5.39041,"is_reserved":false,"is_disabled":false,"rental_uris":{"android":"levelo://app?vid=cc485a49-a3bd-4f8b-85d5-8e9bbb66afcc","ios":"levelo://app?vid=cc485a49-a3bd-4f8b-85d5-8e9bbb66afcc"},"vehicle_type_id":"4","last_reported":1729851025,"current_range_meters":17200,"station_id":"ce4bhr92rcd13ifvqhrg","pricing_plan_id":"cebpf4jnsgd1na2vs0mg"},{"bike_id":"97ce6431-cdfe-4c86-8575-534875aed7f5","system_id":"levelo_inurba_marseille","lat":43.3053,"lon":5.36659,"is_reserved":false,"is_disabled":false,"rental_uris":{"android":"levelo://app?vid=97ce6431-cdfe-4c86-8575-534875aed7f5","ios":"levelo://app?vid=97ce6431-cdfe-4c86-8575-534875aed7f5"},"vehicle_type_id":"4","last_reported":1729851025,"current_range_meters":3200,"station_id":"","pricing_plan_id":"cebpf4jnsgd1na2vs0mg"},{"bike_id":"9832fd86-4aa3-49ff-902c-e2a1cdea0df9","system_id":"levelo_inurba_marseille","lat":43.29422,"lon":5.38613,"is_reserved":false,"is_disabled":false,"rental_uris":{"android":"levelo://app?vid=9832fd86-4aa3-49ff-902c-e2a1cdea0df9","ios":"levelo://app?vid=9832fd86-4aa3-49ff-902c-e2a1cdea0df9"},"vehicle_type_id":"4","last_reported":1729851025,"current_range_meters":4000,"station_id":"ce4bh2h2rcd13ifvqdh0","pricing_plan_id":"cebpf4jnsgd1na2vs0mg"},{"bike_id":"ddf1220d-b7b8-47ef-b02e-eb813f8e3275","system_id":"levelo_inurba_marseille","lat":43.30356,"lon":5.41876,"is_reserved":false,"is_disabled":false,"rental_uris":{"android":"levelo://app?vid=ddf1220d-b7b8-47ef-b02e-eb813f8e3275","ios":"levelo://app?vid=ddf1220d-b7b8-47ef-b02e-eb813f8e3275"},"vehicle_type_id":"4","last_reported":1729851025,"current_range_meters":39200,"station_id":"ce4bhop2rcd13ifvqh7g","pricing_plan_id":"cebpf4jnsgd1na2vs0mg"},{"bike_id":"7402b623-c097-44ef-9305-adaad9aacce3","system_id":"levelo_inurba_marseille","lat":43.27815,"lon":5.40705,"is_reserved":false,"is_disabled":false,"rental_uris":{"android":"levelo://app?vid=7402b623-c097-44ef-9305-adaad9aacce3","ios":"levelo://app?vid=7402b623-c097-44ef-9305-adaad9aacce3"},"vehicle_type_id":"4","last_reported":1729851025,"current_range_meters":28400,"station_id":"ce4bhnh2rcd13ifvqgtg","pricing_plan_id":"cebpf4jnsgd1na2vs0mg"},{"bike_id":"ecffdb26-7bb5-47a8-bbf2-a6ea6fbc034d","system_id":"levelo_inurba_marseille","lat":43.33614,"lon":5.41029,"is_reserved":false,"is_disabled":false,"rental_uris":{"android":"levelo://app?vid=ecffdb26-7bb5-47a8-bbf2-a6ea6fbc034d","ios":"levelo://app?vid=ecffdb26-7bb5-47a8-bbf2-a6ea6fbc034d"},"vehicle_type_id":"4","last_reported":1729851025,"current_range_meters":14400,"station_id":"ce4bhqh2rcd13ifvqhmg","pricing_plan_id":"cebpf4jnsgd1na2vs0mg"},{"bike_id":"004074af-785b-4ea6-9009-4b13258e368c","system_id":"levelo_inurba_marseille","lat":43.29092,"lon":5.38123,"is_reserved":false,"is_disabled":false,"rental_uris":{"android":"levelo://app?vid=004074af-785b-4ea6-9009-4b13258e368c","ios":"levelo://app?vid=004074af-785b-4ea6-9009-4b13258e368c"},"vehicle_type_id":"4","last_reported":1729851025,"current_range_meters":38800,"station_id":"ce4bh512rcd13ifvqe2g","pricing_plan_id":"cebpf4jnsgd1na2vs0mg"},{"bike_id":"c47ee947-2909-41a5-bbe0-603cbb5c8694","system_id":"levelo_inurba_marseille","lat":43.27951,"lon":5.41048,"is_reserved":false,"is_disabled":false,"rental_uris":{"android":"levelo://app?vid=c47ee947-2909-41a5-bbe0-603cbb5c8694","ios":"levelo://app?vid=c47ee947-2909-41a5-bbe0-603cbb5c8694"},"vehicle_type_id":"4","last_reported":1729851025,"current_range_meters":12000,"station_id":"ce4bhnp2rcd13ifvqh0g","pricing_plan_id":"cebpf4jnsgd1na2vs0mg"},{"bike_id":"8486fe9d-9ef0-4e60-ba73-6eb6a17c52a8","system_id":"levelo_inurba_marseille","lat":43.31567,"lon":5.40582,"is_reserved":false,"is_disabled":false,"rental_uris":{"android":"levelo://app?vid=8486fe9d-9ef0-4e60-ba73-6eb6a17c52a8","ios":"levelo://app?vid=8486fe9d-9ef0-4e60-ba73-6eb6a17c52a8"},"vehicle_type_id":"4","last_reported":1729851025,"current_range_meters":9600,"station_id":"","pricing_plan_id":"cebpf4jnsgd1na2vs0mg"},{"bike_id":"172208e9-70cd-4b52-b8b5-db9312e32f6a","system_id":"levelo_inurba_marseille","lat":43.24545,"lon":5.39521,"is_reserved":false,"is_disabled":false,"rental_uris":{"android":"levelo://app?vid=172208e9-70cd-4b52-b8b5-db9312e32f6a","ios":"levelo://app?vid=172208e9-70cd-4b52-b8b5-db9312e32f6a"},"vehicle_type_id":"4","last_reported":1729851025,"current_range_meters":26000,"station_id":"ce4bhlp2rcd13ifvqgjg","pricing_plan_id":"cebpf4jnsgd1na2vs0mg"},{"bike_id":"ec0d691e-b85d-4e3a-aa9a-5105477bf0fc","system_id":"levelo_inurba_marseille","lat":43.29183,"lon":5.35808,"is_reserved":false,"is_disabled":false,"rental_uris":{"android":"levelo://app?vid=ec0d691e-b85d-4e3a-aa9a-5105477bf0fc","ios":"levelo://app?vid=ec0d691e-b85d-4e3a-aa9a-5105477bf0fc"},"vehicle_type_id":"4","last_reported":1729851025,"current_range_meters":26000,"station_id":"ce4bhb12rcd13ifvqel0","pricing_plan_id":"cebpf4jnsgd1na2vs0mg"},{"bike_id":"222f03e8-7565-49de-b148-fe24b12bb6fe","system_id":"levelo_inurba_marseille","lat":43.273062,"lon":5.391026,"is_reserved":false,"is_disabled":false,"rental_uris":{"android":"levelo://app?vid=222f03e8-7565-49de-b148-fe24b12bb6fe","ios":"levelo://app?vid=222f03e8-7565-49de-b148-fe24b12bb6fe"},"vehicle_type_id":"4","last_reported":1729851025,"current_range_meters":26000,"station_id":"ce4bhgp2rcd13ifvqfe0","pricing_plan_id":"cebpf4jnsgd1na2vs0mg"},{"bike_id":"e3ee5f84-4d74-4ce5-9540-764d9f311735","system_id":"levelo_inurba_marseille","lat":43.30276,"lon":5.37696,"is_reserved":false,"is_disabled":false,"rental_uris":{"android":"levelo://app?vid=e3ee5f84-4d74-4ce5-9540-764d9f311735","ios":"levelo://app?vid=e3ee5f84-4d74-4ce5-9540-764d9f311735"},"vehicle_type_id":"4","last_reported":1729851025,"current_range_meters":28400,"station_id":"ce4bguh2rcd13ifvqcj0","pricing_plan_id":"cebpf4jnsgd1na2vs0mg"},{"bike_id":"23bb98ea-547c-4cf8-9703-456e5cb2a026","system_id":"levelo_inurba_marseille","lat":43.30553,"lon":5.36537,"is_reserved":false,"is_disabled":false,"rental_uris":{"android":"levelo://app?vid=23bb98ea-547c-4cf8-9703-456e5cb2a026","ios":"levelo://app?vid=23bb98ea-547c-4cf8-9703-456e5cb2a026"},"vehicle_type_id":"4","last_reported":1729851025,"current_range_meters":36400,"station_id":"ce4bgs12rcd13ifvqcag","pricing_plan_id":"cebpf4jnsgd1na2vs0mg"},{"bike_id":"19ce95ff-4cb9-489d-88e8-f0dd6c1bac5d","system_id":"levelo_inurba_marseille","lat":43.24184,"lon":5.39728,"is_reserved":false,"is_disabled":false,"rental_uris":{"android":"levelo://app?vid=19ce95ff-4cb9-489d-88e8-f0dd6c1bac5d","ios":"levelo://app?vid=19ce95ff-4cb9-489d-88e8-f0dd6c1bac5d"},"vehicle_type_id":"4","last_reported":1729851025,"current_range_meters":12800,"station_id":"ce4bhn12rcd13ifvqgpg","pricing_plan_id":"cebpf4jnsgd1na2vs0mg"},{"bike_id":"912263a8-31a2-4508-980f-2d428bc09171","system_id":"levelo_inurba_marseille","lat":43.311981,"lon":5.387588,"is_reserved":false,"is_disabled":false,"rental_uris":{"android":"levelo://app?vid=912263a8-31a2-4508-980f-2d428bc09171","ios":"levelo://app?vid=912263a8-31a2-4508-980f-2d428bc09171"},"vehicle_type_id":"4","last_reported":1729851025,"current_range_meters":31200,"station_id":"ce4bgt12rcd13ifvqcd0","pricing_plan_id":"cebpf4jnsgd1na2vs0mg"},{"bike_id":"1fe7a754-88e8-464c-a31c-86bf41ad4349","system_id":"levelo_inurba_marseille","lat":43.30276,"lon":5.37703,"is_reserved":false,"is_disabled":false,"rental_uris":{"android":"levelo://app?vid=1fe7a754-88e8-464c-a31c-86bf41ad4349","ios":"levelo://app?vid=1fe7a754-88e8-464c-a31c-86bf41ad4349"},"vehicle_type_id":"4","last_reported":1729851025,"current_range_meters":22800,"station_id":"ce4bguh2rcd13ifvqcj0","pricing_plan_id":"cebpf4jnsgd1na2vs0mg"},{"bike_id":"34bd320d-7bf3-43ba-be2d-e32cdaf4350c","system_id":"levelo_inurba_marseille","lat":43.30211,"lon":5.39461,"is_reserved":false,"is_disabled":false,"rental_uris":{"android":"levelo://app?vid=34bd320d-7bf3-43ba-be2d-e32cdaf4350c","ios":"levelo://app?vid=34bd320d-7bf3-43ba-be2d-e32cdaf4350c"},"vehicle_type_id":"4","last_reported":1729851025,"current_range_meters":22800,"station_id":"ce4bh0p2rcd13ifvqd70","pricing_plan_id":"cebpf4jnsgd1na2vs0mg"},{"bike_id":"67449323-dba1-4f5f-94ad-8d67c84bea65","system_id":"levelo_inurba_marseille","lat":43.26941,"lon":5.40251,"is_reserved":false,"is_disabled":false,"rental_uris":{"android":"levelo://app?vid=67449323-dba1-4f5f-94ad-8d67c84bea65","ios":"levelo://app?vid=67449323-dba1-4f5f-94ad-8d67c84bea65"},"vehicle_type_id":"4","last_reported":1729851025,"current_range_meters":39200,"station_id":"cjm6bp8fraef2m0cb0m0","pricing_plan_id":"cebpf4jnsgd1na2vs0mg"},{"bike_id":"2f11c33a-2d96-4a66-8697-04fd04c433f4","system_id":"levelo_inurba_marseille","lat":43.30141,"lon":5.37422,"is_reserved":false,"is_disabled":false,"rental_uris":{"android":"levelo://app?vid=2f11c33a-2d96-4a66-8697-04fd04c433f4","ios":"levelo://app?vid=2f11c33a-2d96-4a66-8697-04fd04c433f4"},"vehicle_type_id":"4","last_reported":1729851025,"current_range_meters":38800,"station_id":"ce4bgs92rcd13ifvqcc0","pricing_plan_id":"cebpf4jnsgd1na2vs0mg"},{"bike_id":"716b360f-9353-40b4-ad62-c3b53b661c12","system_id":"levelo_inurba_marseille","lat":43.30544,"lon":5.36702,"is_reserved":false,"is_disabled":false,"rental_uris":{"android":"levelo://app?vid=716b360f-9353-40b4-ad62-c3b53b661c12","ios":"levelo://app?vid=716b360f-9353-40b4-ad62-c3b53b661c12"},"vehicle_type_id":"4","last_reported":1729851025,"current_range_meters":39200,"station_id":"ce4bgrp2rcd13ifvqc9g","pricing_plan_id":"cebpf4jnsgd1na2vs0mg"},{"bike_id":"04cab776-8c23-4826-ad5e-9eda19d2768b","system_id":"levelo_inurba_marseille","lat":43.30447,"lon":5.38885,"is_reserved":false,"is_disabled":false,"rental_uris":{"android":"levelo://app?vid=04cab776-8c23-4826-ad5e-9eda19d2768b","ios":"levelo://app?vid=04cab776-8c23-4826-ad5e-9eda19d2768b"},"vehicle_type_id":"4","last_reported":1729851025,"current_range_meters":36800,"station_id":"ce4bgk12rcd13ifvqbi0","pricing_plan_id":"cebpf4jnsgd1na2vs0mg"},{"bike_id":"baac1178-6264-4714-be4f-30295c956493","system_id":"levelo_inurba_marseille","lat":43.30955,"lon":5.39059,"is_reserved":false,"is_disabled":false,"rental_uris":{"android":"levelo://app?vid=baac1178-6264-4714-be4f-30295c956493","ios":"levelo://app?vid=baac1178-6264-4714-be4f-30295c956493"},"vehicle_type_id":"4","last_reported":1729851025,"current_range_meters":40000,"station_id":"ce4bgup2rcd13ifvqco0","pricing_plan_id":"cebpf4jnsgd1na2vs0mg"},{"bike_id":"dbdfdecd-4397-465b-82a0-666dd88db96f","system_id":"levelo_inurba_marseille","lat":43.26948,"lon":5.38639,"is_reserved":false,"is_disabled":false,"rental_uris":{"android":"levelo://app?vid=dbdfdecd-4397-465b-82a0-666dd88db96f","ios":"levelo://app?vid=dbdfdecd-4397-465b-82a0-666dd88db96f"},"vehicle_type_id":"4","last_reported":1729851025,"current_range_meters":16800,"station_id":"ce4bhh92rcd13ifvqfh0","pricing_plan_id":"cebpf4jnsgd1na2vs0mg"},{"bike_id":"d3bbf7db-dbd7-4c37-82f1-086f96c4acff","system_id":"levelo_inurba_marseille","lat":43.30911,"lon":5.36855,"is_reserved":false,"is_disabled":false,"rental_uris":{"android":"levelo://app?vid=d3bbf7db-dbd7-4c37-82f1-086f96c4acff","ios":"levelo://app?vid=d3bbf7db-dbd7-4c37-82f1-086f96c4acff"},"vehicle_type_id":"4","last_reported":1729851025,"current_range_meters":31200,"station_id":"ce4bgn92rcd13ifvqbvg","pricing_plan_id":"cebpf4jnsgd1na2vs0mg"},{"bike_id":"7a9bebfb-3ca8-461f-9edc-3e4de00c7841","system_id":"levelo_inurba_marseille","lat":43.25581,"lon":5.38234,"is_reserved":false,"is_disabled":false,"rental_uris":{"android":"levelo://app?vid=7a9bebfb-3ca8-461f-9edc-3e4de00c7841","ios":"levelo://app?vid=7a9bebfb-3ca8-461f-9edc-3e4de00c7841"},"vehicle_type_id":"4","last_reported":1729851025,"current_range_meters":38800,"station_id":"ce4bhih2rcd13ifvqfs0","pricing_plan_id":"cebpf4jnsgd1na2vs0mg"},{"bike_id":"756da363-02f5-4a19-9127-1187bc762e5b","system_id":"levelo_inurba_marseille","lat":43.30551,"lon":5.36534,"is_reserved":false,"is_disabled":false,"rental_uris":{"android":"levelo://app?vid=756da363-02f5-4a19-9127-1187bc762e5b","ios":"levelo://app?vid=756da363-02f5-4a19-9127-1187bc762e5b"},"vehicle_type_id":"4","last_reported":1729851025,"current_range_meters":38800,"station_id":"ce4bgs12rcd13ifvqcag","pricing_plan_id":"cebpf4jnsgd1na2vs0mg"},{"bike_id":"be8fbca4-3dcd-4e0e-96d2-8c570f59713c","system_id":"levelo_inurba_marseille","lat":43.32482,"lon":5.36563,"is_reserved":false,"is_disabled":false,"rental_uris":{"android":"levelo://app?vid=be8fbca4-3dcd-4e0e-96d2-8c570f59713c","ios":"levelo://app?vid=be8fbca4-3dcd-4e0e-96d2-8c570f59713c"},"vehicle_type_id":"4","last_reported":1729851025,"current_range_meters":19600,"station_id":"ce4bhs12rcd13ifvqhvg","pricing_plan_id":"cebpf4jnsgd1na2vs0mg"},{"bike_id":"2c83906e-34b2-4de1-a842-6d257980343c","system_id":"levelo_inurba_marseille","lat":43.32354,"lon":5.38894,"is_reserved":false,"is_disabled":false,"rental_uris":{"android":"levelo://app?vid=2c83906e-34b2-4de1-a842-6d257980343c","ios":"levelo://app?vid=2c83906e-34b2-4de1-a842-6d257980343c"},"vehicle_type_id":"4","last_reported":1729851025,"current_range_meters":14000,"station_id":"ce4bhqp2rcd13ifvqhog","pricing_plan_id":"cebpf4jnsgd1na2vs0mg"},{"bike_id":"d33aebfb-5cc9-4c69-8eb6-238a0faa6400","system_id":"levelo_inurba_marseille","lat":43.30432,"lon":5.38896,"is_reserved":false,"is_disabled":false,"rental_uris":{"android":"levelo://app?vid=d33aebfb-5cc9-4c69-8eb6-238a0faa6400","ios":"levelo://app?vid=d33aebfb-5cc9-4c69-8eb6-238a0faa6400"},"vehicle_type_id":"4","last_reported":1729851025,"current_range_meters":26800,"station_id":"ce4bgk12rcd13ifvqbi0","pricing_plan_id":"cebpf4jnsgd1na2vs0mg"},{"bike_id":"cf28c0ba-748d-4e8a-b8af-61e44f800fb1","system_id":"levelo_inurba_marseille","lat":43.2439,"lon":5.37065,"is_reserved":false,"is_disabled":false,"rental_uris":{"android":"levelo://app?vid=cf28c0ba-748d-4e8a-b8af-61e44f800fb1","ios":"levelo://app?vid=cf28c0ba-748d-4e8a-b8af-61e44f800fb1"},"vehicle_type_id":"4","last_reported":1729851025,"current_range_meters":5600,"station_id":"ce4bhhh2rcd13ifvqfk0","pricing_plan_id":"cebpf4jnsgd1na2vs0mg"},{"bike_id":"b1fd8f3d-8f3f-473e-9a0d-e7667cecfd06","system_id":"levelo_inurba_marseille","lat":43.28103,"lon":5.37833,"is_reserved":false,"is_disabled":false,"rental_uris":{"android":"levelo://app?vid=b1fd8f3d-8f3f-473e-9a0d-e7667cecfd06","ios":"levelo://app?vid=b1fd8f3d-8f3f-473e-9a0d-e7667cecfd06"},"vehicle_type_id":"4","last_reported":1729851025,"current_range_meters":20400,"station_id":"ce4bha12rcd13ifvqee0","pricing_plan_id":"cebpf4jnsgd1na2vs0mg"},{"bike_id":"38f59f94-9662-4434-83cb-1b3a202f011c","system_id":"levelo_inurba_marseille","lat":43.29227,"lon":5.36068,"is_reserved":false,"is_disabled":false,"rental_uris":{"android":"levelo://app?vid=38f59f94-9662-4434-83cb-1b3a202f011c","ios":"levelo://app?vid=38f59f94-9662-4434-83cb-1b3a202f011c"},"vehicle_type_id":"4","last_reported":1729851025,"current_range_meters":28000,"station_id":"ce4bhbh2rcd13ifvqeqg","pricing_plan_id":"cebpf4jnsgd1na2vs0mg"},{"bike_id":"265b1520-2fac-4cac-ad5d-1e76bac410f4","system_id":"levelo_inurba_marseille","lat":43.26553,"lon":5.37287,"is_reserved":false,"is_disabled":false,"rental_uris":{"android":"levelo://app?vid=265b1520-2fac-4cac-ad5d-1e76bac410f4","ios":"levelo://app?vid=265b1520-2fac-4cac-ad5d-1e76bac410f4"},"vehicle_type_id":"4","last_reported":1729851025,"current_range_meters":20800,"station_id":"ce4bhg12rcd13ifvqf70","pricing_plan_id":"cebpf4jnsgd1na2vs0mg"},{"bike_id":"82d8898e-e94c-47af-b02a-d946261e7001","system_id":"levelo_inurba_marseille","lat":43.31712,"lon":5.37756,"is_reserved":false,"is_disabled":false,"rental_uris":{"android":"levelo://app?vid=82d8898e-e94c-47af-b02a-d946261e7001","ios":"levelo://app?vid=82d8898e-e94c-47af-b02a-d946261e7001"},"vehicle_type_id":"4","last_reported":1729851025,"current_range_meters":38800,"station_id":"ce4bgth2rcd13ifvqch0","pricing_plan_id":"cebpf4jnsgd1na2vs0mg"},{"bike_id":"34d03911-5536-49e3-910d-97a7e3750c02","system_id":"levelo_inurba_marseille","lat":43.27314,"lon":5.39081,"is_reserved":false,"is_disabled":false,"rental_uris":{"android":"levelo://app?vid=34d03911-5536-49e3-910d-97a7e3750c02","ios":"levelo://app?vid=34d03911-5536-49e3-910d-97a7e3750c02"},"vehicle_type_id":"4","last_reported":1729851025,"current_range_meters":32400,"station_id":"ce4bhgp2rcd13ifvqfe0","pricing_plan_id":"cebpf4jnsgd1na2vs0mg"},{"bike_id":"4ad22b9e-ed83-40b4-9252-5f067305ff1a","system_id":"levelo_inurba_marseille","lat":43.27605,"lon":5.36125,"is_reserved":false,"is_disabled":false,"rental_uris":{"android":"levelo://app?vid=4ad22b9e-ed83-40b4-9252-5f067305ff1a","ios":"levelo://app?vid=4ad22b9e-ed83-40b4-9252-5f067305ff1a"},"vehicle_type_id":"4","last_reported":1729851025,"current_range_meters":34800,"station_id":"ce4bgj92rcd13ifvqbe0","pricing_plan_id":"cebpf4jnsgd1na2vs0mg"},{"bike_id":"0a290f7d-8c09-49fa-bb24-ef57005affe4","system_id":"levelo_inurba_marseille","lat":43.3014,"lon":5.37414,"is_reserved":false,"is_disabled":false,"rental_uris":{"android":"levelo://app?vid=0a290f7d-8c09-49fa-bb24-ef57005affe4","ios":"levelo://app?vid=0a290f7d-8c09-49fa-bb24-ef57005affe4"},"vehicle_type_id":"4","last_reported":1729851025,"current_range_meters":22000,"station_id":"ce4bgs92rcd13ifvqcc0","pricing_plan_id":"cebpf4jnsgd1na2vs0mg"},{"bike_id":"6f820fd5-7f57-4c04-9601-efc0f344f7fa","system_id":"levelo_inurba_marseille","lat":43.29065,"lon":5.37151,"is_reserved":false,"is_disabled":false,"rental_uris":{"android":"levelo://app?vid=6f820fd5-7f57-4c04-9601-efc0f344f7fa","ios":"levelo://app?vid=6f820fd5-7f57-4c04-9601-efc0f344f7fa"},"vehicle_type_id":"4","last_reported":1729851025,"current_range_meters":38800,"station_id":"ce4bh5p2rcd13ifvqe4g","pricing_plan_id":"cebpf4jnsgd1na2vs0mg"},{"bike_id":"beacce13-cfcb-4737-a324-ad3de89dd7fd","system_id":"levelo_inurba_marseille","lat":43.25002,"lon":5.38922,"is_reserved":false,"is_disabled":false,"rental_uris":{"android":"levelo://app?vid=beacce13-cfcb-4737-a324-ad3de89dd7fd","ios":"levelo://app?vid=beacce13-cfcb-4737-a324-ad3de89dd7fd"},"vehicle_type_id":"4","last_reported":1729851025,"current_range_meters":32000,"station_id":"ce4bhgp2rcd13ifvqfd0","pricing_plan_id":"cebpf4jnsgd1na2vs0mg"},{"bike_id":"ae420247-be34-4acd-b34e-c9e334d2f615","system_id":"levelo_inurba_marseille","lat":43.29097,"lon":5.3812,"is_reserved":false,"is_disabled":false,"rental_uris":{"android":"levelo://app?vid=ae420247-be34-4acd-b34e-c9e334d2f615","ios":"levelo://app?vid=ae420247-be34-4acd-b34e-c9e334d2f615"},"vehicle_type_id":"4","last_reported":1729851025,"current_range_meters":36000,"station_id":"ce4bh512rcd13ifvqe2g","pricing_plan_id":"cebpf4jnsgd1na2vs0mg"},{"bike_id":"f0b863c8-76f9-4f06-a6ca-be71cfa200a0","system_id":"levelo_inurba_marseille","lat":43.29257,"lon":5.40901,"is_reserved":false,"is_disabled":false,"rental_uris":{"android":"levelo://app?vid=f0b863c8-76f9-4f06-a6ca-be71cfa200a0","ios":"levelo://app?vid=f0b863c8-76f9-4f06-a6ca-be71cfa200a0"},"vehicle_type_id":"4","last_reported":1729851025,"current_range_meters":38800,"station_id":"ce4bh192rcd13ifvqdc0","pricing_plan_id":"cebpf4jnsgd1na2vs0mg"},{"bike_id":"47dc4271-d82f-46d3-a4ac-2d0aa82174df","system_id":"levelo_inurba_marseille","lat":43.30552,"lon":5.36527,"is_reserved":false,"is_disabled":false,"rental_uris":{"android":"levelo://app?vid=47dc4271-d82f-46d3-a4ac-2d0aa82174df","ios":"levelo://app?vid=47dc4271-d82f-46d3-a4ac-2d0aa82174df"},"vehicle_type_id":"4","last_reported":1729851025,"current_range_meters":38800,"station_id":"ce4bgs12rcd13ifvqcag","pricing_plan_id":"cebpf4jnsgd1na2vs0mg"},{"bike_id":"96000a0b-48db-4bc4-a180-2fd212632eef","system_id":"levelo_inurba_marseille","lat":43.296112,"lon":5.381705,"is_reserved":false,"is_disabled":false,"rental_uris":{"android":"levelo://app?vid=96000a0b-48db-4bc4-a180-2fd212632eef","ios":"levelo://app?vid=96000a0b-48db-4bc4-a180-2fd212632eef"},"vehicle_type_id":"4","last_reported":1729851025,"current_range_meters":25600,"station_id":"ce4bgr92rcd13ifvqc7g","pricing_plan_id":"cebpf4jnsgd1na2vs0mg"},{"bike_id":"6cb0d09c-4434-41fe-bab7-3f2ab7b0ac84","system_id":"levelo_inurba_marseille","lat":43.23055,"lon":5.35495,"is_reserved":false,"is_disabled":false,"rental_uris":{"android":"levelo://app?vid=6cb0d09c-4434-41fe-bab7-3f2ab7b0ac84","ios":"levelo://app?vid=6cb0d09c-4434-41fe-bab7-3f2ab7b0ac84"},"vehicle_type_id":"4","last_reported":1729851025,"current_range_meters":22800,"station_id":"cpo3342slgdg3j2ifvpg","pricing_plan_id":"cebpf4jnsgd1na2vs0mg"},{"bike_id":"b85af3b3-7a60-4c70-a2e1-012a71c6422b","system_id":"levelo_inurba_marseille","lat":43.25932,"lon":5.40916,"is_reserved":false,"is_disabled":false,"rental_uris":{"android":"levelo://app?vid=b85af3b3-7a60-4c70-a2e1-012a71c6422b","ios":"levelo://app?vid=b85af3b3-7a60-4c70-a2e1-012a71c6422b"},"vehicle_type_id":"4","last_reported":1729851025,"current_range_meters":14000,"station_id":"ce4bhm92rcd13ifvqglg","pricing_plan_id":"cebpf4jnsgd1na2vs0mg"},{"bike_id":"157b85d9-82c7-4dc7-937e-26c44eacdbb4","system_id":"levelo_inurba_marseille","lat":43.3095,"lon":5.39052,"is_reserved":false,"is_disabled":false,"rental_uris":{"android":"levelo://app?vid=157b85d9-82c7-4dc7-937e-26c44eacdbb4","ios":"levelo://app?vid=157b85d9-82c7-4dc7-937e-26c44eacdbb4"},"vehicle_type_id":"4","last_reported":1729851025,"current_range_meters":38800,"station_id":"ce4bgup2rcd13ifvqco0","pricing_plan_id":"cebpf4jnsgd1na2vs0mg"},{"bike_id":"21f73740-65b7-49c2-90b3-fb344edc8fd6","system_id":"levelo_inurba_marseille","lat":43.29569,"lon":5.3998,"is_reserved":false,"is_disabled":false,"rental_uris":{"android":"levelo://app?vid=21f73740-65b7-49c2-90b3-fb344edc8fd6","ios":"levelo://app?vid=21f73740-65b7-49c2-90b3-fb344edc8fd6"},"vehicle_type_id":"4","last_reported":1729851025,"current_range_meters":5600,"station_id":"ce4bh312rcd13ifvqdj0","pricing_plan_id":"cebpf4jnsgd1na2vs0mg"},{"bike_id":"661e62a9-af33-4796-bf88-bdb0e3140103","system_id":"levelo_inurba_marseille","lat":43.28854,"lon":5.35853,"is_reserved":false,"is_disabled":false,"rental_uris":{"android":"levelo://app?vid=661e62a9-af33-4796-bf88-bdb0e3140103","ios":"levelo://app?vid=661e62a9-af33-4796-bf88-bdb0e3140103"},"vehicle_type_id":"4","last_reported":1729851025,"current_range_meters":38800,"station_id":"ce4bhb12rcd13ifvqem0","pricing_plan_id":"cebpf4jnsgd1na2vs0mg"},{"bike_id":"108c0296-d49a-4500-a655-9dc6be1eb554","system_id":"levelo_inurba_marseille","lat":43.2695,"lon":5.38636,"is_reserved":false,"is_disabled":false,"rental_uris":{"android":"levelo://app?vid=108c0296-d49a-4500-a655-9dc6be1eb554","ios":"levelo://app?vid=108c0296-d49a-4500-a655-9dc6be1eb554"},"vehicle_type_id":"4","last_reported":1729851025,"current_range_meters":38800,"station_id":"ce4bhh92rcd13ifvqfh0","pricing_plan_id":"cebpf4jnsgd1na2vs0mg"},{"bike_id":"6b5a2cb3-8d86-495e-bbb3-078458662957","system_id":"levelo_inurba_marseille","lat":43.2844,"lon":5.39195,"is_reserved":false,"is_disabled":false,"rental_uris":{"android":"levelo://app?vid=6b5a2cb3-8d86-495e-bbb3-078458662957","ios":"levelo://app?vid=6b5a2cb3-8d86-495e-bbb3-078458662957"},"vehicle_type_id":"4","last_reported":1729851025,"current_range_meters":38800,"station_id":"ce4bhoh2rcd13ifvqh5g","pricing_plan_id":"cebpf4jnsgd1na2vs0mg"},{"bike_id":"f9127f7b-7c52-4997-b73f-3dc75b596a9c","system_id":"levelo_inurba_marseille","lat":43.34145,"lon":5.40902,"is_reserved":false,"is_disabled":false,"rental_uris":{"android":"levelo://app?vid=f9127f7b-7c52-4997-b73f-3dc75b596a9c","ios":"levelo://app?vid=f9127f7b-7c52-4997-b73f-3dc75b596a9c"},"vehicle_type_id":"4","last_reported":1729851025,"current_range_meters":38800,"station_id":"ce4bhqh2rcd13ifvqhlg","pricing_plan_id":"cebpf4jnsgd1na2vs0mg"},{"bike_id":"7a45ee8e-51ea-4fea-b508-fb8e1416e95e","system_id":"levelo_inurba_marseille","lat":43.3021,"lon":5.39462,"is_reserved":false,"is_disabled":false,"rental_uris":{"android":"levelo://app?vid=7a45ee8e-51ea-4fea-b508-fb8e1416e95e","ios":"levelo://app?vid=7a45ee8e-51ea-4fea-b508-fb8e1416e95e"},"vehicle_type_id":"4","last_reported":1729851025,"current_range_meters":38800,"station_id":"ce4bh0p2rcd13ifvqd70","pricing_plan_id":"cebpf4jnsgd1na2vs0mg"},{"bike_id":"4468208d-a0a9-4302-976f-4b7d3cc8f418","system_id":"levelo_inurba_marseille","lat":43.26205,"lon":5.37931,"is_reserved":false,"is_disabled":false,"rental_uris":{"android":"levelo://app?vid=4468208d-a0a9-4302-976f-4b7d3cc8f418","ios":"levelo://app?vid=4468208d-a0a9-4302-976f-4b7d3cc8f418"},"vehicle_type_id":"4","last_reported":1729851025,"current_range_meters":39200,"station_id":"ce4bhjp2rcd13ifvqg90","pricing_plan_id":"cebpf4jnsgd1na2vs0mg"},{"bike_id":"7ebc9bdb-d16d-4077-bbd0-ac0bc6127ef4","system_id":"levelo_inurba_marseille","lat":43.30546,"lon":5.3671,"is_reserved":false,"is_disabled":false,"rental_uris":{"android":"levelo://app?vid=7ebc9bdb-d16d-4077-bbd0-ac0bc6127ef4","ios":"levelo://app?vid=7ebc9bdb-d16d-4077-bbd0-ac0bc6127ef4"},"vehicle_type_id":"4","last_reported":1729851025,"current_range_meters":18000,"station_id":"ce4bgrp2rcd13ifvqc9g","pricing_plan_id":"cebpf4jnsgd1na2vs0mg"},{"bike_id":"6e2598ac-0fbf-493a-9031-5b061e5ab2d3","system_id":"levelo_inurba_marseille","lat":43.29567,"lon":5.37514,"is_reserved":false,"is_disabled":false,"rental_uris":{"android":"levelo://app?vid=6e2598ac-0fbf-493a-9031-5b061e5ab2d3","ios":"levelo://app?vid=6e2598ac-0fbf-493a-9031-5b061e5ab2d3"},"vehicle_type_id":"4","last_reported":1729851025,"current_range_meters":36400,"station_id":"ce4bgh92rcd13ifvqb50","pricing_plan_id":"cebpf4jnsgd1na2vs0mg"},{"bike_id":"079f133f-06e4-426a-a83a-fbdba1ec2530","system_id":"levelo_inurba_marseille","lat":43.273193,"lon":5.39105,"is_reserved":false,"is_disabled":false,"rental_uris":{"android":"levelo://app?vid=079f133f-06e4-426a-a83a-fbdba1ec2530","ios":"levelo://app?vid=079f133f-06e4-426a-a83a-fbdba1ec2530"},"vehicle_type_id":"4","last_reported":1729851025,"current_range_meters":30400,"station_id":"ce4bhgp2rcd13ifvqfe0","pricing_plan_id":"cebpf4jnsgd1na2vs0mg"},{"bike_id":"ec704ecc-fb19-4944-a166-51d2af2a0dbf","system_id":"levelo_inurba_marseille","lat":43.32106,"lon":5.36776,"is_reserved":false,"is_disabled":false,"rental_uris":{"android":"levelo://app?vid=ec704ecc-fb19-4944-a166-51d2af2a0dbf","ios":"levelo://app?vid=ec704ecc-fb19-4944-a166-51d2af2a0dbf"},"vehicle_type_id":"4","last_reported":1729851025,"current_range_meters":16400,"station_id":"ce4bhrh2rcd13ifvqhug","pricing_plan_id":"cebpf4jnsgd1na2vs0mg"},{"bike_id":"18295cba-459b-4864-bdc6-9405fe3604b3","system_id":"levelo_inurba_marseille","lat":43.3248,"lon":5.36549,"is_reserved":false,"is_disabled":false,"rental_uris":{"android":"levelo://app?vid=18295cba-459b-4864-bdc6-9405fe3604b3","ios":"levelo://app?vid=18295cba-459b-4864-bdc6-9405fe3604b3"},"vehicle_type_id":"4","last_reported":1729851025,"current_range_meters":30000,"station_id":"ce4bhs12rcd13ifvqhvg","pricing_plan_id":"cebpf4jnsgd1na2vs0mg"},{"bike_id":"cbe83600-d3d4-47cf-a8e7-33e68c43cc90","system_id":"levelo_inurba_marseille","lat":43.26946,"lon":5.38631,"is_reserved":false,"is_disabled":false,"rental_uris":{"android":"levelo://app?vid=cbe83600-d3d4-47cf-a8e7-33e68c43cc90","ios":"levelo://app?vid=cbe83600-d3d4-47cf-a8e7-33e68c43cc90"},"vehicle_type_id":"4","last_reported":1729851025,"current_range_meters":37600,"station_id":"ce4bhh92rcd13ifvqfh0","pricing_plan_id":"cebpf4jnsgd1na2vs0mg"},{"bike_id":"2a1e2e86-9935-4b9e-96fe-6f39bbcdc99a","system_id":"levelo_inurba_marseille","lat":43.26554,"lon":5.39011,"is_reserved":false,"is_disabled":false,"rental_uris":{"android":"levelo://app?vid=2a1e2e86-9935-4b9e-96fe-6f39bbcdc99a","ios":"levelo://app?vid=2a1e2e86-9935-4b9e-96fe-6f39bbcdc99a"},"vehicle_type_id":"4","last_reported":1729851025,"current_range_meters":28000,"station_id":"ce4bhe12rcd13ifvqf30","pricing_plan_id":"cebpf4jnsgd1na2vs0mg"},{"bike_id":"e25afe84-1b81-4ad0-89f2-0e3ca3c9dbb7","system_id":"levelo_inurba_marseille","lat":43.30546,"lon":5.36706,"is_reserved":false,"is_disabled":false,"rental_uris":{"android":"levelo://app?vid=e25afe84-1b81-4ad0-89f2-0e3ca3c9dbb7","ios":"levelo://app?vid=e25afe84-1b81-4ad0-89f2-0e3ca3c9dbb7"},"vehicle_type_id":"4","last_reported":1729851025,"current_range_meters":16000,"station_id":"ce4bgrp2rcd13ifvqc9g","pricing_plan_id":"cebpf4jnsgd1na2vs0mg"},{"bike_id":"33246fba-e266-41ce-8dbf-069abfde1f2c","system_id":"levelo_inurba_marseille","lat":43.3014,"lon":5.37419,"is_reserved":false,"is_disabled":false,"rental_uris":{"android":"levelo://app?vid=33246fba-e266-41ce-8dbf-069abfde1f2c","ios":"levelo://app?vid=33246fba-e266-41ce-8dbf-069abfde1f2c"},"vehicle_type_id":"4","last_reported":1729851025,"current_range_meters":18000,"station_id":"ce4bgs92rcd13ifvqcc0","pricing_plan_id":"cebpf4jnsgd1na2vs0mg"},{"bike_id":"db7923ba-818e-46b0-9b0c-6f1d91028a36","system_id":"levelo_inurba_marseille","lat":43.29712,"lon":5.36606,"is_reserved":false,"is_disabled":false,"rental_uris":{"android":"levelo://app?vid=db7923ba-818e-46b0-9b0c-6f1d91028a36","ios":"levelo://app?vid=db7923ba-818e-46b0-9b0c-6f1d91028a36"},"vehicle_type_id":"4","last_reported":1729851025,"current_range_meters":9200,"station_id":"ce4bgn12rcd13ifvqbt0","pricing_plan_id":"cebpf4jnsgd1na2vs0mg"},{"bike_id":"1c94711f-6e8d-4080-84e2-4aabc2656ca2","system_id":"levelo_inurba_marseille","lat":43.3133,"lon":5.397,"is_reserved":false,"is_disabled":false,"rental_uris":{"android":"levelo://app?vid=1c94711f-6e8d-4080-84e2-4aabc2656ca2","ios":"levelo://app?vid=1c94711f-6e8d-4080-84e2-4aabc2656ca2"},"vehicle_type_id":"4","last_reported":1729851025,"current_range_meters":38000,"station_id":"ce4bgvp2rcd13ifvqcu0","pricing_plan_id":"cebpf4jnsgd1na2vs0mg"},{"bike_id":"6dc495b7-34c5-4379-aab1-e54f4c9868dd","system_id":"levelo_inurba_marseille","lat":43.33607,"lon":5.41035,"is_reserved":false,"is_disabled":false,"rental_uris":{"android":"levelo://app?vid=6dc495b7-34c5-4379-aab1-e54f4c9868dd","ios":"levelo://app?vid=6dc495b7-34c5-4379-aab1-e54f4c9868dd"},"vehicle_type_id":"4","last_reported":1729851025,"current_range_meters":24400,"station_id":"ce4bhqh2rcd13ifvqhmg","pricing_plan_id":"cebpf4jnsgd1na2vs0mg"},{"bike_id":"add85029-229b-4334-a3b9-2dde680cb793","system_id":"levelo_inurba_marseille","lat":43.27998,"lon":5.40007,"is_reserved":false,"is_disabled":false,"rental_uris":{"android":"levelo://app?vid=add85029-229b-4334-a3b9-2dde680cb793","ios":"levelo://app?vid=add85029-229b-4334-a3b9-2dde680cb793"},"vehicle_type_id":"4","last_reported":1729851025,"current_range_meters":23200,"station_id":"ce4bho92rcd13ifvqh4g","pricing_plan_id":"cebpf4jnsgd1na2vs0mg"},{"bike_id":"d06771bb-57ea-49ee-901e-35df6e68eca6","system_id":"levelo_inurba_marseille","lat":43.32659,"lon":5.40988,"is_reserved":false,"is_disabled":false,"rental_uris":{"android":"levelo://app?vid=d06771bb-57ea-49ee-901e-35df6e68eca6","ios":"levelo://app?vid=d06771bb-57ea-49ee-901e-35df6e68eca6"},"vehicle_type_id":"4","last_reported":1729851025,"current_range_meters":8400,"station_id":"ce4bhpp2rcd13ifvqhgg","pricing_plan_id":"cebpf4jnsgd1na2vs0mg"},{"bike_id":"ea49dcab-794a-4bda-8247-77371dad772a","system_id":"levelo_inurba_marseille","lat":43.30956,"lon":5.39046,"is_reserved":false,"is_disabled":false,"rental_uris":{"android":"levelo://app?vid=ea49dcab-794a-4bda-8247-77371dad772a","ios":"levelo://app?vid=ea49dcab-794a-4bda-8247-77371dad772a"},"vehicle_type_id":"4","last_reported":1729851025,"current_range_meters":24400,"station_id":"ce4bgup2rcd13ifvqco0","pricing_plan_id":"cebpf4jnsgd1na2vs0mg"},{"bike_id":"9c980766-3696-42be-8e1a-d22fb6edb5c5","system_id":"levelo_inurba_marseille","lat":43.30652,"lon":5.38107,"is_reserved":false,"is_disabled":false,"rental_uris":{"android":"levelo://app?vid=9c980766-3696-42be-8e1a-d22fb6edb5c5","ios":"levelo://app?vid=9c980766-3696-42be-8e1a-d22fb6edb5c5"},"vehicle_type_id":"4","last_reported":1729851025,"current_range_meters":39200,"station_id":"","pricing_plan_id":"cebpf4jnsgd1na2vs0mg"},{"bike_id":"6fd4971a-db3f-4826-9ddf-71b29c3b9231","system_id":"levelo_inurba_marseille","lat":43.27809,"lon":5.40723,"is_reserved":false,"is_disabled":false,"rental_uris":{"android":"levelo://app?vid=6fd4971a-db3f-4826-9ddf-71b29c3b9231","ios":"levelo://app?vid=6fd4971a-db3f-4826-9ddf-71b29c3b9231"},"vehicle_type_id":"4","last_reported":1729851025,"current_range_meters":14400,"station_id":"ce4bhnh2rcd13ifvqgtg","pricing_plan_id":"cebpf4jnsgd1na2vs0mg"},{"bike_id":"f9ec36ed-f1e8-4d39-a330-d53d339322cc","system_id":"levelo_inurba_marseille","lat":43.24943,"lon":5.39736,"is_reserved":false,"is_disabled":false,"rental_uris":{"android":"levelo://app?vid=f9ec36ed-f1e8-4d39-a330-d53d339322cc","ios":"levelo://app?vid=f9ec36ed-f1e8-4d39-a330-d53d339322cc"},"vehicle_type_id":"4","last_reported":1729851025,"current_range_meters":17600,"station_id":"","pricing_plan_id":"cebpf4jnsgd1na2vs0mg"},{"bike_id":"754334dc-7c77-42cd-ae7c-2bd7ea4eeedc","system_id":"levelo_inurba_marseille","lat":43.25086,"lon":5.39517,"is_reserved":false,"is_disabled":false,"rental_uris":{"android":"levelo://app?vid=754334dc-7c77-42cd-ae7c-2bd7ea4eeedc","ios":"levelo://app?vid=754334dc-7c77-42cd-ae7c-2bd7ea4eeedc"},"vehicle_type_id":"4","last_reported":1729851025,"current_range_meters":27600,"station_id":"ce4bhm12rcd13ifvqgkg","pricing_plan_id":"cebpf4jnsgd1na2vs0mg"},{"bike_id":"bb92667b-e871-4c4e-abca-c11040fd4cbc","system_id":"levelo_inurba_marseille","lat":43.30133,"lon":5.38778,"is_reserved":false,"is_disabled":false,"rental_uris":{"android":"levelo://app?vid=bb92667b-e871-4c4e-abca-c11040fd4cbc","ios":"levelo://app?vid=bb92667b-e871-4c4e-abca-c11040fd4cbc"},"vehicle_type_id":"4","last_reported":1729851025,"current_range_meters":24000,"station_id":"ce4bghh2rcd13ifvqb60","pricing_plan_id":"cebpf4jnsgd1na2vs0mg"},{"bike_id":"21b771f5-e12c-4d5b-be50-280d4e6da9bd","system_id":"levelo_inurba_marseille","lat":43.26684,"lon":5.38267,"is_reserved":false,"is_disabled":false,"rental_uris":{"android":"levelo://app?vid=21b771f5-e12c-4d5b-be50-280d4e6da9bd","ios":"levelo://app?vid=21b771f5-e12c-4d5b-be50-280d4e6da9bd"},"vehicle_type_id":"4","last_reported":1729851025,"current_range_meters":25200,"station_id":"ce4bhg92rcd13ifvqf90","pricing_plan_id":"cebpf4jnsgd1na2vs0mg"},{"bike_id":"9547fe9f-7da9-478b-9033-f446ea71bb69","system_id":"levelo_inurba_marseille","lat":43.31076,"lon":5.42437,"is_reserved":false,"is_disabled":false,"rental_uris":{"android":"levelo://app?vid=9547fe9f-7da9-478b-9033-f446ea71bb69","ios":"levelo://app?vid=9547fe9f-7da9-478b-9033-f446ea71bb69"},"vehicle_type_id":"4","last_reported":1729851025,"current_range_meters":37600,"station_id":"ce4bhp92rcd13ifvqhag","pricing_plan_id":"cebpf4jnsgd1na2vs0mg"},{"bike_id":"998825e5-2e6e-4a68-bad6-c8d6020043fe","system_id":"levelo_inurba_marseille","lat":43.27058,"lon":5.40255,"is_reserved":false,"is_disabled":false,"rental_uris":{"android":"levelo://app?vid=998825e5-2e6e-4a68-bad6-c8d6020043fe","ios":"levelo://app?vid=998825e5-2e6e-4a68-bad6-c8d6020043fe"},"vehicle_type_id":"4","last_reported":1729851025,"current_range_meters":27200,"station_id":"ce4bhk92rcd13ifvqgc0","pricing_plan_id":"cebpf4jnsgd1na2vs0mg"},{"bike_id":"aa2296b3-9e48-4eb8-8736-02ee29db4f53","system_id":"levelo_inurba_marseille","lat":43.3028,"lon":5.37693,"is_reserved":false,"is_disabled":false,"rental_uris":{"android":"levelo://app?vid=aa2296b3-9e48-4eb8-8736-02ee29db4f53","ios":"levelo://app?vid=aa2296b3-9e48-4eb8-8736-02ee29db4f53"},"vehicle_type_id":"4","last_reported":1729851025,"current_range_meters":39200,"station_id":"ce4bguh2rcd13ifvqcj0","pricing_plan_id":"cebpf4jnsgd1na2vs0mg"},{"bike_id":"feda9bc1-b886-4640-ad92-201ddc16513e","system_id":"levelo_inurba_marseille","lat":43.32289,"lon":5.38257,"is_reserved":false,"is_disabled":false,"rental_uris":{"android":"levelo://app?vid=feda9bc1-b886-4640-ad92-201ddc16513e","ios":"levelo://app?vid=feda9bc1-b886-4640-ad92-201ddc16513e"},"vehicle_type_id":"4","last_reported":1729851025,"current_range_meters":38800,"station_id":"ce4bhr12rcd13ifvqhqg","pricing_plan_id":"cebpf4jnsgd1na2vs0mg"},{"bike_id":"efe0b02e-9dcd-4192-8f41-25a0bf494636","system_id":"levelo_inurba_marseille","lat":43.32479,"lon":5.36557,"is_reserved":false,"is_disabled":false,"rental_uris":{"android":"levelo://app?vid=efe0b02e-9dcd-4192-8f41-25a0bf494636","ios":"levelo://app?vid=efe0b02e-9dcd-4192-8f41-25a0bf494636"},"vehicle_type_id":"4","last_reported":1729851025,"current_range_meters":3600,"station_id":"ce4bhs12rcd13ifvqhvg","pricing_plan_id":"cebpf4jnsgd1na2vs0mg"},{"bike_id":"83813a32-8aaa-45b9-93e9-eb6e5eeb7b78","system_id":"levelo_inurba_marseille","lat":43.28481,"lon":5.38551,"is_reserved":false,"is_disabled":false,"rental_uris":{"android":"levelo://app?vid=83813a32-8aaa-45b9-93e9-eb6e5eeb7b78","ios":"levelo://app?vid=83813a32-8aaa-45b9-93e9-eb6e5eeb7b78"},"vehicle_type_id":"4","last_reported":1729851025,"current_range_meters":38800,"station_id":"ce4bh8p2rcd13ifvqeb0","pricing_plan_id":"cebpf4jnsgd1na2vs0mg"},{"bike_id":"a6372292-563d-4771-a01d-bf6771d8264b","system_id":"levelo_inurba_marseille","lat":43.29845,"lon":5.36276,"is_reserved":false,"is_disabled":false,"rental_uris":{"android":"levelo://app?vid=a6372292-563d-4771-a01d-bf6771d8264b","ios":"levelo://app?vid=a6372292-563d-4771-a01d-bf6771d8264b"},"vehicle_type_id":"4","last_reported":1729851025,"current_range_meters":14000,"station_id":"ce4bgpp2rcd13ifvqc3g","pricing_plan_id":"cebpf4jnsgd1na2vs0mg"},{"bike_id":"212337c5-c27c-4ce8-a37e-735a2e6c27ae","system_id":"levelo_inurba_marseille","lat":43.31709,"lon":5.37761,"is_reserved":false,"is_disabled":false,"rental_uris":{"android":"levelo://app?vid=212337c5-c27c-4ce8-a37e-735a2e6c27ae","ios":"levelo://app?vid=212337c5-c27c-4ce8-a37e-735a2e6c27ae"},"vehicle_type_id":"4","last_reported":1729851025,"current_range_meters":38800,"station_id":"ce4bgth2rcd13ifvqch0","pricing_plan_id":"cebpf4jnsgd1na2vs0mg"},{"bike_id":"ac5d0c42-0a97-4b76-8e63-18c0f73df0c1","system_id":"levelo_inurba_marseille","lat":43.30547,"lon":5.36703,"is_reserved":false,"is_disabled":false,"rental_uris":{"android":"levelo://app?vid=ac5d0c42-0a97-4b76-8e63-18c0f73df0c1","ios":"levelo://app?vid=ac5d0c42-0a97-4b76-8e63-18c0f73df0c1"},"vehicle_type_id":"4","last_reported":1729851025,"current_range_meters":38800,"station_id":"ce4bgrp2rcd13ifvqc9g","pricing_plan_id":"cebpf4jnsgd1na2vs0mg"},{"bike_id":"b650c626-d421-431e-a73f-54b7f16f29b7","system_id":"levelo_inurba_marseille","lat":43.306129,"lon":5.39324,"is_reserved":false,"is_disabled":false,"rental_uris":{"android":"levelo://app?vid=b650c626-d421-431e-a73f-54b7f16f29b7","ios":"levelo://app?vid=b650c626-d421-431e-a73f-54b7f16f29b7"},"vehicle_type_id":"4","last_reported":1729851025,"current_range_meters":20800,"station_id":"ce4bh0p2rcd13ifvqd80","pricing_plan_id":"cebpf4jnsgd1na2vs0mg"},{"bike_id":"61eee6fa-5b8e-4081-a763-cb47ff01403e","system_id":"levelo_inurba_marseille","lat":43.30139,"lon":5.3743,"is_reserved":false,"is_disabled":false,"rental_uris":{"android":"levelo://app?vid=61eee6fa-5b8e-4081-a763-cb47ff01403e","ios":"levelo://app?vid=61eee6fa-5b8e-4081-a763-cb47ff01403e"},"vehicle_type_id":"4","last_reported":1729851025,"current_range_meters":36400,"station_id":"ce4bgs92rcd13ifvqcc0","pricing_plan_id":"cebpf4jnsgd1na2vs0mg"},{"bike_id":"000c9eb4-0f10-4dc6-84b2-7829018c9128","system_id":"levelo_inurba_marseille","lat":43.29186,"lon":5.35811,"is_reserved":false,"is_disabled":false,"rental_uris":{"android":"levelo://app?vid=000c9eb4-0f10-4dc6-84b2-7829018c9128","ios":"levelo://app?vid=000c9eb4-0f10-4dc6-84b2-7829018c9128"},"vehicle_type_id":"4","last_reported":1729851025,"current_range_meters":39200,"station_id":"ce4bhb12rcd13ifvqel0","pricing_plan_id":"cebpf4jnsgd1na2vs0mg"},{"bike_id":"33f3cd12-d731-4635-87bd-d537c8cccff6","system_id":"levelo_inurba_marseille","lat":43.23153,"lon":5.43711,"is_reserved":false,"is_disabled":false,"rental_uris":{"android":"levelo://app?vid=33f3cd12-d731-4635-87bd-d537c8cccff6","ios":"levelo://app?vid=33f3cd12-d731-4635-87bd-d537c8cccff6"},"vehicle_type_id":"4","last_reported":1729851025,"current_range_meters":33200,"station_id":"ce4bhmp2rcd13ifvqgog","pricing_plan_id":"cebpf4jnsgd1na2vs0mg"},{"bike_id":"bef79c7b-6150-4763-acf5-15940fe8d437","system_id":"levelo_inurba_marseille","lat":43.23153,"lon":5.43706,"is_reserved":false,"is_disabled":false,"rental_uris":{"android":"levelo://app?vid=bef79c7b-6150-4763-acf5-15940fe8d437","ios":"levelo://app?vid=bef79c7b-6150-4763-acf5-15940fe8d437"},"vehicle_type_id":"4","last_reported":1729851025,"current_range_meters":14800,"station_id":"ce4bhmp2rcd13ifvqgog","pricing_plan_id":"cebpf4jnsgd1na2vs0mg"},{"bike_id":"27f07749-69c9-4079-9dec-2b38276cccb0","system_id":"levelo_inurba_marseille","lat":43.23154,"lon":5.43704,"is_reserved":false,"is_disabled":false,"rental_uris":{"android":"levelo://app?vid=27f07749-69c9-4079-9dec-2b38276cccb0","ios":"levelo://app?vid=27f07749-69c9-4079-9dec-2b38276cccb0"},"vehicle_type_id":"4","last_reported":1729851025,"current_range_meters":38800,"station_id":"ce4bhmp2rcd13ifvqgog","pricing_plan_id":"cebpf4jnsgd1na2vs0mg"},{"bike_id":"7691659f-eea1-4b4d-8db5-2728fcde3a23","system_id":"levelo_inurba_marseille","lat":43.29386,"lon":5.37528,"is_reserved":false,"is_disabled":false,"rental_uris":{"android":"levelo://app?vid=7691659f-eea1-4b4d-8db5-2728fcde3a23","ios":"levelo://app?vid=7691659f-eea1-4b4d-8db5-2728fcde3a23"},"vehicle_type_id":"4","last_reported":1729851025,"current_range_meters":26800,"station_id":"ce4bhr12rcd13ifvqhqg","pricing_plan_id":"cebpf4jnsgd1na2vs0mg"},{"bike_id":"6e382b4c-da74-42bf-b0fb-edf99b9182c7","system_id":"levelo_inurba_marseille","lat":43.30541,"lon":5.3656,"is_reserved":false,"is_disabled":false,"rental_uris":{"android":"levelo://app?vid=6e382b4c-da74-42bf-b0fb-edf99b9182c7","ios":"levelo://app?vid=6e382b4c-da74-42bf-b0fb-edf99b9182c7"},"vehicle_type_id":"4","last_reported":1729851025,"current_range_meters":37600,"station_id":"ce4bgs12rcd13ifvqcag","pricing_plan_id":"cebpf4jnsgd1na2vs0mg"},{"bike_id":"25d7399c-85f4-4413-be85-4a3a66b590cf","system_id":"levelo_inurba_marseille","lat":43.30422,"lon":5.41277,"is_reserved":false,"is_disabled":false,"rental_uris":{"android":"levelo://app?vid=25d7399c-85f4-4413-be85-4a3a66b590cf","ios":"levelo://app?vid=25d7399c-85f4-4413-be85-4a3a66b590cf"},"vehicle_type_id":"4","last_reported":1729851025,"current_range_meters":38400,"station_id":"ce4bhop2rcd13ifvqh8g","pricing_plan_id":"cebpf4jnsgd1na2vs0mg"},{"bike_id":"e2443e77-46f2-4e2f-8089-bd6cd23c20a3","system_id":"levelo_inurba_marseille","lat":43.27204,"lon":5.39181,"is_reserved":false,"is_disabled":false,"rental_uris":{"android":"levelo://app?vid=e2443e77-46f2-4e2f-8089-bd6cd23c20a3","ios":"levelo://app?vid=e2443e77-46f2-4e2f-8089-bd6cd23c20a3"},"vehicle_type_id":"4","last_reported":1729851025,"current_range_meters":26800,"station_id":"ce4bhhp2rcd13ifvqfm0","pricing_plan_id":"cebpf4jnsgd1na2vs0mg"},{"bike_id":"5066a086-1066-40d1-9082-797e2d21a279","system_id":"levelo_inurba_marseille","lat":43.26939,"lon":5.38909,"is_reserved":false,"is_disabled":false,"rental_uris":{"android":"levelo://app?vid=5066a086-1066-40d1-9082-797e2d21a279","ios":"levelo://app?vid=5066a086-1066-40d1-9082-797e2d21a279"},"vehicle_type_id":"4","last_reported":1729851025,"current_range_meters":38000,"station_id":"ce4bhhh2rcd13ifvqfl0","pricing_plan_id":"cebpf4jnsgd1na2vs0mg"},{"bike_id":"f60c9e82-d1ec-4d84-b346-c7732145b9a3","system_id":"levelo_inurba_marseille","lat":43.29306,"lon":5.37179,"is_reserved":false,"is_disabled":false,"rental_uris":{"android":"levelo://app?vid=f60c9e82-d1ec-4d84-b346-c7732145b9a3","ios":"levelo://app?vid=f60c9e82-d1ec-4d84-b346-c7732145b9a3"},"vehicle_type_id":"4","last_reported":1729851025,"current_range_meters":22000,"station_id":"ce4bgh92rcd13ifvqb40","pricing_plan_id":"cebpf4jnsgd1na2vs0mg"},{"bike_id":"2ac1bd43-6fa2-4e6d-9fa1-d498ed8fe8ed","system_id":"levelo_inurba_marseille","lat":43.29033,"lon":5.37567,"is_reserved":false,"is_disabled":false,"rental_uris":{"android":"levelo://app?vid=2ac1bd43-6fa2-4e6d-9fa1-d498ed8fe8ed","ios":"levelo://app?vid=2ac1bd43-6fa2-4e6d-9fa1-d498ed8fe8ed"},"vehicle_type_id":"4","last_reported":1729851025,"current_range_meters":26800,"station_id":"ce4bh692rcd13ifvqe90","pricing_plan_id":"cebpf4jnsgd1na2vs0mg"},{"bike_id":"8e3ab978-e7af-4488-aa7a-b8d9f0ea2169","system_id":"levelo_inurba_marseille","lat":43.27618,"lon":5.36105,"is_reserved":false,"is_disabled":false,"rental_uris":{"android":"levelo://app?vid=8e3ab978-e7af-4488-aa7a-b8d9f0ea2169","ios":"levelo://app?vid=8e3ab978-e7af-4488-aa7a-b8d9f0ea2169"},"vehicle_type_id":"4","last_reported":1729851025,"current_range_meters":28800,"station_id":"ce4bgj92rcd13ifvqbe0","pricing_plan_id":"cebpf4jnsgd1na2vs0mg"},{"bike_id":"d860aaa7-af99-414c-a1da-6d614e23d88f","system_id":"levelo_inurba_marseille","lat":43.28924,"lon":5.38404,"is_reserved":false,"is_disabled":false,"rental_uris":{"android":"levelo://app?vid=d860aaa7-af99-414c-a1da-6d614e23d88f","ios":"levelo://app?vid=d860aaa7-af99-414c-a1da-6d614e23d88f"},"vehicle_type_id":"4","last_reported":1729851025,"current_range_meters":30400,"station_id":"ce4bh612rcd13ifvqe6g","pricing_plan_id":"cebpf4jnsgd1na2vs0mg"},{"bike_id":"581cf353-9289-40c2-980b-6fb84158a3a5","system_id":"levelo_inurba_marseille","lat":43.27969,"lon":5.38748,"is_reserved":false,"is_disabled":false,"rental_uris":{"android":"levelo://app?vid=581cf353-9289-40c2-980b-6fb84158a3a5","ios":"levelo://app?vid=581cf353-9289-40c2-980b-6fb84158a3a5"},"vehicle_type_id":"4","last_reported":1729851025,"current_range_meters":3600,"station_id":"ce4bhg12rcd13ifvqf80","pricing_plan_id":"cebpf4jnsgd1na2vs0mg"},{"bike_id":"b2abab08-9a8a-41c3-9da9-725fbf5fc847","system_id":"levelo_inurba_marseille","lat":43.25002,"lon":5.38925,"is_reserved":false,"is_disabled":false,"rental_uris":{"android":"levelo://app?vid=b2abab08-9a8a-41c3-9da9-725fbf5fc847","ios":"levelo://app?vid=b2abab08-9a8a-41c3-9da9-725fbf5fc847"},"vehicle_type_id":"4","last_reported":1729851025,"current_range_meters":35200,"station_id":"ce4bhgp2rcd13ifvqfd0","pricing_plan_id":"cebpf4jnsgd1na2vs0mg"},{"bike_id":"505f6071-9db3-44f4-9e37-26864e16b283","system_id":"levelo_inurba_marseille","lat":43.30299,"lon":5.36872,"is_reserved":false,"is_disabled":false,"rental_uris":{"android":"levelo://app?vid=505f6071-9db3-44f4-9e37-26864e16b283","ios":"levelo://app?vid=505f6071-9db3-44f4-9e37-26864e16b283"},"vehicle_type_id":"4","last_reported":1729851025,"current_range_meters":24800,"station_id":"ce4bgqh2rcd13ifvqc5g","pricing_plan_id":"cebpf4jnsgd1na2vs0mg"},{"bike_id":"66f020ae-5526-4ad0-8af9-6a968240ac52","system_id":"levelo_inurba_marseille","lat":43.32481,"lon":5.3657,"is_reserved":false,"is_disabled":false,"rental_uris":{"android":"levelo://app?vid=66f020ae-5526-4ad0-8af9-6a968240ac52","ios":"levelo://app?vid=66f020ae-5526-4ad0-8af9-6a968240ac52"},"vehicle_type_id":"4","last_reported":1729851025,"current_range_meters":38400,"station_id":"ce4bhs12rcd13ifvqhvg","pricing_plan_id":"cebpf4jnsgd1na2vs0mg"},{"bike_id":"6e490ada-941f-4a47-b70c-faae73b36f3c","system_id":"levelo_inurba_marseille","lat":43.24068,"lon":5.37757,"is_reserved":false,"is_disabled":false,"rental_uris":{"android":"levelo://app?vid=6e490ada-941f-4a47-b70c-faae73b36f3c","ios":"levelo://app?vid=6e490ada-941f-4a47-b70c-faae73b36f3c"},"vehicle_type_id":"4","last_reported":1729851025,"current_range_meters":28000,"station_id":"ce4bhnp2rcd13ifvqgvg","pricing_plan_id":"cebpf4jnsgd1na2vs0mg"},{"bike_id":"35e94745-dd9f-4662-a974-ea234f010053","system_id":"levelo_inurba_marseille","lat":43.31345,"lon":5.36736,"is_reserved":false,"is_disabled":false,"rental_uris":{"android":"levelo://app?vid=35e94745-dd9f-4662-a974-ea234f010053","ios":"levelo://app?vid=35e94745-dd9f-4662-a974-ea234f010053"},"vehicle_type_id":"4","last_reported":1729851025,"current_range_meters":38800,"station_id":"ce4bgr92rcd13ifvqc6g","pricing_plan_id":"cebpf4jnsgd1na2vs0mg"},{"bike_id":"a3f10d21-7449-4276-8648-3e0903574921","system_id":"levelo_inurba_marseille","lat":43.27321,"lon":5.39093,"is_reserved":false,"is_disabled":false,"rental_uris":{"android":"levelo://app?vid=a3f10d21-7449-4276-8648-3e0903574921","ios":"levelo://app?vid=a3f10d21-7449-4276-8648-3e0903574921"},"vehicle_type_id":"4","last_reported":1729851025,"current_range_meters":6800,"station_id":"ce4bhgp2rcd13ifvqfe0","pricing_plan_id":"cebpf4jnsgd1na2vs0mg"},{"bike_id":"38122be1-b892-4b87-9d9d-6bf46610af2c","system_id":"levelo_inurba_marseille","lat":43.29099,"lon":5.38141,"is_reserved":false,"is_disabled":false,"rental_uris":{"android":"levelo://app?vid=38122be1-b892-4b87-9d9d-6bf46610af2c","ios":"levelo://app?vid=38122be1-b892-4b87-9d9d-6bf46610af2c"},"vehicle_type_id":"4","last_reported":1729851025,"current_range_meters":12800,"station_id":"ce4bh512rcd13ifvqe2g","pricing_plan_id":"cebpf4jnsgd1na2vs0mg"},{"bike_id":"09e8d45d-8dcd-4de2-8f5e-75d68a578f7b","system_id":"levelo_inurba_marseille","lat":43.28703,"lon":5.39984,"is_reserved":false,"is_disabled":false,"rental_uris":{"android":"levelo://app?vid=09e8d45d-8dcd-4de2-8f5e-75d68a578f7b","ios":"levelo://app?vid=09e8d45d-8dcd-4de2-8f5e-75d68a578f7b"},"vehicle_type_id":"4","last_reported":1729851025,"current_range_meters":6400,"station_id":"ce4bho92rcd13ifvqh3g","pricing_plan_id":"cebpf4jnsgd1na2vs0mg"},{"bike_id":"5aa4b145-836f-4da4-9eff-28e2b5e5f30c","system_id":"levelo_inurba_marseille","lat":43.30542,"lon":5.36508,"is_reserved":false,"is_disabled":false,"rental_uris":{"android":"levelo://app?vid=5aa4b145-836f-4da4-9eff-28e2b5e5f30c","ios":"levelo://app?vid=5aa4b145-836f-4da4-9eff-28e2b5e5f30c"},"vehicle_type_id":"4","last_reported":1729851025,"current_range_meters":38800,"station_id":"ce4bgs12rcd13ifvqcag","pricing_plan_id":"cebpf4jnsgd1na2vs0mg"},{"bike_id":"1b01f7ba-6a3d-417d-81e3-afc214481e45","system_id":"levelo_inurba_marseille","lat":43.31081,"lon":5.42431,"is_reserved":false,"is_disabled":false,"rental_uris":{"android":"levelo://app?vid=1b01f7ba-6a3d-417d-81e3-afc214481e45","ios":"levelo://app?vid=1b01f7ba-6a3d-417d-81e3-afc214481e45"},"vehicle_type_id":"4","last_reported":1729851025,"current_range_meters":33200,"station_id":"ce4bhp92rcd13ifvqhag","pricing_plan_id":"cebpf4jnsgd1na2vs0mg"},{"bike_id":"86edebb0-a452-4519-8985-db568b9817e6","system_id":"levelo_inurba_marseille","lat":43.27325,"lon":5.39102,"is_reserved":false,"is_disabled":false,"rental_uris":{"android":"levelo://app?vid=86edebb0-a452-4519-8985-db568b9817e6","ios":"levelo://app?vid=86edebb0-a452-4519-8985-db568b9817e6"},"vehicle_type_id":"4","last_reported":1729851025,"current_range_meters":28400,"station_id":"ce4bhgp2rcd13ifvqfe0","pricing_plan_id":"cebpf4jnsgd1na2vs0mg"},{"bike_id":"bb40c554-e33a-4ab2-89a4-23fc48b1ce3d","system_id":"levelo_inurba_marseille","lat":43.29202,"lon":5.35799,"is_reserved":false,"is_disabled":false,"rental_uris":{"android":"levelo://app?vid=bb40c554-e33a-4ab2-89a4-23fc48b1ce3d","ios":"levelo://app?vid=bb40c554-e33a-4ab2-89a4-23fc48b1ce3d"},"vehicle_type_id":"4","last_reported":1729851025,"current_range_meters":34800,"station_id":"ce4bhb12rcd13ifvqel0","pricing_plan_id":"cebpf4jnsgd1na2vs0mg"},{"bike_id":"6fcb2428-d68a-4a7c-bcdc-0d507d962a65","system_id":"levelo_inurba_marseille","lat":43.24544,"lon":5.39534,"is_reserved":false,"is_disabled":false,"rental_uris":{"android":"levelo://app?vid=6fcb2428-d68a-4a7c-bcdc-0d507d962a65","ios":"levelo://app?vid=6fcb2428-d68a-4a7c-bcdc-0d507d962a65"},"vehicle_type_id":"4","last_reported":1729851025,"current_range_meters":24000,"station_id":"ce4bhlp2rcd13ifvqgjg","pricing_plan_id":"cebpf4jnsgd1na2vs0mg"},{"bike_id":"ceae64e4-a4d3-4ca4-b901-fc12ced2f599","system_id":"levelo_inurba_marseille","lat":43.24809,"lon":5.37456,"is_reserved":false,"is_disabled":false,"rental_uris":{"android":"levelo://app?vid=ceae64e4-a4d3-4ca4-b901-fc12ced2f599","ios":"levelo://app?vid=ceae64e4-a4d3-4ca4-b901-fc12ced2f599"},"vehicle_type_id":"4","last_reported":1729851025,"current_range_meters":36000,"station_id":"ce4bhgh2rcd13ifvqfb0","pricing_plan_id":"cebpf4jnsgd1na2vs0mg"},{"bike_id":"d51e70e3-e500-4ad8-afdb-77e572148b3c","system_id":"levelo_inurba_marseille","lat":43.30283,"lon":5.37697,"is_reserved":false,"is_disabled":false,"rental_uris":{"android":"levelo://app?vid=d51e70e3-e500-4ad8-afdb-77e572148b3c","ios":"levelo://app?vid=d51e70e3-e500-4ad8-afdb-77e572148b3c"},"vehicle_type_id":"4","last_reported":1729851025,"current_range_meters":38400,"station_id":"ce4bguh2rcd13ifvqcj0","pricing_plan_id":"cebpf4jnsgd1na2vs0mg"},{"bike_id":"28709b84-b83d-46ed-8adb-237970d4384b","system_id":"levelo_inurba_marseille","lat":43.32363,"lon":5.38881,"is_reserved":false,"is_disabled":false,"rental_uris":{"android":"levelo://app?vid=28709b84-b83d-46ed-8adb-237970d4384b","ios":"levelo://app?vid=28709b84-b83d-46ed-8adb-237970d4384b"},"vehicle_type_id":"4","last_reported":1729851025,"current_range_meters":27600,"station_id":"ce4bhqp2rcd13ifvqhog","pricing_plan_id":"cebpf4jnsgd1na2vs0mg"},{"bike_id":"56c6f9f5-fdcb-4236-a945-56b86ab994b2","system_id":"levelo_inurba_marseille","lat":43.282684,"lon":5.350767,"is_reserved":false,"is_disabled":false,"rental_uris":{"android":"levelo://app?vid=56c6f9f5-fdcb-4236-a945-56b86ab994b2","ios":"levelo://app?vid=56c6f9f5-fdcb-4236-a945-56b86ab994b2"},"vehicle_type_id":"4","last_reported":1729851025,"current_range_meters":27600,"station_id":"ce4bhbp2rcd13ifvqerg","pricing_plan_id":"cebpf4jnsgd1na2vs0mg"},{"bike_id":"fde4493e-7b7d-4d45-868d-a02ea6b5c8ca","system_id":"levelo_inurba_marseille","lat":43.30118,"lon":5.39844,"is_reserved":false,"is_disabled":false,"rental_uris":{"android":"levelo://app?vid=fde4493e-7b7d-4d45-868d-a02ea6b5c8ca","ios":"levelo://app?vid=fde4493e-7b7d-4d45-868d-a02ea6b5c8ca"},"vehicle_type_id":"4","last_reported":1729851025,"current_range_meters":38800,"station_id":"ce4bh0h2rcd13ifvqd40","pricing_plan_id":"cebpf4jnsgd1na2vs0mg"},{"bike_id":"6ae5c146-3499-40d3-86c2-6885fd8ebd2d","system_id":"levelo_inurba_marseille","lat":43.29585,"lon":5.36744,"is_reserved":false,"is_disabled":false,"rental_uris":{"android":"levelo://app?vid=6ae5c146-3499-40d3-86c2-6885fd8ebd2d","ios":"levelo://app?vid=6ae5c146-3499-40d3-86c2-6885fd8ebd2d"},"vehicle_type_id":"4","last_reported":1729851025,"current_range_meters":38400,"station_id":"ce4bgph2rcd13ifvqc2g","pricing_plan_id":"cebpf4jnsgd1na2vs0mg"},{"bike_id":"3180d647-e3ae-492b-947f-2366526567b6","system_id":"levelo_inurba_marseille","lat":43.29,"lon":5.3561,"is_reserved":false,"is_disabled":false,"rental_uris":{"android":"levelo://app?vid=3180d647-e3ae-492b-947f-2366526567b6","ios":"levelo://app?vid=3180d647-e3ae-492b-947f-2366526567b6"},"vehicle_type_id":"4","last_reported":1729851025,"current_range_meters":8000,"station_id":"ce4bhb92rcd13ifvqen0","pricing_plan_id":"cebpf4jnsgd1na2vs0mg"},{"bike_id":"106ffd58-5ff3-4239-b573-ce3a7d8e7a52","system_id":"levelo_inurba_marseille","lat":43.30543,"lon":5.36542,"is_reserved":false,"is_disabled":false,"rental_uris":{"android":"levelo://app?vid=106ffd58-5ff3-4239-b573-ce3a7d8e7a52","ios":"levelo://app?vid=106ffd58-5ff3-4239-b573-ce3a7d8e7a52"},"vehicle_type_id":"4","last_reported":1729851025,"current_range_meters":33200,"station_id":"ce4bgs12rcd13ifvqcag","pricing_plan_id":"cebpf4jnsgd1na2vs0mg"},{"bike_id":"ce42fb7a-0448-4758-8a74-e9e6ef4991ec","system_id":"levelo_inurba_marseille","lat":43.30355,"lon":5.41877,"is_reserved":false,"is_disabled":false,"rental_uris":{"android":"levelo://app?vid=ce42fb7a-0448-4758-8a74-e9e6ef4991ec","ios":"levelo://app?vid=ce42fb7a-0448-4758-8a74-e9e6ef4991ec"},"vehicle_type_id":"4","last_reported":1729851025,"current_range_meters":39200,"station_id":"ce4bhop2rcd13ifvqh7g","pricing_plan_id":"cebpf4jnsgd1na2vs0mg"},{"bike_id":"aeb794bd-481a-428b-b9f6-e76263394b27","system_id":"levelo_inurba_marseille","lat":43.29418,"lon":5.38618,"is_reserved":false,"is_disabled":false,"rental_uris":{"android":"levelo://app?vid=aeb794bd-481a-428b-b9f6-e76263394b27","ios":"levelo://app?vid=aeb794bd-481a-428b-b9f6-e76263394b27"},"vehicle_type_id":"4","last_reported":1729851025,"current_range_meters":38000,"station_id":"ce4bh2h2rcd13ifvqdh0","pricing_plan_id":"cebpf4jnsgd1na2vs0mg"},{"bike_id":"b8970b81-0939-44a6-a4b3-349a722bd490","system_id":"levelo_inurba_marseille","lat":43.29001,"lon":5.3562,"is_reserved":false,"is_disabled":false,"rental_uris":{"android":"levelo://app?vid=b8970b81-0939-44a6-a4b3-349a722bd490","ios":"levelo://app?vid=b8970b81-0939-44a6-a4b3-349a722bd490"},"vehicle_type_id":"4","last_reported":1729851025,"current_range_meters":31200,"station_id":"ce4bhb92rcd13ifvqen0","pricing_plan_id":"cebpf4jnsgd1na2vs0mg"},{"bike_id":"190b49ac-2174-4a94-a43b-6781438b16a5","system_id":"levelo_inurba_marseille","lat":43.26034,"lon":5.37543,"is_reserved":false,"is_disabled":false,"rental_uris":{"android":"levelo://app?vid=190b49ac-2174-4a94-a43b-6781438b16a5","ios":"levelo://app?vid=190b49ac-2174-4a94-a43b-6781438b16a5"},"vehicle_type_id":"4","last_reported":1729851025,"current_range_meters":39200,"station_id":"ce4bhgh2rcd13ifvqfa0","pricing_plan_id":"cebpf4jnsgd1na2vs0mg"},{"bike_id":"467bfdb6-1722-469c-9a5e-479cb9b4e1b6","system_id":"levelo_inurba_marseille","lat":43.26686,"lon":5.38274,"is_reserved":false,"is_disabled":false,"rental_uris":{"android":"levelo://app?vid=467bfdb6-1722-469c-9a5e-479cb9b4e1b6","ios":"levelo://app?vid=467bfdb6-1722-469c-9a5e-479cb9b4e1b6"},"vehicle_type_id":"4","last_reported":1729851025,"current_range_meters":24800,"station_id":"ce4bhg92rcd13ifvqf90","pricing_plan_id":"cebpf4jnsgd1na2vs0mg"},{"bike_id":"e2c65bd7-36e3-433a-8913-100ebe186b23","system_id":"levelo_inurba_marseille","lat":43.287,"lon":5.39972,"is_reserved":false,"is_disabled":false,"rental_uris":{"android":"levelo://app?vid=e2c65bd7-36e3-433a-8913-100ebe186b23","ios":"levelo://app?vid=e2c65bd7-36e3-433a-8913-100ebe186b23"},"vehicle_type_id":"4","last_reported":1729851025,"current_range_meters":38800,"station_id":"ce4bho92rcd13ifvqh3g","pricing_plan_id":"cebpf4jnsgd1na2vs0mg"},{"bike_id":"afb85bfa-0e4d-434c-84a7-234f6929fc39","system_id":"levelo_inurba_marseille","lat":43.28418,"lon":5.34995,"is_reserved":false,"is_disabled":false,"rental_uris":{"android":"levelo://app?vid=afb85bfa-0e4d-434c-84a7-234f6929fc39","ios":"levelo://app?vid=afb85bfa-0e4d-434c-84a7-234f6929fc39"},"vehicle_type_id":"4","last_reported":1729851025,"current_range_meters":38800,"station_id":"ce4bhbh2rcd13ifvqepg","pricing_plan_id":"cebpf4jnsgd1na2vs0mg"},{"bike_id":"673c0b1b-c718-41a4-9242-8b09034bdc70","system_id":"levelo_inurba_marseille","lat":43.28703,"lon":5.39974,"is_reserved":false,"is_disabled":false,"rental_uris":{"android":"levelo://app?vid=673c0b1b-c718-41a4-9242-8b09034bdc70","ios":"levelo://app?vid=673c0b1b-c718-41a4-9242-8b09034bdc70"},"vehicle_type_id":"4","last_reported":1729851025,"current_range_meters":38800,"station_id":"ce4bho92rcd13ifvqh3g","pricing_plan_id":"cebpf4jnsgd1na2vs0mg"},{"bike_id":"dbf8a52e-2d4a-438b-ae39-8aad9ef46982","system_id":"levelo_inurba_marseille","lat":43.3043,"lon":5.39748,"is_reserved":false,"is_disabled":false,"rental_uris":{"android":"levelo://app?vid=dbf8a52e-2d4a-438b-ae39-8aad9ef46982","ios":"levelo://app?vid=dbf8a52e-2d4a-438b-ae39-8aad9ef46982"},"vehicle_type_id":"4","last_reported":1729851025,"current_range_meters":36800,"station_id":"ce4bh092rcd13ifvqd20","pricing_plan_id":"cebpf4jnsgd1na2vs0mg"},{"bike_id":"8b4f111a-34b6-4f12-a188-0d6cae6042a9","system_id":"levelo_inurba_marseille","lat":43.28359,"lon":5.38634,"is_reserved":false,"is_disabled":false,"rental_uris":{"android":"levelo://app?vid=8b4f111a-34b6-4f12-a188-0d6cae6042a9","ios":"levelo://app?vid=8b4f111a-34b6-4f12-a188-0d6cae6042a9"},"vehicle_type_id":"4","last_reported":1729851025,"current_range_meters":38800,"station_id":"ce4bh492rcd13ifvqdvg","pricing_plan_id":"cebpf4jnsgd1na2vs0mg"},{"bike_id":"12addadf-88ab-4d71-bd0d-feb18eefb242","system_id":"levelo_inurba_marseille","lat":43.29229,"lon":5.36068,"is_reserved":false,"is_disabled":false,"rental_uris":{"android":"levelo://app?vid=12addadf-88ab-4d71-bd0d-feb18eefb242","ios":"levelo://app?vid=12addadf-88ab-4d71-bd0d-feb18eefb242"},"vehicle_type_id":"4","last_reported":1729851025,"current_range_meters":32000,"station_id":"ce4bhbh2rcd13ifvqeqg","pricing_plan_id":"cebpf4jnsgd1na2vs0mg"},{"bike_id":"d2b4a30c-fa04-4d83-8504-421bcece3b1e","system_id":"levelo_inurba_marseille","lat":43.30885,"lon":5.37197,"is_reserved":false,"is_disabled":false,"rental_uris":{"android":"levelo://app?vid=d2b4a30c-fa04-4d83-8504-421bcece3b1e","ios":"levelo://app?vid=d2b4a30c-fa04-4d83-8504-421bcece3b1e"},"vehicle_type_id":"4","last_reported":1729851025,"current_range_meters":28000,"station_id":"ce4bguh2rcd13ifvqckg","pricing_plan_id":"cebpf4jnsgd1na2vs0mg"},{"bike_id":"f4ca0981-591d-4369-ba20-a8ad464d4a1c","system_id":"levelo_inurba_marseille","lat":43.31274,"lon":5.40179,"is_reserved":false,"is_disabled":false,"rental_uris":{"android":"levelo://app?vid=f4ca0981-591d-4369-ba20-a8ad464d4a1c","ios":"levelo://app?vid=f4ca0981-591d-4369-ba20-a8ad464d4a1c"},"vehicle_type_id":"4","last_reported":1729851025,"current_range_meters":14000,"station_id":"ce4bh092rcd13ifvqd30","pricing_plan_id":"cebpf4jnsgd1na2vs0mg"},{"bike_id":"bd995abb-12e7-47a6-b0b9-e1f25439576a","system_id":"levelo_inurba_marseille","lat":43.24998,"lon":5.38924,"is_reserved":false,"is_disabled":false,"rental_uris":{"android":"levelo://app?vid=bd995abb-12e7-47a6-b0b9-e1f25439576a","ios":"levelo://app?vid=bd995abb-12e7-47a6-b0b9-e1f25439576a"},"vehicle_type_id":"4","last_reported":1729851025,"current_range_meters":39200,"station_id":"ce4bhgp2rcd13ifvqfd0","pricing_plan_id":"cebpf4jnsgd1na2vs0mg"},{"bike_id":"750058a2-1413-4f1c-ab76-c2206cba4bfd","system_id":"levelo_inurba_marseille","lat":43.289382,"lon":5.39607,"is_reserved":false,"is_disabled":false,"rental_uris":{"android":"levelo://app?vid=750058a2-1413-4f1c-ab76-c2206cba4bfd","ios":"levelo://app?vid=750058a2-1413-4f1c-ab76-c2206cba4bfd"},"vehicle_type_id":"4","last_reported":1729851025,"current_range_meters":38000,"station_id":"ce4bh3h2rcd13ifvqdn0","pricing_plan_id":"cebpf4jnsgd1na2vs0mg"},{"bike_id":"fbfac620-b382-42c4-bf17-b935124b96ca","system_id":"levelo_inurba_marseille","lat":43.2695,"lon":5.38628,"is_reserved":false,"is_disabled":false,"rental_uris":{"android":"levelo://app?vid=fbfac620-b382-42c4-bf17-b935124b96ca","ios":"levelo://app?vid=fbfac620-b382-42c4-bf17-b935124b96ca"},"vehicle_type_id":"4","last_reported":1729851025,"current_range_meters":34800,"station_id":"ce4bhh92rcd13ifvqfh0","pricing_plan_id":"cebpf4jnsgd1na2vs0mg"},{"bike_id":"30506dd3-5dff-4893-9985-60fd5a91a751","system_id":"levelo_inurba_marseille","lat":43.295782,"lon":5.367466,"is_reserved":false,"is_disabled":false,"rental_uris":{"android":"levelo://app?vid=30506dd3-5dff-4893-9985-60fd5a91a751","ios":"levelo://app?vid=30506dd3-5dff-4893-9985-60fd5a91a751"},"vehicle_type_id":"4","last_reported":1729851025,"current_range_meters":22400,"station_id":"ce4bgph2rcd13ifvqc2g","pricing_plan_id":"cebpf4jnsgd1na2vs0mg"},{"bike_id":"3e9b9deb-e84f-43cc-adab-c5d392737ac6","system_id":"levelo_inurba_marseille","lat":43.33607,"lon":5.41033,"is_reserved":false,"is_disabled":false,"rental_uris":{"android":"levelo://app?vid=3e9b9deb-e84f-43cc-adab-c5d392737ac6","ios":"levelo://app?vid=3e9b9deb-e84f-43cc-adab-c5d392737ac6"},"vehicle_type_id":"4","last_reported":1729851025,"current_range_meters":34000,"station_id":"ce4bhqh2rcd13ifvqhmg","pricing_plan_id":"cebpf4jnsgd1na2vs0mg"},{"bike_id":"69c50a7a-8960-41bd-bcf6-67af981ebe82","system_id":"levelo_inurba_marseille","lat":43.28851,"lon":5.35842,"is_reserved":false,"is_disabled":false,"rental_uris":{"android":"levelo://app?vid=69c50a7a-8960-41bd-bcf6-67af981ebe82","ios":"levelo://app?vid=69c50a7a-8960-41bd-bcf6-67af981ebe82"},"vehicle_type_id":"4","last_reported":1729851025,"current_range_meters":37600,"station_id":"ce4bhb12rcd13ifvqem0","pricing_plan_id":"cebpf4jnsgd1na2vs0mg"},{"bike_id":"7915ddf5-0cfb-45f3-8495-899a5c5c7efa","system_id":"levelo_inurba_marseille","lat":43.27403,"lon":5.3907,"is_reserved":false,"is_disabled":false,"rental_uris":{"android":"levelo://app?vid=7915ddf5-0cfb-45f3-8495-899a5c5c7efa","ios":"levelo://app?vid=7915ddf5-0cfb-45f3-8495-899a5c5c7efa"},"vehicle_type_id":"4","last_reported":1729851025,"current_range_meters":10000,"station_id":"ce4bhhp2rcd13ifvqfm0","pricing_plan_id":"cebpf4jnsgd1na2vs0mg"},{"bike_id":"365a5e76-e012-4983-b8a9-1a07480bde83","system_id":"levelo_inurba_marseille","lat":43.23192,"lon":5.35547,"is_reserved":false,"is_disabled":false,"rental_uris":{"android":"levelo://app?vid=365a5e76-e012-4983-b8a9-1a07480bde83","ios":"levelo://app?vid=365a5e76-e012-4983-b8a9-1a07480bde83"},"vehicle_type_id":"4","last_reported":1729851025,"current_range_meters":38800,"station_id":"ce4bhu92rcd13ifvqi70","pricing_plan_id":"cebpf4jnsgd1na2vs0mg"},{"bike_id":"176c2bd2-7d0c-4278-833a-48f82a51f6ca","system_id":"levelo_inurba_marseille","lat":43.26195,"lon":5.37934,"is_reserved":false,"is_disabled":false,"rental_uris":{"android":"levelo://app?vid=176c2bd2-7d0c-4278-833a-48f82a51f6ca","ios":"levelo://app?vid=176c2bd2-7d0c-4278-833a-48f82a51f6ca"},"vehicle_type_id":"4","last_reported":1729851025,"current_range_meters":38800,"station_id":"ce4bhjp2rcd13ifvqg90","pricing_plan_id":"cebpf4jnsgd1na2vs0mg"},{"bike_id":"6feb7ded-3bea-4297-b3d7-056a1104c816","system_id":"levelo_inurba_marseille","lat":43.33112,"lon":5.3821,"is_reserved":false,"is_disabled":false,"rental_uris":{"android":"levelo://app?vid=6feb7ded-3bea-4297-b3d7-056a1104c816","ios":"levelo://app?vid=6feb7ded-3bea-4297-b3d7-056a1104c816"},"vehicle_type_id":"4","last_reported":1729851025,"current_range_meters":32000,"station_id":"","pricing_plan_id":"cebpf4jnsgd1na2vs0mg"},{"bike_id":"41f153c9-6e2f-4115-a2bf-ece305a88b3a","system_id":"levelo_inurba_marseille","lat":43.2307,"lon":5.35489,"is_reserved":false,"is_disabled":false,"rental_uris":{"android":"levelo://app?vid=41f153c9-6e2f-4115-a2bf-ece305a88b3a","ios":"levelo://app?vid=41f153c9-6e2f-4115-a2bf-ece305a88b3a"},"vehicle_type_id":"4","last_reported":1729851025,"current_range_meters":30800,"station_id":"cpo3342slgdg3j2ifvpg","pricing_plan_id":"cebpf4jnsgd1na2vs0mg"},{"bike_id":"2b9eead0-d729-4eef-b339-573474a69b2f","system_id":"levelo_inurba_marseille","lat":43.29007,"lon":5.35609,"is_reserved":false,"is_disabled":false,"rental_uris":{"android":"levelo://app?vid=2b9eead0-d729-4eef-b339-573474a69b2f","ios":"levelo://app?vid=2b9eead0-d729-4eef-b339-573474a69b2f"},"vehicle_type_id":"4","last_reported":1729851025,"current_range_meters":30400,"station_id":"ce4bhb92rcd13ifvqen0","pricing_plan_id":"cebpf4jnsgd1na2vs0mg"},{"bike_id":"c7b0989c-1e25-467f-b847-f450b6daa1bc","system_id":"levelo_inurba_marseille","lat":43.29263,"lon":5.38445,"is_reserved":false,"is_disabled":false,"rental_uris":{"android":"levelo://app?vid=c7b0989c-1e25-467f-b847-f450b6daa1bc","ios":"levelo://app?vid=c7b0989c-1e25-467f-b847-f450b6daa1bc"},"vehicle_type_id":"4","last_reported":1729851025,"current_range_meters":28400,"station_id":"ce4bh692rcd13ifvqea0","pricing_plan_id":"cebpf4jnsgd1na2vs0mg"},{"bike_id":"ffaf6d1c-64f9-4c62-bbf1-b08f3ad9a305","system_id":"levelo_inurba_marseille","lat":43.33741,"lon":5.37454,"is_reserved":false,"is_disabled":false,"rental_uris":{"android":"levelo://app?vid=ffaf6d1c-64f9-4c62-bbf1-b08f3ad9a305","ios":"levelo://app?vid=ffaf6d1c-64f9-4c62-bbf1-b08f3ad9a305"},"vehicle_type_id":"4","last_reported":1729851025,"current_range_meters":19200,"station_id":"","pricing_plan_id":"cebpf4jnsgd1na2vs0mg"},{"bike_id":"762c6d21-bc78-4a52-9810-72ccbbfb0132","system_id":"levelo_inurba_marseille","lat":43.24478,"lon":5.42689,"is_reserved":false,"is_disabled":false,"rental_uris":{"android":"levelo://app?vid=762c6d21-bc78-4a52-9810-72ccbbfb0132","ios":"levelo://app?vid=762c6d21-bc78-4a52-9810-72ccbbfb0132"},"vehicle_type_id":"4","last_reported":1729851025,"current_range_meters":32400,"station_id":"ce4bhmp2rcd13ifvqgog","pricing_plan_id":"cebpf4jnsgd1na2vs0mg"},{"bike_id":"a9439cd1-ab91-4240-9638-f44040b4f85e","system_id":"levelo_inurba_marseille","lat":43.30315,"lon":5.36893,"is_reserved":false,"is_disabled":false,"rental_uris":{"android":"levelo://app?vid=a9439cd1-ab91-4240-9638-f44040b4f85e","ios":"levelo://app?vid=a9439cd1-ab91-4240-9638-f44040b4f85e"},"vehicle_type_id":"4","last_reported":1729851025,"current_range_meters":39200,"station_id":"ce4bgqh2rcd13ifvqc5g","pricing_plan_id":"cebpf4jnsgd1na2vs0mg"},{"bike_id":"9c6fc028-3986-41cc-bf02-716316e6edd0","system_id":"levelo_inurba_marseille","lat":43.30889,"lon":5.372,"is_reserved":false,"is_disabled":false,"rental_uris":{"android":"levelo://app?vid=9c6fc028-3986-41cc-bf02-716316e6edd0","ios":"levelo://app?vid=9c6fc028-3986-41cc-bf02-716316e6edd0"},"vehicle_type_id":"4","last_reported":1729851025,"current_range_meters":34000,"station_id":"ce4bguh2rcd13ifvqckg","pricing_plan_id":"cebpf4jnsgd1na2vs0mg"},{"bike_id":"8b334494-4658-40b8-9961-1bec772036f2","system_id":"levelo_inurba_marseille","lat":43.29844,"lon":5.36265,"is_reserved":false,"is_disabled":false,"rental_uris":{"android":"levelo://app?vid=8b334494-4658-40b8-9961-1bec772036f2","ios":"levelo://app?vid=8b334494-4658-40b8-9961-1bec772036f2"},"vehicle_type_id":"4","last_reported":1729851025,"current_range_meters":38800,"station_id":"ce4bgpp2rcd13ifvqc3g","pricing_plan_id":"cebpf4jnsgd1na2vs0mg"},{"bike_id":"15e795f5-7c75-4a84-b680-d23960287ad4","system_id":"levelo_inurba_marseille","lat":43.25088,"lon":5.39517,"is_reserved":false,"is_disabled":false,"rental_uris":{"android":"levelo://app?vid=15e795f5-7c75-4a84-b680-d23960287ad4","ios":"levelo://app?vid=15e795f5-7c75-4a84-b680-d23960287ad4"},"vehicle_type_id":"4","last_reported":1729851025,"current_range_meters":28400,"station_id":"ce4bhm12rcd13ifvqgkg","pricing_plan_id":"cebpf4jnsgd1na2vs0mg"},{"bike_id":"9aa99984-3aab-4a38-a014-145c49eab468","system_id":"levelo_inurba_marseille","lat":43.24654,"lon":5.38888,"is_reserved":false,"is_disabled":false,"rental_uris":{"android":"levelo://app?vid=9aa99984-3aab-4a38-a014-145c49eab468","ios":"levelo://app?vid=9aa99984-3aab-4a38-a014-145c49eab468"},"vehicle_type_id":"4","last_reported":1729851025,"current_range_meters":38800,"station_id":"ce4bhg12rcd13ifvqf60","pricing_plan_id":"cebpf4jnsgd1na2vs0mg"},{"bike_id":"210c887c-7b84-4f80-9b41-3fe3dc71fada","system_id":"levelo_inurba_marseille","lat":43.27564,"lon":5.38423,"is_reserved":false,"is_disabled":false,"rental_uris":{"android":"levelo://app?vid=210c887c-7b84-4f80-9b41-3fe3dc71fada","ios":"levelo://app?vid=210c887c-7b84-4f80-9b41-3fe3dc71fada"},"vehicle_type_id":"4","last_reported":1729851025,"current_range_meters":36400,"station_id":"ce4bhh92rcd13ifvqfi0","pricing_plan_id":"cebpf4jnsgd1na2vs0mg"},{"bike_id":"e1c3caf7-821e-436d-aa64-b866f2487618","system_id":"levelo_inurba_marseille","lat":43.32659,"lon":5.40989,"is_reserved":false,"is_disabled":false,"rental_uris":{"android":"levelo://app?vid=e1c3caf7-821e-436d-aa64-b866f2487618","ios":"levelo://app?vid=e1c3caf7-821e-436d-aa64-b866f2487618"},"vehicle_type_id":"4","last_reported":1729851025,"current_range_meters":38800,"station_id":"ce4bhpp2rcd13ifvqhgg","pricing_plan_id":"cebpf4jnsgd1na2vs0mg"},{"bike_id":"7c1e729b-7c6a-4f7f-87cd-db2dd498acc3","system_id":"levelo_inurba_marseille","lat":43.25937,"lon":5.40902,"is_reserved":false,"is_disabled":false,"rental_uris":{"android":"levelo://app?vid=7c1e729b-7c6a-4f7f-87cd-db2dd498acc3","ios":"levelo://app?vid=7c1e729b-7c6a-4f7f-87cd-db2dd498acc3"},"vehicle_type_id":"4","last_reported":1729851025,"current_range_meters":22000,"station_id":"ce4bhm92rcd13ifvqglg","pricing_plan_id":"cebpf4jnsgd1na2vs0mg"},{"bike_id":"13ccce09-e91f-40bb-b11c-618231f3c425","system_id":"levelo_inurba_marseille","lat":43.31497,"lon":5.37304,"is_reserved":false,"is_disabled":false,"rental_uris":{"android":"levelo://app?vid=13ccce09-e91f-40bb-b11c-618231f3c425","ios":"levelo://app?vid=13ccce09-e91f-40bb-b11c-618231f3c425"},"vehicle_type_id":"4","last_reported":1729851025,"current_range_meters":34000,"station_id":"ce4bgt12rcd13ifvqcd0","pricing_plan_id":"cebpf4jnsgd1na2vs0mg"},{"bike_id":"71312711-4f6c-465d-b9de-7eb006b96a28","system_id":"levelo_inurba_marseille","lat":43.26027,"lon":5.37552,"is_reserved":false,"is_disabled":false,"rental_uris":{"android":"levelo://app?vid=71312711-4f6c-465d-b9de-7eb006b96a28","ios":"levelo://app?vid=71312711-4f6c-465d-b9de-7eb006b96a28"},"vehicle_type_id":"4","last_reported":1729851025,"current_range_meters":24000,"station_id":"ce4bhgh2rcd13ifvqfa0","pricing_plan_id":"cebpf4jnsgd1na2vs0mg"},{"bike_id":"3d842674-b26d-4bd1-8c29-6b56ea1a1f40","system_id":"levelo_inurba_marseille","lat":43.249959,"lon":5.389394,"is_reserved":false,"is_disabled":false,"rental_uris":{"android":"levelo://app?vid=3d842674-b26d-4bd1-8c29-6b56ea1a1f40","ios":"levelo://app?vid=3d842674-b26d-4bd1-8c29-6b56ea1a1f40"},"vehicle_type_id":"4","last_reported":1729851025,"current_range_meters":25200,"station_id":"ce4bhgp2rcd13ifvqfd0","pricing_plan_id":"cebpf4jnsgd1na2vs0mg"},{"bike_id":"4edd932e-9306-425f-b341-6a63750e98d7","system_id":"levelo_inurba_marseille","lat":43.29841,"lon":5.36267,"is_reserved":false,"is_disabled":false,"rental_uris":{"android":"levelo://app?vid=4edd932e-9306-425f-b341-6a63750e98d7","ios":"levelo://app?vid=4edd932e-9306-425f-b341-6a63750e98d7"},"vehicle_type_id":"4","last_reported":1729851025,"current_range_meters":36000,"station_id":"ce4bgpp2rcd13ifvqc3g","pricing_plan_id":"cebpf4jnsgd1na2vs0mg"},{"bike_id":"bcd03bda-a722-4be5-bc20-3d70b1d1eae9","system_id":"levelo_inurba_marseille","lat":43.28709,"lon":5.39987,"is_reserved":false,"is_disabled":false,"rental_uris":{"android":"levelo://app?vid=bcd03bda-a722-4be5-bc20-3d70b1d1eae9","ios":"levelo://app?vid=bcd03bda-a722-4be5-bc20-3d70b1d1eae9"},"vehicle_type_id":"4","last_reported":1729851025,"current_range_meters":38800,"station_id":"ce4bho92rcd13ifvqh3g","pricing_plan_id":"cebpf4jnsgd1na2vs0mg"},{"bike_id":"1be8d1a0-22cf-474c-a70b-7bc945d42580","system_id":"levelo_inurba_marseille","lat":43.295789,"lon":5.375102,"is_reserved":false,"is_disabled":false,"rental_uris":{"android":"levelo://app?vid=1be8d1a0-22cf-474c-a70b-7bc945d42580","ios":"levelo://app?vid=1be8d1a0-22cf-474c-a70b-7bc945d42580"},"vehicle_type_id":"4","last_reported":1729851025,"current_range_meters":12800,"station_id":"ce4bgh92rcd13ifvqb50","pricing_plan_id":"cebpf4jnsgd1na2vs0mg"},{"bike_id":"b8c9ac1e-bdf8-4af3-8039-13c51d6bb64d","system_id":"levelo_inurba_marseille","lat":43.30538,"lon":5.36707,"is_reserved":false,"is_disabled":false,"rental_uris":{"android":"levelo://app?vid=b8c9ac1e-bdf8-4af3-8039-13c51d6bb64d","ios":"levelo://app?vid=b8c9ac1e-bdf8-4af3-8039-13c51d6bb64d"},"vehicle_type_id":"4","last_reported":1729851025,"current_range_meters":39200,"station_id":"ce4bgrp2rcd13ifvqc9g","pricing_plan_id":"cebpf4jnsgd1na2vs0mg"},{"bike_id":"64b170f8-2500-48ef-96a3-25f7c0707542","system_id":"levelo_inurba_marseille","lat":43.337444,"lon":5.374475,"is_reserved":false,"is_disabled":false,"rental_uris":{"android":"levelo://app?vid=64b170f8-2500-48ef-96a3-25f7c0707542","ios":"levelo://app?vid=64b170f8-2500-48ef-96a3-25f7c0707542"},"vehicle_type_id":"4","last_reported":1729851025,"current_range_meters":2800,"station_id":"","pricing_plan_id":"cebpf4jnsgd1na2vs0mg"},{"bike_id":"89f5781e-f020-44c4-9544-3d5b1aa72850","system_id":"levelo_inurba_marseille","lat":43.23189,"lon":5.35554,"is_reserved":false,"is_disabled":false,"rental_uris":{"android":"levelo://app?vid=89f5781e-f020-44c4-9544-3d5b1aa72850","ios":"levelo://app?vid=89f5781e-f020-44c4-9544-3d5b1aa72850"},"vehicle_type_id":"4","last_reported":1729851025,"current_range_meters":4800,"station_id":"ce4bhu92rcd13ifvqi70","pricing_plan_id":"cebpf4jnsgd1na2vs0mg"},{"bike_id":"4f409860-e0f7-4877-99ee-a24fed7f0e97","system_id":"levelo_inurba_marseille","lat":43.27816,"lon":5.40709,"is_reserved":false,"is_disabled":false,"rental_uris":{"android":"levelo://app?vid=4f409860-e0f7-4877-99ee-a24fed7f0e97","ios":"levelo://app?vid=4f409860-e0f7-4877-99ee-a24fed7f0e97"},"vehicle_type_id":"4","last_reported":1729851025,"current_range_meters":30800,"station_id":"ce4bhnh2rcd13ifvqgtg","pricing_plan_id":"cebpf4jnsgd1na2vs0mg"},{"bike_id":"d657a82f-ab02-452b-b617-a1426953567e","system_id":"levelo_inurba_marseille","lat":43.2619,"lon":5.37448,"is_reserved":false,"is_disabled":false,"rental_uris":{"android":"levelo://app?vid=d657a82f-ab02-452b-b617-a1426953567e","ios":"levelo://app?vid=d657a82f-ab02-452b-b617-a1426953567e"},"vehicle_type_id":"4","last_reported":1729851025,"current_range_meters":38400,"station_id":"ce4bhgp2rcd13ifvqfc0","pricing_plan_id":"cebpf4jnsgd1na2vs0mg"},{"bike_id":"a06f2332-caf7-47e4-90d2-8791d21b780b","system_id":"levelo_inurba_marseille","lat":43.29045,"lon":5.36443,"is_reserved":false,"is_disabled":false,"rental_uris":{"android":"levelo://app?vid=a06f2332-caf7-47e4-90d2-8791d21b780b","ios":"levelo://app?vid=a06f2332-caf7-47e4-90d2-8791d21b780b"},"vehicle_type_id":"4","last_reported":1729851025,"current_range_meters":25200,"station_id":"ce4bgnh2rcd13ifvqc0g","pricing_plan_id":"cebpf4jnsgd1na2vs0mg"},{"bike_id":"4ca8ad0a-be09-4f84-b34a-80128b20764b","system_id":"levelo_inurba_marseille","lat":43.30287,"lon":5.37708,"is_reserved":false,"is_disabled":false,"rental_uris":{"android":"levelo://app?vid=4ca8ad0a-be09-4f84-b34a-80128b20764b","ios":"levelo://app?vid=4ca8ad0a-be09-4f84-b34a-80128b20764b"},"vehicle_type_id":"4","last_reported":1729851025,"current_range_meters":32000,"station_id":"ce4bguh2rcd13ifvqcj0","pricing_plan_id":"cebpf4jnsgd1na2vs0mg"},{"bike_id":"32479306-bd65-4eb8-aadf-597a0bdc7cb5","system_id":"levelo_inurba_marseille","lat":43.28435,"lon":5.39186,"is_reserved":false,"is_disabled":false,"rental_uris":{"android":"levelo://app?vid=32479306-bd65-4eb8-aadf-597a0bdc7cb5","ios":"levelo://app?vid=32479306-bd65-4eb8-aadf-597a0bdc7cb5"},"vehicle_type_id":"4","last_reported":1729851025,"current_range_meters":38800,"station_id":"ce4bh292rcd13ifvqdg0","pricing_plan_id":"cebpf4jnsgd1na2vs0mg"},{"bike_id":"7bc6a6c0-faa3-435c-965e-a4e7dfe4259f","system_id":"levelo_inurba_marseille","lat":43.33752,"lon":5.37442,"is_reserved":false,"is_disabled":false,"rental_uris":{"android":"levelo://app?vid=7bc6a6c0-faa3-435c-965e-a4e7dfe4259f","ios":"levelo://app?vid=7bc6a6c0-faa3-435c-965e-a4e7dfe4259f"},"vehicle_type_id":"4","last_reported":1729851025,"current_range_meters":22800,"station_id":"","pricing_plan_id":"cebpf4jnsgd1na2vs0mg"},{"bike_id":"ddab116e-2eb7-45a6-8d92-8ad268c39db8","system_id":"levelo_inurba_marseille","lat":43.32485,"lon":5.36565,"is_reserved":false,"is_disabled":false,"rental_uris":{"android":"levelo://app?vid=ddab116e-2eb7-45a6-8d92-8ad268c39db8","ios":"levelo://app?vid=ddab116e-2eb7-45a6-8d92-8ad268c39db8"},"vehicle_type_id":"4","last_reported":1729851025,"current_range_meters":13600,"station_id":"ce4bhs12rcd13ifvqhvg","pricing_plan_id":"cebpf4jnsgd1na2vs0mg"},{"bike_id":"b37a0ae1-907f-412d-8e1a-06a9de441401","system_id":"levelo_inurba_marseille","lat":43.25085,"lon":5.39519,"is_reserved":false,"is_disabled":false,"rental_uris":{"android":"levelo://app?vid=b37a0ae1-907f-412d-8e1a-06a9de441401","ios":"levelo://app?vid=b37a0ae1-907f-412d-8e1a-06a9de441401"},"vehicle_type_id":"4","last_reported":1729851025,"current_range_meters":39200,"station_id":"ce4bhm12rcd13ifvqgkg","pricing_plan_id":"cebpf4jnsgd1na2vs0mg"},{"bike_id":"0091d7b8-da5a-4c86-89b2-26fbe8378709","system_id":"levelo_inurba_marseille","lat":43.297167,"lon":5.376984,"is_reserved":false,"is_disabled":false,"rental_uris":{"android":"levelo://app?vid=0091d7b8-da5a-4c86-89b2-26fbe8378709","ios":"levelo://app?vid=0091d7b8-da5a-4c86-89b2-26fbe8378709"},"vehicle_type_id":"4","last_reported":1729851025,"current_range_meters":37600,"station_id":"ce4bgkh2rcd13ifvqbl0","pricing_plan_id":"cebpf4jnsgd1na2vs0mg"},{"bike_id":"ae25b7e2-bc2d-4c3d-b8ef-d44ca2b8bbcf","system_id":"levelo_inurba_marseille","lat":43.29733,"lon":5.3768,"is_reserved":false,"is_disabled":false,"rental_uris":{"android":"levelo://app?vid=ae25b7e2-bc2d-4c3d-b8ef-d44ca2b8bbcf","ios":"levelo://app?vid=ae25b7e2-bc2d-4c3d-b8ef-d44ca2b8bbcf"},"vehicle_type_id":"4","last_reported":1729851025,"current_range_meters":21600,"station_id":"ce4bgkh2rcd13ifvqbl0","pricing_plan_id":"cebpf4jnsgd1na2vs0mg"},{"bike_id":"2feab749-a0de-41d7-b70e-7491cf23f13e","system_id":"levelo_inurba_marseille","lat":43.28094,"lon":5.37847,"is_reserved":false,"is_disabled":false,"rental_uris":{"android":"levelo://app?vid=2feab749-a0de-41d7-b70e-7491cf23f13e","ios":"levelo://app?vid=2feab749-a0de-41d7-b70e-7491cf23f13e"},"vehicle_type_id":"4","last_reported":1729851025,"current_range_meters":34800,"station_id":"ce4bha12rcd13ifvqee0","pricing_plan_id":"cebpf4jnsgd1na2vs0mg"},{"bike_id":"a5f5147e-7498-4cc1-8e44-393761b01d05","system_id":"levelo_inurba_marseille","lat":43.27821,"lon":5.40711,"is_reserved":false,"is_disabled":false,"rental_uris":{"android":"levelo://app?vid=a5f5147e-7498-4cc1-8e44-393761b01d05","ios":"levelo://app?vid=a5f5147e-7498-4cc1-8e44-393761b01d05"},"vehicle_type_id":"4","last_reported":1729851025,"current_range_meters":37600,"station_id":"ce4bhnh2rcd13ifvqgtg","pricing_plan_id":"cebpf4jnsgd1na2vs0mg"},{"bike_id":"f0a01aac-e9eb-4943-9e87-9ade7776fe3d","system_id":"levelo_inurba_marseille","lat":43.26497,"lon":5.39539,"is_reserved":false,"is_disabled":false,"rental_uris":{"android":"levelo://app?vid=f0a01aac-e9eb-4943-9e87-9ade7776fe3d","ios":"levelo://app?vid=f0a01aac-e9eb-4943-9e87-9ade7776fe3d"},"vehicle_type_id":"4","last_reported":1729851025,"current_range_meters":33600,"station_id":"ce4bhi12rcd13ifvqfq0","pricing_plan_id":"cebpf4jnsgd1na2vs0mg"},{"bike_id":"48bf01ee-e0ff-4963-99c1-31ef3d69c337","system_id":"levelo_inurba_marseille","lat":43.25935,"lon":5.40894,"is_reserved":false,"is_disabled":false,"rental_uris":{"android":"levelo://app?vid=48bf01ee-e0ff-4963-99c1-31ef3d69c337","ios":"levelo://app?vid=48bf01ee-e0ff-4963-99c1-31ef3d69c337"},"vehicle_type_id":"4","last_reported":1729851025,"current_range_meters":8000,"station_id":"ce4bhm92rcd13ifvqglg","pricing_plan_id":"cebpf4jnsgd1na2vs0mg"},{"bike_id":"66b50a86-83ee-425d-b133-111723e3ef3b","system_id":"levelo_inurba_marseille","lat":43.30356,"lon":5.41878,"is_reserved":false,"is_disabled":false,"rental_uris":{"android":"levelo://app?vid=66b50a86-83ee-425d-b133-111723e3ef3b","ios":"levelo://app?vid=66b50a86-83ee-425d-b133-111723e3ef3b"},"vehicle_type_id":"4","last_reported":1729851025,"current_range_meters":7200,"station_id":"ce4bhop2rcd13ifvqh7g","pricing_plan_id":"cebpf4jnsgd1na2vs0mg"},{"bike_id":"501364a3-c1a1-4b29-8213-9af145b88059","system_id":"levelo_inurba_marseille","lat":43.33604,"lon":5.41021,"is_reserved":false,"is_disabled":false,"rental_uris":{"android":"levelo://app?vid=501364a3-c1a1-4b29-8213-9af145b88059","ios":"levelo://app?vid=501364a3-c1a1-4b29-8213-9af145b88059"},"vehicle_type_id":"4","last_reported":1729851025,"current_range_meters":19600,"station_id":"ce4bhqh2rcd13ifvqhmg","pricing_plan_id":"cebpf4jnsgd1na2vs0mg"},{"bike_id":"8daa4a42-6ce7-4e7b-a925-592a4d180bac","system_id":"levelo_inurba_marseille","lat":43.30433,"lon":5.38889,"is_reserved":false,"is_disabled":false,"rental_uris":{"android":"levelo://app?vid=8daa4a42-6ce7-4e7b-a925-592a4d180bac","ios":"levelo://app?vid=8daa4a42-6ce7-4e7b-a925-592a4d180bac"},"vehicle_type_id":"4","last_reported":1729851025,"current_range_meters":32400,"station_id":"ce4bgk12rcd13ifvqbi0","pricing_plan_id":"cebpf4jnsgd1na2vs0mg"},{"bike_id":"eff82ee4-d0dc-44b2-ae50-a15835b67300","system_id":"levelo_inurba_marseille","lat":43.29897,"lon":5.4367,"is_reserved":false,"is_disabled":false,"rental_uris":{"android":"levelo://app?vid=eff82ee4-d0dc-44b2-ae50-a15835b67300","ios":"levelo://app?vid=eff82ee4-d0dc-44b2-ae50-a15835b67300"},"vehicle_type_id":"4","last_reported":1729851025,"current_range_meters":31200,"station_id":"ce4bhpp2rcd13ifvqhfg","pricing_plan_id":"cebpf4jnsgd1na2vs0mg"},{"bike_id":"01f06b91-a4c5-485a-995f-70c2412a6f1f","system_id":"levelo_inurba_marseille","lat":43.29194,"lon":5.35797,"is_reserved":false,"is_disabled":false,"rental_uris":{"android":"levelo://app?vid=01f06b91-a4c5-485a-995f-70c2412a6f1f","ios":"levelo://app?vid=01f06b91-a4c5-485a-995f-70c2412a6f1f"},"vehicle_type_id":"4","last_reported":1729851025,"current_range_meters":38800,"station_id":"ce4bhb12rcd13ifvqel0","pricing_plan_id":"cebpf4jnsgd1na2vs0mg"},{"bike_id":"8e887373-3841-4dcd-8c5d-0c5925ba00d7","system_id":"levelo_inurba_marseille","lat":43.305054,"lon":5.367411,"is_reserved":false,"is_disabled":false,"rental_uris":{"android":"levelo://app?vid=8e887373-3841-4dcd-8c5d-0c5925ba00d7","ios":"levelo://app?vid=8e887373-3841-4dcd-8c5d-0c5925ba00d7"},"vehicle_type_id":"4","last_reported":1729851025,"current_range_meters":37600,"station_id":"ce4bgrp2rcd13ifvqc9g","pricing_plan_id":"cebpf4jnsgd1na2vs0mg"},{"bike_id":"10c561f3-38d8-4a1a-ab21-168af13ce2bb","system_id":"levelo_inurba_marseille","lat":43.27372,"lon":5.36255,"is_reserved":false,"is_disabled":false,"rental_uris":{"android":"levelo://app?vid=10c561f3-38d8-4a1a-ab21-168af13ce2bb","ios":"levelo://app?vid=10c561f3-38d8-4a1a-ab21-168af13ce2bb"},"vehicle_type_id":"4","last_reported":1729851025,"current_range_meters":38000,"station_id":"ce4bhbh2rcd13ifvqeo0","pricing_plan_id":"cebpf4jnsgd1na2vs0mg"},{"bike_id":"76c3083f-6fca-4db8-9ef2-8459c5c38e4a","system_id":"levelo_inurba_marseille","lat":43.30907,"lon":5.36856,"is_reserved":false,"is_disabled":false,"rental_uris":{"android":"levelo://app?vid=76c3083f-6fca-4db8-9ef2-8459c5c38e4a","ios":"levelo://app?vid=76c3083f-6fca-4db8-9ef2-8459c5c38e4a"},"vehicle_type_id":"4","last_reported":1729851025,"current_range_meters":36400,"station_id":"ce4bgn92rcd13ifvqbvg","pricing_plan_id":"cebpf4jnsgd1na2vs0mg"},{"bike_id":"49a5d21e-8901-4d32-8854-5528af6def35","system_id":"levelo_inurba_marseille","lat":43.29801,"lon":5.38101,"is_reserved":false,"is_disabled":false,"rental_uris":{"android":"levelo://app?vid=49a5d21e-8901-4d32-8854-5528af6def35","ios":"levelo://app?vid=49a5d21e-8901-4d32-8854-5528af6def35"},"vehicle_type_id":"4","last_reported":1729851025,"current_range_meters":39200,"station_id":"ce4bgip2rcd13ifvqbb0","pricing_plan_id":"cebpf4jnsgd1na2vs0mg"},{"bike_id":"542e996f-7c98-4cac-93a1-6742969243f1","system_id":"levelo_inurba_marseille","lat":43.2621,"lon":5.37441,"is_reserved":false,"is_disabled":false,"rental_uris":{"android":"levelo://app?vid=542e996f-7c98-4cac-93a1-6742969243f1","ios":"levelo://app?vid=542e996f-7c98-4cac-93a1-6742969243f1"},"vehicle_type_id":"4","last_reported":1729851025,"current_range_meters":38400,"station_id":"ce4bhgp2rcd13ifvqfc0","pricing_plan_id":"cebpf4jnsgd1na2vs0mg"},{"bike_id":"e615566a-e3ed-4564-979a-74e38b060769","system_id":"levelo_inurba_marseille","lat":43.317095,"lon":5.377613,"is_reserved":false,"is_disabled":false,"rental_uris":{"android":"levelo://app?vid=e615566a-e3ed-4564-979a-74e38b060769","ios":"levelo://app?vid=e615566a-e3ed-4564-979a-74e38b060769"},"vehicle_type_id":"4","last_reported":1729851025,"current_range_meters":38800,"station_id":"ce4bgth2rcd13ifvqch0","pricing_plan_id":"cebpf4jnsgd1na2vs0mg"},{"bike_id":"6dc3b737-a8cb-4c32-889b-219366ae6dbc","system_id":"levelo_inurba_marseille","lat":43.32061,"lon":5.41556,"is_reserved":false,"is_disabled":false,"rental_uris":{"android":"levelo://app?vid=6dc3b737-a8cb-4c32-889b-219366ae6dbc","ios":"levelo://app?vid=6dc3b737-a8cb-4c32-889b-219366ae6dbc"},"vehicle_type_id":"4","last_reported":1729851025,"current_range_meters":39200,"station_id":"ce4bhq92rcd13ifvqhkg","pricing_plan_id":"cebpf4jnsgd1na2vs0mg"},