{"last_updated":1706306778,"ttl":30,"version":"2.2","data":{"bikes":[{"bike_id":"d60ed0e9-d8fb-43ae-8fbb-43e18f384020","system_id":"levelo_inurba_marseille","lat":43.312239,"lon":5.368562,"is_reserved":false,"is_disabled":false,"rental_uris":{"android":"levelo://app?vid=d60ed0e9-d8fb-43ae-8fbb-43e18f384020","ios":"levelo://app?vid=d60ed0e9-d8fb-43ae-8fbb-43e18f384020"},"vehicle_type_id":"4","last_reported":1706306778,"current_range_meters":11600,"station_id":"ce4bgl92rcd13ifvqbq0","pricing_plan_id":"free"},{"bike_id":"4699151d-2049-4821-b9cf-5447e38b4860","system_id":"levelo_inurba_marseille","lat":43.309076,"lon":5.368465,"is_reserved":false,"is_disabled":false,"rental_uris":{"android":"levelo://app?vid=4699151d-2049-4821-b9cf-5447e38b4860","ios":"levelo://app?vid=4699151d-2049-4821-b9cf-5447e38b4860"},"vehicle_type_id":"4","last_reported":1706306778,"current_range_meters":5600,"station_id":"ce4bgn92rcd13ifvqbvg","pricing_plan_id":"free"},{"bike_id":"827b1fd5-958c-4dfe-a08c-f8ab53cef6b8","system_id":"levelo_inurba_marseille","lat":43.314811,"lon":5.373104,"is_reserved":false,"is_disabled":false,"rental_uris":{"android":"levelo://app?vid=827b1fd5-958c-4dfe-a08c-f8ab53cef6b8","ios":"levelo://app?vid=827b1fd5-958c-4dfe-a08c-f8ab53cef6b8"},"vehicle_type_id":"4","last_reported":1706306778,"current_range_meters":9200,"station_id":"ce4bgt12rcd13ifvqcd0","pricing_plan_id":"free"},{"bike_id":"dc059196-f8cd-4229-930e-034ed8c7a076","system_id":"levelo_inurba_marseille","lat":43.314811,"lon":5.373104,"is_reserved":false,"is_disabled":false,"rental_uris":{"android":"levelo://app?vid=dc059196-f8cd-4229-930e-034ed8c7a076","ios":"levelo://app?vid=dc059196-f8cd-4229-930e-034ed8c7a076"},"vehicle_type_id":"4","last_reported":1706306778,"current_range_meters":27200,"station_id":"ce4bgt12rcd13ifvqcd0","pricing_plan_id":"free"},{"bike_id":"43f2e9a3-4e4c-4d41-8a34-9514a3e6c5d3","system_id":"levelo_inurba_marseille","lat":43.316048,"lon":5.373052,"is_reserved":false,"is_disabled":false,"rental_uris":{"android":"levelo://app?vid=43f2e9a3-4e4c-4d41-8a34-9514a3e6c5d3","ios":"levelo://app?vid=43f2e9a3-4e4c-4d41-8a34-9514a3e6c5d3"},"vehicle_type_id":"4","last_reported":1706306778,"current_range_meters":8000,"station_id":"","pricing_plan_id":"free"},{"bike_id":"9443e511-2e2d-41e7-a2cd-4c95bf03992f","system_id":"levelo_inurba_marseille","lat":43.31356,"lon":5.37622,"is_reserved":false,"is_disabled":false,"rental_uris":{"android":"levelo://app?vid=9443e511-2e2d-41e7-a2cd-4c95bf03992f","ios":"levelo://app?vid=9443e511-2e2d-41e7-a2cd-4c95bf03992f"},"vehicle_type_id":"4","last_reported":1706306778,"current_range_meters":10000,"station_id":"","pricing_plan_id":"free"},{"bike_id":"e73f54cb-3a6f-4432-8b01-5a7183258464","system_id":"levelo_inurba_marseille","lat":43.305368,"lon":5.367343,"is_reserved":false,"is_disabled":false,"rental_uris":{"android":"levelo://app?vid=e73f54cb-3a6f-4432-8b01-5a7183258464","ios":"levelo://app?vid=e73f54cb-3a6f-4432-8b01-5a7183258464"},"vehicle_type_id":"4","last_reported":1706306778,"current_range_meters":11200,"station_id":"ce4bgrp2rcd13ifvqc9g","pricing_plan_id":"free"},{"bike_id":"f775adf8-82bf-45c6-b264-2c7a95aae9d7","system_id":"levelo_inurba_marseille","lat":43.305706,"lon":5.365654,"is_reserved":false,"is_disabled":false,"rental_uris":{"android":"levelo://app?vid=f775adf8-82bf-45c6-b264-2c7a95aae9d7","ios":"levelo://app?vid=f775adf8-82bf-45c6-b264-2c7a95aae9d7"},"vehicle_type_id":"4","last_reported":1706306778,"current_range_meters":20000,"station_id":"ce4bgs12rcd13ifvqcag","pricing_plan_id":"free"},{"bike_id":"fe603482-f7ed-4ce9-80d9-6af8d8e67238","system_id":"levelo_inurba_marseille","lat":43.305368,"lon":5.367343,"is_reserved":false,"is_disabled":false,"rental_uris":{"android":"levelo://app?vid=fe603482-f7ed-4ce9-80d9-6af8d8e67238","ios":"levelo://app?vid=fe603482-f7ed-4ce9-80d9-6af8d8e67238"},"vehicle_type_id":"4","last_reported":1706306778,"current_range_meters":8800,"station_id":"ce4bgrp2rcd13ifvqc9g","pricing_plan_id":"free"},{"bike_id":"7c81727c-5265-4d7c-9735-708db1b3fe50","system_id":"levelo_inurba_marseille","lat":43.31118,"lon":5.377668,"is_reserved":false,"is_disabled":false,"rental_uris":{"android":"levelo://app?vid=7c81727c-5265-4d7c-9735-708db1b3fe50","ios":"levelo://app?vid=7c81727c-5265-4d7c-9735-708db1b3fe50"},"vehicle_type_id":"4","last_reported":1706306778,"current_range_meters":0,"station_id":"ce4bgt92rcd13ifvqcg0","pricing_plan_id":"free"},{"bike_id":"51a104c6-3aa3-4d51-812e-275f8993f1e1","system_id":"levelo_inurba_marseille","lat":43.31124,"lon":5.37769,"is_reserved":false,"is_disabled":false,"rental_uris":{"android":"levelo://app?vid=51a104c6-3aa3-4d51-812e-275f8993f1e1","ios":"levelo://app?vid=51a104c6-3aa3-4d51-812e-275f8993f1e1"},"vehicle_type_id":"4","last_reported":1706306778,"current_range_meters":0,"station_id":"ce4bgt92rcd13ifvqcg0","pricing_plan_id":"free"},{"bike_id":"1c0d4dc0-325c-4866-8541-798517ba7f78","system_id":"levelo_inurba_marseille","lat":43.31117,"lon":5.377683,"is_reserved":false,"is_disabled":false,"rental_uris":{"android":"levelo://app?vid=1c0d4dc0-325c-4866-8541-798517ba7f78","ios":"levelo://app?vid=1c0d4dc0-325c-4866-8541-798517ba7f78"},"vehicle_type_id":"4","last_reported":1706306778,"current_range_meters":8400,"station_id":"ce4bgt92rcd13ifvqcg0","pricing_plan_id":"free"},{"bike_id":"f908880e-b233-4e54-9e91-657533675421","system_id":"levelo_inurba_marseille","lat":43.311203,"lon":5.37772,"is_reserved":false,"is_disabled":false,"rental_uris":{"android":"levelo://app?vid=f908880e-b233-4e54-9e91-657533675421","ios":"levelo://app?vid=f908880e-b233-4e54-9e91-657533675421"},"vehicle_type_id":"4","last_reported":1706306778,"current_range_meters":11200,"station_id":"ce4bgt92rcd13ifvqcg0","pricing_plan_id":"free"},{"bike_id":"7912ef14-46e0-4fa3-8b27-205683eaa5c7","system_id":"levelo_inurba_marseille","lat":43.311093,"lon":5.37769,"is_reserved":false,"is_disabled":false,"rental_uris":{"android":"levelo://app?vid=7912ef14-46e0-4fa3-8b27-205683eaa5c7","ios":"levelo://app?vid=7912ef14-46e0-4fa3-8b27-205683eaa5c7"},"vehicle_type_id":"4","last_reported":1706306778,"current_range_meters":0,"station_id":"ce4bgt92rcd13ifvqcg0","pricing_plan_id":"free"},{"bike_id":"8e94f265-5043-44b3-8de4-968fa1620d0f","system_id":"levelo_inurba_marseille","lat":43.307945,"lon":5.376487,"is_reserved":false,"is_disabled":false,"rental_uris":{"android":"levelo://app?vid=8e94f265-5043-44b3-8de4-968fa1620d0f","ios":"levelo://app?vid=8e94f265-5043-44b3-8de4-968fa1620d0f"},"vehicle_type_id":"4","last_reported":1706306778,"current_range_meters":24400,"station_id":"ce4bgv92rcd13ifvqcq0","pricing_plan_id":"free"},{"bike_id":"0e11932e-17b7-4146-8e63-2f6f24b1e8ce","system_id":"levelo_inurba_marseille","lat":43.30784,"lon":5.37651,"is_reserved":false,"is_disabled":false,"rental_uris":{"android":"levelo://app?vid=0e11932e-17b7-4146-8e63-2f6f24b1e8ce","ios":"levelo://app?vid=0e11932e-17b7-4146-8e63-2f6f24b1e8ce"},"vehicle_type_id":"4","last_reported":1706306778,"current_range_meters":0,"station_id":"ce4bgv92rcd13ifvqcq0","pricing_plan_id":"free"},{"bike_id":"5b0a56ae-3d70-40f6-ad3f-78c604f89c73","system_id":"levelo_inurba_marseille","lat":43.31246,"lon":5.37985,"is_reserved":false,"is_disabled":false,"rental_uris":{"android":"levelo://app?vid=5b0a56ae-3d70-40f6-ad3f-78c604f89c73","ios":"levelo://app?vid=5b0a56ae-3d70-40f6-ad3f-78c604f89c73"},"vehicle_type_id":"4","last_reported":1706306778,"current_range_meters":15600,"station_id":"","pricing_plan_id":"free"},{"bike_id":"78ff511a-5c93-44b7-be2d-262e094e90fc","system_id":"levelo_inurba_marseille","lat":43.301939,"lon":5.366286,"is_reserved":false,"is_disabled":false,"rental_uris":{"android":"levelo://app?vid=78ff511a-5c93-44b7-be2d-262e094e90fc","ios":"levelo://app?vid=78ff511a-5c93-44b7-be2d-262e094e90fc"},"vehicle_type_id":"4","last_reported":1706306778,"current_range_meters":16000,"station_id":"ce4bgrh2rcd13ifvqc8g","pricing_plan_id":"free"},{"bike_id":"b84161d2-3ceb-4cba-a4a2-0f03aca37d34","system_id":"levelo_inurba_marseille","lat":43.308012,"lon":5.381511,"is_reserved":false,"is_disabled":false,"rental_uris":{"android":"levelo://app?vid=b84161d2-3ceb-4cba-a4a2-0f03aca37d34","ios":"levelo://app?vid=b84161d2-3ceb-4cba-a4a2-0f03aca37d34"},"vehicle_type_id":"4","last_reported":1706306778,"current_range_meters":16400,"station_id":"ce4bgt12rcd13ifvqce0","pricing_plan_id":"free"},{"bike_id":"d7199dfd-52e9-42b7-84ce-31adcdc5f4e9","system_id":"levelo_inurba_marseille","lat":43.308012,"lon":5.381511,"is_reserved":false,"is_disabled":false,"rental_uris":{"android":"levelo://app?vid=d7199dfd-52e9-42b7-84ce-31adcdc5f4e9","ios":"levelo://app?vid=d7199dfd-52e9-42b7-84ce-31adcdc5f4e9"},"vehicle_type_id":"4","last_reported":1706306778,"current_range_meters":0,"station_id":"ce4bgt12rcd13ifvqce0","pricing_plan_id":"free"},{"bike_id":"6ad6d312-9642-48f4-942f-af2631f8f5f4","system_id":"levelo_inurba_marseille","lat":43.308007,"lon":5.381529,"is_reserved":false,"is_disabled":false,"rental_uris":{"android":"levelo://app?vid=6ad6d312-9642-48f4-942f-af2631f8f5f4","ios":"levelo://app?vid=6ad6d312-9642-48f4-942f-af2631f8f5f4"},"vehicle_type_id":"4","last_reported":1706306778,"current_range_meters":16800,"station_id":"ce4bgt12rcd13ifvqce0","pricing_plan_id":"free"},{"bike_id":"eff8b3d0-9a12-4174-893f-1204555dbdca","system_id":"levelo_inurba_marseille","lat":43.30797,"lon":5.38152,"is_reserved":false,"is_disabled":false,"rental_uris":{"android":"levelo://app?vid=eff8b3d0-9a12-4174-893f-1204555dbdca","ios":"levelo://app?vid=eff8b3d0-9a12-4174-893f-1204555dbdca"},"vehicle_type_id":"4","last_reported":1706306778,"current_range_meters":4000,"station_id":"ce4bgt12rcd13ifvqce0","pricing_plan_id":"free"},{"bike_id":"5da5496e-1e00-40b9-a857-5b38098f6938","system_id":"levelo_inurba_marseille","lat":43.308012,"lon":5.381511,"is_reserved":false,"is_disabled":false,"rental_uris":{"android":"levelo://app?vid=5da5496e-1e00-40b9-a857-5b38098f6938","ios":"levelo://app?vid=5da5496e-1e00-40b9-a857-5b38098f6938"},"vehicle_type_id":"4","last_reported":1706306778,"current_range_meters":0,"station_id":"ce4bgt12rcd13ifvqce0","pricing_plan_id":"free"},{"bike_id":"54f58f4f-9f1a-461d-bf0f-583c132184d8","system_id":"levelo_inurba_marseille","lat":43.308012,"lon":5.381511,"is_reserved":false,"is_disabled":false,"rental_uris":{"android":"levelo://app?vid=54f58f4f-9f1a-461d-bf0f-583c132184d8","ios":"levelo://app?vid=54f58f4f-9f1a-461d-bf0f-583c132184d8"},"vehicle_type_id":"4","last_reported":1706306778,"current_range_meters":3200,"station_id":"ce4bgt12rcd13ifvqce0","pricing_plan_id":"free"},{"bike_id":"af16ae4b-f841-4828-a3c5-812e5d12e3d1","system_id":"levelo_inurba_marseille","lat":43.304606,"lon":5.379026,"is_reserved":false,"is_disabled":false,"rental_uris":{"android":"levelo://app?vid=af16ae4b-f841-4828-a3c5-812e5d12e3d1","ios":"levelo://app?vid=af16ae4b-f841-4828-a3c5-812e5d12e3d1"},"vehicle_type_id":"4","last_reported":1706306778,"current_range_meters":8000,"station_id":"ce4bgup2rcd13ifvqcn0","pricing_plan_id":"free"},{"bike_id":"bad431fd-0d71-417d-8027-dea0abde6beb","system_id":"levelo_inurba_marseille","lat":43.324771,"lon":5.36557,"is_reserved":false,"is_disabled":false,"rental_uris":{"android":"levelo://app?vid=bad431fd-0d71-417d-8027-dea0abde6beb","ios":"levelo://app?vid=bad431fd-0d71-417d-8027-dea0abde6beb"},"vehicle_type_id":"4","last_reported":1706306778,"current_range_meters":8400,"station_id":"ce4bhs12rcd13ifvqhvg","pricing_plan_id":"free"},{"bike_id":"27d0e697-d169-4da6-8565-a146c692e779","system_id":"levelo_inurba_marseille","lat":43.324771,"lon":5.36557,"is_reserved":false,"is_disabled":false,"rental_uris":{"android":"levelo://app?vid=27d0e697-d169-4da6-8565-a146c692e779","ios":"levelo://app?vid=27d0e697-d169-4da6-8565-a146c692e779"},"vehicle_type_id":"4","last_reported":1706306778,"current_range_meters":10400,"station_id":"ce4bhs12rcd13ifvqhvg","pricing_plan_id":"free"},{"bike_id":"e3cfa974-2663-4965-a96a-f55f3013619c","system_id":"levelo_inurba_marseille","lat":43.324771,"lon":5.36557,"is_reserved":false,"is_disabled":false,"rental_uris":{"android":"levelo://app?vid=e3cfa974-2663-4965-a96a-f55f3013619c","ios":"levelo://app?vid=e3cfa974-2663-4965-a96a-f55f3013619c"},"vehicle_type_id":"4","last_reported":1706306778,"current_range_meters":7200,"station_id":"ce4bhs12rcd13ifvqhvg","pricing_plan_id":"free"},{"bike_id":"d20eb7e9-cf29-463d-9e73-0bc301e970b5","system_id":"levelo_inurba_marseille","lat":43.324771,"lon":5.36557,"is_reserved":false,"is_disabled":false,"rental_uris":{"android":"levelo://app?vid=d20eb7e9-cf29-463d-9e73-0bc301e970b5","ios":"levelo://app?vid=d20eb7e9-cf29-463d-9e73-0bc301e970b5"},"vehicle_type_id":"4","last_reported":1706306778,"current_range_meters":24000,"station_id":"ce4bhs12rcd13ifvqhvg","pricing_plan_id":"free"},{"bike_id":"ec40115e-0430-4944-8ece-51306c67ea7e","system_id":"levelo_inurba_marseille","lat":43.324771,"lon":5.36557,"is_reserved":false,"is_disabled":false,"rental_uris":{"android":"levelo://app?vid=ec40115e-0430-4944-8ece-51306c67ea7e","ios":"levelo://app?vid=ec40115e-0430-4944-8ece-51306c67ea7e"},"vehicle_type_id":"4","last_reported":1706306778,"current_range_meters":18000,"station_id":"ce4bhs12rcd13ifvqhvg","pricing_plan_id":"free"},{"bike_id":"3571f4a0-60e6-408b-8bf2-bfbcac1e0195","system_id":"levelo_inurba_marseille","lat":43.324771,"lon":5.36557,"is_reserved":false,"is_disabled":false,"rental_uris":{"android":"levelo://app?vid=3571f4a0-60e6-408b-8bf2-bfbcac1e0195","ios":"levelo://app?vid=3571f4a0-60e6-408b-8bf2-bfbcac1e0195"},"vehicle_type_id":"4","last_reported":1706306778,"current_range_meters":4800,"station_id":"ce4bhs12rcd13ifvqhvg","pricing_plan_id":"free"},{"bike_id":"848ae957-72ee-4810-a9c3-a97d1fd5f547","system_id":"levelo_inurba_marseille","lat":43.301429,"lon":5.37413,"is_reserved":false,"is_disabled":false,"rental_uris":{"android":"levelo://app?vid=848ae957-72ee-4810-a9c3-a97d1fd5f547","ios":"levelo://app?vid=848ae957-72ee-4810-a9c3-a97d1fd5f547"},"vehicle_type_id":"4","last_reported":1706306778,"current_range_meters":20000,"station_id":"ce4bgs92rcd13ifvqcc0","pricing_plan_id":"free"},{"bike_id":"fc51b747-b33f-40c9-9c2c-bd6f886bc3e2","system_id":"levelo_inurba_marseille","lat":43.319888,"lon":5.381428,"is_reserved":false,"is_disabled":false,"rental_uris":{"android":"levelo://app?vid=fc51b747-b33f-40c9-9c2c-bd6f886bc3e2","ios":"levelo://app?vid=fc51b747-b33f-40c9-9c2c-bd6f886bc3e2"},"vehicle_type_id":"4","last_reported":1706306778,"current_range_meters":12800,"station_id":"ce4bhr12rcd13ifvqhpg","pricing_plan_id":"free"},{"bike_id":"fbd1c7c8-59f4-40f3-bd13-92a41198f404","system_id":"levelo_inurba_marseille","lat":43.319935,"lon":5.381699,"is_reserved":false,"is_disabled":false,"rental_uris":{"android":"levelo://app?vid=fbd1c7c8-59f4-40f3-bd13-92a41198f404","ios":"levelo://app?vid=fbd1c7c8-59f4-40f3-bd13-92a41198f404"},"vehicle_type_id":"4","last_reported":1706306778,"current_range_meters":19200,"station_id":"ce4bhr12rcd13ifvqhpg","pricing_plan_id":"free"},{"bike_id":"01533f59-2c23-4279-b5fa-c0608335cf09","system_id":"levelo_inurba_marseille","lat":43.319993,"lon":5.381495,"is_reserved":false,"is_disabled":false,"rental_uris":{"android":"levelo://app?vid=01533f59-2c23-4279-b5fa-c0608335cf09","ios":"levelo://app?vid=01533f59-2c23-4279-b5fa-c0608335cf09"},"vehicle_type_id":"4","last_reported":1706306778,"current_range_meters":400,"station_id":"ce4bhr12rcd13ifvqhpg","pricing_plan_id":"free"},{"bike_id":"5f7ec9ca-defa-4048-96f4-b62ebd1a927a","system_id":"levelo_inurba_marseille","lat":43.319935,"lon":5.381699,"is_reserved":false,"is_disabled":false,"rental_uris":{"android":"levelo://app?vid=5f7ec9ca-defa-4048-96f4-b62ebd1a927a","ios":"levelo://app?vid=5f7ec9ca-defa-4048-96f4-b62ebd1a927a"},"vehicle_type_id":"4","last_reported":1706306778,"current_range_meters":21600,"station_id":"ce4bhr12rcd13ifvqhpg","pricing_plan_id":"free"},{"bike_id":"ae7ab608-8fac-4c0d-9f43-8ffacb07a49d","system_id":"levelo_inurba_marseille","lat":43.319935,"lon":5.381699,"is_reserved":false,"is_disabled":false,"rental_uris":{"android":"levelo://app?vid=ae7ab608-8fac-4c0d-9f43-8ffacb07a49d","ios":"levelo://app?vid=ae7ab608-8fac-4c0d-9f43-8ffacb07a49d"},"vehicle_type_id":"4","last_reported":1706306778,"current_range_meters":9600,"station_id":"ce4bhr12rcd13ifvqhpg","pricing_plan_id":"free"},{"bike_id":"fd388e30-6c90-4fbf-abdf-dd15ef425659","system_id":"levelo_inurba_marseille","lat":43.319967,"lon":5.381565,"is_reserved":false,"is_disabled":false,"rental_uris":{"android":"levelo://app?vid=fd388e30-6c90-4fbf-abdf-dd15ef425659","ios":"levelo://app?vid=fd388e30-6c90-4fbf-abdf-dd15ef425659"},"vehicle_type_id":"4","last_reported":1706306778,"current_range_meters":8800,"station_id":"ce4bhr12rcd13ifvqhpg","pricing_plan_id":"free"},{"bike_id":"d11a1f3a-d548-483b-8bfb-a3d43524c954","system_id":"levelo_inurba_marseille","lat":43.319935,"lon":5.381699,"is_reserved":false,"is_disabled":false,"rental_uris":{"android":"levelo://app?vid=d11a1f3a-d548-483b-8bfb-a3d43524c954","ios":"levelo://app?vid=d11a1f3a-d548-483b-8bfb-a3d43524c954"},"vehicle_type_id":"4","last_reported":1706306778,"current_range_meters":400,"station_id":"ce4bhr12rcd13ifvqhpg","pricing_plan_id":"free"},{"bike_id":"d8d04777-40d0-4693-ab18-0c08b137c5e6","system_id":"levelo_inurba_marseille","lat":43.31369,"lon":5.384833,"is_reserved":false,"is_disabled":false,"rental_uris":{"android":"levelo://app?vid=d8d04777-40d0-4693-ab18-0c08b137c5e6","ios":"levelo://app?vid=d8d04777-40d0-4693-ab18-0c08b137c5e6"},"vehicle_type_id":"4","last_reported":1706306778,"current_range_meters":22000,"station_id":"ce4bgt92rcd13ifvqcf0","pricing_plan_id":"free"},{"bike_id":"8b046161-6dc9-460f-b134-2023dde79010","system_id":"levelo_inurba_marseille","lat":43.30008,"lon":5.37143,"is_reserved":false,"is_disabled":false,"rental_uris":{"android":"levelo://app?vid=8b046161-6dc9-460f-b134-2023dde79010","ios":"levelo://app?vid=8b046161-6dc9-460f-b134-2023dde79010"},"vehicle_type_id":"4","last_reported":1706306778,"current_range_meters":15600,"station_id":"","pricing_plan_id":"free"},{"bike_id":"f4fdbec7-68ff-4a23-9ff6-ffa00252eda4","system_id":"levelo_inurba_marseille","lat":43.31365,"lon":5.38489,"is_reserved":false,"is_disabled":false,"rental_uris":{"android":"levelo://app?vid=f4fdbec7-68ff-4a23-9ff6-ffa00252eda4","ios":"levelo://app?vid=f4fdbec7-68ff-4a23-9ff6-ffa00252eda4"},"vehicle_type_id":"4","last_reported":1706306778,"current_range_meters":27600,"station_id":"ce4bgt92rcd13ifvqcf0","pricing_plan_id":"free"},{"bike_id":"f635fb85-5dae-4cdf-b8ba-8940de8b63e5","system_id":"levelo_inurba_marseille","lat":43.313571,"lon":5.384829,"is_reserved":false,"is_disabled":false,"rental_uris":{"android":"levelo://app?vid=f635fb85-5dae-4cdf-b8ba-8940de8b63e5","ios":"levelo://app?vid=f635fb85-5dae-4cdf-b8ba-8940de8b63e5"},"vehicle_type_id":"4","last_reported":1706306778,"current_range_meters":31200,"station_id":"ce4bgt92rcd13ifvqcf0","pricing_plan_id":"free"},{"bike_id":"b2c50230-cc4d-4dad-92cb-6de6eaacfbb6","system_id":"levelo_inurba_marseille","lat":43.299222,"lon":5.365554,"is_reserved":false,"is_disabled":false,"rental_uris":{"android":"levelo://app?vid=b2c50230-cc4d-4dad-92cb-6de6eaacfbb6","ios":"levelo://app?vid=b2c50230-cc4d-4dad-92cb-6de6eaacfbb6"},"vehicle_type_id":"4","last_reported":1706306778,"current_range_meters":12000,"station_id":"ce4bgm92rcd13ifvqbr0","pricing_plan_id":"free"},{"bike_id":"667af64d-1884-48bd-a133-399c1c053d8b","system_id":"levelo_inurba_marseille","lat":43.299222,"lon":5.365554,"is_reserved":false,"is_disabled":false,"rental_uris":{"android":"levelo://app?vid=667af64d-1884-48bd-a133-399c1c053d8b","ios":"levelo://app?vid=667af64d-1884-48bd-a133-399c1c053d8b"},"vehicle_type_id":"4","last_reported":1706306778,"current_range_meters":11200,"station_id":"ce4bgm92rcd13ifvqbr0","pricing_plan_id":"free"},{"bike_id":"e090a7fa-1bbf-44d5-b992-c2b577b050c9","system_id":"levelo_inurba_marseille","lat":43.299724,"lon":5.371829,"is_reserved":false,"is_disabled":false,"rental_uris":{"android":"levelo://app?vid=e090a7fa-1bbf-44d5-b992-c2b577b050c9","ios":"levelo://app?vid=e090a7fa-1bbf-44d5-b992-c2b577b050c9"},"vehicle_type_id":"4","last_reported":1706306778,"current_range_meters":6000,"station_id":"ce4bgr92rcd13ifvqc7g","pricing_plan_id":"free"},{"bike_id":"33cf7739-8575-4eb8-8a2f-71af7c96d9fc","system_id":"levelo_inurba_marseille","lat":43.299724,"lon":5.371829,"is_reserved":false,"is_disabled":false,"rental_uris":{"android":"levelo://app?vid=33cf7739-8575-4eb8-8a2f-71af7c96d9fc","ios":"levelo://app?vid=33cf7739-8575-4eb8-8a2f-71af7c96d9fc"},"vehicle_type_id":"4","last_reported":1706306778,"current_range_meters":5600,"station_id":"ce4bgr92rcd13ifvqc7g","pricing_plan_id":"free"},{"bike_id":"a1622f78-7429-4629-ba66-59e0b8659521","system_id":"levelo_inurba_marseille","lat":43.299724,"lon":5.371829,"is_reserved":false,"is_disabled":false,"rental_uris":{"android":"levelo://app?vid=a1622f78-7429-4629-ba66-59e0b8659521","ios":"levelo://app?vid=a1622f78-7429-4629-ba66-59e0b8659521"},"vehicle_type_id":"4","last_reported":1706306778,"current_range_meters":18800,"station_id":"ce4bgr92rcd13ifvqc7g","pricing_plan_id":"free"},{"bike_id":"ce01c9ac-c495-498e-b746-48901a2604e8","system_id":"levelo_inurba_marseille","lat":43.299222,"lon":5.365554,"is_reserved":false,"is_disabled":false,"rental_uris":{"android":"levelo://app?vid=ce01c9ac-c495-498e-b746-48901a2604e8","ios":"levelo://app?vid=ce01c9ac-c495-498e-b746-48901a2604e8"},"vehicle_type_id":"4","last_reported":1706306778,"current_range_meters":4800,"station_id":"ce4bgm92rcd13ifvqbr0","pricing_plan_id":"free"},{"bike_id":"86ca605a-48b3-433c-9666-07c3c5ac4379","system_id":"levelo_inurba_marseille","lat":43.318434,"lon":5.384279,"is_reserved":false,"is_disabled":false,"rental_uris":{"android":"levelo://app?vid=86ca605a-48b3-433c-9666-07c3c5ac4379","ios":"levelo://app?vid=86ca605a-48b3-433c-9666-07c3c5ac4379"},"vehicle_type_id":"4","last_reported":1706306778,"current_range_meters":1200,"station_id":"","pricing_plan_id":"free"},{"bike_id":"fec4b285-d202-4368-b24a-6d8377bb2319","system_id":"levelo_inurba_marseille","lat":43.298433,"lon":5.362774,"is_reserved":false,"is_disabled":false,"rental_uris":{"android":"levelo://app?vid=fec4b285-d202-4368-b24a-6d8377bb2319","ios":"levelo://app?vid=fec4b285-d202-4368-b24a-6d8377bb2319"},"vehicle_type_id":"4","last_reported":1706306778,"current_range_meters":16400,"station_id":"ce4bgpp2rcd13ifvqc3g","pricing_plan_id":"free"},{"bike_id":"9565a0ba-b16a-4c30-a4dd-d79dcd6f1fa8","system_id":"levelo_inurba_marseille","lat":43.305364,"lon":5.384119,"is_reserved":false,"is_disabled":false,"rental_uris":{"android":"levelo://app?vid=9565a0ba-b16a-4c30-a4dd-d79dcd6f1fa8","ios":"levelo://app?vid=9565a0ba-b16a-4c30-a4dd-d79dcd6f1fa8"},"vehicle_type_id":"4","last_reported":1706306778,"current_range_meters":10800,"station_id":"ce4bgg92rcd13ifvqb30","pricing_plan_id":"free"},{"bike_id":"cfb5f53d-51e4-401f-960c-f2804a3a3149","system_id":"levelo_inurba_marseille","lat":43.298433,"lon":5.362774,"is_reserved":false,"is_disabled":false,"rental_uris":{"android":"levelo://app?vid=cfb5f53d-51e4-401f-960c-f2804a3a3149","ios":"levelo://app?vid=cfb5f53d-51e4-401f-960c-f2804a3a3149"},"vehicle_type_id":"4","last_reported":1706306778,"current_range_meters":21200,"station_id":"ce4bgpp2rcd13ifvqc3g","pricing_plan_id":"free"},{"bike_id":"0ed08762-4714-4cec-9df0-a5c4a109ab09","system_id":"levelo_inurba_marseille","lat":43.298433,"lon":5.362774,"is_reserved":false,"is_disabled":false,"rental_uris":{"android":"levelo://app?vid=0ed08762-4714-4cec-9df0-a5c4a109ab09","ios":"levelo://app?vid=0ed08762-4714-4cec-9df0-a5c4a109ab09"},"vehicle_type_id":"4","last_reported":1706306778,"current_range_meters":12000,"station_id":"ce4bgpp2rcd13ifvqc3g","pricing_plan_id":"free"},{"bike_id":"94d0ccd4-7d90-4e96-b1d6-b2d54d7db676","system_id":"levelo_inurba_marseille","lat":43.303837,"lon":5.418724,"is_reserved":false,"is_disabled":false,"rental_uris":{"android":"levelo://app?vid=94d0ccd4-7d90-4e96-b1d6-b2d54d7db676","ios":"levelo://app?vid=94d0ccd4-7d90-4e96-b1d6-b2d54d7db676"},"vehicle_type_id":"4","last_reported":1706306778,"current_range_meters":29600,"station_id":"ce4bhop2rcd13ifvqh7g","pricing_plan_id":"free"},{"bike_id":"f9342270-9d95-47b7-87dd-a57a4dd4e0cf","system_id":"levelo_inurba_marseille","lat":43.297794,"lon":5.370888,"is_reserved":false,"is_disabled":false,"rental_uris":{"android":"levelo://app?vid=f9342270-9d95-47b7-87dd-a57a4dd4e0cf","ios":"levelo://app?vid=f9342270-9d95-47b7-87dd-a57a4dd4e0cf"},"vehicle_type_id":"4","last_reported":1706306778,"current_range_meters":15200,"station_id":"ce4bgop2rcd13ifvqc1g","pricing_plan_id":"free"},{"bike_id":"0ccce60e-d5e2-4ddb-a490-72bbc5e1e12b","system_id":"levelo_inurba_marseille","lat":43.297774,"lon":5.370875,"is_reserved":false,"is_disabled":false,"rental_uris":{"android":"levelo://app?vid=0ccce60e-d5e2-4ddb-a490-72bbc5e1e12b","ios":"levelo://app?vid=0ccce60e-d5e2-4ddb-a490-72bbc5e1e12b"},"vehicle_type_id":"4","last_reported":1706306778,"current_range_meters":23200,"station_id":"ce4bgop2rcd13ifvqc1g","pricing_plan_id":"free"},{"bike_id":"954978ec-5c69-45bc-8603-a76c94a9ea2f","system_id":"levelo_inurba_marseille","lat":43.322872,"lon":5.382756,"is_reserved":false,"is_disabled":false,"rental_uris":{"android":"levelo://app?vid=954978ec-5c69-45bc-8603-a76c94a9ea2f","ios":"levelo://app?vid=954978ec-5c69-45bc-8603-a76c94a9ea2f"},"vehicle_type_id":"4","last_reported":1706306778,"current_range_meters":26400,"station_id":"ce4bhr12rcd13ifvqhqg","pricing_plan_id":"free"},{"bike_id":"8889a62b-f08d-43d6-bbc3-74d3cb3d445f","system_id":"levelo_inurba_marseille","lat":43.322872,"lon":5.382756,"is_reserved":false,"is_disabled":false,"rental_uris":{"android":"levelo://app?vid=8889a62b-f08d-43d6-bbc3-74d3cb3d445f","ios":"levelo://app?vid=8889a62b-f08d-43d6-bbc3-74d3cb3d445f"},"vehicle_type_id":"4","last_reported":1706306778,"current_range_meters":31200,"station_id":"ce4bhr12rcd13ifvqhqg","pricing_plan_id":"free"},{"bike_id":"bb5cc78f-0a25-43e2-927a-9d5a0eeb06b6","system_id":"levelo_inurba_marseille","lat":43.32292,"lon":5.38268,"is_reserved":false,"is_disabled":false,"rental_uris":{"android":"levelo://app?vid=bb5cc78f-0a25-43e2-927a-9d5a0eeb06b6","ios":"levelo://app?vid=bb5cc78f-0a25-43e2-927a-9d5a0eeb06b6"},"vehicle_type_id":"4","last_reported":1706306778,"current_range_meters":19200,"station_id":"ce4bhr12rcd13ifvqhqg","pricing_plan_id":"free"},{"bike_id":"ef5c6378-e000-405f-ab30-38f17e98c38f","system_id":"levelo_inurba_marseille","lat":43.322872,"lon":5.382756,"is_reserved":false,"is_disabled":false,"rental_uris":{"android":"levelo://app?vid=ef5c6378-e000-405f-ab30-38f17e98c38f","ios":"levelo://app?vid=ef5c6378-e000-405f-ab30-38f17e98c38f"},"vehicle_type_id":"4","last_reported":1706306778,"current_range_meters":20000,"station_id":"ce4bhr12rcd13ifvqhqg","pricing_plan_id":"free"},{"bike_id":"67d8d90e-67fa-434f-898a-7b950671e663","system_id":"levelo_inurba_marseille","lat":43.297163,"lon":5.365866,"is_reserved":false,"is_disabled":false,"rental_uris":{"android":"levelo://app?vid=67d8d90e-67fa-434f-898a-7b950671e663","ios":"levelo://app?vid=67d8d90e-67fa-434f-898a-7b950671e663"},"vehicle_type_id":"4","last_reported":1706306778,"current_range_meters":12800,"station_id":"ce4bgn12rcd13ifvqbt0","pricing_plan_id":"free"},{"bike_id":"a475c388-06ff-475d-939c-a17c2b04fce9","system_id":"levelo_inurba_marseille","lat":43.297163,"lon":5.365866,"is_reserved":false,"is_disabled":false,"rental_uris":{"android":"levelo://app?vid=a475c388-06ff-475d-939c-a17c2b04fce9","ios":"levelo://app?vid=a475c388-06ff-475d-939c-a17c2b04fce9"},"vehicle_type_id":"4","last_reported":1706306778,"current_range_meters":5600,"station_id":"ce4bgn12rcd13ifvqbt0","pricing_plan_id":"free"},{"bike_id":"335ba0f2-703e-4760-8c97-19ddb643fdcb","system_id":"levelo_inurba_marseille","lat":43.2968,"lon":5.37291,"is_reserved":false,"is_disabled":false,"rental_uris":{"android":"levelo://app?vid=335ba0f2-703e-4760-8c97-19ddb643fdcb","ios":"levelo://app?vid=335ba0f2-703e-4760-8c97-19ddb643fdcb"},"vehicle_type_id":"4","last_reported":1706306778,"current_range_meters":23200,"station_id":"ce4bgk12rcd13ifvqbj0","pricing_plan_id":"free"},{"bike_id":"6fe3a748-b306-4a70-bd02-36b597307af6","system_id":"levelo_inurba_marseille","lat":43.295979,"lon":5.367906,"is_reserved":false,"is_disabled":false,"rental_uris":{"android":"levelo://app?vid=6fe3a748-b306-4a70-bd02-36b597307af6","ios":"levelo://app?vid=6fe3a748-b306-4a70-bd02-36b597307af6"},"vehicle_type_id":"4","last_reported":1706306778,"current_range_meters":18800,"station_id":"","pricing_plan_id":"free"},{"bike_id":"89300def-dfb4-4521-9f80-6601bbad00ae","system_id":"levelo_inurba_marseille","lat":43.296129,"lon":5.370777,"is_reserved":false,"is_disabled":false,"rental_uris":{"android":"levelo://app?vid=89300def-dfb4-4521-9f80-6601bbad00ae","ios":"levelo://app?vid=89300def-dfb4-4521-9f80-6601bbad00ae"},"vehicle_type_id":"4","last_reported":1706306778,"current_range_meters":4000,"station_id":"ce4bgnh2rcd13ifvqc0g","pricing_plan_id":"free"},{"bike_id":"0d19dcdd-ac0a-4d27-95dc-133a95d77965","system_id":"levelo_inurba_marseille","lat":43.296131,"lon":5.370773,"is_reserved":false,"is_disabled":false,"rental_uris":{"android":"levelo://app?vid=0d19dcdd-ac0a-4d27-95dc-133a95d77965","ios":"levelo://app?vid=0d19dcdd-ac0a-4d27-95dc-133a95d77965"},"vehicle_type_id":"4","last_reported":1706306778,"current_range_meters":20400,"station_id":"ce4bgnh2rcd13ifvqc0g","pricing_plan_id":"free"},{"bike_id":"6cb34488-bbb4-478f-9ae2-366ef13ddea8","system_id":"levelo_inurba_marseille","lat":43.29573,"lon":5.367355,"is_reserved":false,"is_disabled":false,"rental_uris":{"android":"levelo://app?vid=6cb34488-bbb4-478f-9ae2-366ef13ddea8","ios":"levelo://app?vid=6cb34488-bbb4-478f-9ae2-366ef13ddea8"},"vehicle_type_id":"4","last_reported":1706306778,"current_range_meters":25200,"station_id":"ce4bgph2rcd13ifvqc2g","pricing_plan_id":"free"},{"bike_id":"8bad8b8a-9d3f-4dbf-801d-bdeb1a14987a","system_id":"levelo_inurba_marseille","lat":43.299208,"lon":5.381463,"is_reserved":false,"is_disabled":false,"rental_uris":{"android":"levelo://app?vid=8bad8b8a-9d3f-4dbf-801d-bdeb1a14987a","ios":"levelo://app?vid=8bad8b8a-9d3f-4dbf-801d-bdeb1a14987a"},"vehicle_type_id":"4","last_reported":1706306778,"current_range_meters":0,"station_id":"ce4bgj12rcd13ifvqbc0","pricing_plan_id":"free"},{"bike_id":"2d20dfeb-8676-48cf-a859-b64155de9fcf","system_id":"levelo_inurba_marseille","lat":43.296935,"lon":5.376544,"is_reserved":false,"is_disabled":false,"rental_uris":{"android":"levelo://app?vid=2d20dfeb-8676-48cf-a859-b64155de9fcf","ios":"levelo://app?vid=2d20dfeb-8676-48cf-a859-b64155de9fcf"},"vehicle_type_id":"4","last_reported":1706306778,"current_range_meters":2800,"station_id":"ce4bgkh2rcd13ifvqbl0","pricing_plan_id":"free"},{"bike_id":"7e6f2d9a-84ac-4027-ba76-dcd007dc3252","system_id":"levelo_inurba_marseille","lat":43.29867,"lon":5.38087,"is_reserved":false,"is_disabled":false,"rental_uris":{"android":"levelo://app?vid=7e6f2d9a-84ac-4027-ba76-dcd007dc3252","ios":"levelo://app?vid=7e6f2d9a-84ac-4027-ba76-dcd007dc3252"},"vehicle_type_id":"4","last_reported":1706306778,"current_range_meters":0,"station_id":"","pricing_plan_id":"free"},{"bike_id":"110504c4-9181-4917-abad-9a87ed972aeb","system_id":"levelo_inurba_marseille","lat":43.317557,"lon":5.390173,"is_reserved":false,"is_disabled":false,"rental_uris":{"android":"levelo://app?vid=110504c4-9181-4917-abad-9a87ed972aeb","ios":"levelo://app?vid=110504c4-9181-4917-abad-9a87ed972aeb"},"vehicle_type_id":"4","last_reported":1706306778,"current_range_meters":5600,"station_id":"ce4bhqp2rcd13ifvqhng","pricing_plan_id":"free"},{"bike_id":"39475547-4374-426a-84c3-16554e0c49d2","system_id":"levelo_inurba_marseille","lat":43.317557,"lon":5.390173,"is_reserved":false,"is_disabled":false,"rental_uris":{"android":"levelo://app?vid=39475547-4374-426a-84c3-16554e0c49d2","ios":"levelo://app?vid=39475547-4374-426a-84c3-16554e0c49d2"},"vehicle_type_id":"4","last_reported":1706306778,"current_range_meters":3600,"station_id":"ce4bhqp2rcd13ifvqhng","pricing_plan_id":"free"},{"bike_id":"af9f98fc-1b38-483c-9bb8-cf5dbd0ec1e8","system_id":"levelo_inurba_marseille","lat":43.317557,"lon":5.390173,"is_reserved":false,"is_disabled":false,"rental_uris":{"android":"levelo://app?vid=af9f98fc-1b38-483c-9bb8-cf5dbd0ec1e8","ios":"levelo://app?vid=af9f98fc-1b38-483c-9bb8-cf5dbd0ec1e8"},"vehicle_type_id":"4","last_reported":1706306778,"current_range_meters":31200,"station_id":"ce4bhqp2rcd13ifvqhng","pricing_plan_id":"free"},{"bike_id":"0f595ef8-b51a-4472-959d-bab2e4ed27f5","system_id":"levelo_inurba_marseille","lat":43.317557,"lon":5.390173,"is_reserved":false,"is_disabled":false,"rental_uris":{"android":"levelo://app?vid=0f595ef8-b51a-4472-959d-bab2e4ed27f5","ios":"levelo://app?vid=0f595ef8-b51a-4472-959d-bab2e4ed27f5"},"vehicle_type_id":"4","last_reported":1706306778,"current_range_meters":6400,"station_id":"ce4bhqp2rcd13ifvqhng","pricing_plan_id":"free"},{"bike_id":"bc409b47-248a-4d15-a58b-56cc0072d0d5","system_id":"levelo_inurba_marseille","lat":43.298007,"lon":5.380777,"is_reserved":false,"is_disabled":false,"rental_uris":{"android":"levelo://app?vid=bc409b47-248a-4d15-a58b-56cc0072d0d5","ios":"levelo://app?vid=bc409b47-248a-4d15-a58b-56cc0072d0d5"},"vehicle_type_id":"4","last_reported":1706306778,"current_range_meters":0,"station_id":"ce4bgip2rcd13ifvqbb0","pricing_plan_id":"free"},{"bike_id":"48bd6dd4-c622-4b05-829b-84f4cd7f8ef7","system_id":"levelo_inurba_marseille","lat":43.298024,"lon":5.380887,"is_reserved":false,"is_disabled":false,"rental_uris":{"android":"levelo://app?vid=48bd6dd4-c622-4b05-829b-84f4cd7f8ef7","ios":"levelo://app?vid=48bd6dd4-c622-4b05-829b-84f4cd7f8ef7"},"vehicle_type_id":"4","last_reported":1706306778,"current_range_meters":0,"station_id":"ce4bgip2rcd13ifvqbb0","pricing_plan_id":"free"},{"bike_id":"265590fe-cc72-4d9c-96ce-47298202305f","system_id":"levelo_inurba_marseille","lat":43.295815,"lon":5.375185,"is_reserved":false,"is_disabled":false,"rental_uris":{"android":"levelo://app?vid=265590fe-cc72-4d9c-96ce-47298202305f","ios":"levelo://app?vid=265590fe-cc72-4d9c-96ce-47298202305f"},"vehicle_type_id":"4","last_reported":1706306778,"current_range_meters":14800,"station_id":"ce4bgjh2rcd13ifvqbg0","pricing_plan_id":"free"},{"bike_id":"de65b9aa-39ef-4590-91f0-27cb71b4d043","system_id":"levelo_inurba_marseille","lat":43.304274,"lon":5.388873,"is_reserved":false,"is_disabled":false,"rental_uris":{"android":"levelo://app?vid=de65b9aa-39ef-4590-91f0-27cb71b4d043","ios":"levelo://app?vid=de65b9aa-39ef-4590-91f0-27cb71b4d043"},"vehicle_type_id":"4","last_reported":1706306778,"current_range_meters":4000,"station_id":"ce4bgk12rcd13ifvqbi0","pricing_plan_id":"free"},{"bike_id":"991d44df-d738-45af-bc33-a0d50d504265","system_id":"levelo_inurba_marseille","lat":43.304278,"lon":5.388868,"is_reserved":false,"is_disabled":false,"rental_uris":{"android":"levelo://app?vid=991d44df-d738-45af-bc33-a0d50d504265","ios":"levelo://app?vid=991d44df-d738-45af-bc33-a0d50d504265"},"vehicle_type_id":"4","last_reported":1706306778,"current_range_meters":21600,"station_id":"ce4bgk12rcd13ifvqbi0","pricing_plan_id":"free"},{"bike_id":"c522c9be-be8b-4be3-b46c-6427d33f0163","system_id":"levelo_inurba_marseille","lat":43.304278,"lon":5.388868,"is_reserved":false,"is_disabled":false,"rental_uris":{"android":"levelo://app?vid=c522c9be-be8b-4be3-b46c-6427d33f0163","ios":"levelo://app?vid=c522c9be-be8b-4be3-b46c-6427d33f0163"},"vehicle_type_id":"4","last_reported":1706306778,"current_range_meters":18000,"station_id":"ce4bgk12rcd13ifvqbi0","pricing_plan_id":"free"},{"bike_id":"542830c1-e594-4f99-84f4-ba4bac96891f","system_id":"levelo_inurba_marseille","lat":43.304274,"lon":5.388873,"is_reserved":false,"is_disabled":false,"rental_uris":{"android":"levelo://app?vid=542830c1-e594-4f99-84f4-ba4bac96891f","ios":"levelo://app?vid=542830c1-e594-4f99-84f4-ba4bac96891f"},"vehicle_type_id":"4","last_reported":1706306778,"current_range_meters":20400,"station_id":"ce4bgk12rcd13ifvqbi0","pricing_plan_id":"free"},{"bike_id":"6c72e281-9938-473a-bacd-fb8ec4bacee6","system_id":"levelo_inurba_marseille","lat":43.304274,"lon":5.388873,"is_reserved":false,"is_disabled":false,"rental_uris":{"android":"levelo://app?vid=6c72e281-9938-473a-bacd-fb8ec4bacee6","ios":"levelo://app?vid=6c72e281-9938-473a-bacd-fb8ec4bacee6"},"vehicle_type_id":"4","last_reported":1706306778,"current_range_meters":14400,"station_id":"ce4bgk12rcd13ifvqbi0","pricing_plan_id":"free"},{"bike_id":"4d4d2db2-b229-4415-99db-2c0fd70e71ad","system_id":"levelo_inurba_marseille","lat":43.304278,"lon":5.388868,"is_reserved":false,"is_disabled":false,"rental_uris":{"android":"levelo://app?vid=4d4d2db2-b229-4415-99db-2c0fd70e71ad","ios":"levelo://app?vid=4d4d2db2-b229-4415-99db-2c0fd70e71ad"},"vehicle_type_id":"4","last_reported":1706306778,"current_range_meters":4000,"station_id":"ce4bgk12rcd13ifvqbi0","pricing_plan_id":"free"},{"bike_id":"871f8211-935c-4759-ad48-ca7d5e569cbd","system_id":"levelo_inurba_marseille","lat":43.304278,"lon":5.388868,"is_reserved":false,"is_disabled":false,"rental_uris":{"android":"levelo://app?vid=871f8211-935c-4759-ad48-ca7d5e569cbd","ios":"levelo://app?vid=871f8211-935c-4759-ad48-ca7d5e569cbd"},"vehicle_type_id":"4","last_reported":1706306778,"current_range_meters":26800,"station_id":"ce4bgk12rcd13ifvqbi0","pricing_plan_id":"free"},{"bike_id":"5aaf6aff-1bfd-4043-bc5a-c5a1b6083666","system_id":"levelo_inurba_marseille","lat":43.30433,"lon":5.3889,"is_reserved":false,"is_disabled":false,"rental_uris":{"android":"levelo://app?vid=5aaf6aff-1bfd-4043-bc5a-c5a1b6083666","ios":"levelo://app?vid=5aaf6aff-1bfd-4043-bc5a-c5a1b6083666"},"vehicle_type_id":"4","last_reported":1706306778,"current_range_meters":0,"station_id":"ce4bgk12rcd13ifvqbi0","pricing_plan_id":"free"},{"bike_id":"ce8be4f2-0c50-4956-abf6-b60a647219d4","system_id":"levelo_inurba_marseille","lat":43.299707,"lon":5.384859,"is_reserved":false,"is_disabled":false,"rental_uris":{"android":"levelo://app?vid=ce8be4f2-0c50-4956-abf6-b60a647219d4","ios":"levelo://app?vid=ce8be4f2-0c50-4956-abf6-b60a647219d4"},"vehicle_type_id":"4","last_reported":1706306778,"current_range_meters":7600,"station_id":"ce4bgj92rcd13ifvqbd0","pricing_plan_id":"free"},{"bike_id":"932afe30-67dd-4647-8546-fce96be20a2a","system_id":"levelo_inurba_marseille","lat":43.295279,"lon":5.375048,"is_reserved":false,"is_disabled":false,"rental_uris":{"android":"levelo://app?vid=932afe30-67dd-4647-8546-fce96be20a2a","ios":"levelo://app?vid=932afe30-67dd-4647-8546-fce96be20a2a"},"vehicle_type_id":"4","last_reported":1706306778,"current_range_meters":26000,"station_id":"ce4bgkp2rcd13ifvqbmg","pricing_plan_id":"free"},{"bike_id":"40996b4a-fac6-4cc2-a8e8-9a9ba72f10c9","system_id":"levelo_inurba_marseille","lat":43.298614,"lon":5.383962,"is_reserved":false,"is_disabled":false,"rental_uris":{"android":"levelo://app?vid=40996b4a-fac6-4cc2-a8e8-9a9ba72f10c9","ios":"levelo://app?vid=40996b4a-fac6-4cc2-a8e8-9a9ba72f10c9"},"vehicle_type_id":"4","last_reported":1706306778,"current_range_meters":11600,"station_id":"","pricing_plan_id":"free"},{"bike_id":"0ea3fd81-3f73-43eb-a24e-cc7fa2617f9d","system_id":"levelo_inurba_marseille","lat":43.32367,"lon":5.388836,"is_reserved":false,"is_disabled":false,"rental_uris":{"android":"levelo://app?vid=0ea3fd81-3f73-43eb-a24e-cc7fa2617f9d","ios":"levelo://app?vid=0ea3fd81-3f73-43eb-a24e-cc7fa2617f9d"},"vehicle_type_id":"4","last_reported":1706306778,"current_range_meters":7200,"station_id":"ce4bhqp2rcd13ifvqhog","pricing_plan_id":"free"},{"bike_id":"110e294d-4ae1-4d3c-9a1c-3e70b490847b","system_id":"levelo_inurba_marseille","lat":43.32367,"lon":5.388836,"is_reserved":false,"is_disabled":false,"rental_uris":{"android":"levelo://app?vid=110e294d-4ae1-4d3c-9a1c-3e70b490847b","ios":"levelo://app?vid=110e294d-4ae1-4d3c-9a1c-3e70b490847b"},"vehicle_type_id":"4","last_reported":1706306778,"current_range_meters":10000,"station_id":"ce4bhqp2rcd13ifvqhog","pricing_plan_id":"free"},{"bike_id":"d7803bed-fb47-4ba6-b32d-728fc496b369","system_id":"levelo_inurba_marseille","lat":43.32367,"lon":5.388836,"is_reserved":false,"is_disabled":false,"rental_uris":{"android":"levelo://app?vid=d7803bed-fb47-4ba6-b32d-728fc496b369","ios":"levelo://app?vid=d7803bed-fb47-4ba6-b32d-728fc496b369"},"vehicle_type_id":"4","last_reported":1706306778,"current_range_meters":16000,"station_id":"ce4bhqp2rcd13ifvqhog","pricing_plan_id":"free"},{"bike_id":"cec4ad59-07b9-4fac-98fd-7e0e4d5c0fc2","system_id":"levelo_inurba_marseille","lat":43.32367,"lon":5.388836,"is_reserved":false,"is_disabled":false,"rental_uris":{"android":"levelo://app?vid=cec4ad59-07b9-4fac-98fd-7e0e4d5c0fc2","ios":"levelo://app?vid=cec4ad59-07b9-4fac-98fd-7e0e4d5c0fc2"},"vehicle_type_id":"4","last_reported":1706306778,"current_range_meters":12800,"station_id":"ce4bhqp2rcd13ifvqhog","pricing_plan_id":"free"},{"bike_id":"def703ed-e78e-4412-a809-c10b7fb945a5","system_id":"levelo_inurba_marseille","lat":43.323701,"lon":5.388835,"is_reserved":false,"is_disabled":false,"rental_uris":{"android":"levelo://app?vid=def703ed-e78e-4412-a809-c10b7fb945a5","ios":"levelo://app?vid=def703ed-e78e-4412-a809-c10b7fb945a5"},"vehicle_type_id":"4","last_reported":1706306778,"current_range_meters":27200,"station_id":"ce4bhqp2rcd13ifvqhog","pricing_plan_id":"free"},{"bike_id":"439458f2-c468-43ac-8531-4372a5b8883a","system_id":"levelo_inurba_marseille","lat":43.32367,"lon":5.388836,"is_reserved":false,"is_disabled":false,"rental_uris":{"android":"levelo://app?vid=439458f2-c468-43ac-8531-4372a5b8883a","ios":"levelo://app?vid=439458f2-c468-43ac-8531-4372a5b8883a"},"vehicle_type_id":"4","last_reported":1706306778,"current_range_meters":21200,"station_id":"ce4bhqp2rcd13ifvqhog","pricing_plan_id":"free"},{"bike_id":"6d4e98a9-3b8c-4251-9bc4-f50fadfe25a7","system_id":"levelo_inurba_marseille","lat":43.32364,"lon":5.38891,"is_reserved":false,"is_disabled":false,"rental_uris":{"android":"levelo://app?vid=6d4e98a9-3b8c-4251-9bc4-f50fadfe25a7","ios":"levelo://app?vid=6d4e98a9-3b8c-4251-9bc4-f50fadfe25a7"},"vehicle_type_id":"4","last_reported":1706306778,"current_range_meters":23200,"station_id":"ce4bhqp2rcd13ifvqhog","pricing_plan_id":"free"},{"bike_id":"92c03acb-7ff5-4980-983b-089ee27e81d8","system_id":"levelo_inurba_marseille","lat":43.292749,"lon":5.368398,"is_reserved":false,"is_disabled":false,"rental_uris":{"android":"levelo://app?vid=92c03acb-7ff5-4980-983b-089ee27e81d8","ios":"levelo://app?vid=92c03acb-7ff5-4980-983b-089ee27e81d8"},"vehicle_type_id":"4","last_reported":1706306778,"current_range_meters":400,"station_id":"ce4bhbp2rcd13ifvqesg","pricing_plan_id":"free"},{"bike_id":"9ad7e9a9-9036-476e-85db-36b4d8aba7e5","system_id":"levelo_inurba_marseille","lat":43.292743,"lon":5.368465,"is_reserved":false,"is_disabled":false,"rental_uris":{"android":"levelo://app?vid=9ad7e9a9-9036-476e-85db-36b4d8aba7e5","ios":"levelo://app?vid=9ad7e9a9-9036-476e-85db-36b4d8aba7e5"},"vehicle_type_id":"4","last_reported":1706306778,"current_range_meters":0,"station_id":"ce4bhbp2rcd13ifvqesg","pricing_plan_id":"free"},{"bike_id":"5400026a-4d63-41ef-87e9-5e68989a257b","system_id":"levelo_inurba_marseille","lat":43.2936,"lon":5.37835,"is_reserved":false,"is_disabled":false,"rental_uris":{"android":"levelo://app?vid=5400026a-4d63-41ef-87e9-5e68989a257b","ios":"levelo://app?vid=5400026a-4d63-41ef-87e9-5e68989a257b"},"vehicle_type_id":"4","last_reported":1706306778,"current_range_meters":28400,"station_id":"ce4bgjh2rcd13ifvqbf0","pricing_plan_id":"free"},{"bike_id":"21ad017d-fab2-46ef-8788-a128caad2db0","system_id":"levelo_inurba_marseille","lat":43.30304,"lon":5.39214,"is_reserved":false,"is_disabled":false,"rental_uris":{"android":"levelo://app?vid=21ad017d-fab2-46ef-8788-a128caad2db0","ios":"levelo://app?vid=21ad017d-fab2-46ef-8788-a128caad2db0"},"vehicle_type_id":"4","last_reported":1706306778,"current_range_meters":0,"station_id":"ce4bgkh2rcd13ifvqbk0","pricing_plan_id":"free"},{"bike_id":"a6c952b6-5ce4-40c6-9357-80b93b37619d","system_id":"levelo_inurba_marseille","lat":43.296263,"lon":5.377094,"is_reserved":false,"is_disabled":false,"rental_uris":{"android":"levelo://app?vid=a6c952b6-5ce4-40c6-9357-80b93b37619d","ios":"levelo://app?vid=a6c952b6-5ce4-40c6-9357-80b93b37619d"},"vehicle_type_id":"4","last_reported":1706306778,"current_range_meters":17600,"station_id":"ce4bgi92rcd13ifvqb90","pricing_plan_id":"free"},{"bike_id":"c1f2c3b8-a8a2-4c3b-b141-42b6b62d6622","system_id":"levelo_inurba_marseille","lat":43.302992,"lon":5.392136,"is_reserved":false,"is_disabled":false,"rental_uris":{"android":"levelo://app?vid=c1f2c3b8-a8a2-4c3b-b141-42b6b62d6622","ios":"levelo://app?vid=c1f2c3b8-a8a2-4c3b-b141-42b6b62d6622"},"vehicle_type_id":"4","last_reported":1706306778,"current_range_meters":18400,"station_id":"ce4bgkh2rcd13ifvqbk0","pricing_plan_id":"free"},{"bike_id":"cef55d0b-c8a2-4aff-bfdd-a92b729eb808","system_id":"levelo_inurba_marseille","lat":43.298764,"lon":5.388973,"is_reserved":false,"is_disabled":false,"rental_uris":{"android":"levelo://app?vid=cef55d0b-c8a2-4aff-bfdd-a92b729eb808","ios":"levelo://app?vid=cef55d0b-c8a2-4aff-bfdd-a92b729eb808"},"vehicle_type_id":"4","last_reported":1706306778,"current_range_meters":4800,"station_id":"ce4bh392rcd13ifvqdl0","pricing_plan_id":"free"},{"bike_id":"f43bc4b9-69b4-4c2e-a7f1-390317b11d36","system_id":"levelo_inurba_marseille","lat":43.292706,"lon":5.376244,"is_reserved":false,"is_disabled":false,"rental_uris":{"android":"levelo://app?vid=f43bc4b9-69b4-4c2e-a7f1-390317b11d36","ios":"levelo://app?vid=f43bc4b9-69b4-4c2e-a7f1-390317b11d36"},"vehicle_type_id":"4","last_reported":1706306778,"current_range_meters":19600,"station_id":"ce4bgi12rcd13ifvqb70","pricing_plan_id":"free"},{"bike_id":"d07d5d9a-c544-45d5-884a-cf3813237415","system_id":"levelo_inurba_marseille","lat":43.298764,"lon":5.388973,"is_reserved":false,"is_disabled":false,"rental_uris":{"android":"levelo://app?vid=d07d5d9a-c544-45d5-884a-cf3813237415","ios":"levelo://app?vid=d07d5d9a-c544-45d5-884a-cf3813237415"},"vehicle_type_id":"4","last_reported":1706306778,"current_range_meters":0,"station_id":"ce4bh392rcd13ifvqdl0","pricing_plan_id":"free"},{"bike_id":"2cdd5039-e8ec-441b-9bd5-4c34b690b828","system_id":"levelo_inurba_marseille","lat":43.304946,"lon":5.394268,"is_reserved":false,"is_disabled":false,"rental_uris":{"android":"levelo://app?vid=2cdd5039-e8ec-441b-9bd5-4c34b690b828","ios":"levelo://app?vid=2cdd5039-e8ec-441b-9bd5-4c34b690b828"},"vehicle_type_id":"4","last_reported":1706306778,"current_range_meters":22800,"station_id":"","pricing_plan_id":"free"},{"bike_id":"f22ea6b4-dd47-4f9a-8afb-1db7640deca3","system_id":"levelo_inurba_marseille","lat":43.31328,"lon":5.39685,"is_reserved":false,"is_disabled":false,"rental_uris":{"android":"levelo://app?vid=f22ea6b4-dd47-4f9a-8afb-1db7640deca3","ios":"levelo://app?vid=f22ea6b4-dd47-4f9a-8afb-1db7640deca3"},"vehicle_type_id":"4","last_reported":1706306778,"current_range_meters":13200,"station_id":"ce4bgvp2rcd13ifvqcu0","pricing_plan_id":"free"},{"bike_id":"09034d29-bd11-43d9-a640-3dee314c0041","system_id":"levelo_inurba_marseille","lat":43.313291,"lon":5.396838,"is_reserved":false,"is_disabled":false,"rental_uris":{"android":"levelo://app?vid=09034d29-bd11-43d9-a640-3dee314c0041","ios":"levelo://app?vid=09034d29-bd11-43d9-a640-3dee314c0041"},"vehicle_type_id":"4","last_reported":1706306778,"current_range_meters":0,"station_id":"ce4bgvp2rcd13ifvqcu0","pricing_plan_id":"free"},{"bike_id":"892214bc-1bcf-4cae-9af5-81f23e025233","system_id":"levelo_inurba_marseille","lat":43.313291,"lon":5.396838,"is_reserved":false,"is_disabled":false,"rental_uris":{"android":"levelo://app?vid=892214bc-1bcf-4cae-9af5-81f23e025233","ios":"levelo://app?vid=892214bc-1bcf-4cae-9af5-81f23e025233"},"vehicle_type_id":"4","last_reported":1706306778,"current_range_meters":0,"station_id":"ce4bgvp2rcd13ifvqcu0","pricing_plan_id":"free"},{"bike_id":"f317e23f-77ac-4822-8f04-e730922bc8ed","system_id":"levelo_inurba_marseille","lat":43.313291,"lon":5.396838,"is_reserved":false,"is_disabled":false,"rental_uris":{"android":"levelo://app?vid=f317e23f-77ac-4822-8f04-e730922bc8ed","ios":"levelo://app?vid=f317e23f-77ac-4822-8f04-e730922bc8ed"},"vehicle_type_id":"4","last_reported":1706306778,"current_range_meters":0,"station_id":"ce4bgvp2rcd13ifvqcu0","pricing_plan_id":"free"},{"bike_id":"ffc28483-dae3-4b0a-b84a-e03c20a11034","system_id":"levelo_inurba_marseille","lat":43.29536,"lon":5.38532,"is_reserved":false,"is_disabled":false,"rental_uris":{"android":"levelo://app?vid=ffc28483-dae3-4b0a-b84a-e03c20a11034","ios":"levelo://app?vid=ffc28483-dae3-4b0a-b84a-e03c20a11034"},"vehicle_type_id":"4","last_reported":1706306778,"current_range_meters":0,"station_id":"ce4bgih2rcd13ifvqba0","pricing_plan_id":"free"},{"bike_id":"1e9f4a7a-6918-4f57-be87-626747602d92","system_id":"levelo_inurba_marseille","lat":43.29529,"lon":5.385581,"is_reserved":false,"is_disabled":false,"rental_uris":{"android":"levelo://app?vid=1e9f4a7a-6918-4f57-be87-626747602d92","ios":"levelo://app?vid=1e9f4a7a-6918-4f57-be87-626747602d92"},"vehicle_type_id":"4","last_reported":1706306778,"current_range_meters":10400,"station_id":"ce4bgih2rcd13ifvqba0","pricing_plan_id":"free"},{"bike_id":"16d15733-8126-4f16-977a-b4b3ed34c659","system_id":"levelo_inurba_marseille","lat":43.29529,"lon":5.385581,"is_reserved":false,"is_disabled":false,"rental_uris":{"android":"levelo://app?vid=16d15733-8126-4f16-977a-b4b3ed34c659","ios":"levelo://app?vid=16d15733-8126-4f16-977a-b4b3ed34c659"},"vehicle_type_id":"4","last_reported":1706306778,"current_range_meters":10400,"station_id":"ce4bgih2rcd13ifvqba0","pricing_plan_id":"free"},{"bike_id":"f019cf0c-f9d3-45da-b108-6b582b514391","system_id":"levelo_inurba_marseille","lat":43.29529,"lon":5.385581,"is_reserved":false,"is_disabled":false,"rental_uris":{"android":"levelo://app?vid=f019cf0c-f9d3-45da-b108-6b582b514391","ios":"levelo://app?vid=f019cf0c-f9d3-45da-b108-6b582b514391"},"vehicle_type_id":"4","last_reported":1706306778,"current_range_meters":28400,"station_id":"ce4bgih2rcd13ifvqba0","pricing_plan_id":"free"},{"bike_id":"b5198fe1-f488-4b3b-a950-63b4c95d848f","system_id":"levelo_inurba_marseille","lat":43.29528,"lon":5.38539,"is_reserved":false,"is_disabled":false,"rental_uris":{"android":"levelo://app?vid=b5198fe1-f488-4b3b-a950-63b4c95d848f","ios":"levelo://app?vid=b5198fe1-f488-4b3b-a950-63b4c95d848f"},"vehicle_type_id":"4","last_reported":1706306778,"current_range_meters":0,"station_id":"ce4bgih2rcd13ifvqba0","pricing_plan_id":"free"},{"bike_id":"f814cdf9-4747-4457-8b44-08c9fb779343","system_id":"levelo_inurba_marseille","lat":43.29529,"lon":5.385581,"is_reserved":false,"is_disabled":false,"rental_uris":{"android":"levelo://app?vid=f814cdf9-4747-4457-8b44-08c9fb779343","ios":"levelo://app?vid=f814cdf9-4747-4457-8b44-08c9fb779343"},"vehicle_type_id":"4","last_reported":1706306778,"current_range_meters":0,"station_id":"ce4bgih2rcd13ifvqba0","pricing_plan_id":"free"},{"bike_id":"fc08f2a2-7fad-40e9-b2da-60d151623b28","system_id":"levelo_inurba_marseille","lat":43.295802,"lon":5.38711,"is_reserved":false,"is_disabled":false,"rental_uris":{"android":"levelo://app?vid=fc08f2a2-7fad-40e9-b2da-60d151623b28","ios":"levelo://app?vid=fc08f2a2-7fad-40e9-b2da-60d151623b28"},"vehicle_type_id":"4","last_reported":1706306778,"current_range_meters":8000,"station_id":"","pricing_plan_id":"free"},{"bike_id":"a944e142-1e7d-4c0a-b56d-b585b3a0e090","system_id":"levelo_inurba_marseille","lat":43.3022,"lon":5.39467,"is_reserved":false,"is_disabled":false,"rental_uris":{"android":"levelo://app?vid=a944e142-1e7d-4c0a-b56d-b585b3a0e090","ios":"levelo://app?vid=a944e142-1e7d-4c0a-b56d-b585b3a0e090"},"vehicle_type_id":"4","last_reported":1706306778,"current_range_meters":0,"station_id":"ce4bh0p2rcd13ifvqd70","pricing_plan_id":"free"},{"bike_id":"e832c35c-fdb2-4508-abfb-c2ca1215ce3d","system_id":"levelo_inurba_marseille","lat":43.302008,"lon":5.394694,"is_reserved":false,"is_disabled":false,"rental_uris":{"android":"levelo://app?vid=e832c35c-fdb2-4508-abfb-c2ca1215ce3d","ios":"levelo://app?vid=e832c35c-fdb2-4508-abfb-c2ca1215ce3d"},"vehicle_type_id":"4","last_reported":1706306778,"current_range_meters":11200,"station_id":"ce4bh0p2rcd13ifvqd70","pricing_plan_id":"free"},{"bike_id":"0e75580e-2eab-48f4-8307-a428bf5f2f4e","system_id":"levelo_inurba_marseille","lat":43.29515,"lon":5.38744,"is_reserved":false,"is_disabled":false,"rental_uris":{"android":"levelo://app?vid=0e75580e-2eab-48f4-8307-a428bf5f2f4e","ios":"levelo://app?vid=0e75580e-2eab-48f4-8307-a428bf5f2f4e"},"vehicle_type_id":"4","last_reported":1706306778,"current_range_meters":10400,"station_id":"","pricing_plan_id":"free"},{"bike_id":"d2f39c78-e301-477f-966d-c6ddd5472420","system_id":"levelo_inurba_marseille","lat":43.294153,"lon":5.386305,"is_reserved":false,"is_disabled":false,"rental_uris":{"android":"levelo://app?vid=d2f39c78-e301-477f-966d-c6ddd5472420","ios":"levelo://app?vid=d2f39c78-e301-477f-966d-c6ddd5472420"},"vehicle_type_id":"4","last_reported":1706306778,"current_range_meters":19600,"station_id":"ce4bh2h2rcd13ifvqdh0","pricing_plan_id":"free"},{"bike_id":"b0d7a2e2-2259-43dc-b7b9-4370cf0d8110","system_id":"levelo_inurba_marseille","lat":43.294162,"lon":5.386292,"is_reserved":false,"is_disabled":false,"rental_uris":{"android":"levelo://app?vid=b0d7a2e2-2259-43dc-b7b9-4370cf0d8110","ios":"levelo://app?vid=b0d7a2e2-2259-43dc-b7b9-4370cf0d8110"},"vehicle_type_id":"4","last_reported":1706306778,"current_range_meters":12000,"station_id":"ce4bh2h2rcd13ifvqdh0","pricing_plan_id":"free"},{"bike_id":"3a124622-840a-4393-b4d2-9d5194237b05","system_id":"levelo_inurba_marseille","lat":43.29422,"lon":5.38627,"is_reserved":false,"is_disabled":false,"rental_uris":{"android":"levelo://app?vid=3a124622-840a-4393-b4d2-9d5194237b05","ios":"levelo://app?vid=3a124622-840a-4393-b4d2-9d5194237b05"},"vehicle_type_id":"4","last_reported":1706306778,"current_range_meters":0,"station_id":"ce4bh2h2rcd13ifvqdh0","pricing_plan_id":"free"},{"bike_id":"4d208789-705a-4a3a-9bef-b45e33f1bc43","system_id":"levelo_inurba_marseille","lat":43.29421,"lon":5.38626,"is_reserved":false,"is_disabled":false,"rental_uris":{"android":"levelo://app?vid=4d208789-705a-4a3a-9bef-b45e33f1bc43","ios":"levelo://app?vid=4d208789-705a-4a3a-9bef-b45e33f1bc43"},"vehicle_type_id":"4","last_reported":1706306778,"current_range_meters":0,"station_id":"ce4bh2h2rcd13ifvqdh0","pricing_plan_id":"free"},{"bike_id":"d223716d-939e-446c-b273-094c6cb9d532","system_id":"levelo_inurba_marseille","lat":43.289468,"lon":5.363719,"is_reserved":false,"is_disabled":false,"rental_uris":{"android":"levelo://app?vid=d223716d-939e-446c-b273-094c6cb9d532","ios":"levelo://app?vid=d223716d-939e-446c-b273-094c6cb9d532"},"vehicle_type_id":"4","last_reported":1706306778,"current_range_meters":2000,"station_id":"ce4bhc92rcd13ifvqetg","pricing_plan_id":"free"},{"bike_id":"7243af2c-678d-420d-952c-ae5800aa4ed8","system_id":"levelo_inurba_marseille","lat":43.29412,"lon":5.38638,"is_reserved":false,"is_disabled":false,"rental_uris":{"android":"levelo://app?vid=7243af2c-678d-420d-952c-ae5800aa4ed8","ios":"levelo://app?vid=7243af2c-678d-420d-952c-ae5800aa4ed8"},"vehicle_type_id":"4","last_reported":1706306778,"current_range_meters":1600,"station_id":"ce4bh2h2rcd13ifvqdh0","pricing_plan_id":"free"},{"bike_id":"fdc25b4e-f10e-4f32-8bee-17016af052a7","system_id":"levelo_inurba_marseille","lat":43.28934,"lon":5.36629,"is_reserved":false,"is_disabled":false,"rental_uris":{"android":"levelo://app?vid=fdc25b4e-f10e-4f32-8bee-17016af052a7","ios":"levelo://app?vid=fdc25b4e-f10e-4f32-8bee-17016af052a7"},"vehicle_type_id":"4","last_reported":1706306778,"current_range_meters":0,"station_id":"ce4bhap2rcd13ifvqek0","pricing_plan_id":"free"},{"bike_id":"9edefeaf-bfce-4973-8313-b88281ef190f","system_id":"levelo_inurba_marseille","lat":43.292763,"lon":5.384368,"is_reserved":false,"is_disabled":false,"rental_uris":{"android":"levelo://app?vid=9edefeaf-bfce-4973-8313-b88281ef190f","ios":"levelo://app?vid=9edefeaf-bfce-4973-8313-b88281ef190f"},"vehicle_type_id":"4","last_reported":1706306778,"current_range_meters":3600,"station_id":"ce4bh692rcd13ifvqea0","pricing_plan_id":"free"},{"bike_id":"cef179d8-a1e7-4c96-96e2-99611f2a5f0a","system_id":"levelo_inurba_marseille","lat":43.2927,"lon":5.38436,"is_reserved":false,"is_disabled":false,"rental_uris":{"android":"levelo://app?vid=cef179d8-a1e7-4c96-96e2-99611f2a5f0a","ios":"levelo://app?vid=cef179d8-a1e7-4c96-96e2-99611f2a5f0a"},"vehicle_type_id":"4","last_reported":1706306778,"current_range_meters":2800,"station_id":"ce4bh692rcd13ifvqea0","pricing_plan_id":"free"},{"bike_id":"5c290fce-8623-43d0-bc0d-031428daede3","system_id":"levelo_inurba_marseille","lat":43.29265,"lon":5.38427,"is_reserved":false,"is_disabled":false,"rental_uris":{"android":"levelo://app?vid=5c290fce-8623-43d0-bc0d-031428daede3","ios":"levelo://app?vid=5c290fce-8623-43d0-bc0d-031428daede3"},"vehicle_type_id":"4","last_reported":1706306778,"current_range_meters":0,"station_id":"ce4bh692rcd13ifvqea0","pricing_plan_id":"free"},{"bike_id":"8610584d-da24-4a07-8891-8545bb3524df","system_id":"levelo_inurba_marseille","lat":43.2927,"lon":5.38439,"is_reserved":false,"is_disabled":false,"rental_uris":{"android":"levelo://app?vid=8610584d-da24-4a07-8891-8545bb3524df","ios":"levelo://app?vid=8610584d-da24-4a07-8891-8545bb3524df"},"vehicle_type_id":"4","last_reported":1706306778,"current_range_meters":0,"station_id":"ce4bh692rcd13ifvqea0","pricing_plan_id":"free"},{"bike_id":"2d780356-5d3d-4521-9565-eee0bb5f28c8","system_id":"levelo_inurba_marseille","lat":43.292681,"lon":5.384363,"is_reserved":false,"is_disabled":false,"rental_uris":{"android":"levelo://app?vid=2d780356-5d3d-4521-9565-eee0bb5f28c8","ios":"levelo://app?vid=2d780356-5d3d-4521-9565-eee0bb5f28c8"},"vehicle_type_id":"4","last_reported":1706306778,"current_range_meters":0,"station_id":"ce4bh692rcd13ifvqea0","pricing_plan_id":"free"},{"bike_id":"aa5e0cbc-2a5f-4512-b54d-ebbd4f1b7ad0","system_id":"levelo_inurba_marseille","lat":43.304274,"lon":5.397513,"is_reserved":false,"is_disabled":false,"rental_uris":{"android":"levelo://app?vid=aa5e0cbc-2a5f-4512-b54d-ebbd4f1b7ad0","ios":"levelo://app?vid=aa5e0cbc-2a5f-4512-b54d-ebbd4f1b7ad0"},"vehicle_type_id":"4","last_reported":1706306778,"current_range_meters":13600,"station_id":"ce4bh092rcd13ifvqd20","pricing_plan_id":"free"},{"bike_id":"e5124d7a-8776-41d2-aeb8-a83def1aaec8","system_id":"levelo_inurba_marseille","lat":43.292642,"lon":5.384254,"is_reserved":false,"is_disabled":false,"rental_uris":{"android":"levelo://app?vid=e5124d7a-8776-41d2-aeb8-a83def1aaec8","ios":"levelo://app?vid=e5124d7a-8776-41d2-aeb8-a83def1aaec8"},"vehicle_type_id":"4","last_reported":1706306778,"current_range_meters":26000,"station_id":"ce4bh692rcd13ifvqea0","pricing_plan_id":"free"},{"bike_id":"8f782ef1-47e7-4430-a2e0-c9c573f313f7","system_id":"levelo_inurba_marseille","lat":43.304274,"lon":5.397513,"is_reserved":false,"is_disabled":false,"rental_uris":{"android":"levelo://app?vid=8f782ef1-47e7-4430-a2e0-c9c573f313f7","ios":"levelo://app?vid=8f782ef1-47e7-4430-a2e0-c9c573f313f7"},"vehicle_type_id":"4","last_reported":1706306778,"current_range_meters":14400,"station_id":"ce4bh092rcd13ifvqd20","pricing_plan_id":"free"},{"bike_id":"8b887070-784a-4f8a-9fda-0e5c8a7a4863","system_id":"levelo_inurba_marseille","lat":43.292658,"lon":5.384374,"is_reserved":false,"is_disabled":false,"rental_uris":{"android":"levelo://app?vid=8b887070-784a-4f8a-9fda-0e5c8a7a4863","ios":"levelo://app?vid=8b887070-784a-4f8a-9fda-0e5c8a7a4863"},"vehicle_type_id":"4","last_reported":1706306778,"current_range_meters":5600,"station_id":"ce4bh692rcd13ifvqea0","pricing_plan_id":"free"},{"bike_id":"30428ad1-7e04-4f13-a62c-c8ea21428728","system_id":"levelo_inurba_marseille","lat":43.292642,"lon":5.384254,"is_reserved":false,"is_disabled":false,"rental_uris":{"android":"levelo://app?vid=30428ad1-7e04-4f13-a62c-c8ea21428728","ios":"levelo://app?vid=30428ad1-7e04-4f13-a62c-c8ea21428728"},"vehicle_type_id":"4","last_reported":1706306778,"current_range_meters":0,"station_id":"ce4bh692rcd13ifvqea0","pricing_plan_id":"free"},{"bike_id":"af09b989-7339-4bc0-855b-440aa1ce92bd","system_id":"levelo_inurba_marseille","lat":43.29265,"lon":5.38439,"is_reserved":false,"is_disabled":false,"rental_uris":{"android":"levelo://app?vid=af09b989-7339-4bc0-855b-440aa1ce92bd","ios":"levelo://app?vid=af09b989-7339-4bc0-855b-440aa1ce92bd"},"vehicle_type_id":"4","last_reported":1706306778,"current_range_meters":26000,"station_id":"ce4bh692rcd13ifvqea0","pricing_plan_id":"free"},{"bike_id":"d6f35a40-b9b5-4556-afd8-61ca140e9665","system_id":"levelo_inurba_marseille","lat":43.29262,"lon":5.38435,"is_reserved":false,"is_disabled":false,"rental_uris":{"android":"levelo://app?vid=d6f35a40-b9b5-4556-afd8-61ca140e9665","ios":"levelo://app?vid=d6f35a40-b9b5-4556-afd8-61ca140e9665"},"vehicle_type_id":"4","last_reported":1706306778,"current_range_meters":20800,"station_id":"ce4bh692rcd13ifvqea0","pricing_plan_id":"free"},{"bike_id":"740ca010-defd-48ae-a7f1-71154afba5b7","system_id":"levelo_inurba_marseille","lat":43.292618,"lon":5.38435,"is_reserved":false,"is_disabled":false,"rental_uris":{"android":"levelo://app?vid=740ca010-defd-48ae-a7f1-71154afba5b7","ios":"levelo://app?vid=740ca010-defd-48ae-a7f1-71154afba5b7"},"vehicle_type_id":"4","last_reported":1706306778,"current_range_meters":0,"station_id":"ce4bh692rcd13ifvqea0","pricing_plan_id":"free"},{"bike_id":"47b75976-4146-4cde-9464-022bbee78588","system_id":"levelo_inurba_marseille","lat":43.304274,"lon":5.397513,"is_reserved":false,"is_disabled":false,"rental_uris":{"android":"levelo://app?vid=47b75976-4146-4cde-9464-022bbee78588","ios":"levelo://app?vid=47b75976-4146-4cde-9464-022bbee78588"},"vehicle_type_id":"4","last_reported":1706306778,"current_range_meters":400,"station_id":"ce4bh092rcd13ifvqd20","pricing_plan_id":"free"},{"bike_id":"cae040c5-9506-4d75-ab08-828f9de8f6ce","system_id":"levelo_inurba_marseille","lat":43.292683,"lon":5.384524,"is_reserved":false,"is_disabled":false,"rental_uris":{"android":"levelo://app?vid=cae040c5-9506-4d75-ab08-828f9de8f6ce","ios":"levelo://app?vid=cae040c5-9506-4d75-ab08-828f9de8f6ce"},"vehicle_type_id":"4","last_reported":1706306778,"current_range_meters":0,"station_id":"ce4bh692rcd13ifvqea0","pricing_plan_id":"free"},{"bike_id":"05fdb446-dc55-4b53-b7ef-5b9950545f86","system_id":"levelo_inurba_marseille","lat":43.292621,"lon":5.384436,"is_reserved":false,"is_disabled":false,"rental_uris":{"android":"levelo://app?vid=05fdb446-dc55-4b53-b7ef-5b9950545f86","ios":"levelo://app?vid=05fdb446-dc55-4b53-b7ef-5b9950545f86"},"vehicle_type_id":"4","last_reported":1706306778,"current_range_meters":6800,"station_id":"ce4bh692rcd13ifvqea0","pricing_plan_id":"free"},{"bike_id":"847f31e0-2c38-4337-885e-dea626cbe901","system_id":"levelo_inurba_marseille","lat":43.292498,"lon":5.384231,"is_reserved":false,"is_disabled":false,"rental_uris":{"android":"levelo://app?vid=847f31e0-2c38-4337-885e-dea626cbe901","ios":"levelo://app?vid=847f31e0-2c38-4337-885e-dea626cbe901"},"vehicle_type_id":"4","last_reported":1706306778,"current_range_meters":28400,"station_id":"ce4bh692rcd13ifvqea0","pricing_plan_id":"free"},{"bike_id":"d429f139-b8a2-4ae9-9f5c-d66bc4ee1c87","system_id":"levelo_inurba_marseille","lat":43.290103,"lon":5.356114,"is_reserved":false,"is_disabled":false,"rental_uris":{"android":"levelo://app?vid=d429f139-b8a2-4ae9-9f5c-d66bc4ee1c87","ios":"levelo://app?vid=d429f139-b8a2-4ae9-9f5c-d66bc4ee1c87"},"vehicle_type_id":"4","last_reported":1706306778,"current_range_meters":7600,"station_id":"ce4bhb92rcd13ifvqen0","pricing_plan_id":"free"},{"bike_id":"6470b96e-be55-4d59-81c3-89e63cdc0a3f","system_id":"levelo_inurba_marseille","lat":43.29003,"lon":5.35608,"is_reserved":false,"is_disabled":false,"rental_uris":{"android":"levelo://app?vid=6470b96e-be55-4d59-81c3-89e63cdc0a3f","ios":"levelo://app?vid=6470b96e-be55-4d59-81c3-89e63cdc0a3f"},"vehicle_type_id":"4","last_reported":1706306778,"current_range_meters":0,"station_id":"ce4bhb92rcd13ifvqen0","pricing_plan_id":"free"},{"bike_id":"d5374d9d-031d-497c-a33d-8f885280c993","system_id":"levelo_inurba_marseille","lat":43.29792,"lon":5.39335,"is_reserved":false,"is_disabled":false,"rental_uris":{"android":"levelo://app?vid=d5374d9d-031d-497c-a33d-8f885280c993","ios":"levelo://app?vid=d5374d9d-031d-497c-a33d-8f885280c993"},"vehicle_type_id":"4","last_reported":1706306778,"current_range_meters":10000,"station_id":"chh1huq6cuj3fo74tm60","pricing_plan_id":"free"},{"bike_id":"e7f52d87-38e2-4498-b13a-3258d7ce9245","system_id":"levelo_inurba_marseille","lat":43.295169,"lon":5.390426,"is_reserved":false,"is_disabled":false,"rental_uris":{"android":"levelo://app?vid=e7f52d87-38e2-4498-b13a-3258d7ce9245","ios":"levelo://app?vid=e7f52d87-38e2-4498-b13a-3258d7ce9245"},"vehicle_type_id":"4","last_reported":1706306778,"current_range_meters":0,"station_id":"ce4bh3p2rcd13ifvqdp0","pricing_plan_id":"free"},{"bike_id":"00f0ce73-62e0-4481-9116-1dfe0ba11879","system_id":"levelo_inurba_marseille","lat":43.297902,"lon":5.393426,"is_reserved":false,"is_disabled":false,"rental_uris":{"android":"levelo://app?vid=00f0ce73-62e0-4481-9116-1dfe0ba11879","ios":"levelo://app?vid=00f0ce73-62e0-4481-9116-1dfe0ba11879"},"vehicle_type_id":"4","last_reported":1706306778,"current_range_meters":0,"station_id":"chh1huq6cuj3fo74tm60","pricing_plan_id":"free"},{"bike_id":"02e686b2-d2cb-4d54-a21e-1a720d7ede2c","system_id":"levelo_inurba_marseille","lat":43.330442,"lon":5.389148,"is_reserved":false,"is_disabled":false,"rental_uris":{"android":"levelo://app?vid=02e686b2-d2cb-4d54-a21e-1a720d7ede2c","ios":"levelo://app?vid=02e686b2-d2cb-4d54-a21e-1a720d7ede2c"},"vehicle_type_id":"4","last_reported":1706306778,"current_range_meters":3200,"station_id":"ce4bhr92rcd13ifvqhrg","pricing_plan_id":"free"},{"bike_id":"5a209069-e45f-4de8-99d4-66756d5da367","system_id":"levelo_inurba_marseille","lat":43.28856,"lon":5.358371,"is_reserved":false,"is_disabled":false,"rental_uris":{"android":"levelo://app?vid=5a209069-e45f-4de8-99d4-66756d5da367","ios":"levelo://app?vid=5a209069-e45f-4de8-99d4-66756d5da367"},"vehicle_type_id":"4","last_reported":1706306778,"current_range_meters":11600,"station_id":"ce4bhb12rcd13ifvqem0","pricing_plan_id":"free"},{"bike_id":"3405e203-a74f-4e2f-afe7-05da97f61a62","system_id":"levelo_inurba_marseille","lat":43.28938,"lon":5.35492,"is_reserved":false,"is_disabled":false,"rental_uris":{"android":"levelo://app?vid=3405e203-a74f-4e2f-afe7-05da97f61a62","ios":"levelo://app?vid=3405e203-a74f-4e2f-afe7-05da97f61a62"},"vehicle_type_id":"4","last_reported":1706306778,"current_range_meters":0,"station_id":"","pricing_plan_id":"free"},{"bike_id":"a955b3e1-d2f0-4235-a805-c4e33bb52b48","system_id":"levelo_inurba_marseille","lat":43.312609,"lon":5.401662,"is_reserved":false,"is_disabled":false,"rental_uris":{"android":"levelo://app?vid=a955b3e1-d2f0-4235-a805-c4e33bb52b48","ios":"levelo://app?vid=a955b3e1-d2f0-4235-a805-c4e33bb52b48"},"vehicle_type_id":"4","last_reported":1706306778,"current_range_meters":12000,"station_id":"ce4bh092rcd13ifvqd30","pricing_plan_id":"free"},{"bike_id":"b94379ea-f3ad-4cff-a6a4-a14357109506","system_id":"levelo_inurba_marseille","lat":43.312609,"lon":5.401662,"is_reserved":false,"is_disabled":false,"rental_uris":{"android":"levelo://app?vid=b94379ea-f3ad-4cff-a6a4-a14357109506","ios":"levelo://app?vid=b94379ea-f3ad-4cff-a6a4-a14357109506"},"vehicle_type_id":"4","last_reported":1706306778,"current_range_meters":28400,"station_id":"ce4bh092rcd13ifvqd30","pricing_plan_id":"free"},{"bike_id":"a797ffc5-c458-40ba-9bc9-6560dd2a2969","system_id":"levelo_inurba_marseille","lat":43.312609,"lon":5.401662,"is_reserved":false,"is_disabled":false,"rental_uris":{"android":"levelo://app?vid=a797ffc5-c458-40ba-9bc9-6560dd2a2969","ios":"levelo://app?vid=a797ffc5-c458-40ba-9bc9-6560dd2a2969"},"vehicle_type_id":"4","last_reported":1706306778,"current_range_meters":30800,"station_id":"ce4bh092rcd13ifvqd30","pricing_plan_id":"free"},{"bike_id":"48c1fa8b-ed72-4d16-a653-ad54f91e9dca","system_id":"levelo_inurba_marseille","lat":43.309371,"lon":5.401449,"is_reserved":false,"is_disabled":false,"rental_uris":{"android":"levelo://app?vid=48c1fa8b-ed72-4d16-a653-ad54f91e9dca","ios":"levelo://app?vid=48c1fa8b-ed72-4d16-a653-ad54f91e9dca"},"vehicle_type_id":"4","last_reported":1706306778,"current_range_meters":28000,"station_id":"ce4bgvp2rcd13ifvqct0","pricing_plan_id":"free"},{"bike_id":"5f4f2e5e-bf27-44ee-9683-c4a626c43b84","system_id":"levelo_inurba_marseille","lat":43.309371,"lon":5.401449,"is_reserved":false,"is_disabled":false,"rental_uris":{"android":"levelo://app?vid=5f4f2e5e-bf27-44ee-9683-c4a626c43b84","ios":"levelo://app?vid=5f4f2e5e-bf27-44ee-9683-c4a626c43b84"},"vehicle_type_id":"4","last_reported":1706306778,"current_range_meters":30800,"station_id":"ce4bgvp2rcd13ifvqct0","pricing_plan_id":"free"},{"bike_id":"6257c317-3a6c-42a3-a774-371510e87d3d","system_id":"levelo_inurba_marseille","lat":43.312609,"lon":5.401662,"is_reserved":false,"is_disabled":false,"rental_uris":{"android":"levelo://app?vid=6257c317-3a6c-42a3-a774-371510e87d3d","ios":"levelo://app?vid=6257c317-3a6c-42a3-a774-371510e87d3d"},"vehicle_type_id":"4","last_reported":1706306778,"current_range_meters":0,"station_id":"ce4bh092rcd13ifvqd30","pricing_plan_id":"free"},{"bike_id":"bd61ca0f-ffb3-4827-92ea-458900da2713","system_id":"levelo_inurba_marseille","lat":43.309371,"lon":5.401449,"is_reserved":false,"is_disabled":false,"rental_uris":{"android":"levelo://app?vid=bd61ca0f-ffb3-4827-92ea-458900da2713","ios":"levelo://app?vid=bd61ca0f-ffb3-4827-92ea-458900da2713"},"vehicle_type_id":"4","last_reported":1706306778,"current_range_meters":7200,"station_id":"ce4bgvp2rcd13ifvqct0","pricing_plan_id":"free"},{"bike_id":"395600cb-f622-4088-84c4-ddd4db713a6f","system_id":"levelo_inurba_marseille","lat":43.30931,"lon":5.40145,"is_reserved":false,"is_disabled":false,"rental_uris":{"android":"levelo://app?vid=395600cb-f622-4088-84c4-ddd4db713a6f","ios":"levelo://app?vid=395600cb-f622-4088-84c4-ddd4db713a6f"},"vehicle_type_id":"4","last_reported":1706306778,"current_range_meters":0,"station_id":"ce4bgvp2rcd13ifvqct0","pricing_plan_id":"free"},{"bike_id":"eb006cec-40ad-4259-bf5d-87751f7ad9c3","system_id":"levelo_inurba_marseille","lat":43.309371,"lon":5.401449,"is_reserved":false,"is_disabled":false,"rental_uris":{"android":"levelo://app?vid=eb006cec-40ad-4259-bf5d-87751f7ad9c3","ios":"levelo://app?vid=eb006cec-40ad-4259-bf5d-87751f7ad9c3"},"vehicle_type_id":"4","last_reported":1706306778,"current_range_meters":20800,"station_id":"ce4bgvp2rcd13ifvqct0","pricing_plan_id":"free"},{"bike_id":"b7f12eab-e0a6-499e-87ec-2b4381c4602a","system_id":"levelo_inurba_marseille","lat":43.337544,"lon":5.374776,"is_reserved":false,"is_disabled":false,"rental_uris":{"android":"levelo://app?vid=b7f12eab-e0a6-499e-87ec-2b4381c4602a","ios":"levelo://app?vid=b7f12eab-e0a6-499e-87ec-2b4381c4602a"},"vehicle_type_id":"4","last_reported":1706306778,"current_range_meters":26800,"station_id":"","pricing_plan_id":"free"},{"bike_id":"01096864-7f04-4522-9d25-ea58db4ff5ca","system_id":"levelo_inurba_marseille","lat":43.306412,"lon":5.401035,"is_reserved":false,"is_disabled":false,"rental_uris":{"android":"levelo://app?vid=01096864-7f04-4522-9d25-ea58db4ff5ca","ios":"levelo://app?vid=01096864-7f04-4522-9d25-ea58db4ff5ca"},"vehicle_type_id":"4","last_reported":1706306778,"current_range_meters":22800,"station_id":"ce4bh112rcd13ifvqda0","pricing_plan_id":"free"},{"bike_id":"a3a6dbd7-b6d7-4f13-abc4-10a4362dc4e3","system_id":"levelo_inurba_marseille","lat":43.33768,"lon":5.3748,"is_reserved":false,"is_disabled":false,"rental_uris":{"android":"levelo://app?vid=a3a6dbd7-b6d7-4f13-abc4-10a4362dc4e3","ios":"levelo://app?vid=a3a6dbd7-b6d7-4f13-abc4-10a4362dc4e3"},"vehicle_type_id":"4","last_reported":1706306778,"current_range_meters":28400,"station_id":"","pricing_plan_id":"free"},{"bike_id":"806ab5a7-9fc3-4488-a78a-fa75b5577b8c","system_id":"levelo_inurba_marseille","lat":43.301117,"lon":5.398795,"is_reserved":false,"is_disabled":false,"rental_uris":{"android":"levelo://app?vid=806ab5a7-9fc3-4488-a78a-fa75b5577b8c","ios":"levelo://app?vid=806ab5a7-9fc3-4488-a78a-fa75b5577b8c"},"vehicle_type_id":"4","last_reported":1706306778,"current_range_meters":12800,"station_id":"ce4bh0h2rcd13ifvqd40","pricing_plan_id":"free"},{"bike_id":"3ee7b71a-d293-4216-9105-27a5012109c9","system_id":"levelo_inurba_marseille","lat":43.33769,"lon":5.37479,"is_reserved":false,"is_disabled":false,"rental_uris":{"android":"levelo://app?vid=3ee7b71a-d293-4216-9105-27a5012109c9","ios":"levelo://app?vid=3ee7b71a-d293-4216-9105-27a5012109c9"},"vehicle_type_id":"4","last_reported":1706306778,"current_range_meters":31200,"station_id":"","pricing_plan_id":"free"},{"bike_id":"11ac4d0b-81f5-4677-bf28-25bbe565009d","system_id":"levelo_inurba_marseille","lat":43.3377,"lon":5.3748,"is_reserved":false,"is_disabled":false,"rental_uris":{"android":"levelo://app?vid=11ac4d0b-81f5-4677-bf28-25bbe565009d","ios":"levelo://app?vid=11ac4d0b-81f5-4677-bf28-25bbe565009d"},"vehicle_type_id":"4","last_reported":1706306778,"current_range_meters":26000,"station_id":"","pricing_plan_id":"free"},{"bike_id":"6ea44dcf-f94c-4e56-b74a-322c81fc183b","system_id":"levelo_inurba_marseille","lat":43.286591,"lon":5.363346,"is_reserved":false,"is_disabled":false,"rental_uris":{"android":"levelo://app?vid=6ea44dcf-f94c-4e56-b74a-322c81fc183b","ios":"levelo://app?vid=6ea44dcf-f94c-4e56-b74a-322c81fc183b"},"vehicle_type_id":"4","last_reported":1706306778,"current_range_meters":7600,"station_id":"ce4bhah2rcd13ifvqej0","pricing_plan_id":"free"},{"bike_id":"b7e6526d-9ef8-4f31-80d3-adf02fd3fcc5","system_id":"levelo_inurba_marseille","lat":43.298681,"lon":5.397225,"is_reserved":false,"is_disabled":false,"rental_uris":{"android":"levelo://app?vid=b7e6526d-9ef8-4f31-80d3-adf02fd3fcc5","ios":"levelo://app?vid=b7e6526d-9ef8-4f31-80d3-adf02fd3fcc5"},"vehicle_type_id":"4","last_reported":1706306778,"current_range_meters":18000,"station_id":"ce4bh0h2rcd13ifvqd50","pricing_plan_id":"free"},{"bike_id":"69184def-6e32-4de0-817e-4673a0cca5e1","system_id":"levelo_inurba_marseille","lat":43.286961,"lon":5.373785,"is_reserved":false,"is_disabled":false,"rental_uris":{"android":"levelo://app?vid=69184def-6e32-4de0-817e-4673a0cca5e1","ios":"levelo://app?vid=69184def-6e32-4de0-817e-4673a0cca5e1"},"vehicle_type_id":"4","last_reported":1706306778,"current_range_meters":24000,"station_id":"ce4bh3p2rcd13ifvqdq0","pricing_plan_id":"free"},{"bike_id":"01558ba2-8104-4de7-80a1-8a0fedbc2942","system_id":"levelo_inurba_marseille","lat":43.290345,"lon":5.38646,"is_reserved":false,"is_disabled":false,"rental_uris":{"android":"levelo://app?vid=01558ba2-8104-4de7-80a1-8a0fedbc2942","ios":"levelo://app?vid=01558ba2-8104-4de7-80a1-8a0fedbc2942"},"vehicle_type_id":"4","last_reported":1706306778,"current_range_meters":10000,"station_id":"ce4bh4p2rcd13ifvqe0g","pricing_plan_id":"free"},{"bike_id":"f6201ce6-921f-4fe5-8cba-8cf513a6be21","system_id":"levelo_inurba_marseille","lat":43.290345,"lon":5.38646,"is_reserved":false,"is_disabled":false,"rental_uris":{"android":"levelo://app?vid=f6201ce6-921f-4fe5-8cba-8cf513a6be21","ios":"levelo://app?vid=f6201ce6-921f-4fe5-8cba-8cf513a6be21"},"vehicle_type_id":"4","last_reported":1706306778,"current_range_meters":24800,"station_id":"ce4bh4p2rcd13ifvqe0g","pricing_plan_id":"free"},{"bike_id":"c4bf468c-b524-408b-b082-fd887991b5b7","system_id":"levelo_inurba_marseille","lat":43.290336,"lon":5.386425,"is_reserved":false,"is_disabled":false,"rental_uris":{"android":"levelo://app?vid=c4bf468c-b524-408b-b082-fd887991b5b7","ios":"levelo://app?vid=c4bf468c-b524-408b-b082-fd887991b5b7"},"vehicle_type_id":"4","last_reported":1706306778,"current_range_meters":25600,"station_id":"ce4bh4p2rcd13ifvqe0g","pricing_plan_id":"free"},{"bike_id":"92f04d71-bd00-4b19-a604-2a03eea81075","system_id":"levelo_inurba_marseille","lat":43.290336,"lon":5.386425,"is_reserved":false,"is_disabled":false,"rental_uris":{"android":"levelo://app?vid=92f04d71-bd00-4b19-a604-2a03eea81075","ios":"levelo://app?vid=92f04d71-bd00-4b19-a604-2a03eea81075"},"vehicle_type_id":"4","last_reported":1706306778,"current_range_meters":23200,"station_id":"ce4bh4p2rcd13ifvqe0g","pricing_plan_id":"free"},{"bike_id":"183bb1c1-398f-466c-b05d-327ac4efc436","system_id":"levelo_inurba_marseille","lat":43.302511,"lon":5.400653,"is_reserved":false,"is_disabled":false,"rental_uris":{"android":"levelo://app?vid=183bb1c1-398f-466c-b05d-327ac4efc436","ios":"levelo://app?vid=183bb1c1-398f-466c-b05d-327ac4efc436"},"vehicle_type_id":"4","last_reported":1706306778,"current_range_meters":17200,"station_id":"ce4bgth2rcd13ifvqch0","pricing_plan_id":"free"},{"bike_id":"a500043a-5a98-4f66-b316-e3c464c74428","system_id":"levelo_inurba_marseille","lat":43.30251,"lon":5.40068,"is_reserved":false,"is_disabled":false,"rental_uris":{"android":"levelo://app?vid=a500043a-5a98-4f66-b316-e3c464c74428","ios":"levelo://app?vid=a500043a-5a98-4f66-b316-e3c464c74428"},"vehicle_type_id":"4","last_reported":1706306778,"current_range_meters":0,"station_id":"ce4bgvh2rcd13ifvqcs0","pricing_plan_id":"free"},{"bike_id":"a7a14f66-bb70-47de-8390-1135926c5007","system_id":"levelo_inurba_marseille","lat":43.290345,"lon":5.38646,"is_reserved":false,"is_disabled":false,"rental_uris":{"android":"levelo://app?vid=a7a14f66-bb70-47de-8390-1135926c5007","ios":"levelo://app?vid=a7a14f66-bb70-47de-8390-1135926c5007"},"vehicle_type_id":"4","last_reported":1706306778,"current_range_meters":0,"station_id":"ce4bh4p2rcd13ifvqe0g","pricing_plan_id":"free"},{"bike_id":"a85f399f-9dd2-4e38-a008-66d4a1c87dd5","system_id":"levelo_inurba_marseille","lat":43.287184,"lon":5.37937,"is_reserved":false,"is_disabled":false,"rental_uris":{"android":"levelo://app?vid=a85f399f-9dd2-4e38-a008-66d4a1c87dd5","ios":"levelo://app?vid=a85f399f-9dd2-4e38-a008-66d4a1c87dd5"},"vehicle_type_id":"4","last_reported":1706306778,"current_range_meters":6400,"station_id":"ce4bh9p2rcd13ifvqec0","pricing_plan_id":"free"},{"bike_id":"a7c0a6dc-1328-4b04-9722-b7d2ce2eb3b1","system_id":"levelo_inurba_marseille","lat":43.287185,"lon":5.379373,"is_reserved":false,"is_disabled":false,"rental_uris":{"android":"levelo://app?vid=a7c0a6dc-1328-4b04-9722-b7d2ce2eb3b1","ios":"levelo://app?vid=a7c0a6dc-1328-4b04-9722-b7d2ce2eb3b1"},"vehicle_type_id":"4","last_reported":1706306778,"current_range_meters":800,"station_id":"ce4bh9p2rcd13ifvqec0","pricing_plan_id":"free"},{"bike_id":"2251fc59-2828-4aff-966d-0a6777ecbd36","system_id":"levelo_inurba_marseille","lat":43.316828,"lon":5.404723,"is_reserved":false,"is_disabled":false,"rental_uris":{"android":"levelo://app?vid=2251fc59-2828-4aff-966d-0a6777ecbd36","ios":"levelo://app?vid=2251fc59-2828-4aff-966d-0a6777ecbd36"},"vehicle_type_id":"4","last_reported":1706306778,"current_range_meters":9200,"station_id":"ce4bh012rcd13ifvqd00","pricing_plan_id":"free"},{"bike_id":"b332df60-0a81-4841-a021-c7d35a6d7740","system_id":"levelo_inurba_marseille","lat":43.316828,"lon":5.404723,"is_reserved":false,"is_disabled":false,"rental_uris":{"android":"levelo://app?vid=b332df60-0a81-4841-a021-c7d35a6d7740","ios":"levelo://app?vid=b332df60-0a81-4841-a021-c7d35a6d7740"},"vehicle_type_id":"4","last_reported":1706306778,"current_range_meters":12000,"station_id":"ce4bh012rcd13ifvqd00","pricing_plan_id":"free"},{"bike_id":"c011c8ab-84d3-4588-a847-3df4c973ed80","system_id":"levelo_inurba_marseille","lat":43.316828,"lon":5.404723,"is_reserved":false,"is_disabled":false,"rental_uris":{"android":"levelo://app?vid=c011c8ab-84d3-4588-a847-3df4c973ed80","ios":"levelo://app?vid=c011c8ab-84d3-4588-a847-3df4c973ed80"},"vehicle_type_id":"4","last_reported":1706306778,"current_range_meters":15600,"station_id":"ce4bh012rcd13ifvqd00","pricing_plan_id":"free"},{"bike_id":"008cebab-d340-411f-ae5a-0a00aa4da0fd","system_id":"levelo_inurba_marseille","lat":43.291994,"lon":5.392907,"is_reserved":false,"is_disabled":false,"rental_uris":{"android":"levelo://app?vid=008cebab-d340-411f-ae5a-0a00aa4da0fd","ios":"levelo://app?vid=008cebab-d340-411f-ae5a-0a00aa4da0fd"},"vehicle_type_id":"4","last_reported":1706306778,"current_range_meters":22000,"station_id":"ce4bh192rcd13ifvqdd0","pricing_plan_id":"free"},{"bike_id":"28acaca3-c15e-41d8-ac7a-41f7f1e41114","system_id":"levelo_inurba_marseille","lat":43.291994,"lon":5.392907,"is_reserved":false,"is_disabled":false,"rental_uris":{"android":"levelo://app?vid=28acaca3-c15e-41d8-ac7a-41f7f1e41114","ios":"levelo://app?vid=28acaca3-c15e-41d8-ac7a-41f7f1e41114"},"vehicle_type_id":"4","last_reported":1706306778,"current_range_meters":14800,"station_id":"ce4bh192rcd13ifvqdd0","pricing_plan_id":"free"},{"bike_id":"721fcf8d-8fb8-4495-850c-4be494224528","system_id":"levelo_inurba_marseille","lat":43.291994,"lon":5.392907,"is_reserved":false,"is_disabled":false,"rental_uris":{"android":"levelo://app?vid=721fcf8d-8fb8-4495-850c-4be494224528","ios":"levelo://app?vid=721fcf8d-8fb8-4495-850c-4be494224528"},"vehicle_type_id":"4","last_reported":1706306778,"current_range_meters":0,"station_id":"ce4bh192rcd13ifvqdd0","pricing_plan_id":"free"},{"bike_id":"83a7b252-288e-446c-aa8d-2f2a2319200d","system_id":"levelo_inurba_marseille","lat":43.284659,"lon":5.359009,"is_reserved":false,"is_disabled":false,"rental_uris":{"android":"levelo://app?vid=83a7b252-288e-446c-aa8d-2f2a2319200d","ios":"levelo://app?vid=83a7b252-288e-446c-aa8d-2f2a2319200d"},"vehicle_type_id":"4","last_reported":1706306778,"current_range_meters":0,"station_id":"ce4bhah2rcd13ifvqei0","pricing_plan_id":"free"},{"bike_id":"3a8a391b-ecf7-457e-a53e-727e2576547f","system_id":"levelo_inurba_marseille","lat":43.284534,"lon":5.358662,"is_reserved":false,"is_disabled":false,"rental_uris":{"android":"levelo://app?vid=3a8a391b-ecf7-457e-a53e-727e2576547f","ios":"levelo://app?vid=3a8a391b-ecf7-457e-a53e-727e2576547f"},"vehicle_type_id":"4","last_reported":1706306778,"current_range_meters":17600,"station_id":"ce4bhah2rcd13ifvqei0","pricing_plan_id":"free"},{"bike_id":"1a4e65cb-9780-4627-88dd-97e655ff3b19","system_id":"levelo_inurba_marseille","lat":43.284534,"lon":5.358662,"is_reserved":false,"is_disabled":false,"rental_uris":{"android":"levelo://app?vid=1a4e65cb-9780-4627-88dd-97e655ff3b19","ios":"levelo://app?vid=1a4e65cb-9780-4627-88dd-97e655ff3b19"},"vehicle_type_id":"4","last_reported":1706306778,"current_range_meters":26000,"station_id":"ce4bhah2rcd13ifvqei0","pricing_plan_id":"free"},{"bike_id":"602bab4d-4760-489e-8628-b1e3c91c9ac8","system_id":"levelo_inurba_marseille","lat":43.284534,"lon":5.358662,"is_reserved":false,"is_disabled":false,"rental_uris":{"android":"levelo://app?vid=602bab4d-4760-489e-8628-b1e3c91c9ac8","ios":"levelo://app?vid=602bab4d-4760-489e-8628-b1e3c91c9ac8"},"vehicle_type_id":"4","last_reported":1706306778,"current_range_meters":3200,"station_id":"ce4bhah2rcd13ifvqei0","pricing_plan_id":"free"},{"bike_id":"0ef5f2e7-4c49-469c-b8c6-0a3c5166f168","system_id":"levelo_inurba_marseille","lat":43.2846,"lon":5.35883,"is_reserved":false,"is_disabled":false,"rental_uris":{"android":"levelo://app?vid=0ef5f2e7-4c49-469c-b8c6-0a3c5166f168","ios":"levelo://app?vid=0ef5f2e7-4c49-469c-b8c6-0a3c5166f168"},"vehicle_type_id":"4","last_reported":1706306778,"current_range_meters":400,"station_id":"ce4bhah2rcd13ifvqei0","pricing_plan_id":"free"},{"bike_id":"33dbf104-7571-456d-b382-a455a90d7bf6","system_id":"levelo_inurba_marseille","lat":43.28458,"lon":5.35891,"is_reserved":false,"is_disabled":false,"rental_uris":{"android":"levelo://app?vid=33dbf104-7571-456d-b382-a455a90d7bf6","ios":"levelo://app?vid=33dbf104-7571-456d-b382-a455a90d7bf6"},"vehicle_type_id":"4","last_reported":1706306778,"current_range_meters":0,"station_id":"ce4bhah2rcd13ifvqei0","pricing_plan_id":"free"},{"bike_id":"b1faafa3-6bf1-4836-847c-ebc56e4c6453","system_id":"levelo_inurba_marseille","lat":43.284534,"lon":5.358662,"is_reserved":false,"is_disabled":false,"rental_uris":{"android":"levelo://app?vid=b1faafa3-6bf1-4836-847c-ebc56e4c6453","ios":"levelo://app?vid=b1faafa3-6bf1-4836-847c-ebc56e4c6453"},"vehicle_type_id":"4","last_reported":1706306778,"current_range_meters":800,"station_id":"ce4bhah2rcd13ifvqei0","pricing_plan_id":"free"},{"bike_id":"b21b77fb-b8a6-46e8-bcbc-5297880eba72","system_id":"levelo_inurba_marseille","lat":43.285856,"lon":5.350771,"is_reserved":false,"is_disabled":false,"rental_uris":{"android":"levelo://app?vid=b21b77fb-b8a6-46e8-bcbc-5297880eba72","ios":"levelo://app?vid=b21b77fb-b8a6-46e8-bcbc-5297880eba72"},"vehicle_type_id":"4","last_reported":1706306778,"current_range_meters":0,"station_id":"ce4bhch2rcd13ifvqeug","pricing_plan_id":"free"},{"bike_id":"5d2b9a92-2036-4b71-8241-4b938e4245bf","system_id":"levelo_inurba_marseille","lat":43.285856,"lon":5.350771,"is_reserved":false,"is_disabled":false,"rental_uris":{"android":"levelo://app?vid=5d2b9a92-2036-4b71-8241-4b938e4245bf","ios":"levelo://app?vid=5d2b9a92-2036-4b71-8241-4b938e4245bf"},"vehicle_type_id":"4","last_reported":1706306778,"current_range_meters":17200,"station_id":"ce4bhch2rcd13ifvqeug","pricing_plan_id":"free"},{"bike_id":"aa52849a-0e37-4363-88c8-fb54e8e8cc59","system_id":"levelo_inurba_marseille","lat":43.28615,"lon":5.35104,"is_reserved":false,"is_disabled":false,"rental_uris":{"android":"levelo://app?vid=aa52849a-0e37-4363-88c8-fb54e8e8cc59","ios":"levelo://app?vid=aa52849a-0e37-4363-88c8-fb54e8e8cc59"},"vehicle_type_id":"4","last_reported":1706306778,"current_range_meters":0,"station_id":"ce4bhch2rcd13ifvqeug","pricing_plan_id":"free"},{"bike_id":"9085d25f-f856-4331-be72-7cf7b71f57be","system_id":"levelo_inurba_marseille","lat":43.283998,"lon":5.375062,"is_reserved":false,"is_disabled":false,"rental_uris":{"android":"levelo://app?vid=9085d25f-f856-4331-be72-7cf7b71f57be","ios":"levelo://app?vid=9085d25f-f856-4331-be72-7cf7b71f57be"},"vehicle_type_id":"4","last_reported":1706306778,"current_range_meters":5200,"station_id":"ce4bh412rcd13ifvqds0","pricing_plan_id":"free"},{"bike_id":"e2757653-3c4f-4762-8421-6beb10be1987","system_id":"levelo_inurba_marseille","lat":43.283998,"lon":5.375062,"is_reserved":false,"is_disabled":false,"rental_uris":{"android":"levelo://app?vid=e2757653-3c4f-4762-8421-6beb10be1987","ios":"levelo://app?vid=e2757653-3c4f-4762-8421-6beb10be1987"},"vehicle_type_id":"4","last_reported":1706306778,"current_range_meters":19600,"station_id":"ce4bh412rcd13ifvqds0","pricing_plan_id":"free"},{"bike_id":"eccb0f66-d6aa-45e2-ab66-74ef999b9097","system_id":"levelo_inurba_marseille","lat":43.283998,"lon":5.375062,"is_reserved":false,"is_disabled":false,"rental_uris":{"android":"levelo://app?vid=eccb0f66-d6aa-45e2-ab66-74ef999b9097","ios":"levelo://app?vid=eccb0f66-d6aa-45e2-ab66-74ef999b9097"},"vehicle_type_id":"4","last_reported":1706306778,"current_range_meters":1600,"station_id":"ce4bh412rcd13ifvqds0","pricing_plan_id":"free"},{"bike_id":"98963bff-69d0-4045-87ba-e7019b9b4760","system_id":"levelo_inurba_marseille","lat":43.283998,"lon":5.375062,"is_reserved":false,"is_disabled":false,"rental_uris":{"android":"levelo://app?vid=98963bff-69d0-4045-87ba-e7019b9b4760","ios":"levelo://app?vid=98963bff-69d0-4045-87ba-e7019b9b4760"},"vehicle_type_id":"4","last_reported":1706306778,"current_range_meters":7200,"station_id":"ce4bh412rcd13ifvqds0","pricing_plan_id":"free"},{"bike_id":"60497d30-0582-4da3-9353-07f4633bc6bd","system_id":"levelo_inurba_marseille","lat":43.295713,"lon":5.399639,"is_reserved":false,"is_disabled":false,"rental_uris":{"android":"levelo://app?vid=60497d30-0582-4da3-9353-07f4633bc6bd","ios":"levelo://app?vid=60497d30-0582-4da3-9353-07f4633bc6bd"},"vehicle_type_id":"4","last_reported":1706306778,"current_range_meters":5200,"station_id":"ce4bh312rcd13ifvqdj0","pricing_plan_id":"free"},{"bike_id":"d7fc5ddc-e076-4a02-b484-f2617943e475","system_id":"levelo_inurba_marseille","lat":43.283998,"lon":5.375062,"is_reserved":false,"is_disabled":false,"rental_uris":{"android":"levelo://app?vid=d7fc5ddc-e076-4a02-b484-f2617943e475","ios":"levelo://app?vid=d7fc5ddc-e076-4a02-b484-f2617943e475"},"vehicle_type_id":"4","last_reported":1706306778,"current_range_meters":2800,"station_id":"ce4bh412rcd13ifvqds0","pricing_plan_id":"free"},{"bike_id":"17cc1c80-210b-427c-905b-de770be20b02","system_id":"levelo_inurba_marseille","lat":43.283998,"lon":5.375062,"is_reserved":false,"is_disabled":false,"rental_uris":{"android":"levelo://app?vid=17cc1c80-210b-427c-905b-de770be20b02","ios":"levelo://app?vid=17cc1c80-210b-427c-905b-de770be20b02"},"vehicle_type_id":"4","last_reported":1706306778,"current_range_meters":18400,"station_id":"ce4bh412rcd13ifvqds0","pricing_plan_id":"free"},{"bike_id":"f7355dca-d8c2-40c2-a3ca-1593acffc8a4","system_id":"levelo_inurba_marseille","lat":43.283998,"lon":5.375062,"is_reserved":false,"is_disabled":false,"rental_uris":{"android":"levelo://app?vid=f7355dca-d8c2-40c2-a3ca-1593acffc8a4","ios":"levelo://app?vid=f7355dca-d8c2-40c2-a3ca-1593acffc8a4"},"vehicle_type_id":"4","last_reported":1706306778,"current_range_meters":4400,"station_id":"ce4bh412rcd13ifvqds0","pricing_plan_id":"free"},{"bike_id":"1d5e9cc7-256b-4d50-b30e-67e103dd0009","system_id":"levelo_inurba_marseille","lat":43.295713,"lon":5.399639,"is_reserved":false,"is_disabled":false,"rental_uris":{"android":"levelo://app?vid=1d5e9cc7-256b-4d50-b30e-67e103dd0009","ios":"levelo://app?vid=1d5e9cc7-256b-4d50-b30e-67e103dd0009"},"vehicle_type_id":"4","last_reported":1706306778,"current_range_meters":3600,"station_id":"ce4bh312rcd13ifvqdj0","pricing_plan_id":"free"},{"bike_id":"0c277101-1b47-4330-96e4-ab482bd5f56c","system_id":"levelo_inurba_marseille","lat":43.283998,"lon":5.375062,"is_reserved":false,"is_disabled":false,"rental_uris":{"android":"levelo://app?vid=0c277101-1b47-4330-96e4-ab482bd5f56c","ios":"levelo://app?vid=0c277101-1b47-4330-96e4-ab482bd5f56c"},"vehicle_type_id":"4","last_reported":1706306778,"current_range_meters":6800,"station_id":"ce4bh412rcd13ifvqds0","pricing_plan_id":"free"},{"bike_id":"c0e41574-ed2c-4232-81e9-795b6431d43d","system_id":"levelo_inurba_marseille","lat":43.319179,"lon":5.407725,"is_reserved":false,"is_disabled":false,"rental_uris":{"android":"levelo://app?vid=c0e41574-ed2c-4232-81e9-795b6431d43d","ios":"levelo://app?vid=c0e41574-ed2c-4232-81e9-795b6431d43d"},"vehicle_type_id":"4","last_reported":1706306778,"current_range_meters":0,"station_id":"ce4bhq12rcd13ifvqhig","pricing_plan_id":"free"},{"bike_id":"b4bd1ce7-26ad-41db-a915-a3b476b9e02e","system_id":"levelo_inurba_marseille","lat":43.323464,"lon":5.406297,"is_reserved":false,"is_disabled":false,"rental_uris":{"android":"levelo://app?vid=b4bd1ce7-26ad-41db-a915-a3b476b9e02e","ios":"levelo://app?vid=b4bd1ce7-26ad-41db-a915-a3b476b9e02e"},"vehicle_type_id":"4","last_reported":1706306778,"current_range_meters":31200,"station_id":"ce4bhq92rcd13ifvqhjg","pricing_plan_id":"free"},{"bike_id":"9faafec2-61dc-48b9-8434-19d15f6347df","system_id":"levelo_inurba_marseille","lat":43.284793,"lon":5.384119,"is_reserved":false,"is_disabled":false,"rental_uris":{"android":"levelo://app?vid=9faafec2-61dc-48b9-8434-19d15f6347df","ios":"levelo://app?vid=9faafec2-61dc-48b9-8434-19d15f6347df"},"vehicle_type_id":"4","last_reported":1706306778,"current_range_meters":7200,"station_id":"ce4bh512rcd13ifvqe3g","pricing_plan_id":"free"},{"bike_id":"29c971f3-912e-4f79-8c22-d20e1f4b5d74","system_id":"levelo_inurba_marseille","lat":43.337168,"lon":5.391825,"is_reserved":false,"is_disabled":false,"rental_uris":{"android":"levelo://app?vid=29c971f3-912e-4f79-8c22-d20e1f4b5d74","ios":"levelo://app?vid=29c971f3-912e-4f79-8c22-d20e1f4b5d74"},"vehicle_type_id":"4","last_reported":1706306778,"current_range_meters":23200,"station_id":"ce4bhr92rcd13ifvqhsg","pricing_plan_id":"free"},{"bike_id":"13abcabf-8f23-4af6-9fb5-15272d99f6b8","system_id":"levelo_inurba_marseille","lat":43.284793,"lon":5.384119,"is_reserved":false,"is_disabled":false,"rental_uris":{"android":"levelo://app?vid=13abcabf-8f23-4af6-9fb5-15272d99f6b8","ios":"levelo://app?vid=13abcabf-8f23-4af6-9fb5-15272d99f6b8"},"vehicle_type_id":"4","last_reported":1706306778,"current_range_meters":800,"station_id":"ce4bh512rcd13ifvqe3g","pricing_plan_id":"free"},{"bike_id":"40b8b471-e58f-4121-9503-bf0ea2e185d9","system_id":"levelo_inurba_marseille","lat":43.284793,"lon":5.384119,"is_reserved":false,"is_disabled":false,"rental_uris":{"android":"levelo://app?vid=40b8b471-e58f-4121-9503-bf0ea2e185d9","ios":"levelo://app?vid=40b8b471-e58f-4121-9503-bf0ea2e185d9"},"vehicle_type_id":"4","last_reported":1706306778,"current_range_meters":2800,"station_id":"ce4bh512rcd13ifvqe3g","pricing_plan_id":"free"},{"bike_id":"9ce869d0-9760-401a-8230-295aa68acabc","system_id":"levelo_inurba_marseille","lat":43.28868,"lon":5.39311,"is_reserved":false,"is_disabled":false,"rental_uris":{"android":"levelo://app?vid=9ce869d0-9760-401a-8230-295aa68acabc","ios":"levelo://app?vid=9ce869d0-9760-401a-8230-295aa68acabc"},"vehicle_type_id":"4","last_reported":1706306778,"current_range_meters":0,"station_id":"ce4bh2p2rcd13ifvqdi0","pricing_plan_id":"free"},{"bike_id":"cc7052e4-02a7-4fda-83d1-c757449c3198","system_id":"levelo_inurba_marseille","lat":43.28472,"lon":5.38414,"is_reserved":false,"is_disabled":false,"rental_uris":{"android":"levelo://app?vid=cc7052e4-02a7-4fda-83d1-c757449c3198","ios":"levelo://app?vid=cc7052e4-02a7-4fda-83d1-c757449c3198"},"vehicle_type_id":"4","last_reported":1706306778,"current_range_meters":0,"station_id":"ce4bh512rcd13ifvqe3g","pricing_plan_id":"free"},{"bike_id":"3c5622df-9624-49d6-b233-7db0e8e95d32","system_id":"levelo_inurba_marseille","lat":43.297946,"lon":5.404063,"is_reserved":false,"is_disabled":false,"rental_uris":{"android":"levelo://app?vid=3c5622df-9624-49d6-b233-7db0e8e95d32","ios":"levelo://app?vid=3c5622df-9624-49d6-b233-7db0e8e95d32"},"vehicle_type_id":"4","last_reported":1706306778,"current_range_meters":14400,"station_id":"ce4bh112rcd13ifvqd90","pricing_plan_id":"free"},{"bike_id":"716a735d-8147-4285-858b-c9c3974e39f3","system_id":"levelo_inurba_marseille","lat":43.29795,"lon":5.404086,"is_reserved":false,"is_disabled":false,"rental_uris":{"android":"levelo://app?vid=716a735d-8147-4285-858b-c9c3974e39f3","ios":"levelo://app?vid=716a735d-8147-4285-858b-c9c3974e39f3"},"vehicle_type_id":"4","last_reported":1706306778,"current_range_meters":24800,"station_id":"ce4bh112rcd13ifvqd90","pricing_plan_id":"free"},{"bike_id":"9bbf55ea-8edc-4a7e-b636-c6d7475bc0ca","system_id":"levelo_inurba_marseille","lat":43.28844,"lon":5.39298,"is_reserved":false,"is_disabled":false,"rental_uris":{"android":"levelo://app?vid=9bbf55ea-8edc-4a7e-b636-c6d7475bc0ca","ios":"levelo://app?vid=9bbf55ea-8edc-4a7e-b636-c6d7475bc0ca"},"vehicle_type_id":"4","last_reported":1706306778,"current_range_meters":18400,"station_id":"ce4bh2p2rcd13ifvqdi0","pricing_plan_id":"free"},{"bike_id":"f54b2778-1259-48b5-b1d2-2a6a83ef552f","system_id":"levelo_inurba_marseille","lat":43.28844,"lon":5.39306,"is_reserved":false,"is_disabled":false,"rental_uris":{"android":"levelo://app?vid=f54b2778-1259-48b5-b1d2-2a6a83ef552f","ios":"levelo://app?vid=f54b2778-1259-48b5-b1d2-2a6a83ef552f"},"vehicle_type_id":"4","last_reported":1706306778,"current_range_meters":6400,"station_id":"ce4bh2p2rcd13ifvqdi0","pricing_plan_id":"free"},{"bike_id":"26d99204-f724-4e3a-9c9c-1ce5aa3fa09d","system_id":"levelo_inurba_marseille","lat":43.283494,"lon":5.380945,"is_reserved":false,"is_disabled":false,"rental_uris":{"android":"levelo://app?vid=26d99204-f724-4e3a-9c9c-1ce5aa3fa09d","ios":"levelo://app?vid=26d99204-f724-4e3a-9c9c-1ce5aa3fa09d"},"vehicle_type_id":"4","last_reported":1706306778,"current_range_meters":8000,"station_id":"ce4bh412rcd13ifvqdr0","pricing_plan_id":"free"},{"bike_id":"81a327a3-a882-4a20-93f9-2feab4b9abfd","system_id":"levelo_inurba_marseille","lat":43.283498,"lon":5.380948,"is_reserved":false,"is_disabled":false,"rental_uris":{"android":"levelo://app?vid=81a327a3-a882-4a20-93f9-2feab4b9abfd","ios":"levelo://app?vid=81a327a3-a882-4a20-93f9-2feab4b9abfd"},"vehicle_type_id":"4","last_reported":1706306778,"current_range_meters":26800,"station_id":"ce4bh412rcd13ifvqdr0","pricing_plan_id":"free"},{"bike_id":"75ebd90e-5e3e-4986-8322-dd3c3db5c531","system_id":"levelo_inurba_marseille","lat":43.283498,"lon":5.380948,"is_reserved":false,"is_disabled":false,"rental_uris":{"android":"levelo://app?vid=75ebd90e-5e3e-4986-8322-dd3c3db5c531","ios":"levelo://app?vid=75ebd90e-5e3e-4986-8322-dd3c3db5c531"},"vehicle_type_id":"4","last_reported":1706306778,"current_range_meters":8800,"station_id":"ce4bh412rcd13ifvqdr0","pricing_plan_id":"free"},{"bike_id":"43b1ec2a-1f5e-4f95-942c-dd50a3f0ee1a","system_id":"levelo_inurba_marseille","lat":43.284219,"lon":5.3497,"is_reserved":false,"is_disabled":false,"rental_uris":{"android":"levelo://app?vid=43b1ec2a-1f5e-4f95-942c-dd50a3f0ee1a","ios":"levelo://app?vid=43b1ec2a-1f5e-4f95-942c-dd50a3f0ee1a"},"vehicle_type_id":"4","last_reported":1706306778,"current_range_meters":9200,"station_id":"ce4bhbh2rcd13ifvqepg","pricing_plan_id":"free"},{"bike_id":"1681b3ae-3f36-47de-abe1-377b74d25ecf","system_id":"levelo_inurba_marseille","lat":43.283498,"lon":5.380948,"is_reserved":false,"is_disabled":false,"rental_uris":{"android":"levelo://app?vid=1681b3ae-3f36-47de-abe1-377b74d25ecf","ios":"levelo://app?vid=1681b3ae-3f36-47de-abe1-377b74d25ecf"},"vehicle_type_id":"4","last_reported":1706306778,"current_range_meters":0,"station_id":"ce4bh412rcd13ifvqdr0","pricing_plan_id":"free"},{"bike_id":"d0114db0-d38e-4e30-8ef0-61b4aaaee3c4","system_id":"levelo_inurba_marseille","lat":43.284217,"lon":5.349697,"is_reserved":false,"is_disabled":false,"rental_uris":{"android":"levelo://app?vid=d0114db0-d38e-4e30-8ef0-61b4aaaee3c4","ios":"levelo://app?vid=d0114db0-d38e-4e30-8ef0-61b4aaaee3c4"},"vehicle_type_id":"4","last_reported":1706306778,"current_range_meters":23200,"station_id":"ce4bhbh2rcd13ifvqepg","pricing_plan_id":"free"},{"bike_id":"b41bcd76-cb12-4b33-95cd-9444d1e23578","system_id":"levelo_inurba_marseille","lat":43.293556,"lon":5.401561,"is_reserved":false,"is_disabled":false,"rental_uris":{"android":"levelo://app?vid=b41bcd76-cb12-4b33-95cd-9444d1e23578","ios":"levelo://app?vid=b41bcd76-cb12-4b33-95cd-9444d1e23578"},"vehicle_type_id":"4","last_reported":1706306778,"current_range_meters":12400,"station_id":"","pricing_plan_id":"free"},{"bike_id":"fa0d8a44-3c52-4c7e-9557-64a11433be80","system_id":"levelo_inurba_marseille","lat":43.292724,"lon":5.401131,"is_reserved":false,"is_disabled":false,"rental_uris":{"android":"levelo://app?vid=fa0d8a44-3c52-4c7e-9557-64a11433be80","ios":"levelo://app?vid=fa0d8a44-3c52-4c7e-9557-64a11433be80"},"vehicle_type_id":"4","last_reported":1706306778,"current_range_meters":0,"station_id":"ce4bh312rcd13ifvqdk0","pricing_plan_id":"free"},{"bike_id":"e7d555ad-af6a-40fd-bedf-ba4b091d3cd2","system_id":"levelo_inurba_marseille","lat":43.292724,"lon":5.401131,"is_reserved":false,"is_disabled":false,"rental_uris":{"android":"levelo://app?vid=e7d555ad-af6a-40fd-bedf-ba4b091d3cd2","ios":"levelo://app?vid=e7d555ad-af6a-40fd-bedf-ba4b091d3cd2"},"vehicle_type_id":"4","last_reported":1706306778,"current_range_meters":11200,"station_id":"ce4bh312rcd13ifvqdk0","pricing_plan_id":"free"},{"bike_id":"bee33c8c-3904-42e2-b3a0-3c522618a425","system_id":"levelo_inurba_marseille","lat":43.28282,"lon":5.35064,"is_reserved":false,"is_disabled":false,"rental_uris":{"android":"levelo://app?vid=bee33c8c-3904-42e2-b3a0-3c522618a425","ios":"levelo://app?vid=bee33c8c-3904-42e2-b3a0-3c522618a425"},"vehicle_type_id":"4","last_reported":1706306778,"current_range_meters":0,"station_id":"ce4bhbp2rcd13ifvqerg","pricing_plan_id":"free"},