{"last_updated":1687712787,"ttl":30,"version":"2.2","data":{"bikes":[{"bike_id":"77819223-0d41-4894-99ba-37756b81174a","system_id":"levelo_inurba_marseille","lat":43.312239,"lon":5.368562,"is_reserved":false,"is_disabled":false,"rental_uris":{"android":"levelo://app?vid=77819223-0d41-4894-99ba-37756b81174a","ios":"levelo://app?vid=77819223-0d41-4894-99ba-37756b81174a"},"vehicle_type_id":"4","last_reported":1687712788,"current_range_meters":0,"station_id":"ce4bgl92rcd13ifvqbq0","pricing_plan_id":"free"},{"bike_id":"d6a3c3d3-cf43-4f93-adfd-9ac89d0ee1ce","system_id":"levelo_inurba_marseille","lat":43.312239,"lon":5.368562,"is_reserved":false,"is_disabled":false,"rental_uris":{"android":"levelo://app?vid=d6a3c3d3-cf43-4f93-adfd-9ac89d0ee1ce","ios":"levelo://app?vid=d6a3c3d3-cf43-4f93-adfd-9ac89d0ee1ce"},"vehicle_type_id":"4","last_reported":1687712788,"current_range_meters":3200,"station_id":"ce4bgl92rcd13ifvqbq0","pricing_plan_id":"free"},{"bike_id":"9711f5ed-0c77-4937-8d58-a385fe3f9b26","system_id":"levelo_inurba_marseille","lat":43.312239,"lon":5.368562,"is_reserved":false,"is_disabled":false,"rental_uris":{"android":"levelo://app?vid=9711f5ed-0c77-4937-8d58-a385fe3f9b26","ios":"levelo://app?vid=9711f5ed-0c77-4937-8d58-a385fe3f9b26"},"vehicle_type_id":"4","last_reported":1687712788,"current_range_meters":0,"station_id":"ce4bgl92rcd13ifvqbq0","pricing_plan_id":"free"},{"bike_id":"f17a4990-562f-4401-a0dc-8464098a819c","system_id":"levelo_inurba_marseille","lat":43.31237,"lon":5.36922,"is_reserved":false,"is_disabled":false,"rental_uris":{"android":"levelo://app?vid=f17a4990-562f-4401-a0dc-8464098a819c","ios":"levelo://app?vid=f17a4990-562f-4401-a0dc-8464098a819c"},"vehicle_type_id":"4","last_reported":1687712788,"current_range_meters":19600,"station_id":"","pricing_plan_id":"free"},{"bike_id":"2362d78b-e06a-4866-a0a1-7346cde59c6d","system_id":"levelo_inurba_marseille","lat":43.31629,"lon":5.36639,"is_reserved":false,"is_disabled":false,"rental_uris":{"android":"levelo://app?vid=2362d78b-e06a-4866-a0a1-7346cde59c6d","ios":"levelo://app?vid=2362d78b-e06a-4866-a0a1-7346cde59c6d"},"vehicle_type_id":"4","last_reported":1687712788,"current_range_meters":15600,"station_id":"","pricing_plan_id":"free"},{"bike_id":"149dc6c3-b612-4be3-8d30-2c7d306cb613","system_id":"levelo_inurba_marseille","lat":43.314811,"lon":5.373103,"is_reserved":false,"is_disabled":false,"rental_uris":{"android":"levelo://app?vid=149dc6c3-b612-4be3-8d30-2c7d306cb613","ios":"levelo://app?vid=149dc6c3-b612-4be3-8d30-2c7d306cb613"},"vehicle_type_id":"4","last_reported":1687712788,"current_range_meters":7200,"station_id":"ce4bgt12rcd13ifvqcd0","pricing_plan_id":"free"},{"bike_id":"bc2c1e4a-4127-4ff5-8f4f-5509acb47049","system_id":"levelo_inurba_marseille","lat":43.31108,"lon":5.37764,"is_reserved":false,"is_disabled":false,"rental_uris":{"android":"levelo://app?vid=bc2c1e4a-4127-4ff5-8f4f-5509acb47049","ios":"levelo://app?vid=bc2c1e4a-4127-4ff5-8f4f-5509acb47049"},"vehicle_type_id":"4","last_reported":1687712788,"current_range_meters":12000,"station_id":"ce4bgt92rcd13ifvqcg0","pricing_plan_id":"free"},{"bike_id":"cb8b1387-d8af-42e0-b4a9-acc526dd9ff5","system_id":"levelo_inurba_marseille","lat":43.31766,"lon":5.37778,"is_reserved":false,"is_disabled":false,"rental_uris":{"android":"levelo://app?vid=cb8b1387-d8af-42e0-b4a9-acc526dd9ff5","ios":"levelo://app?vid=cb8b1387-d8af-42e0-b4a9-acc526dd9ff5"},"vehicle_type_id":"4","last_reported":1687712788,"current_range_meters":23200,"station_id":"","pricing_plan_id":"free"},{"bike_id":"cb566304-0ced-4650-b782-dce7154fba6a","system_id":"levelo_inurba_marseille","lat":43.303046,"lon":5.368981,"is_reserved":false,"is_disabled":false,"rental_uris":{"android":"levelo://app?vid=cb566304-0ced-4650-b782-dce7154fba6a","ios":"levelo://app?vid=cb566304-0ced-4650-b782-dce7154fba6a"},"vehicle_type_id":"4","last_reported":1687712788,"current_range_meters":16000,"station_id":"ce4bgqh2rcd13ifvqc5g","pricing_plan_id":"free"},{"bike_id":"2ae4c695-3a04-437f-83c0-20dac3188f7a","system_id":"levelo_inurba_marseille","lat":43.315289,"lon":5.380349,"is_reserved":false,"is_disabled":false,"rental_uris":{"android":"levelo://app?vid=2ae4c695-3a04-437f-83c0-20dac3188f7a","ios":"levelo://app?vid=2ae4c695-3a04-437f-83c0-20dac3188f7a"},"vehicle_type_id":"4","last_reported":1687712788,"current_range_meters":24800,"station_id":"ce4bhsp2rcd13ifvqi50","pricing_plan_id":"free"},{"bike_id":"911d31be-aa81-4874-8417-522c9144851a","system_id":"levelo_inurba_marseille","lat":43.315289,"lon":5.380349,"is_reserved":false,"is_disabled":false,"rental_uris":{"android":"levelo://app?vid=911d31be-aa81-4874-8417-522c9144851a","ios":"levelo://app?vid=911d31be-aa81-4874-8417-522c9144851a"},"vehicle_type_id":"4","last_reported":1687712788,"current_range_meters":0,"station_id":"ce4bhsp2rcd13ifvqi50","pricing_plan_id":"free"},{"bike_id":"7961c058-6bbf-43fe-9e62-f3ba9264f471","system_id":"levelo_inurba_marseille","lat":43.30239,"lon":5.37389,"is_reserved":false,"is_disabled":false,"rental_uris":{"android":"levelo://app?vid=7961c058-6bbf-43fe-9e62-f3ba9264f471","ios":"levelo://app?vid=7961c058-6bbf-43fe-9e62-f3ba9264f471"},"vehicle_type_id":"4","last_reported":1687712788,"current_range_meters":4400,"station_id":"","pricing_plan_id":"free"},{"bike_id":"c1bc7060-7813-4208-a33d-d2e4af5d63d9","system_id":"levelo_inurba_marseille","lat":43.301429,"lon":5.37413,"is_reserved":false,"is_disabled":false,"rental_uris":{"android":"levelo://app?vid=c1bc7060-7813-4208-a33d-d2e4af5d63d9","ios":"levelo://app?vid=c1bc7060-7813-4208-a33d-d2e4af5d63d9"},"vehicle_type_id":"4","last_reported":1687712788,"current_range_meters":19200,"station_id":"ce4bgs92rcd13ifvqcc0","pricing_plan_id":"free"},{"bike_id":"9fb2af00-a3bb-4d59-9a9c-bf6fb58d47f0","system_id":"levelo_inurba_marseille","lat":43.319935,"lon":5.381699,"is_reserved":false,"is_disabled":false,"rental_uris":{"android":"levelo://app?vid=9fb2af00-a3bb-4d59-9a9c-bf6fb58d47f0","ios":"levelo://app?vid=9fb2af00-a3bb-4d59-9a9c-bf6fb58d47f0"},"vehicle_type_id":"4","last_reported":1687712788,"current_range_meters":29600,"station_id":"ce4bhr12rcd13ifvqhpg","pricing_plan_id":"free"},{"bike_id":"8d8e0424-a554-44d1-aac7-2925f426b147","system_id":"levelo_inurba_marseille","lat":43.319935,"lon":5.381699,"is_reserved":false,"is_disabled":false,"rental_uris":{"android":"levelo://app?vid=8d8e0424-a554-44d1-aac7-2925f426b147","ios":"levelo://app?vid=8d8e0424-a554-44d1-aac7-2925f426b147"},"vehicle_type_id":"4","last_reported":1687712788,"current_range_meters":6400,"station_id":"ce4bhr12rcd13ifvqhpg","pricing_plan_id":"free"},{"bike_id":"e5564a1b-7eaa-42d7-9eac-0b69cc97b61e","system_id":"levelo_inurba_marseille","lat":43.319935,"lon":5.381699,"is_reserved":false,"is_disabled":false,"rental_uris":{"android":"levelo://app?vid=e5564a1b-7eaa-42d7-9eac-0b69cc97b61e","ios":"levelo://app?vid=e5564a1b-7eaa-42d7-9eac-0b69cc97b61e"},"vehicle_type_id":"4","last_reported":1687712788,"current_range_meters":14400,"station_id":"ce4bhr12rcd13ifvqhpg","pricing_plan_id":"free"},{"bike_id":"25bcc21c-84b0-43f8-8ed1-2713382bd734","system_id":"levelo_inurba_marseille","lat":43.319935,"lon":5.381699,"is_reserved":false,"is_disabled":false,"rental_uris":{"android":"levelo://app?vid=25bcc21c-84b0-43f8-8ed1-2713382bd734","ios":"levelo://app?vid=25bcc21c-84b0-43f8-8ed1-2713382bd734"},"vehicle_type_id":"4","last_reported":1687712788,"current_range_meters":21600,"station_id":"ce4bhr12rcd13ifvqhpg","pricing_plan_id":"free"},{"bike_id":"7e9a47a8-5d6c-4e19-9cd5-24ee65ebc02d","system_id":"levelo_inurba_marseille","lat":43.319935,"lon":5.381699,"is_reserved":false,"is_disabled":false,"rental_uris":{"android":"levelo://app?vid=7e9a47a8-5d6c-4e19-9cd5-24ee65ebc02d","ios":"levelo://app?vid=7e9a47a8-5d6c-4e19-9cd5-24ee65ebc02d"},"vehicle_type_id":"4","last_reported":1687712788,"current_range_meters":27200,"station_id":"ce4bhr12rcd13ifvqhpg","pricing_plan_id":"free"},{"bike_id":"1d1cb87c-415c-47c4-b346-52222dc02094","system_id":"levelo_inurba_marseille","lat":43.313571,"lon":5.384829,"is_reserved":false,"is_disabled":false,"rental_uris":{"android":"levelo://app?vid=1d1cb87c-415c-47c4-b346-52222dc02094","ios":"levelo://app?vid=1d1cb87c-415c-47c4-b346-52222dc02094"},"vehicle_type_id":"4","last_reported":1687712788,"current_range_meters":5600,"station_id":"ce4bgt92rcd13ifvqcf0","pricing_plan_id":"free"},{"bike_id":"885fb6ec-a6a0-4881-8d5b-a8e74141b88d","system_id":"levelo_inurba_marseille","lat":43.31354,"lon":5.38499,"is_reserved":false,"is_disabled":false,"rental_uris":{"android":"levelo://app?vid=885fb6ec-a6a0-4881-8d5b-a8e74141b88d","ios":"levelo://app?vid=885fb6ec-a6a0-4881-8d5b-a8e74141b88d"},"vehicle_type_id":"4","last_reported":1687712788,"current_range_meters":28400,"station_id":"ce4bgt92rcd13ifvqcf0","pricing_plan_id":"free"},{"bike_id":"0fbcd27f-548b-4e88-92b5-aac80ad0c913","system_id":"levelo_inurba_marseille","lat":43.299222,"lon":5.365554,"is_reserved":false,"is_disabled":false,"rental_uris":{"android":"levelo://app?vid=0fbcd27f-548b-4e88-92b5-aac80ad0c913","ios":"levelo://app?vid=0fbcd27f-548b-4e88-92b5-aac80ad0c913"},"vehicle_type_id":"4","last_reported":1687712788,"current_range_meters":16800,"station_id":"ce4bgm92rcd13ifvqbr0","pricing_plan_id":"free"},{"bike_id":"31c4c4e7-8a47-4813-9bfd-311d184dae3f","system_id":"levelo_inurba_marseille","lat":43.305364,"lon":5.384119,"is_reserved":false,"is_disabled":false,"rental_uris":{"android":"levelo://app?vid=31c4c4e7-8a47-4813-9bfd-311d184dae3f","ios":"levelo://app?vid=31c4c4e7-8a47-4813-9bfd-311d184dae3f"},"vehicle_type_id":"4","last_reported":1687712788,"current_range_meters":13600,"station_id":"ce4bgg92rcd13ifvqb30","pricing_plan_id":"free"},{"bike_id":"757a1d2e-31f1-40ba-97a9-d889ac6ed64f","system_id":"levelo_inurba_marseille","lat":43.311722,"lon":5.387247,"is_reserved":false,"is_disabled":false,"rental_uris":{"android":"levelo://app?vid=757a1d2e-31f1-40ba-97a9-d889ac6ed64f","ios":"levelo://app?vid=757a1d2e-31f1-40ba-97a9-d889ac6ed64f"},"vehicle_type_id":"4","last_reported":1687712788,"current_range_meters":4400,"station_id":"ce4bgv12rcd13ifvqcp0","pricing_plan_id":"free"},{"bike_id":"f08b2980-c0c9-4aed-988c-5510232f1f6a","system_id":"levelo_inurba_marseille","lat":43.311722,"lon":5.387247,"is_reserved":false,"is_disabled":false,"rental_uris":{"android":"levelo://app?vid=f08b2980-c0c9-4aed-988c-5510232f1f6a","ios":"levelo://app?vid=f08b2980-c0c9-4aed-988c-5510232f1f6a"},"vehicle_type_id":"4","last_reported":1687712788,"current_range_meters":20400,"station_id":"ce4bgv12rcd13ifvqcp0","pricing_plan_id":"free"},{"bike_id":"f025ee61-d501-46ae-a944-ff15d13f9810","system_id":"levelo_inurba_marseille","lat":43.2978,"lon":5.37095,"is_reserved":false,"is_disabled":false,"rental_uris":{"android":"levelo://app?vid=f025ee61-d501-46ae-a944-ff15d13f9810","ios":"levelo://app?vid=f025ee61-d501-46ae-a944-ff15d13f9810"},"vehicle_type_id":"4","last_reported":1687712788,"current_range_meters":18400,"station_id":"ce4bgop2rcd13ifvqc1g","pricing_plan_id":"free"},{"bike_id":"70427fa5-c1d6-4b25-b211-ac20bf2f0d0d","system_id":"levelo_inurba_marseille","lat":43.297794,"lon":5.370888,"is_reserved":false,"is_disabled":false,"rental_uris":{"android":"levelo://app?vid=70427fa5-c1d6-4b25-b211-ac20bf2f0d0d","ios":"levelo://app?vid=70427fa5-c1d6-4b25-b211-ac20bf2f0d0d"},"vehicle_type_id":"4","last_reported":1687712788,"current_range_meters":400,"station_id":"ce4bgop2rcd13ifvqc1g","pricing_plan_id":"free"},{"bike_id":"1580a472-182f-4d91-8a6c-4c3a23a9c034","system_id":"levelo_inurba_marseille","lat":43.302,"lon":5.3821,"is_reserved":false,"is_disabled":false,"rental_uris":{"android":"levelo://app?vid=1580a472-182f-4d91-8a6c-4c3a23a9c034","ios":"levelo://app?vid=1580a472-182f-4d91-8a6c-4c3a23a9c034"},"vehicle_type_id":"4","last_reported":1687712788,"current_range_meters":12800,"station_id":"","pricing_plan_id":"free"},{"bike_id":"84310711-9ffd-45bf-a8e1-79683581878e","system_id":"levelo_inurba_marseille","lat":43.328371,"lon":5.366909,"is_reserved":false,"is_disabled":false,"rental_uris":{"android":"levelo://app?vid=84310711-9ffd-45bf-a8e1-79683581878e","ios":"levelo://app?vid=84310711-9ffd-45bf-a8e1-79683581878e"},"vehicle_type_id":"4","last_reported":1687712788,"current_range_meters":20800,"station_id":"ce4bhs92rcd13ifvqi0g","pricing_plan_id":"free"},{"bike_id":"6c6205e5-5698-4933-afb2-7335e6b4ae8b","system_id":"levelo_inurba_marseille","lat":43.32829,"lon":5.36683,"is_reserved":false,"is_disabled":false,"rental_uris":{"android":"levelo://app?vid=6c6205e5-5698-4933-afb2-7335e6b4ae8b","ios":"levelo://app?vid=6c6205e5-5698-4933-afb2-7335e6b4ae8b"},"vehicle_type_id":"4","last_reported":1687712788,"current_range_meters":4400,"station_id":"ce4bhs92rcd13ifvqi0g","pricing_plan_id":"free"},{"bike_id":"cbdd73a9-8831-4dab-9e8d-2ce4e630f6d2","system_id":"levelo_inurba_marseille","lat":43.328371,"lon":5.366909,"is_reserved":false,"is_disabled":false,"rental_uris":{"android":"levelo://app?vid=cbdd73a9-8831-4dab-9e8d-2ce4e630f6d2","ios":"levelo://app?vid=cbdd73a9-8831-4dab-9e8d-2ce4e630f6d2"},"vehicle_type_id":"4","last_reported":1687712788,"current_range_meters":25200,"station_id":"ce4bhs92rcd13ifvqi0g","pricing_plan_id":"free"},{"bike_id":"8b17aad1-d072-4063-bcd5-d1dd5ac05981","system_id":"levelo_inurba_marseille","lat":43.32834,"lon":5.36689,"is_reserved":false,"is_disabled":false,"rental_uris":{"android":"levelo://app?vid=8b17aad1-d072-4063-bcd5-d1dd5ac05981","ios":"levelo://app?vid=8b17aad1-d072-4063-bcd5-d1dd5ac05981"},"vehicle_type_id":"4","last_reported":1687712788,"current_range_meters":30800,"station_id":"ce4bhs92rcd13ifvqi0g","pricing_plan_id":"free"},{"bike_id":"9823f69b-7618-447c-88b9-9a8290da0996","system_id":"levelo_inurba_marseille","lat":43.32834,"lon":5.36683,"is_reserved":false,"is_disabled":false,"rental_uris":{"android":"levelo://app?vid=9823f69b-7618-447c-88b9-9a8290da0996","ios":"levelo://app?vid=9823f69b-7618-447c-88b9-9a8290da0996"},"vehicle_type_id":"4","last_reported":1687712788,"current_range_meters":8800,"station_id":"ce4bhs92rcd13ifvqi0g","pricing_plan_id":"free"},{"bike_id":"8cd194c3-4946-47d4-8472-6a93aa928d08","system_id":"levelo_inurba_marseille","lat":43.32835,"lon":5.36681,"is_reserved":false,"is_disabled":false,"rental_uris":{"android":"levelo://app?vid=8cd194c3-4946-47d4-8472-6a93aa928d08","ios":"levelo://app?vid=8cd194c3-4946-47d4-8472-6a93aa928d08"},"vehicle_type_id":"4","last_reported":1687712788,"current_range_meters":25200,"station_id":"ce4bhs92rcd13ifvqi0g","pricing_plan_id":"free"},{"bike_id":"8d98417a-cbe4-4269-8bc9-598373a7d5de","system_id":"levelo_inurba_marseille","lat":43.32858,"lon":5.3628,"is_reserved":false,"is_disabled":false,"rental_uris":{"android":"levelo://app?vid=8d98417a-cbe4-4269-8bc9-598373a7d5de","ios":"levelo://app?vid=8d98417a-cbe4-4269-8bc9-598373a7d5de"},"vehicle_type_id":"4","last_reported":1687712788,"current_range_meters":16800,"station_id":"","pricing_plan_id":"free"},{"bike_id":"31f178f4-9ec1-4ef8-981d-1837cbc21042","system_id":"levelo_inurba_marseille","lat":43.309589,"lon":5.390258,"is_reserved":false,"is_disabled":false,"rental_uris":{"android":"levelo://app?vid=31f178f4-9ec1-4ef8-981d-1837cbc21042","ios":"levelo://app?vid=31f178f4-9ec1-4ef8-981d-1837cbc21042"},"vehicle_type_id":"4","last_reported":1687712788,"current_range_meters":21600,"station_id":"ce4bgup2rcd13ifvqco0","pricing_plan_id":"free"},{"bike_id":"edcf8e3c-a57f-40ed-90fb-c6a0aa68fb23","system_id":"levelo_inurba_marseille","lat":43.309589,"lon":5.390258,"is_reserved":false,"is_disabled":false,"rental_uris":{"android":"levelo://app?vid=edcf8e3c-a57f-40ed-90fb-c6a0aa68fb23","ios":"levelo://app?vid=edcf8e3c-a57f-40ed-90fb-c6a0aa68fb23"},"vehicle_type_id":"4","last_reported":1687712788,"current_range_meters":8000,"station_id":"ce4bgup2rcd13ifvqco0","pricing_plan_id":"free"},{"bike_id":"3bbae0e1-e661-4766-bf78-f5747e1659a5","system_id":"levelo_inurba_marseille","lat":43.309589,"lon":5.390258,"is_reserved":false,"is_disabled":false,"rental_uris":{"android":"levelo://app?vid=3bbae0e1-e661-4766-bf78-f5747e1659a5","ios":"levelo://app?vid=3bbae0e1-e661-4766-bf78-f5747e1659a5"},"vehicle_type_id":"4","last_reported":1687712788,"current_range_meters":26400,"station_id":"ce4bgup2rcd13ifvqco0","pricing_plan_id":"free"},{"bike_id":"041bc147-ef2f-419b-bb81-deca3bdf89e2","system_id":"levelo_inurba_marseille","lat":43.29611,"lon":5.36046,"is_reserved":false,"is_disabled":false,"rental_uris":{"android":"levelo://app?vid=041bc147-ef2f-419b-bb81-deca3bdf89e2","ios":"levelo://app?vid=041bc147-ef2f-419b-bb81-deca3bdf89e2"},"vehicle_type_id":"4","last_reported":1687712788,"current_range_meters":2400,"station_id":"","pricing_plan_id":"free"},{"bike_id":"4820f183-9d0c-4274-aa9e-ee646b7c71a2","system_id":"levelo_inurba_marseille","lat":43.309589,"lon":5.390258,"is_reserved":false,"is_disabled":false,"rental_uris":{"android":"levelo://app?vid=4820f183-9d0c-4274-aa9e-ee646b7c71a2","ios":"levelo://app?vid=4820f183-9d0c-4274-aa9e-ee646b7c71a2"},"vehicle_type_id":"4","last_reported":1687712788,"current_range_meters":1600,"station_id":"ce4bgup2rcd13ifvqco0","pricing_plan_id":"free"},{"bike_id":"86e8ebd9-9036-433f-b6bf-1241e07a690d","system_id":"levelo_inurba_marseille","lat":43.309589,"lon":5.390258,"is_reserved":false,"is_disabled":false,"rental_uris":{"android":"levelo://app?vid=86e8ebd9-9036-433f-b6bf-1241e07a690d","ios":"levelo://app?vid=86e8ebd9-9036-433f-b6bf-1241e07a690d"},"vehicle_type_id":"4","last_reported":1687712788,"current_range_meters":31200,"station_id":"ce4bgup2rcd13ifvqco0","pricing_plan_id":"free"},{"bike_id":"a71f8f74-3f6b-4c16-bbef-868af8ad4824","system_id":"levelo_inurba_marseille","lat":43.309589,"lon":5.390258,"is_reserved":false,"is_disabled":false,"rental_uris":{"android":"levelo://app?vid=a71f8f74-3f6b-4c16-bbef-868af8ad4824","ios":"levelo://app?vid=a71f8f74-3f6b-4c16-bbef-868af8ad4824"},"vehicle_type_id":"4","last_reported":1687712788,"current_range_meters":27600,"station_id":"ce4bgup2rcd13ifvqco0","pricing_plan_id":"free"},{"bike_id":"c4a216ec-5e17-4806-8a0f-74117f5d0069","system_id":"levelo_inurba_marseille","lat":43.296921,"lon":5.376579,"is_reserved":false,"is_disabled":false,"rental_uris":{"android":"levelo://app?vid=c4a216ec-5e17-4806-8a0f-74117f5d0069","ios":"levelo://app?vid=c4a216ec-5e17-4806-8a0f-74117f5d0069"},"vehicle_type_id":"4","last_reported":1687712788,"current_range_meters":7600,"station_id":"ce4bgkh2rcd13ifvqbl0","pricing_plan_id":"free"},{"bike_id":"df794d81-c743-4cc5-aa7c-18c2d3d3eb17","system_id":"levelo_inurba_marseille","lat":43.309589,"lon":5.390258,"is_reserved":false,"is_disabled":false,"rental_uris":{"android":"levelo://app?vid=df794d81-c743-4cc5-aa7c-18c2d3d3eb17","ios":"levelo://app?vid=df794d81-c743-4cc5-aa7c-18c2d3d3eb17"},"vehicle_type_id":"4","last_reported":1687712788,"current_range_meters":4000,"station_id":"ce4bgup2rcd13ifvqco0","pricing_plan_id":"free"},{"bike_id":"4ba06958-88ba-4811-96af-4fb8bce85033","system_id":"levelo_inurba_marseille","lat":43.309589,"lon":5.390258,"is_reserved":false,"is_disabled":false,"rental_uris":{"android":"levelo://app?vid=4ba06958-88ba-4811-96af-4fb8bce85033","ios":"levelo://app?vid=4ba06958-88ba-4811-96af-4fb8bce85033"},"vehicle_type_id":"4","last_reported":1687712788,"current_range_meters":22800,"station_id":"ce4bgup2rcd13ifvqco0","pricing_plan_id":"free"},{"bike_id":"1c830f2b-8952-49c7-89df-f72849d63ca9","system_id":"levelo_inurba_marseille","lat":43.309589,"lon":5.390258,"is_reserved":false,"is_disabled":false,"rental_uris":{"android":"levelo://app?vid=1c830f2b-8952-49c7-89df-f72849d63ca9","ios":"levelo://app?vid=1c830f2b-8952-49c7-89df-f72849d63ca9"},"vehicle_type_id":"4","last_reported":1687712788,"current_range_meters":10800,"station_id":"ce4bgup2rcd13ifvqco0","pricing_plan_id":"free"},{"bike_id":"ac95b105-7f02-4b47-9abf-0230e64e9d09","system_id":"levelo_inurba_marseille","lat":43.317557,"lon":5.390173,"is_reserved":false,"is_disabled":false,"rental_uris":{"android":"levelo://app?vid=ac95b105-7f02-4b47-9abf-0230e64e9d09","ios":"levelo://app?vid=ac95b105-7f02-4b47-9abf-0230e64e9d09"},"vehicle_type_id":"4","last_reported":1687712788,"current_range_meters":10800,"station_id":"ce4bhqp2rcd13ifvqhng","pricing_plan_id":"free"},{"bike_id":"3ecb1419-ec96-4c17-8e0a-de207f3a5e04","system_id":"levelo_inurba_marseille","lat":43.3176,"lon":5.39012,"is_reserved":false,"is_disabled":false,"rental_uris":{"android":"levelo://app?vid=3ecb1419-ec96-4c17-8e0a-de207f3a5e04","ios":"levelo://app?vid=3ecb1419-ec96-4c17-8e0a-de207f3a5e04"},"vehicle_type_id":"4","last_reported":1687712788,"current_range_meters":28000,"station_id":"ce4bhqp2rcd13ifvqhng","pricing_plan_id":"free"},{"bike_id":"f2ce00f1-faf9-4bb2-b582-8388019ae523","system_id":"levelo_inurba_marseille","lat":43.317557,"lon":5.390173,"is_reserved":false,"is_disabled":false,"rental_uris":{"android":"levelo://app?vid=f2ce00f1-faf9-4bb2-b582-8388019ae523","ios":"levelo://app?vid=f2ce00f1-faf9-4bb2-b582-8388019ae523"},"vehicle_type_id":"4","last_reported":1687712788,"current_range_meters":26400,"station_id":"ce4bhqp2rcd13ifvqhng","pricing_plan_id":"free"},{"bike_id":"544a8eea-8a83-40d4-a676-b9ded823a8bd","system_id":"levelo_inurba_marseille","lat":43.30433,"lon":5.3889,"is_reserved":false,"is_disabled":false,"rental_uris":{"android":"levelo://app?vid=544a8eea-8a83-40d4-a676-b9ded823a8bd","ios":"levelo://app?vid=544a8eea-8a83-40d4-a676-b9ded823a8bd"},"vehicle_type_id":"4","last_reported":1687712788,"current_range_meters":17600,"station_id":"ce4bgk12rcd13ifvqbi0","pricing_plan_id":"free"},{"bike_id":"a9c5faac-8f3e-415b-864d-7d3fe73dd65c","system_id":"levelo_inurba_marseille","lat":43.295279,"lon":5.375048,"is_reserved":false,"is_disabled":false,"rental_uris":{"android":"levelo://app?vid=a9c5faac-8f3e-415b-864d-7d3fe73dd65c","ios":"levelo://app?vid=a9c5faac-8f3e-415b-864d-7d3fe73dd65c"},"vehicle_type_id":"4","last_reported":1687712788,"current_range_meters":0,"station_id":"ce4bgkp2rcd13ifvqbmg","pricing_plan_id":"free"},{"bike_id":"0ccdff62-edab-49d2-8a70-82999e2d8b17","system_id":"levelo_inurba_marseille","lat":43.29975,"lon":5.38479,"is_reserved":false,"is_disabled":false,"rental_uris":{"android":"levelo://app?vid=0ccdff62-edab-49d2-8a70-82999e2d8b17","ios":"levelo://app?vid=0ccdff62-edab-49d2-8a70-82999e2d8b17"},"vehicle_type_id":"4","last_reported":1687712788,"current_range_meters":400,"station_id":"ce4bgj92rcd13ifvqbd0","pricing_plan_id":"free"},{"bike_id":"756d5612-3ad6-45ea-afb7-ec621817215f","system_id":"levelo_inurba_marseille","lat":43.299707,"lon":5.384859,"is_reserved":false,"is_disabled":false,"rental_uris":{"android":"levelo://app?vid=756d5612-3ad6-45ea-afb7-ec621817215f","ios":"levelo://app?vid=756d5612-3ad6-45ea-afb7-ec621817215f"},"vehicle_type_id":"4","last_reported":1687712788,"current_range_meters":400,"station_id":"ce4bgj92rcd13ifvqbd0","pricing_plan_id":"free"},{"bike_id":"a6eb65da-3ab8-4b96-b0d4-89a51137eab1","system_id":"levelo_inurba_marseille","lat":43.29856,"lon":5.38359,"is_reserved":false,"is_disabled":false,"rental_uris":{"android":"levelo://app?vid=a6eb65da-3ab8-4b96-b0d4-89a51137eab1","ios":"levelo://app?vid=a6eb65da-3ab8-4b96-b0d4-89a51137eab1"},"vehicle_type_id":"4","last_reported":1687712788,"current_range_meters":0,"station_id":"","pricing_plan_id":"free"},{"bike_id":"cc63e03e-82e9-4c6b-9d3a-55bdb3cbcaff","system_id":"levelo_inurba_marseille","lat":43.32364,"lon":5.38876,"is_reserved":false,"is_disabled":false,"rental_uris":{"android":"levelo://app?vid=cc63e03e-82e9-4c6b-9d3a-55bdb3cbcaff","ios":"levelo://app?vid=cc63e03e-82e9-4c6b-9d3a-55bdb3cbcaff"},"vehicle_type_id":"4","last_reported":1687712788,"current_range_meters":0,"station_id":"ce4bhqp2rcd13ifvqhog","pricing_plan_id":"free"},{"bike_id":"a6b543df-b29f-4057-a17b-ece9e8918f86","system_id":"levelo_inurba_marseille","lat":43.32361,"lon":5.38886,"is_reserved":false,"is_disabled":false,"rental_uris":{"android":"levelo://app?vid=a6b543df-b29f-4057-a17b-ece9e8918f86","ios":"levelo://app?vid=a6b543df-b29f-4057-a17b-ece9e8918f86"},"vehicle_type_id":"4","last_reported":1687712788,"current_range_meters":14000,"station_id":"ce4bhqp2rcd13ifvqhog","pricing_plan_id":"free"},{"bike_id":"228378a3-e0ba-427a-9a36-5789a7b6bb76","system_id":"levelo_inurba_marseille","lat":43.32363,"lon":5.38887,"is_reserved":false,"is_disabled":false,"rental_uris":{"android":"levelo://app?vid=228378a3-e0ba-427a-9a36-5789a7b6bb76","ios":"levelo://app?vid=228378a3-e0ba-427a-9a36-5789a7b6bb76"},"vehicle_type_id":"4","last_reported":1687712788,"current_range_meters":10400,"station_id":"ce4bhqp2rcd13ifvqhog","pricing_plan_id":"free"},{"bike_id":"e75c5339-f841-4b36-92c8-8db2e4fa4c43","system_id":"levelo_inurba_marseille","lat":43.32367,"lon":5.388836,"is_reserved":false,"is_disabled":false,"rental_uris":{"android":"levelo://app?vid=e75c5339-f841-4b36-92c8-8db2e4fa4c43","ios":"levelo://app?vid=e75c5339-f841-4b36-92c8-8db2e4fa4c43"},"vehicle_type_id":"4","last_reported":1687712788,"current_range_meters":11200,"station_id":"ce4bhqp2rcd13ifvqhog","pricing_plan_id":"free"},{"bike_id":"272798e6-82c7-4802-afb6-913ad29ef50b","system_id":"levelo_inurba_marseille","lat":43.292749,"lon":5.368402,"is_reserved":false,"is_disabled":false,"rental_uris":{"android":"levelo://app?vid=272798e6-82c7-4802-afb6-913ad29ef50b","ios":"levelo://app?vid=272798e6-82c7-4802-afb6-913ad29ef50b"},"vehicle_type_id":"4","last_reported":1687712788,"current_range_meters":18800,"station_id":"ce4bhbp2rcd13ifvqesg","pricing_plan_id":"free"},{"bike_id":"32f98dc1-8b28-43a4-bc07-df666642172f","system_id":"levelo_inurba_marseille","lat":43.292749,"lon":5.368398,"is_reserved":false,"is_disabled":false,"rental_uris":{"android":"levelo://app?vid=32f98dc1-8b28-43a4-bc07-df666642172f","ios":"levelo://app?vid=32f98dc1-8b28-43a4-bc07-df666642172f"},"vehicle_type_id":"4","last_reported":1687712788,"current_range_meters":21200,"station_id":"ce4bhbp2rcd13ifvqesg","pricing_plan_id":"free"},{"bike_id":"f33c03b1-35ec-4ea6-be5e-d64d6a5400ea","system_id":"levelo_inurba_marseille","lat":43.292749,"lon":5.368402,"is_reserved":false,"is_disabled":false,"rental_uris":{"android":"levelo://app?vid=f33c03b1-35ec-4ea6-be5e-d64d6a5400ea","ios":"levelo://app?vid=f33c03b1-35ec-4ea6-be5e-d64d6a5400ea"},"vehicle_type_id":"4","last_reported":1687712788,"current_range_meters":20400,"station_id":"ce4bhbp2rcd13ifvqesg","pricing_plan_id":"free"},{"bike_id":"8e4c0455-45e5-49d3-bc7f-2948c3266977","system_id":"levelo_inurba_marseille","lat":43.302992,"lon":5.392136,"is_reserved":false,"is_disabled":false,"rental_uris":{"android":"levelo://app?vid=8e4c0455-45e5-49d3-bc7f-2948c3266977","ios":"levelo://app?vid=8e4c0455-45e5-49d3-bc7f-2948c3266977"},"vehicle_type_id":"4","last_reported":1687712788,"current_range_meters":27200,"station_id":"ce4bgkh2rcd13ifvqbk0","pricing_plan_id":"free"},{"bike_id":"9b31ba1e-28f1-4e55-a18e-672a018958cb","system_id":"levelo_inurba_marseille","lat":43.29263,"lon":5.35963,"is_reserved":false,"is_disabled":false,"rental_uris":{"android":"levelo://app?vid=9b31ba1e-28f1-4e55-a18e-672a018958cb","ios":"levelo://app?vid=9b31ba1e-28f1-4e55-a18e-672a018958cb"},"vehicle_type_id":"4","last_reported":1687712788,"current_range_meters":14800,"station_id":"","pricing_plan_id":"free"},{"bike_id":"85b30297-c1f9-4dde-a621-e3ccb59eb551","system_id":"levelo_inurba_marseille","lat":43.29238,"lon":5.36067,"is_reserved":false,"is_disabled":false,"rental_uris":{"android":"levelo://app?vid=85b30297-c1f9-4dde-a621-e3ccb59eb551","ios":"levelo://app?vid=85b30297-c1f9-4dde-a621-e3ccb59eb551"},"vehicle_type_id":"4","last_reported":1687712788,"current_range_meters":1200,"station_id":"ce4bhbh2rcd13ifvqeqg","pricing_plan_id":"free"},{"bike_id":"d11aafd2-64d1-4715-9e1a-5d752b274728","system_id":"levelo_inurba_marseille","lat":43.2936,"lon":5.37835,"is_reserved":false,"is_disabled":false,"rental_uris":{"android":"levelo://app?vid=d11aafd2-64d1-4715-9e1a-5d752b274728","ios":"levelo://app?vid=d11aafd2-64d1-4715-9e1a-5d752b274728"},"vehicle_type_id":"4","last_reported":1687712788,"current_range_meters":6000,"station_id":"ce4bgjh2rcd13ifvqbf0","pricing_plan_id":"free"},{"bike_id":"acdbf77b-f852-41fc-a6b6-2513438c2efb","system_id":"levelo_inurba_marseille","lat":43.30085,"lon":5.390856,"is_reserved":false,"is_disabled":false,"rental_uris":{"android":"levelo://app?vid=acdbf77b-f852-41fc-a6b6-2513438c2efb","ios":"levelo://app?vid=acdbf77b-f852-41fc-a6b6-2513438c2efb"},"vehicle_type_id":"4","last_reported":1687712788,"current_range_meters":31200,"station_id":"ce4bh192rcd13ifvqdb0","pricing_plan_id":"free"},{"bike_id":"5322b126-b029-4e04-b15d-f8a2a6d6b6ce","system_id":"levelo_inurba_marseille","lat":43.298764,"lon":5.388973,"is_reserved":false,"is_disabled":false,"rental_uris":{"android":"levelo://app?vid=5322b126-b029-4e04-b15d-f8a2a6d6b6ce","ios":"levelo://app?vid=5322b126-b029-4e04-b15d-f8a2a6d6b6ce"},"vehicle_type_id":"4","last_reported":1687712788,"current_range_meters":20800,"station_id":"ce4bh392rcd13ifvqdl0","pricing_plan_id":"free"},{"bike_id":"c3140cb9-d82d-427d-b68c-5440168d3351","system_id":"levelo_inurba_marseille","lat":43.298764,"lon":5.388973,"is_reserved":false,"is_disabled":false,"rental_uris":{"android":"levelo://app?vid=c3140cb9-d82d-427d-b68c-5440168d3351","ios":"levelo://app?vid=c3140cb9-d82d-427d-b68c-5440168d3351"},"vehicle_type_id":"4","last_reported":1687712788,"current_range_meters":31200,"station_id":"ce4bh392rcd13ifvqdl0","pricing_plan_id":"free"},{"bike_id":"e98e575d-a82f-4465-98a4-78b491b7550d","system_id":"levelo_inurba_marseille","lat":43.2953,"lon":5.38546,"is_reserved":false,"is_disabled":false,"rental_uris":{"android":"levelo://app?vid=e98e575d-a82f-4465-98a4-78b491b7550d","ios":"levelo://app?vid=e98e575d-a82f-4465-98a4-78b491b7550d"},"vehicle_type_id":"4","last_reported":1687712788,"current_range_meters":4400,"station_id":"ce4bgih2rcd13ifvqba0","pricing_plan_id":"free"},{"bike_id":"f6aeba40-bd30-41d1-bdc6-2b19de8ff950","system_id":"levelo_inurba_marseille","lat":43.290779,"lon":5.371482,"is_reserved":false,"is_disabled":false,"rental_uris":{"android":"levelo://app?vid=f6aeba40-bd30-41d1-bdc6-2b19de8ff950","ios":"levelo://app?vid=f6aeba40-bd30-41d1-bdc6-2b19de8ff950"},"vehicle_type_id":"4","last_reported":1687712788,"current_range_meters":1200,"station_id":"ce4bh5p2rcd13ifvqe4g","pricing_plan_id":"free"},{"bike_id":"20b2702a-2cf1-439f-b7da-41f192fa1a0a","system_id":"levelo_inurba_marseille","lat":43.29411,"lon":5.38614,"is_reserved":false,"is_disabled":false,"rental_uris":{"android":"levelo://app?vid=20b2702a-2cf1-439f-b7da-41f192fa1a0a","ios":"levelo://app?vid=20b2702a-2cf1-439f-b7da-41f192fa1a0a"},"vehicle_type_id":"4","last_reported":1687712788,"current_range_meters":14800,"station_id":"","pricing_plan_id":"free"},{"bike_id":"5d9e8eaf-01c3-454d-b7e0-d5a9da2cda62","system_id":"levelo_inurba_marseille","lat":43.289184,"lon":5.366408,"is_reserved":false,"is_disabled":false,"rental_uris":{"android":"levelo://app?vid=5d9e8eaf-01c3-454d-b7e0-d5a9da2cda62","ios":"levelo://app?vid=5d9e8eaf-01c3-454d-b7e0-d5a9da2cda62"},"vehicle_type_id":"4","last_reported":1687712788,"current_range_meters":19600,"station_id":"ce4bhap2rcd13ifvqek0","pricing_plan_id":"free"},{"bike_id":"ebb7aab2-ed6c-407a-a057-0d674afe84d7","system_id":"levelo_inurba_marseille","lat":43.289184,"lon":5.366408,"is_reserved":false,"is_disabled":false,"rental_uris":{"android":"levelo://app?vid=ebb7aab2-ed6c-407a-a057-0d674afe84d7","ios":"levelo://app?vid=ebb7aab2-ed6c-407a-a057-0d674afe84d7"},"vehicle_type_id":"4","last_reported":1687712788,"current_range_meters":14800,"station_id":"ce4bhap2rcd13ifvqek0","pricing_plan_id":"free"},{"bike_id":"4f6d051e-2679-45d2-9f16-602f5a5f8191","system_id":"levelo_inurba_marseille","lat":43.304296,"lon":5.397513,"is_reserved":false,"is_disabled":false,"rental_uris":{"android":"levelo://app?vid=4f6d051e-2679-45d2-9f16-602f5a5f8191","ios":"levelo://app?vid=4f6d051e-2679-45d2-9f16-602f5a5f8191"},"vehicle_type_id":"4","last_reported":1687712788,"current_range_meters":17600,"station_id":"ce4bh092rcd13ifvqd20","pricing_plan_id":"free"},{"bike_id":"ecfb3baa-025b-4b33-a368-d7af8c23d846","system_id":"levelo_inurba_marseille","lat":43.292644,"lon":5.384257,"is_reserved":false,"is_disabled":false,"rental_uris":{"android":"levelo://app?vid=ecfb3baa-025b-4b33-a368-d7af8c23d846","ios":"levelo://app?vid=ecfb3baa-025b-4b33-a368-d7af8c23d846"},"vehicle_type_id":"4","last_reported":1687712788,"current_range_meters":400,"station_id":"ce4bh692rcd13ifvqea0","pricing_plan_id":"free"},{"bike_id":"8172d05e-0a71-4a49-864e-9517b02c2cb9","system_id":"levelo_inurba_marseille","lat":43.290103,"lon":5.356114,"is_reserved":false,"is_disabled":false,"rental_uris":{"android":"levelo://app?vid=8172d05e-0a71-4a49-864e-9517b02c2cb9","ios":"levelo://app?vid=8172d05e-0a71-4a49-864e-9517b02c2cb9"},"vehicle_type_id":"4","last_reported":1687712788,"current_range_meters":5200,"station_id":"ce4bhb92rcd13ifvqen0","pricing_plan_id":"free"},{"bike_id":"0942a910-f08a-4b53-b8b6-5dd28ba58ad8","system_id":"levelo_inurba_marseille","lat":43.290104,"lon":5.356111,"is_reserved":false,"is_disabled":false,"rental_uris":{"android":"levelo://app?vid=0942a910-f08a-4b53-b8b6-5dd28ba58ad8","ios":"levelo://app?vid=0942a910-f08a-4b53-b8b6-5dd28ba58ad8"},"vehicle_type_id":"4","last_reported":1687712788,"current_range_meters":7200,"station_id":"ce4bhb92rcd13ifvqen0","pricing_plan_id":"free"},{"bike_id":"92ac4b0f-585c-4fd2-a8f4-ef6d40a9dbac","system_id":"levelo_inurba_marseille","lat":43.290104,"lon":5.356111,"is_reserved":false,"is_disabled":false,"rental_uris":{"android":"levelo://app?vid=92ac4b0f-585c-4fd2-a8f4-ef6d40a9dbac","ios":"levelo://app?vid=92ac4b0f-585c-4fd2-a8f4-ef6d40a9dbac"},"vehicle_type_id":"4","last_reported":1687712788,"current_range_meters":11600,"station_id":"ce4bhb92rcd13ifvqen0","pricing_plan_id":"free"},{"bike_id":"a3e6e4f4-b8ae-4752-8a5c-9c10a1a8cd50","system_id":"levelo_inurba_marseille","lat":43.290104,"lon":5.356111,"is_reserved":false,"is_disabled":false,"rental_uris":{"android":"levelo://app?vid=a3e6e4f4-b8ae-4752-8a5c-9c10a1a8cd50","ios":"levelo://app?vid=a3e6e4f4-b8ae-4752-8a5c-9c10a1a8cd50"},"vehicle_type_id":"4","last_reported":1687712788,"current_range_meters":0,"station_id":"ce4bhb92rcd13ifvqen0","pricing_plan_id":"free"},{"bike_id":"65283ab0-1768-4563-ad42-dadc14c9ddf7","system_id":"levelo_inurba_marseille","lat":43.290104,"lon":5.356111,"is_reserved":false,"is_disabled":false,"rental_uris":{"android":"levelo://app?vid=65283ab0-1768-4563-ad42-dadc14c9ddf7","ios":"levelo://app?vid=65283ab0-1768-4563-ad42-dadc14c9ddf7"},"vehicle_type_id":"4","last_reported":1687712788,"current_range_meters":10800,"station_id":"ce4bhb92rcd13ifvqen0","pricing_plan_id":"free"},{"bike_id":"c506a433-7813-48ae-9235-f43fc68a8f88","system_id":"levelo_inurba_marseille","lat":43.28912,"lon":5.35806,"is_reserved":false,"is_disabled":false,"rental_uris":{"android":"levelo://app?vid=c506a433-7813-48ae-9235-f43fc68a8f88","ios":"levelo://app?vid=c506a433-7813-48ae-9235-f43fc68a8f88"},"vehicle_type_id":"4","last_reported":1687712788,"current_range_meters":7600,"station_id":"","pricing_plan_id":"free"},{"bike_id":"fe185541-45fb-4420-8230-26f70b1234d7","system_id":"levelo_inurba_marseille","lat":43.29119,"lon":5.38294,"is_reserved":false,"is_disabled":false,"rental_uris":{"android":"levelo://app?vid=fe185541-45fb-4420-8230-26f70b1234d7","ios":"levelo://app?vid=fe185541-45fb-4420-8230-26f70b1234d7"},"vehicle_type_id":"4","last_reported":1687712788,"current_range_meters":11600,"station_id":"","pricing_plan_id":"free"},{"bike_id":"6a0106d8-035e-40a3-9e9d-84d9e3de85d7","system_id":"levelo_inurba_marseille","lat":43.29012,"lon":5.38141,"is_reserved":false,"is_disabled":false,"rental_uris":{"android":"levelo://app?vid=6a0106d8-035e-40a3-9e9d-84d9e3de85d7","ios":"levelo://app?vid=6a0106d8-035e-40a3-9e9d-84d9e3de85d7"},"vehicle_type_id":"4","last_reported":1687712788,"current_range_meters":31200,"station_id":"ce4bh4p2rcd13ifvqe1g","pricing_plan_id":"free"},{"bike_id":"3f8a925a-6a54-4259-a38f-9cf091aab246","system_id":"levelo_inurba_marseille","lat":43.29245,"lon":5.38752,"is_reserved":false,"is_disabled":false,"rental_uris":{"android":"levelo://app?vid=3f8a925a-6a54-4259-a38f-9cf091aab246","ios":"levelo://app?vid=3f8a925a-6a54-4259-a38f-9cf091aab246"},"vehicle_type_id":"4","last_reported":1687712788,"current_range_meters":15200,"station_id":"","pricing_plan_id":"free"},{"bike_id":"cf6a5be3-7f16-4a87-8cfc-a37de9d78515","system_id":"levelo_inurba_marseille","lat":43.30931,"lon":5.40144,"is_reserved":false,"is_disabled":false,"rental_uris":{"android":"levelo://app?vid=cf6a5be3-7f16-4a87-8cfc-a37de9d78515","ios":"levelo://app?vid=cf6a5be3-7f16-4a87-8cfc-a37de9d78515"},"vehicle_type_id":"4","last_reported":1687712788,"current_range_meters":800,"station_id":"ce4bgvp2rcd13ifvqct0","pricing_plan_id":"free"},{"bike_id":"c180ae38-f769-441f-8a55-5a6e4930e6ad","system_id":"levelo_inurba_marseille","lat":43.3375,"lon":5.37439,"is_reserved":false,"is_disabled":false,"rental_uris":{"android":"levelo://app?vid=c180ae38-f769-441f-8a55-5a6e4930e6ad","ios":"levelo://app?vid=c180ae38-f769-441f-8a55-5a6e4930e6ad"},"vehicle_type_id":"4","last_reported":1687712788,"current_range_meters":20000,"station_id":"","pricing_plan_id":"free"},{"bike_id":"c8da38d6-4300-44c1-9ccd-55fb33deade4","system_id":"levelo_inurba_marseille","lat":43.309371,"lon":5.401449,"is_reserved":false,"is_disabled":false,"rental_uris":{"android":"levelo://app?vid=c8da38d6-4300-44c1-9ccd-55fb33deade4","ios":"levelo://app?vid=c8da38d6-4300-44c1-9ccd-55fb33deade4"},"vehicle_type_id":"4","last_reported":1687712788,"current_range_meters":18000,"station_id":"ce4bgvp2rcd13ifvqct0","pricing_plan_id":"free"},{"bike_id":"559365ab-9b98-46e9-a77c-a91e16ff5b14","system_id":"levelo_inurba_marseille","lat":43.28755,"lon":5.37101,"is_reserved":false,"is_disabled":false,"rental_uris":{"android":"levelo://app?vid=559365ab-9b98-46e9-a77c-a91e16ff5b14","ios":"levelo://app?vid=559365ab-9b98-46e9-a77c-a91e16ff5b14"},"vehicle_type_id":"4","last_reported":1687712788,"current_range_meters":800,"station_id":"","pricing_plan_id":"free"},{"bike_id":"42467928-9718-4905-a83f-4a0a594fb894","system_id":"levelo_inurba_marseille","lat":43.33765,"lon":5.37463,"is_reserved":false,"is_disabled":false,"rental_uris":{"android":"levelo://app?vid=42467928-9718-4905-a83f-4a0a594fb894","ios":"levelo://app?vid=42467928-9718-4905-a83f-4a0a594fb894"},"vehicle_type_id":"4","last_reported":1687712788,"current_range_meters":26000,"station_id":"","pricing_plan_id":"free"},{"bike_id":"43452f91-3865-43c7-a2db-3208a2a56784","system_id":"levelo_inurba_marseille","lat":43.30642,"lon":5.401031,"is_reserved":false,"is_disabled":false,"rental_uris":{"android":"levelo://app?vid=43452f91-3865-43c7-a2db-3208a2a56784","ios":"levelo://app?vid=43452f91-3865-43c7-a2db-3208a2a56784"},"vehicle_type_id":"4","last_reported":1687712788,"current_range_meters":20800,"station_id":"ce4bh112rcd13ifvqda0","pricing_plan_id":"free"},{"bike_id":"209140ce-6280-46a6-bf3a-32b81dac23f8","system_id":"levelo_inurba_marseille","lat":43.298681,"lon":5.397225,"is_reserved":false,"is_disabled":false,"rental_uris":{"android":"levelo://app?vid=209140ce-6280-46a6-bf3a-32b81dac23f8","ios":"levelo://app?vid=209140ce-6280-46a6-bf3a-32b81dac23f8"},"vehicle_type_id":"4","last_reported":1687712788,"current_range_meters":13200,"station_id":"ce4bh0h2rcd13ifvqd50","pricing_plan_id":"free"},{"bike_id":"86f562b4-39e9-445c-894c-0fc7ca51bcce","system_id":"levelo_inurba_marseille","lat":43.286591,"lon":5.363346,"is_reserved":false,"is_disabled":false,"rental_uris":{"android":"levelo://app?vid=86f562b4-39e9-445c-894c-0fc7ca51bcce","ios":"levelo://app?vid=86f562b4-39e9-445c-894c-0fc7ca51bcce"},"vehicle_type_id":"4","last_reported":1687712788,"current_range_meters":5600,"station_id":"ce4bhah2rcd13ifvqej0","pricing_plan_id":"free"},{"bike_id":"d69fed3a-efe9-46fb-b1dc-1240b8978d3e","system_id":"levelo_inurba_marseille","lat":43.316517,"lon":5.404375,"is_reserved":false,"is_disabled":false,"rental_uris":{"android":"levelo://app?vid=d69fed3a-efe9-46fb-b1dc-1240b8978d3e","ios":"levelo://app?vid=d69fed3a-efe9-46fb-b1dc-1240b8978d3e"},"vehicle_type_id":"4","last_reported":1687712788,"current_range_meters":13600,"station_id":"ce4bh012rcd13ifvqd00","pricing_plan_id":"free"},{"bike_id":"fdf2dfa7-54a8-4ba3-9642-ae9ef89032ee","system_id":"levelo_inurba_marseille","lat":43.291994,"lon":5.392907,"is_reserved":false,"is_disabled":false,"rental_uris":{"android":"levelo://app?vid=fdf2dfa7-54a8-4ba3-9642-ae9ef89032ee","ios":"levelo://app?vid=fdf2dfa7-54a8-4ba3-9642-ae9ef89032ee"},"vehicle_type_id":"4","last_reported":1687712788,"current_range_meters":7200,"station_id":"ce4bh192rcd13ifvqdd0","pricing_plan_id":"free"},{"bike_id":"d316c7d5-5133-481c-ade5-551754759a46","system_id":"levelo_inurba_marseille","lat":43.284534,"lon":5.358662,"is_reserved":false,"is_disabled":false,"rental_uris":{"android":"levelo://app?vid=d316c7d5-5133-481c-ade5-551754759a46","ios":"levelo://app?vid=d316c7d5-5133-481c-ade5-551754759a46"},"vehicle_type_id":"4","last_reported":1687712788,"current_range_meters":6000,"station_id":"ce4bhah2rcd13ifvqei0","pricing_plan_id":"free"},{"bike_id":"fe89c243-1422-4f4f-8158-fcf0e665c048","system_id":"levelo_inurba_marseille","lat":43.284534,"lon":5.358662,"is_reserved":false,"is_disabled":false,"rental_uris":{"android":"levelo://app?vid=fe89c243-1422-4f4f-8158-fcf0e665c048","ios":"levelo://app?vid=fe89c243-1422-4f4f-8158-fcf0e665c048"},"vehicle_type_id":"4","last_reported":1687712788,"current_range_meters":6400,"station_id":"ce4bhah2rcd13ifvqei0","pricing_plan_id":"free"},{"bike_id":"182da038-7c50-42cc-a70d-62f1e42dcab1","system_id":"levelo_inurba_marseille","lat":43.294314,"lon":5.397498,"is_reserved":false,"is_disabled":false,"rental_uris":{"android":"levelo://app?vid=182da038-7c50-42cc-a70d-62f1e42dcab1","ios":"levelo://app?vid=182da038-7c50-42cc-a70d-62f1e42dcab1"},"vehicle_type_id":"4","last_reported":1687712788,"current_range_meters":1600,"station_id":"ce4bh3h2rcd13ifvqdo0","pricing_plan_id":"free"},{"bike_id":"14bd871e-bbaf-49d8-9f21-f68857a9ef34","system_id":"levelo_inurba_marseille","lat":43.29571,"lon":5.39958,"is_reserved":false,"is_disabled":false,"rental_uris":{"android":"levelo://app?vid=14bd871e-bbaf-49d8-9f21-f68857a9ef34","ios":"levelo://app?vid=14bd871e-bbaf-49d8-9f21-f68857a9ef34"},"vehicle_type_id":"4","last_reported":1687712788,"current_range_meters":26000,"station_id":"ce4bh312rcd13ifvqdj0","pricing_plan_id":"free"},{"bike_id":"4f20eb9d-48ff-469a-bb47-55a7088ec6ae","system_id":"levelo_inurba_marseille","lat":43.28774,"lon":5.39038,"is_reserved":false,"is_disabled":false,"rental_uris":{"android":"levelo://app?vid=4f20eb9d-48ff-469a-bb47-55a7088ec6ae","ios":"levelo://app?vid=4f20eb9d-48ff-469a-bb47-55a7088ec6ae"},"vehicle_type_id":"4","last_reported":1687712788,"current_range_meters":13600,"station_id":"","pricing_plan_id":"free"},{"bike_id":"1dbfac4a-5e90-45d5-87e9-f9009d3e353b","system_id":"levelo_inurba_marseille","lat":43.323464,"lon":5.406297,"is_reserved":false,"is_disabled":false,"rental_uris":{"android":"levelo://app?vid=1dbfac4a-5e90-45d5-87e9-f9009d3e353b","ios":"levelo://app?vid=1dbfac4a-5e90-45d5-87e9-f9009d3e353b"},"vehicle_type_id":"4","last_reported":1687712788,"current_range_meters":3200,"station_id":"ce4bhq92rcd13ifvqhjg","pricing_plan_id":"free"},{"bike_id":"7c0bbcf9-4499-4a1e-be6b-effe1f6db7d4","system_id":"levelo_inurba_marseille","lat":43.323464,"lon":5.406297,"is_reserved":false,"is_disabled":false,"rental_uris":{"android":"levelo://app?vid=7c0bbcf9-4499-4a1e-be6b-effe1f6db7d4","ios":"levelo://app?vid=7c0bbcf9-4499-4a1e-be6b-effe1f6db7d4"},"vehicle_type_id":"4","last_reported":1687712788,"current_range_meters":31200,"station_id":"ce4bhq92rcd13ifvqhjg","pricing_plan_id":"free"},{"bike_id":"91598c68-fc7c-4ad6-ae66-9eecaa56e129","system_id":"levelo_inurba_marseille","lat":43.284793,"lon":5.384113,"is_reserved":false,"is_disabled":false,"rental_uris":{"android":"levelo://app?vid=91598c68-fc7c-4ad6-ae66-9eecaa56e129","ios":"levelo://app?vid=91598c68-fc7c-4ad6-ae66-9eecaa56e129"},"vehicle_type_id":"4","last_reported":1687712788,"current_range_meters":1200,"station_id":"ce4bh512rcd13ifvqe3g","pricing_plan_id":"free"},{"bike_id":"b4c950db-352f-4a1a-8e3c-c05101a6dad0","system_id":"levelo_inurba_marseille","lat":43.288501,"lon":5.393087,"is_reserved":false,"is_disabled":false,"rental_uris":{"android":"levelo://app?vid=b4c950db-352f-4a1a-8e3c-c05101a6dad0","ios":"levelo://app?vid=b4c950db-352f-4a1a-8e3c-c05101a6dad0"},"vehicle_type_id":"4","last_reported":1687712788,"current_range_meters":31200,"station_id":"ce4bh2p2rcd13ifvqdi0","pricing_plan_id":"free"},{"bike_id":"4ab2bdc1-0311-49b5-be07-9094b5d12e65","system_id":"levelo_inurba_marseille","lat":43.283498,"lon":5.380948,"is_reserved":false,"is_disabled":false,"rental_uris":{"android":"levelo://app?vid=4ab2bdc1-0311-49b5-be07-9094b5d12e65","ios":"levelo://app?vid=4ab2bdc1-0311-49b5-be07-9094b5d12e65"},"vehicle_type_id":"4","last_reported":1687712788,"current_range_meters":400,"station_id":"ce4bh412rcd13ifvqdr0","pricing_plan_id":"free"},{"bike_id":"9ea3a988-0fe1-4d1b-bf0b-6407bd9e0811","system_id":"levelo_inurba_marseille","lat":43.280382,"lon":5.369291,"is_reserved":false,"is_disabled":false,"rental_uris":{"android":"levelo://app?vid=9ea3a988-0fe1-4d1b-bf0b-6407bd9e0811","ios":"levelo://app?vid=9ea3a988-0fe1-4d1b-bf0b-6407bd9e0811"},"vehicle_type_id":"4","last_reported":1687712788,"current_range_meters":4000,"station_id":"ce4bha12rcd13ifvqef0","pricing_plan_id":"free"},{"bike_id":"4d783331-66fb-4232-b59e-4d9c2c2b576a","system_id":"levelo_inurba_marseille","lat":43.280382,"lon":5.369291,"is_reserved":false,"is_disabled":false,"rental_uris":{"android":"levelo://app?vid=4d783331-66fb-4232-b59e-4d9c2c2b576a","ios":"levelo://app?vid=4d783331-66fb-4232-b59e-4d9c2c2b576a"},"vehicle_type_id":"4","last_reported":1687712788,"current_range_meters":4800,"station_id":"ce4bha12rcd13ifvqef0","pricing_plan_id":"free"},{"bike_id":"d6b2a813-09e4-435b-b0bd-7157cdbf9b4d","system_id":"levelo_inurba_marseille","lat":43.28039,"lon":5.369297,"is_reserved":false,"is_disabled":false,"rental_uris":{"android":"levelo://app?vid=d6b2a813-09e4-435b-b0bd-7157cdbf9b4d","ios":"levelo://app?vid=d6b2a813-09e4-435b-b0bd-7157cdbf9b4d"},"vehicle_type_id":"4","last_reported":1687712788,"current_range_meters":8000,"station_id":"ce4bha12rcd13ifvqef0","pricing_plan_id":"free"},{"bike_id":"f1713aef-8d61-4aea-b98e-501278045226","system_id":"levelo_inurba_marseille","lat":43.280382,"lon":5.369291,"is_reserved":false,"is_disabled":false,"rental_uris":{"android":"levelo://app?vid=f1713aef-8d61-4aea-b98e-501278045226","ios":"levelo://app?vid=f1713aef-8d61-4aea-b98e-501278045226"},"vehicle_type_id":"4","last_reported":1687712788,"current_range_meters":6800,"station_id":"ce4bha12rcd13ifvqef0","pricing_plan_id":"free"},{"bike_id":"4a98cd46-f1a7-438a-b818-41dc03fa5e30","system_id":"levelo_inurba_marseille","lat":43.281044,"lon":5.378308,"is_reserved":false,"is_disabled":false,"rental_uris":{"android":"levelo://app?vid=4a98cd46-f1a7-438a-b818-41dc03fa5e30","ios":"levelo://app?vid=4a98cd46-f1a7-438a-b818-41dc03fa5e30"},"vehicle_type_id":"4","last_reported":1687712788,"current_range_meters":0,"station_id":"ce4bha12rcd13ifvqee0","pricing_plan_id":"free"},{"bike_id":"e271dda8-d83e-471c-b746-44fb4adcf825","system_id":"levelo_inurba_marseille","lat":43.284462,"lon":5.392121,"is_reserved":false,"is_disabled":false,"rental_uris":{"android":"levelo://app?vid=e271dda8-d83e-471c-b746-44fb4adcf825","ios":"levelo://app?vid=e271dda8-d83e-471c-b746-44fb4adcf825"},"vehicle_type_id":"4","last_reported":1687712788,"current_range_meters":14800,"station_id":"ce4bhoh2rcd13ifvqh5g","pricing_plan_id":"free"},{"bike_id":"ebeb8ff5-e51c-4b18-b07a-c62304e88b17","system_id":"levelo_inurba_marseille","lat":43.326605,"lon":5.409903,"is_reserved":false,"is_disabled":false,"rental_uris":{"android":"levelo://app?vid=ebeb8ff5-e51c-4b18-b07a-c62304e88b17","ios":"levelo://app?vid=ebeb8ff5-e51c-4b18-b07a-c62304e88b17"},"vehicle_type_id":"4","last_reported":1687712788,"current_range_meters":31200,"station_id":"ce4bhpp2rcd13ifvqhgg","pricing_plan_id":"free"},{"bike_id":"ff60adae-f71a-4e2f-9c03-c28e9ecc3c45","system_id":"levelo_inurba_marseille","lat":43.326605,"lon":5.409903,"is_reserved":false,"is_disabled":false,"rental_uris":{"android":"levelo://app?vid=ff60adae-f71a-4e2f-9c03-c28e9ecc3c45","ios":"levelo://app?vid=ff60adae-f71a-4e2f-9c03-c28e9ecc3c45"},"vehicle_type_id":"4","last_reported":1687712788,"current_range_meters":31200,"station_id":"ce4bhpp2rcd13ifvqhgg","pricing_plan_id":"free"},{"bike_id":"7f4e5f33-3d6b-4470-b773-9bb881f7fc86","system_id":"levelo_inurba_marseille","lat":43.326576,"lon":5.409933,"is_reserved":false,"is_disabled":false,"rental_uris":{"android":"levelo://app?vid=7f4e5f33-3d6b-4470-b773-9bb881f7fc86","ios":"levelo://app?vid=7f4e5f33-3d6b-4470-b773-9bb881f7fc86"},"vehicle_type_id":"4","last_reported":1687712788,"current_range_meters":0,"station_id":"ce4bhpp2rcd13ifvqhgg","pricing_plan_id":"free"},{"bike_id":"738c286a-a6ad-4c29-93a7-9c37b39eb575","system_id":"levelo_inurba_marseille","lat":43.279087,"lon":5.380114,"is_reserved":false,"is_disabled":false,"rental_uris":{"android":"levelo://app?vid=738c286a-a6ad-4c29-93a7-9c37b39eb575","ios":"levelo://app?vid=738c286a-a6ad-4c29-93a7-9c37b39eb575"},"vehicle_type_id":"4","last_reported":1687712788,"current_range_meters":0,"station_id":"ce4bhf92rcd13ifvqf50","pricing_plan_id":"free"},{"bike_id":"50fd953c-9754-45f4-aec7-ae52bb9eb6fe","system_id":"levelo_inurba_marseille","lat":43.287154,"lon":5.399979,"is_reserved":false,"is_disabled":false,"rental_uris":{"android":"levelo://app?vid=50fd953c-9754-45f4-aec7-ae52bb9eb6fe","ios":"levelo://app?vid=50fd953c-9754-45f4-aec7-ae52bb9eb6fe"},"vehicle_type_id":"4","last_reported":1687712788,"current_range_meters":31200,"station_id":"ce4bho92rcd13ifvqh3g","pricing_plan_id":"free"},{"bike_id":"d2260bbc-39a1-4ce8-ba20-29567252b501","system_id":"levelo_inurba_marseille","lat":43.320045,"lon":5.415046,"is_reserved":false,"is_disabled":false,"rental_uris":{"android":"levelo://app?vid=d2260bbc-39a1-4ce8-ba20-29567252b501","ios":"levelo://app?vid=d2260bbc-39a1-4ce8-ba20-29567252b501"},"vehicle_type_id":"4","last_reported":1687712788,"current_range_meters":11200,"station_id":"ce4bhq92rcd13ifvqhkg","pricing_plan_id":"free"},{"bike_id":"48245bb1-0ea7-45de-95d6-44e7340920cb","system_id":"levelo_inurba_marseille","lat":43.32043,"lon":5.41548,"is_reserved":false,"is_disabled":false,"rental_uris":{"android":"levelo://app?vid=48245bb1-0ea7-45de-95d6-44e7340920cb","ios":"levelo://app?vid=48245bb1-0ea7-45de-95d6-44e7340920cb"},"vehicle_type_id":"4","last_reported":1687712788,"current_range_meters":4800,"station_id":"ce4bhq92rcd13ifvqhkg","pricing_plan_id":"free"},{"bike_id":"563e6c8f-fa7f-4c57-89b4-583283b60715","system_id":"levelo_inurba_marseille","lat":43.292569,"lon":5.409107,"is_reserved":false,"is_disabled":false,"rental_uris":{"android":"levelo://app?vid=563e6c8f-fa7f-4c57-89b4-583283b60715","ios":"levelo://app?vid=563e6c8f-fa7f-4c57-89b4-583283b60715"},"vehicle_type_id":"4","last_reported":1687712788,"current_range_meters":2000,"station_id":"ce4bh192rcd13ifvqdc0","pricing_plan_id":"free"},{"bike_id":"b1f03eec-a9a8-40e9-bc03-e9e2cb1a06f6","system_id":"levelo_inurba_marseille","lat":43.292569,"lon":5.409107,"is_reserved":false,"is_disabled":false,"rental_uris":{"android":"levelo://app?vid=b1f03eec-a9a8-40e9-bc03-e9e2cb1a06f6","ios":"levelo://app?vid=b1f03eec-a9a8-40e9-bc03-e9e2cb1a06f6"},"vehicle_type_id":"4","last_reported":1687712788,"current_range_meters":0,"station_id":"ce4bh192rcd13ifvqdc0","pricing_plan_id":"free"},{"bike_id":"6b081579-5bc6-4147-a52b-60a25fbaf4d1","system_id":"levelo_inurba_marseille","lat":43.325233,"lon":5.414318,"is_reserved":false,"is_disabled":false,"rental_uris":{"android":"levelo://app?vid=6b081579-5bc6-4147-a52b-60a25fbaf4d1","ios":"levelo://app?vid=6b081579-5bc6-4147-a52b-60a25fbaf4d1"},"vehicle_type_id":"4","last_reported":1687712788,"current_range_meters":30000,"station_id":"ce4bhq12rcd13ifvqhhg","pricing_plan_id":"free"},{"bike_id":"adf0ea61-0d73-49a9-81f8-7ebe6388818f","system_id":"levelo_inurba_marseille","lat":43.325243,"lon":5.414326,"is_reserved":false,"is_disabled":false,"rental_uris":{"android":"levelo://app?vid=adf0ea61-0d73-49a9-81f8-7ebe6388818f","ios":"levelo://app?vid=adf0ea61-0d73-49a9-81f8-7ebe6388818f"},"vehicle_type_id":"4","last_reported":1687712788,"current_range_meters":20800,"station_id":"ce4bhq12rcd13ifvqhhg","pricing_plan_id":"free"},{"bike_id":"87363577-7651-4594-be4c-4fed30c20abd","system_id":"levelo_inurba_marseille","lat":43.27703,"lon":5.38283,"is_reserved":false,"is_disabled":false,"rental_uris":{"android":"levelo://app?vid=87363577-7651-4594-be4c-4fed30c20abd","ios":"levelo://app?vid=87363577-7651-4594-be4c-4fed30c20abd"},"vehicle_type_id":"4","last_reported":1687712788,"current_range_meters":11600,"station_id":"","pricing_plan_id":"free"},{"bike_id":"78fe2fbb-6a1e-49d0-b4fa-cf9910acecd8","system_id":"levelo_inurba_marseille","lat":43.280784,"lon":5.396622,"is_reserved":false,"is_disabled":false,"rental_uris":{"android":"levelo://app?vid=78fe2fbb-6a1e-49d0-b4fa-cf9910acecd8","ios":"levelo://app?vid=78fe2fbb-6a1e-49d0-b4fa-cf9910acecd8"},"vehicle_type_id":"4","last_reported":1687712788,"current_range_meters":27200,"station_id":"ce4bho12rcd13ifvqh2g","pricing_plan_id":"free"},{"bike_id":"6c1bb1d3-5448-4aba-9033-490a6c3a7324","system_id":"levelo_inurba_marseille","lat":43.278399,"lon":5.392139,"is_reserved":false,"is_disabled":false,"rental_uris":{"android":"levelo://app?vid=6c1bb1d3-5448-4aba-9033-490a6c3a7324","ios":"levelo://app?vid=6c1bb1d3-5448-4aba-9033-490a6c3a7324"},"vehicle_type_id":"4","last_reported":1687712788,"current_range_meters":3600,"station_id":"ce4bhjp2rcd13ifvqga0","pricing_plan_id":"free"},{"bike_id":"b33fb91c-dddc-4506-899f-2c7634114a26","system_id":"levelo_inurba_marseille","lat":43.278401,"lon":5.392152,"is_reserved":false,"is_disabled":false,"rental_uris":{"android":"levelo://app?vid=b33fb91c-dddc-4506-899f-2c7634114a26","ios":"levelo://app?vid=b33fb91c-dddc-4506-899f-2c7634114a26"},"vehicle_type_id":"4","last_reported":1687712788,"current_range_meters":11200,"station_id":"ce4bhjp2rcd13ifvqga0","pricing_plan_id":"free"},{"bike_id":"9c678b3e-014f-4f24-a1e5-9be4c4a1433f","system_id":"levelo_inurba_marseille","lat":43.278399,"lon":5.392139,"is_reserved":false,"is_disabled":false,"rental_uris":{"android":"levelo://app?vid=9c678b3e-014f-4f24-a1e5-9be4c4a1433f","ios":"levelo://app?vid=9c678b3e-014f-4f24-a1e5-9be4c4a1433f"},"vehicle_type_id":"4","last_reported":1687712788,"current_range_meters":30400,"station_id":"ce4bhjp2rcd13ifvqga0","pricing_plan_id":"free"},{"bike_id":"b8684037-40f9-4f5f-a9f1-1bbdbaa82eb7","system_id":"levelo_inurba_marseille","lat":43.275625,"lon":5.384392,"is_reserved":false,"is_disabled":false,"rental_uris":{"android":"levelo://app?vid=b8684037-40f9-4f5f-a9f1-1bbdbaa82eb7","ios":"levelo://app?vid=b8684037-40f9-4f5f-a9f1-1bbdbaa82eb7"},"vehicle_type_id":"4","last_reported":1687712788,"current_range_meters":10400,"station_id":"ce4bhh92rcd13ifvqfi0","pricing_plan_id":"free"},{"bike_id":"0a8078dd-eb7b-4093-b15c-4775d4b68783","system_id":"levelo_inurba_marseille","lat":43.2738,"lon":5.36252,"is_reserved":false,"is_disabled":false,"rental_uris":{"android":"levelo://app?vid=0a8078dd-eb7b-4093-b15c-4775d4b68783","ios":"levelo://app?vid=0a8078dd-eb7b-4093-b15c-4775d4b68783"},"vehicle_type_id":"4","last_reported":1687712788,"current_range_meters":10000,"station_id":"ce4bhbh2rcd13ifvqeo0","pricing_plan_id":"free"},{"bike_id":"49574ab8-274a-45c6-ba41-960f6c0bf1b7","system_id":"levelo_inurba_marseille","lat":43.273609,"lon":5.362708,"is_reserved":false,"is_disabled":false,"rental_uris":{"android":"levelo://app?vid=49574ab8-274a-45c6-ba41-960f6c0bf1b7","ios":"levelo://app?vid=49574ab8-274a-45c6-ba41-960f6c0bf1b7"},"vehicle_type_id":"4","last_reported":1687712788,"current_range_meters":12800,"station_id":"ce4bhbh2rcd13ifvqeo0","pricing_plan_id":"free"},{"bike_id":"01208fbe-9431-4ed6-ac1f-e90329c35bdb","system_id":"levelo_inurba_marseille","lat":43.26955,"lon":5.36633,"is_reserved":false,"is_disabled":false,"rental_uris":{"android":"levelo://app?vid=01208fbe-9431-4ed6-ac1f-e90329c35bdb","ios":"levelo://app?vid=01208fbe-9431-4ed6-ac1f-e90329c35bdb"},"vehicle_type_id":"4","last_reported":1687712788,"current_range_meters":0,"station_id":"","pricing_plan_id":"free"},{"bike_id":"51650c7c-2044-449a-bf0e-a7d1fbb0c73c","system_id":"levelo_inurba_marseille","lat":43.27311,"lon":5.39079,"is_reserved":false,"is_disabled":false,"rental_uris":{"android":"levelo://app?vid=51650c7c-2044-449a-bf0e-a7d1fbb0c73c","ios":"levelo://app?vid=51650c7c-2044-449a-bf0e-a7d1fbb0c73c"},"vehicle_type_id":"4","last_reported":1687712788,"current_range_meters":6000,"station_id":"ce4bhgp2rcd13ifvqfe0","pricing_plan_id":"free"},{"bike_id":"28cf8a12-f787-4419-8cba-956be39ba6c8","system_id":"levelo_inurba_marseille","lat":43.30411,"lon":5.42553,"is_reserved":false,"is_disabled":false,"rental_uris":{"android":"levelo://app?vid=28cf8a12-f787-4419-8cba-956be39ba6c8","ios":"levelo://app?vid=28cf8a12-f787-4419-8cba-956be39ba6c8"},"vehicle_type_id":"4","last_reported":1687712788,"current_range_meters":20800,"station_id":"ce4bhoh2rcd13ifvqh6g","pricing_plan_id":"free"},{"bike_id":"1a09c916-1b0f-41e6-9b52-d985b6ea7439","system_id":"levelo_inurba_marseille","lat":43.295511,"lon":5.422926,"is_reserved":false,"is_disabled":false,"rental_uris":{"android":"levelo://app?vid=1a09c916-1b0f-41e6-9b52-d985b6ea7439","ios":"levelo://app?vid=1a09c916-1b0f-41e6-9b52-d985b6ea7439"},"vehicle_type_id":"4","last_reported":1687712788,"current_range_meters":31200,"station_id":"ce4bhph2rcd13ifvqhdg","pricing_plan_id":"free"},{"bike_id":"a69711c5-32bf-427b-ba09-b2e93cc938ae","system_id":"levelo_inurba_marseille","lat":43.27215,"lon":5.39178,"is_reserved":false,"is_disabled":false,"rental_uris":{"android":"levelo://app?vid=a69711c5-32bf-427b-ba09-b2e93cc938ae","ios":"levelo://app?vid=a69711c5-32bf-427b-ba09-b2e93cc938ae"},"vehicle_type_id":"4","last_reported":1687712788,"current_range_meters":24800,"station_id":"ce4bhhp2rcd13ifvqfm0","pricing_plan_id":"free"},{"bike_id":"31663fd8-c81c-44ed-b427-b7a76a957693","system_id":"levelo_inurba_marseille","lat":43.272116,"lon":5.391763,"is_reserved":false,"is_disabled":false,"rental_uris":{"android":"levelo://app?vid=31663fd8-c81c-44ed-b427-b7a76a957693","ios":"levelo://app?vid=31663fd8-c81c-44ed-b427-b7a76a957693"},"vehicle_type_id":"4","last_reported":1687712788,"current_range_meters":12400,"station_id":"ce4bhhp2rcd13ifvqfm0","pricing_plan_id":"free"},{"bike_id":"4fa21102-9c5c-4785-8da0-3d7f957b0c31","system_id":"levelo_inurba_marseille","lat":43.272118,"lon":5.391758,"is_reserved":false,"is_disabled":false,"rental_uris":{"android":"levelo://app?vid=4fa21102-9c5c-4785-8da0-3d7f957b0c31","ios":"levelo://app?vid=4fa21102-9c5c-4785-8da0-3d7f957b0c31"},"vehicle_type_id":"4","last_reported":1687712788,"current_range_meters":28000,"station_id":"ce4bhhp2rcd13ifvqfm0","pricing_plan_id":"free"},{"bike_id":"8a8c969b-2e3a-4eba-8e9a-d7a4678d6147","system_id":"levelo_inurba_marseille","lat":43.278128,"lon":5.407195,"is_reserved":false,"is_disabled":false,"rental_uris":{"android":"levelo://app?vid=8a8c969b-2e3a-4eba-8e9a-d7a4678d6147","ios":"levelo://app?vid=8a8c969b-2e3a-4eba-8e9a-d7a4678d6147"},"vehicle_type_id":"4","last_reported":1687712788,"current_range_meters":21200,"station_id":"ce4bhnh2rcd13ifvqgtg","pricing_plan_id":"free"},{"bike_id":"ae48766c-6c0d-4da9-9196-f1c972db2e46","system_id":"levelo_inurba_marseille","lat":43.278128,"lon":5.407195,"is_reserved":false,"is_disabled":false,"rental_uris":{"android":"levelo://app?vid=ae48766c-6c0d-4da9-9196-f1c972db2e46","ios":"levelo://app?vid=ae48766c-6c0d-4da9-9196-f1c972db2e46"},"vehicle_type_id":"4","last_reported":1687712788,"current_range_meters":26800,"station_id":"ce4bhnh2rcd13ifvqgtg","pricing_plan_id":"free"},{"bike_id":"c54b9bca-7dcc-411d-9ee3-bd6142cc4b73","system_id":"levelo_inurba_marseille","lat":43.278128,"lon":5.407195,"is_reserved":false,"is_disabled":false,"rental_uris":{"android":"levelo://app?vid=c54b9bca-7dcc-411d-9ee3-bd6142cc4b73","ios":"levelo://app?vid=c54b9bca-7dcc-411d-9ee3-bd6142cc4b73"},"vehicle_type_id":"4","last_reported":1687712788,"current_range_meters":16800,"station_id":"ce4bhnh2rcd13ifvqgtg","pricing_plan_id":"free"},{"bike_id":"020bcc1b-560f-4b3e-8521-bdd179ddff1b","system_id":"levelo_inurba_marseille","lat":43.269319,"lon":5.389397,"is_reserved":false,"is_disabled":false,"rental_uris":{"android":"levelo://app?vid=020bcc1b-560f-4b3e-8521-bdd179ddff1b","ios":"levelo://app?vid=020bcc1b-560f-4b3e-8521-bdd179ddff1b"},"vehicle_type_id":"4","last_reported":1687712788,"current_range_meters":15600,"station_id":"ce4bhhh2rcd13ifvqfl0","pricing_plan_id":"free"},{"bike_id":"3344b3fb-bb37-4d4b-8736-6bb9a1b600a4","system_id":"levelo_inurba_marseille","lat":43.27992,"lon":5.41649,"is_reserved":false,"is_disabled":false,"rental_uris":{"android":"levelo://app?vid=3344b3fb-bb37-4d4b-8736-6bb9a1b600a4","ios":"levelo://app?vid=3344b3fb-bb37-4d4b-8736-6bb9a1b600a4"},"vehicle_type_id":"4","last_reported":1687712788,"current_range_meters":26000,"station_id":"ce4bho12rcd13ifvqh1g","pricing_plan_id":"free"},{"bike_id":"d4f264e3-ecf8-4f1c-bc2e-778acd680520","system_id":"levelo_inurba_marseille","lat":43.30799,"lon":5.43519,"is_reserved":false,"is_disabled":false,"rental_uris":{"android":"levelo://app?vid=d4f264e3-ecf8-4f1c-bc2e-778acd680520","ios":"levelo://app?vid=d4f264e3-ecf8-4f1c-bc2e-778acd680520"},"vehicle_type_id":"4","last_reported":1687712788,"current_range_meters":11600,"station_id":"ce4bhph2rcd13ifvqheg","pricing_plan_id":"free"},{"bike_id":"46e67c8b-b6c3-4c76-8fb1-57c130e6fc17","system_id":"levelo_inurba_marseille","lat":43.308051,"lon":5.43527,"is_reserved":false,"is_disabled":false,"rental_uris":{"android":"levelo://app?vid=46e67c8b-b6c3-4c76-8fb1-57c130e6fc17","ios":"levelo://app?vid=46e67c8b-b6c3-4c76-8fb1-57c130e6fc17"},"vehicle_type_id":"4","last_reported":1687712788,"current_range_meters":17600,"station_id":"ce4bhph2rcd13ifvqheg","pricing_plan_id":"free"},{"bike_id":"edc3ebe4-9a7c-43b9-bd79-3b964ef5926b","system_id":"levelo_inurba_marseille","lat":43.30795,"lon":5.43524,"is_reserved":false,"is_disabled":false,"rental_uris":{"android":"levelo://app?vid=edc3ebe4-9a7c-43b9-bd79-3b964ef5926b","ios":"levelo://app?vid=edc3ebe4-9a7c-43b9-bd79-3b964ef5926b"},"vehicle_type_id":"4","last_reported":1687712788,"current_range_meters":27200,"station_id":"ce4bhph2rcd13ifvqheg","pricing_plan_id":"free"},{"bike_id":"4d209566-1427-47ac-9d19-9043b349909c","system_id":"levelo_inurba_marseille","lat":43.30801,"lon":5.43528,"is_reserved":false,"is_disabled":false,"rental_uris":{"android":"levelo://app?vid=4d209566-1427-47ac-9d19-9043b349909c","ios":"levelo://app?vid=4d209566-1427-47ac-9d19-9043b349909c"},"vehicle_type_id":"4","last_reported":1687712788,"current_range_meters":20800,"station_id":"ce4bhph2rcd13ifvqheg","pricing_plan_id":"free"},{"bike_id":"d2e70966-95eb-489f-8366-135354866108","system_id":"levelo_inurba_marseille","lat":43.30801,"lon":5.43534,"is_reserved":false,"is_disabled":false,"rental_uris":{"android":"levelo://app?vid=d2e70966-95eb-489f-8366-135354866108","ios":"levelo://app?vid=d2e70966-95eb-489f-8366-135354866108"},"vehicle_type_id":"4","last_reported":1687712788,"current_range_meters":16800,"station_id":"ce4bhph2rcd13ifvqheg","pricing_plan_id":"free"},{"bike_id":"036d5499-da71-4a68-bb8e-04a84554f6b9","system_id":"levelo_inurba_marseille","lat":43.271388,"lon":5.409269,"is_reserved":false,"is_disabled":false,"rental_uris":{"android":"levelo://app?vid=036d5499-da71-4a68-bb8e-04a84554f6b9","ios":"levelo://app?vid=036d5499-da71-4a68-bb8e-04a84554f6b9"},"vehicle_type_id":"4","last_reported":1687712788,"current_range_meters":7600,"station_id":"ce4bhl12rcd13ifvqgf0","pricing_plan_id":"free"},{"bike_id":"46b308b0-b627-49c4-86a4-e1ee3d352228","system_id":"levelo_inurba_marseille","lat":43.267959,"lon":5.402685,"is_reserved":false,"is_disabled":false,"rental_uris":{"android":"levelo://app?vid=46b308b0-b627-49c4-86a4-e1ee3d352228","ios":"levelo://app?vid=46b308b0-b627-49c4-86a4-e1ee3d352228"},"vehicle_type_id":"4","last_reported":1687712788,"current_range_meters":9200,"station_id":"ce501612rcd8frsf0b60","pricing_plan_id":"free"},{"bike_id":"2397ed9f-2cbd-41d9-9c4e-5d7540b6365d","system_id":"levelo_inurba_marseille","lat":43.26106,"lon":5.37292,"is_reserved":false,"is_disabled":false,"rental_uris":{"android":"levelo://app?vid=2397ed9f-2cbd-41d9-9c4e-5d7540b6365d","ios":"levelo://app?vid=2397ed9f-2cbd-41d9-9c4e-5d7540b6365d"},"vehicle_type_id":"4","last_reported":1687712788,"current_range_meters":22400,"station_id":"","pricing_plan_id":"free"},{"bike_id":"055a308f-85c6-45cf-b61e-a1cb9037d321","system_id":"levelo_inurba_marseille","lat":43.26039,"lon":5.37421,"is_reserved":false,"is_disabled":false,"rental_uris":{"android":"levelo://app?vid=055a308f-85c6-45cf-b61e-a1cb9037d321","ios":"levelo://app?vid=055a308f-85c6-45cf-b61e-a1cb9037d321"},"vehicle_type_id":"4","last_reported":1687712788,"current_range_meters":800,"station_id":"","pricing_plan_id":"free"},{"bike_id":"6078cd24-5711-409a-8ffa-29bd26ad9c29","system_id":"levelo_inurba_marseille","lat":43.298768,"lon":5.43643,"is_reserved":false,"is_disabled":false,"rental_uris":{"android":"levelo://app?vid=6078cd24-5711-409a-8ffa-29bd26ad9c29","ios":"levelo://app?vid=6078cd24-5711-409a-8ffa-29bd26ad9c29"},"vehicle_type_id":"4","last_reported":1687712788,"current_range_meters":30000,"station_id":"ce4bhpp2rcd13ifvqhfg","pricing_plan_id":"free"},{"bike_id":"abe207a3-4e0e-434c-afba-c5a243bfe3d5","system_id":"levelo_inurba_marseille","lat":43.27498,"lon":5.42452,"is_reserved":false,"is_disabled":false,"rental_uris":{"android":"levelo://app?vid=abe207a3-4e0e-434c-afba-c5a243bfe3d5","ios":"levelo://app?vid=abe207a3-4e0e-434c-afba-c5a243bfe3d5"},"vehicle_type_id":"4","last_reported":1687712788,"current_range_meters":31200,"station_id":"ce4bhn92rcd13ifvqgrg","pricing_plan_id":"free"},{"bike_id":"bff03d5d-ed33-491b-bcd6-53aabff4767d","system_id":"levelo_inurba_marseille","lat":43.27496,"lon":5.42455,"is_reserved":false,"is_disabled":false,"rental_uris":{"android":"levelo://app?vid=bff03d5d-ed33-491b-bcd6-53aabff4767d","ios":"levelo://app?vid=bff03d5d-ed33-491b-bcd6-53aabff4767d"},"vehicle_type_id":"4","last_reported":1687712788,"current_range_meters":28800,"station_id":"ce4bhn92rcd13ifvqgrg","pricing_plan_id":"free"},{"bike_id":"5ed48503-2b52-46de-a729-48b3f094656b","system_id":"levelo_inurba_marseille","lat":43.27493,"lon":5.42452,"is_reserved":false,"is_disabled":false,"rental_uris":{"android":"levelo://app?vid=5ed48503-2b52-46de-a729-48b3f094656b","ios":"levelo://app?vid=5ed48503-2b52-46de-a729-48b3f094656b"},"vehicle_type_id":"4","last_reported":1687712788,"current_range_meters":26800,"station_id":"ce4bhn92rcd13ifvqgrg","pricing_plan_id":"free"},{"bike_id":"90c910d3-59b0-47a4-af54-68c084e3189d","system_id":"levelo_inurba_marseille","lat":43.27495,"lon":5.42455,"is_reserved":false,"is_disabled":false,"rental_uris":{"android":"levelo://app?vid=90c910d3-59b0-47a4-af54-68c084e3189d","ios":"levelo://app?vid=90c910d3-59b0-47a4-af54-68c084e3189d"},"vehicle_type_id":"4","last_reported":1687712788,"current_range_meters":31200,"station_id":"ce4bhn92rcd13ifvqgrg","pricing_plan_id":"free"},{"bike_id":"999188d4-a084-4dd7-9850-db304fb7a2a3","system_id":"levelo_inurba_marseille","lat":43.27492,"lon":5.42452,"is_reserved":false,"is_disabled":false,"rental_uris":{"android":"levelo://app?vid=999188d4-a084-4dd7-9850-db304fb7a2a3","ios":"levelo://app?vid=999188d4-a084-4dd7-9850-db304fb7a2a3"},"vehicle_type_id":"4","last_reported":1687712788,"current_range_meters":22800,"station_id":"ce4bhn92rcd13ifvqgrg","pricing_plan_id":"free"},{"bike_id":"635d6dea-9597-4fad-b488-27889a8b0ed8","system_id":"levelo_inurba_marseille","lat":43.27491,"lon":5.42456,"is_reserved":false,"is_disabled":false,"rental_uris":{"android":"levelo://app?vid=635d6dea-9597-4fad-b488-27889a8b0ed8","ios":"levelo://app?vid=635d6dea-9597-4fad-b488-27889a8b0ed8"},"vehicle_type_id":"4","last_reported":1687712788,"current_range_meters":20800,"station_id":"ce4bhn92rcd13ifvqgrg","pricing_plan_id":"free"},{"bike_id":"1f0605bb-09e4-4cd0-bc5d-aef39b79467d","system_id":"levelo_inurba_marseille","lat":43.27489,"lon":5.42454,"is_reserved":false,"is_disabled":false,"rental_uris":{"android":"levelo://app?vid=1f0605bb-09e4-4cd0-bc5d-aef39b79467d","ios":"levelo://app?vid=1f0605bb-09e4-4cd0-bc5d-aef39b79467d"},"vehicle_type_id":"4","last_reported":1687712788,"current_range_meters":10400,"station_id":"ce4bhn92rcd13ifvqgrg","pricing_plan_id":"free"},{"bike_id":"f0e36f38-b379-47bb-b642-6fcc01682ff1","system_id":"levelo_inurba_marseille","lat":43.27488,"lon":5.42454,"is_reserved":false,"is_disabled":false,"rental_uris":{"android":"levelo://app?vid=f0e36f38-b379-47bb-b642-6fcc01682ff1","ios":"levelo://app?vid=f0e36f38-b379-47bb-b642-6fcc01682ff1"},"vehicle_type_id":"4","last_reported":1687712788,"current_range_meters":10400,"station_id":"ce4bhn92rcd13ifvqgrg","pricing_plan_id":"free"},{"bike_id":"0d03610b-e8f5-40a4-bb6f-9e1c224d9bde","system_id":"levelo_inurba_marseille","lat":43.2749,"lon":5.42459,"is_reserved":false,"is_disabled":false,"rental_uris":{"android":"levelo://app?vid=0d03610b-e8f5-40a4-bb6f-9e1c224d9bde","ios":"levelo://app?vid=0d03610b-e8f5-40a4-bb6f-9e1c224d9bde"},"vehicle_type_id":"4","last_reported":1687712788,"current_range_meters":20800,"station_id":"ce4bhn92rcd13ifvqgrg","pricing_plan_id":"free"},{"bike_id":"e0daa8dd-e6f1-44dc-b8b6-24a3d1a1fc5b","system_id":"levelo_inurba_marseille","lat":43.27485,"lon":5.42458,"is_reserved":false,"is_disabled":false,"rental_uris":{"android":"levelo://app?vid=e0daa8dd-e6f1-44dc-b8b6-24a3d1a1fc5b","ios":"levelo://app?vid=e0daa8dd-e6f1-44dc-b8b6-24a3d1a1fc5b"},"vehicle_type_id":"4","last_reported":1687712788,"current_range_meters":20400,"station_id":"ce4bhn92rcd13ifvqgrg","pricing_plan_id":"free"},{"bike_id":"506216f7-e4d7-4d4e-81ab-65b2d25f11b9","system_id":"levelo_inurba_marseille","lat":43.2748,"lon":5.4246,"is_reserved":false,"is_disabled":false,"rental_uris":{"android":"levelo://app?vid=506216f7-e4d7-4d4e-81ab-65b2d25f11b9","ios":"levelo://app?vid=506216f7-e4d7-4d4e-81ab-65b2d25f11b9"},"vehicle_type_id":"4","last_reported":1687712788,"current_range_meters":28000,"station_id":"ce4bhn92rcd13ifvqgrg","pricing_plan_id":"free"},{"bike_id":"922913c2-8dd2-4529-aa42-52deb5156ddc","system_id":"levelo_inurba_marseille","lat":43.255756,"lon":5.382303,"is_reserved":false,"is_disabled":false,"rental_uris":{"android":"levelo://app?vid=922913c2-8dd2-4529-aa42-52deb5156ddc","ios":"levelo://app?vid=922913c2-8dd2-4529-aa42-52deb5156ddc"},"vehicle_type_id":"4","last_reported":1687712788,"current_range_meters":27200,"station_id":"ce4bhih2rcd13ifvqfs0","pricing_plan_id":"free"},{"bike_id":"705754fd-5fc7-40ed-9826-9df7f6ee90fe","system_id":"levelo_inurba_marseille","lat":43.255756,"lon":5.382303,"is_reserved":false,"is_disabled":false,"rental_uris":{"android":"levelo://app?vid=705754fd-5fc7-40ed-9826-9df7f6ee90fe","ios":"levelo://app?vid=705754fd-5fc7-40ed-9826-9df7f6ee90fe"},"vehicle_type_id":"4","last_reported":1687712788,"current_range_meters":19600,"station_id":"ce4bhih2rcd13ifvqfs0","pricing_plan_id":"free"},{"bike_id":"b8e63409-a1af-4219-94fc-f9f1ae0405ff","system_id":"levelo_inurba_marseille","lat":43.25585,"lon":5.38228,"is_reserved":false,"is_disabled":false,"rental_uris":{"android":"levelo://app?vid=b8e63409-a1af-4219-94fc-f9f1ae0405ff","ios":"levelo://app?vid=b8e63409-a1af-4219-94fc-f9f1ae0405ff"},"vehicle_type_id":"4","last_reported":1687712788,"current_range_meters":0,"station_id":"ce4bhih2rcd13ifvqfs0","pricing_plan_id":"free"},{"bike_id":"caba9023-8e45-4882-b348-8b2cad650534","system_id":"levelo_inurba_marseille","lat":43.25583,"lon":5.38228,"is_reserved":false,"is_disabled":false,"rental_uris":{"android":"levelo://app?vid=caba9023-8e45-4882-b348-8b2cad650534","ios":"levelo://app?vid=caba9023-8e45-4882-b348-8b2cad650534"},"vehicle_type_id":"4","last_reported":1687712788,"current_range_meters":10400,"station_id":"ce4bhih2rcd13ifvqfs0","pricing_plan_id":"free"},{"bike_id":"4ac64e14-92fe-407d-82e1-8fce3d640d01","system_id":"levelo_inurba_marseille","lat":43.255756,"lon":5.382303,"is_reserved":false,"is_disabled":false,"rental_uris":{"android":"levelo://app?vid=4ac64e14-92fe-407d-82e1-8fce3d640d01","ios":"levelo://app?vid=4ac64e14-92fe-407d-82e1-8fce3d640d01"},"vehicle_type_id":"4","last_reported":1687712788,"current_range_meters":8800,"station_id":"ce4bhih2rcd13ifvqfs0","pricing_plan_id":"free"},{"bike_id":"4ee2d357-d896-48ac-aeeb-e8deb5424fdc","system_id":"levelo_inurba_marseille","lat":43.255756,"lon":5.382303,"is_reserved":false,"is_disabled":false,"rental_uris":{"android":"levelo://app?vid=4ee2d357-d896-48ac-aeeb-e8deb5424fdc","ios":"levelo://app?vid=4ee2d357-d896-48ac-aeeb-e8deb5424fdc"},"vehicle_type_id":"4","last_reported":1687712788,"current_range_meters":0,"station_id":"ce4bhih2rcd13ifvqfs0","pricing_plan_id":"free"},{"bike_id":"4b64f6ba-228c-463c-8dfe-183cffc7825b","system_id":"levelo_inurba_marseille","lat":43.25577,"lon":5.38236,"is_reserved":false,"is_disabled":false,"rental_uris":{"android":"levelo://app?vid=4b64f6ba-228c-463c-8dfe-183cffc7825b","ios":"levelo://app?vid=4b64f6ba-228c-463c-8dfe-183cffc7825b"},"vehicle_type_id":"4","last_reported":1687712788,"current_range_meters":2400,"station_id":"ce4bhih2rcd13ifvqfs0","pricing_plan_id":"free"},{"bike_id":"dda39c82-4f70-45ab-8bab-84091b749727","system_id":"levelo_inurba_marseille","lat":43.25577,"lon":5.38236,"is_reserved":false,"is_disabled":false,"rental_uris":{"android":"levelo://app?vid=dda39c82-4f70-45ab-8bab-84091b749727","ios":"levelo://app?vid=dda39c82-4f70-45ab-8bab-84091b749727"},"vehicle_type_id":"4","last_reported":1687712788,"current_range_meters":800,"station_id":"ce4bhih2rcd13ifvqfs0","pricing_plan_id":"free"},{"bike_id":"9b37a561-db05-459a-8769-31671a5d0d01","system_id":"levelo_inurba_marseille","lat":43.25576,"lon":5.38233,"is_reserved":false,"is_disabled":false,"rental_uris":{"android":"levelo://app?vid=9b37a561-db05-459a-8769-31671a5d0d01","ios":"levelo://app?vid=9b37a561-db05-459a-8769-31671a5d0d01"},"vehicle_type_id":"4","last_reported":1687712788,"current_range_meters":18400,"station_id":"ce4bhih2rcd13ifvqfs0","pricing_plan_id":"free"},{"bike_id":"52ef4249-403c-4b13-94bd-0f9f38024ef1","system_id":"levelo_inurba_marseille","lat":43.254947,"lon":5.376454,"is_reserved":false,"is_disabled":false,"rental_uris":{"android":"levelo://app?vid=52ef4249-403c-4b13-94bd-0f9f38024ef1","ios":"levelo://app?vid=52ef4249-403c-4b13-94bd-0f9f38024ef1"},"vehicle_type_id":"4","last_reported":1687712788,"current_range_meters":2800,"station_id":"ce4bhh12rcd13ifvqff0","pricing_plan_id":"free"},{"bike_id":"6f625e7e-7672-4090-bcc0-5b87431ff7f6","system_id":"levelo_inurba_marseille","lat":43.254945,"lon":5.376454,"is_reserved":false,"is_disabled":false,"rental_uris":{"android":"levelo://app?vid=6f625e7e-7672-4090-bcc0-5b87431ff7f6","ios":"levelo://app?vid=6f625e7e-7672-4090-bcc0-5b87431ff7f6"},"vehicle_type_id":"4","last_reported":1687712788,"current_range_meters":20000,"station_id":"ce4bhh12rcd13ifvqff0","pricing_plan_id":"free"},{"bike_id":"6faa8c4d-0286-4671-b306-dc099fb55344","system_id":"levelo_inurba_marseille","lat":43.25495,"lon":5.3765,"is_reserved":false,"is_disabled":false,"rental_uris":{"android":"levelo://app?vid=6faa8c4d-0286-4671-b306-dc099fb55344","ios":"levelo://app?vid=6faa8c4d-0286-4671-b306-dc099fb55344"},"vehicle_type_id":"4","last_reported":1687712788,"current_range_meters":31200,"station_id":"ce4bhh12rcd13ifvqff0","pricing_plan_id":"free"},{"bike_id":"8c931a53-e83f-4031-a8e4-20da80bbce97","system_id":"levelo_inurba_marseille","lat":43.25494,"lon":5.37646,"is_reserved":false,"is_disabled":false,"rental_uris":{"android":"levelo://app?vid=8c931a53-e83f-4031-a8e4-20da80bbce97","ios":"levelo://app?vid=8c931a53-e83f-4031-a8e4-20da80bbce97"},"vehicle_type_id":"4","last_reported":1687712788,"current_range_meters":25600,"station_id":"ce4bhh12rcd13ifvqff0","pricing_plan_id":"free"},{"bike_id":"dbe23cce-acdb-4419-a570-45f55598367f","system_id":"levelo_inurba_marseille","lat":43.25493,"lon":5.37647,"is_reserved":false,"is_disabled":false,"rental_uris":{"android":"levelo://app?vid=dbe23cce-acdb-4419-a570-45f55598367f","ios":"levelo://app?vid=dbe23cce-acdb-4419-a570-45f55598367f"},"vehicle_type_id":"4","last_reported":1687712788,"current_range_meters":15600,"station_id":"ce4bhh12rcd13ifvqff0","pricing_plan_id":"free"},{"bike_id":"a5827375-2342-438c-a458-b7f178f60a89","system_id":"levelo_inurba_marseille","lat":43.25493,"lon":5.3765,"is_reserved":false,"is_disabled":false,"rental_uris":{"android":"levelo://app?vid=a5827375-2342-438c-a458-b7f178f60a89","ios":"levelo://app?vid=a5827375-2342-438c-a458-b7f178f60a89"},"vehicle_type_id":"4","last_reported":1687712788,"current_range_meters":18000,"station_id":"ce4bhh12rcd13ifvqff0","pricing_plan_id":"free"},{"bike_id":"91e13011-41b9-4605-94e5-213efe7a9c44","system_id":"levelo_inurba_marseille","lat":43.25493,"lon":5.37658,"is_reserved":false,"is_disabled":false,"rental_uris":{"android":"levelo://app?vid=91e13011-41b9-4605-94e5-213efe7a9c44","ios":"levelo://app?vid=91e13011-41b9-4605-94e5-213efe7a9c44"},"vehicle_type_id":"4","last_reported":1687712788,"current_range_meters":19200,"station_id":"ce4bhh12rcd13ifvqff0","pricing_plan_id":"free"},{"bike_id":"18b8d15e-bd18-48c8-ac5c-2424d91373ac","system_id":"levelo_inurba_marseille","lat":43.25492,"lon":5.3765,"is_reserved":false,"is_disabled":false,"rental_uris":{"android":"levelo://app?vid=18b8d15e-bd18-48c8-ac5c-2424d91373ac","ios":"levelo://app?vid=18b8d15e-bd18-48c8-ac5c-2424d91373ac"},"vehicle_type_id":"4","last_reported":1687712788,"current_range_meters":31200,"station_id":"ce4bhh12rcd13ifvqff0","pricing_plan_id":"free"},{"bike_id":"0c7abc42-5652-4107-b2f0-f82140250df4","system_id":"levelo_inurba_marseille","lat":43.2549,"lon":5.37646,"is_reserved":false,"is_disabled":false,"rental_uris":{"android":"levelo://app?vid=0c7abc42-5652-4107-b2f0-f82140250df4","ios":"levelo://app?vid=0c7abc42-5652-4107-b2f0-f82140250df4"},"vehicle_type_id":"4","last_reported":1687712788,"current_range_meters":0,"station_id":"ce4bhh12rcd13ifvqff0","pricing_plan_id":"free"},{"bike_id":"203120bd-4a19-4235-a524-123db0f3ed4a","system_id":"levelo_inurba_marseille","lat":43.25489,"lon":5.37653,"is_reserved":false,"is_disabled":false,"rental_uris":{"android":"levelo://app?vid=203120bd-4a19-4235-a524-123db0f3ed4a","ios":"levelo://app?vid=203120bd-4a19-4235-a524-123db0f3ed4a"},"vehicle_type_id":"4","last_reported":1687712788,"current_range_meters":31200,"station_id":"ce4bhh12rcd13ifvqff0","pricing_plan_id":"free"},{"bike_id":"a1c18d40-ee9c-46df-8c06-8938c58c7d5c","system_id":"levelo_inurba_marseille","lat":43.25488,"lon":5.37647,"is_reserved":false,"is_disabled":false,"rental_uris":{"android":"levelo://app?vid=a1c18d40-ee9c-46df-8c06-8938c58c7d5c","ios":"levelo://app?vid=a1c18d40-ee9c-46df-8c06-8938c58c7d5c"},"vehicle_type_id":"4","last_reported":1687712788,"current_range_meters":17600,"station_id":"ce4bhh12rcd13ifvqff0","pricing_plan_id":"free"},{"bike_id":"0af64176-bfca-4360-b466-ebc6f7dbb29a","system_id":"levelo_inurba_marseille","lat":43.25488,"lon":5.37649,"is_reserved":false,"is_disabled":false,"rental_uris":{"android":"levelo://app?vid=0af64176-bfca-4360-b466-ebc6f7dbb29a","ios":"levelo://app?vid=0af64176-bfca-4360-b466-ebc6f7dbb29a"},"vehicle_type_id":"4","last_reported":1687712788,"current_range_meters":17600,"station_id":"ce4bhh12rcd13ifvqff0","pricing_plan_id":"free"},{"bike_id":"1ea9961d-1170-4bac-9e9a-28b315f3f40e","system_id":"levelo_inurba_marseille","lat":43.25487,"lon":5.37644,"is_reserved":false,"is_disabled":false,"rental_uris":{"android":"levelo://app?vid=1ea9961d-1170-4bac-9e9a-28b315f3f40e","ios":"levelo://app?vid=1ea9961d-1170-4bac-9e9a-28b315f3f40e"},"vehicle_type_id":"4","last_reported":1687712788,"current_range_meters":6800,"station_id":"ce4bhh12rcd13ifvqff0","pricing_plan_id":"free"},{"bike_id":"bf3b0f9b-52f3-4095-a253-30461b99c8d6","system_id":"levelo_inurba_marseille","lat":43.25486,"lon":5.37647,"is_reserved":false,"is_disabled":false,"rental_uris":{"android":"levelo://app?vid=bf3b0f9b-52f3-4095-a253-30461b99c8d6","ios":"levelo://app?vid=bf3b0f9b-52f3-4095-a253-30461b99c8d6"},"vehicle_type_id":"4","last_reported":1687712788,"current_range_meters":11600,"station_id":"ce4bhh12rcd13ifvqff0","pricing_plan_id":"free"},{"bike_id":"d79c8043-73e8-4536-92d7-be7f0ac818da","system_id":"levelo_inurba_marseille","lat":43.25478,"lon":5.38183,"is_reserved":false,"is_disabled":false,"rental_uris":{"android":"levelo://app?vid=d79c8043-73e8-4536-92d7-be7f0ac818da","ios":"levelo://app?vid=d79c8043-73e8-4536-92d7-be7f0ac818da"},"vehicle_type_id":"4","last_reported":1687712788,"current_range_meters":9200,"station_id":"","pricing_plan_id":"free"},{"bike_id":"7a178d4f-7d28-4b91-8832-6c2e9c734648","system_id":"levelo_inurba_marseille","lat":43.25939,"lon":5.40903,"is_reserved":false,"is_disabled":false,"rental_uris":{"android":"levelo://app?vid=7a178d4f-7d28-4b91-8832-6c2e9c734648","ios":"levelo://app?vid=7a178d4f-7d28-4b91-8832-6c2e9c734648"},"vehicle_type_id":"4","last_reported":1687712788,"current_range_meters":6000,"station_id":"","pricing_plan_id":"free"},{"bike_id":"264e0a5c-fa9e-4d8d-8a10-ce9bd8d7519f","system_id":"levelo_inurba_marseille","lat":43.25938,"lon":5.40905,"is_reserved":false,"is_disabled":false,"rental_uris":{"android":"levelo://app?vid=264e0a5c-fa9e-4d8d-8a10-ce9bd8d7519f","ios":"levelo://app?vid=264e0a5c-fa9e-4d8d-8a10-ce9bd8d7519f"},"vehicle_type_id":"4","last_reported":1687712788,"current_range_meters":10000,"station_id":"","pricing_plan_id":"free"},{"bike_id":"95ceb0c9-73bd-4dd2-ac06-4b987681f4e8","system_id":"levelo_inurba_marseille","lat":43.25937,"lon":5.40903,"is_reserved":false,"is_disabled":false,"rental_uris":{"android":"levelo://app?vid=95ceb0c9-73bd-4dd2-ac06-4b987681f4e8","ios":"levelo://app?vid=95ceb0c9-73bd-4dd2-ac06-4b987681f4e8"},"vehicle_type_id":"4","last_reported":1687712788,"current_range_meters":26800,"station_id":"","pricing_plan_id":"free"},{"bike_id":"2851acfb-00ba-460d-8311-a74e1238fc2c","system_id":"levelo_inurba_marseille","lat":43.25936,"lon":5.40901,"is_reserved":false,"is_disabled":false,"rental_uris":{"android":"levelo://app?vid=2851acfb-00ba-460d-8311-a74e1238fc2c","ios":"levelo://app?vid=2851acfb-00ba-460d-8311-a74e1238fc2c"},"vehicle_type_id":"4","last_reported":1687712788,"current_range_meters":30400,"station_id":"","pricing_plan_id":"free"},{"bike_id":"d8724d74-6425-43b6-b950-a607cbc8e74b","system_id":"levelo_inurba_marseille","lat":43.25936,"lon":5.40902,"is_reserved":false,"is_disabled":false,"rental_uris":{"android":"levelo://app?vid=d8724d74-6425-43b6-b950-a607cbc8e74b","ios":"levelo://app?vid=d8724d74-6425-43b6-b950-a607cbc8e74b"},"vehicle_type_id":"4","last_reported":1687712788,"current_range_meters":30000,"station_id":"","pricing_plan_id":"free"},{"bike_id":"0e8e8af7-8203-423a-b718-ed54280dcbb0","system_id":"levelo_inurba_marseille","lat":43.25936,"lon":5.40904,"is_reserved":false,"is_disabled":false,"rental_uris":{"android":"levelo://app?vid=0e8e8af7-8203-423a-b718-ed54280dcbb0","ios":"levelo://app?vid=0e8e8af7-8203-423a-b718-ed54280dcbb0"},"vehicle_type_id":"4","last_reported":1687712788,"current_range_meters":31200,"station_id":"","pricing_plan_id":"free"},{"bike_id":"de4cb364-48ad-4c5b-ae30-85f5bb7b705a","system_id":"levelo_inurba_marseille","lat":43.25932,"lon":5.40915,"is_reserved":false,"is_disabled":false,"rental_uris":{"android":"levelo://app?vid=de4cb364-48ad-4c5b-ae30-85f5bb7b705a","ios":"levelo://app?vid=de4cb364-48ad-4c5b-ae30-85f5bb7b705a"},"vehicle_type_id":"4","last_reported":1687712788,"current_range_meters":31200,"station_id":"","pricing_plan_id":"free"},{"bike_id":"d5d70e4b-d1b3-4328-a263-76f143318fbc","system_id":"levelo_inurba_marseille","lat":43.28013,"lon":5.44034,"is_reserved":false,"is_disabled":false,"rental_uris":{"android":"levelo://app?vid=d5d70e4b-d1b3-4328-a263-76f143318fbc","ios":"levelo://app?vid=d5d70e4b-d1b3-4328-a263-76f143318fbc"},"vehicle_type_id":"4","last_reported":1687712788,"current_range_meters":17600,"station_id":"","pricing_plan_id":"free"},{"bike_id":"74dd8b5d-7630-4f6a-a7dd-a2db18097386","system_id":"levelo_inurba_marseille","lat":43.28116,"lon":5.44188,"is_reserved":false,"is_disabled":false,"rental_uris":{"android":"levelo://app?vid=74dd8b5d-7630-4f6a-a7dd-a2db18097386","ios":"levelo://app?vid=74dd8b5d-7630-4f6a-a7dd-a2db18097386"},"vehicle_type_id":"4","last_reported":1687712788,"current_range_meters":29200,"station_id":"","pricing_plan_id":"free"},{"bike_id":"f93e93a9-43b0-46be-bc15-f1ad0ef6a1ea","system_id":"levelo_inurba_marseille","lat":43.2479,"lon":5.374457,"is_reserved":false,"is_disabled":false,"rental_uris":{"android":"levelo://app?vid=f93e93a9-43b0-46be-bc15-f1ad0ef6a1ea","ios":"levelo://app?vid=f93e93a9-43b0-46be-bc15-f1ad0ef6a1ea"},"vehicle_type_id":"4","last_reported":1687712788,"current_range_meters":0,"station_id":"ce4bhgh2rcd13ifvqfb0","pricing_plan_id":"free"},{"bike_id":"e7b021fa-fed1-4a48-bb73-3713ecfcf1b7","system_id":"levelo_inurba_marseille","lat":43.24809,"lon":5.37452,"is_reserved":false,"is_disabled":false,"rental_uris":{"android":"levelo://app?vid=e7b021fa-fed1-4a48-bb73-3713ecfcf1b7","ios":"levelo://app?vid=e7b021fa-fed1-4a48-bb73-3713ecfcf1b7"},"vehicle_type_id":"4","last_reported":1687712788,"current_range_meters":14800,"station_id":"ce4bhgh2rcd13ifvqfb0","pricing_plan_id":"free"},{"bike_id":"388fb028-579c-41a3-a2c5-c66c45965abe","system_id":"levelo_inurba_marseille","lat":43.24803,"lon":5.37458,"is_reserved":false,"is_disabled":false,"rental_uris":{"android":"levelo://app?vid=388fb028-579c-41a3-a2c5-c66c45965abe","ios":"levelo://app?vid=388fb028-579c-41a3-a2c5-c66c45965abe"},"vehicle_type_id":"4","last_reported":1687712788,"current_range_meters":26800,"station_id":"ce4bhgh2rcd13ifvqfb0","pricing_plan_id":"free"},{"bike_id":"cf22c1ea-5d40-4b21-a886-c79c59af6b2e","system_id":"levelo_inurba_marseille","lat":43.2479,"lon":5.374457,"is_reserved":false,"is_disabled":false,"rental_uris":{"android":"levelo://app?vid=cf22c1ea-5d40-4b21-a886-c79c59af6b2e","ios":"levelo://app?vid=cf22c1ea-5d40-4b21-a886-c79c59af6b2e"},"vehicle_type_id":"4","last_reported":1687712788,"current_range_meters":29200,"station_id":"ce4bhgh2rcd13ifvqfb0","pricing_plan_id":"free"},{"bike_id":"4766898a-98d9-4de0-a0c9-5c3a14dda109","system_id":"levelo_inurba_marseille","lat":43.2479,"lon":5.374457,"is_reserved":false,"is_disabled":false,"rental_uris":{"android":"levelo://app?vid=4766898a-98d9-4de0-a0c9-5c3a14dda109","ios":"levelo://app?vid=4766898a-98d9-4de0-a0c9-5c3a14dda109"},"vehicle_type_id":"4","last_reported":1687712788,"current_range_meters":31200,"station_id":"ce4bhgh2rcd13ifvqfb0","pricing_plan_id":"free"},{"bike_id":"4386db68-f4b3-422e-8fbc-f61aca85b5b4","system_id":"levelo_inurba_marseille","lat":43.250966,"lon":5.395186,"is_reserved":false,"is_disabled":false,"rental_uris":{"android":"levelo://app?vid=4386db68-f4b3-422e-8fbc-f61aca85b5b4","ios":"levelo://app?vid=4386db68-f4b3-422e-8fbc-f61aca85b5b4"},"vehicle_type_id":"4","last_reported":1687712788,"current_range_meters":26400,"station_id":"ce4bhm12rcd13ifvqgkg","pricing_plan_id":"free"},{"bike_id":"9aca8ee5-88bb-429f-ad3d-186aa54b053f","system_id":"levelo_inurba_marseille","lat":43.2501,"lon":5.39602,"is_reserved":false,"is_disabled":false,"rental_uris":{"android":"levelo://app?vid=9aca8ee5-88bb-429f-ad3d-186aa54b053f","ios":"levelo://app?vid=9aca8ee5-88bb-429f-ad3d-186aa54b053f"},"vehicle_type_id":"4","last_reported":1687712788,"current_range_meters":27600,"station_id":"","pricing_plan_id":"free"},{"bike_id":"6d5f29cc-68cd-4a8d-a1fd-a209aa566e31","system_id":"levelo_inurba_marseille","lat":43.24693,"lon":5.382096,"is_reserved":false,"is_disabled":false,"rental_uris":{"android":"levelo://app?vid=6d5f29cc-68cd-4a8d-a1fd-a209aa566e31","ios":"levelo://app?vid=6d5f29cc-68cd-4a8d-a1fd-a209aa566e31"},"vehicle_type_id":"4","last_reported":1687712788,"current_range_meters":24400,"station_id":"ce4bhih2rcd13ifvqfr0","pricing_plan_id":"free"},{"bike_id":"b71abe99-37dc-418e-865b-14fcc3a8d5b8","system_id":"levelo_inurba_marseille","lat":43.24693,"lon":5.382096,"is_reserved":false,"is_disabled":false,"rental_uris":{"android":"levelo://app?vid=b71abe99-37dc-418e-865b-14fcc3a8d5b8","ios":"levelo://app?vid=b71abe99-37dc-418e-865b-14fcc3a8d5b8"},"vehicle_type_id":"4","last_reported":1687712788,"current_range_meters":0,"station_id":"ce4bhih2rcd13ifvqfr0","pricing_plan_id":"free"},{"bike_id":"10514ec0-50ef-46e9-919a-f6601097c81e","system_id":"levelo_inurba_marseille","lat":43.24693,"lon":5.382096,"is_reserved":false,"is_disabled":false,"rental_uris":{"android":"levelo://app?vid=10514ec0-50ef-46e9-919a-f6601097c81e","ios":"levelo://app?vid=10514ec0-50ef-46e9-919a-f6601097c81e"},"vehicle_type_id":"4","last_reported":1687712788,"current_range_meters":0,"station_id":"ce4bhih2rcd13ifvqfr0","pricing_plan_id":"free"},{"bike_id":"18641c04-9eef-48de-bbd5-c1889742f268","system_id":"levelo_inurba_marseille","lat":43.24654,"lon":5.38894,"is_reserved":false,"is_disabled":false,"rental_uris":{"android":"levelo://app?vid=18641c04-9eef-48de-bbd5-c1889742f268","ios":"levelo://app?vid=18641c04-9eef-48de-bbd5-c1889742f268"},"vehicle_type_id":"4","last_reported":1687712788,"current_range_meters":17600,"station_id":"ce4bhg12rcd13ifvqf60","pricing_plan_id":"free"},{"bike_id":"eb6b011a-6e6b-4f4c-bd04-7be30c29deac","system_id":"levelo_inurba_marseille","lat":43.24391,"lon":5.37057,"is_reserved":false,"is_disabled":false,"rental_uris":{"android":"levelo://app?vid=eb6b011a-6e6b-4f4c-bd04-7be30c29deac","ios":"levelo://app?vid=eb6b011a-6e6b-4f4c-bd04-7be30c29deac"},"vehicle_type_id":"4","last_reported":1687712788,"current_range_meters":31200,"station_id":"ce4bhhh2rcd13ifvqfk0","pricing_plan_id":"free"},{"bike_id":"975c3c40-8fa1-485d-bdaa-8fc566e76150","system_id":"levelo_inurba_marseille","lat":43.243884,"lon":5.370736,"is_reserved":false,"is_disabled":false,"rental_uris":{"android":"levelo://app?vid=975c3c40-8fa1-485d-bdaa-8fc566e76150","ios":"levelo://app?vid=975c3c40-8fa1-485d-bdaa-8fc566e76150"},"vehicle_type_id":"4","last_reported":1687712788,"current_range_meters":31200,"station_id":"ce4bhhh2rcd13ifvqfk0","pricing_plan_id":"free"},{"bike_id":"0d74d7e0-10ff-49ff-b095-c42611a49b93","system_id":"levelo_inurba_marseille","lat":43.243884,"lon":5.370737,"is_reserved":false,"is_disabled":false,"rental_uris":{"android":"levelo://app?vid=0d74d7e0-10ff-49ff-b095-c42611a49b93","ios":"levelo://app?vid=0d74d7e0-10ff-49ff-b095-c42611a49b93"},"vehicle_type_id":"4","last_reported":1687712788,"current_range_meters":29200,"station_id":"ce4bhhh2rcd13ifvqfk0","pricing_plan_id":"free"},{"bike_id":"d227811c-a8dd-4cbd-a986-a4b5fc5c3ce5","system_id":"levelo_inurba_marseille","lat":43.243884,"lon":5.370737,"is_reserved":false,"is_disabled":false,"rental_uris":{"android":"levelo://app?vid=d227811c-a8dd-4cbd-a986-a4b5fc5c3ce5","ios":"levelo://app?vid=d227811c-a8dd-4cbd-a986-a4b5fc5c3ce5"},"vehicle_type_id":"4","last_reported":1687712788,"current_range_meters":31200,"station_id":"ce4bhhh2rcd13ifvqfk0","pricing_plan_id":"free"},{"bike_id":"93b506da-d408-4dbe-9070-2d499612e8f5","system_id":"levelo_inurba_marseille","lat":43.245581,"lon":5.395069,"is_reserved":false,"is_disabled":false,"rental_uris":{"android":"levelo://app?vid=93b506da-d408-4dbe-9070-2d499612e8f5","ios":"levelo://app?vid=93b506da-d408-4dbe-9070-2d499612e8f5"},"vehicle_type_id":"4","last_reported":1687712788,"current_range_meters":11600,"station_id":"ce4bhlp2rcd13ifvqgjg","pricing_plan_id":"free"},{"bike_id":"df6ee2f6-12d0-4d4c-a785-dc6f9e4911b3","system_id":"levelo_inurba_marseille","lat":43.245581,"lon":5.395069,"is_reserved":false,"is_disabled":false,"rental_uris":{"android":"levelo://app?vid=df6ee2f6-12d0-4d4c-a785-dc6f9e4911b3","ios":"levelo://app?vid=df6ee2f6-12d0-4d4c-a785-dc6f9e4911b3"},"vehicle_type_id":"4","last_reported":1687712788,"current_range_meters":0,"station_id":"ce4bhlp2rcd13ifvqgjg","pricing_plan_id":"free"},{"bike_id":"c15f1ce1-5680-443d-b68f-cee51bc81897","system_id":"levelo_inurba_marseille","lat":43.245581,"lon":5.395069,"is_reserved":false,"is_disabled":false,"rental_uris":{"android":"levelo://app?vid=c15f1ce1-5680-443d-b68f-cee51bc81897","ios":"levelo://app?vid=c15f1ce1-5680-443d-b68f-cee51bc81897"},"vehicle_type_id":"4","last_reported":1687712788,"current_range_meters":11600,"station_id":"ce4bhlp2rcd13ifvqgjg","pricing_plan_id":"free"},{"bike_id":"8c939304-3bd2-4b95-aae3-022bc8d770d1","system_id":"levelo_inurba_marseille","lat":43.245581,"lon":5.395069,"is_reserved":false,"is_disabled":false,"rental_uris":{"android":"levelo://app?vid=8c939304-3bd2-4b95-aae3-022bc8d770d1","ios":"levelo://app?vid=8c939304-3bd2-4b95-aae3-022bc8d770d1"},"vehicle_type_id":"4","last_reported":1687712788,"current_range_meters":28400,"station_id":"ce4bhlp2rcd13ifvqgjg","pricing_plan_id":"free"},{"bike_id":"1f9f2b3c-445e-4e24-a553-bf35886f461d","system_id":"levelo_inurba_marseille","lat":43.245581,"lon":5.395069,"is_reserved":false,"is_disabled":false,"rental_uris":{"android":"levelo://app?vid=1f9f2b3c-445e-4e24-a553-bf35886f461d","ios":"levelo://app?vid=1f9f2b3c-445e-4e24-a553-bf35886f461d"},"vehicle_type_id":"4","last_reported":1687712788,"current_range_meters":4400,"station_id":"ce4bhlp2rcd13ifvqgjg","pricing_plan_id":"free"},{"bike_id":"97f81519-7a7f-4734-8064-6ae93908cf4c","system_id":"levelo_inurba_marseille","lat":43.245581,"lon":5.395069,"is_reserved":false,"is_disabled":false,"rental_uris":{"android":"levelo://app?vid=97f81519-7a7f-4734-8064-6ae93908cf4c","ios":"levelo://app?vid=97f81519-7a7f-4734-8064-6ae93908cf4c"},"vehicle_type_id":"4","last_reported":1687712788,"current_range_meters":3200,"station_id":"ce4bhlp2rcd13ifvqgjg","pricing_plan_id":"free"},{"bike_id":"33de0f3c-eae3-4a8d-9e7b-735c9fe2e419","system_id":"levelo_inurba_marseille","lat":43.245581,"lon":5.395069,"is_reserved":false,"is_disabled":false,"rental_uris":{"android":"levelo://app?vid=33de0f3c-eae3-4a8d-9e7b-735c9fe2e419","ios":"levelo://app?vid=33de0f3c-eae3-4a8d-9e7b-735c9fe2e419"},"vehicle_type_id":"4","last_reported":1687712788,"current_range_meters":11200,"station_id":"ce4bhlp2rcd13ifvqgjg","pricing_plan_id":"free"},{"bike_id":"a6fbfeec-7e54-4067-8379-1d9dd368bf49","system_id":"levelo_inurba_marseille","lat":43.240623,"lon":5.377642,"is_reserved":false,"is_disabled":false,"rental_uris":{"android":"levelo://app?vid=a6fbfeec-7e54-4067-8379-1d9dd368bf49","ios":"levelo://app?vid=a6fbfeec-7e54-4067-8379-1d9dd368bf49"},"vehicle_type_id":"4","last_reported":1687712788,"current_range_meters":3600,"station_id":"ce4bhnp2rcd13ifvqgvg","pricing_plan_id":"free"},{"bike_id":"68afe63e-2e67-457c-b454-31d3bfd9224c","system_id":"levelo_inurba_marseille","lat":43.24026,"lon":5.36276,"is_reserved":false,"is_disabled":false,"rental_uris":{"android":"levelo://app?vid=68afe63e-2e67-457c-b454-31d3bfd9224c","ios":"levelo://app?vid=68afe63e-2e67-457c-b454-31d3bfd9224c"},"vehicle_type_id":"4","last_reported":1687712788,"current_range_meters":800,"station_id":"ce4bhi12rcd13ifvqfp0","pricing_plan_id":"free"},{"bike_id":"8031175c-7c30-47d1-a642-e446bef12b5f","system_id":"levelo_inurba_marseille","lat":43.23975,"lon":5.36626,"is_reserved":false,"is_disabled":false,"rental_uris":{"android":"levelo://app?vid=8031175c-7c30-47d1-a642-e446bef12b5f","ios":"levelo://app?vid=8031175c-7c30-47d1-a642-e446bef12b5f"},"vehicle_type_id":"4","last_reported":1687712788,"current_range_meters":10800,"station_id":"ce4bhi12rcd13ifvqfp0","pricing_plan_id":"free"},{"bike_id":"71d3d0ae-50ee-41eb-aa26-cf116900a11e","system_id":"levelo_inurba_marseille","lat":43.23972,"lon":5.36627,"is_reserved":false,"is_disabled":false,"rental_uris":{"android":"levelo://app?vid=71d3d0ae-50ee-41eb-aa26-cf116900a11e","ios":"levelo://app?vid=71d3d0ae-50ee-41eb-aa26-cf116900a11e"},"vehicle_type_id":"4","last_reported":1687712788,"current_range_meters":4800,"station_id":"ce4bhi12rcd13ifvqfp0","pricing_plan_id":"free"},{"bike_id":"3d8f5530-b6ac-413d-b68f-229939f43cbd","system_id":"levelo_inurba_marseille","lat":43.23964,"lon":5.36638,"is_reserved":false,"is_disabled":false,"rental_uris":{"android":"levelo://app?vid=3d8f5530-b6ac-413d-b68f-229939f43cbd","ios":"levelo://app?vid=3d8f5530-b6ac-413d-b68f-229939f43cbd"},"vehicle_type_id":"4","last_reported":1687712788,"current_range_meters":24000,"station_id":"ce4bhi12rcd13ifvqfp0","pricing_plan_id":"free"},{"bike_id":"5a0598e1-95d5-4007-91f6-35f2e892475d","system_id":"levelo_inurba_marseille","lat":43.239588,"lon":5.366238,"is_reserved":false,"is_disabled":false,"rental_uris":{"android":"levelo://app?vid=5a0598e1-95d5-4007-91f6-35f2e892475d","ios":"levelo://app?vid=5a0598e1-95d5-4007-91f6-35f2e892475d"},"vehicle_type_id":"4","last_reported":1687712788,"current_range_meters":31600,"station_id":"ce4bhi12rcd13ifvqfp0","pricing_plan_id":"free"},{"bike_id":"e6bd621d-8e80-4fca-b5b9-705661443595","system_id":"levelo_inurba_marseille","lat":43.23964,"lon":5.36636,"is_reserved":false,"is_disabled":false,"rental_uris":{"android":"levelo://app?vid=e6bd621d-8e80-4fca-b5b9-705661443595","ios":"levelo://app?vid=e6bd621d-8e80-4fca-b5b9-705661443595"},"vehicle_type_id":"4","last_reported":1687712788,"current_range_meters":31200,"station_id":"ce4bhi12rcd13ifvqfp0","pricing_plan_id":"free"},{"bike_id":"fa5651df-005a-4e21-a874-064d2a082d53","system_id":"levelo_inurba_marseille","lat":43.239588,"lon":5.366238,"is_reserved":false,"is_disabled":false,"rental_uris":{"android":"levelo://app?vid=fa5651df-005a-4e21-a874-064d2a082d53","ios":"levelo://app?vid=fa5651df-005a-4e21-a874-064d2a082d53"},"vehicle_type_id":"4","last_reported":1687712788,"current_range_meters":24000,"station_id":"ce4bhi12rcd13ifvqfp0","pricing_plan_id":"free"},{"bike_id":"3d5b4cf1-053b-4435-a76b-f2b81a1f81c4","system_id":"levelo_inurba_marseille","lat":43.23963,"lon":5.36631,"is_reserved":false,"is_disabled":false,"rental_uris":{"android":"levelo://app?vid=3d5b4cf1-053b-4435-a76b-f2b81a1f81c4","ios":"levelo://app?vid=3d5b4cf1-053b-4435-a76b-f2b81a1f81c4"},"vehicle_type_id":"4","last_reported":1687712788,"current_range_meters":14800,"station_id":"ce4bhi12rcd13ifvqfp0","pricing_plan_id":"free"},{"bike_id":"658392b2-37b7-4275-8159-4d329a6fa45a","system_id":"levelo_inurba_marseille","lat":43.23962,"lon":5.36642,"is_reserved":false,"is_disabled":false,"rental_uris":{"android":"levelo://app?vid=658392b2-37b7-4275-8159-4d329a6fa45a","ios":"levelo://app?vid=658392b2-37b7-4275-8159-4d329a6fa45a"},"vehicle_type_id":"4","last_reported":1687712788,"current_range_meters":31200,"station_id":"ce4bhi12rcd13ifvqfp0","pricing_plan_id":"free"},{"bike_id":"60674d3b-ba1e-4adf-a7d0-f6b34c01e98d","system_id":"levelo_inurba_marseille","lat":43.23962,"lon":5.36633,"is_reserved":false,"is_disabled":false,"rental_uris":{"android":"levelo://app?vid=60674d3b-ba1e-4adf-a7d0-f6b34c01e98d","ios":"levelo://app?vid=60674d3b-ba1e-4adf-a7d0-f6b34c01e98d"},"vehicle_type_id":"4","last_reported":1687712788,"current_range_meters":31200,"station_id":"ce4bhi12rcd13ifvqfp0","pricing_plan_id":"free"},{"bike_id":"a1dfa703-6a8c-449d-b74f-83530d78156f","system_id":"levelo_inurba_marseille","lat":43.23961,"lon":5.36624,"is_reserved":false,"is_disabled":false,"rental_uris":{"android":"levelo://app?vid=a1dfa703-6a8c-449d-b74f-83530d78156f","ios":"levelo://app?vid=a1dfa703-6a8c-449d-b74f-83530d78156f"},