{"last_updated":1712858930,"ttl":30,"version":"2.2","data":{"bikes":[{"bike_id":"97c305c5-8435-4b15-ae4a-fad64f5206a4","system_id":"levelo_inurba_marseille","lat":43.309076,"lon":5.368465,"is_reserved":false,"is_disabled":false,"rental_uris":{"android":"levelo://app?vid=97c305c5-8435-4b15-ae4a-fad64f5206a4","ios":"levelo://app?vid=97c305c5-8435-4b15-ae4a-fad64f5206a4"},"vehicle_type_id":"4","last_reported":1712858930,"current_range_meters":0,"station_id":"ce4bgn92rcd13ifvqbvg","pricing_plan_id":"cebpf4jnsgd1na2vs0mg"},{"bike_id":"01f7a027-d61f-4d51-b618-cd35a09a733b","system_id":"levelo_inurba_marseille","lat":43.314915,"lon":5.37306,"is_reserved":false,"is_disabled":false,"rental_uris":{"android":"levelo://app?vid=01f7a027-d61f-4d51-b618-cd35a09a733b","ios":"levelo://app?vid=01f7a027-d61f-4d51-b618-cd35a09a733b"},"vehicle_type_id":"4","last_reported":1712858930,"current_range_meters":0,"station_id":"ce4bgt12rcd13ifvqcd0","pricing_plan_id":"cebpf4jnsgd1na2vs0mg"},{"bike_id":"3f81dfa2-3c3a-413b-92b3-6630b36af20b","system_id":"levelo_inurba_marseille","lat":43.314811,"lon":5.373103,"is_reserved":false,"is_disabled":false,"rental_uris":{"android":"levelo://app?vid=3f81dfa2-3c3a-413b-92b3-6630b36af20b","ios":"levelo://app?vid=3f81dfa2-3c3a-413b-92b3-6630b36af20b"},"vehicle_type_id":"4","last_reported":1712858930,"current_range_meters":0,"station_id":"ce4bgt12rcd13ifvqcd0","pricing_plan_id":"cebpf4jnsgd1na2vs0mg"},{"bike_id":"5ce57496-a8f6-4fa4-9596-4a8ecf385d37","system_id":"levelo_inurba_marseille","lat":43.31486,"lon":5.37312,"is_reserved":false,"is_disabled":false,"rental_uris":{"android":"levelo://app?vid=5ce57496-a8f6-4fa4-9596-4a8ecf385d37","ios":"levelo://app?vid=5ce57496-a8f6-4fa4-9596-4a8ecf385d37"},"vehicle_type_id":"4","last_reported":1712858930,"current_range_meters":0,"station_id":"ce4bgt12rcd13ifvqcd0","pricing_plan_id":"cebpf4jnsgd1na2vs0mg"},{"bike_id":"49fe3335-0e76-4f6e-b930-c0f9dacd3364","system_id":"levelo_inurba_marseille","lat":43.314811,"lon":5.373104,"is_reserved":false,"is_disabled":false,"rental_uris":{"android":"levelo://app?vid=49fe3335-0e76-4f6e-b930-c0f9dacd3364","ios":"levelo://app?vid=49fe3335-0e76-4f6e-b930-c0f9dacd3364"},"vehicle_type_id":"4","last_reported":1712858930,"current_range_meters":14400,"station_id":"ce4bgt12rcd13ifvqcd0","pricing_plan_id":"cebpf4jnsgd1na2vs0mg"},{"bike_id":"9ec8eb50-f5b7-46e7-91cf-f56b87325a20","system_id":"levelo_inurba_marseille","lat":43.309039,"lon":5.371797,"is_reserved":false,"is_disabled":false,"rental_uris":{"android":"levelo://app?vid=9ec8eb50-f5b7-46e7-91cf-f56b87325a20","ios":"levelo://app?vid=9ec8eb50-f5b7-46e7-91cf-f56b87325a20"},"vehicle_type_id":"4","last_reported":1712858930,"current_range_meters":2400,"station_id":"ce4bguh2rcd13ifvqckg","pricing_plan_id":"cebpf4jnsgd1na2vs0mg"},{"bike_id":"3db4ce2b-1fcd-4ff2-9b80-ccb0f487c6ee","system_id":"levelo_inurba_marseille","lat":43.305712,"lon":5.365641,"is_reserved":false,"is_disabled":false,"rental_uris":{"android":"levelo://app?vid=3db4ce2b-1fcd-4ff2-9b80-ccb0f487c6ee","ios":"levelo://app?vid=3db4ce2b-1fcd-4ff2-9b80-ccb0f487c6ee"},"vehicle_type_id":"4","last_reported":1712858930,"current_range_meters":0,"station_id":"ce4bgs12rcd13ifvqcag","pricing_plan_id":"cebpf4jnsgd1na2vs0mg"},{"bike_id":"150a577b-d3eb-4be1-b3d6-278f581c7d71","system_id":"levelo_inurba_marseille","lat":43.30547,"lon":5.36557,"is_reserved":false,"is_disabled":false,"rental_uris":{"android":"levelo://app?vid=150a577b-d3eb-4be1-b3d6-278f581c7d71","ios":"levelo://app?vid=150a577b-d3eb-4be1-b3d6-278f581c7d71"},"vehicle_type_id":"4","last_reported":1712858930,"current_range_meters":0,"station_id":"ce4bgs12rcd13ifvqcag","pricing_plan_id":"cebpf4jnsgd1na2vs0mg"},{"bike_id":"07df4bb9-3b47-41e7-b581-38c071dd726a","system_id":"levelo_inurba_marseille","lat":43.303046,"lon":5.368981,"is_reserved":false,"is_disabled":false,"rental_uris":{"android":"levelo://app?vid=07df4bb9-3b47-41e7-b581-38c071dd726a","ios":"levelo://app?vid=07df4bb9-3b47-41e7-b581-38c071dd726a"},"vehicle_type_id":"4","last_reported":1712858930,"current_range_meters":9200,"station_id":"ce4bgqh2rcd13ifvqc5g","pricing_plan_id":"cebpf4jnsgd1na2vs0mg"},{"bike_id":"d15e46e5-2eee-4557-8834-6ff6ec027b3d","system_id":"levelo_inurba_marseille","lat":43.297946,"lon":5.404063,"is_reserved":false,"is_disabled":false,"rental_uris":{"android":"levelo://app?vid=d15e46e5-2eee-4557-8834-6ff6ec027b3d","ios":"levelo://app?vid=d15e46e5-2eee-4557-8834-6ff6ec027b3d"},"vehicle_type_id":"4","last_reported":1712858930,"current_range_meters":400,"station_id":"ce4bh112rcd13ifvqd90","pricing_plan_id":"cebpf4jnsgd1na2vs0mg"},{"bike_id":"d86c5d88-8f1e-42f6-acf2-5ef0166d00df","system_id":"levelo_inurba_marseille","lat":43.3061,"lon":5.37233,"is_reserved":false,"is_disabled":false,"rental_uris":{"android":"levelo://app?vid=d86c5d88-8f1e-42f6-acf2-5ef0166d00df","ios":"levelo://app?vid=d86c5d88-8f1e-42f6-acf2-5ef0166d00df"},"vehicle_type_id":"4","last_reported":1712858930,"current_range_meters":0,"station_id":"ce4bgqh2rcd13ifvqc4g","pricing_plan_id":"cebpf4jnsgd1na2vs0mg"},{"bike_id":"42198aef-0088-45f4-974b-e6ce8666c90a","system_id":"levelo_inurba_marseille","lat":43.317075,"lon":5.377367,"is_reserved":false,"is_disabled":false,"rental_uris":{"android":"levelo://app?vid=42198aef-0088-45f4-974b-e6ce8666c90a","ios":"levelo://app?vid=42198aef-0088-45f4-974b-e6ce8666c90a"},"vehicle_type_id":"4","last_reported":1712858930,"current_range_meters":2000,"station_id":"ce4bgth2rcd13ifvqch0","pricing_plan_id":"cebpf4jnsgd1na2vs0mg"},{"bike_id":"dbc4405e-76fd-4906-b2c3-1eae12968afb","system_id":"levelo_inurba_marseille","lat":43.298433,"lon":5.362774,"is_reserved":false,"is_disabled":false,"rental_uris":{"android":"levelo://app?vid=dbc4405e-76fd-4906-b2c3-1eae12968afb","ios":"levelo://app?vid=dbc4405e-76fd-4906-b2c3-1eae12968afb"},"vehicle_type_id":"4","last_reported":1712858930,"current_range_meters":2000,"station_id":"ce4bgpp2rcd13ifvqc3g","pricing_plan_id":"cebpf4jnsgd1na2vs0mg"},{"bike_id":"5ac17b3b-d013-4c28-813c-e2e714055aa6","system_id":"levelo_inurba_marseille","lat":43.305256,"lon":5.372716,"is_reserved":false,"is_disabled":false,"rental_uris":{"android":"levelo://app?vid=5ac17b3b-d013-4c28-813c-e2e714055aa6","ios":"levelo://app?vid=5ac17b3b-d013-4c28-813c-e2e714055aa6"},"vehicle_type_id":"4","last_reported":1712858930,"current_range_meters":0,"station_id":"","pricing_plan_id":"cebpf4jnsgd1na2vs0mg"},{"bike_id":"595bdbb3-3352-49d4-9bcb-48c0a80be858","system_id":"levelo_inurba_marseille","lat":43.303046,"lon":5.368981,"is_reserved":false,"is_disabled":false,"rental_uris":{"android":"levelo://app?vid=595bdbb3-3352-49d4-9bcb-48c0a80be858","ios":"levelo://app?vid=595bdbb3-3352-49d4-9bcb-48c0a80be858"},"vehicle_type_id":"4","last_reported":1712858930,"current_range_meters":0,"station_id":"ce4bgqh2rcd13ifvqc5g","pricing_plan_id":"cebpf4jnsgd1na2vs0mg"},{"bike_id":"4c61ab02-d5bc-4e85-b9da-f722b8b26778","system_id":"levelo_inurba_marseille","lat":43.303046,"lon":5.368981,"is_reserved":false,"is_disabled":false,"rental_uris":{"android":"levelo://app?vid=4c61ab02-d5bc-4e85-b9da-f722b8b26778","ios":"levelo://app?vid=4c61ab02-d5bc-4e85-b9da-f722b8b26778"},"vehicle_type_id":"4","last_reported":1712858930,"current_range_meters":4000,"station_id":"ce4bgqh2rcd13ifvqc5g","pricing_plan_id":"cebpf4jnsgd1na2vs0mg"},{"bike_id":"69fcd58b-84c7-4fa1-be20-ea6313d25b08","system_id":"levelo_inurba_marseille","lat":43.315289,"lon":5.380349,"is_reserved":false,"is_disabled":false,"rental_uris":{"android":"levelo://app?vid=69fcd58b-84c7-4fa1-be20-ea6313d25b08","ios":"levelo://app?vid=69fcd58b-84c7-4fa1-be20-ea6313d25b08"},"vehicle_type_id":"4","last_reported":1712858930,"current_range_meters":4400,"station_id":"ce4bhsp2rcd13ifvqi50","pricing_plan_id":"cebpf4jnsgd1na2vs0mg"},{"bike_id":"0e4de2aa-96c0-4d44-98b4-553026c17e6e","system_id":"levelo_inurba_marseille","lat":43.30304,"lon":5.368987,"is_reserved":false,"is_disabled":false,"rental_uris":{"android":"levelo://app?vid=0e4de2aa-96c0-4d44-98b4-553026c17e6e","ios":"levelo://app?vid=0e4de2aa-96c0-4d44-98b4-553026c17e6e"},"vehicle_type_id":"4","last_reported":1712858930,"current_range_meters":2400,"station_id":"ce4bgqh2rcd13ifvqc5g","pricing_plan_id":"cebpf4jnsgd1na2vs0mg"},{"bike_id":"d7c80c0d-0b57-4d7e-a47e-9472de74848d","system_id":"levelo_inurba_marseille","lat":43.30304,"lon":5.368987,"is_reserved":false,"is_disabled":false,"rental_uris":{"android":"levelo://app?vid=d7c80c0d-0b57-4d7e-a47e-9472de74848d","ios":"levelo://app?vid=d7c80c0d-0b57-4d7e-a47e-9472de74848d"},"vehicle_type_id":"4","last_reported":1712858930,"current_range_meters":4400,"station_id":"ce4bgqh2rcd13ifvqc5g","pricing_plan_id":"cebpf4jnsgd1na2vs0mg"},{"bike_id":"603fa77f-0eba-4a52-b353-54050b497b03","system_id":"levelo_inurba_marseille","lat":43.301996,"lon":5.36626,"is_reserved":false,"is_disabled":false,"rental_uris":{"android":"levelo://app?vid=603fa77f-0eba-4a52-b353-54050b497b03","ios":"levelo://app?vid=603fa77f-0eba-4a52-b353-54050b497b03"},"vehicle_type_id":"4","last_reported":1712858930,"current_range_meters":0,"station_id":"ce4bgrh2rcd13ifvqc8g","pricing_plan_id":"cebpf4jnsgd1na2vs0mg"},{"bike_id":"b59f41db-90cd-4558-b47a-5af60abec512","system_id":"levelo_inurba_marseille","lat":43.304306,"lon":5.378028,"is_reserved":false,"is_disabled":false,"rental_uris":{"android":"levelo://app?vid=b59f41db-90cd-4558-b47a-5af60abec512","ios":"levelo://app?vid=b59f41db-90cd-4558-b47a-5af60abec512"},"vehicle_type_id":"4","last_reported":1712858930,"current_range_meters":0,"station_id":"","pricing_plan_id":"cebpf4jnsgd1na2vs0mg"},{"bike_id":"aaf99a3b-4366-4f0a-ab2c-6128bca9d34a","system_id":"levelo_inurba_marseille","lat":43.304606,"lon":5.379026,"is_reserved":false,"is_disabled":false,"rental_uris":{"android":"levelo://app?vid=aaf99a3b-4366-4f0a-ab2c-6128bca9d34a","ios":"levelo://app?vid=aaf99a3b-4366-4f0a-ab2c-6128bca9d34a"},"vehicle_type_id":"4","last_reported":1712858930,"current_range_meters":4000,"station_id":"ce4bgup2rcd13ifvqcn0","pricing_plan_id":"cebpf4jnsgd1na2vs0mg"},{"bike_id":"e4ad7801-b531-452b-9c5a-23a02e876c9c","system_id":"levelo_inurba_marseille","lat":43.304606,"lon":5.379026,"is_reserved":false,"is_disabled":false,"rental_uris":{"android":"levelo://app?vid=e4ad7801-b531-452b-9c5a-23a02e876c9c","ios":"levelo://app?vid=e4ad7801-b531-452b-9c5a-23a02e876c9c"},"vehicle_type_id":"4","last_reported":1712858930,"current_range_meters":3600,"station_id":"ce4bgup2rcd13ifvqcn0","pricing_plan_id":"cebpf4jnsgd1na2vs0mg"},{"bike_id":"eb004eb1-6ede-48b5-811a-cf3e24963d94","system_id":"levelo_inurba_marseille","lat":43.304606,"lon":5.379026,"is_reserved":false,"is_disabled":false,"rental_uris":{"android":"levelo://app?vid=eb004eb1-6ede-48b5-811a-cf3e24963d94","ios":"levelo://app?vid=eb004eb1-6ede-48b5-811a-cf3e24963d94"},"vehicle_type_id":"4","last_reported":1712858930,"current_range_meters":4000,"station_id":"ce4bgup2rcd13ifvqcn0","pricing_plan_id":"cebpf4jnsgd1na2vs0mg"},{"bike_id":"ab9545c0-4107-4b17-9946-cccd436afc7c","system_id":"levelo_inurba_marseille","lat":43.324771,"lon":5.36557,"is_reserved":false,"is_disabled":false,"rental_uris":{"android":"levelo://app?vid=ab9545c0-4107-4b17-9946-cccd436afc7c","ios":"levelo://app?vid=ab9545c0-4107-4b17-9946-cccd436afc7c"},"vehicle_type_id":"4","last_reported":1712858930,"current_range_meters":4000,"station_id":"ce4bhs12rcd13ifvqhvg","pricing_plan_id":"cebpf4jnsgd1na2vs0mg"},{"bike_id":"57061ed1-b059-4da0-b3d3-2764f3c10c5f","system_id":"levelo_inurba_marseille","lat":43.324771,"lon":5.36557,"is_reserved":false,"is_disabled":false,"rental_uris":{"android":"levelo://app?vid=57061ed1-b059-4da0-b3d3-2764f3c10c5f","ios":"levelo://app?vid=57061ed1-b059-4da0-b3d3-2764f3c10c5f"},"vehicle_type_id":"4","last_reported":1712858930,"current_range_meters":0,"station_id":"ce4bhs12rcd13ifvqhvg","pricing_plan_id":"cebpf4jnsgd1na2vs0mg"},{"bike_id":"8c619ed0-e398-4bc3-9ae3-0c8fe22c1cc0","system_id":"levelo_inurba_marseille","lat":43.324771,"lon":5.36557,"is_reserved":false,"is_disabled":false,"rental_uris":{"android":"levelo://app?vid=8c619ed0-e398-4bc3-9ae3-0c8fe22c1cc0","ios":"levelo://app?vid=8c619ed0-e398-4bc3-9ae3-0c8fe22c1cc0"},"vehicle_type_id":"4","last_reported":1712858930,"current_range_meters":6400,"station_id":"ce4bhs12rcd13ifvqhvg","pricing_plan_id":"cebpf4jnsgd1na2vs0mg"},{"bike_id":"2d60e52a-fed1-41e1-bff5-bcbd3cd74431","system_id":"levelo_inurba_marseille","lat":43.31071,"lon":5.38341,"is_reserved":false,"is_disabled":false,"rental_uris":{"android":"levelo://app?vid=2d60e52a-fed1-41e1-bff5-bcbd3cd74431","ios":"levelo://app?vid=2d60e52a-fed1-41e1-bff5-bcbd3cd74431"},"vehicle_type_id":"4","last_reported":1712858930,"current_range_meters":0,"station_id":"ce4bgv92rcd13ifvqcr0","pricing_plan_id":"cebpf4jnsgd1na2vs0mg"},{"bike_id":"60b1d21f-695b-43c5-83b8-9b24156f5885","system_id":"levelo_inurba_marseille","lat":43.310804,"lon":5.38359,"is_reserved":false,"is_disabled":false,"rental_uris":{"android":"levelo://app?vid=60b1d21f-695b-43c5-83b8-9b24156f5885","ios":"levelo://app?vid=60b1d21f-695b-43c5-83b8-9b24156f5885"},"vehicle_type_id":"4","last_reported":1712858930,"current_range_meters":6400,"station_id":"ce4bgv92rcd13ifvqcr0","pricing_plan_id":"cebpf4jnsgd1na2vs0mg"},{"bike_id":"a3d0c6a3-be96-435b-805e-cf95522d503d","system_id":"levelo_inurba_marseille","lat":43.310804,"lon":5.38359,"is_reserved":false,"is_disabled":false,"rental_uris":{"android":"levelo://app?vid=a3d0c6a3-be96-435b-805e-cf95522d503d","ios":"levelo://app?vid=a3d0c6a3-be96-435b-805e-cf95522d503d"},"vehicle_type_id":"4","last_reported":1712858930,"current_range_meters":8800,"station_id":"ce4bgv92rcd13ifvqcr0","pricing_plan_id":"cebpf4jnsgd1na2vs0mg"},{"bike_id":"04a9a627-8a62-4190-9e8b-583489e1e2d9","system_id":"levelo_inurba_marseille","lat":43.310804,"lon":5.38359,"is_reserved":false,"is_disabled":false,"rental_uris":{"android":"levelo://app?vid=04a9a627-8a62-4190-9e8b-583489e1e2d9","ios":"levelo://app?vid=04a9a627-8a62-4190-9e8b-583489e1e2d9"},"vehicle_type_id":"4","last_reported":1712858930,"current_range_meters":10000,"station_id":"ce4bgv92rcd13ifvqcr0","pricing_plan_id":"cebpf4jnsgd1na2vs0mg"},{"bike_id":"dd7ed716-82ba-44b0-bcda-cf10a93c72ff","system_id":"levelo_inurba_marseille","lat":43.30143,"lon":5.37413,"is_reserved":false,"is_disabled":false,"rental_uris":{"android":"levelo://app?vid=dd7ed716-82ba-44b0-bcda-cf10a93c72ff","ios":"levelo://app?vid=dd7ed716-82ba-44b0-bcda-cf10a93c72ff"},"vehicle_type_id":"4","last_reported":1712858930,"current_range_meters":22000,"station_id":"ce4bgs92rcd13ifvqcc0","pricing_plan_id":"cebpf4jnsgd1na2vs0mg"},{"bike_id":"689804b0-6821-4d98-9685-9f55e6cbf693","system_id":"levelo_inurba_marseille","lat":43.30144,"lon":5.37405,"is_reserved":false,"is_disabled":false,"rental_uris":{"android":"levelo://app?vid=689804b0-6821-4d98-9685-9f55e6cbf693","ios":"levelo://app?vid=689804b0-6821-4d98-9685-9f55e6cbf693"},"vehicle_type_id":"4","last_reported":1712858930,"current_range_meters":0,"station_id":"ce4bgs92rcd13ifvqcc0","pricing_plan_id":"cebpf4jnsgd1na2vs0mg"},{"bike_id":"461db1fe-1adf-49c1-8c30-9ff355f16f8b","system_id":"levelo_inurba_marseille","lat":43.319935,"lon":5.381699,"is_reserved":false,"is_disabled":false,"rental_uris":{"android":"levelo://app?vid=461db1fe-1adf-49c1-8c30-9ff355f16f8b","ios":"levelo://app?vid=461db1fe-1adf-49c1-8c30-9ff355f16f8b"},"vehicle_type_id":"4","last_reported":1712858930,"current_range_meters":13200,"station_id":"ce4bhr12rcd13ifvqhpg","pricing_plan_id":"cebpf4jnsgd1na2vs0mg"},{"bike_id":"b82a2baa-7ce9-4f08-9f0c-b74b064cca81","system_id":"levelo_inurba_marseille","lat":43.310804,"lon":5.38359,"is_reserved":false,"is_disabled":false,"rental_uris":{"android":"levelo://app?vid=b82a2baa-7ce9-4f08-9f0c-b74b064cca81","ios":"levelo://app?vid=b82a2baa-7ce9-4f08-9f0c-b74b064cca81"},"vehicle_type_id":"4","last_reported":1712858930,"current_range_meters":22400,"station_id":"ce4bgv92rcd13ifvqcr0","pricing_plan_id":"cebpf4jnsgd1na2vs0mg"},{"bike_id":"55e39ee5-ccc8-4659-b011-2a6fa20dfadf","system_id":"levelo_inurba_marseille","lat":43.319935,"lon":5.381699,"is_reserved":false,"is_disabled":false,"rental_uris":{"android":"levelo://app?vid=55e39ee5-ccc8-4659-b011-2a6fa20dfadf","ios":"levelo://app?vid=55e39ee5-ccc8-4659-b011-2a6fa20dfadf"},"vehicle_type_id":"4","last_reported":1712858930,"current_range_meters":1200,"station_id":"ce4bhr12rcd13ifvqhpg","pricing_plan_id":"cebpf4jnsgd1na2vs0mg"},{"bike_id":"4262d649-7ede-422a-b20e-5ad2f4a86288","system_id":"levelo_inurba_marseille","lat":43.31368,"lon":5.38488,"is_reserved":false,"is_disabled":false,"rental_uris":{"android":"levelo://app?vid=4262d649-7ede-422a-b20e-5ad2f4a86288","ios":"levelo://app?vid=4262d649-7ede-422a-b20e-5ad2f4a86288"},"vehicle_type_id":"4","last_reported":1712858930,"current_range_meters":12000,"station_id":"ce4bgt92rcd13ifvqcf0","pricing_plan_id":"cebpf4jnsgd1na2vs0mg"},{"bike_id":"2c6ef06a-3316-4b31-a697-1bb515381148","system_id":"levelo_inurba_marseille","lat":43.313571,"lon":5.384829,"is_reserved":false,"is_disabled":false,"rental_uris":{"android":"levelo://app?vid=2c6ef06a-3316-4b31-a697-1bb515381148","ios":"levelo://app?vid=2c6ef06a-3316-4b31-a697-1bb515381148"},"vehicle_type_id":"4","last_reported":1712858930,"current_range_meters":2400,"station_id":"ce4bgt92rcd13ifvqcf0","pricing_plan_id":"cebpf4jnsgd1na2vs0mg"},{"bike_id":"48b57d22-4f6d-4cb6-b627-5a5a80aeaecd","system_id":"levelo_inurba_marseille","lat":43.31386,"lon":5.38496,"is_reserved":false,"is_disabled":false,"rental_uris":{"android":"levelo://app?vid=48b57d22-4f6d-4cb6-b627-5a5a80aeaecd","ios":"levelo://app?vid=48b57d22-4f6d-4cb6-b627-5a5a80aeaecd"},"vehicle_type_id":"4","last_reported":1712858930,"current_range_meters":0,"station_id":"ce4bgt92rcd13ifvqcf0","pricing_plan_id":"cebpf4jnsgd1na2vs0mg"},{"bike_id":"79ec5fdb-0d1a-403e-800f-3fc89a5d79de","system_id":"levelo_inurba_marseille","lat":43.31363,"lon":5.38501,"is_reserved":false,"is_disabled":false,"rental_uris":{"android":"levelo://app?vid=79ec5fdb-0d1a-403e-800f-3fc89a5d79de","ios":"levelo://app?vid=79ec5fdb-0d1a-403e-800f-3fc89a5d79de"},"vehicle_type_id":"4","last_reported":1712858930,"current_range_meters":31200,"station_id":"ce4bgt92rcd13ifvqcf0","pricing_plan_id":"cebpf4jnsgd1na2vs0mg"},{"bike_id":"107df3dc-3067-42db-ae81-5a3ed728bdf2","system_id":"levelo_inurba_marseille","lat":43.299724,"lon":5.371829,"is_reserved":false,"is_disabled":false,"rental_uris":{"android":"levelo://app?vid=107df3dc-3067-42db-ae81-5a3ed728bdf2","ios":"levelo://app?vid=107df3dc-3067-42db-ae81-5a3ed728bdf2"},"vehicle_type_id":"4","last_reported":1712858930,"current_range_meters":0,"station_id":"ce4bgr92rcd13ifvqc7g","pricing_plan_id":"cebpf4jnsgd1na2vs0mg"},{"bike_id":"39c81f3f-09c3-4cb8-8a66-6ff0b5f121a2","system_id":"levelo_inurba_marseille","lat":43.299724,"lon":5.371829,"is_reserved":false,"is_disabled":false,"rental_uris":{"android":"levelo://app?vid=39c81f3f-09c3-4cb8-8a66-6ff0b5f121a2","ios":"levelo://app?vid=39c81f3f-09c3-4cb8-8a66-6ff0b5f121a2"},"vehicle_type_id":"4","last_reported":1712858930,"current_range_meters":0,"station_id":"ce4bgr92rcd13ifvqc7g","pricing_plan_id":"cebpf4jnsgd1na2vs0mg"},{"bike_id":"61070cdd-412c-4075-b15e-3c42430c64c4","system_id":"levelo_inurba_marseille","lat":43.29946,"lon":5.3653,"is_reserved":false,"is_disabled":false,"rental_uris":{"android":"levelo://app?vid=61070cdd-412c-4075-b15e-3c42430c64c4","ios":"levelo://app?vid=61070cdd-412c-4075-b15e-3c42430c64c4"},"vehicle_type_id":"4","last_reported":1712858930,"current_range_meters":0,"station_id":"","pricing_plan_id":"cebpf4jnsgd1na2vs0mg"},{"bike_id":"3c009e2c-a621-418d-bf98-e0b97e6f593a","system_id":"levelo_inurba_marseille","lat":43.298433,"lon":5.362774,"is_reserved":false,"is_disabled":false,"rental_uris":{"android":"levelo://app?vid=3c009e2c-a621-418d-bf98-e0b97e6f593a","ios":"levelo://app?vid=3c009e2c-a621-418d-bf98-e0b97e6f593a"},"vehicle_type_id":"4","last_reported":1712858930,"current_range_meters":3600,"station_id":"ce4bgpp2rcd13ifvqc3g","pricing_plan_id":"cebpf4jnsgd1na2vs0mg"},{"bike_id":"645f546c-8326-404b-98b3-54044d447783","system_id":"levelo_inurba_marseille","lat":43.29854,"lon":5.36276,"is_reserved":false,"is_disabled":false,"rental_uris":{"android":"levelo://app?vid=645f546c-8326-404b-98b3-54044d447783","ios":"levelo://app?vid=645f546c-8326-404b-98b3-54044d447783"},"vehicle_type_id":"4","last_reported":1712858930,"current_range_meters":0,"station_id":"ce4bgpp2rcd13ifvqc3g","pricing_plan_id":"cebpf4jnsgd1na2vs0mg"},{"bike_id":"2b5cb94f-3ab6-4a68-a382-2821f6e01859","system_id":"levelo_inurba_marseille","lat":43.29849,"lon":5.36274,"is_reserved":false,"is_disabled":false,"rental_uris":{"android":"levelo://app?vid=2b5cb94f-3ab6-4a68-a382-2821f6e01859","ios":"levelo://app?vid=2b5cb94f-3ab6-4a68-a382-2821f6e01859"},"vehicle_type_id":"4","last_reported":1712858930,"current_range_meters":0,"station_id":"ce4bgpp2rcd13ifvqc3g","pricing_plan_id":"cebpf4jnsgd1na2vs0mg"},{"bike_id":"ac2f331b-a6dd-45e5-9623-ecab6956be57","system_id":"levelo_inurba_marseille","lat":43.298433,"lon":5.362774,"is_reserved":false,"is_disabled":false,"rental_uris":{"android":"levelo://app?vid=ac2f331b-a6dd-45e5-9623-ecab6956be57","ios":"levelo://app?vid=ac2f331b-a6dd-45e5-9623-ecab6956be57"},"vehicle_type_id":"4","last_reported":1712858930,"current_range_meters":18400,"station_id":"ce4bgpp2rcd13ifvqc3g","pricing_plan_id":"cebpf4jnsgd1na2vs0mg"},{"bike_id":"35d340b2-5d58-4460-a4d4-cc34045c647b","system_id":"levelo_inurba_marseille","lat":43.311766,"lon":5.387054,"is_reserved":false,"is_disabled":false,"rental_uris":{"android":"levelo://app?vid=35d340b2-5d58-4460-a4d4-cc34045c647b","ios":"levelo://app?vid=35d340b2-5d58-4460-a4d4-cc34045c647b"},"vehicle_type_id":"4","last_reported":1712858930,"current_range_meters":0,"station_id":"ce4bgv12rcd13ifvqcp0","pricing_plan_id":"cebpf4jnsgd1na2vs0mg"},{"bike_id":"419ecc75-d9b1-411a-8326-108c7f7dc838","system_id":"levelo_inurba_marseille","lat":43.322872,"lon":5.382756,"is_reserved":false,"is_disabled":false,"rental_uris":{"android":"levelo://app?vid=419ecc75-d9b1-411a-8326-108c7f7dc838","ios":"levelo://app?vid=419ecc75-d9b1-411a-8326-108c7f7dc838"},"vehicle_type_id":"4","last_reported":1712858930,"current_range_meters":27200,"station_id":"ce4bhr12rcd13ifvqhqg","pricing_plan_id":"cebpf4jnsgd1na2vs0mg"},{"bike_id":"622889ea-8ffc-4dcb-8d4f-a257ac52e57c","system_id":"levelo_inurba_marseille","lat":43.322872,"lon":5.382756,"is_reserved":false,"is_disabled":false,"rental_uris":{"android":"levelo://app?vid=622889ea-8ffc-4dcb-8d4f-a257ac52e57c","ios":"levelo://app?vid=622889ea-8ffc-4dcb-8d4f-a257ac52e57c"},"vehicle_type_id":"4","last_reported":1712858930,"current_range_meters":7200,"station_id":"ce4bhr12rcd13ifvqhqg","pricing_plan_id":"cebpf4jnsgd1na2vs0mg"},{"bike_id":"df83776a-bfc5-47e7-9b22-6f070ff90bc4","system_id":"levelo_inurba_marseille","lat":43.322872,"lon":5.382756,"is_reserved":false,"is_disabled":false,"rental_uris":{"android":"levelo://app?vid=df83776a-bfc5-47e7-9b22-6f070ff90bc4","ios":"levelo://app?vid=df83776a-bfc5-47e7-9b22-6f070ff90bc4"},"vehicle_type_id":"4","last_reported":1712858930,"current_range_meters":27200,"station_id":"ce4bhr12rcd13ifvqhqg","pricing_plan_id":"cebpf4jnsgd1na2vs0mg"},{"bike_id":"0e73c717-7d72-4151-8b9a-6405cfc2f068","system_id":"levelo_inurba_marseille","lat":43.322872,"lon":5.382756,"is_reserved":false,"is_disabled":false,"rental_uris":{"android":"levelo://app?vid=0e73c717-7d72-4151-8b9a-6405cfc2f068","ios":"levelo://app?vid=0e73c717-7d72-4151-8b9a-6405cfc2f068"},"vehicle_type_id":"4","last_reported":1712858930,"current_range_meters":14000,"station_id":"ce4bhr12rcd13ifvqhqg","pricing_plan_id":"cebpf4jnsgd1na2vs0mg"},{"bike_id":"b67e91dd-8490-4613-8c03-8dc96cca9a9d","system_id":"levelo_inurba_marseille","lat":43.297163,"lon":5.365866,"is_reserved":false,"is_disabled":false,"rental_uris":{"android":"levelo://app?vid=b67e91dd-8490-4613-8c03-8dc96cca9a9d","ios":"levelo://app?vid=b67e91dd-8490-4613-8c03-8dc96cca9a9d"},"vehicle_type_id":"4","last_reported":1712858930,"current_range_meters":25600,"station_id":"ce4bgn12rcd13ifvqbt0","pricing_plan_id":"cebpf4jnsgd1na2vs0mg"},{"bike_id":"9424f6dd-ede3-47a3-af09-99d281b159c7","system_id":"levelo_inurba_marseille","lat":43.317539,"lon":5.388395,"is_reserved":false,"is_disabled":false,"rental_uris":{"android":"levelo://app?vid=9424f6dd-ede3-47a3-af09-99d281b159c7","ios":"levelo://app?vid=9424f6dd-ede3-47a3-af09-99d281b159c7"},"vehicle_type_id":"4","last_reported":1712858930,"current_range_meters":30400,"station_id":"","pricing_plan_id":"cebpf4jnsgd1na2vs0mg"},{"bike_id":"1ed872ee-3462-45e7-927c-717ed4bfcf2d","system_id":"levelo_inurba_marseille","lat":43.2968,"lon":5.37291,"is_reserved":false,"is_disabled":false,"rental_uris":{"android":"levelo://app?vid=1ed872ee-3462-45e7-927c-717ed4bfcf2d","ios":"levelo://app?vid=1ed872ee-3462-45e7-927c-717ed4bfcf2d"},"vehicle_type_id":"4","last_reported":1712858930,"current_range_meters":11600,"station_id":"ce4bgk12rcd13ifvqbj0","pricing_plan_id":"cebpf4jnsgd1na2vs0mg"},{"bike_id":"ca3bf091-e7b9-4240-a038-a5bcc8dc0b0c","system_id":"levelo_inurba_marseille","lat":43.296131,"lon":5.370791,"is_reserved":false,"is_disabled":false,"rental_uris":{"android":"levelo://app?vid=ca3bf091-e7b9-4240-a038-a5bcc8dc0b0c","ios":"levelo://app?vid=ca3bf091-e7b9-4240-a038-a5bcc8dc0b0c"},"vehicle_type_id":"4","last_reported":1712858930,"current_range_meters":31200,"station_id":"ce4bgnh2rcd13ifvqc0g","pricing_plan_id":"cebpf4jnsgd1na2vs0mg"},{"bike_id":"c5902fce-ab38-40fe-819b-89a066c7eea7","system_id":"levelo_inurba_marseille","lat":43.295279,"lon":5.375048,"is_reserved":false,"is_disabled":false,"rental_uris":{"android":"levelo://app?vid=c5902fce-ab38-40fe-819b-89a066c7eea7","ios":"levelo://app?vid=c5902fce-ab38-40fe-819b-89a066c7eea7"},"vehicle_type_id":"4","last_reported":1712858930,"current_range_meters":2000,"station_id":"ce4bgkp2rcd13ifvqbmg","pricing_plan_id":"cebpf4jnsgd1na2vs0mg"},{"bike_id":"f7bed4b0-50b4-4821-8c98-f6af1803c11c","system_id":"levelo_inurba_marseille","lat":43.29573,"lon":5.367355,"is_reserved":false,"is_disabled":false,"rental_uris":{"android":"levelo://app?vid=f7bed4b0-50b4-4821-8c98-f6af1803c11c","ios":"levelo://app?vid=f7bed4b0-50b4-4821-8c98-f6af1803c11c"},"vehicle_type_id":"4","last_reported":1712858930,"current_range_meters":0,"station_id":"ce4bgph2rcd13ifvqc2g","pricing_plan_id":"cebpf4jnsgd1na2vs0mg"},{"bike_id":"6d4319df-26a3-4419-948c-fdb7e408da41","system_id":"levelo_inurba_marseille","lat":43.296131,"lon":5.370791,"is_reserved":false,"is_disabled":false,"rental_uris":{"android":"levelo://app?vid=6d4319df-26a3-4419-948c-fdb7e408da41","ios":"levelo://app?vid=6d4319df-26a3-4419-948c-fdb7e408da41"},"vehicle_type_id":"4","last_reported":1712858930,"current_range_meters":0,"station_id":"ce4bgnh2rcd13ifvqc0g","pricing_plan_id":"cebpf4jnsgd1na2vs0mg"},{"bike_id":"13eed916-2983-4719-8907-0bdd73915d4c","system_id":"levelo_inurba_marseille","lat":43.29602,"lon":5.381084,"is_reserved":false,"is_disabled":false,"rental_uris":{"android":"levelo://app?vid=13eed916-2983-4719-8907-0bdd73915d4c","ios":"levelo://app?vid=13eed916-2983-4719-8907-0bdd73915d4c"},"vehicle_type_id":"4","last_reported":1712858930,"current_range_meters":18000,"station_id":"ce4bgl12rcd13ifvqbo0","pricing_plan_id":"cebpf4jnsgd1na2vs0mg"},{"bike_id":"c1cedd02-a4b9-4d67-a4c9-3f381e3d22a1","system_id":"levelo_inurba_marseille","lat":43.317592,"lon":5.38934,"is_reserved":false,"is_disabled":false,"rental_uris":{"android":"levelo://app?vid=c1cedd02-a4b9-4d67-a4c9-3f381e3d22a1","ios":"levelo://app?vid=c1cedd02-a4b9-4d67-a4c9-3f381e3d22a1"},"vehicle_type_id":"4","last_reported":1712858930,"current_range_meters":6400,"station_id":"ce4bhqp2rcd13ifvqhng","pricing_plan_id":"cebpf4jnsgd1na2vs0mg"},{"bike_id":"afce5200-d046-4615-9873-eec945666f0b","system_id":"levelo_inurba_marseille","lat":43.297124,"lon":5.376939,"is_reserved":false,"is_disabled":false,"rental_uris":{"android":"levelo://app?vid=afce5200-d046-4615-9873-eec945666f0b","ios":"levelo://app?vid=afce5200-d046-4615-9873-eec945666f0b"},"vehicle_type_id":"4","last_reported":1712858930,"current_range_meters":0,"station_id":"ce4bgkh2rcd13ifvqbl0","pricing_plan_id":"cebpf4jnsgd1na2vs0mg"},{"bike_id":"57bcdc19-b476-4f6e-9ce2-f3cdd388ba41","system_id":"levelo_inurba_marseille","lat":43.30953,"lon":5.3902,"is_reserved":false,"is_disabled":false,"rental_uris":{"android":"levelo://app?vid=57bcdc19-b476-4f6e-9ce2-f3cdd388ba41","ios":"levelo://app?vid=57bcdc19-b476-4f6e-9ce2-f3cdd388ba41"},"vehicle_type_id":"4","last_reported":1712858930,"current_range_meters":0,"station_id":"ce4bgup2rcd13ifvqco0","pricing_plan_id":"cebpf4jnsgd1na2vs0mg"},{"bike_id":"f71612c0-0e55-42f8-abac-0facc67e7413","system_id":"levelo_inurba_marseille","lat":43.30958,"lon":5.390214,"is_reserved":false,"is_disabled":false,"rental_uris":{"android":"levelo://app?vid=f71612c0-0e55-42f8-abac-0facc67e7413","ios":"levelo://app?vid=f71612c0-0e55-42f8-abac-0facc67e7413"},"vehicle_type_id":"4","last_reported":1712858930,"current_range_meters":0,"station_id":"ce4bgup2rcd13ifvqco0","pricing_plan_id":"cebpf4jnsgd1na2vs0mg"},{"bike_id":"a04e95de-8879-4547-a861-b2df7db739e0","system_id":"levelo_inurba_marseille","lat":43.299028,"lon":5.381509,"is_reserved":false,"is_disabled":false,"rental_uris":{"android":"levelo://app?vid=a04e95de-8879-4547-a861-b2df7db739e0","ios":"levelo://app?vid=a04e95de-8879-4547-a861-b2df7db739e0"},"vehicle_type_id":"4","last_reported":1712858930,"current_range_meters":0,"station_id":"ce4bgj12rcd13ifvqbc0","pricing_plan_id":"cebpf4jnsgd1na2vs0mg"},{"bike_id":"1058c44e-0a77-4c86-bb35-7d793daa9602","system_id":"levelo_inurba_marseille","lat":43.309589,"lon":5.390258,"is_reserved":false,"is_disabled":false,"rental_uris":{"android":"levelo://app?vid=1058c44e-0a77-4c86-bb35-7d793daa9602","ios":"levelo://app?vid=1058c44e-0a77-4c86-bb35-7d793daa9602"},"vehicle_type_id":"4","last_reported":1712858930,"current_range_meters":0,"station_id":"ce4bgup2rcd13ifvqco0","pricing_plan_id":"cebpf4jnsgd1na2vs0mg"},{"bike_id":"c6a2a7e8-4a54-4733-bbcb-47a85a127b51","system_id":"levelo_inurba_marseille","lat":43.317557,"lon":5.390173,"is_reserved":false,"is_disabled":false,"rental_uris":{"android":"levelo://app?vid=c6a2a7e8-4a54-4733-bbcb-47a85a127b51","ios":"levelo://app?vid=c6a2a7e8-4a54-4733-bbcb-47a85a127b51"},"vehicle_type_id":"4","last_reported":1712858930,"current_range_meters":22400,"station_id":"ce4bhqp2rcd13ifvqhng","pricing_plan_id":"cebpf4jnsgd1na2vs0mg"},{"bike_id":"4c3d7472-024c-4c22-b3d2-4bd4ac3cdeb8","system_id":"levelo_inurba_marseille","lat":43.317557,"lon":5.390173,"is_reserved":false,"is_disabled":false,"rental_uris":{"android":"levelo://app?vid=4c3d7472-024c-4c22-b3d2-4bd4ac3cdeb8","ios":"levelo://app?vid=4c3d7472-024c-4c22-b3d2-4bd4ac3cdeb8"},"vehicle_type_id":"4","last_reported":1712858930,"current_range_meters":17600,"station_id":"ce4bhqp2rcd13ifvqhng","pricing_plan_id":"cebpf4jnsgd1na2vs0mg"},{"bike_id":"99d97c9c-89f6-46e9-b1ef-c7f4f253c720","system_id":"levelo_inurba_marseille","lat":43.317557,"lon":5.390173,"is_reserved":false,"is_disabled":false,"rental_uris":{"android":"levelo://app?vid=99d97c9c-89f6-46e9-b1ef-c7f4f253c720","ios":"levelo://app?vid=99d97c9c-89f6-46e9-b1ef-c7f4f253c720"},"vehicle_type_id":"4","last_reported":1712858930,"current_range_meters":8800,"station_id":"ce4bhqp2rcd13ifvqhng","pricing_plan_id":"cebpf4jnsgd1na2vs0mg"},{"bike_id":"ee0ea967-a1f5-41b3-9f4c-a37ff6a2c357","system_id":"levelo_inurba_marseille","lat":43.317557,"lon":5.390173,"is_reserved":false,"is_disabled":false,"rental_uris":{"android":"levelo://app?vid=ee0ea967-a1f5-41b3-9f4c-a37ff6a2c357","ios":"levelo://app?vid=ee0ea967-a1f5-41b3-9f4c-a37ff6a2c357"},"vehicle_type_id":"4","last_reported":1712858930,"current_range_meters":4400,"station_id":"ce4bhqp2rcd13ifvqhng","pricing_plan_id":"cebpf4jnsgd1na2vs0mg"},{"bike_id":"bb171d16-60fe-47a4-a636-0b4cacea4cb6","system_id":"levelo_inurba_marseille","lat":43.31758,"lon":5.39013,"is_reserved":false,"is_disabled":false,"rental_uris":{"android":"levelo://app?vid=bb171d16-60fe-47a4-a636-0b4cacea4cb6","ios":"levelo://app?vid=bb171d16-60fe-47a4-a636-0b4cacea4cb6"},"vehicle_type_id":"4","last_reported":1712858930,"current_range_meters":10000,"station_id":"ce4bhqp2rcd13ifvqhng","pricing_plan_id":"cebpf4jnsgd1na2vs0mg"},{"bike_id":"5293558c-620f-4b45-8513-eeca02df0f7e","system_id":"levelo_inurba_marseille","lat":43.317557,"lon":5.390173,"is_reserved":false,"is_disabled":false,"rental_uris":{"android":"levelo://app?vid=5293558c-620f-4b45-8513-eeca02df0f7e","ios":"levelo://app?vid=5293558c-620f-4b45-8513-eeca02df0f7e"},"vehicle_type_id":"4","last_reported":1712858930,"current_range_meters":14800,"station_id":"ce4bhqp2rcd13ifvqhng","pricing_plan_id":"cebpf4jnsgd1na2vs0mg"},{"bike_id":"43cc7bad-ac8c-4a78-b1f0-1265d17d32a8","system_id":"levelo_inurba_marseille","lat":43.298092,"lon":5.380996,"is_reserved":false,"is_disabled":false,"rental_uris":{"android":"levelo://app?vid=43cc7bad-ac8c-4a78-b1f0-1265d17d32a8","ios":"levelo://app?vid=43cc7bad-ac8c-4a78-b1f0-1265d17d32a8"},"vehicle_type_id":"4","last_reported":1712858930,"current_range_meters":0,"station_id":"ce4bgip2rcd13ifvqbb0","pricing_plan_id":"cebpf4jnsgd1na2vs0mg"},{"bike_id":"7b2e0fe6-a35c-40d1-b3a2-1cea1bdddb81","system_id":"levelo_inurba_marseille","lat":43.309589,"lon":5.390258,"is_reserved":false,"is_disabled":false,"rental_uris":{"android":"levelo://app?vid=7b2e0fe6-a35c-40d1-b3a2-1cea1bdddb81","ios":"levelo://app?vid=7b2e0fe6-a35c-40d1-b3a2-1cea1bdddb81"},"vehicle_type_id":"4","last_reported":1712858930,"current_range_meters":0,"station_id":"ce4bgup2rcd13ifvqco0","pricing_plan_id":"cebpf4jnsgd1na2vs0mg"},{"bike_id":"0726a7ae-f56a-49d4-8f1f-2bb95ed83cd3","system_id":"levelo_inurba_marseille","lat":43.298037,"lon":5.381066,"is_reserved":false,"is_disabled":false,"rental_uris":{"android":"levelo://app?vid=0726a7ae-f56a-49d4-8f1f-2bb95ed83cd3","ios":"levelo://app?vid=0726a7ae-f56a-49d4-8f1f-2bb95ed83cd3"},"vehicle_type_id":"4","last_reported":1712858930,"current_range_meters":0,"station_id":"ce4bgip2rcd13ifvqbb0","pricing_plan_id":"cebpf4jnsgd1na2vs0mg"},{"bike_id":"d38449fc-bc1f-4d55-81c1-82379281d6a7","system_id":"levelo_inurba_marseille","lat":43.32367,"lon":5.388836,"is_reserved":false,"is_disabled":false,"rental_uris":{"android":"levelo://app?vid=d38449fc-bc1f-4d55-81c1-82379281d6a7","ios":"levelo://app?vid=d38449fc-bc1f-4d55-81c1-82379281d6a7"},"vehicle_type_id":"4","last_reported":1712858930,"current_range_meters":0,"station_id":"ce4bhqp2rcd13ifvqhog","pricing_plan_id":"cebpf4jnsgd1na2vs0mg"},{"bike_id":"9d54e4d7-0a71-4fd9-9fa3-7ed3fc4257c7","system_id":"levelo_inurba_marseille","lat":43.296277,"lon":5.377108,"is_reserved":false,"is_disabled":false,"rental_uris":{"android":"levelo://app?vid=9d54e4d7-0a71-4fd9-9fa3-7ed3fc4257c7","ios":"levelo://app?vid=9d54e4d7-0a71-4fd9-9fa3-7ed3fc4257c7"},"vehicle_type_id":"4","last_reported":1712858930,"current_range_meters":2800,"station_id":"ce4bgi92rcd13ifvqb90","pricing_plan_id":"cebpf4jnsgd1na2vs0mg"},{"bike_id":"4e15dbef-a013-4377-8d9f-549847c889f4","system_id":"levelo_inurba_marseille","lat":43.30429,"lon":5.38883,"is_reserved":false,"is_disabled":false,"rental_uris":{"android":"levelo://app?vid=4e15dbef-a013-4377-8d9f-549847c889f4","ios":"levelo://app?vid=4e15dbef-a013-4377-8d9f-549847c889f4"},"vehicle_type_id":"4","last_reported":1712858930,"current_range_meters":0,"station_id":"ce4bgk12rcd13ifvqbi0","pricing_plan_id":"cebpf4jnsgd1na2vs0mg"},{"bike_id":"a717acb0-9fc7-47c9-a310-40a7e3b7113c","system_id":"levelo_inurba_marseille","lat":43.298037,"lon":5.381066,"is_reserved":false,"is_disabled":false,"rental_uris":{"android":"levelo://app?vid=a717acb0-9fc7-47c9-a310-40a7e3b7113c","ios":"levelo://app?vid=a717acb0-9fc7-47c9-a310-40a7e3b7113c"},"vehicle_type_id":"4","last_reported":1712858930,"current_range_meters":4000,"station_id":"ce4bgip2rcd13ifvqbb0","pricing_plan_id":"cebpf4jnsgd1na2vs0mg"},{"bike_id":"3f06a93f-9130-473c-a486-aed5eaef2d15","system_id":"levelo_inurba_marseille","lat":43.304274,"lon":5.388873,"is_reserved":false,"is_disabled":false,"rental_uris":{"android":"levelo://app?vid=3f06a93f-9130-473c-a486-aed5eaef2d15","ios":"levelo://app?vid=3f06a93f-9130-473c-a486-aed5eaef2d15"},"vehicle_type_id":"4","last_reported":1712858930,"current_range_meters":1200,"station_id":"ce4bgk12rcd13ifvqbi0","pricing_plan_id":"cebpf4jnsgd1na2vs0mg"},{"bike_id":"6f288d11-3f9b-4d2c-a543-2064a38c1a93","system_id":"levelo_inurba_marseille","lat":43.295279,"lon":5.375048,"is_reserved":false,"is_disabled":false,"rental_uris":{"android":"levelo://app?vid=6f288d11-3f9b-4d2c-a543-2064a38c1a93","ios":"levelo://app?vid=6f288d11-3f9b-4d2c-a543-2064a38c1a93"},"vehicle_type_id":"4","last_reported":1712858930,"current_range_meters":0,"station_id":"ce4bgkp2rcd13ifvqbmg","pricing_plan_id":"cebpf4jnsgd1na2vs0mg"},{"bike_id":"4d546a99-5755-4920-9e09-22c7dfb3119d","system_id":"levelo_inurba_marseille","lat":43.298037,"lon":5.381066,"is_reserved":false,"is_disabled":false,"rental_uris":{"android":"levelo://app?vid=4d546a99-5755-4920-9e09-22c7dfb3119d","ios":"levelo://app?vid=4d546a99-5755-4920-9e09-22c7dfb3119d"},"vehicle_type_id":"4","last_reported":1712858930,"current_range_meters":0,"station_id":"ce4bgip2rcd13ifvqbb0","pricing_plan_id":"cebpf4jnsgd1na2vs0mg"},{"bike_id":"3efd4f10-68a7-485e-8df5-ebc651ae6273","system_id":"levelo_inurba_marseille","lat":43.295279,"lon":5.375048,"is_reserved":false,"is_disabled":false,"rental_uris":{"android":"levelo://app?vid=3efd4f10-68a7-485e-8df5-ebc651ae6273","ios":"levelo://app?vid=3efd4f10-68a7-485e-8df5-ebc651ae6273"},"vehicle_type_id":"4","last_reported":1712858930,"current_range_meters":0,"station_id":"ce4bgkp2rcd13ifvqbmg","pricing_plan_id":"cebpf4jnsgd1na2vs0mg"},{"bike_id":"0e301c03-8acc-4090-a435-daf090b7a333","system_id":"levelo_inurba_marseille","lat":43.299724,"lon":5.384848,"is_reserved":false,"is_disabled":false,"rental_uris":{"android":"levelo://app?vid=0e301c03-8acc-4090-a435-daf090b7a333","ios":"levelo://app?vid=0e301c03-8acc-4090-a435-daf090b7a333"},"vehicle_type_id":"4","last_reported":1712858930,"current_range_meters":0,"station_id":"ce4bgj92rcd13ifvqbd0","pricing_plan_id":"cebpf4jnsgd1na2vs0mg"},{"bike_id":"bb753670-550f-414b-b976-b500e95aa736","system_id":"levelo_inurba_marseille","lat":43.299707,"lon":5.384859,"is_reserved":false,"is_disabled":false,"rental_uris":{"android":"levelo://app?vid=bb753670-550f-414b-b976-b500e95aa736","ios":"levelo://app?vid=bb753670-550f-414b-b976-b500e95aa736"},"vehicle_type_id":"4","last_reported":1712858930,"current_range_meters":0,"station_id":"ce4bgj92rcd13ifvqbd0","pricing_plan_id":"cebpf4jnsgd1na2vs0mg"},{"bike_id":"414700fa-06b5-4a10-8cc0-2a590bc71f45","system_id":"levelo_inurba_marseille","lat":43.295279,"lon":5.375048,"is_reserved":false,"is_disabled":false,"rental_uris":{"android":"levelo://app?vid=414700fa-06b5-4a10-8cc0-2a590bc71f45","ios":"levelo://app?vid=414700fa-06b5-4a10-8cc0-2a590bc71f45"},"vehicle_type_id":"4","last_reported":1712858930,"current_range_meters":0,"station_id":"ce4bgkp2rcd13ifvqbmg","pricing_plan_id":"cebpf4jnsgd1na2vs0mg"},{"bike_id":"476dbb01-0f50-4ad9-bc3a-204aecd2f512","system_id":"levelo_inurba_marseille","lat":43.295279,"lon":5.375048,"is_reserved":false,"is_disabled":false,"rental_uris":{"android":"levelo://app?vid=476dbb01-0f50-4ad9-bc3a-204aecd2f512","ios":"levelo://app?vid=476dbb01-0f50-4ad9-bc3a-204aecd2f512"},"vehicle_type_id":"4","last_reported":1712858930,"current_range_meters":0,"station_id":"ce4bgkp2rcd13ifvqbmg","pricing_plan_id":"cebpf4jnsgd1na2vs0mg"},{"bike_id":"2f632d1f-0ea1-4c5f-b7bf-e71bb8d1246f","system_id":"levelo_inurba_marseille","lat":43.296277,"lon":5.377108,"is_reserved":false,"is_disabled":false,"rental_uris":{"android":"levelo://app?vid=2f632d1f-0ea1-4c5f-b7bf-e71bb8d1246f","ios":"levelo://app?vid=2f632d1f-0ea1-4c5f-b7bf-e71bb8d1246f"},"vehicle_type_id":"4","last_reported":1712858930,"current_range_meters":0,"station_id":"ce4bgi92rcd13ifvqb90","pricing_plan_id":"cebpf4jnsgd1na2vs0mg"},{"bike_id":"2f7244d1-5898-4bba-9ef6-33788aad910e","system_id":"levelo_inurba_marseille","lat":43.299708,"lon":5.3849,"is_reserved":false,"is_disabled":false,"rental_uris":{"android":"levelo://app?vid=2f7244d1-5898-4bba-9ef6-33788aad910e","ios":"levelo://app?vid=2f7244d1-5898-4bba-9ef6-33788aad910e"},"vehicle_type_id":"4","last_reported":1712858930,"current_range_meters":0,"station_id":"ce4bgj92rcd13ifvqbd0","pricing_plan_id":"cebpf4jnsgd1na2vs0mg"},{"bike_id":"82a59e98-173b-4d7e-be67-07b11516afd0","system_id":"levelo_inurba_marseille","lat":43.29524,"lon":5.37505,"is_reserved":false,"is_disabled":false,"rental_uris":{"android":"levelo://app?vid=82a59e98-173b-4d7e-be67-07b11516afd0","ios":"levelo://app?vid=82a59e98-173b-4d7e-be67-07b11516afd0"},"vehicle_type_id":"4","last_reported":1712858930,"current_range_meters":17200,"station_id":"ce4bgkp2rcd13ifvqbmg","pricing_plan_id":"cebpf4jnsgd1na2vs0mg"},{"bike_id":"13777abd-391d-4ff7-a90e-8d33d4bba16d","system_id":"levelo_inurba_marseille","lat":43.299724,"lon":5.384848,"is_reserved":false,"is_disabled":false,"rental_uris":{"android":"levelo://app?vid=13777abd-391d-4ff7-a90e-8d33d4bba16d","ios":"levelo://app?vid=13777abd-391d-4ff7-a90e-8d33d4bba16d"},"vehicle_type_id":"4","last_reported":1712858930,"current_range_meters":0,"station_id":"ce4bgj92rcd13ifvqbd0","pricing_plan_id":"cebpf4jnsgd1na2vs0mg"},{"bike_id":"fa08c1ac-791b-4596-8c92-4744afc9e012","system_id":"levelo_inurba_marseille","lat":43.29969,"lon":5.38496,"is_reserved":false,"is_disabled":false,"rental_uris":{"android":"levelo://app?vid=fa08c1ac-791b-4596-8c92-4744afc9e012","ios":"levelo://app?vid=fa08c1ac-791b-4596-8c92-4744afc9e012"},"vehicle_type_id":"4","last_reported":1712858930,"current_range_meters":0,"station_id":"ce4bgj92rcd13ifvqbd0","pricing_plan_id":"cebpf4jnsgd1na2vs0mg"},{"bike_id":"2ec63f15-5a1d-4cb0-84e4-d7532a4f1215","system_id":"levelo_inurba_marseille","lat":43.29519,"lon":5.3751,"is_reserved":false,"is_disabled":false,"rental_uris":{"android":"levelo://app?vid=2ec63f15-5a1d-4cb0-84e4-d7532a4f1215","ios":"levelo://app?vid=2ec63f15-5a1d-4cb0-84e4-d7532a4f1215"},"vehicle_type_id":"4","last_reported":1712858930,"current_range_meters":17200,"station_id":"ce4bgkp2rcd13ifvqbmg","pricing_plan_id":"cebpf4jnsgd1na2vs0mg"},{"bike_id":"f9b8685e-8005-4846-9f5d-fc405818395d","system_id":"levelo_inurba_marseille","lat":43.298614,"lon":5.383524,"is_reserved":false,"is_disabled":false,"rental_uris":{"android":"levelo://app?vid=f9b8685e-8005-4846-9f5d-fc405818395d","ios":"levelo://app?vid=f9b8685e-8005-4846-9f5d-fc405818395d"},"vehicle_type_id":"4","last_reported":1712858930,"current_range_meters":4800,"station_id":"","pricing_plan_id":"cebpf4jnsgd1na2vs0mg"},{"bike_id":"fc5cbf16-ea4c-49c2-a365-cbd103ca1040","system_id":"levelo_inurba_marseille","lat":43.32366,"lon":5.38867,"is_reserved":false,"is_disabled":false,"rental_uris":{"android":"levelo://app?vid=fc5cbf16-ea4c-49c2-a365-cbd103ca1040","ios":"levelo://app?vid=fc5cbf16-ea4c-49c2-a365-cbd103ca1040"},"vehicle_type_id":"4","last_reported":1712858930,"current_range_meters":6400,"station_id":"ce4bhqp2rcd13ifvqhog","pricing_plan_id":"cebpf4jnsgd1na2vs0mg"},{"bike_id":"3ddb0762-77ab-4ea2-9050-e7c05c9c9264","system_id":"levelo_inurba_marseille","lat":43.32367,"lon":5.388836,"is_reserved":false,"is_disabled":false,"rental_uris":{"android":"levelo://app?vid=3ddb0762-77ab-4ea2-9050-e7c05c9c9264","ios":"levelo://app?vid=3ddb0762-77ab-4ea2-9050-e7c05c9c9264"},"vehicle_type_id":"4","last_reported":1712858930,"current_range_meters":800,"station_id":"ce4bhqp2rcd13ifvqhog","pricing_plan_id":"cebpf4jnsgd1na2vs0mg"},{"bike_id":"f4111c77-06a3-4494-818c-995adc7c2c3d","system_id":"levelo_inurba_marseille","lat":43.32367,"lon":5.388836,"is_reserved":false,"is_disabled":false,"rental_uris":{"android":"levelo://app?vid=f4111c77-06a3-4494-818c-995adc7c2c3d","ios":"levelo://app?vid=f4111c77-06a3-4494-818c-995adc7c2c3d"},"vehicle_type_id":"4","last_reported":1712858930,"current_range_meters":0,"station_id":"ce4bhqp2rcd13ifvqhog","pricing_plan_id":"cebpf4jnsgd1na2vs0mg"},{"bike_id":"1d5a3237-552f-4176-a474-2cfb55f167c7","system_id":"levelo_inurba_marseille","lat":43.323684,"lon":5.388788,"is_reserved":false,"is_disabled":false,"rental_uris":{"android":"levelo://app?vid=1d5a3237-552f-4176-a474-2cfb55f167c7","ios":"levelo://app?vid=1d5a3237-552f-4176-a474-2cfb55f167c7"},"vehicle_type_id":"4","last_reported":1712858930,"current_range_meters":0,"station_id":"ce4bhqp2rcd13ifvqhog","pricing_plan_id":"cebpf4jnsgd1na2vs0mg"},{"bike_id":"1a17f07d-3bbb-43ee-9ef1-3f1629aa7092","system_id":"levelo_inurba_marseille","lat":43.323655,"lon":5.388835,"is_reserved":false,"is_disabled":false,"rental_uris":{"android":"levelo://app?vid=1a17f07d-3bbb-43ee-9ef1-3f1629aa7092","ios":"levelo://app?vid=1a17f07d-3bbb-43ee-9ef1-3f1629aa7092"},"vehicle_type_id":"4","last_reported":1712858930,"current_range_meters":20000,"station_id":"ce4bhqp2rcd13ifvqhog","pricing_plan_id":"cebpf4jnsgd1na2vs0mg"},{"bike_id":"39f2b26c-fc00-4b51-a23b-038e8555180f","system_id":"levelo_inurba_marseille","lat":43.32368,"lon":5.38882,"is_reserved":false,"is_disabled":false,"rental_uris":{"android":"levelo://app?vid=39f2b26c-fc00-4b51-a23b-038e8555180f","ios":"levelo://app?vid=39f2b26c-fc00-4b51-a23b-038e8555180f"},"vehicle_type_id":"4","last_reported":1712858930,"current_range_meters":8000,"station_id":"ce4bhqp2rcd13ifvqhog","pricing_plan_id":"cebpf4jnsgd1na2vs0mg"},{"bike_id":"bd152182-7b08-4fc1-8c5f-7b2593ad1850","system_id":"levelo_inurba_marseille","lat":43.323623,"lon":5.388894,"is_reserved":false,"is_disabled":false,"rental_uris":{"android":"levelo://app?vid=bd152182-7b08-4fc1-8c5f-7b2593ad1850","ios":"levelo://app?vid=bd152182-7b08-4fc1-8c5f-7b2593ad1850"},"vehicle_type_id":"4","last_reported":1712858930,"current_range_meters":3200,"station_id":"ce4bhqp2rcd13ifvqhog","pricing_plan_id":"cebpf4jnsgd1na2vs0mg"},{"bike_id":"80442433-8126-474a-954b-db6709f3d1da","system_id":"levelo_inurba_marseille","lat":43.32367,"lon":5.388836,"is_reserved":false,"is_disabled":false,"rental_uris":{"android":"levelo://app?vid=80442433-8126-474a-954b-db6709f3d1da","ios":"levelo://app?vid=80442433-8126-474a-954b-db6709f3d1da"},"vehicle_type_id":"4","last_reported":1712858930,"current_range_meters":2000,"station_id":"ce4bhqp2rcd13ifvqhog","pricing_plan_id":"cebpf4jnsgd1na2vs0mg"},{"bike_id":"6a405df2-ae07-4e71-9003-703804a75c6f","system_id":"levelo_inurba_marseille","lat":43.29602,"lon":5.381084,"is_reserved":false,"is_disabled":false,"rental_uris":{"android":"levelo://app?vid=6a405df2-ae07-4e71-9003-703804a75c6f","ios":"levelo://app?vid=6a405df2-ae07-4e71-9003-703804a75c6f"},"vehicle_type_id":"4","last_reported":1712858930,"current_range_meters":4000,"station_id":"ce4bgl12rcd13ifvqbo0","pricing_plan_id":"cebpf4jnsgd1na2vs0mg"},{"bike_id":"7f875cbd-00f7-4e1f-8a4b-3e21ef0eff05","system_id":"levelo_inurba_marseille","lat":43.293249,"lon":5.371578,"is_reserved":false,"is_disabled":false,"rental_uris":{"android":"levelo://app?vid=7f875cbd-00f7-4e1f-8a4b-3e21ef0eff05","ios":"levelo://app?vid=7f875cbd-00f7-4e1f-8a4b-3e21ef0eff05"},"vehicle_type_id":"4","last_reported":1712858930,"current_range_meters":0,"station_id":"ce4bgh92rcd13ifvqb40","pricing_plan_id":"cebpf4jnsgd1na2vs0mg"},{"bike_id":"708724af-e6ea-4e19-8b27-3877d8687c13","system_id":"levelo_inurba_marseille","lat":43.298037,"lon":5.381066,"is_reserved":false,"is_disabled":false,"rental_uris":{"android":"levelo://app?vid=708724af-e6ea-4e19-8b27-3877d8687c13","ios":"levelo://app?vid=708724af-e6ea-4e19-8b27-3877d8687c13"},"vehicle_type_id":"4","last_reported":1712858930,"current_range_meters":0,"station_id":"ce4bgip2rcd13ifvqbb0","pricing_plan_id":"cebpf4jnsgd1na2vs0mg"},{"bike_id":"641396cf-2b71-43fa-b0cc-129a76cd6beb","system_id":"levelo_inurba_marseille","lat":43.292749,"lon":5.368398,"is_reserved":false,"is_disabled":false,"rental_uris":{"android":"levelo://app?vid=641396cf-2b71-43fa-b0cc-129a76cd6beb","ios":"levelo://app?vid=641396cf-2b71-43fa-b0cc-129a76cd6beb"},"vehicle_type_id":"4","last_reported":1712858930,"current_range_meters":0,"station_id":"ce4bhbp2rcd13ifvqesg","pricing_plan_id":"cebpf4jnsgd1na2vs0mg"},{"bike_id":"7312468f-a485-4f5c-b093-f12fee9f95ce","system_id":"levelo_inurba_marseille","lat":43.293259,"lon":5.371586,"is_reserved":false,"is_disabled":false,"rental_uris":{"android":"levelo://app?vid=7312468f-a485-4f5c-b093-f12fee9f95ce","ios":"levelo://app?vid=7312468f-a485-4f5c-b093-f12fee9f95ce"},"vehicle_type_id":"4","last_reported":1712858930,"current_range_meters":2000,"station_id":"ce4bgh92rcd13ifvqb40","pricing_plan_id":"cebpf4jnsgd1na2vs0mg"},{"bike_id":"3e32fd13-9fb0-4df2-97ac-2ce6013349b6","system_id":"levelo_inurba_marseille","lat":43.293259,"lon":5.371586,"is_reserved":false,"is_disabled":false,"rental_uris":{"android":"levelo://app?vid=3e32fd13-9fb0-4df2-97ac-2ce6013349b6","ios":"levelo://app?vid=3e32fd13-9fb0-4df2-97ac-2ce6013349b6"},"vehicle_type_id":"4","last_reported":1712858930,"current_range_meters":7600,"station_id":"ce4bgh92rcd13ifvqb40","pricing_plan_id":"cebpf4jnsgd1na2vs0mg"},{"bike_id":"332df412-f51f-4372-b4d1-ced938ea62ab","system_id":"levelo_inurba_marseille","lat":43.293259,"lon":5.371586,"is_reserved":false,"is_disabled":false,"rental_uris":{"android":"levelo://app?vid=332df412-f51f-4372-b4d1-ced938ea62ab","ios":"levelo://app?vid=332df412-f51f-4372-b4d1-ced938ea62ab"},"vehicle_type_id":"4","last_reported":1712858930,"current_range_meters":8800,"station_id":"ce4bgh92rcd13ifvqb40","pricing_plan_id":"cebpf4jnsgd1na2vs0mg"},{"bike_id":"11c97d93-dea7-4699-bd14-469e4fb2e10e","system_id":"levelo_inurba_marseille","lat":43.292749,"lon":5.368398,"is_reserved":false,"is_disabled":false,"rental_uris":{"android":"levelo://app?vid=11c97d93-dea7-4699-bd14-469e4fb2e10e","ios":"levelo://app?vid=11c97d93-dea7-4699-bd14-469e4fb2e10e"},"vehicle_type_id":"4","last_reported":1712858930,"current_range_meters":8400,"station_id":"ce4bhbp2rcd13ifvqesg","pricing_plan_id":"cebpf4jnsgd1na2vs0mg"},{"bike_id":"1d68d16e-cf75-42f1-a65c-01128c9a975c","system_id":"levelo_inurba_marseille","lat":43.293249,"lon":5.371578,"is_reserved":false,"is_disabled":false,"rental_uris":{"android":"levelo://app?vid=1d68d16e-cf75-42f1-a65c-01128c9a975c","ios":"levelo://app?vid=1d68d16e-cf75-42f1-a65c-01128c9a975c"},"vehicle_type_id":"4","last_reported":1712858930,"current_range_meters":17200,"station_id":"ce4bgh92rcd13ifvqb40","pricing_plan_id":"cebpf4jnsgd1na2vs0mg"},{"bike_id":"5b64a658-2ac7-48e0-bc6e-071826166a6e","system_id":"levelo_inurba_marseille","lat":43.292516,"lon":5.368625,"is_reserved":false,"is_disabled":false,"rental_uris":{"android":"levelo://app?vid=5b64a658-2ac7-48e0-bc6e-071826166a6e","ios":"levelo://app?vid=5b64a658-2ac7-48e0-bc6e-071826166a6e"},"vehicle_type_id":"4","last_reported":1712858930,"current_range_meters":3200,"station_id":"ce4bhbp2rcd13ifvqesg","pricing_plan_id":"cebpf4jnsgd1na2vs0mg"},{"bike_id":"5cfe6278-1034-45a5-b462-ec08fe3a241c","system_id":"levelo_inurba_marseille","lat":43.295447,"lon":5.38145,"is_reserved":false,"is_disabled":false,"rental_uris":{"android":"levelo://app?vid=5cfe6278-1034-45a5-b462-ec08fe3a241c","ios":"levelo://app?vid=5cfe6278-1034-45a5-b462-ec08fe3a241c"},"vehicle_type_id":"4","last_reported":1712858930,"current_range_meters":400,"station_id":"","pricing_plan_id":"cebpf4jnsgd1na2vs0mg"},{"bike_id":"45550294-f6fd-48f1-9016-5826d0df693a","system_id":"levelo_inurba_marseille","lat":43.293259,"lon":5.371586,"is_reserved":false,"is_disabled":false,"rental_uris":{"android":"levelo://app?vid=45550294-f6fd-48f1-9016-5826d0df693a","ios":"levelo://app?vid=45550294-f6fd-48f1-9016-5826d0df693a"},"vehicle_type_id":"4","last_reported":1712858930,"current_range_meters":16800,"station_id":"ce4bgh92rcd13ifvqb40","pricing_plan_id":"cebpf4jnsgd1na2vs0mg"},{"bike_id":"46f757dc-7d4a-4201-a757-6e4a9aaabb0e","system_id":"levelo_inurba_marseille","lat":43.293009,"lon":5.374584,"is_reserved":false,"is_disabled":false,"rental_uris":{"android":"levelo://app?vid=46f757dc-7d4a-4201-a757-6e4a9aaabb0e","ios":"levelo://app?vid=46f757dc-7d4a-4201-a757-6e4a9aaabb0e"},"vehicle_type_id":"4","last_reported":1712858930,"current_range_meters":9600,"station_id":"ce4bgi12rcd13ifvqb70","pricing_plan_id":"cebpf4jnsgd1na2vs0mg"},{"bike_id":"73f2ceff-9a5c-4357-9eb1-652602fbf482","system_id":"levelo_inurba_marseille","lat":43.305994,"lon":5.393687,"is_reserved":false,"is_disabled":false,"rental_uris":{"android":"levelo://app?vid=73f2ceff-9a5c-4357-9eb1-652602fbf482","ios":"levelo://app?vid=73f2ceff-9a5c-4357-9eb1-652602fbf482"},"vehicle_type_id":"4","last_reported":1712858930,"current_range_meters":17600,"station_id":"ce4bh0p2rcd13ifvqd80","pricing_plan_id":"cebpf4jnsgd1na2vs0mg"},{"bike_id":"49c5584f-aa2e-4155-b7fd-7d1325c0cd75","system_id":"levelo_inurba_marseille","lat":43.302759,"lon":5.400793,"is_reserved":false,"is_disabled":false,"rental_uris":{"android":"levelo://app?vid=49c5584f-aa2e-4155-b7fd-7d1325c0cd75","ios":"levelo://app?vid=49c5584f-aa2e-4155-b7fd-7d1325c0cd75"},"vehicle_type_id":"4","last_reported":1712858930,"current_range_meters":0,"station_id":"ce4bgvh2rcd13ifvqcs0","pricing_plan_id":"cebpf4jnsgd1na2vs0mg"},{"bike_id":"42905191-c2b9-464e-aeb9-ffe376896112","system_id":"levelo_inurba_marseille","lat":43.293009,"lon":5.374584,"is_reserved":false,"is_disabled":false,"rental_uris":{"android":"levelo://app?vid=42905191-c2b9-464e-aeb9-ffe376896112","ios":"levelo://app?vid=42905191-c2b9-464e-aeb9-ffe376896112"},"vehicle_type_id":"4","last_reported":1712858930,"current_range_meters":14400,"station_id":"ce4bgi12rcd13ifvqb70","pricing_plan_id":"cebpf4jnsgd1na2vs0mg"},{"bike_id":"577ae2b5-eff5-437c-aeab-55fc9fb1bca0","system_id":"levelo_inurba_marseille","lat":43.280382,"lon":5.369291,"is_reserved":false,"is_disabled":false,"rental_uris":{"android":"levelo://app?vid=577ae2b5-eff5-437c-aeab-55fc9fb1bca0","ios":"levelo://app?vid=577ae2b5-eff5-437c-aeab-55fc9fb1bca0"},"vehicle_type_id":"4","last_reported":1712858930,"current_range_meters":0,"station_id":"ce4bha12rcd13ifvqef0","pricing_plan_id":"cebpf4jnsgd1na2vs0mg"},{"bike_id":"30280cfd-f111-481b-bd4b-19dbe9f73377","system_id":"levelo_inurba_marseille","lat":43.301939,"lon":5.366286,"is_reserved":false,"is_disabled":false,"rental_uris":{"android":"levelo://app?vid=30280cfd-f111-481b-bd4b-19dbe9f73377","ios":"levelo://app?vid=30280cfd-f111-481b-bd4b-19dbe9f73377"},"vehicle_type_id":"4","last_reported":1712858930,"current_range_meters":0,"station_id":"ce4bgrh2rcd13ifvqc8g","pricing_plan_id":"cebpf4jnsgd1na2vs0mg"},{"bike_id":"8cd52f67-a527-49b2-a429-cbc9da8abd1f","system_id":"levelo_inurba_marseille","lat":43.293009,"lon":5.374584,"is_reserved":false,"is_disabled":false,"rental_uris":{"android":"levelo://app?vid=8cd52f67-a527-49b2-a429-cbc9da8abd1f","ios":"levelo://app?vid=8cd52f67-a527-49b2-a429-cbc9da8abd1f"},"vehicle_type_id":"4","last_reported":1712858930,"current_range_meters":2800,"station_id":"ce4bgi12rcd13ifvqb70","pricing_plan_id":"cebpf4jnsgd1na2vs0mg"},{"bike_id":"5931f533-ddac-4372-ae59-2b9308ce9425","system_id":"levelo_inurba_marseille","lat":43.303002,"lon":5.392142,"is_reserved":false,"is_disabled":false,"rental_uris":{"android":"levelo://app?vid=5931f533-ddac-4372-ae59-2b9308ce9425","ios":"levelo://app?vid=5931f533-ddac-4372-ae59-2b9308ce9425"},"vehicle_type_id":"4","last_reported":1712858930,"current_range_meters":1200,"station_id":"ce4bgkh2rcd13ifvqbk0","pricing_plan_id":"cebpf4jnsgd1na2vs0mg"},{"bike_id":"205b7b2d-cc2d-4048-bb3d-4090463b37fe","system_id":"levelo_inurba_marseille","lat":43.29371,"lon":5.3783,"is_reserved":false,"is_disabled":false,"rental_uris":{"android":"levelo://app?vid=205b7b2d-cc2d-4048-bb3d-4090463b37fe","ios":"levelo://app?vid=205b7b2d-cc2d-4048-bb3d-4090463b37fe"},"vehicle_type_id":"4","last_reported":1712858930,"current_range_meters":0,"station_id":"","pricing_plan_id":"cebpf4jnsgd1na2vs0mg"},{"bike_id":"d2154fde-6f7e-4d3b-a873-c4111f4c0bbd","system_id":"levelo_inurba_marseille","lat":43.303027,"lon":5.392139,"is_reserved":false,"is_disabled":false,"rental_uris":{"android":"levelo://app?vid=d2154fde-6f7e-4d3b-a873-c4111f4c0bbd","ios":"levelo://app?vid=d2154fde-6f7e-4d3b-a873-c4111f4c0bbd"},"vehicle_type_id":"4","last_reported":1712858930,"current_range_meters":0,"station_id":"ce4bgkh2rcd13ifvqbk0","pricing_plan_id":"cebpf4jnsgd1na2vs0mg"},{"bike_id":"8cb025ba-8552-447e-93e4-f9c27a55bccc","system_id":"levelo_inurba_marseille","lat":43.2936,"lon":5.37835,"is_reserved":false,"is_disabled":false,"rental_uris":{"android":"levelo://app?vid=8cb025ba-8552-447e-93e4-f9c27a55bccc","ios":"levelo://app?vid=8cb025ba-8552-447e-93e4-f9c27a55bccc"},"vehicle_type_id":"4","last_reported":1712858930,"current_range_meters":0,"station_id":"ce4bgjh2rcd13ifvqbf0","pricing_plan_id":"cebpf4jnsgd1na2vs0mg"},{"bike_id":"710fc9e9-b317-4835-ad6a-e2cc96ad1e2d","system_id":"levelo_inurba_marseille","lat":43.303002,"lon":5.392142,"is_reserved":false,"is_disabled":false,"rental_uris":{"android":"levelo://app?vid=710fc9e9-b317-4835-ad6a-e2cc96ad1e2d","ios":"levelo://app?vid=710fc9e9-b317-4835-ad6a-e2cc96ad1e2d"},"vehicle_type_id":"4","last_reported":1712858930,"current_range_meters":0,"station_id":"ce4bgkh2rcd13ifvqbk0","pricing_plan_id":"cebpf4jnsgd1na2vs0mg"},{"bike_id":"3131474b-4a2a-44eb-82a1-c5f3b1670680","system_id":"levelo_inurba_marseille","lat":43.30099,"lon":5.39069,"is_reserved":false,"is_disabled":false,"rental_uris":{"android":"levelo://app?vid=3131474b-4a2a-44eb-82a1-c5f3b1670680","ios":"levelo://app?vid=3131474b-4a2a-44eb-82a1-c5f3b1670680"},"vehicle_type_id":"4","last_reported":1712858930,"current_range_meters":2800,"station_id":"ce4bh192rcd13ifvqdb0","pricing_plan_id":"cebpf4jnsgd1na2vs0mg"},{"bike_id":"22fa9dbf-e6b3-4033-b2cb-7a34f5399f92","system_id":"levelo_inurba_marseille","lat":43.300852,"lon":5.390859,"is_reserved":false,"is_disabled":false,"rental_uris":{"android":"levelo://app?vid=22fa9dbf-e6b3-4033-b2cb-7a34f5399f92","ios":"levelo://app?vid=22fa9dbf-e6b3-4033-b2cb-7a34f5399f92"},"vehicle_type_id":"4","last_reported":1712858930,"current_range_meters":4800,"station_id":"ce4bh192rcd13ifvqdb0","pricing_plan_id":"cebpf4jnsgd1na2vs0mg"},{"bike_id":"9e0816ff-21c1-4b70-9c97-3627a97279b7","system_id":"levelo_inurba_marseille","lat":43.273125,"lon":5.390731,"is_reserved":false,"is_disabled":false,"rental_uris":{"android":"levelo://app?vid=9e0816ff-21c1-4b70-9c97-3627a97279b7","ios":"levelo://app?vid=9e0816ff-21c1-4b70-9c97-3627a97279b7"},"vehicle_type_id":"4","last_reported":1712858930,"current_range_meters":3200,"station_id":"ce4bhgp2rcd13ifvqfe0","pricing_plan_id":"cebpf4jnsgd1na2vs0mg"},{"bike_id":"c4b76e37-cb15-49f3-a25d-f33bae9d3e8a","system_id":"levelo_inurba_marseille","lat":43.30353,"lon":5.3928,"is_reserved":false,"is_disabled":false,"rental_uris":{"android":"levelo://app?vid=c4b76e37-cb15-49f3-a25d-f33bae9d3e8a","ios":"levelo://app?vid=c4b76e37-cb15-49f3-a25d-f33bae9d3e8a"},"vehicle_type_id":"4","last_reported":1712858930,"current_range_meters":0,"station_id":"","pricing_plan_id":"cebpf4jnsgd1na2vs0mg"},{"bike_id":"b7427193-2ab7-497f-85b3-ac5251adb5fe","system_id":"levelo_inurba_marseille","lat":43.29228,"lon":5.36051,"is_reserved":false,"is_disabled":false,"rental_uris":{"android":"levelo://app?vid=b7427193-2ab7-497f-85b3-ac5251adb5fe","ios":"levelo://app?vid=b7427193-2ab7-497f-85b3-ac5251adb5fe"},"vehicle_type_id":"4","last_reported":1712858930,"current_range_meters":0,"station_id":"ce4bhbh2rcd13ifvqeqg","pricing_plan_id":"cebpf4jnsgd1na2vs0mg"},{"bike_id":"e4857d21-ed06-46e0-93f3-1f31b2602e49","system_id":"levelo_inurba_marseille","lat":43.292311,"lon":5.360731,"is_reserved":false,"is_disabled":false,"rental_uris":{"android":"levelo://app?vid=e4857d21-ed06-46e0-93f3-1f31b2602e49","ios":"levelo://app?vid=e4857d21-ed06-46e0-93f3-1f31b2602e49"},"vehicle_type_id":"4","last_reported":1712858930,"current_range_meters":0,"station_id":"ce4bhbh2rcd13ifvqeqg","pricing_plan_id":"cebpf4jnsgd1na2vs0mg"},{"bike_id":"6ade45b5-5616-49a2-80a1-f949c85e47fd","system_id":"levelo_inurba_marseille","lat":43.29226,"lon":5.36054,"is_reserved":false,"is_disabled":false,"rental_uris":{"android":"levelo://app?vid=6ade45b5-5616-49a2-80a1-f949c85e47fd","ios":"levelo://app?vid=6ade45b5-5616-49a2-80a1-f949c85e47fd"},"vehicle_type_id":"4","last_reported":1712858930,"current_range_meters":400,"station_id":"ce4bhbh2rcd13ifvqeqg","pricing_plan_id":"cebpf4jnsgd1na2vs0mg"},{"bike_id":"dd260cfe-4f75-4447-9490-083275b692f4","system_id":"levelo_inurba_marseille","lat":43.29221,"lon":5.36051,"is_reserved":false,"is_disabled":false,"rental_uris":{"android":"levelo://app?vid=dd260cfe-4f75-4447-9490-083275b692f4","ios":"levelo://app?vid=dd260cfe-4f75-4447-9490-083275b692f4"},"vehicle_type_id":"4","last_reported":1712858930,"current_range_meters":24400,"station_id":"ce4bhbh2rcd13ifvqeqg","pricing_plan_id":"cebpf4jnsgd1na2vs0mg"},{"bike_id":"78c9c9d9-09de-4319-a91e-c1ee77217ff5","system_id":"levelo_inurba_marseille","lat":43.29219,"lon":5.36046,"is_reserved":false,"is_disabled":false,"rental_uris":{"android":"levelo://app?vid=78c9c9d9-09de-4319-a91e-c1ee77217ff5","ios":"levelo://app?vid=78c9c9d9-09de-4319-a91e-c1ee77217ff5"},"vehicle_type_id":"4","last_reported":1712858930,"current_range_meters":0,"station_id":"ce4bhbh2rcd13ifvqeqg","pricing_plan_id":"cebpf4jnsgd1na2vs0mg"},{"bike_id":"d705d064-9da1-4b36-9675-6c57ee4a7948","system_id":"levelo_inurba_marseille","lat":43.30085,"lon":5.390856,"is_reserved":false,"is_disabled":false,"rental_uris":{"android":"levelo://app?vid=d705d064-9da1-4b36-9675-6c57ee4a7948","ios":"levelo://app?vid=d705d064-9da1-4b36-9675-6c57ee4a7948"},"vehicle_type_id":"4","last_reported":1712858930,"current_range_meters":0,"station_id":"ce4bh192rcd13ifvqdb0","pricing_plan_id":"cebpf4jnsgd1na2vs0mg"},{"bike_id":"431a58da-ea3c-4acd-94f1-733fbe201137","system_id":"levelo_inurba_marseille","lat":43.298764,"lon":5.388973,"is_reserved":false,"is_disabled":false,"rental_uris":{"android":"levelo://app?vid=431a58da-ea3c-4acd-94f1-733fbe201137","ios":"levelo://app?vid=431a58da-ea3c-4acd-94f1-733fbe201137"},"vehicle_type_id":"4","last_reported":1712858930,"current_range_meters":0,"station_id":"ce4bh392rcd13ifvqdl0","pricing_plan_id":"cebpf4jnsgd1na2vs0mg"},{"bike_id":"b1c7b264-38a1-4d97-b202-d8372e250b72","system_id":"levelo_inurba_marseille","lat":43.291675,"lon":5.371583,"is_reserved":false,"is_disabled":false,"rental_uris":{"android":"levelo://app?vid=b1c7b264-38a1-4d97-b202-d8372e250b72","ios":"levelo://app?vid=b1c7b264-38a1-4d97-b202-d8372e250b72"},"vehicle_type_id":"4","last_reported":1712858930,"current_range_meters":4000,"station_id":"ce4bha92rcd13ifvqeh0","pricing_plan_id":"cebpf4jnsgd1na2vs0mg"},{"bike_id":"843345f4-9d45-4aee-9ea3-9e92868f27f5","system_id":"levelo_inurba_marseille","lat":43.313291,"lon":5.396838,"is_reserved":false,"is_disabled":false,"rental_uris":{"android":"levelo://app?vid=843345f4-9d45-4aee-9ea3-9e92868f27f5","ios":"levelo://app?vid=843345f4-9d45-4aee-9ea3-9e92868f27f5"},"vehicle_type_id":"4","last_reported":1712858930,"current_range_meters":0,"station_id":"ce4bgvp2rcd13ifvqcu0","pricing_plan_id":"cebpf4jnsgd1na2vs0mg"},{"bike_id":"64abe3ab-eb4f-4aa7-a407-081340158b12","system_id":"levelo_inurba_marseille","lat":43.308943,"lon":5.396387,"is_reserved":false,"is_disabled":false,"rental_uris":{"android":"levelo://app?vid=64abe3ab-eb4f-4aa7-a407-081340158b12","ios":"levelo://app?vid=64abe3ab-eb4f-4aa7-a407-081340158b12"},"vehicle_type_id":"4","last_reported":1712858930,"current_range_meters":0,"station_id":"ce4bh012rcd13ifvqcv0","pricing_plan_id":"cebpf4jnsgd1na2vs0mg"},{"bike_id":"6c9f87ab-0517-42f7-968f-3b64a8f1232a","system_id":"levelo_inurba_marseille","lat":43.313291,"lon":5.396838,"is_reserved":false,"is_disabled":false,"rental_uris":{"android":"levelo://app?vid=6c9f87ab-0517-42f7-968f-3b64a8f1232a","ios":"levelo://app?vid=6c9f87ab-0517-42f7-968f-3b64a8f1232a"},"vehicle_type_id":"4","last_reported":1712858930,"current_range_meters":0,"station_id":"ce4bgvp2rcd13ifvqcu0","pricing_plan_id":"cebpf4jnsgd1na2vs0mg"},{"bike_id":"c6907595-176b-4b36-8a28-5d1f556863de","system_id":"levelo_inurba_marseille","lat":43.30892,"lon":5.39639,"is_reserved":false,"is_disabled":false,"rental_uris":{"android":"levelo://app?vid=c6907595-176b-4b36-8a28-5d1f556863de","ios":"levelo://app?vid=c6907595-176b-4b36-8a28-5d1f556863de"},"vehicle_type_id":"4","last_reported":1712858930,"current_range_meters":800,"station_id":"ce4bh012rcd13ifvqcv0","pricing_plan_id":"cebpf4jnsgd1na2vs0mg"},{"bike_id":"fb4868a4-1358-45bc-b6aa-10cc91e4d5ee","system_id":"levelo_inurba_marseille","lat":43.31331,"lon":5.39686,"is_reserved":false,"is_disabled":false,"rental_uris":{"android":"levelo://app?vid=fb4868a4-1358-45bc-b6aa-10cc91e4d5ee","ios":"levelo://app?vid=fb4868a4-1358-45bc-b6aa-10cc91e4d5ee"},"vehicle_type_id":"4","last_reported":1712858930,"current_range_meters":15600,"station_id":"ce4bgvp2rcd13ifvqcu0","pricing_plan_id":"cebpf4jnsgd1na2vs0mg"},{"bike_id":"b1ee3f6b-6bb8-4fca-9fb5-108d18b89bed","system_id":"levelo_inurba_marseille","lat":43.313291,"lon":5.396838,"is_reserved":false,"is_disabled":false,"rental_uris":{"android":"levelo://app?vid=b1ee3f6b-6bb8-4fca-9fb5-108d18b89bed","ios":"levelo://app?vid=b1ee3f6b-6bb8-4fca-9fb5-108d18b89bed"},"vehicle_type_id":"4","last_reported":1712858930,"current_range_meters":0,"station_id":"ce4bgvp2rcd13ifvqcu0","pricing_plan_id":"cebpf4jnsgd1na2vs0mg"},{"bike_id":"13901437-8493-4ebe-b826-f1dfe73314df","system_id":"levelo_inurba_marseille","lat":43.29529,"lon":5.385581,"is_reserved":false,"is_disabled":false,"rental_uris":{"android":"levelo://app?vid=13901437-8493-4ebe-b826-f1dfe73314df","ios":"levelo://app?vid=13901437-8493-4ebe-b826-f1dfe73314df"},"vehicle_type_id":"4","last_reported":1712858930,"current_range_meters":0,"station_id":"ce4bgih2rcd13ifvqba0","pricing_plan_id":"cebpf4jnsgd1na2vs0mg"},{"bike_id":"92104243-d400-454c-802d-373f8cac8cd6","system_id":"levelo_inurba_marseille","lat":43.309047,"lon":5.396551,"is_reserved":false,"is_disabled":false,"rental_uris":{"android":"levelo://app?vid=92104243-d400-454c-802d-373f8cac8cd6","ios":"levelo://app?vid=92104243-d400-454c-802d-373f8cac8cd6"},"vehicle_type_id":"4","last_reported":1712858930,"current_range_meters":5600,"station_id":"ce4bh012rcd13ifvqcv0","pricing_plan_id":"cebpf4jnsgd1na2vs0mg"},{"bike_id":"b82f5e8f-a955-48c6-8992-693c880ecdc1","system_id":"levelo_inurba_marseille","lat":43.29539,"lon":5.3854,"is_reserved":false,"is_disabled":false,"rental_uris":{"android":"levelo://app?vid=b82f5e8f-a955-48c6-8992-693c880ecdc1","ios":"levelo://app?vid=b82f5e8f-a955-48c6-8992-693c880ecdc1"},"vehicle_type_id":"4","last_reported":1712858930,"current_range_meters":0,"station_id":"ce4bgih2rcd13ifvqba0","pricing_plan_id":"cebpf4jnsgd1na2vs0mg"},{"bike_id":"daae117a-17b4-4546-9654-1e5ba9d3369e","system_id":"levelo_inurba_marseille","lat":43.29529,"lon":5.385581,"is_reserved":false,"is_disabled":false,"rental_uris":{"android":"levelo://app?vid=daae117a-17b4-4546-9654-1e5ba9d3369e","ios":"levelo://app?vid=daae117a-17b4-4546-9654-1e5ba9d3369e"},"vehicle_type_id":"4","last_reported":1712858930,"current_range_meters":15600,"station_id":"ce4bgih2rcd13ifvqba0","pricing_plan_id":"cebpf4jnsgd1na2vs0mg"},{"bike_id":"bba34456-e37e-4723-97c1-9c205a9fd73d","system_id":"levelo_inurba_marseille","lat":43.29537,"lon":5.38546,"is_reserved":false,"is_disabled":false,"rental_uris":{"android":"levelo://app?vid=bba34456-e37e-4723-97c1-9c205a9fd73d","ios":"levelo://app?vid=bba34456-e37e-4723-97c1-9c205a9fd73d"},"vehicle_type_id":"4","last_reported":1712858930,"current_range_meters":0,"station_id":"ce4bgih2rcd13ifvqba0","pricing_plan_id":"cebpf4jnsgd1na2vs0mg"},{"bike_id":"c0cce262-cafc-496d-a68a-613a876d6b1e","system_id":"levelo_inurba_marseille","lat":43.29534,"lon":5.38543,"is_reserved":false,"is_disabled":false,"rental_uris":{"android":"levelo://app?vid=c0cce262-cafc-496d-a68a-613a876d6b1e","ios":"levelo://app?vid=c0cce262-cafc-496d-a68a-613a876d6b1e"},"vehicle_type_id":"4","last_reported":1712858930,"current_range_meters":0,"station_id":"ce4bhch2rcd13ifvqeug","pricing_plan_id":"cebpf4jnsgd1na2vs0mg"},{"bike_id":"5776435d-0860-4590-94bd-cc3e4f090b7a","system_id":"levelo_inurba_marseille","lat":43.29529,"lon":5.385581,"is_reserved":false,"is_disabled":false,"rental_uris":{"android":"levelo://app?vid=5776435d-0860-4590-94bd-cc3e4f090b7a","ios":"levelo://app?vid=5776435d-0860-4590-94bd-cc3e4f090b7a"},"vehicle_type_id":"4","last_reported":1712858930,"current_range_meters":2000,"station_id":"ce4bgih2rcd13ifvqba0","pricing_plan_id":"cebpf4jnsgd1na2vs0mg"},{"bike_id":"40289d88-f10a-497d-9b8d-1ce81b3b88b2","system_id":"levelo_inurba_marseille","lat":43.29529,"lon":5.385581,"is_reserved":false,"is_disabled":false,"rental_uris":{"android":"levelo://app?vid=40289d88-f10a-497d-9b8d-1ce81b3b88b2","ios":"levelo://app?vid=40289d88-f10a-497d-9b8d-1ce81b3b88b2"},"vehicle_type_id":"4","last_reported":1712858930,"current_range_meters":0,"station_id":"ce4bgih2rcd13ifvqba0","pricing_plan_id":"cebpf4jnsgd1na2vs0mg"},{"bike_id":"8799c22c-fa9d-436b-b997-c46829124033","system_id":"levelo_inurba_marseille","lat":43.29529,"lon":5.385581,"is_reserved":false,"is_disabled":false,"rental_uris":{"android":"levelo://app?vid=8799c22c-fa9d-436b-b997-c46829124033","ios":"levelo://app?vid=8799c22c-fa9d-436b-b997-c46829124033"},"vehicle_type_id":"4","last_reported":1712858930,"current_range_meters":10400,"station_id":"ce4bgih2rcd13ifvqba0","pricing_plan_id":"cebpf4jnsgd1na2vs0mg"},{"bike_id":"641f5e4d-704e-4eb2-b68a-be9c2474ca1f","system_id":"levelo_inurba_marseille","lat":43.29529,"lon":5.385581,"is_reserved":false,"is_disabled":false,"rental_uris":{"android":"levelo://app?vid=641f5e4d-704e-4eb2-b68a-be9c2474ca1f","ios":"levelo://app?vid=641f5e4d-704e-4eb2-b68a-be9c2474ca1f"},"vehicle_type_id":"4","last_reported":1712858930,"current_range_meters":8000,"station_id":"ce4bgih2rcd13ifvqba0","pricing_plan_id":"cebpf4jnsgd1na2vs0mg"},{"bike_id":"34e4f819-02fe-43a8-886a-715fd02260f6","system_id":"levelo_inurba_marseille","lat":43.29529,"lon":5.385581,"is_reserved":false,"is_disabled":false,"rental_uris":{"android":"levelo://app?vid=34e4f819-02fe-43a8-886a-715fd02260f6","ios":"levelo://app?vid=34e4f819-02fe-43a8-886a-715fd02260f6"},"vehicle_type_id":"4","last_reported":1712858930,"current_range_meters":400,"station_id":"ce4bgih2rcd13ifvqba0","pricing_plan_id":"cebpf4jnsgd1na2vs0mg"},{"bike_id":"0236b561-1ed2-4897-a72d-f23179ef3975","system_id":"levelo_inurba_marseille","lat":43.29075,"lon":5.37151,"is_reserved":false,"is_disabled":false,"rental_uris":{"android":"levelo://app?vid=0236b561-1ed2-4897-a72d-f23179ef3975","ios":"levelo://app?vid=0236b561-1ed2-4897-a72d-f23179ef3975"},"vehicle_type_id":"4","last_reported":1712858930,"current_range_meters":0,"station_id":"ce4bh5p2rcd13ifvqe4g","pricing_plan_id":"cebpf4jnsgd1na2vs0mg"},{"bike_id":"7881fec2-4404-458f-bf27-76ee96a632e7","system_id":"levelo_inurba_marseille","lat":43.290206,"lon":5.363765,"is_reserved":false,"is_disabled":false,"rental_uris":{"android":"levelo://app?vid=7881fec2-4404-458f-bf27-76ee96a632e7","ios":"levelo://app?vid=7881fec2-4404-458f-bf27-76ee96a632e7"},"vehicle_type_id":"4","last_reported":1712858930,"current_range_meters":0,"station_id":"ce4bhc92rcd13ifvqetg","pricing_plan_id":"cebpf4jnsgd1na2vs0mg"},{"bike_id":"887e6757-9d97-4704-8533-ac5d417aaf4e","system_id":"levelo_inurba_marseille","lat":43.290104,"lon":5.356111,"is_reserved":false,"is_disabled":false,"rental_uris":{"android":"levelo://app?vid=887e6757-9d97-4704-8533-ac5d417aaf4e","ios":"levelo://app?vid=887e6757-9d97-4704-8533-ac5d417aaf4e"},"vehicle_type_id":"4","last_reported":1712858930,"current_range_meters":0,"station_id":"ce4bhb92rcd13ifvqen0","pricing_plan_id":"cebpf4jnsgd1na2vs0mg"},{"bike_id":"156418ca-8eee-43d4-9395-7c393a8b3b2d","system_id":"levelo_inurba_marseille","lat":43.30217,"lon":5.39463,"is_reserved":false,"is_disabled":false,"rental_uris":{"android":"levelo://app?vid=156418ca-8eee-43d4-9395-7c393a8b3b2d","ios":"levelo://app?vid=156418ca-8eee-43d4-9395-7c393a8b3b2d"},"vehicle_type_id":"4","last_reported":1712858930,"current_range_meters":0,"station_id":"ce4bh0p2rcd13ifvqd70","pricing_plan_id":"cebpf4jnsgd1na2vs0mg"},{"bike_id":"93c79d2a-539c-4314-9cf3-705588d9a021","system_id":"levelo_inurba_marseille","lat":43.290319,"lon":5.375732,"is_reserved":false,"is_disabled":false,"rental_uris":{"android":"levelo://app?vid=93c79d2a-539c-4314-9cf3-705588d9a021","ios":"levelo://app?vid=93c79d2a-539c-4314-9cf3-705588d9a021"},"vehicle_type_id":"4","last_reported":1712858930,"current_range_meters":0,"station_id":"ce4bh692rcd13ifvqe90","pricing_plan_id":"cebpf4jnsgd1na2vs0mg"},{"bike_id":"84031979-4cbf-4bbd-9c18-0b32b7d07a83","system_id":"levelo_inurba_marseille","lat":43.29048,"lon":5.37574,"is_reserved":false,"is_disabled":false,"rental_uris":{"android":"levelo://app?vid=84031979-4cbf-4bbd-9c18-0b32b7d07a83","ios":"levelo://app?vid=84031979-4cbf-4bbd-9c18-0b32b7d07a83"},"vehicle_type_id":"4","last_reported":1712858930,"current_range_meters":12800,"station_id":"ce4bhgh2rcd13ifvqfb0","pricing_plan_id":"cebpf4jnsgd1na2vs0mg"},{"bike_id":"e217bcc0-3371-4ca7-887c-32db526caa15","system_id":"levelo_inurba_marseille","lat":43.29424,"lon":5.38616,"is_reserved":false,"is_disabled":false,"rental_uris":{"android":"levelo://app?vid=e217bcc0-3371-4ca7-887c-32db526caa15","ios":"levelo://app?vid=e217bcc0-3371-4ca7-887c-32db526caa15"},"vehicle_type_id":"4","last_reported":1712858930,"current_range_meters":0,"station_id":"ce4bh2h2rcd13ifvqdh0","pricing_plan_id":"cebpf4jnsgd1na2vs0mg"},{"bike_id":"ac2b9529-a616-4c72-921d-6a34b7710e90","system_id":"levelo_inurba_marseille","lat":43.29424,"lon":5.38619,"is_reserved":false,"is_disabled":false,"rental_uris":{"android":"levelo://app?vid=ac2b9529-a616-4c72-921d-6a34b7710e90","ios":"levelo://app?vid=ac2b9529-a616-4c72-921d-6a34b7710e90"},"vehicle_type_id":"4","last_reported":1712858930,"current_range_meters":1600,"station_id":"ce4bh2h2rcd13ifvqdh0","pricing_plan_id":"cebpf4jnsgd1na2vs0mg"},{"bike_id":"e93e5178-852e-4158-9258-e75ddb6ea1bf","system_id":"levelo_inurba_marseille","lat":43.290327,"lon":5.375711,"is_reserved":false,"is_disabled":false,"rental_uris":{"android":"levelo://app?vid=e93e5178-852e-4158-9258-e75ddb6ea1bf","ios":"levelo://app?vid=e93e5178-852e-4158-9258-e75ddb6ea1bf"},"vehicle_type_id":"4","last_reported":1712858930,"current_range_meters":2800,"station_id":"ce4bh692rcd13ifvqe90","pricing_plan_id":"cebpf4jnsgd1na2vs0mg"},{"bike_id":"0e0fe91a-7170-4dc0-8bbd-51cc7e8a3737","system_id":"levelo_inurba_marseille","lat":43.29422,"lon":5.38617,"is_reserved":false,"is_disabled":false,"rental_uris":{"android":"levelo://app?vid=0e0fe91a-7170-4dc0-8bbd-51cc7e8a3737","ios":"levelo://app?vid=0e0fe91a-7170-4dc0-8bbd-51cc7e8a3737"},"vehicle_type_id":"4","last_reported":1712858930,"current_range_meters":20400,"station_id":"ce4bh2h2rcd13ifvqdh0","pricing_plan_id":"cebpf4jnsgd1na2vs0mg"},{"bike_id":"63ebe8c8-99eb-44f8-939d-92fe1ce285c2","system_id":"levelo_inurba_marseille","lat":43.29422,"lon":5.38619,"is_reserved":false,"is_disabled":false,"rental_uris":{"android":"levelo://app?vid=63ebe8c8-99eb-44f8-939d-92fe1ce285c2","ios":"levelo://app?vid=63ebe8c8-99eb-44f8-939d-92fe1ce285c2"},"vehicle_type_id":"4","last_reported":1712858930,"current_range_meters":2800,"station_id":"ce4bh2h2rcd13ifvqdh0","pricing_plan_id":"cebpf4jnsgd1na2vs0mg"},{"bike_id":"7f650142-0e4c-4d52-a88d-6d901bde7d65","system_id":"levelo_inurba_marseille","lat":43.29422,"lon":5.3862,"is_reserved":false,"is_disabled":false,"rental_uris":{"android":"levelo://app?vid=7f650142-0e4c-4d52-a88d-6d901bde7d65","ios":"levelo://app?vid=7f650142-0e4c-4d52-a88d-6d901bde7d65"},"vehicle_type_id":"4","last_reported":1712858930,"current_range_meters":13200,"station_id":"ce4bh2h2rcd13ifvqdh0","pricing_plan_id":"cebpf4jnsgd1na2vs0mg"},{"bike_id":"6c2a04ab-290e-445c-aaf5-38ae005a476f","system_id":"levelo_inurba_marseille","lat":43.29419,"lon":5.38617,"is_reserved":false,"is_disabled":false,"rental_uris":{"android":"levelo://app?vid=6c2a04ab-290e-445c-aaf5-38ae005a476f","ios":"levelo://app?vid=6c2a04ab-290e-445c-aaf5-38ae005a476f"},"vehicle_type_id":"4","last_reported":1712858930,"current_range_meters":13600,"station_id":"ce4bh2h2rcd13ifvqdh0","pricing_plan_id":"cebpf4jnsgd1na2vs0mg"},{"bike_id":"7b665136-55b8-4399-a951-d5c9dc438791","system_id":"levelo_inurba_marseille","lat":43.29415,"lon":5.38612,"is_reserved":false,"is_disabled":false,"rental_uris":{"android":"levelo://app?vid=7b665136-55b8-4399-a951-d5c9dc438791","ios":"levelo://app?vid=7b665136-55b8-4399-a951-d5c9dc438791"},"vehicle_type_id":"4","last_reported":1712858930,"current_range_meters":0,"station_id":"ce4bh2h2rcd13ifvqdh0","pricing_plan_id":"cebpf4jnsgd1na2vs0mg"},{"bike_id":"9ad509e2-e81e-4ae1-b67a-8dbf5f283fc0","system_id":"levelo_inurba_marseille","lat":43.29421,"lon":5.38624,"is_reserved":false,"is_disabled":false,"rental_uris":{"android":"levelo://app?vid=9ad509e2-e81e-4ae1-b67a-8dbf5f283fc0","ios":"levelo://app?vid=9ad509e2-e81e-4ae1-b67a-8dbf5f283fc0"},"vehicle_type_id":"4","last_reported":1712858930,"current_range_meters":21200,"station_id":"ce4bh2h2rcd13ifvqdh0","pricing_plan_id":"cebpf4jnsgd1na2vs0mg"},{"bike_id":"b9646429-7162-4d32-afca-1dc4d4118194","system_id":"levelo_inurba_marseille","lat":43.29416,"lon":5.38615,"is_reserved":false,"is_disabled":false,"rental_uris":{"android":"levelo://app?vid=b9646429-7162-4d32-afca-1dc4d4118194","ios":"levelo://app?vid=b9646429-7162-4d32-afca-1dc4d4118194"},"vehicle_type_id":"4","last_reported":1712858930,"current_range_meters":0,"station_id":"ce4bh2h2rcd13ifvqdh0","pricing_plan_id":"cebpf4jnsgd1na2vs0mg"},{"bike_id":"5d8e189c-7a18-48bd-bb89-b7eaefb35ab1","system_id":"levelo_inurba_marseille","lat":43.290319,"lon":5.375732,"is_reserved":false,"is_disabled":false,"rental_uris":{"android":"levelo://app?vid=5d8e189c-7a18-48bd-bb89-b7eaefb35ab1","ios":"levelo://app?vid=5d8e189c-7a18-48bd-bb89-b7eaefb35ab1"},"vehicle_type_id":"4","last_reported":1712858930,"current_range_meters":0,"station_id":"ce4bh692rcd13ifvqe90","pricing_plan_id":"cebpf4jnsgd1na2vs0mg"},{"bike_id":"379f0e03-9dcc-42e0-8dc4-d31f74bd2dff","system_id":"levelo_inurba_marseille","lat":43.29419,"lon":5.38621,"is_reserved":false,"is_disabled":false,"rental_uris":{"android":"levelo://app?vid=379f0e03-9dcc-42e0-8dc4-d31f74bd2dff","ios":"levelo://app?vid=379f0e03-9dcc-42e0-8dc4-d31f74bd2dff"},"vehicle_type_id":"4","last_reported":1712858930,"current_range_meters":8000,"station_id":"ce4bh2h2rcd13ifvqdh0","pricing_plan_id":"cebpf4jnsgd1na2vs0mg"},{"bike_id":"7ffa6386-1499-49cb-89e1-201437953b79","system_id":"levelo_inurba_marseille","lat":43.294162,"lon":5.386292,"is_reserved":false,"is_disabled":false,"rental_uris":{"android":"levelo://app?vid=7ffa6386-1499-49cb-89e1-201437953b79","ios":"levelo://app?vid=7ffa6386-1499-49cb-89e1-201437953b79"},"vehicle_type_id":"4","last_reported":1712858930,"current_range_meters":16800,"station_id":"ce4bh2h2rcd13ifvqdh0","pricing_plan_id":"cebpf4jnsgd1na2vs0mg"},{"bike_id":"a888e49a-c89d-488f-b91d-df873d03aed2","system_id":"levelo_inurba_marseille","lat":43.294183,"lon":5.386237,"is_reserved":false,"is_disabled":false,"rental_uris":{"android":"levelo://app?vid=a888e49a-c89d-488f-b91d-df873d03aed2","ios":"levelo://app?vid=a888e49a-c89d-488f-b91d-df873d03aed2"},"vehicle_type_id":"4","last_reported":1712858930,"current_range_meters":29600,"station_id":"ce4bh2h2rcd13ifvqdh0","pricing_plan_id":"cebpf4jnsgd1na2vs0mg"},{"bike_id":"425f26f8-c104-41b4-928a-d370a90498ea","system_id":"levelo_inurba_marseille","lat":43.29418,"lon":5.38624,"is_reserved":false,"is_disabled":false,"rental_uris":{"android":"levelo://app?vid=425f26f8-c104-41b4-928a-d370a90498ea","ios":"levelo://app?vid=425f26f8-c104-41b4-928a-d370a90498ea"},"vehicle_type_id":"4","last_reported":1712858930,"current_range_meters":0,"station_id":"ce4bh2h2rcd13ifvqdh0","pricing_plan_id":"cebpf4jnsgd1na2vs0mg"},{"bike_id":"9ebfbeee-f36c-4a28-85b8-630e084b2692","system_id":"levelo_inurba_marseille","lat":43.294162,"lon":5.386292,"is_reserved":false,"is_disabled":false,"rental_uris":{"android":"levelo://app?vid=9ebfbeee-f36c-4a28-85b8-630e084b2692","ios":"levelo://app?vid=9ebfbeee-f36c-4a28-85b8-630e084b2692"},"vehicle_type_id":"4","last_reported":1712858930,"current_range_meters":0,"station_id":"ce4bh2h2rcd13ifvqdh0","pricing_plan_id":"cebpf4jnsgd1na2vs0mg"},{"bike_id":"7f1cfb57-6199-4bed-85a1-93c2f4bc9636","system_id":"levelo_inurba_marseille","lat":43.29419,"lon":5.38628,"is_reserved":false,"is_disabled":false,"rental_uris":{"android":"levelo://app?vid=7f1cfb57-6199-4bed-85a1-93c2f4bc9636","ios":"levelo://app?vid=7f1cfb57-6199-4bed-85a1-93c2f4bc9636"},"vehicle_type_id":"4","last_reported":1712858930,"current_range_meters":14000,"station_id":"ce4bh2h2rcd13ifvqdh0","pricing_plan_id":"cebpf4jnsgd1na2vs0mg"},{"bike_id":"c830862e-d8f5-45ff-bb51-7a0dd738ed3c","system_id":"levelo_inurba_marseille","lat":43.29415,"lon":5.38621,"is_reserved":false,"is_disabled":false,"rental_uris":{"android":"levelo://app?vid=c830862e-d8f5-45ff-bb51-7a0dd738ed3c","ios":"levelo://app?vid=c830862e-d8f5-45ff-bb51-7a0dd738ed3c"},"vehicle_type_id":"4","last_reported":1712858930,"current_range_meters":0,"station_id":"ce4bh2h2rcd13ifvqdh0","pricing_plan_id":"cebpf4jnsgd1na2vs0mg"},{"bike_id":"1d5ccd68-bfd8-4780-9f18-5d605c610361","system_id":"levelo_inurba_marseille","lat":43.29415,"lon":5.38622,"is_reserved":false,"is_disabled":false,"rental_uris":{"android":"levelo://app?vid=1d5ccd68-bfd8-4780-9f18-5d605c610361","ios":"levelo://app?vid=1d5ccd68-bfd8-4780-9f18-5d605c610361"},"vehicle_type_id":"4","last_reported":1712858930,"current_range_meters":3600,"station_id":"ce4bh2h2rcd13ifvqdh0","pricing_plan_id":"cebpf4jnsgd1na2vs0mg"},{"bike_id":"448d7fb8-c81e-4c6f-b690-60cba49d43b1","system_id":"levelo_inurba_marseille","lat":43.289184,"lon":5.366408,"is_reserved":false,"is_disabled":false,"rental_uris":{"android":"levelo://app?vid=448d7fb8-c81e-4c6f-b690-60cba49d43b1","ios":"levelo://app?vid=448d7fb8-c81e-4c6f-b690-60cba49d43b1"},"vehicle_type_id":"4","last_reported":1712858930,"current_range_meters":0,"station_id":"ce4bhap2rcd13ifvqek0","pricing_plan_id":"cebpf4jnsgd1na2vs0mg"},{"bike_id":"276923c0-8aa5-4bcd-a3ad-d407ed5fd908","system_id":"levelo_inurba_marseille","lat":43.29415,"lon":5.38626,"is_reserved":false,"is_disabled":false,"rental_uris":{"android":"levelo://app?vid=276923c0-8aa5-4bcd-a3ad-d407ed5fd908","ios":"levelo://app?vid=276923c0-8aa5-4bcd-a3ad-d407ed5fd908"},"vehicle_type_id":"4","last_reported":1712858930,"current_range_meters":18400,"station_id":"ce4bh2h2rcd13ifvqdh0","pricing_plan_id":"cebpf4jnsgd1na2vs0mg"},{"bike_id":"568603b0-fe50-4570-982a-139ee392fccb","system_id":"levelo_inurba_marseille","lat":43.289184,"lon":5.366408,"is_reserved":false,"is_disabled":false,"rental_uris":{"android":"levelo://app?vid=568603b0-fe50-4570-982a-139ee392fccb","ios":"levelo://app?vid=568603b0-fe50-4570-982a-139ee392fccb"},"vehicle_type_id":"4","last_reported":1712858930,"current_range_meters":21600,"station_id":"ce4bhap2rcd13ifvqek0","pricing_plan_id":"cebpf4jnsgd1na2vs0mg"},{"bike_id":"cd88d812-52aa-45b8-980a-4966238f07b9","system_id":"levelo_inurba_marseille","lat":43.290103,"lon":5.356114,"is_reserved":false,"is_disabled":false,"rental_uris":{"android":"levelo://app?vid=cd88d812-52aa-45b8-980a-4966238f07b9","ios":"levelo://app?vid=cd88d812-52aa-45b8-980a-4966238f07b9"},"vehicle_type_id":"4","last_reported":1712858930,"current_range_meters":3200,"station_id":"ce4bhb92rcd13ifvqen0","pricing_plan_id":"cebpf4jnsgd1na2vs0mg"},{"bike_id":"4b07b5ee-7703-4777-8dfc-f9262d06b967","system_id":"levelo_inurba_marseille","lat":43.28938,"lon":5.36631,"is_reserved":false,"is_disabled":false,"rental_uris":{"android":"levelo://app?vid=4b07b5ee-7703-4777-8dfc-f9262d06b967","ios":"levelo://app?vid=4b07b5ee-7703-4777-8dfc-f9262d06b967"},"vehicle_type_id":"4","last_reported":1712858930,"current_range_meters":0,"station_id":"ce4bhap2rcd13ifvqek0","pricing_plan_id":"cebpf4jnsgd1na2vs0mg"},{"bike_id":"9f7ef2f5-bb8a-4f84-8068-c3a455f69f81","system_id":"levelo_inurba_marseille","lat":43.293976,"lon":5.386128,"is_reserved":false,"is_disabled":false,"rental_uris":{"android":"levelo://app?vid=9f7ef2f5-bb8a-4f84-8068-c3a455f69f81","ios":"levelo://app?vid=9f7ef2f5-bb8a-4f84-8068-c3a455f69f81"},"vehicle_type_id":"4","last_reported":1712858930,"current_range_meters":12800,"station_id":"ce4bh2h2rcd13ifvqdh0","pricing_plan_id":"cebpf4jnsgd1na2vs0mg"},{"bike_id":"2840a4ab-37d2-4781-a82d-6bf43bfeb6da","system_id":"levelo_inurba_marseille","lat":43.289184,"lon":5.366408,"is_reserved":false,"is_disabled":false,"rental_uris":{"android":"levelo://app?vid=2840a4ab-37d2-4781-a82d-6bf43bfeb6da","ios":"levelo://app?vid=2840a4ab-37d2-4781-a82d-6bf43bfeb6da"},"vehicle_type_id":"4","last_reported":1712858930,"current_range_meters":1600,"station_id":"ce4bhap2rcd13ifvqek0","pricing_plan_id":"cebpf4jnsgd1na2vs0mg"},{"bike_id":"f6cf7dbe-f4be-44ab-b13c-5cba366e6d14","system_id":"levelo_inurba_marseille","lat":43.29277,"lon":5.38432,"is_reserved":false,"is_disabled":false,"rental_uris":{"android":"levelo://app?vid=f6cf7dbe-f4be-44ab-b13c-5cba366e6d14","ios":"levelo://app?vid=f6cf7dbe-f4be-44ab-b13c-5cba366e6d14"},"vehicle_type_id":"4","last_reported":1712858930,"current_range_meters":6000,"station_id":"ce4bh692rcd13ifvqea0","pricing_plan_id":"cebpf4jnsgd1na2vs0mg"},{"bike_id":"9d69bc32-1341-4cc2-969f-bdfdf7bc2aaf","system_id":"levelo_inurba_marseille","lat":43.292644,"lon":5.384257,"is_reserved":false,"is_disabled":false,"rental_uris":{"android":"levelo://app?vid=9d69bc32-1341-4cc2-969f-bdfdf7bc2aaf","ios":"levelo://app?vid=9d69bc32-1341-4cc2-969f-bdfdf7bc2aaf"},"vehicle_type_id":"4","last_reported":1712858930,"current_range_meters":12800,"station_id":"ce4bh692rcd13ifvqea0","pricing_plan_id":"cebpf4jnsgd1na2vs0mg"},{"bike_id":"0918dbb3-f82e-46ae-8f30-b627d16d3684","system_id":"levelo_inurba_marseille","lat":43.29276,"lon":5.38438,"is_reserved":false,"is_disabled":false,"rental_uris":{"android":"levelo://app?vid=0918dbb3-f82e-46ae-8f30-b627d16d3684","ios":"levelo://app?vid=0918dbb3-f82e-46ae-8f30-b627d16d3684"},"vehicle_type_id":"4","last_reported":1712858930,"current_range_meters":0,"station_id":"ce4bh692rcd13ifvqea0","pricing_plan_id":"cebpf4jnsgd1na2vs0mg"},{"bike_id":"859ebbdf-c69a-4379-995f-17f4044a31bd","system_id":"levelo_inurba_marseille","lat":43.292776,"lon":5.384424,"is_reserved":false,"is_disabled":false,"rental_uris":{"android":"levelo://app?vid=859ebbdf-c69a-4379-995f-17f4044a31bd","ios":"levelo://app?vid=859ebbdf-c69a-4379-995f-17f4044a31bd"},"vehicle_type_id":"4","last_reported":1712858930,"current_range_meters":400,"station_id":"ce4bh692rcd13ifvqea0","pricing_plan_id":"cebpf4jnsgd1na2vs0mg"},{"bike_id":"17e2b44a-146c-4ba4-b0b2-a0b5e1974767","system_id":"levelo_inurba_marseille","lat":43.292644,"lon":5.384257,"is_reserved":false,"is_disabled":false,"rental_uris":{"android":"levelo://app?vid=17e2b44a-146c-4ba4-b0b2-a0b5e1974767","ios":"levelo://app?vid=17e2b44a-146c-4ba4-b0b2-a0b5e1974767"},"vehicle_type_id":"4","last_reported":1712858930,"current_range_meters":7200,"station_id":"ce4bh692rcd13ifvqea0","pricing_plan_id":"cebpf4jnsgd1na2vs0mg"},{"bike_id":"0b83c8b7-44d2-4a8e-9ff8-d35313913bbf","system_id":"levelo_inurba_marseille","lat":43.292644,"lon":5.384257,"is_reserved":false,"is_disabled":false,"rental_uris":{"android":"levelo://app?vid=0b83c8b7-44d2-4a8e-9ff8-d35313913bbf","ios":"levelo://app?vid=0b83c8b7-44d2-4a8e-9ff8-d35313913bbf"},"vehicle_type_id":"4","last_reported":1712858930,"current_range_meters":10800,"station_id":"ce4bh692rcd13ifvqea0","pricing_plan_id":"cebpf4jnsgd1na2vs0mg"},{"bike_id":"c7957145-a49a-4f7f-9516-181292161a9b","system_id":"levelo_inurba_marseille","lat":43.304274,"lon":5.397513,"is_reserved":false,"is_disabled":false,"rental_uris":{"android":"levelo://app?vid=c7957145-a49a-4f7f-9516-181292161a9b","ios":"levelo://app?vid=c7957145-a49a-4f7f-9516-181292161a9b"},"vehicle_type_id":"4","last_reported":1712858930,"current_range_meters":0,"station_id":"ce4bh092rcd13ifvqd20","pricing_plan_id":"cebpf4jnsgd1na2vs0mg"},{"bike_id":"15ef4fea-b864-475b-abde-cdaef55353eb","system_id":"levelo_inurba_marseille","lat":43.29271,"lon":5.38436,"is_reserved":false,"is_disabled":false,"rental_uris":{"android":"levelo://app?vid=15ef4fea-b864-475b-abde-cdaef55353eb","ios":"levelo://app?vid=15ef4fea-b864-475b-abde-cdaef55353eb"},"vehicle_type_id":"4","last_reported":1712858930,"current_range_meters":400,"station_id":"ce4bh692rcd13ifvqea0","pricing_plan_id":"cebpf4jnsgd1na2vs0mg"},{"bike_id":"7ad3b367-b8f8-4941-b5d2-68129249c95c","system_id":"levelo_inurba_marseille","lat":43.292642,"lon":5.384254,"is_reserved":false,"is_disabled":false,"rental_uris":{"android":"levelo://app?vid=7ad3b367-b8f8-4941-b5d2-68129249c95c","ios":"levelo://app?vid=7ad3b367-b8f8-4941-b5d2-68129249c95c"},"vehicle_type_id":"4","last_reported":1712858930,"current_range_meters":0,"station_id":"ce4bh692rcd13ifvqea0","pricing_plan_id":"cebpf4jnsgd1na2vs0mg"},{"bike_id":"f35ecdbf-94cf-4e37-b423-56f301098d20","system_id":"levelo_inurba_marseille","lat":43.292644,"lon":5.384257,"is_reserved":false,"is_disabled":false,"rental_uris":{"android":"levelo://app?vid=f35ecdbf-94cf-4e37-b423-56f301098d20","ios":"levelo://app?vid=f35ecdbf-94cf-4e37-b423-56f301098d20"},"vehicle_type_id":"4","last_reported":1712858930,"current_range_meters":0,"station_id":"ce4bh692rcd13ifvqea0","pricing_plan_id":"cebpf4jnsgd1na2vs0mg"},{"bike_id":"952db9a1-ab51-4cc9-b426-1cca8d7a2996","system_id":"levelo_inurba_marseille","lat":43.292642,"lon":5.384254,"is_reserved":false,"is_disabled":false,"rental_uris":{"android":"levelo://app?vid=952db9a1-ab51-4cc9-b426-1cca8d7a2996","ios":"levelo://app?vid=952db9a1-ab51-4cc9-b426-1cca8d7a2996"},"vehicle_type_id":"4","last_reported":1712858930,"current_range_meters":2000,"station_id":"ce4bh692rcd13ifvqea0","pricing_plan_id":"cebpf4jnsgd1na2vs0mg"},{"bike_id":"4172e077-fbca-4c4a-84dc-e0ef4e7b93fc","system_id":"levelo_inurba_marseille","lat":43.292567,"lon":5.384064,"is_reserved":false,"is_disabled":false,"rental_uris":{"android":"levelo://app?vid=4172e077-fbca-4c4a-84dc-e0ef4e7b93fc","ios":"levelo://app?vid=4172e077-fbca-4c4a-84dc-e0ef4e7b93fc"},"vehicle_type_id":"4","last_reported":1712858930,"current_range_meters":7600,"station_id":"ce4bh692rcd13ifvqea0","pricing_plan_id":"cebpf4jnsgd1na2vs0mg"},{"bike_id":"3a325f11-004c-498b-8da2-18430ffed96b","system_id":"levelo_inurba_marseille","lat":43.29274,"lon":5.38445,"is_reserved":false,"is_disabled":false,"rental_uris":{"android":"levelo://app?vid=3a325f11-004c-498b-8da2-18430ffed96b","ios":"levelo://app?vid=3a325f11-004c-498b-8da2-18430ffed96b"},"vehicle_type_id":"4","last_reported":1712858930,"current_range_meters":0,"station_id":"ce4bh692rcd13ifvqea0","pricing_plan_id":"cebpf4jnsgd1na2vs0mg"},{"bike_id":"c51c5dc8-6d47-4acc-98b7-68c738fef49b","system_id":"levelo_inurba_marseille","lat":43.29273,"lon":5.38444,"is_reserved":false,"is_disabled":false,"rental_uris":{"android":"levelo://app?vid=c51c5dc8-6d47-4acc-98b7-68c738fef49b","ios":"levelo://app?vid=c51c5dc8-6d47-4acc-98b7-68c738fef49b"},"vehicle_type_id":"4","last_reported":1712858930,"current_range_meters":5200,"station_id":"ce4bh692rcd13ifvqea0","pricing_plan_id":"cebpf4jnsgd1na2vs0mg"},{"bike_id":"25e3da33-a126-41c1-8b04-c70a1dcd4f85","system_id":"levelo_inurba_marseille","lat":43.292642,"lon":5.384254,"is_reserved":false,"is_disabled":false,"rental_uris":{"android":"levelo://app?vid=25e3da33-a126-41c1-8b04-c70a1dcd4f85","ios":"levelo://app?vid=25e3da33-a126-41c1-8b04-c70a1dcd4f85"},"vehicle_type_id":"4","last_reported":1712858930,"current_range_meters":11200,"station_id":"ce4bh692rcd13ifvqea0","pricing_plan_id":"cebpf4jnsgd1na2vs0mg"},{"bike_id":"2a27ab49-f53e-4bea-a5ca-0513e1146a96","system_id":"levelo_inurba_marseille","lat":43.304296,"lon":5.397513,"is_reserved":false,"is_disabled":false,"rental_uris":{"android":"levelo://app?vid=2a27ab49-f53e-4bea-a5ca-0513e1146a96","ios":"levelo://app?vid=2a27ab49-f53e-4bea-a5ca-0513e1146a96"},"vehicle_type_id":"4","last_reported":1712858930,"current_range_meters":400,"station_id":"ce4bh092rcd13ifvqd20","pricing_plan_id":"cebpf4jnsgd1na2vs0mg"},{"bike_id":"dba7d3fb-f9d0-4e27-a884-9c99868314ca","system_id":"levelo_inurba_marseille","lat":43.29271,"lon":5.38445,"is_reserved":false,"is_disabled":false,"rental_uris":{"android":"levelo://app?vid=dba7d3fb-f9d0-4e27-a884-9c99868314ca","ios":"levelo://app?vid=dba7d3fb-f9d0-4e27-a884-9c99868314ca"},"vehicle_type_id":"4","last_reported":1712858930,"current_range_meters":14400,"station_id":"ce4bh692rcd13ifvqea0","pricing_plan_id":"cebpf4jnsgd1na2vs0mg"},{"bike_id":"54422edd-b7e8-442f-938e-982a208b2a54","system_id":"levelo_inurba_marseille","lat":43.292642,"lon":5.384254,"is_reserved":false,"is_disabled":false,"rental_uris":{"android":"levelo://app?vid=54422edd-b7e8-442f-938e-982a208b2a54","ios":"levelo://app?vid=54422edd-b7e8-442f-938e-982a208b2a54"},"vehicle_type_id":"4","last_reported":1712858930,"current_range_meters":0,"station_id":"ce4bh692rcd13ifvqea0","pricing_plan_id":"cebpf4jnsgd1na2vs0mg"},{"bike_id":"17eae7d0-a553-4fd5-aa3e-262abc782b9e","system_id":"levelo_inurba_marseille","lat":43.292642,"lon":5.384254,"is_reserved":false,"is_disabled":false,"rental_uris":{"android":"levelo://app?vid=17eae7d0-a553-4fd5-aa3e-262abc782b9e","ios":"levelo://app?vid=17eae7d0-a553-4fd5-aa3e-262abc782b9e"},"vehicle_type_id":"4","last_reported":1712858930,"current_range_meters":4400,"station_id":"ce4bh692rcd13ifvqea0","pricing_plan_id":"cebpf4jnsgd1na2vs0mg"},{"bike_id":"d891f4ae-0a17-4d9a-9f49-f97627869259","system_id":"levelo_inurba_marseille","lat":43.295169,"lon":5.390426,"is_reserved":false,"is_disabled":false,"rental_uris":{"android":"levelo://app?vid=d891f4ae-0a17-4d9a-9f49-f97627869259","ios":"levelo://app?vid=d891f4ae-0a17-4d9a-9f49-f97627869259"},"vehicle_type_id":"4","last_reported":1712858930,"current_range_meters":20800,"station_id":"ce4bh3p2rcd13ifvqdp0","pricing_plan_id":"cebpf4jnsgd1na2vs0mg"},{"bike_id":"1e22525a-4cac-4433-8def-66c12131dd20","system_id":"levelo_inurba_marseille","lat":43.292642,"lon":5.384254,"is_reserved":false,"is_disabled":false,"rental_uris":{"android":"levelo://app?vid=1e22525a-4cac-4433-8def-66c12131dd20","ios":"levelo://app?vid=1e22525a-4cac-4433-8def-66c12131dd20"},"vehicle_type_id":"4","last_reported":1712858930,"current_range_meters":2800,"station_id":"ce4bh692rcd13ifvqea0","pricing_plan_id":"cebpf4jnsgd1na2vs0mg"},{"bike_id":"3c2d914c-217c-4f73-b4e9-b0d817e02f5e","system_id":"levelo_inurba_marseille","lat":43.292642,"lon":5.384254,"is_reserved":false,"is_disabled":false,"rental_uris":{"android":"levelo://app?vid=3c2d914c-217c-4f73-b4e9-b0d817e02f5e","ios":"levelo://app?vid=3c2d914c-217c-4f73-b4e9-b0d817e02f5e"},"vehicle_type_id":"4","last_reported":1712858930,"current_range_meters":9600,"station_id":"ce4bh692rcd13ifvqea0","pricing_plan_id":"cebpf4jnsgd1na2vs0mg"},{"bike_id":"15eb301b-14ed-4adb-96a7-61f75781aa9b","system_id":"levelo_inurba_marseille","lat":43.292641,"lon":5.384396,"is_reserved":false,"is_disabled":false,"rental_uris":{"android":"levelo://app?vid=15eb301b-14ed-4adb-96a7-61f75781aa9b","ios":"levelo://app?vid=15eb301b-14ed-4adb-96a7-61f75781aa9b"},"vehicle_type_id":"4","last_reported":1712858930,"current_range_meters":0,"station_id":"ce4bh692rcd13ifvqea0","pricing_plan_id":"cebpf4jnsgd1na2vs0mg"},{"bike_id":"4cfc7ccf-000d-4216-9afa-daca901c0e80","system_id":"levelo_inurba_marseille","lat":43.29257,"lon":5.38427,"is_reserved":false,"is_disabled":false,"rental_uris":{"android":"levelo://app?vid=4cfc7ccf-000d-4216-9afa-daca901c0e80","ios":"levelo://app?vid=4cfc7ccf-000d-4216-9afa-daca901c0e80"},"vehicle_type_id":"4","last_reported":1712858930,"current_range_meters":6000,"station_id":"ce4bh692rcd13ifvqea0","pricing_plan_id":"cebpf4jnsgd1na2vs0mg"},{"bike_id":"c4513b57-778d-4619-b4b3-4872f2e70da3","system_id":"levelo_inurba_marseille","lat":43.292626,"lon":5.384395,"is_reserved":false,"is_disabled":false,"rental_uris":{"android":"levelo://app?vid=c4513b57-778d-4619-b4b3-4872f2e70da3","ios":"levelo://app?vid=c4513b57-778d-4619-b4b3-4872f2e70da3"},"vehicle_type_id":"4","last_reported":1712858930,"current_range_meters":1200,"station_id":"ce4bh692rcd13ifvqea0","pricing_plan_id":"cebpf4jnsgd1na2vs0mg"},{"bike_id":"b5f34276-2200-450d-a6f3-d320d48ab6b3","system_id":"levelo_inurba_marseille","lat":43.292643,"lon":5.384444,"is_reserved":false,"is_disabled":false,"rental_uris":{"android":"levelo://app?vid=b5f34276-2200-450d-a6f3-d320d48ab6b3","ios":"levelo://app?vid=b5f34276-2200-450d-a6f3-d320d48ab6b3"},"vehicle_type_id":"4","last_reported":1712858930,"current_range_meters":0,"station_id":"ce4bh692rcd13ifvqea0","pricing_plan_id":"cebpf4jnsgd1na2vs0mg"},{"bike_id":"69d6c180-f7b0-467e-9611-3b569602614e","system_id":"levelo_inurba_marseille","lat":43.29259,"lon":5.38436,"is_reserved":false,"is_disabled":false,"rental_uris":{"android":"levelo://app?vid=69d6c180-f7b0-467e-9611-3b569602614e","ios":"levelo://app?vid=69d6c180-f7b0-467e-9611-3b569602614e"},"vehicle_type_id":"4","last_reported":1712858930,"current_range_meters":0,"station_id":"ce4bh692rcd13ifvqea0","pricing_plan_id":"cebpf4jnsgd1na2vs0mg"},{"bike_id":"c9271dc5-2a69-45ac-9ba8-b54fba52ce23","system_id":"levelo_inurba_marseille","lat":43.292642,"lon":5.384254,"is_reserved":false,"is_disabled":false,"rental_uris":{"android":"levelo://app?vid=c9271dc5-2a69-45ac-9ba8-b54fba52ce23","ios":"levelo://app?vid=c9271dc5-2a69-45ac-9ba8-b54fba52ce23"},"vehicle_type_id":"4","last_reported":1712858930,"current_range_meters":0,"station_id":"ce4bh692rcd13ifvqea0","pricing_plan_id":"cebpf4jnsgd1na2vs0mg"},{"bike_id":"31b4b073-8fe7-4dad-9a87-325ed22a2c99","system_id":"levelo_inurba_marseille","lat":43.290104,"lon":5.356111,"is_reserved":false,"is_disabled":false,"rental_uris":{"android":"levelo://app?vid=31b4b073-8fe7-4dad-9a87-325ed22a2c99","ios":"levelo://app?vid=31b4b073-8fe7-4dad-9a87-325ed22a2c99"},"vehicle_type_id":"4","last_reported":1712858930,"current_range_meters":0,"station_id":"ce4bhb92rcd13ifvqen0","pricing_plan_id":"cebpf4jnsgd1na2vs0mg"},{"bike_id":"c52df074-627f-4d1a-9659-67fba8437606","system_id":"levelo_inurba_marseille","lat":43.290104,"lon":5.356111,"is_reserved":false,"is_disabled":false,"rental_uris":{"android":"levelo://app?vid=c52df074-627f-4d1a-9659-67fba8437606","ios":"levelo://app?vid=c52df074-627f-4d1a-9659-67fba8437606"},"vehicle_type_id":"4","last_reported":1712858930,"current_range_meters":11600,"station_id":"ce4bhb92rcd13ifvqen0","pricing_plan_id":"cebpf4jnsgd1na2vs0mg"},{"bike_id":"39abe0b1-720d-4e59-8d8d-62acf2c1fc68","system_id":"levelo_inurba_marseille","lat":43.29005,"lon":5.35606,"is_reserved":false,"is_disabled":false,"rental_uris":{"android":"levelo://app?vid=39abe0b1-720d-4e59-8d8d-62acf2c1fc68","ios":"levelo://app?vid=39abe0b1-720d-4e59-8d8d-62acf2c1fc68"},"vehicle_type_id":"4","last_reported":1712858930,"current_range_meters":0,"station_id":"ce4bhb92rcd13ifvqen0","pricing_plan_id":"cebpf4jnsgd1na2vs0mg"},{"bike_id":"35fa07a8-066b-4218-921e-624395b30d66","system_id":"levelo_inurba_marseille","lat":43.290103,"lon":5.356114,"is_reserved":false,"is_disabled":false,"rental_uris":{"android":"levelo://app?vid=35fa07a8-066b-4218-921e-624395b30d66","ios":"levelo://app?vid=35fa07a8-066b-4218-921e-624395b30d66"},"vehicle_type_id":"4","last_reported":1712858930,"current_range_meters":1200,"station_id":"ce4bhb92rcd13ifvqen0","pricing_plan_id":"cebpf4jnsgd1na2vs0mg"},