{"last_updated":1758575346,"ttl":60,"version":"2.2","data":{"bikes":[{"bike_id":"12fcecc4-a1a9-4d88-9733-502416380e83","system_id":"levelo_inurba_marseille","lat":43.28458,"lon":5.35885,"is_reserved":false,"is_disabled":false,"rental_uris":{"android":"levelo://app?vid=12fcecc4-a1a9-4d88-9733-502416380e83","ios":"levelo://app?vid=12fcecc4-a1a9-4d88-9733-502416380e83"},"vehicle_type_id":"4","last_reported":1758575346,"current_range_meters":8000,"station_id":"ce4bhah2rcd13ifvqei0","pricing_plan_id":"cebpf4jnsgd1na2vs0mg"},{"bike_id":"7533e98e-25c5-41b6-9bbf-ab7d33a9cda2","system_id":"levelo_inurba_marseille","lat":43.30597,"lon":5.39343,"is_reserved":false,"is_disabled":false,"rental_uris":{"android":"levelo://app?vid=7533e98e-25c5-41b6-9bbf-ab7d33a9cda2","ios":"levelo://app?vid=7533e98e-25c5-41b6-9bbf-ab7d33a9cda2"},"vehicle_type_id":"4","last_reported":1758575346,"current_range_meters":3200,"station_id":"ce4bh0p2rcd13ifvqd80","pricing_plan_id":"cebpf4jnsgd1na2vs0mg"},{"bike_id":"b32633c9-7221-4b52-9ca6-9f25e5346370","system_id":"levelo_inurba_marseille","lat":43.33609,"lon":5.41008,"is_reserved":false,"is_disabled":true,"rental_uris":{"android":"levelo://app?vid=b32633c9-7221-4b52-9ca6-9f25e5346370","ios":"levelo://app?vid=b32633c9-7221-4b52-9ca6-9f25e5346370"},"vehicle_type_id":"4","last_reported":1758575346,"current_range_meters":3200,"station_id":"ce4bhqh2rcd13ifvqhmg","pricing_plan_id":"cebpf4jnsgd1na2vs0mg"},{"bike_id":"c7a81f67-40f9-49fa-8721-dd51e3d44453","system_id":"levelo_inurba_marseille","lat":43.25821,"lon":5.39433,"is_reserved":false,"is_disabled":false,"rental_uris":{"android":"levelo://app?vid=c7a81f67-40f9-49fa-8721-dd51e3d44453","ios":"levelo://app?vid=c7a81f67-40f9-49fa-8721-dd51e3d44453"},"vehicle_type_id":"4","last_reported":1758575346,"current_range_meters":3600,"station_id":"ce4bhip2rcd13ifvqft0","pricing_plan_id":"cebpf4jnsgd1na2vs0mg"},{"bike_id":"c7e6c26b-3c5e-477b-a684-7911edd34473","system_id":"levelo_inurba_marseille","lat":43.29553,"lon":5.4229,"is_reserved":false,"is_disabled":false,"rental_uris":{"android":"levelo://app?vid=c7e6c26b-3c5e-477b-a684-7911edd34473","ios":"levelo://app?vid=c7e6c26b-3c5e-477b-a684-7911edd34473"},"vehicle_type_id":"4","last_reported":1758575346,"current_range_meters":3600,"station_id":"ce4bhph2rcd13ifvqhdg","pricing_plan_id":"cebpf4jnsgd1na2vs0mg"},{"bike_id":"73af1011-b7c2-44b7-a215-93a9b49b8c7a","system_id":"levelo_inurba_marseille","lat":43.30803,"lon":5.3815,"is_reserved":false,"is_disabled":false,"rental_uris":{"android":"levelo://app?vid=73af1011-b7c2-44b7-a215-93a9b49b8c7a","ios":"levelo://app?vid=73af1011-b7c2-44b7-a215-93a9b49b8c7a"},"vehicle_type_id":"4","last_reported":1758575346,"current_range_meters":3200,"station_id":"ce4bgt12rcd13ifvqce0","pricing_plan_id":"cebpf4jnsgd1na2vs0mg"},{"bike_id":"08404615-e260-483b-89da-e7a437eb1bba","system_id":"levelo_inurba_marseille","lat":43.27978,"lon":5.41032,"is_reserved":false,"is_disabled":true,"rental_uris":{"android":"levelo://app?vid=08404615-e260-483b-89da-e7a437eb1bba","ios":"levelo://app?vid=08404615-e260-483b-89da-e7a437eb1bba"},"vehicle_type_id":"4","last_reported":1758575346,"current_range_meters":3600,"station_id":"ce4bhnp2rcd13ifvqh0g","pricing_plan_id":"cebpf4jnsgd1na2vs0mg"},{"bike_id":"a04f2c9f-1a68-4e81-942f-db9f71286b54","system_id":"levelo_inurba_marseille","lat":43.29575,"lon":5.39986,"is_reserved":false,"is_disabled":false,"rental_uris":{"android":"levelo://app?vid=a04f2c9f-1a68-4e81-942f-db9f71286b54","ios":"levelo://app?vid=a04f2c9f-1a68-4e81-942f-db9f71286b54"},"vehicle_type_id":"4","last_reported":1758575346,"current_range_meters":2000,"station_id":"ce4bh312rcd13ifvqdj0","pricing_plan_id":"cebpf4jnsgd1na2vs0mg"},{"bike_id":"7f6bdb3a-b9a8-44f5-849c-b2d554b7d82e","system_id":"levelo_inurba_marseille","lat":43.28075,"lon":5.39668,"is_reserved":false,"is_disabled":false,"rental_uris":{"android":"levelo://app?vid=7f6bdb3a-b9a8-44f5-849c-b2d554b7d82e","ios":"levelo://app?vid=7f6bdb3a-b9a8-44f5-849c-b2d554b7d82e"},"vehicle_type_id":"4","last_reported":1758575346,"current_range_meters":4000,"station_id":"ce4bho12rcd13ifvqh2g","pricing_plan_id":"cebpf4jnsgd1na2vs0mg"},{"bike_id":"77b2418f-5053-47eb-a54d-6fd605e5f088","system_id":"levelo_inurba_marseille","lat":43.28162,"lon":5.42637,"is_reserved":false,"is_disabled":false,"rental_uris":{"android":"levelo://app?vid=77b2418f-5053-47eb-a54d-6fd605e5f088","ios":"levelo://app?vid=77b2418f-5053-47eb-a54d-6fd605e5f088"},"vehicle_type_id":"4","last_reported":1758575346,"current_range_meters":4000,"station_id":"ce4bhnh2rcd13ifvqgug","pricing_plan_id":"cebpf4jnsgd1na2vs0mg"},{"bike_id":"a07a513e-e5a9-4481-8592-d991379bc662","system_id":"levelo_inurba_marseille","lat":43.337536,"lon":5.374536,"is_reserved":false,"is_disabled":false,"rental_uris":{"android":"levelo://app?vid=a07a513e-e5a9-4481-8592-d991379bc662","ios":"levelo://app?vid=a07a513e-e5a9-4481-8592-d991379bc662"},"vehicle_type_id":"4","last_reported":1758575346,"current_range_meters":4000,"station_id":"","pricing_plan_id":"cebpf4jnsgd1na2vs0mg"},{"bike_id":"f8e5fb98-aa53-4616-ab8b-de69105082bb","system_id":"levelo_inurba_marseille","lat":43.30376,"lon":5.42477,"is_reserved":false,"is_disabled":false,"rental_uris":{"android":"levelo://app?vid=f8e5fb98-aa53-4616-ab8b-de69105082bb","ios":"levelo://app?vid=f8e5fb98-aa53-4616-ab8b-de69105082bb"},"vehicle_type_id":"4","last_reported":1758575346,"current_range_meters":4400,"station_id":"ce4bhoh2rcd13ifvqh6g","pricing_plan_id":"cebpf4jnsgd1na2vs0mg"},{"bike_id":"8c8d5ac1-497d-4c6e-b29a-5bbb06357fd1","system_id":"levelo_inurba_marseille","lat":43.29712,"lon":5.377,"is_reserved":false,"is_disabled":false,"rental_uris":{"android":"levelo://app?vid=8c8d5ac1-497d-4c6e-b29a-5bbb06357fd1","ios":"levelo://app?vid=8c8d5ac1-497d-4c6e-b29a-5bbb06357fd1"},"vehicle_type_id":"4","last_reported":1758575346,"current_range_meters":4400,"station_id":"ce4bgkh2rcd13ifvqbl0","pricing_plan_id":"cebpf4jnsgd1na2vs0mg"},{"bike_id":"9bfefae6-e16a-4966-a090-59701d8a8fab","system_id":"levelo_inurba_marseille","lat":43.25721,"lon":5.41112,"is_reserved":false,"is_disabled":false,"rental_uris":{"android":"levelo://app?vid=9bfefae6-e16a-4966-a090-59701d8a8fab","ios":"levelo://app?vid=9bfefae6-e16a-4966-a090-59701d8a8fab"},"vehicle_type_id":"4","last_reported":1758575346,"current_range_meters":4000,"station_id":"ce4bhkp2rcd13ifvqgd0","pricing_plan_id":"cebpf4jnsgd1na2vs0mg"},{"bike_id":"5b360d8e-a7d0-4077-9f44-66ab20b71071","system_id":"levelo_inurba_marseille","lat":43.298993,"lon":5.403774,"is_reserved":false,"is_disabled":false,"rental_uris":{"android":"levelo://app?vid=5b360d8e-a7d0-4077-9f44-66ab20b71071","ios":"levelo://app?vid=5b360d8e-a7d0-4077-9f44-66ab20b71071"},"vehicle_type_id":"4","last_reported":1758575346,"current_range_meters":4400,"station_id":"ce4bh112rcd13ifvqd90","pricing_plan_id":"cebpf4jnsgd1na2vs0mg"},{"bike_id":"83c992b3-3133-401b-a16d-84f9815c9d36","system_id":"levelo_inurba_marseille","lat":43.28922,"lon":5.38391,"is_reserved":false,"is_disabled":false,"rental_uris":{"android":"levelo://app?vid=83c992b3-3133-401b-a16d-84f9815c9d36","ios":"levelo://app?vid=83c992b3-3133-401b-a16d-84f9815c9d36"},"vehicle_type_id":"4","last_reported":1758575346,"current_range_meters":4800,"station_id":"ce4bh612rcd13ifvqe6g","pricing_plan_id":"cebpf4jnsgd1na2vs0mg"},{"bike_id":"2289a0ff-9c3e-4f79-ad38-4b41158d6057","system_id":"levelo_inurba_marseille","lat":43.29882,"lon":5.37911,"is_reserved":false,"is_disabled":false,"rental_uris":{"android":"levelo://app?vid=2289a0ff-9c3e-4f79-ad38-4b41158d6057","ios":"levelo://app?vid=2289a0ff-9c3e-4f79-ad38-4b41158d6057"},"vehicle_type_id":"4","last_reported":1758575346,"current_range_meters":5600,"station_id":"","pricing_plan_id":"cebpf4jnsgd1na2vs0mg"},{"bike_id":"006bcd00-53e8-47a0-9ee9-e17573f5a227","system_id":"levelo_inurba_marseille","lat":43.24185,"lon":5.39711,"is_reserved":false,"is_disabled":false,"rental_uris":{"android":"levelo://app?vid=006bcd00-53e8-47a0-9ee9-e17573f5a227","ios":"levelo://app?vid=006bcd00-53e8-47a0-9ee9-e17573f5a227"},"vehicle_type_id":"4","last_reported":1758575346,"current_range_meters":6000,"station_id":"ce4bhn12rcd13ifvqgpg","pricing_plan_id":"cebpf4jnsgd1na2vs0mg"},{"bike_id":"55d1bc08-fd54-4a82-afc7-2adcaa7b1c4e","system_id":"levelo_inurba_marseille","lat":43.30014,"lon":5.37723,"is_reserved":false,"is_disabled":false,"rental_uris":{"android":"levelo://app?vid=55d1bc08-fd54-4a82-afc7-2adcaa7b1c4e","ios":"levelo://app?vid=55d1bc08-fd54-4a82-afc7-2adcaa7b1c4e"},"vehicle_type_id":"4","last_reported":1758575346,"current_range_meters":5600,"station_id":"","pricing_plan_id":"cebpf4jnsgd1na2vs0mg"},{"bike_id":"0ad5c6a5-8b05-4faa-8590-609348c11288","system_id":"levelo_inurba_marseille","lat":43.27823,"lon":5.40711,"is_reserved":false,"is_disabled":true,"rental_uris":{"android":"levelo://app?vid=0ad5c6a5-8b05-4faa-8590-609348c11288","ios":"levelo://app?vid=0ad5c6a5-8b05-4faa-8590-609348c11288"},"vehicle_type_id":"4","last_reported":1758575346,"current_range_meters":6000,"station_id":"ce4bhnh2rcd13ifvqgtg","pricing_plan_id":"cebpf4jnsgd1na2vs0mg"},{"bike_id":"00e1d2ac-1cd4-4f8a-85ed-426a912921aa","system_id":"levelo_inurba_marseille","lat":43.3043,"lon":5.39731,"is_reserved":false,"is_disabled":false,"rental_uris":{"android":"levelo://app?vid=00e1d2ac-1cd4-4f8a-85ed-426a912921aa","ios":"levelo://app?vid=00e1d2ac-1cd4-4f8a-85ed-426a912921aa"},"vehicle_type_id":"4","last_reported":1758575346,"current_range_meters":6000,"station_id":"ce4bh092rcd13ifvqd20","pricing_plan_id":"cebpf4jnsgd1na2vs0mg"},{"bike_id":"7c57fe3c-cef1-4848-b2ef-53e94045cd2a","system_id":"levelo_inurba_marseille","lat":43.28707,"lon":5.39979,"is_reserved":false,"is_disabled":false,"rental_uris":{"android":"levelo://app?vid=7c57fe3c-cef1-4848-b2ef-53e94045cd2a","ios":"levelo://app?vid=7c57fe3c-cef1-4848-b2ef-53e94045cd2a"},"vehicle_type_id":"4","last_reported":1758575346,"current_range_meters":6000,"station_id":"ce4bho92rcd13ifvqh3g","pricing_plan_id":"cebpf4jnsgd1na2vs0mg"},{"bike_id":"5212b67d-7f01-4f88-a59f-f8f25914a6c4","system_id":"levelo_inurba_marseille","lat":43.292731,"lon":5.401103,"is_reserved":false,"is_disabled":false,"rental_uris":{"android":"levelo://app?vid=5212b67d-7f01-4f88-a59f-f8f25914a6c4","ios":"levelo://app?vid=5212b67d-7f01-4f88-a59f-f8f25914a6c4"},"vehicle_type_id":"4","last_reported":1758575346,"current_range_meters":6000,"station_id":"ce4bh312rcd13ifvqdk0","pricing_plan_id":"cebpf4jnsgd1na2vs0mg"},{"bike_id":"14e3a7de-3752-4268-bd3a-76646e5d57cb","system_id":"levelo_inurba_marseille","lat":43.25823,"lon":5.39434,"is_reserved":false,"is_disabled":false,"rental_uris":{"android":"levelo://app?vid=14e3a7de-3752-4268-bd3a-76646e5d57cb","ios":"levelo://app?vid=14e3a7de-3752-4268-bd3a-76646e5d57cb"},"vehicle_type_id":"4","last_reported":1758575346,"current_range_meters":6000,"station_id":"ce4bhip2rcd13ifvqft0","pricing_plan_id":"cebpf4jnsgd1na2vs0mg"},{"bike_id":"6dc5226a-7c65-409d-851b-f5fb988d77dc","system_id":"levelo_inurba_marseille","lat":43.29273,"lon":5.40121,"is_reserved":false,"is_disabled":false,"rental_uris":{"android":"levelo://app?vid=6dc5226a-7c65-409d-851b-f5fb988d77dc","ios":"levelo://app?vid=6dc5226a-7c65-409d-851b-f5fb988d77dc"},"vehicle_type_id":"4","last_reported":1758575346,"current_range_meters":5600,"station_id":"ce4bh312rcd13ifvqdk0","pricing_plan_id":"cebpf4jnsgd1na2vs0mg"},{"bike_id":"68adab37-f5ad-4072-b58a-fe6c68285ca6","system_id":"levelo_inurba_marseille","lat":43.30622,"lon":5.3766,"is_reserved":false,"is_disabled":false,"rental_uris":{"android":"levelo://app?vid=68adab37-f5ad-4072-b58a-fe6c68285ca6","ios":"levelo://app?vid=68adab37-f5ad-4072-b58a-fe6c68285ca6"},"vehicle_type_id":"4","last_reported":1758575346,"current_range_meters":6400,"station_id":"","pricing_plan_id":"cebpf4jnsgd1na2vs0mg"},{"bike_id":"5f7ad952-da27-4738-beff-3e1819cc8e2c","system_id":"levelo_inurba_marseille","lat":43.27071,"lon":5.42279,"is_reserved":false,"is_disabled":false,"rental_uris":{"android":"levelo://app?vid=5f7ad952-da27-4738-beff-3e1819cc8e2c","ios":"levelo://app?vid=5f7ad952-da27-4738-beff-3e1819cc8e2c"},"vehicle_type_id":"4","last_reported":1758575346,"current_range_meters":6400,"station_id":"ce4bhk92rcd13ifvqgb0","pricing_plan_id":"cebpf4jnsgd1na2vs0mg"},{"bike_id":"354897e5-dd37-46ff-9f5e-9a8f3d6ae3df","system_id":"levelo_inurba_marseille","lat":43.30133,"lon":5.3878,"is_reserved":false,"is_disabled":false,"rental_uris":{"android":"levelo://app?vid=354897e5-dd37-46ff-9f5e-9a8f3d6ae3df","ios":"levelo://app?vid=354897e5-dd37-46ff-9f5e-9a8f3d6ae3df"},"vehicle_type_id":"4","last_reported":1758575346,"current_range_meters":6800,"station_id":"ce4bghh2rcd13ifvqb60","pricing_plan_id":"cebpf4jnsgd1na2vs0mg"},{"bike_id":"35e58ae7-40e5-4d86-9d99-68b307eff43f","system_id":"levelo_inurba_marseille","lat":43.27215,"lon":5.39205,"is_reserved":false,"is_disabled":true,"rental_uris":{"android":"levelo://app?vid=35e58ae7-40e5-4d86-9d99-68b307eff43f","ios":"levelo://app?vid=35e58ae7-40e5-4d86-9d99-68b307eff43f"},"vehicle_type_id":"4","last_reported":1758575346,"current_range_meters":6800,"station_id":"ce4bhhp2rcd13ifvqfm0","pricing_plan_id":"cebpf4jnsgd1na2vs0mg"},{"bike_id":"b6536b39-d494-42d8-975e-cdd406476798","system_id":"levelo_inurba_marseille","lat":43.2677,"lon":5.39428,"is_reserved":false,"is_disabled":true,"rental_uris":{"android":"levelo://app?vid=b6536b39-d494-42d8-975e-cdd406476798","ios":"levelo://app?vid=b6536b39-d494-42d8-975e-cdd406476798"},"vehicle_type_id":"4","last_reported":1758575346,"current_range_meters":6800,"station_id":"ce4bhh12rcd13ifvqfg0","pricing_plan_id":"cebpf4jnsgd1na2vs0mg"},{"bike_id":"30cea984-e604-43aa-bf17-3b7282f2ef78","system_id":"levelo_inurba_marseille","lat":43.25504,"lon":5.37649,"is_reserved":false,"is_disabled":false,"rental_uris":{"android":"levelo://app?vid=30cea984-e604-43aa-bf17-3b7282f2ef78","ios":"levelo://app?vid=30cea984-e604-43aa-bf17-3b7282f2ef78"},"vehicle_type_id":"4","last_reported":1758575346,"current_range_meters":6400,"station_id":"ce4bhh12rcd13ifvqff0","pricing_plan_id":"cebpf4jnsgd1na2vs0mg"},{"bike_id":"1b790372-5d34-489f-a29a-5f2319ad70e0","system_id":"levelo_inurba_marseille","lat":43.28261,"lon":5.35048,"is_reserved":false,"is_disabled":true,"rental_uris":{"android":"levelo://app?vid=1b790372-5d34-489f-a29a-5f2319ad70e0","ios":"levelo://app?vid=1b790372-5d34-489f-a29a-5f2319ad70e0"},"vehicle_type_id":"4","last_reported":1758575346,"current_range_meters":6800,"station_id":"ce4bhbp2rcd13ifvqerg","pricing_plan_id":"cebpf4jnsgd1na2vs0mg"},{"bike_id":"0dbc7da0-0362-4020-94e8-7c158950cbc3","system_id":"levelo_inurba_marseille","lat":43.27053,"lon":5.40256,"is_reserved":false,"is_disabled":true,"rental_uris":{"android":"levelo://app?vid=0dbc7da0-0362-4020-94e8-7c158950cbc3","ios":"levelo://app?vid=0dbc7da0-0362-4020-94e8-7c158950cbc3"},"vehicle_type_id":"4","last_reported":1758575346,"current_range_meters":7200,"station_id":"ce4bhk92rcd13ifvqgc0","pricing_plan_id":"cebpf4jnsgd1na2vs0mg"},{"bike_id":"9bc5c13f-f3c8-4441-b73c-1fb4f11a101e","system_id":"levelo_inurba_marseille","lat":43.292989,"lon":5.374673,"is_reserved":false,"is_disabled":false,"rental_uris":{"android":"levelo://app?vid=9bc5c13f-f3c8-4441-b73c-1fb4f11a101e","ios":"levelo://app?vid=9bc5c13f-f3c8-4441-b73c-1fb4f11a101e"},"vehicle_type_id":"4","last_reported":1758575346,"current_range_meters":7200,"station_id":"","pricing_plan_id":"cebpf4jnsgd1na2vs0mg"},{"bike_id":"7ccca8c5-4119-4ce8-85d6-c0e4016ec88c","system_id":"levelo_inurba_marseille","lat":43.24073,"lon":5.37766,"is_reserved":false,"is_disabled":false,"rental_uris":{"android":"levelo://app?vid=7ccca8c5-4119-4ce8-85d6-c0e4016ec88c","ios":"levelo://app?vid=7ccca8c5-4119-4ce8-85d6-c0e4016ec88c"},"vehicle_type_id":"4","last_reported":1758575346,"current_range_meters":8000,"station_id":"ce4bhnp2rcd13ifvqgvg","pricing_plan_id":"cebpf4jnsgd1na2vs0mg"},{"bike_id":"e16d7f3f-7683-4916-896f-db582fb00c8d","system_id":"levelo_inurba_marseille","lat":43.31071,"lon":5.38351,"is_reserved":false,"is_disabled":false,"rental_uris":{"android":"levelo://app?vid=e16d7f3f-7683-4916-896f-db582fb00c8d","ios":"levelo://app?vid=e16d7f3f-7683-4916-896f-db582fb00c8d"},"vehicle_type_id":"4","last_reported":1758575346,"current_range_meters":8000,"station_id":"ce4bgv92rcd13ifvqcr0","pricing_plan_id":"cebpf4jnsgd1na2vs0mg"},{"bike_id":"91aeaac7-6607-4ee7-bde1-e3dc4e63510a","system_id":"levelo_inurba_marseille","lat":43.278974,"lon":5.395655,"is_reserved":false,"is_disabled":false,"rental_uris":{"android":"levelo://app?vid=91aeaac7-6607-4ee7-bde1-e3dc4e63510a","ios":"levelo://app?vid=91aeaac7-6607-4ee7-bde1-e3dc4e63510a"},"vehicle_type_id":"4","last_reported":1758575346,"current_range_meters":8000,"station_id":"ce4bhf92rcd13ifvqf40","pricing_plan_id":"cebpf4jnsgd1na2vs0mg"},{"bike_id":"9278c8e4-f92e-4b80-9d1a-f8764c260a72","system_id":"levelo_inurba_marseille","lat":43.21752,"lon":5.34604,"is_reserved":false,"is_disabled":false,"rental_uris":{"android":"levelo://app?vid=9278c8e4-f92e-4b80-9d1a-f8764c260a72","ios":"levelo://app?vid=9278c8e4-f92e-4b80-9d1a-f8764c260a72"},"vehicle_type_id":"4","last_reported":1758575346,"current_range_meters":8000,"station_id":"st_cvj6r9ubvosntc0bgbag","pricing_plan_id":"cebpf4jnsgd1na2vs0mg"},{"bike_id":"a95a546a-691f-414b-9f19-eb455305a59b","system_id":"levelo_inurba_marseille","lat":43.21763,"lon":5.34589,"is_reserved":false,"is_disabled":false,"rental_uris":{"android":"levelo://app?vid=a95a546a-691f-414b-9f19-eb455305a59b","ios":"levelo://app?vid=a95a546a-691f-414b-9f19-eb455305a59b"},"vehicle_type_id":"4","last_reported":1758575346,"current_range_meters":8000,"station_id":"st_cvj6r9ubvosntc0bgbag","pricing_plan_id":"cebpf4jnsgd1na2vs0mg"},{"bike_id":"032d5c0d-7633-4e2a-aeff-6404ff0ded45","system_id":"levelo_inurba_marseille","lat":43.29187,"lon":5.35797,"is_reserved":false,"is_disabled":false,"rental_uris":{"android":"levelo://app?vid=032d5c0d-7633-4e2a-aeff-6404ff0ded45","ios":"levelo://app?vid=032d5c0d-7633-4e2a-aeff-6404ff0ded45"},"vehicle_type_id":"4","last_reported":1758575346,"current_range_meters":8000,"station_id":"ce4bhb12rcd13ifvqel0","pricing_plan_id":"cebpf4jnsgd1na2vs0mg"},{"bike_id":"bed4ba85-0642-41e7-8a94-b08cc7a1d6f8","system_id":"levelo_inurba_marseille","lat":43.28001,"lon":5.4001,"is_reserved":false,"is_disabled":false,"rental_uris":{"android":"levelo://app?vid=bed4ba85-0642-41e7-8a94-b08cc7a1d6f8","ios":"levelo://app?vid=bed4ba85-0642-41e7-8a94-b08cc7a1d6f8"},"vehicle_type_id":"4","last_reported":1758575346,"current_range_meters":8000,"station_id":"ce4bho92rcd13ifvqh4g","pricing_plan_id":"cebpf4jnsgd1na2vs0mg"},{"bike_id":"b8326fe6-4e46-4be4-be1e-880748c1dab4","system_id":"levelo_inurba_marseille","lat":43.30345,"lon":5.42501,"is_reserved":false,"is_disabled":false,"rental_uris":{"android":"levelo://app?vid=b8326fe6-4e46-4be4-be1e-880748c1dab4","ios":"levelo://app?vid=b8326fe6-4e46-4be4-be1e-880748c1dab4"},"vehicle_type_id":"4","last_reported":1758575346,"current_range_meters":8000,"station_id":"ce4bhoh2rcd13ifvqh6g","pricing_plan_id":"cebpf4jnsgd1na2vs0mg"},{"bike_id":"6f7767e9-7dbb-4a84-9a20-b1f483c7184e","system_id":"levelo_inurba_marseille","lat":43.28456,"lon":5.35886,"is_reserved":false,"is_disabled":true,"rental_uris":{"android":"levelo://app?vid=6f7767e9-7dbb-4a84-9a20-b1f483c7184e","ios":"levelo://app?vid=6f7767e9-7dbb-4a84-9a20-b1f483c7184e"},"vehicle_type_id":"4","last_reported":1758575346,"current_range_meters":8000,"station_id":"ce4bhah2rcd13ifvqei0","pricing_plan_id":"cebpf4jnsgd1na2vs0mg"},{"bike_id":"652e78c6-bf9f-42d2-b9cc-e898422a8785","system_id":"levelo_inurba_marseille","lat":43.29874,"lon":5.39729,"is_reserved":false,"is_disabled":false,"rental_uris":{"android":"levelo://app?vid=652e78c6-bf9f-42d2-b9cc-e898422a8785","ios":"levelo://app?vid=652e78c6-bf9f-42d2-b9cc-e898422a8785"},"vehicle_type_id":"4","last_reported":1758575346,"current_range_meters":8000,"station_id":"ce4bh0h2rcd13ifvqd50","pricing_plan_id":"cebpf4jnsgd1na2vs0mg"},{"bike_id":"76b3a7d5-65f6-43e2-b312-2312a8e7a30b","system_id":"levelo_inurba_marseille","lat":43.25087,"lon":5.39525,"is_reserved":false,"is_disabled":false,"rental_uris":{"android":"levelo://app?vid=76b3a7d5-65f6-43e2-b312-2312a8e7a30b","ios":"levelo://app?vid=76b3a7d5-65f6-43e2-b312-2312a8e7a30b"},"vehicle_type_id":"4","last_reported":1758575346,"current_range_meters":8000,"station_id":"ce4bhm12rcd13ifvqgkg","pricing_plan_id":"cebpf4jnsgd1na2vs0mg"},{"bike_id":"86e8eca4-4dc1-440e-b8d4-31d7d85c59c7","system_id":"levelo_inurba_marseille","lat":43.28365,"lon":5.38611,"is_reserved":false,"is_disabled":false,"rental_uris":{"android":"levelo://app?vid=86e8eca4-4dc1-440e-b8d4-31d7d85c59c7","ios":"levelo://app?vid=86e8eca4-4dc1-440e-b8d4-31d7d85c59c7"},"vehicle_type_id":"4","last_reported":1758575346,"current_range_meters":6800,"station_id":"ce4bh492rcd13ifvqdvg","pricing_plan_id":"cebpf4jnsgd1na2vs0mg"},{"bike_id":"aacc681f-2b1c-4d4d-b681-6e83a3bbb912","system_id":"levelo_inurba_marseille","lat":43.28572,"lon":5.395,"is_reserved":false,"is_disabled":false,"rental_uris":{"android":"levelo://app?vid=aacc681f-2b1c-4d4d-b681-6e83a3bbb912","ios":"levelo://app?vid=aacc681f-2b1c-4d4d-b681-6e83a3bbb912"},"vehicle_type_id":"4","last_reported":1758575346,"current_range_meters":8400,"station_id":"ce4bh292rcd13ifvqdg0","pricing_plan_id":"cebpf4jnsgd1na2vs0mg"},{"bike_id":"9176512c-2cc1-4df2-a8e0-6be514fbcdbf","system_id":"levelo_inurba_marseille","lat":43.33748,"lon":5.37465,"is_reserved":false,"is_disabled":false,"rental_uris":{"android":"levelo://app?vid=9176512c-2cc1-4df2-a8e0-6be514fbcdbf","ios":"levelo://app?vid=9176512c-2cc1-4df2-a8e0-6be514fbcdbf"},"vehicle_type_id":"4","last_reported":1758575346,"current_range_meters":8400,"station_id":"","pricing_plan_id":"cebpf4jnsgd1na2vs0mg"},{"bike_id":"b3ee816f-19cc-49a8-9318-eed4d78b7758","system_id":"levelo_inurba_marseille","lat":43.2917,"lon":5.38272,"is_reserved":false,"is_disabled":false,"rental_uris":{"android":"levelo://app?vid=b3ee816f-19cc-49a8-9318-eed4d78b7758","ios":"levelo://app?vid=b3ee816f-19cc-49a8-9318-eed4d78b7758"},"vehicle_type_id":"4","last_reported":1758575346,"current_range_meters":8400,"station_id":"","pricing_plan_id":"cebpf4jnsgd1na2vs0mg"},{"bike_id":"f2b3dbec-e61c-4455-90bc-f5a515e60d8c","system_id":"levelo_inurba_marseille","lat":43.29294,"lon":5.37452,"is_reserved":false,"is_disabled":false,"rental_uris":{"android":"levelo://app?vid=f2b3dbec-e61c-4455-90bc-f5a515e60d8c","ios":"levelo://app?vid=f2b3dbec-e61c-4455-90bc-f5a515e60d8c"},"vehicle_type_id":"4","last_reported":1758575346,"current_range_meters":8400,"station_id":"ce4bgi12rcd13ifvqb70","pricing_plan_id":"cebpf4jnsgd1na2vs0mg"},{"bike_id":"76bbf107-7ec5-4826-b296-ab629ecd14ab","system_id":"levelo_inurba_marseille","lat":43.29819,"lon":5.4205,"is_reserved":false,"is_disabled":false,"rental_uris":{"android":"levelo://app?vid=76bbf107-7ec5-4826-b296-ab629ecd14ab","ios":"levelo://app?vid=76bbf107-7ec5-4826-b296-ab629ecd14ab"},"vehicle_type_id":"4","last_reported":1758575346,"current_range_meters":8400,"station_id":"","pricing_plan_id":"cebpf4jnsgd1na2vs0mg"},{"bike_id":"698a1659-1be4-4464-8e40-0054e6845364","system_id":"levelo_inurba_marseille","lat":43.29403,"lon":5.40375,"is_reserved":false,"is_disabled":false,"rental_uris":{"android":"levelo://app?vid=698a1659-1be4-4464-8e40-0054e6845364","ios":"levelo://app?vid=698a1659-1be4-4464-8e40-0054e6845364"},"vehicle_type_id":"4","last_reported":1758575346,"current_range_meters":8800,"station_id":"","pricing_plan_id":"cebpf4jnsgd1na2vs0mg"},{"bike_id":"8a569a47-46ff-4e91-972f-c6991b590b75","system_id":"levelo_inurba_marseille","lat":43.30243,"lon":5.40058,"is_reserved":false,"is_disabled":true,"rental_uris":{"android":"levelo://app?vid=8a569a47-46ff-4e91-972f-c6991b590b75","ios":"levelo://app?vid=8a569a47-46ff-4e91-972f-c6991b590b75"},"vehicle_type_id":"4","last_reported":1758575346,"current_range_meters":8800,"station_id":"ce4bgvh2rcd13ifvqcs0","pricing_plan_id":"cebpf4jnsgd1na2vs0mg"},{"bike_id":"59362b21-e7ae-4d89-a581-7623f0cabe74","system_id":"levelo_inurba_marseille","lat":43.29009,"lon":5.35618,"is_reserved":false,"is_disabled":true,"rental_uris":{"android":"levelo://app?vid=59362b21-e7ae-4d89-a581-7623f0cabe74","ios":"levelo://app?vid=59362b21-e7ae-4d89-a581-7623f0cabe74"},"vehicle_type_id":"4","last_reported":1758575346,"current_range_meters":8800,"station_id":"ce4bhb92rcd13ifvqen0","pricing_plan_id":"cebpf4jnsgd1na2vs0mg"},{"bike_id":"57a3f13b-c35b-491e-a1fa-cdcc98308ad5","system_id":"levelo_inurba_marseille","lat":43.28724,"lon":5.3793,"is_reserved":false,"is_disabled":false,"rental_uris":{"android":"levelo://app?vid=57a3f13b-c35b-491e-a1fa-cdcc98308ad5","ios":"levelo://app?vid=57a3f13b-c35b-491e-a1fa-cdcc98308ad5"},"vehicle_type_id":"4","last_reported":1758575346,"current_range_meters":8800,"station_id":"ce4bh9p2rcd13ifvqec0","pricing_plan_id":"cebpf4jnsgd1na2vs0mg"},{"bike_id":"4b4433a1-5f03-46dc-9cde-98800859df22","system_id":"levelo_inurba_marseille","lat":43.262046,"lon":5.379297,"is_reserved":false,"is_disabled":false,"rental_uris":{"android":"levelo://app?vid=4b4433a1-5f03-46dc-9cde-98800859df22","ios":"levelo://app?vid=4b4433a1-5f03-46dc-9cde-98800859df22"},"vehicle_type_id":"4","last_reported":1758575346,"current_range_meters":8800,"station_id":"ce4bhjp2rcd13ifvqg90","pricing_plan_id":"cebpf4jnsgd1na2vs0mg"},{"bike_id":"438ead59-de14-4fa0-a61d-03a70a4122ae","system_id":"levelo_inurba_marseille","lat":43.97285,"lon":4.89134,"is_reserved":false,"is_disabled":true,"rental_uris":{"android":"levelo://app?vid=438ead59-de14-4fa0-a61d-03a70a4122ae","ios":"levelo://app?vid=438ead59-de14-4fa0-a61d-03a70a4122ae"},"vehicle_type_id":"4","last_reported":1758575346,"current_range_meters":8800,"station_id":"","pricing_plan_id":"cebpf4jnsgd1na2vs0mg"},{"bike_id":"7e447a24-02b1-4d72-ae1a-0202047e3307","system_id":"levelo_inurba_marseille","lat":43.2953,"lon":5.39401,"is_reserved":false,"is_disabled":false,"rental_uris":{"android":"levelo://app?vid=7e447a24-02b1-4d72-ae1a-0202047e3307","ios":"levelo://app?vid=7e447a24-02b1-4d72-ae1a-0202047e3307"},"vehicle_type_id":"4","last_reported":1758575346,"current_range_meters":8400,"station_id":"ce4bh292rcd13ifvqdf0","pricing_plan_id":"cebpf4jnsgd1na2vs0mg"},{"bike_id":"386ef04d-4554-4bd6-8d87-69d10679bb86","system_id":"levelo_inurba_marseille","lat":43.23179,"lon":5.39991,"is_reserved":false,"is_disabled":false,"rental_uris":{"android":"levelo://app?vid=386ef04d-4554-4bd6-8d87-69d10679bb86","ios":"levelo://app?vid=386ef04d-4554-4bd6-8d87-69d10679bb86"},"vehicle_type_id":"4","last_reported":1758575346,"current_range_meters":9200,"station_id":"ce4bhn12rcd13ifvqgqg","pricing_plan_id":"cebpf4jnsgd1na2vs0mg"},{"bike_id":"0402438e-d72b-4870-8e22-17facef5f22b","system_id":"levelo_inurba_marseille","lat":43.29595,"lon":5.39158,"is_reserved":false,"is_disabled":false,"rental_uris":{"android":"levelo://app?vid=0402438e-d72b-4870-8e22-17facef5f22b","ios":"levelo://app?vid=0402438e-d72b-4870-8e22-17facef5f22b"},"vehicle_type_id":"4","last_reported":1758575346,"current_range_meters":9200,"station_id":"","pricing_plan_id":"cebpf4jnsgd1na2vs0mg"},{"bike_id":"306c1ee2-9d6b-46e6-bf50-b19ba3d44841","system_id":"levelo_inurba_marseille","lat":43.28578,"lon":5.39489,"is_reserved":false,"is_disabled":false,"rental_uris":{"android":"levelo://app?vid=306c1ee2-9d6b-46e6-bf50-b19ba3d44841","ios":"levelo://app?vid=306c1ee2-9d6b-46e6-bf50-b19ba3d44841"},"vehicle_type_id":"4","last_reported":1758575346,"current_range_meters":9200,"station_id":"ce4bh292rcd13ifvqdg0","pricing_plan_id":"cebpf4jnsgd1na2vs0mg"},{"bike_id":"5fbcdc17-9156-4077-946c-3bf7cd7c64a7","system_id":"levelo_inurba_marseille","lat":43.29518,"lon":5.39406,"is_reserved":false,"is_disabled":false,"rental_uris":{"android":"levelo://app?vid=5fbcdc17-9156-4077-946c-3bf7cd7c64a7","ios":"levelo://app?vid=5fbcdc17-9156-4077-946c-3bf7cd7c64a7"},"vehicle_type_id":"4","last_reported":1758575346,"current_range_meters":9200,"station_id":"ce4bh292rcd13ifvqdf0","pricing_plan_id":"cebpf4jnsgd1na2vs0mg"},{"bike_id":"de3e4d48-09b8-4d83-9c26-9d4b324967aa","system_id":"levelo_inurba_marseille","lat":43.29293,"lon":5.40125,"is_reserved":false,"is_disabled":false,"rental_uris":{"android":"levelo://app?vid=de3e4d48-09b8-4d83-9c26-9d4b324967aa","ios":"levelo://app?vid=de3e4d48-09b8-4d83-9c26-9d4b324967aa"},"vehicle_type_id":"4","last_reported":1758575346,"current_range_meters":9600,"station_id":"ce4bh312rcd13ifvqdk0","pricing_plan_id":"cebpf4jnsgd1na2vs0mg"},{"bike_id":"fb469b8e-e34d-477f-9866-a1f8e266880f","system_id":"levelo_inurba_marseille","lat":43.29623,"lon":5.37169,"is_reserved":false,"is_disabled":false,"rental_uris":{"android":"levelo://app?vid=fb469b8e-e34d-477f-9866-a1f8e266880f","ios":"levelo://app?vid=fb469b8e-e34d-477f-9866-a1f8e266880f"},"vehicle_type_id":"4","last_reported":1758575346,"current_range_meters":9600,"station_id":"ce4bgnh2rcd13ifvqc0g","pricing_plan_id":"cebpf4jnsgd1na2vs0mg"},{"bike_id":"37ed834f-6744-4a24-8298-cb2f2868cc3f","system_id":"levelo_inurba_marseille","lat":43.23183,"lon":5.39989,"is_reserved":false,"is_disabled":false,"rental_uris":{"android":"levelo://app?vid=37ed834f-6744-4a24-8298-cb2f2868cc3f","ios":"levelo://app?vid=37ed834f-6744-4a24-8298-cb2f2868cc3f"},"vehicle_type_id":"4","last_reported":1758575346,"current_range_meters":9200,"station_id":"ce4bhn12rcd13ifvqgqg","pricing_plan_id":"cebpf4jnsgd1na2vs0mg"},{"bike_id":"5afe3c17-ad13-421e-a99e-c8fde8d51698","system_id":"levelo_inurba_marseille","lat":43.30284,"lon":5.396613,"is_reserved":false,"is_disabled":false,"rental_uris":{"android":"levelo://app?vid=5afe3c17-ad13-421e-a99e-c8fde8d51698","ios":"levelo://app?vid=5afe3c17-ad13-421e-a99e-c8fde8d51698"},"vehicle_type_id":"4","last_reported":1758575346,"current_range_meters":9600,"station_id":"","pricing_plan_id":"cebpf4jnsgd1na2vs0mg"},{"bike_id":"a15e48c8-16c3-437e-a237-62b9e19d84cb","system_id":"levelo_inurba_marseille","lat":43.21758,"lon":5.345982,"is_reserved":false,"is_disabled":false,"rental_uris":{"android":"levelo://app?vid=a15e48c8-16c3-437e-a237-62b9e19d84cb","ios":"levelo://app?vid=a15e48c8-16c3-437e-a237-62b9e19d84cb"},"vehicle_type_id":"4","last_reported":1758575346,"current_range_meters":9600,"station_id":"st_cvj6r9ubvosntc0bgbag","pricing_plan_id":"cebpf4jnsgd1na2vs0mg"},{"bike_id":"0ca405c5-50f7-42f0-ad59-fa4f401dba3d","system_id":"levelo_inurba_marseille","lat":43.24689,"lon":5.38143,"is_reserved":false,"is_disabled":true,"rental_uris":{"android":"levelo://app?vid=0ca405c5-50f7-42f0-ad59-fa4f401dba3d","ios":"levelo://app?vid=0ca405c5-50f7-42f0-ad59-fa4f401dba3d"},"vehicle_type_id":"4","last_reported":1758575346,"current_range_meters":9600,"station_id":"ce4bhih2rcd13ifvqfr0","pricing_plan_id":"cebpf4jnsgd1na2vs0mg"},{"bike_id":"4db4070e-cf03-49a9-a7c0-ef627f701519","system_id":"levelo_inurba_marseille","lat":43.25117,"lon":5.40345,"is_reserved":false,"is_disabled":false,"rental_uris":{"android":"levelo://app?vid=4db4070e-cf03-49a9-a7c0-ef627f701519","ios":"levelo://app?vid=4db4070e-cf03-49a9-a7c0-ef627f701519"},"vehicle_type_id":"4","last_reported":1758575346,"current_range_meters":9600,"station_id":"ce4bhlh2rcd13ifvqgig","pricing_plan_id":"cebpf4jnsgd1na2vs0mg"},{"bike_id":"f766109f-a5ac-42fd-8984-e9c8d3f1ef80","system_id":"levelo_inurba_marseille","lat":43.24667,"lon":5.38161,"is_reserved":false,"is_disabled":false,"rental_uris":{"android":"levelo://app?vid=f766109f-a5ac-42fd-8984-e9c8d3f1ef80","ios":"levelo://app?vid=f766109f-a5ac-42fd-8984-e9c8d3f1ef80"},"vehicle_type_id":"4","last_reported":1758575346,"current_range_meters":9600,"station_id":"ce4bhih2rcd13ifvqfr0","pricing_plan_id":"cebpf4jnsgd1na2vs0mg"},{"bike_id":"3278dee4-119e-4d11-a56f-67ef5a7be3d2","system_id":"levelo_inurba_marseille","lat":43.28576,"lon":5.39491,"is_reserved":false,"is_disabled":false,"rental_uris":{"android":"levelo://app?vid=3278dee4-119e-4d11-a56f-67ef5a7be3d2","ios":"levelo://app?vid=3278dee4-119e-4d11-a56f-67ef5a7be3d2"},"vehicle_type_id":"4","last_reported":1758575346,"current_range_meters":9600,"station_id":"ce4bh292rcd13ifvqdg0","pricing_plan_id":"cebpf4jnsgd1na2vs0mg"},{"bike_id":"40d91655-9e50-49ed-9f41-3a1ee828bbb7","system_id":"levelo_inurba_marseille","lat":43.24955,"lon":5.40485,"is_reserved":false,"is_disabled":false,"rental_uris":{"android":"levelo://app?vid=40d91655-9e50-49ed-9f41-3a1ee828bbb7","ios":"levelo://app?vid=40d91655-9e50-49ed-9f41-3a1ee828bbb7"},"vehicle_type_id":"4","last_reported":1758575346,"current_range_meters":10000,"station_id":"st_d2ngiaodas8pm72gd1h0","pricing_plan_id":"cebpf4jnsgd1na2vs0mg"},{"bike_id":"5dd24075-722f-4979-91f7-41828ca0486f","system_id":"levelo_inurba_marseille","lat":43.29315,"lon":5.37148,"is_reserved":false,"is_disabled":false,"rental_uris":{"android":"levelo://app?vid=5dd24075-722f-4979-91f7-41828ca0486f","ios":"levelo://app?vid=5dd24075-722f-4979-91f7-41828ca0486f"},"vehicle_type_id":"4","last_reported":1758575346,"current_range_meters":10000,"station_id":"ce4bgh92rcd13ifvqb40","pricing_plan_id":"cebpf4jnsgd1na2vs0mg"},{"bike_id":"9bed8cf1-9589-4272-88c5-6d826372cbe7","system_id":"levelo_inurba_marseille","lat":43.2872,"lon":5.36086,"is_reserved":false,"is_disabled":false,"rental_uris":{"android":"levelo://app?vid=9bed8cf1-9589-4272-88c5-6d826372cbe7","ios":"levelo://app?vid=9bed8cf1-9589-4272-88c5-6d826372cbe7"},"vehicle_type_id":"4","last_reported":1758575346,"current_range_meters":10000,"station_id":"cki0cbj6b192h4jlfktg","pricing_plan_id":"cebpf4jnsgd1na2vs0mg"},{"bike_id":"7a69a16f-467e-4090-a81a-8f6f5df7d6b2","system_id":"levelo_inurba_marseille","lat":43.29063,"lon":5.37182,"is_reserved":false,"is_disabled":false,"rental_uris":{"android":"levelo://app?vid=7a69a16f-467e-4090-a81a-8f6f5df7d6b2","ios":"levelo://app?vid=7a69a16f-467e-4090-a81a-8f6f5df7d6b2"},"vehicle_type_id":"4","last_reported":1758575346,"current_range_meters":10000,"station_id":"ce4bh5p2rcd13ifvqe4g","pricing_plan_id":"cebpf4jnsgd1na2vs0mg"},{"bike_id":"4eb65221-065f-4905-a161-59a7f686515e","system_id":"levelo_inurba_marseille","lat":43.31987,"lon":5.3816,"is_reserved":false,"is_disabled":false,"rental_uris":{"android":"levelo://app?vid=4eb65221-065f-4905-a161-59a7f686515e","ios":"levelo://app?vid=4eb65221-065f-4905-a161-59a7f686515e"},"vehicle_type_id":"4","last_reported":1758575346,"current_range_meters":10000,"station_id":"ce4bhr12rcd13ifvqhpg","pricing_plan_id":"cebpf4jnsgd1na2vs0mg"},{"bike_id":"5f13888f-41a7-4948-a70a-b357ca3f88fd","system_id":"levelo_inurba_marseille","lat":43.30541,"lon":5.38421,"is_reserved":false,"is_disabled":false,"rental_uris":{"android":"levelo://app?vid=5f13888f-41a7-4948-a70a-b357ca3f88fd","ios":"levelo://app?vid=5f13888f-41a7-4948-a70a-b357ca3f88fd"},"vehicle_type_id":"4","last_reported":1758575346,"current_range_meters":10000,"station_id":"ce4bgg92rcd13ifvqb30","pricing_plan_id":"cebpf4jnsgd1na2vs0mg"},{"bike_id":"dbf0608f-557a-485b-a91e-42bad4ad5e29","system_id":"levelo_inurba_marseille","lat":43.258695,"lon":5.399018,"is_reserved":false,"is_disabled":false,"rental_uris":{"android":"levelo://app?vid=dbf0608f-557a-485b-a91e-42bad4ad5e29","ios":"levelo://app?vid=dbf0608f-557a-485b-a91e-42bad4ad5e29"},"vehicle_type_id":"4","last_reported":1758575346,"current_range_meters":10800,"station_id":"ce4bhl92rcd13ifvqghg","pricing_plan_id":"cebpf4jnsgd1na2vs0mg"},{"bike_id":"6e417fed-8d43-4963-b52e-c54cd79d652e","system_id":"levelo_inurba_marseille","lat":43.30129,"lon":5.38782,"is_reserved":false,"is_disabled":true,"rental_uris":{"android":"levelo://app?vid=6e417fed-8d43-4963-b52e-c54cd79d652e","ios":"levelo://app?vid=6e417fed-8d43-4963-b52e-c54cd79d652e"},"vehicle_type_id":"4","last_reported":1758575346,"current_range_meters":10800,"station_id":"ce4bghh2rcd13ifvqb60","pricing_plan_id":"cebpf4jnsgd1na2vs0mg"},{"bike_id":"3afe1237-bb79-401e-a639-d126f0773390","system_id":"levelo_inurba_marseille","lat":43.29427,"lon":5.39749,"is_reserved":false,"is_disabled":false,"rental_uris":{"android":"levelo://app?vid=3afe1237-bb79-401e-a639-d126f0773390","ios":"levelo://app?vid=3afe1237-bb79-401e-a639-d126f0773390"},"vehicle_type_id":"4","last_reported":1758575346,"current_range_meters":10800,"station_id":"ce4bh3h2rcd13ifvqdo0","pricing_plan_id":"cebpf4jnsgd1na2vs0mg"},{"bike_id":"ae3df55a-85b8-4bf8-b6c2-ec7bc0fbecb4","system_id":"levelo_inurba_marseille","lat":43.31072,"lon":5.38351,"is_reserved":false,"is_disabled":false,"rental_uris":{"android":"levelo://app?vid=ae3df55a-85b8-4bf8-b6c2-ec7bc0fbecb4","ios":"levelo://app?vid=ae3df55a-85b8-4bf8-b6c2-ec7bc0fbecb4"},"vehicle_type_id":"4","last_reported":1758575346,"current_range_meters":10800,"station_id":"ce4bgv92rcd13ifvqcr0","pricing_plan_id":"cebpf4jnsgd1na2vs0mg"},{"bike_id":"c6b18351-a5b2-4b90-8a89-75669bdbaf03","system_id":"levelo_inurba_marseille","lat":43.29623,"lon":5.37719,"is_reserved":false,"is_disabled":false,"rental_uris":{"android":"levelo://app?vid=c6b18351-a5b2-4b90-8a89-75669bdbaf03","ios":"levelo://app?vid=c6b18351-a5b2-4b90-8a89-75669bdbaf03"},"vehicle_type_id":"4","last_reported":1758575346,"current_range_meters":10800,"station_id":"ce4bgi92rcd13ifvqb90","pricing_plan_id":"cebpf4jnsgd1na2vs0mg"},{"bike_id":"07db194f-de76-4445-8863-b87aabbeec26","system_id":"levelo_inurba_marseille","lat":43.24948,"lon":5.40491,"is_reserved":false,"is_disabled":false,"rental_uris":{"android":"levelo://app?vid=07db194f-de76-4445-8863-b87aabbeec26","ios":"levelo://app?vid=07db194f-de76-4445-8863-b87aabbeec26"},"vehicle_type_id":"4","last_reported":1758575346,"current_range_meters":11200,"station_id":"st_d2ngiaodas8pm72gd1h0","pricing_plan_id":"cebpf4jnsgd1na2vs0mg"},{"bike_id":"890755d1-fbb3-46f2-8999-944ba967851b","system_id":"levelo_inurba_marseille","lat":43.23163,"lon":5.43724,"is_reserved":false,"is_disabled":false,"rental_uris":{"android":"levelo://app?vid=890755d1-fbb3-46f2-8999-944ba967851b","ios":"levelo://app?vid=890755d1-fbb3-46f2-8999-944ba967851b"},"vehicle_type_id":"4","last_reported":1758575346,"current_range_meters":10800,"station_id":"ce4bhmp2rcd13ifvqgog","pricing_plan_id":"cebpf4jnsgd1na2vs0mg"},{"bike_id":"bc5bdce1-bf12-446e-b31e-3cfc29bb8dd1","system_id":"levelo_inurba_marseille","lat":43.29558,"lon":5.38174,"is_reserved":false,"is_disabled":false,"rental_uris":{"android":"levelo://app?vid=bc5bdce1-bf12-446e-b31e-3cfc29bb8dd1","ios":"levelo://app?vid=bc5bdce1-bf12-446e-b31e-3cfc29bb8dd1"},"vehicle_type_id":"4","last_reported":1758575346,"current_range_meters":11200,"station_id":"","pricing_plan_id":"cebpf4jnsgd1na2vs0mg"},{"bike_id":"90e14a2d-1c9e-457a-a1d7-7257e3270581","system_id":"levelo_inurba_marseille","lat":43.27993,"lon":5.41664,"is_reserved":false,"is_disabled":true,"rental_uris":{"android":"levelo://app?vid=90e14a2d-1c9e-457a-a1d7-7257e3270581","ios":"levelo://app?vid=90e14a2d-1c9e-457a-a1d7-7257e3270581"},"vehicle_type_id":"4","last_reported":1758575346,"current_range_meters":11200,"station_id":"ce4bho12rcd13ifvqh1g","pricing_plan_id":"cebpf4jnsgd1na2vs0mg"},{"bike_id":"876179c2-88a9-44d1-b316-c2bd85d2a686","system_id":"levelo_inurba_marseille","lat":43.29534,"lon":5.38544,"is_reserved":false,"is_disabled":false,"rental_uris":{"android":"levelo://app?vid=876179c2-88a9-44d1-b316-c2bd85d2a686","ios":"levelo://app?vid=876179c2-88a9-44d1-b316-c2bd85d2a686"},"vehicle_type_id":"4","last_reported":1758575346,"current_range_meters":11200,"station_id":"ce4bgih2rcd13ifvqba0","pricing_plan_id":"cebpf4jnsgd1na2vs0mg"},{"bike_id":"18ff486e-5d0b-4171-ac26-f9fa06c69a06","system_id":"levelo_inurba_marseille","lat":43.275,"lon":5.42461,"is_reserved":false,"is_disabled":false,"rental_uris":{"android":"levelo://app?vid=18ff486e-5d0b-4171-ac26-f9fa06c69a06","ios":"levelo://app?vid=18ff486e-5d0b-4171-ac26-f9fa06c69a06"},"vehicle_type_id":"4","last_reported":1758575346,"current_range_meters":11200,"station_id":"ce4bhn92rcd13ifvqgrg","pricing_plan_id":"cebpf4jnsgd1na2vs0mg"},{"bike_id":"48eb9dcf-8f59-41b8-9cb2-99fe767f6fe5","system_id":"levelo_inurba_marseille","lat":43.28655,"lon":5.36357,"is_reserved":false,"is_disabled":false,"rental_uris":{"android":"levelo://app?vid=48eb9dcf-8f59-41b8-9cb2-99fe767f6fe5","ios":"levelo://app?vid=48eb9dcf-8f59-41b8-9cb2-99fe767f6fe5"},"vehicle_type_id":"4","last_reported":1758575346,"current_range_meters":10800,"station_id":"ce4bhah2rcd13ifvqej0","pricing_plan_id":"cebpf4jnsgd1na2vs0mg"},{"bike_id":"7d73570a-4165-46a4-a4d9-6c3b91773a9c","system_id":"levelo_inurba_marseille","lat":43.22925,"lon":5.35383,"is_reserved":false,"is_disabled":false,"rental_uris":{"android":"levelo://app?vid=7d73570a-4165-46a4-a4d9-6c3b91773a9c","ios":"levelo://app?vid=7d73570a-4165-46a4-a4d9-6c3b91773a9c"},"vehicle_type_id":"4","last_reported":1758575346,"current_range_meters":11600,"station_id":"cpo3532slgdg3j2ikp40","pricing_plan_id":"cebpf4jnsgd1na2vs0mg"},{"bike_id":"0739ebc4-81df-447e-a438-569191734856","system_id":"levelo_inurba_marseille","lat":43.28455,"lon":5.35881,"is_reserved":false,"is_disabled":false,"rental_uris":{"android":"levelo://app?vid=0739ebc4-81df-447e-a438-569191734856","ios":"levelo://app?vid=0739ebc4-81df-447e-a438-569191734856"},"vehicle_type_id":"4","last_reported":1758575346,"current_range_meters":11600,"station_id":"ce4bhah2rcd13ifvqei0","pricing_plan_id":"cebpf4jnsgd1na2vs0mg"},{"bike_id":"6954fc4f-6655-43f2-91d5-2c8a35a092ba","system_id":"levelo_inurba_marseille","lat":43.29711,"lon":5.37692,"is_reserved":false,"is_disabled":false,"rental_uris":{"android":"levelo://app?vid=6954fc4f-6655-43f2-91d5-2c8a35a092ba","ios":"levelo://app?vid=6954fc4f-6655-43f2-91d5-2c8a35a092ba"},"vehicle_type_id":"4","last_reported":1758575346,"current_range_meters":11200,"station_id":"ce4bgkh2rcd13ifvqbl0","pricing_plan_id":"cebpf4jnsgd1na2vs0mg"},{"bike_id":"0b2230e3-adb9-421c-91b1-c113eb397705","system_id":"levelo_inurba_marseille","lat":43.28898,"lon":5.37678,"is_reserved":false,"is_disabled":false,"rental_uris":{"android":"levelo://app?vid=0b2230e3-adb9-421c-91b1-c113eb397705","ios":"levelo://app?vid=0b2230e3-adb9-421c-91b1-c113eb397705"},"vehicle_type_id":"4","last_reported":1758575346,"current_range_meters":12000,"station_id":"","pricing_plan_id":"cebpf4jnsgd1na2vs0mg"},{"bike_id":"77eeb9b5-0e68-4a7b-b5d1-530ce6c04cd4","system_id":"levelo_inurba_marseille","lat":43.22944,"lon":5.35416,"is_reserved":false,"is_disabled":false,"rental_uris":{"android":"levelo://app?vid=77eeb9b5-0e68-4a7b-b5d1-530ce6c04cd4","ios":"levelo://app?vid=77eeb9b5-0e68-4a7b-b5d1-530ce6c04cd4"},"vehicle_type_id":"4","last_reported":1758575346,"current_range_meters":12000,"station_id":"cpo3532slgdg3j2ikp40","pricing_plan_id":"cebpf4jnsgd1na2vs0mg"},{"bike_id":"1071ee61-6151-44c2-b36a-75896c103241","system_id":"levelo_inurba_marseille","lat":43.25003,"lon":5.38924,"is_reserved":false,"is_disabled":false,"rental_uris":{"android":"levelo://app?vid=1071ee61-6151-44c2-b36a-75896c103241","ios":"levelo://app?vid=1071ee61-6151-44c2-b36a-75896c103241"},"vehicle_type_id":"4","last_reported":1758575346,"current_range_meters":12000,"station_id":"ce4bhgp2rcd13ifvqfd0","pricing_plan_id":"cebpf4jnsgd1na2vs0mg"},{"bike_id":"bf0386e4-78a7-438d-b82b-5d236d95b9b5","system_id":"levelo_inurba_marseille","lat":43.30268,"lon":5.40059,"is_reserved":false,"is_disabled":false,"rental_uris":{"android":"levelo://app?vid=bf0386e4-78a7-438d-b82b-5d236d95b9b5","ios":"levelo://app?vid=bf0386e4-78a7-438d-b82b-5d236d95b9b5"},"vehicle_type_id":"4","last_reported":1758575346,"current_range_meters":12000,"station_id":"ce4bgvh2rcd13ifvqcs0","pricing_plan_id":"cebpf4jnsgd1na2vs0mg"},{"bike_id":"5bf622f2-8889-4c8b-bc74-869bf3d0e0d6","system_id":"levelo_inurba_marseille","lat":43.26222,"lon":5.4045,"is_reserved":false,"is_disabled":false,"rental_uris":{"android":"levelo://app?vid=5bf622f2-8889-4c8b-bc74-869bf3d0e0d6","ios":"levelo://app?vid=5bf622f2-8889-4c8b-bc74-869bf3d0e0d6"},"vehicle_type_id":"4","last_reported":1758575346,"current_range_meters":12000,"station_id":"ce4bhmh2rcd13ifvqgmg","pricing_plan_id":"cebpf4jnsgd1na2vs0mg"},{"bike_id":"7d430680-5b99-4e4d-bced-5540a76e37cd","system_id":"levelo_inurba_marseille","lat":43.28153,"lon":5.42642,"is_reserved":false,"is_disabled":false,"rental_uris":{"android":"levelo://app?vid=7d430680-5b99-4e4d-bced-5540a76e37cd","ios":"levelo://app?vid=7d430680-5b99-4e4d-bced-5540a76e37cd"},"vehicle_type_id":"4","last_reported":1758575346,"current_range_meters":12400,"station_id":"ce4bhnh2rcd13ifvqgug","pricing_plan_id":"cebpf4jnsgd1na2vs0mg"},{"bike_id":"6a077151-2089-47d0-bcd1-faf1c42cc7b3","system_id":"levelo_inurba_marseille","lat":43.28857,"lon":5.42529,"is_reserved":false,"is_disabled":false,"rental_uris":{"android":"levelo://app?vid=6a077151-2089-47d0-bcd1-faf1c42cc7b3","ios":"levelo://app?vid=6a077151-2089-47d0-bcd1-faf1c42cc7b3"},"vehicle_type_id":"4","last_reported":1758575346,"current_range_meters":12400,"station_id":"","pricing_plan_id":"cebpf4jnsgd1na2vs0mg"},{"bike_id":"5b6b3b7d-c808-4e60-988f-97a17f8a001f","system_id":"levelo_inurba_marseille","lat":43.28429,"lon":5.37517,"is_reserved":false,"is_disabled":true,"rental_uris":{"android":"levelo://app?vid=5b6b3b7d-c808-4e60-988f-97a17f8a001f","ios":"levelo://app?vid=5b6b3b7d-c808-4e60-988f-97a17f8a001f"},"vehicle_type_id":"4","last_reported":1758575346,"current_range_meters":12400,"station_id":"ce4bh412rcd13ifvqds0","pricing_plan_id":"cebpf4jnsgd1na2vs0mg"},{"bike_id":"51d92c87-aa59-4783-b818-f9c5a7eebd73","system_id":"levelo_inurba_marseille","lat":43.29574,"lon":5.37409,"is_reserved":false,"is_disabled":false,"rental_uris":{"android":"levelo://app?vid=51d92c87-aa59-4783-b818-f9c5a7eebd73","ios":"levelo://app?vid=51d92c87-aa59-4783-b818-f9c5a7eebd73"},"vehicle_type_id":"4","last_reported":1758575346,"current_range_meters":12400,"station_id":"","pricing_plan_id":"cebpf4jnsgd1na2vs0mg"},{"bike_id":"0f7b3b81-aa76-45e5-b699-90f539a2071e","system_id":"levelo_inurba_marseille","lat":43.28452,"lon":5.35885,"is_reserved":false,"is_disabled":false,"rental_uris":{"android":"levelo://app?vid=0f7b3b81-aa76-45e5-b699-90f539a2071e","ios":"levelo://app?vid=0f7b3b81-aa76-45e5-b699-90f539a2071e"},"vehicle_type_id":"4","last_reported":1758575346,"current_range_meters":12400,"station_id":"ce4bhah2rcd13ifvqei0","pricing_plan_id":"cebpf4jnsgd1na2vs0mg"},{"bike_id":"94d430e6-52b3-4d21-80c9-c6dd4519a8fb","system_id":"levelo_inurba_marseille","lat":43.317778,"lon":5.382861,"is_reserved":false,"is_disabled":false,"rental_uris":{"android":"levelo://app?vid=94d430e6-52b3-4d21-80c9-c6dd4519a8fb","ios":"levelo://app?vid=94d430e6-52b3-4d21-80c9-c6dd4519a8fb"},"vehicle_type_id":"4","last_reported":1758575346,"current_range_meters":12800,"station_id":"","pricing_plan_id":"cebpf4jnsgd1na2vs0mg"},{"bike_id":"4f0e0917-6d36-41f0-9309-9dc80963cfeb","system_id":"levelo_inurba_marseille","lat":43.30261,"lon":5.40078,"is_reserved":false,"is_disabled":false,"rental_uris":{"android":"levelo://app?vid=4f0e0917-6d36-41f0-9309-9dc80963cfeb","ios":"levelo://app?vid=4f0e0917-6d36-41f0-9309-9dc80963cfeb"},"vehicle_type_id":"4","last_reported":1758575346,"current_range_meters":12800,"station_id":"ce4bgvh2rcd13ifvqcs0","pricing_plan_id":"cebpf4jnsgd1na2vs0mg"},{"bike_id":"b2be2404-53eb-4f74-9829-8104df3de106","system_id":"levelo_inurba_marseille","lat":43.33617,"lon":5.35449,"is_reserved":false,"is_disabled":false,"rental_uris":{"android":"levelo://app?vid=b2be2404-53eb-4f74-9829-8104df3de106","ios":"levelo://app?vid=b2be2404-53eb-4f74-9829-8104df3de106"},"vehicle_type_id":"4","last_reported":1758575346,"current_range_meters":12800,"station_id":"","pricing_plan_id":"cebpf4jnsgd1na2vs0mg"},{"bike_id":"c0e3c534-884a-4055-b0ff-9418daeaaca0","system_id":"levelo_inurba_marseille","lat":43.29364,"lon":5.37843,"is_reserved":false,"is_disabled":false,"rental_uris":{"android":"levelo://app?vid=c0e3c534-884a-4055-b0ff-9418daeaaca0","ios":"levelo://app?vid=c0e3c534-884a-4055-b0ff-9418daeaaca0"},"vehicle_type_id":"4","last_reported":1758575346,"current_range_meters":13600,"station_id":"ce4bgjh2rcd13ifvqbf0","pricing_plan_id":"cebpf4jnsgd1na2vs0mg"},{"bike_id":"ef75d15d-c28a-4fe7-853a-ed887e41d629","system_id":"levelo_inurba_marseille","lat":43.21761,"lon":5.34598,"is_reserved":false,"is_disabled":false,"rental_uris":{"android":"levelo://app?vid=ef75d15d-c28a-4fe7-853a-ed887e41d629","ios":"levelo://app?vid=ef75d15d-c28a-4fe7-853a-ed887e41d629"},"vehicle_type_id":"4","last_reported":1758575346,"current_range_meters":13600,"station_id":"st_cvj6r9ubvosntc0bgbag","pricing_plan_id":"cebpf4jnsgd1na2vs0mg"},{"bike_id":"3bb425d0-4cb3-4bde-8649-a5fec2d1166a","system_id":"levelo_inurba_marseille","lat":43.3107,"lon":5.3835,"is_reserved":false,"is_disabled":false,"rental_uris":{"android":"levelo://app?vid=3bb425d0-4cb3-4bde-8649-a5fec2d1166a","ios":"levelo://app?vid=3bb425d0-4cb3-4bde-8649-a5fec2d1166a"},"vehicle_type_id":"4","last_reported":1758575346,"current_range_meters":13600,"station_id":"ce4bgv92rcd13ifvqcr0","pricing_plan_id":"cebpf4jnsgd1na2vs0mg"},{"bike_id":"a8173706-8534-43a1-9d9b-728c64fdfe61","system_id":"levelo_inurba_marseille","lat":43.271826,"lon":5.392014,"is_reserved":false,"is_disabled":true,"rental_uris":{"android":"levelo://app?vid=a8173706-8534-43a1-9d9b-728c64fdfe61","ios":"levelo://app?vid=a8173706-8534-43a1-9d9b-728c64fdfe61"},"vehicle_type_id":"4","last_reported":1758575346,"current_range_meters":14000,"station_id":"ce4bhhp2rcd13ifvqfm0","pricing_plan_id":"cebpf4jnsgd1na2vs0mg"},{"bike_id":"eb14e0c2-3194-45ec-8471-2fc50af87dad","system_id":"levelo_inurba_marseille","lat":43.22937,"lon":5.3538,"is_reserved":false,"is_disabled":false,"rental_uris":{"android":"levelo://app?vid=eb14e0c2-3194-45ec-8471-2fc50af87dad","ios":"levelo://app?vid=eb14e0c2-3194-45ec-8471-2fc50af87dad"},"vehicle_type_id":"4","last_reported":1758575346,"current_range_meters":14000,"station_id":"cpo3532slgdg3j2ikp40","pricing_plan_id":"cebpf4jnsgd1na2vs0mg"},{"bike_id":"37306240-1f8b-4d9d-950f-5144697742a5","system_id":"levelo_inurba_marseille","lat":43.28652,"lon":5.40045,"is_reserved":false,"is_disabled":true,"rental_uris":{"android":"levelo://app?vid=37306240-1f8b-4d9d-950f-5144697742a5","ios":"levelo://app?vid=37306240-1f8b-4d9d-950f-5144697742a5"},"vehicle_type_id":"4","last_reported":1758575346,"current_range_meters":14000,"station_id":"","pricing_plan_id":"cebpf4jnsgd1na2vs0mg"},{"bike_id":"34072093-f9b6-4017-998e-95b181d82c91","system_id":"levelo_inurba_marseille","lat":43.29456,"lon":5.38838,"is_reserved":false,"is_disabled":false,"rental_uris":{"android":"levelo://app?vid=34072093-f9b6-4017-998e-95b181d82c91","ios":"levelo://app?vid=34072093-f9b6-4017-998e-95b181d82c91"},"vehicle_type_id":"4","last_reported":1758575346,"current_range_meters":14000,"station_id":"","pricing_plan_id":"cebpf4jnsgd1na2vs0mg"},{"bike_id":"af30ae86-4654-4604-9e8a-2baa1c3f6252","system_id":"levelo_inurba_marseille","lat":43.29302,"lon":5.37454,"is_reserved":false,"is_disabled":false,"rental_uris":{"android":"levelo://app?vid=af30ae86-4654-4604-9e8a-2baa1c3f6252","ios":"levelo://app?vid=af30ae86-4654-4604-9e8a-2baa1c3f6252"},"vehicle_type_id":"4","last_reported":1758575346,"current_range_meters":13600,"station_id":"ce4bgi12rcd13ifvqb70","pricing_plan_id":"cebpf4jnsgd1na2vs0mg"},{"bike_id":"1dc0664d-bbc9-48d4-b7a9-aa5bd6be4dfc","system_id":"levelo_inurba_marseille","lat":43.24195,"lon":5.3969,"is_reserved":false,"is_disabled":false,"rental_uris":{"android":"levelo://app?vid=1dc0664d-bbc9-48d4-b7a9-aa5bd6be4dfc","ios":"levelo://app?vid=1dc0664d-bbc9-48d4-b7a9-aa5bd6be4dfc"},"vehicle_type_id":"4","last_reported":1758575346,"current_range_meters":14000,"station_id":"ce4bhn12rcd13ifvqgpg","pricing_plan_id":"cebpf4jnsgd1na2vs0mg"},{"bike_id":"e4482bd4-178c-4704-bd4f-831af977e1f8","system_id":"levelo_inurba_marseille","lat":43.29543,"lon":5.38553,"is_reserved":false,"is_disabled":false,"rental_uris":{"android":"levelo://app?vid=e4482bd4-178c-4704-bd4f-831af977e1f8","ios":"levelo://app?vid=e4482bd4-178c-4704-bd4f-831af977e1f8"},"vehicle_type_id":"4","last_reported":1758575346,"current_range_meters":14400,"station_id":"ce4bgih2rcd13ifvqba0","pricing_plan_id":"cebpf4jnsgd1na2vs0mg"},{"bike_id":"8efeb6c7-c3fe-44fe-970c-480226a6cd3c","system_id":"levelo_inurba_marseille","lat":43.26565,"lon":5.40326,"is_reserved":false,"is_disabled":false,"rental_uris":{"android":"levelo://app?vid=8efeb6c7-c3fe-44fe-970c-480226a6cd3c","ios":"levelo://app?vid=8efeb6c7-c3fe-44fe-970c-480226a6cd3c"},"vehicle_type_id":"4","last_reported":1758575346,"current_range_meters":14400,"station_id":"ce4bhmp2rcd13ifvqgng","pricing_plan_id":"cebpf4jnsgd1na2vs0mg"},{"bike_id":"30a45839-bcf9-4766-8e20-c8b30ef16a15","system_id":"levelo_inurba_marseille","lat":43.32334,"lon":5.40616,"is_reserved":false,"is_disabled":false,"rental_uris":{"android":"levelo://app?vid=30a45839-bcf9-4766-8e20-c8b30ef16a15","ios":"levelo://app?vid=30a45839-bcf9-4766-8e20-c8b30ef16a15"},"vehicle_type_id":"4","last_reported":1758575346,"current_range_meters":14800,"station_id":"ce4bhq92rcd13ifvqhjg","pricing_plan_id":"cebpf4jnsgd1na2vs0mg"},{"bike_id":"8b810a1a-9f29-4fd7-9246-79c0d93e7296","system_id":"levelo_inurba_marseille","lat":43.27998,"lon":5.40014,"is_reserved":false,"is_disabled":false,"rental_uris":{"android":"levelo://app?vid=8b810a1a-9f29-4fd7-9246-79c0d93e7296","ios":"levelo://app?vid=8b810a1a-9f29-4fd7-9246-79c0d93e7296"},"vehicle_type_id":"4","last_reported":1758575346,"current_range_meters":14800,"station_id":"ce4bho92rcd13ifvqh4g","pricing_plan_id":"cebpf4jnsgd1na2vs0mg"},{"bike_id":"82c7d992-1ad6-4cf1-8afb-9995a493f019","system_id":"levelo_inurba_marseille","lat":43.30209,"lon":5.39468,"is_reserved":false,"is_disabled":false,"rental_uris":{"android":"levelo://app?vid=82c7d992-1ad6-4cf1-8afb-9995a493f019","ios":"levelo://app?vid=82c7d992-1ad6-4cf1-8afb-9995a493f019"},"vehicle_type_id":"4","last_reported":1758575346,"current_range_meters":14800,"station_id":"ce4bh0p2rcd13ifvqd70","pricing_plan_id":"cebpf4jnsgd1na2vs0mg"},{"bike_id":"a1e4491a-aaa3-4f96-8397-08fd30db81a4","system_id":"levelo_inurba_marseille","lat":43.30433,"lon":5.38897,"is_reserved":false,"is_disabled":false,"rental_uris":{"android":"levelo://app?vid=a1e4491a-aaa3-4f96-8397-08fd30db81a4","ios":"levelo://app?vid=a1e4491a-aaa3-4f96-8397-08fd30db81a4"},"vehicle_type_id":"4","last_reported":1758575346,"current_range_meters":14800,"station_id":"ce4bgk12rcd13ifvqbi0","pricing_plan_id":"cebpf4jnsgd1na2vs0mg"},{"bike_id":"47fe8ecd-0327-4d83-b8c0-ab7264c95b0b","system_id":"levelo_inurba_marseille","lat":43.24544,"lon":5.39519,"is_reserved":false,"is_disabled":false,"rental_uris":{"android":"levelo://app?vid=47fe8ecd-0327-4d83-b8c0-ab7264c95b0b","ios":"levelo://app?vid=47fe8ecd-0327-4d83-b8c0-ab7264c95b0b"},"vehicle_type_id":"4","last_reported":1758575346,"current_range_meters":14800,"station_id":"ce4bhlp2rcd13ifvqgjg","pricing_plan_id":"cebpf4jnsgd1na2vs0mg"},{"bike_id":"e17006d1-345c-485d-8783-e48eebe83a10","system_id":"levelo_inurba_marseille","lat":43.29365,"lon":5.37852,"is_reserved":false,"is_disabled":false,"rental_uris":{"android":"levelo://app?vid=e17006d1-345c-485d-8783-e48eebe83a10","ios":"levelo://app?vid=e17006d1-345c-485d-8783-e48eebe83a10"},"vehicle_type_id":"4","last_reported":1758575346,"current_range_meters":14800,"station_id":"ce4bgjh2rcd13ifvqbf0","pricing_plan_id":"cebpf4jnsgd1na2vs0mg"},{"bike_id":"dd83bee8-c803-47e8-91dd-afab74068a08","system_id":"levelo_inurba_marseille","lat":43.24071,"lon":5.37765,"is_reserved":false,"is_disabled":false,"rental_uris":{"android":"levelo://app?vid=dd83bee8-c803-47e8-91dd-afab74068a08","ios":"levelo://app?vid=dd83bee8-c803-47e8-91dd-afab74068a08"},"vehicle_type_id":"4","last_reported":1758575346,"current_range_meters":14800,"station_id":"ce4bhnp2rcd13ifvqgvg","pricing_plan_id":"cebpf4jnsgd1na2vs0mg"},{"bike_id":"4519ded0-f3b9-42bd-af35-e69456d100e8","system_id":"levelo_inurba_marseille","lat":43.29285,"lon":5.38367,"is_reserved":false,"is_disabled":false,"rental_uris":{"android":"levelo://app?vid=4519ded0-f3b9-42bd-af35-e69456d100e8","ios":"levelo://app?vid=4519ded0-f3b9-42bd-af35-e69456d100e8"},"vehicle_type_id":"4","last_reported":1758575346,"current_range_meters":14800,"station_id":"","pricing_plan_id":"cebpf4jnsgd1na2vs0mg"},{"bike_id":"d96bae5c-c83f-40e0-b13e-46839cc027db","system_id":"levelo_inurba_marseille","lat":43.28695,"lon":5.37378,"is_reserved":false,"is_disabled":false,"rental_uris":{"android":"levelo://app?vid=d96bae5c-c83f-40e0-b13e-46839cc027db","ios":"levelo://app?vid=d96bae5c-c83f-40e0-b13e-46839cc027db"},"vehicle_type_id":"4","last_reported":1758575346,"current_range_meters":15200,"station_id":"ce4bh3p2rcd13ifvqdq0","pricing_plan_id":"cebpf4jnsgd1na2vs0mg"},{"bike_id":"020013e1-f0eb-455a-9c31-522caba809a4","system_id":"levelo_inurba_marseille","lat":43.2841,"lon":5.37513,"is_reserved":false,"is_disabled":false,"rental_uris":{"android":"levelo://app?vid=020013e1-f0eb-455a-9c31-522caba809a4","ios":"levelo://app?vid=020013e1-f0eb-455a-9c31-522caba809a4"},"vehicle_type_id":"4","last_reported":1758575346,"current_range_meters":16400,"station_id":"ce4bh412rcd13ifvqds0","pricing_plan_id":"cebpf4jnsgd1na2vs0mg"},{"bike_id":"385b6599-d75d-4283-964e-8e10ba698a60","system_id":"levelo_inurba_marseille","lat":43.28413,"lon":5.37503,"is_reserved":false,"is_disabled":false,"rental_uris":{"android":"levelo://app?vid=385b6599-d75d-4283-964e-8e10ba698a60","ios":"levelo://app?vid=385b6599-d75d-4283-964e-8e10ba698a60"},"vehicle_type_id":"4","last_reported":1758575346,"current_range_meters":15200,"station_id":"ce4bh412rcd13ifvqds0","pricing_plan_id":"cebpf4jnsgd1na2vs0mg"},{"bike_id":"5337dcdc-c6f5-44ae-a466-a1ebe14dfbb3","system_id":"levelo_inurba_marseille","lat":43.24143,"lon":5.36417,"is_reserved":false,"is_disabled":false,"rental_uris":{"android":"levelo://app?vid=5337dcdc-c6f5-44ae-a466-a1ebe14dfbb3","ios":"levelo://app?vid=5337dcdc-c6f5-44ae-a466-a1ebe14dfbb3"},"vehicle_type_id":"4","last_reported":1758575346,"current_range_meters":15200,"station_id":"cpo36qri1sfpv3e86is0","pricing_plan_id":"cebpf4jnsgd1na2vs0mg"},{"bike_id":"beb42e98-dff7-41f2-be88-1fa7f6f0819a","system_id":"levelo_inurba_marseille","lat":43.25276,"lon":5.42221,"is_reserved":false,"is_disabled":false,"rental_uris":{"android":"levelo://app?vid=beb42e98-dff7-41f2-be88-1fa7f6f0819a","ios":"levelo://app?vid=beb42e98-dff7-41f2-be88-1fa7f6f0819a"},"vehicle_type_id":"4","last_reported":1758575346,"current_range_meters":15200,"station_id":"","pricing_plan_id":"cebpf4jnsgd1na2vs0mg"},{"bike_id":"a985cd1d-9791-4ff1-8c5d-30d266c59446","system_id":"levelo_inurba_marseille","lat":43.27809,"lon":5.40713,"is_reserved":false,"is_disabled":false,"rental_uris":{"android":"levelo://app?vid=a985cd1d-9791-4ff1-8c5d-30d266c59446","ios":"levelo://app?vid=a985cd1d-9791-4ff1-8c5d-30d266c59446"},"vehicle_type_id":"4","last_reported":1758575346,"current_range_meters":15200,"station_id":"ce4bhnh2rcd13ifvqgtg","pricing_plan_id":"cebpf4jnsgd1na2vs0mg"},{"bike_id":"eba01587-aeed-4123-b2ce-9abc98879f91","system_id":"levelo_inurba_marseille","lat":43.27065,"lon":5.42277,"is_reserved":false,"is_disabled":true,"rental_uris":{"android":"levelo://app?vid=eba01587-aeed-4123-b2ce-9abc98879f91","ios":"levelo://app?vid=eba01587-aeed-4123-b2ce-9abc98879f91"},"vehicle_type_id":"4","last_reported":1758575346,"current_range_meters":16000,"station_id":"ce4bhk92rcd13ifvqgb0","pricing_plan_id":"cebpf4jnsgd1na2vs0mg"},{"bike_id":"bf878ec6-d729-4443-a3b4-9fa5cc136616","system_id":"levelo_inurba_marseille","lat":43.276,"lon":5.42652,"is_reserved":false,"is_disabled":false,"rental_uris":{"android":"levelo://app?vid=bf878ec6-d729-4443-a3b4-9fa5cc136616","ios":"levelo://app?vid=bf878ec6-d729-4443-a3b4-9fa5cc136616"},"vehicle_type_id":"4","last_reported":1758575346,"current_range_meters":16000,"station_id":"","pricing_plan_id":"cebpf4jnsgd1na2vs0mg"},{"bike_id":"ab4d8651-49b1-4bed-af87-7dfe5dd0fa71","system_id":"levelo_inurba_marseille","lat":43.30431,"lon":5.39756,"is_reserved":false,"is_disabled":false,"rental_uris":{"android":"levelo://app?vid=ab4d8651-49b1-4bed-af87-7dfe5dd0fa71","ios":"levelo://app?vid=ab4d8651-49b1-4bed-af87-7dfe5dd0fa71"},"vehicle_type_id":"4","last_reported":1758575346,"current_range_meters":16000,"station_id":"ce4bh092rcd13ifvqd20","pricing_plan_id":"cebpf4jnsgd1na2vs0mg"},{"bike_id":"7de5da8a-e4bb-461f-939f-a54cb1c4c947","system_id":"levelo_inurba_marseille","lat":43.29259,"lon":5.38428,"is_reserved":false,"is_disabled":false,"rental_uris":{"android":"levelo://app?vid=7de5da8a-e4bb-461f-939f-a54cb1c4c947","ios":"levelo://app?vid=7de5da8a-e4bb-461f-939f-a54cb1c4c947"},"vehicle_type_id":"4","last_reported":1758575346,"current_range_meters":16000,"station_id":"ce4bh692rcd13ifvqea0","pricing_plan_id":"cebpf4jnsgd1na2vs0mg"},{"bike_id":"b39d4814-e9e4-4c28-8c50-525791cc33f5","system_id":"levelo_inurba_marseille","lat":43.29974,"lon":5.38484,"is_reserved":false,"is_disabled":true,"rental_uris":{"android":"levelo://app?vid=b39d4814-e9e4-4c28-8c50-525791cc33f5","ios":"levelo://app?vid=b39d4814-e9e4-4c28-8c50-525791cc33f5"},"vehicle_type_id":"4","last_reported":1758575346,"current_range_meters":16000,"station_id":"ce4bgj92rcd13ifvqbd0","pricing_plan_id":"cebpf4jnsgd1na2vs0mg"},{"bike_id":"0db179d0-a8ed-43a4-abb6-f6b9e8918313","system_id":"levelo_inurba_marseille","lat":43.31251,"lon":5.36914,"is_reserved":false,"is_disabled":false,"rental_uris":{"android":"levelo://app?vid=0db179d0-a8ed-43a4-abb6-f6b9e8918313","ios":"levelo://app?vid=0db179d0-a8ed-43a4-abb6-f6b9e8918313"},"vehicle_type_id":"4","last_reported":1758575346,"current_range_meters":16000,"station_id":"","pricing_plan_id":"cebpf4jnsgd1na2vs0mg"},{"bike_id":"b10be7f3-8570-4eaf-885c-24e062bec931","system_id":"levelo_inurba_marseille","lat":43.29025,"lon":5.37564,"is_reserved":false,"is_disabled":false,"rental_uris":{"android":"levelo://app?vid=b10be7f3-8570-4eaf-885c-24e062bec931","ios":"levelo://app?vid=b10be7f3-8570-4eaf-885c-24e062bec931"},"vehicle_type_id":"4","last_reported":1758575346,"current_range_meters":15200,"station_id":"ce4bh692rcd13ifvqe90","pricing_plan_id":"cebpf4jnsgd1na2vs0mg"},{"bike_id":"2bbca4f0-5b3f-444b-bd47-97824d5619a3","system_id":"levelo_inurba_marseille","lat":43.28846,"lon":5.35874,"is_reserved":false,"is_disabled":false,"rental_uris":{"android":"levelo://app?vid=2bbca4f0-5b3f-444b-bd47-97824d5619a3","ios":"levelo://app?vid=2bbca4f0-5b3f-444b-bd47-97824d5619a3"},"vehicle_type_id":"4","last_reported":1758575346,"current_range_meters":16000,"station_id":"ce4bhb12rcd13ifvqem0","pricing_plan_id":"cebpf4jnsgd1na2vs0mg"},{"bike_id":"4fb3a02a-3f30-4eed-969e-aa70dad58cbf","system_id":"levelo_inurba_marseille","lat":43.28833,"lon":5.35863,"is_reserved":false,"is_disabled":false,"rental_uris":{"android":"levelo://app?vid=4fb3a02a-3f30-4eed-969e-aa70dad58cbf","ios":"levelo://app?vid=4fb3a02a-3f30-4eed-969e-aa70dad58cbf"},"vehicle_type_id":"4","last_reported":1758575346,"current_range_meters":16000,"station_id":"ce4bhb12rcd13ifvqem0","pricing_plan_id":"cebpf4jnsgd1na2vs0mg"},{"bike_id":"51274726-2bb1-4856-8ca4-67ca79a09ae1","system_id":"levelo_inurba_marseille","lat":43.293,"lon":5.37444,"is_reserved":false,"is_disabled":false,"rental_uris":{"android":"levelo://app?vid=51274726-2bb1-4856-8ca4-67ca79a09ae1","ios":"levelo://app?vid=51274726-2bb1-4856-8ca4-67ca79a09ae1"},"vehicle_type_id":"4","last_reported":1758575346,"current_range_meters":16000,"station_id":"ce4bgi12rcd13ifvqb70","pricing_plan_id":"cebpf4jnsgd1na2vs0mg"},{"bike_id":"1403fef7-e606-4d3c-b7fe-8786a678862e","system_id":"levelo_inurba_marseille","lat":43.28708,"lon":5.37362,"is_reserved":false,"is_disabled":false,"rental_uris":{"android":"levelo://app?vid=1403fef7-e606-4d3c-b7fe-8786a678862e","ios":"levelo://app?vid=1403fef7-e606-4d3c-b7fe-8786a678862e"},"vehicle_type_id":"4","last_reported":1758575346,"current_range_meters":16000,"station_id":"ce4bh3p2rcd13ifvqdq0","pricing_plan_id":"cebpf4jnsgd1na2vs0mg"},{"bike_id":"da64a509-72ad-45f0-a9bf-3cc012993de2","system_id":"levelo_inurba_marseille","lat":43.29716,"lon":5.36596,"is_reserved":false,"is_disabled":true,"rental_uris":{"android":"levelo://app?vid=da64a509-72ad-45f0-a9bf-3cc012993de2","ios":"levelo://app?vid=da64a509-72ad-45f0-a9bf-3cc012993de2"},"vehicle_type_id":"4","last_reported":1758575346,"current_range_meters":16400,"station_id":"ce4bgn12rcd13ifvqbt0","pricing_plan_id":"cebpf4jnsgd1na2vs0mg"},{"bike_id":"67f8779d-1efa-43e7-baf9-8cfe5a0d54fd","system_id":"levelo_inurba_marseille","lat":43.28658,"lon":5.36352,"is_reserved":false,"is_disabled":false,"rental_uris":{"android":"levelo://app?vid=67f8779d-1efa-43e7-baf9-8cfe5a0d54fd","ios":"levelo://app?vid=67f8779d-1efa-43e7-baf9-8cfe5a0d54fd"},"vehicle_type_id":"4","last_reported":1758575346,"current_range_meters":16400,"station_id":"ce4bhah2rcd13ifvqej0","pricing_plan_id":"cebpf4jnsgd1na2vs0mg"},{"bike_id":"23991cdc-4041-46d0-b929-e122a947ab06","system_id":"levelo_inurba_marseille","lat":43.3054,"lon":5.38433,"is_reserved":false,"is_disabled":false,"rental_uris":{"android":"levelo://app?vid=23991cdc-4041-46d0-b929-e122a947ab06","ios":"levelo://app?vid=23991cdc-4041-46d0-b929-e122a947ab06"},"vehicle_type_id":"4","last_reported":1758575346,"current_range_meters":16800,"station_id":"ce4bgg92rcd13ifvqb30","pricing_plan_id":"cebpf4jnsgd1na2vs0mg"},{"bike_id":"1e27f854-5af7-4b92-a191-ee81e0b480d7","system_id":"levelo_inurba_marseille","lat":43.28938,"lon":5.36639,"is_reserved":false,"is_disabled":false,"rental_uris":{"android":"levelo://app?vid=1e27f854-5af7-4b92-a191-ee81e0b480d7","ios":"levelo://app?vid=1e27f854-5af7-4b92-a191-ee81e0b480d7"},"vehicle_type_id":"4","last_reported":1758575346,"current_range_meters":16400,"station_id":"ce4bhap2rcd13ifvqek0","pricing_plan_id":"cebpf4jnsgd1na2vs0mg"},{"bike_id":"d4d1640f-69db-450c-91f4-d1c15bc15a9e","system_id":"levelo_inurba_marseille","lat":43.29323,"lon":5.37146,"is_reserved":false,"is_disabled":false,"rental_uris":{"android":"levelo://app?vid=d4d1640f-69db-450c-91f4-d1c15bc15a9e","ios":"levelo://app?vid=d4d1640f-69db-450c-91f4-d1c15bc15a9e"},"vehicle_type_id":"4","last_reported":1758575346,"current_range_meters":16400,"station_id":"ce4bgh92rcd13ifvqb40","pricing_plan_id":"cebpf4jnsgd1na2vs0mg"},{"bike_id":"a31c3b79-ece0-43f4-bcf2-064f2f9695b0","system_id":"levelo_inurba_marseille","lat":43.22565,"lon":5.41624,"is_reserved":false,"is_disabled":false,"rental_uris":{"android":"levelo://app?vid=a31c3b79-ece0-43f4-bcf2-064f2f9695b0","ios":"levelo://app?vid=a31c3b79-ece0-43f4-bcf2-064f2f9695b0"},"vehicle_type_id":"4","last_reported":1758575346,"current_range_meters":16400,"station_id":"st_d2o4gvlbi1j2169b742g","pricing_plan_id":"cebpf4jnsgd1na2vs0mg"},{"bike_id":"b691ca5f-66df-4ba8-a7c1-05a56010da29","system_id":"levelo_inurba_marseille","lat":43.292593,"lon":5.409073,"is_reserved":false,"is_disabled":false,"rental_uris":{"android":"levelo://app?vid=b691ca5f-66df-4ba8-a7c1-05a56010da29","ios":"levelo://app?vid=b691ca5f-66df-4ba8-a7c1-05a56010da29"},"vehicle_type_id":"4","last_reported":1758575346,"current_range_meters":16400,"station_id":"ce4bh192rcd13ifvqdc0","pricing_plan_id":"cebpf4jnsgd1na2vs0mg"},{"bike_id":"f105ae55-1560-494e-8a64-7b5dc0667c46","system_id":"levelo_inurba_marseille","lat":43.2952,"lon":5.39395,"is_reserved":false,"is_disabled":false,"rental_uris":{"android":"levelo://app?vid=f105ae55-1560-494e-8a64-7b5dc0667c46","ios":"levelo://app?vid=f105ae55-1560-494e-8a64-7b5dc0667c46"},"vehicle_type_id":"4","last_reported":1758575346,"current_range_meters":16800,"station_id":"ce4bh292rcd13ifvqdf0","pricing_plan_id":"cebpf4jnsgd1na2vs0mg"},{"bike_id":"0d93d80f-23fc-4b4f-918d-28fde704208b","system_id":"levelo_inurba_marseille","lat":43.24172,"lon":5.364032,"is_reserved":false,"is_disabled":false,"rental_uris":{"android":"levelo://app?vid=0d93d80f-23fc-4b4f-918d-28fde704208b","ios":"levelo://app?vid=0d93d80f-23fc-4b4f-918d-28fde704208b"},"vehicle_type_id":"4","last_reported":1758575346,"current_range_meters":16800,"station_id":"cpo36qri1sfpv3e86is0","pricing_plan_id":"cebpf4jnsgd1na2vs0mg"},{"bike_id":"2a2f1ce0-5eb2-4ab6-a692-64d9649dcb94","system_id":"levelo_inurba_marseille","lat":43.2257,"lon":5.41622,"is_reserved":false,"is_disabled":false,"rental_uris":{"android":"levelo://app?vid=2a2f1ce0-5eb2-4ab6-a692-64d9649dcb94","ios":"levelo://app?vid=2a2f1ce0-5eb2-4ab6-a692-64d9649dcb94"},"vehicle_type_id":"4","last_reported":1758575346,"current_range_meters":16800,"station_id":"st_d2o4gvlbi1j2169b742g","pricing_plan_id":"cebpf4jnsgd1na2vs0mg"},{"bike_id":"a7419ae3-9547-4040-94b8-fb34dd4da0d7","system_id":"levelo_inurba_marseille","lat":43.29905,"lon":5.38153,"is_reserved":false,"is_disabled":false,"rental_uris":{"android":"levelo://app?vid=a7419ae3-9547-4040-94b8-fb34dd4da0d7","ios":"levelo://app?vid=a7419ae3-9547-4040-94b8-fb34dd4da0d7"},"vehicle_type_id":"4","last_reported":1758575346,"current_range_meters":16800,"station_id":"ce4bgj12rcd13ifvqbc0","pricing_plan_id":"cebpf4jnsgd1na2vs0mg"},{"bike_id":"8dc69592-a229-4af4-b92c-de5588c3f590","system_id":"levelo_inurba_marseille","lat":43.31275,"lon":5.40167,"is_reserved":false,"is_disabled":false,"rental_uris":{"android":"levelo://app?vid=8dc69592-a229-4af4-b92c-de5588c3f590","ios":"levelo://app?vid=8dc69592-a229-4af4-b92c-de5588c3f590"},"vehicle_type_id":"4","last_reported":1758575346,"current_range_meters":16800,"station_id":"ce4bh092rcd13ifvqd30","pricing_plan_id":"cebpf4jnsgd1na2vs0mg"},{"bike_id":"3a2f0200-19f6-4563-8356-bbb5c698396a","system_id":"levelo_inurba_marseille","lat":43.21765,"lon":5.34587,"is_reserved":false,"is_disabled":false,"rental_uris":{"android":"levelo://app?vid=3a2f0200-19f6-4563-8356-bbb5c698396a","ios":"levelo://app?vid=3a2f0200-19f6-4563-8356-bbb5c698396a"},"vehicle_type_id":"4","last_reported":1758575346,"current_range_meters":16800,"station_id":"st_cvj6r9ubvosntc0bgbag","pricing_plan_id":"cebpf4jnsgd1na2vs0mg"},{"bike_id":"e7612908-1196-4d06-b5f1-fca12198c529","system_id":"levelo_inurba_marseille","lat":43.25721,"lon":5.41109,"is_reserved":false,"is_disabled":true,"rental_uris":{"android":"levelo://app?vid=e7612908-1196-4d06-b5f1-fca12198c529","ios":"levelo://app?vid=e7612908-1196-4d06-b5f1-fca12198c529"},"vehicle_type_id":"4","last_reported":1758575346,"current_range_meters":16800,"station_id":"ce4bhkp2rcd13ifvqgd0","pricing_plan_id":"cebpf4jnsgd1na2vs0mg"},{"bike_id":"37921a0e-44b0-4945-84df-e25486d4695c","system_id":"levelo_inurba_marseille","lat":43.28431,"lon":5.37522,"is_reserved":false,"is_disabled":false,"rental_uris":{"android":"levelo://app?vid=37921a0e-44b0-4945-84df-e25486d4695c","ios":"levelo://app?vid=37921a0e-44b0-4945-84df-e25486d4695c"},"vehicle_type_id":"4","last_reported":1758575346,"current_range_meters":17200,"station_id":"ce4bh412rcd13ifvqds0","pricing_plan_id":"cebpf4jnsgd1na2vs0mg"},{"bike_id":"a576dd0d-df8d-4021-bbd7-910e1170286d","system_id":"levelo_inurba_marseille","lat":43.29297,"lon":5.37164,"is_reserved":false,"is_disabled":false,"rental_uris":{"android":"levelo://app?vid=a576dd0d-df8d-4021-bbd7-910e1170286d","ios":"levelo://app?vid=a576dd0d-df8d-4021-bbd7-910e1170286d"},"vehicle_type_id":"4","last_reported":1758575346,"current_range_meters":17200,"station_id":"ce4bgh92rcd13ifvqb40","pricing_plan_id":"cebpf4jnsgd1na2vs0mg"},{"bike_id":"30062821-6657-44f1-9c0e-84d3f3ca66cd","system_id":"levelo_inurba_marseille","lat":43.30889,"lon":5.39633,"is_reserved":false,"is_disabled":false,"rental_uris":{"android":"levelo://app?vid=30062821-6657-44f1-9c0e-84d3f3ca66cd","ios":"levelo://app?vid=30062821-6657-44f1-9c0e-84d3f3ca66cd"},"vehicle_type_id":"4","last_reported":1758575346,"current_range_meters":17200,"station_id":"ce4bh012rcd13ifvqcv0","pricing_plan_id":"cebpf4jnsgd1na2vs0mg"},{"bike_id":"eacf6cab-7b46-41a2-bdec-98874f91cc7f","system_id":"levelo_inurba_marseille","lat":43.22931,"lon":5.35382,"is_reserved":false,"is_disabled":false,"rental_uris":{"android":"levelo://app?vid=eacf6cab-7b46-41a2-bdec-98874f91cc7f","ios":"levelo://app?vid=eacf6cab-7b46-41a2-bdec-98874f91cc7f"},"vehicle_type_id":"4","last_reported":1758575346,"current_range_meters":17200,"station_id":"cpo3532slgdg3j2ikp40","pricing_plan_id":"cebpf4jnsgd1na2vs0mg"},{"bike_id":"7f66c4e6-9f4d-4bec-a1da-dab0803ea521","system_id":"levelo_inurba_marseille","lat":43.29273,"lon":5.36847,"is_reserved":false,"is_disabled":false,"rental_uris":{"android":"levelo://app?vid=7f66c4e6-9f4d-4bec-a1da-dab0803ea521","ios":"levelo://app?vid=7f66c4e6-9f4d-4bec-a1da-dab0803ea521"},"vehicle_type_id":"4","last_reported":1758575346,"current_range_meters":17200,"station_id":"ce4bhbp2rcd13ifvqesg","pricing_plan_id":"cebpf4jnsgd1na2vs0mg"},{"bike_id":"c3e6cc38-8443-41f0-8b93-3da119df4b84","system_id":"levelo_inurba_marseille","lat":43.25935,"lon":5.40877,"is_reserved":false,"is_disabled":false,"rental_uris":{"android":"levelo://app?vid=c3e6cc38-8443-41f0-8b93-3da119df4b84","ios":"levelo://app?vid=c3e6cc38-8443-41f0-8b93-3da119df4b84"},"vehicle_type_id":"4","last_reported":1758575346,"current_range_meters":17200,"station_id":"ce4bhm92rcd13ifvqglg","pricing_plan_id":"cebpf4jnsgd1na2vs0mg"},{"bike_id":"18a05041-df0b-4871-a1b2-d886eafc146a","system_id":"levelo_inurba_marseille","lat":43.29089,"lon":5.38148,"is_reserved":false,"is_disabled":true,"rental_uris":{"android":"levelo://app?vid=18a05041-df0b-4871-a1b2-d886eafc146a","ios":"levelo://app?vid=18a05041-df0b-4871-a1b2-d886eafc146a"},"vehicle_type_id":"4","last_reported":1758575346,"current_range_meters":17200,"station_id":"ce4bh512rcd13ifvqe2g","pricing_plan_id":"cebpf4jnsgd1na2vs0mg"},{"bike_id":"1964a7c4-f341-4518-b3f3-4cff78a650f1","system_id":"levelo_inurba_marseille","lat":43.324769,"lon":5.365707,"is_reserved":false,"is_disabled":false,"rental_uris":{"android":"levelo://app?vid=1964a7c4-f341-4518-b3f3-4cff78a650f1","ios":"levelo://app?vid=1964a7c4-f341-4518-b3f3-4cff78a650f1"},"vehicle_type_id":"4","last_reported":1758575346,"current_range_meters":17200,"station_id":"ce4bhs12rcd13ifvqhvg","pricing_plan_id":"cebpf4jnsgd1na2vs0mg"},{"bike_id":"4ebdc715-e70c-4658-84a1-b01cd0775d27","system_id":"levelo_inurba_marseille","lat":43.24176,"lon":5.39642,"is_reserved":false,"is_disabled":false,"rental_uris":{"android":"levelo://app?vid=4ebdc715-e70c-4658-84a1-b01cd0775d27","ios":"levelo://app?vid=4ebdc715-e70c-4658-84a1-b01cd0775d27"},"vehicle_type_id":"4","last_reported":1758575346,"current_range_meters":17200,"station_id":"","pricing_plan_id":"cebpf4jnsgd1na2vs0mg"},{"bike_id":"43d57fd4-047e-4ac8-97e5-ec9b96239472","system_id":"levelo_inurba_marseille","lat":43.33231,"lon":5.39821,"is_reserved":false,"is_disabled":false,"rental_uris":{"android":"levelo://app?vid=43d57fd4-047e-4ac8-97e5-ec9b96239472","ios":"levelo://app?vid=43d57fd4-047e-4ac8-97e5-ec9b96239472"},"vehicle_type_id":"4","last_reported":1758575346,"current_range_meters":17200,"station_id":"","pricing_plan_id":"cebpf4jnsgd1na2vs0mg"},{"bike_id":"7c0482c3-9253-4d1b-b4f3-be55cdb7721d","system_id":"levelo_inurba_marseille","lat":43.33757,"lon":5.37466,"is_reserved":false,"is_disabled":false,"rental_uris":{"android":"levelo://app?vid=7c0482c3-9253-4d1b-b4f3-be55cdb7721d","ios":"levelo://app?vid=7c0482c3-9253-4d1b-b4f3-be55cdb7721d"},"vehicle_type_id":"4","last_reported":1758575346,"current_range_meters":17600,"station_id":"","pricing_plan_id":"cebpf4jnsgd1na2vs0mg"},{"bike_id":"ed883389-1672-49b0-a5c4-8def0ee0fc42","system_id":"levelo_inurba_marseille","lat":43.27494,"lon":5.42454,"is_reserved":false,"is_disabled":false,"rental_uris":{"android":"levelo://app?vid=ed883389-1672-49b0-a5c4-8def0ee0fc42","ios":"levelo://app?vid=ed883389-1672-49b0-a5c4-8def0ee0fc42"},"vehicle_type_id":"4","last_reported":1758575346,"current_range_meters":17600,"station_id":"ce4bhn92rcd13ifvqgrg","pricing_plan_id":"cebpf4jnsgd1na2vs0mg"},{"bike_id":"58503829-3735-4137-8b93-f350213b0f3e","system_id":"levelo_inurba_marseille","lat":43.322884,"lon":5.382691,"is_reserved":false,"is_disabled":false,"rental_uris":{"android":"levelo://app?vid=58503829-3735-4137-8b93-f350213b0f3e","ios":"levelo://app?vid=58503829-3735-4137-8b93-f350213b0f3e"},"vehicle_type_id":"4","last_reported":1758575346,"current_range_meters":17600,"station_id":"ce4bhr12rcd13ifvqhqg","pricing_plan_id":"cebpf4jnsgd1na2vs0mg"},{"bike_id":"4627df8e-f538-4846-9a48-89f93bc1e101","system_id":"levelo_inurba_marseille","lat":43.30794,"lon":5.38153,"is_reserved":false,"is_disabled":false,"rental_uris":{"android":"levelo://app?vid=4627df8e-f538-4846-9a48-89f93bc1e101","ios":"levelo://app?vid=4627df8e-f538-4846-9a48-89f93bc1e101"},"vehicle_type_id":"4","last_reported":1758575346,"current_range_meters":17600,"station_id":"ce4bgt12rcd13ifvqce0","pricing_plan_id":"cebpf4jnsgd1na2vs0mg"},{"bike_id":"7f63abf6-c351-4659-a653-d356862ac27b","system_id":"levelo_inurba_marseille","lat":43.257218,"lon":5.411072,"is_reserved":false,"is_disabled":false,"rental_uris":{"android":"levelo://app?vid=7f63abf6-c351-4659-a653-d356862ac27b","ios":"levelo://app?vid=7f63abf6-c351-4659-a653-d356862ac27b"},"vehicle_type_id":"4","last_reported":1758575346,"current_range_meters":17600,"station_id":"ce4bhkp2rcd13ifvqgd0","pricing_plan_id":"cebpf4jnsgd1na2vs0mg"},{"bike_id":"1fd71981-16ff-48a9-a84a-bf8e8eea0531","system_id":"levelo_inurba_marseille","lat":43.23194,"lon":5.39992,"is_reserved":false,"is_disabled":false,"rental_uris":{"android":"levelo://app?vid=1fd71981-16ff-48a9-a84a-bf8e8eea0531","ios":"levelo://app?vid=1fd71981-16ff-48a9-a84a-bf8e8eea0531"},"vehicle_type_id":"4","last_reported":1758575346,"current_range_meters":17600,"station_id":"ce4bhn12rcd13ifvqgqg","pricing_plan_id":"cebpf4jnsgd1na2vs0mg"},{"bike_id":"a9a6c795-f2f9-4197-a11d-39f287248970","system_id":"levelo_inurba_marseille","lat":43.24647,"lon":5.38895,"is_reserved":false,"is_disabled":false,"rental_uris":{"android":"levelo://app?vid=a9a6c795-f2f9-4197-a11d-39f287248970","ios":"levelo://app?vid=a9a6c795-f2f9-4197-a11d-39f287248970"},"vehicle_type_id":"4","last_reported":1758575346,"current_range_meters":17600,"station_id":"ce4bhg12rcd13ifvqf60","pricing_plan_id":"cebpf4jnsgd1na2vs0mg"},{"bike_id":"262a9a4c-5afb-48f0-80ae-fb283121685b","system_id":"levelo_inurba_marseille","lat":43.30318,"lon":5.40434,"is_reserved":false,"is_disabled":false,"rental_uris":{"android":"levelo://app?vid=262a9a4c-5afb-48f0-80ae-fb283121685b","ios":"levelo://app?vid=262a9a4c-5afb-48f0-80ae-fb283121685b"},"vehicle_type_id":"4","last_reported":1758575346,"current_range_meters":17600,"station_id":"ce4bh012rcd13ifvqd10","pricing_plan_id":"cebpf4jnsgd1na2vs0mg"},{"bike_id":"7ee22d69-7b29-4902-914e-1a09ef8b0b78","system_id":"levelo_inurba_marseille","lat":43.29797,"lon":5.40403,"is_reserved":false,"is_disabled":false,"rental_uris":{"android":"levelo://app?vid=7ee22d69-7b29-4902-914e-1a09ef8b0b78","ios":"levelo://app?vid=7ee22d69-7b29-4902-914e-1a09ef8b0b78"},"vehicle_type_id":"4","last_reported":1758575346,"current_range_meters":17600,"station_id":"ce4bh112rcd13ifvqd90","pricing_plan_id":"cebpf4jnsgd1na2vs0mg"},{"bike_id":"d24dd466-02ce-4a40-865e-e4b5699b5ac4","system_id":"levelo_inurba_marseille","lat":43.292636,"lon":5.384441,"is_reserved":false,"is_disabled":false,"rental_uris":{"android":"levelo://app?vid=d24dd466-02ce-4a40-865e-e4b5699b5ac4","ios":"levelo://app?vid=d24dd466-02ce-4a40-865e-e4b5699b5ac4"},"vehicle_type_id":"4","last_reported":1758575346,"current_range_meters":18000,"station_id":"","pricing_plan_id":"cebpf4jnsgd1na2vs0mg"},{"bike_id":"d4ff9b8e-3aa3-490e-877c-21d15c20f3bf","system_id":"levelo_inurba_marseille","lat":43.30301,"lon":5.39203,"is_reserved":false,"is_disabled":false,"rental_uris":{"android":"levelo://app?vid=d4ff9b8e-3aa3-490e-877c-21d15c20f3bf","ios":"levelo://app?vid=d4ff9b8e-3aa3-490e-877c-21d15c20f3bf"},"vehicle_type_id":"4","last_reported":1758575346,"current_range_meters":18000,"station_id":"ce4bgkh2rcd13ifvqbk0","pricing_plan_id":"cebpf4jnsgd1na2vs0mg"},{"bike_id":"e24a98c0-c017-4e05-ae5c-0af6755c74f9","system_id":"levelo_inurba_marseille","lat":43.29162,"lon":5.3716,"is_reserved":false,"is_disabled":false,"rental_uris":{"android":"levelo://app?vid=e24a98c0-c017-4e05-ae5c-0af6755c74f9","ios":"levelo://app?vid=e24a98c0-c017-4e05-ae5c-0af6755c74f9"},"vehicle_type_id":"4","last_reported":1758575346,"current_range_meters":18000,"station_id":"ce4bha92rcd13ifvqeh0","pricing_plan_id":"cebpf4jnsgd1na2vs0mg"},{"bike_id":"06a24bce-028d-4b4a-b4a3-d45296145db5","system_id":"levelo_inurba_marseille","lat":43.28425,"lon":5.34991,"is_reserved":false,"is_disabled":true,"rental_uris":{"android":"levelo://app?vid=06a24bce-028d-4b4a-b4a3-d45296145db5","ios":"levelo://app?vid=06a24bce-028d-4b4a-b4a3-d45296145db5"},"vehicle_type_id":"4","last_reported":1758575346,"current_range_meters":18000,"station_id":"ce4bhch2rcd13ifvqeug","pricing_plan_id":"cebpf4jnsgd1na2vs0mg"},{"bike_id":"c05d2c32-d011-46d5-8a51-6b40229ba66e","system_id":"levelo_inurba_marseille","lat":43.28944,"lon":5.3639,"is_reserved":false,"is_disabled":false,"rental_uris":{"android":"levelo://app?vid=c05d2c32-d011-46d5-8a51-6b40229ba66e","ios":"levelo://app?vid=c05d2c32-d011-46d5-8a51-6b40229ba66e"},"vehicle_type_id":"4","last_reported":1758575346,"current_range_meters":18000,"station_id":"ce4bhc92rcd13ifvqetg","pricing_plan_id":"cebpf4jnsgd1na2vs0mg"},{"bike_id":"828723bd-0d58-4ade-b8dd-e50802c59366","system_id":"levelo_inurba_marseille","lat":43.28932,"lon":5.36639,"is_reserved":false,"is_disabled":false,"rental_uris":{"android":"levelo://app?vid=828723bd-0d58-4ade-b8dd-e50802c59366","ios":"levelo://app?vid=828723bd-0d58-4ade-b8dd-e50802c59366"},"vehicle_type_id":"4","last_reported":1758575346,"current_range_meters":17600,"station_id":"ce4bhap2rcd13ifvqek0","pricing_plan_id":"cebpf4jnsgd1na2vs0mg"},{"bike_id":"fbbe8a6b-07d8-4985-bf8e-2675f11ccee9","system_id":"levelo_inurba_marseille","lat":43.308067,"lon":5.435254,"is_reserved":false,"is_disabled":false,"rental_uris":{"android":"levelo://app?vid=fbbe8a6b-07d8-4985-bf8e-2675f11ccee9","ios":"levelo://app?vid=fbbe8a6b-07d8-4985-bf8e-2675f11ccee9"},"vehicle_type_id":"4","last_reported":1758575346,"current_range_meters":18000,"station_id":"ce4bhph2rcd13ifvqheg","pricing_plan_id":"cebpf4jnsgd1na2vs0mg"},{"bike_id":"90dca5b1-f7f1-47bf-ae0d-8dea2cb8b7fb","system_id":"levelo_inurba_marseille","lat":43.28272,"lon":5.35055,"is_reserved":false,"is_disabled":false,"rental_uris":{"android":"levelo://app?vid=90dca5b1-f7f1-47bf-ae0d-8dea2cb8b7fb","ios":"levelo://app?vid=90dca5b1-f7f1-47bf-ae0d-8dea2cb8b7fb"},"vehicle_type_id":"4","last_reported":1758575346,"current_range_meters":18000,"station_id":"ce4bhbp2rcd13ifvqerg","pricing_plan_id":"cebpf4jnsgd1na2vs0mg"},{"bike_id":"ef9be058-021f-4a83-94c1-03c7c4ea9d67","system_id":"levelo_inurba_marseille","lat":43.28261,"lon":5.35055,"is_reserved":false,"is_disabled":false,"rental_uris":{"android":"levelo://app?vid=ef9be058-021f-4a83-94c1-03c7c4ea9d67","ios":"levelo://app?vid=ef9be058-021f-4a83-94c1-03c7c4ea9d67"},"vehicle_type_id":"4","last_reported":1758575346,"current_range_meters":18000,"station_id":"ce4bhbp2rcd13ifvqerg","pricing_plan_id":"cebpf4jnsgd1na2vs0mg"},{"bike_id":"f5720553-3337-4ea2-b12b-e39d61610c3a","system_id":"levelo_inurba_marseille","lat":43.28701,"lon":5.39979,"is_reserved":false,"is_disabled":false,"rental_uris":{"android":"levelo://app?vid=f5720553-3337-4ea2-b12b-e39d61610c3a","ios":"levelo://app?vid=f5720553-3337-4ea2-b12b-e39d61610c3a"},"vehicle_type_id":"4","last_reported":1758575346,"current_range_meters":18000,"station_id":"ce4bho92rcd13ifvqh3g","pricing_plan_id":"cebpf4jnsgd1na2vs0mg"},{"bike_id":"2253bab2-5def-4344-ad7a-265c1ff745b4","system_id":"levelo_inurba_marseille","lat":43.29628,"lon":5.371632,"is_reserved":false,"is_disabled":false,"rental_uris":{"android":"levelo://app?vid=2253bab2-5def-4344-ad7a-265c1ff745b4","ios":"levelo://app?vid=2253bab2-5def-4344-ad7a-265c1ff745b4"},"vehicle_type_id":"4","last_reported":1758575346,"current_range_meters":18000,"station_id":"ce4bgnh2rcd13ifvqc0g","pricing_plan_id":"cebpf4jnsgd1na2vs0mg"},{"bike_id":"ba4cae24-876b-4e10-916b-ca323a712cd2","system_id":"levelo_inurba_marseille","lat":43.2574,"lon":5.41101,"is_reserved":false,"is_disabled":false,"rental_uris":{"android":"levelo://app?vid=ba4cae24-876b-4e10-916b-ca323a712cd2","ios":"levelo://app?vid=ba4cae24-876b-4e10-916b-ca323a712cd2"},"vehicle_type_id":"4","last_reported":1758575346,"current_range_meters":18800,"station_id":"ce4bhkp2rcd13ifvqgd0","pricing_plan_id":"cebpf4jnsgd1na2vs0mg"},{"bike_id":"8206c517-24d9-49a6-84ad-32f95ce60629","system_id":"levelo_inurba_marseille","lat":43.31712,"lon":5.37734,"is_reserved":false,"is_disabled":false,"rental_uris":{"android":"levelo://app?vid=8206c517-24d9-49a6-84ad-32f95ce60629","ios":"levelo://app?vid=8206c517-24d9-49a6-84ad-32f95ce60629"},"vehicle_type_id":"4","last_reported":1758575346,"current_range_meters":18800,"station_id":"ce4bgth2rcd13ifvqch0","pricing_plan_id":"cebpf4jnsgd1na2vs0mg"},{"bike_id":"a57ec678-3f9e-4769-a06b-b0e36f8205fe","system_id":"levelo_inurba_marseille","lat":43.23187,"lon":5.39985,"is_reserved":false,"is_disabled":false,"rental_uris":{"android":"levelo://app?vid=a57ec678-3f9e-4769-a06b-b0e36f8205fe","ios":"levelo://app?vid=a57ec678-3f9e-4769-a06b-b0e36f8205fe"},"vehicle_type_id":"4","last_reported":1758575346,"current_range_meters":18800,"station_id":"ce4bhn12rcd13ifvqgqg","pricing_plan_id":"cebpf4jnsgd1na2vs0mg"},{"bike_id":"f606247a-d498-4dd7-8d1a-bc07e830c1a8","system_id":"levelo_inurba_marseille","lat":43.28719,"lon":5.37935,"is_reserved":false,"is_disabled":false,"rental_uris":{"android":"levelo://app?vid=f606247a-d498-4dd7-8d1a-bc07e830c1a8","ios":"levelo://app?vid=f606247a-d498-4dd7-8d1a-bc07e830c1a8"},"vehicle_type_id":"4","last_reported":1758575346,"current_range_meters":18800,"station_id":"ce4bh9p2rcd13ifvqec0","pricing_plan_id":"cebpf4jnsgd1na2vs0mg"},{"bike_id":"78385e34-474d-44c5-b805-54a6739c391c","system_id":"levelo_inurba_marseille","lat":43.29197,"lon":5.39313,"is_reserved":false,"is_disabled":false,"rental_uris":{"android":"levelo://app?vid=78385e34-474d-44c5-b805-54a6739c391c","ios":"levelo://app?vid=78385e34-474d-44c5-b805-54a6739c391c"},"vehicle_type_id":"4","last_reported":1758575346,"current_range_meters":18800,"station_id":"ce4bh192rcd13ifvqdd0","pricing_plan_id":"cebpf4jnsgd1na2vs0mg"},{"bike_id":"9395d7f2-6841-44e3-bf7d-0bf2bd298d6c","system_id":"levelo_inurba_marseille","lat":43.29084,"lon":5.38111,"is_reserved":false,"is_disabled":false,"rental_uris":{"android":"levelo://app?vid=9395d7f2-6841-44e3-bf7d-0bf2bd298d6c","ios":"levelo://app?vid=9395d7f2-6841-44e3-bf7d-0bf2bd298d6c"},"vehicle_type_id":"4","last_reported":1758575346,"current_range_meters":18000,"station_id":"ce4bh512rcd13ifvqe2g","pricing_plan_id":"cebpf4jnsgd1na2vs0mg"},{"bike_id":"2a52b0bb-783a-489f-a7b9-793ba892f121","system_id":"levelo_inurba_marseille","lat":43.25355,"lon":5.42222,"is_reserved":false,"is_disabled":false,"rental_uris":{"android":"levelo://app?vid=2a52b0bb-783a-489f-a7b9-793ba892f121","ios":"levelo://app?vid=2a52b0bb-783a-489f-a7b9-793ba892f121"},"vehicle_type_id":"4","last_reported":1758575346,"current_range_meters":18800,"station_id":"st_d2m65c5bi1j21697t3ng","pricing_plan_id":"cebpf4jnsgd1na2vs0mg"},{"bike_id":"dddca5ef-4a33-499b-936a-6d8e6136a417","system_id":"levelo_inurba_marseille","lat":43.22945,"lon":5.35376,"is_reserved":false,"is_disabled":false,"rental_uris":{"android":"levelo://app?vid=dddca5ef-4a33-499b-936a-6d8e6136a417","ios":"levelo://app?vid=dddca5ef-4a33-499b-936a-6d8e6136a417"},"vehicle_type_id":"4","last_reported":1758575346,"current_range_meters":18800,"station_id":"cpo3532slgdg3j2ikp40","pricing_plan_id":"cebpf4jnsgd1na2vs0mg"},{"bike_id":"7ee2cf7d-a634-43d0-985d-c0ca29225f8f","system_id":"levelo_inurba_marseille","lat":43.29869,"lon":5.39728,"is_reserved":false,"is_disabled":false,"rental_uris":{"android":"levelo://app?vid=7ee2cf7d-a634-43d0-985d-c0ca29225f8f","ios":"levelo://app?vid=7ee2cf7d-a634-43d0-985d-c0ca29225f8f"},"vehicle_type_id":"4","last_reported":1758575346,"current_range_meters":19200,"station_id":"ce4bh0h2rcd13ifvqd50","pricing_plan_id":"cebpf4jnsgd1na2vs0mg"},{"bike_id":"315ccc68-47a9-4170-b321-6d88d17dfa03","system_id":"levelo_inurba_marseille","lat":43.31233,"lon":5.36856,"is_reserved":false,"is_disabled":false,"rental_uris":{"android":"levelo://app?vid=315ccc68-47a9-4170-b321-6d88d17dfa03","ios":"levelo://app?vid=315ccc68-47a9-4170-b321-6d88d17dfa03"},"vehicle_type_id":"4","last_reported":1758575346,"current_range_meters":19200,"station_id":"ce4bgl92rcd13ifvqbq0","pricing_plan_id":"cebpf4jnsgd1na2vs0mg"},{"bike_id":"7fc25c47-e0f2-4f92-a936-a3029402a1fb","system_id":"levelo_inurba_marseille","lat":43.29904,"lon":5.38133,"is_reserved":false,"is_disabled":false,"rental_uris":{"android":"levelo://app?vid=7fc25c47-e0f2-4f92-a936-a3029402a1fb","ios":"levelo://app?vid=7fc25c47-e0f2-4f92-a936-a3029402a1fb"},"vehicle_type_id":"4","last_reported":1758575346,"current_range_meters":18800,"station_id":"ce4bgj12rcd13ifvqbc0","pricing_plan_id":"cebpf4jnsgd1na2vs0mg"},{"bike_id":"e15e7425-1d2e-43f2-a937-42c73da66651","system_id":"levelo_inurba_marseille","lat":43.29548,"lon":5.38573,"is_reserved":false,"is_disabled":true,"rental_uris":{"android":"levelo://app?vid=e15e7425-1d2e-43f2-a937-42c73da66651","ios":"levelo://app?vid=e15e7425-1d2e-43f2-a937-42c73da66651"},"vehicle_type_id":"4","last_reported":1758575346,"current_range_meters":19200,"station_id":"ce4bgih2rcd13ifvqba0","pricing_plan_id":"cebpf4jnsgd1na2vs0mg"},{"bike_id":"435ba536-1a69-47b4-b2a6-f00014aac32d","system_id":"levelo_inurba_marseille","lat":43.30605,"lon":5.37235,"is_reserved":false,"is_disabled":false,"rental_uris":{"android":"levelo://app?vid=435ba536-1a69-47b4-b2a6-f00014aac32d","ios":"levelo://app?vid=435ba536-1a69-47b4-b2a6-f00014aac32d"},"vehicle_type_id":"4","last_reported":1758575346,"current_range_meters":19600,"station_id":"ce4bgqh2rcd13ifvqc4g","pricing_plan_id":"cebpf4jnsgd1na2vs0mg"},{"bike_id":"902a85b4-786a-4a10-b45c-52ec35967b94","system_id":"levelo_inurba_marseille","lat":43.24068,"lon":5.37756,"is_reserved":false,"is_disabled":false,"rental_uris":{"android":"levelo://app?vid=902a85b4-786a-4a10-b45c-52ec35967b94","ios":"levelo://app?vid=902a85b4-786a-4a10-b45c-52ec35967b94"},"vehicle_type_id":"4","last_reported":1758575346,"current_range_meters":19200,"station_id":"ce4bhnp2rcd13ifvqgvg","pricing_plan_id":"cebpf4jnsgd1na2vs0mg"},{"bike_id":"85612e58-9d01-45bf-88f8-321480c3cf13","system_id":"levelo_inurba_marseille","lat":43.28454,"lon":5.35887,"is_reserved":false,"is_disabled":false,"rental_uris":{"android":"levelo://app?vid=85612e58-9d01-45bf-88f8-321480c3cf13","ios":"levelo://app?vid=85612e58-9d01-45bf-88f8-321480c3cf13"},"vehicle_type_id":"4","last_reported":1758575346,"current_range_meters":18800,"station_id":"ce4bhah2rcd13ifvqei0","pricing_plan_id":"cebpf4jnsgd1na2vs0mg"},{"bike_id":"e82d83b3-d509-4126-8ec6-147b795b25b4","system_id":"levelo_inurba_marseille","lat":43.29034,"lon":5.3996,"is_reserved":false,"is_disabled":false,"rental_uris":{"android":"levelo://app?vid=e82d83b3-d509-4126-8ec6-147b795b25b4","ios":"levelo://app?vid=e82d83b3-d509-4126-8ec6-147b795b25b4"},"vehicle_type_id":"4","last_reported":1758575346,"current_range_meters":19200,"station_id":"ce4bh392rcd13ifvqdm0","pricing_plan_id":"cebpf4jnsgd1na2vs0mg"},{"bike_id":"cc290a18-f11d-4b21-a6cc-97ff33be46d2","system_id":"levelo_inurba_marseille","lat":43.30297,"lon":5.39188,"is_reserved":false,"is_disabled":true,"rental_uris":{"android":"levelo://app?vid=cc290a18-f11d-4b21-a6cc-97ff33be46d2","ios":"levelo://app?vid=cc290a18-f11d-4b21-a6cc-97ff33be46d2"},"vehicle_type_id":"4","last_reported":1758575346,"current_range_meters":19200,"station_id":"ce4bgkh2rcd13ifvqbk0","pricing_plan_id":"cebpf4jnsgd1na2vs0mg"},{"bike_id":"300f7730-ca4c-4a6b-b091-02d6222aa11d","system_id":"levelo_inurba_marseille","lat":43.22937,"lon":5.3536,"is_reserved":false,"is_disabled":false,"rental_uris":{"android":"levelo://app?vid=300f7730-ca4c-4a6b-b091-02d6222aa11d","ios":"levelo://app?vid=300f7730-ca4c-4a6b-b091-02d6222aa11d"},"vehicle_type_id":"4","last_reported":1758575346,"current_range_meters":19200,"station_id":"cpo3532slgdg3j2ikp40","pricing_plan_id":"cebpf4jnsgd1na2vs0mg"},{"bike_id":"73dc745b-f154-41a4-9432-789498f05b4d","system_id":"levelo_inurba_marseille","lat":43.31363,"lon":5.38491,"is_reserved":false,"is_disabled":false,"rental_uris":{"android":"levelo://app?vid=73dc745b-f154-41a4-9432-789498f05b4d","ios":"levelo://app?vid=73dc745b-f154-41a4-9432-789498f05b4d"},"vehicle_type_id":"4","last_reported":1758575346,"current_range_meters":19600,"station_id":"ce4bgt92rcd13ifvqcf0","pricing_plan_id":"cebpf4jnsgd1na2vs0mg"},{"bike_id":"35450425-2f77-4cc3-9bf2-34774855a5c4","system_id":"levelo_inurba_marseille","lat":43.25725,"lon":5.411,"is_reserved":false,"is_disabled":true,"rental_uris":{"android":"levelo://app?vid=35450425-2f77-4cc3-9bf2-34774855a5c4","ios":"levelo://app?vid=35450425-2f77-4cc3-9bf2-34774855a5c4"},"vehicle_type_id":"4","last_reported":1758575346,"current_range_meters":19600,"station_id":"ce4bhkp2rcd13ifvqgd0","pricing_plan_id":"cebpf4jnsgd1na2vs0mg"},{"bike_id":"d006181b-b46b-4fea-8675-345ce0f130d6","system_id":"levelo_inurba_marseille","lat":43.3081,"lon":5.36875,"is_reserved":false,"is_disabled":false,"rental_uris":{"android":"levelo://app?vid=d006181b-b46b-4fea-8675-345ce0f130d6","ios":"levelo://app?vid=d006181b-b46b-4fea-8675-345ce0f130d6"},"vehicle_type_id":"4","last_reported":1758575346,"current_range_meters":19600,"station_id":"","pricing_plan_id":"cebpf4jnsgd1na2vs0mg"},{"bike_id":"8a976431-e34d-4d7b-bbb7-fab43d7d5d8a","system_id":"levelo_inurba_marseille","lat":43.31328,"lon":5.396901,"is_reserved":false,"is_disabled":false,"rental_uris":{"android":"levelo://app?vid=8a976431-e34d-4d7b-bbb7-fab43d7d5d8a","ios":"levelo://app?vid=8a976431-e34d-4d7b-bbb7-fab43d7d5d8a"},"vehicle_type_id":"4","last_reported":1758575346,"current_range_meters":19600,"station_id":"ce4bgvp2rcd13ifvqcu0","pricing_plan_id":"cebpf4jnsgd1na2vs0mg"},{"bike_id":"d50d4335-b2e1-4f3f-991f-4884602a9882","system_id":"levelo_inurba_marseille","lat":43.2909,"lon":5.38155,"is_reserved":false,"is_disabled":false,"rental_uris":{"android":"levelo://app?vid=d50d4335-b2e1-4f3f-991f-4884602a9882","ios":"levelo://app?vid=d50d4335-b2e1-4f3f-991f-4884602a9882"},"vehicle_type_id":"4","last_reported":1758575346,"current_range_meters":19200,"station_id":"ce4bh512rcd13ifvqe2g","pricing_plan_id":"cebpf4jnsgd1na2vs0mg"},{"bike_id":"3c0fa725-f739-4599-965d-e73d3e7b2c8f","system_id":"levelo_inurba_marseille","lat":43.323519,"lon":5.367514,"is_reserved":false,"is_disabled":false,"rental_uris":{"android":"levelo://app?vid=3c0fa725-f739-4599-965d-e73d3e7b2c8f","ios":"levelo://app?vid=3c0fa725-f739-4599-965d-e73d3e7b2c8f"},"vehicle_type_id":"4","last_reported":1758575346,"current_range_meters":19600,"station_id":"ce4bhsh2rcd13ifvqi2g","pricing_plan_id":"cebpf4jnsgd1na2vs0mg"},{"bike_id":"d5cc46b8-e2e3-449e-bae5-96857657ca74","system_id":"levelo_inurba_marseille","lat":43.25726,"lon":5.41111,"is_reserved":false,"is_disabled":false,"rental_uris":{"android":"levelo://app?vid=d5cc46b8-e2e3-449e-bae5-96857657ca74","ios":"levelo://app?vid=d5cc46b8-e2e3-449e-bae5-96857657ca74"},"vehicle_type_id":"4","last_reported":1758575346,"current_range_meters":19600,"station_id":"ce4bhkp2rcd13ifvqgd0","pricing_plan_id":"cebpf4jnsgd1na2vs0mg"},{"bike_id":"76395fb0-39b9-4418-b45f-5caf81c7a357","system_id":"levelo_inurba_marseille","lat":43.2845,"lon":5.35892,"is_reserved":false,"is_disabled":false,"rental_uris":{"android":"levelo://app?vid=76395fb0-39b9-4418-b45f-5caf81c7a357","ios":"levelo://app?vid=76395fb0-39b9-4418-b45f-5caf81c7a357"},"vehicle_type_id":"4","last_reported":1758575346,"current_range_meters":19600,"station_id":"ce4bhah2rcd13ifvqei0","pricing_plan_id":"cebpf4jnsgd1na2vs0mg"},{"bike_id":"9feb0e0f-24fa-4463-b0f3-30472830c043","system_id":"levelo_inurba_marseille","lat":43.31757,"lon":5.39002,"is_reserved":false,"is_disabled":false,"rental_uris":{"android":"levelo://app?vid=9feb0e0f-24fa-4463-b0f3-30472830c043","ios":"levelo://app?vid=9feb0e0f-24fa-4463-b0f3-30472830c043"},"vehicle_type_id":"4","last_reported":1758575346,"current_range_meters":20000,"station_id":"ce4bhqp2rcd13ifvqhng","pricing_plan_id":"cebpf4jnsgd1na2vs0mg"},{"bike_id":"39784f12-8791-4de1-9a8f-9e7291b8b2b8","system_id":"levelo_inurba_marseille","lat":43.25117,"lon":5.40316,"is_reserved":false,"is_disabled":true,"rental_uris":{"android":"levelo://app?vid=39784f12-8791-4de1-9a8f-9e7291b8b2b8","ios":"levelo://app?vid=39784f12-8791-4de1-9a8f-9e7291b8b2b8"},"vehicle_type_id":"4","last_reported":1758575346,"current_range_meters":20000,"station_id":"ce4bhlh2rcd13ifvqgig","pricing_plan_id":"cebpf4jnsgd1na2vs0mg"},{"bike_id":"a60abba9-f9b8-477b-8786-175fc2b6218b","system_id":"levelo_inurba_marseille","lat":43.30811,"lon":5.36989,"is_reserved":false,"is_disabled":false,"rental_uris":{"android":"levelo://app?vid=a60abba9-f9b8-477b-8786-175fc2b6218b","ios":"levelo://app?vid=a60abba9-f9b8-477b-8786-175fc2b6218b"},"vehicle_type_id":"4","last_reported":1758575346,"current_range_meters":20000,"station_id":"","pricing_plan_id":"cebpf4jnsgd1na2vs0mg"},{"bike_id":"6c87d2d8-edc5-4633-9377-e629de108da5","system_id":"levelo_inurba_marseille","lat":43.29603,"lon":5.37048,"is_reserved":false,"is_disabled":false,"rental_uris":{"android":"levelo://app?vid=6c87d2d8-edc5-4633-9377-e629de108da5","ios":"levelo://app?vid=6c87d2d8-edc5-4633-9377-e629de108da5"},"vehicle_type_id":"4","last_reported":1758575346,"current_range_meters":20000,"station_id":"","pricing_plan_id":"cebpf4jnsgd1na2vs0mg"},{"bike_id":"0aabdc02-d837-4575-a0ed-99f0e89ec34a","system_id":"levelo_inurba_marseille","lat":43.3133,"lon":5.39691,"is_reserved":false,"is_disabled":false,"rental_uris":{"android":"levelo://app?vid=0aabdc02-d837-4575-a0ed-99f0e89ec34a","ios":"levelo://app?vid=0aabdc02-d837-4575-a0ed-99f0e89ec34a"},"vehicle_type_id":"4","last_reported":1758575346,"current_range_meters":19600,"station_id":"ce4bgvp2rcd13ifvqcu0","pricing_plan_id":"cebpf4jnsgd1na2vs0mg"},{"bike_id":"6b1a6382-318c-4eba-9bce-c22b0889fecb","system_id":"levelo_inurba_marseille","lat":43.29703,"lon":5.36612,"is_reserved":false,"is_disabled":false,"rental_uris":{"android":"levelo://app?vid=6b1a6382-318c-4eba-9bce-c22b0889fecb","ios":"levelo://app?vid=6b1a6382-318c-4eba-9bce-c22b0889fecb"},"vehicle_type_id":"4","last_reported":1758575346,"current_range_meters":19600,"station_id":"ce4bgn12rcd13ifvqbt0","pricing_plan_id":"cebpf4jnsgd1na2vs0mg"},{"bike_id":"7e369899-bc1f-4cc0-924e-33018945dd99","system_id":"levelo_inurba_marseille","lat":43.25722,"lon":5.41111,"is_reserved":false,"is_disabled":false,"rental_uris":{"android":"levelo://app?vid=7e369899-bc1f-4cc0-924e-33018945dd99","ios":"levelo://app?vid=7e369899-bc1f-4cc0-924e-33018945dd99"},"vehicle_type_id":"4","last_reported":1758575346,"current_range_meters":20000,"station_id":"ce4bhkp2rcd13ifvqgd0","pricing_plan_id":"cebpf4jnsgd1na2vs0mg"},{"bike_id":"0d44ec6f-f962-411c-8477-a78e54b07bcf","system_id":"levelo_inurba_marseille","lat":43.29069,"lon":5.37173,"is_reserved":false,"is_disabled":false,"rental_uris":{"android":"levelo://app?vid=0d44ec6f-f962-411c-8477-a78e54b07bcf","ios":"levelo://app?vid=0d44ec6f-f962-411c-8477-a78e54b07bcf"},"vehicle_type_id":"4","last_reported":1758575346,"current_range_meters":20000,"station_id":"ce4bh5p2rcd13ifvqe4g","pricing_plan_id":"cebpf4jnsgd1na2vs0mg"},{"bike_id":"756e60f7-70c6-4a29-9154-c3f682fc8283","system_id":"levelo_inurba_marseille","lat":43.28721,"lon":5.37929,"is_reserved":false,"is_disabled":false,"rental_uris":{"android":"levelo://app?vid=756e60f7-70c6-4a29-9154-c3f682fc8283","ios":"levelo://app?vid=756e60f7-70c6-4a29-9154-c3f682fc8283"},"vehicle_type_id":"4","last_reported":1758575346,"current_range_meters":19600,"station_id":"ce4bh9p2rcd13ifvqec0","pricing_plan_id":"cebpf4jnsgd1na2vs0mg"},