{"last_updated":1728607457,"ttl":60,"version":"2.2","data":{"bikes":[{"bike_id":"6036dc5a-3a4e-4f58-b50c-80d225d761a5","system_id":"levelo_inurba_marseille","lat":43.28429,"lon":5.39193,"is_reserved":false,"is_disabled":false,"rental_uris":{"android":"levelo://app?vid=6036dc5a-3a4e-4f58-b50c-80d225d761a5","ios":"levelo://app?vid=6036dc5a-3a4e-4f58-b50c-80d225d761a5"},"vehicle_type_id":"4","last_reported":1728607458,"current_range_meters":39200,"station_id":"ce4bhoh2rcd13ifvqh5g","pricing_plan_id":"cebpf4jnsgd1na2vs0mg"},{"bike_id":"cc771d41-3a30-4b81-a1ae-9d4890689217","system_id":"levelo_inurba_marseille","lat":43.31086,"lon":5.42428,"is_reserved":false,"is_disabled":false,"rental_uris":{"android":"levelo://app?vid=cc771d41-3a30-4b81-a1ae-9d4890689217","ios":"levelo://app?vid=cc771d41-3a30-4b81-a1ae-9d4890689217"},"vehicle_type_id":"4","last_reported":1728607458,"current_range_meters":32800,"station_id":"ce4bhp92rcd13ifvqhag","pricing_plan_id":"cebpf4jnsgd1na2vs0mg"},{"bike_id":"11af3283-ed60-42f7-b864-8d82a0626871","system_id":"levelo_inurba_marseille","lat":43.25864,"lon":5.39911,"is_reserved":false,"is_disabled":false,"rental_uris":{"android":"levelo://app?vid=11af3283-ed60-42f7-b864-8d82a0626871","ios":"levelo://app?vid=11af3283-ed60-42f7-b864-8d82a0626871"},"vehicle_type_id":"4","last_reported":1728607458,"current_range_meters":5600,"station_id":"ce4bhl92rcd13ifvqghg","pricing_plan_id":"cebpf4jnsgd1na2vs0mg"},{"bike_id":"5769569f-1028-41f4-8a10-5107fb2ee100","system_id":"levelo_inurba_marseille","lat":43.30615,"lon":5.37232,"is_reserved":false,"is_disabled":false,"rental_uris":{"android":"levelo://app?vid=5769569f-1028-41f4-8a10-5107fb2ee100","ios":"levelo://app?vid=5769569f-1028-41f4-8a10-5107fb2ee100"},"vehicle_type_id":"4","last_reported":1728607458,"current_range_meters":16800,"station_id":"ce4bgqh2rcd13ifvqc4g","pricing_plan_id":"cebpf4jnsgd1na2vs0mg"},{"bike_id":"830ca16d-232b-4327-a07c-9df083f0646c","system_id":"levelo_inurba_marseille","lat":43.30885,"lon":5.39654,"is_reserved":false,"is_disabled":false,"rental_uris":{"android":"levelo://app?vid=830ca16d-232b-4327-a07c-9df083f0646c","ios":"levelo://app?vid=830ca16d-232b-4327-a07c-9df083f0646c"},"vehicle_type_id":"4","last_reported":1728607458,"current_range_meters":8800,"station_id":"ce4bh012rcd13ifvqcv0","pricing_plan_id":"cebpf4jnsgd1na2vs0mg"},{"bike_id":"46e41d5a-f5a5-4cac-88d8-0888a53a6168","system_id":"levelo_inurba_marseille","lat":43.29327,"lon":5.38563,"is_reserved":false,"is_disabled":false,"rental_uris":{"android":"levelo://app?vid=46e41d5a-f5a5-4cac-88d8-0888a53a6168","ios":"levelo://app?vid=46e41d5a-f5a5-4cac-88d8-0888a53a6168"},"vehicle_type_id":"4","last_reported":1728607458,"current_range_meters":6400,"station_id":"ce4bhb12rcd13ifvqel0","pricing_plan_id":"cebpf4jnsgd1na2vs0mg"},{"bike_id":"971b85e0-c27b-48bc-b1fc-809d55a50ae0","system_id":"levelo_inurba_marseille","lat":43.31074,"lon":5.38357,"is_reserved":false,"is_disabled":false,"rental_uris":{"android":"levelo://app?vid=971b85e0-c27b-48bc-b1fc-809d55a50ae0","ios":"levelo://app?vid=971b85e0-c27b-48bc-b1fc-809d55a50ae0"},"vehicle_type_id":"4","last_reported":1728607458,"current_range_meters":24400,"station_id":"ce4bgv92rcd13ifvqcr0","pricing_plan_id":"cebpf4jnsgd1na2vs0mg"},{"bike_id":"3342229a-448c-4e67-8c8b-1ef839d1dd73","system_id":"levelo_inurba_marseille","lat":43.26562,"lon":5.37288,"is_reserved":false,"is_disabled":false,"rental_uris":{"android":"levelo://app?vid=3342229a-448c-4e67-8c8b-1ef839d1dd73","ios":"levelo://app?vid=3342229a-448c-4e67-8c8b-1ef839d1dd73"},"vehicle_type_id":"4","last_reported":1728607458,"current_range_meters":38800,"station_id":"ce4bhg12rcd13ifvqf70","pricing_plan_id":"cebpf4jnsgd1na2vs0mg"},{"bike_id":"9a10ea96-9c7a-4bff-8cd4-c1595e3d8c46","system_id":"levelo_inurba_marseille","lat":43.3266,"lon":5.40988,"is_reserved":false,"is_disabled":false,"rental_uris":{"android":"levelo://app?vid=9a10ea96-9c7a-4bff-8cd4-c1595e3d8c46","ios":"levelo://app?vid=9a10ea96-9c7a-4bff-8cd4-c1595e3d8c46"},"vehicle_type_id":"4","last_reported":1728607458,"current_range_meters":39200,"station_id":"ce4bhpp2rcd13ifvqhgg","pricing_plan_id":"cebpf4jnsgd1na2vs0mg"},{"bike_id":"4f6467e3-e12b-457b-8e7e-ed039b5554f6","system_id":"levelo_inurba_marseille","lat":43.31268,"lon":5.40174,"is_reserved":false,"is_disabled":false,"rental_uris":{"android":"levelo://app?vid=4f6467e3-e12b-457b-8e7e-ed039b5554f6","ios":"levelo://app?vid=4f6467e3-e12b-457b-8e7e-ed039b5554f6"},"vehicle_type_id":"4","last_reported":1728607458,"current_range_meters":39200,"station_id":"ce4bh092rcd13ifvqd30","pricing_plan_id":"cebpf4jnsgd1na2vs0mg"},{"bike_id":"dd20aa57-6fda-4ed9-9cbf-9d695aa02600","system_id":"levelo_inurba_marseille","lat":43.24085,"lon":5.37752,"is_reserved":false,"is_disabled":false,"rental_uris":{"android":"levelo://app?vid=dd20aa57-6fda-4ed9-9cbf-9d695aa02600","ios":"levelo://app?vid=dd20aa57-6fda-4ed9-9cbf-9d695aa02600"},"vehicle_type_id":"4","last_reported":1728607458,"current_range_meters":37600,"station_id":"ce4bhnp2rcd13ifvqgvg","pricing_plan_id":"cebpf4jnsgd1na2vs0mg"},{"bike_id":"d3ec245f-0a3f-416b-a911-c82b4c789946","system_id":"levelo_inurba_marseille","lat":43.25586,"lon":5.38235,"is_reserved":false,"is_disabled":false,"rental_uris":{"android":"levelo://app?vid=d3ec245f-0a3f-416b-a911-c82b4c789946","ios":"levelo://app?vid=d3ec245f-0a3f-416b-a911-c82b4c789946"},"vehicle_type_id":"4","last_reported":1728607458,"current_range_meters":37600,"station_id":"ce4bhih2rcd13ifvqfs0","pricing_plan_id":"cebpf4jnsgd1na2vs0mg"},{"bike_id":"32f9a3ad-41c8-4638-8ef0-a54e1eb0566a","system_id":"levelo_inurba_marseille","lat":43.31368,"lon":5.38503,"is_reserved":false,"is_disabled":false,"rental_uris":{"android":"levelo://app?vid=32f9a3ad-41c8-4638-8ef0-a54e1eb0566a","ios":"levelo://app?vid=32f9a3ad-41c8-4638-8ef0-a54e1eb0566a"},"vehicle_type_id":"4","last_reported":1728607458,"current_range_meters":16400,"station_id":"ce4bgt92rcd13ifvqcf0","pricing_plan_id":"cebpf4jnsgd1na2vs0mg"},{"bike_id":"c244c6f9-bade-42d4-83fb-bcbe5ab70ddd","system_id":"levelo_inurba_marseille","lat":43.24394,"lon":5.37059,"is_reserved":false,"is_disabled":false,"rental_uris":{"android":"levelo://app?vid=c244c6f9-bade-42d4-83fb-bcbe5ab70ddd","ios":"levelo://app?vid=c244c6f9-bade-42d4-83fb-bcbe5ab70ddd"},"vehicle_type_id":"4","last_reported":1728607458,"current_range_meters":31200,"station_id":"ce4bhhh2rcd13ifvqfk0","pricing_plan_id":"cebpf4jnsgd1na2vs0mg"},{"bike_id":"182fb731-1631-41fd-80c2-5dbd78ac79c5","system_id":"levelo_inurba_marseille","lat":43.27373,"lon":5.36254,"is_reserved":false,"is_disabled":false,"rental_uris":{"android":"levelo://app?vid=182fb731-1631-41fd-80c2-5dbd78ac79c5","ios":"levelo://app?vid=182fb731-1631-41fd-80c2-5dbd78ac79c5"},"vehicle_type_id":"4","last_reported":1728607458,"current_range_meters":38000,"station_id":"ce4bhbh2rcd13ifvqeo0","pricing_plan_id":"cebpf4jnsgd1na2vs0mg"},{"bike_id":"1ad7f92d-f07f-4dbf-bec4-341a88188d03","system_id":"levelo_inurba_marseille","lat":43.31332,"lon":5.39689,"is_reserved":false,"is_disabled":false,"rental_uris":{"android":"levelo://app?vid=1ad7f92d-f07f-4dbf-bec4-341a88188d03","ios":"levelo://app?vid=1ad7f92d-f07f-4dbf-bec4-341a88188d03"},"vehicle_type_id":"4","last_reported":1728607458,"current_range_meters":34000,"station_id":"ce4bgvp2rcd13ifvqcu0","pricing_plan_id":"cebpf4jnsgd1na2vs0mg"},{"bike_id":"c4369d46-d6f1-4b30-831f-5f523ecf54b1","system_id":"levelo_inurba_marseille","lat":43.29631,"lon":5.40597,"is_reserved":false,"is_disabled":false,"rental_uris":{"android":"levelo://app?vid=c4369d46-d6f1-4b30-831f-5f523ecf54b1","ios":"levelo://app?vid=c4369d46-d6f1-4b30-831f-5f523ecf54b1"},"vehicle_type_id":"4","last_reported":1728607458,"current_range_meters":20800,"station_id":"ce4bh0h2rcd13ifvqd60","pricing_plan_id":"cebpf4jnsgd1na2vs0mg"},{"bike_id":"9c1ae1a4-58a2-4a4c-b2ca-11a26e4228eb","system_id":"levelo_inurba_marseille","lat":43.29253,"lon":5.40905,"is_reserved":false,"is_disabled":false,"rental_uris":{"android":"levelo://app?vid=9c1ae1a4-58a2-4a4c-b2ca-11a26e4228eb","ios":"levelo://app?vid=9c1ae1a4-58a2-4a4c-b2ca-11a26e4228eb"},"vehicle_type_id":"4","last_reported":1728607458,"current_range_meters":32800,"station_id":"ce4bh192rcd13ifvqdc0","pricing_plan_id":"cebpf4jnsgd1na2vs0mg"},{"bike_id":"79cd7ee6-746d-45af-bde6-8c708e3159ed","system_id":"levelo_inurba_marseille","lat":43.28439,"lon":5.3919,"is_reserved":false,"is_disabled":false,"rental_uris":{"android":"levelo://app?vid=79cd7ee6-746d-45af-bde6-8c708e3159ed","ios":"levelo://app?vid=79cd7ee6-746d-45af-bde6-8c708e3159ed"},"vehicle_type_id":"4","last_reported":1728607458,"current_range_meters":38800,"station_id":"ce4bhoh2rcd13ifvqh5g","pricing_plan_id":"cebpf4jnsgd1na2vs0mg"},{"bike_id":"5ce2a66a-b949-4239-ae17-6ee1644fc5f2","system_id":"levelo_inurba_marseille","lat":43.25489,"lon":5.37651,"is_reserved":false,"is_disabled":false,"rental_uris":{"android":"levelo://app?vid=5ce2a66a-b949-4239-ae17-6ee1644fc5f2","ios":"levelo://app?vid=5ce2a66a-b949-4239-ae17-6ee1644fc5f2"},"vehicle_type_id":"4","last_reported":1728607458,"current_range_meters":17600,"station_id":"ce4bhh12rcd13ifvqff0","pricing_plan_id":"cebpf4jnsgd1na2vs0mg"},{"bike_id":"780b1428-9fdc-48cc-bf60-4e17224be1f1","system_id":"levelo_inurba_marseille","lat":43.29009,"lon":5.35604,"is_reserved":false,"is_disabled":false,"rental_uris":{"android":"levelo://app?vid=780b1428-9fdc-48cc-bf60-4e17224be1f1","ios":"levelo://app?vid=780b1428-9fdc-48cc-bf60-4e17224be1f1"},"vehicle_type_id":"4","last_reported":1728607458,"current_range_meters":6000,"station_id":"ce4bhb92rcd13ifvqen0","pricing_plan_id":"cebpf4jnsgd1na2vs0mg"},{"bike_id":"6cb2fd54-0aca-4f7d-aadb-bc057dc4fb59","system_id":"levelo_inurba_marseille","lat":43.23065,"lon":5.35498,"is_reserved":false,"is_disabled":false,"rental_uris":{"android":"levelo://app?vid=6cb2fd54-0aca-4f7d-aadb-bc057dc4fb59","ios":"levelo://app?vid=6cb2fd54-0aca-4f7d-aadb-bc057dc4fb59"},"vehicle_type_id":"4","last_reported":1728607458,"current_range_meters":30400,"station_id":"cpo3342slgdg3j2ifvpg","pricing_plan_id":"cebpf4jnsgd1na2vs0mg"},{"bike_id":"8771b206-fe0d-4dbe-a13c-5705281d78fe","system_id":"levelo_inurba_marseille","lat":43.28271,"lon":5.35077,"is_reserved":false,"is_disabled":false,"rental_uris":{"android":"levelo://app?vid=8771b206-fe0d-4dbe-a13c-5705281d78fe","ios":"levelo://app?vid=8771b206-fe0d-4dbe-a13c-5705281d78fe"},"vehicle_type_id":"4","last_reported":1728607458,"current_range_meters":14800,"station_id":"ce4bhbp2rcd13ifvqerg","pricing_plan_id":"cebpf4jnsgd1na2vs0mg"},{"bike_id":"a1e47b22-c809-422f-b6a9-118011e5e265","system_id":"levelo_inurba_marseille","lat":43.28172,"lon":5.42568,"is_reserved":false,"is_disabled":false,"rental_uris":{"android":"levelo://app?vid=a1e47b22-c809-422f-b6a9-118011e5e265","ios":"levelo://app?vid=a1e47b22-c809-422f-b6a9-118011e5e265"},"vehicle_type_id":"4","last_reported":1728607458,"current_range_meters":38800,"station_id":"","pricing_plan_id":"cebpf4jnsgd1na2vs0mg"},{"bike_id":"dc45cfa3-0aa1-471c-8ae9-f9e534788b3b","system_id":"levelo_inurba_marseille","lat":43.31178,"lon":5.38717,"is_reserved":false,"is_disabled":false,"rental_uris":{"android":"levelo://app?vid=dc45cfa3-0aa1-471c-8ae9-f9e534788b3b","ios":"levelo://app?vid=dc45cfa3-0aa1-471c-8ae9-f9e534788b3b"},"vehicle_type_id":"4","last_reported":1728607458,"current_range_meters":34800,"station_id":"ce4bgv12rcd13ifvqcp0","pricing_plan_id":"cebpf4jnsgd1na2vs0mg"},{"bike_id":"f7c000a6-de70-456b-9728-7ca2586ec830","system_id":"levelo_inurba_marseille","lat":43.33613,"lon":5.41037,"is_reserved":false,"is_disabled":false,"rental_uris":{"android":"levelo://app?vid=f7c000a6-de70-456b-9728-7ca2586ec830","ios":"levelo://app?vid=f7c000a6-de70-456b-9728-7ca2586ec830"},"vehicle_type_id":"4","last_reported":1728607458,"current_range_meters":6000,"station_id":"ce4bhqh2rcd13ifvqhmg","pricing_plan_id":"cebpf4jnsgd1na2vs0mg"},{"bike_id":"ef38596e-fbbf-4fda-8f92-185612db8d2c","system_id":"levelo_inurba_marseille","lat":43.29912,"lon":5.37467,"is_reserved":false,"is_disabled":false,"rental_uris":{"android":"levelo://app?vid=ef38596e-fbbf-4fda-8f92-185612db8d2c","ios":"levelo://app?vid=ef38596e-fbbf-4fda-8f92-185612db8d2c"},"vehicle_type_id":"4","last_reported":1728607458,"current_range_meters":38000,"station_id":"ce4bgjh2rcd13ifvqbg0","pricing_plan_id":"cebpf4jnsgd1na2vs0mg"},{"bike_id":"7ae79265-a4f3-408c-9c9a-ba4aa51d6423","system_id":"levelo_inurba_marseille","lat":43.24671,"lon":5.38157,"is_reserved":false,"is_disabled":false,"rental_uris":{"android":"levelo://app?vid=7ae79265-a4f3-408c-9c9a-ba4aa51d6423","ios":"levelo://app?vid=7ae79265-a4f3-408c-9c9a-ba4aa51d6423"},"vehicle_type_id":"4","last_reported":1728607458,"current_range_meters":36800,"station_id":"ce4bhih2rcd13ifvqfr0","pricing_plan_id":"cebpf4jnsgd1na2vs0mg"},{"bike_id":"636602df-f299-4e94-ad73-1a96868e57db","system_id":"levelo_inurba_marseille","lat":43.27908,"lon":5.39586,"is_reserved":false,"is_disabled":false,"rental_uris":{"android":"levelo://app?vid=636602df-f299-4e94-ad73-1a96868e57db","ios":"levelo://app?vid=636602df-f299-4e94-ad73-1a96868e57db"},"vehicle_type_id":"4","last_reported":1728607458,"current_range_meters":26800,"station_id":"ce4bhf92rcd13ifvqf40","pricing_plan_id":"cebpf4jnsgd1na2vs0mg"},{"bike_id":"64eed1d5-ad43-4843-90ca-92dd71d6f243","system_id":"levelo_inurba_marseille","lat":43.2847,"lon":5.35876,"is_reserved":false,"is_disabled":false,"rental_uris":{"android":"levelo://app?vid=64eed1d5-ad43-4843-90ca-92dd71d6f243","ios":"levelo://app?vid=64eed1d5-ad43-4843-90ca-92dd71d6f243"},"vehicle_type_id":"4","last_reported":1728607458,"current_range_meters":38800,"station_id":"ce4bhah2rcd13ifvqei0","pricing_plan_id":"cebpf4jnsgd1na2vs0mg"},{"bike_id":"7f5ac9d4-ec5b-49e8-bd91-1a9cf6d738b6","system_id":"levelo_inurba_marseille","lat":43.2816,"lon":5.42643,"is_reserved":false,"is_disabled":false,"rental_uris":{"android":"levelo://app?vid=7f5ac9d4-ec5b-49e8-bd91-1a9cf6d738b6","ios":"levelo://app?vid=7f5ac9d4-ec5b-49e8-bd91-1a9cf6d738b6"},"vehicle_type_id":"4","last_reported":1728607458,"current_range_meters":38800,"station_id":"ce4bhnh2rcd13ifvqgug","pricing_plan_id":"cebpf4jnsgd1na2vs0mg"},{"bike_id":"0d1a388f-a31d-472e-afc1-ba8d098fb8a6","system_id":"levelo_inurba_marseille","lat":43.28855,"lon":5.35851,"is_reserved":false,"is_disabled":false,"rental_uris":{"android":"levelo://app?vid=0d1a388f-a31d-472e-afc1-ba8d098fb8a6","ios":"levelo://app?vid=0d1a388f-a31d-472e-afc1-ba8d098fb8a6"},"vehicle_type_id":"4","last_reported":1728607458,"current_range_meters":38800,"station_id":"ce4bhb12rcd13ifvqem0","pricing_plan_id":"cebpf4jnsgd1na2vs0mg"},{"bike_id":"f4c23eb9-ba3d-49f5-8944-49323079f226","system_id":"levelo_inurba_marseille","lat":43.255,"lon":5.37651,"is_reserved":false,"is_disabled":false,"rental_uris":{"android":"levelo://app?vid=f4c23eb9-ba3d-49f5-8944-49323079f226","ios":"levelo://app?vid=f4c23eb9-ba3d-49f5-8944-49323079f226"},"vehicle_type_id":"4","last_reported":1728607458,"current_range_meters":38000,"station_id":"ce4bhh12rcd13ifvqff0","pricing_plan_id":"cebpf4jnsgd1na2vs0mg"},{"bike_id":"3dc1b224-9540-4dfa-9264-01d2f90e74aa","system_id":"levelo_inurba_marseille","lat":43.28731,"lon":5.3609,"is_reserved":false,"is_disabled":false,"rental_uris":{"android":"levelo://app?vid=3dc1b224-9540-4dfa-9264-01d2f90e74aa","ios":"levelo://app?vid=3dc1b224-9540-4dfa-9264-01d2f90e74aa"},"vehicle_type_id":"4","last_reported":1728607458,"current_range_meters":38000,"station_id":"cki0cbj6b192h4jlfktg","pricing_plan_id":"cebpf4jnsgd1na2vs0mg"},{"bike_id":"6fccb379-adca-4617-bbeb-442137e4c023","system_id":"levelo_inurba_marseille","lat":43.284604,"lon":5.358908,"is_reserved":false,"is_disabled":false,"rental_uris":{"android":"levelo://app?vid=6fccb379-adca-4617-bbeb-442137e4c023","ios":"levelo://app?vid=6fccb379-adca-4617-bbeb-442137e4c023"},"vehicle_type_id":"4","last_reported":1728607458,"current_range_meters":19200,"station_id":"ce4bhah2rcd13ifvqei0","pricing_plan_id":"cebpf4jnsgd1na2vs0mg"},{"bike_id":"7d0ca2b9-222a-41c6-877b-cb24f395b5ad","system_id":"levelo_inurba_marseille","lat":43.32108,"lon":5.36789,"is_reserved":false,"is_disabled":false,"rental_uris":{"android":"levelo://app?vid=7d0ca2b9-222a-41c6-877b-cb24f395b5ad","ios":"levelo://app?vid=7d0ca2b9-222a-41c6-877b-cb24f395b5ad"},"vehicle_type_id":"4","last_reported":1728607458,"current_range_meters":36800,"station_id":"ce4bhrh2rcd13ifvqhug","pricing_plan_id":"cebpf4jnsgd1na2vs0mg"},{"bike_id":"f21ff7cf-a5e7-4036-9a78-a2aa83b6340b","system_id":"levelo_inurba_marseille","lat":43.23194,"lon":5.35547,"is_reserved":false,"is_disabled":false,"rental_uris":{"android":"levelo://app?vid=f21ff7cf-a5e7-4036-9a78-a2aa83b6340b","ios":"levelo://app?vid=f21ff7cf-a5e7-4036-9a78-a2aa83b6340b"},"vehicle_type_id":"4","last_reported":1728607458,"current_range_meters":38800,"station_id":"ce4bhu92rcd13ifvqi70","pricing_plan_id":"cebpf4jnsgd1na2vs0mg"},{"bike_id":"7efdf176-1aae-4e18-859f-cdcd2aafaa19","system_id":"levelo_inurba_marseille","lat":43.323254,"lon":5.406211,"is_reserved":false,"is_disabled":false,"rental_uris":{"android":"levelo://app?vid=7efdf176-1aae-4e18-859f-cdcd2aafaa19","ios":"levelo://app?vid=7efdf176-1aae-4e18-859f-cdcd2aafaa19"},"vehicle_type_id":"4","last_reported":1728607458,"current_range_meters":38800,"station_id":"ce4bhq92rcd13ifvqhjg","pricing_plan_id":"cebpf4jnsgd1na2vs0mg"},{"bike_id":"b3de404d-5abc-4903-b89a-dee8e2de833a","system_id":"levelo_inurba_marseille","lat":43.28043,"lon":5.36953,"is_reserved":false,"is_disabled":false,"rental_uris":{"android":"levelo://app?vid=b3de404d-5abc-4903-b89a-dee8e2de833a","ios":"levelo://app?vid=b3de404d-5abc-4903-b89a-dee8e2de833a"},"vehicle_type_id":"4","last_reported":1728607458,"current_range_meters":39200,"station_id":"ce4bha12rcd13ifvqef0","pricing_plan_id":"cebpf4jnsgd1na2vs0mg"},{"bike_id":"db0f29d4-48fb-4f25-9465-ea5338ef12e5","system_id":"levelo_inurba_marseille","lat":43.30883,"lon":5.39647,"is_reserved":false,"is_disabled":false,"rental_uris":{"android":"levelo://app?vid=db0f29d4-48fb-4f25-9465-ea5338ef12e5","ios":"levelo://app?vid=db0f29d4-48fb-4f25-9465-ea5338ef12e5"},"vehicle_type_id":"4","last_reported":1728607458,"current_range_meters":13600,"station_id":"ce4bh012rcd13ifvqcv0","pricing_plan_id":"cebpf4jnsgd1na2vs0mg"},{"bike_id":"1482f819-5f1d-4428-9c78-496de59b7053","system_id":"levelo_inurba_marseille","lat":43.3088,"lon":5.372,"is_reserved":false,"is_disabled":false,"rental_uris":{"android":"levelo://app?vid=1482f819-5f1d-4428-9c78-496de59b7053","ios":"levelo://app?vid=1482f819-5f1d-4428-9c78-496de59b7053"},"vehicle_type_id":"4","last_reported":1728607458,"current_range_meters":16000,"station_id":"ce4bguh2rcd13ifvqckg","pricing_plan_id":"cebpf4jnsgd1na2vs0mg"},{"bike_id":"c33b259a-4816-4db2-b4e3-d6f2b7925bfb","system_id":"levelo_inurba_marseille","lat":43.27072,"lon":5.42277,"is_reserved":false,"is_disabled":false,"rental_uris":{"android":"levelo://app?vid=c33b259a-4816-4db2-b4e3-d6f2b7925bfb","ios":"levelo://app?vid=c33b259a-4816-4db2-b4e3-d6f2b7925bfb"},"vehicle_type_id":"4","last_reported":1728607458,"current_range_meters":30400,"station_id":"ce4bhk92rcd13ifvqgb0","pricing_plan_id":"cebpf4jnsgd1na2vs0mg"},{"bike_id":"6302552d-0538-4406-bf49-43803291e745","system_id":"levelo_inurba_marseille","lat":43.30421,"lon":5.39753,"is_reserved":false,"is_disabled":false,"rental_uris":{"android":"levelo://app?vid=6302552d-0538-4406-bf49-43803291e745","ios":"levelo://app?vid=6302552d-0538-4406-bf49-43803291e745"},"vehicle_type_id":"4","last_reported":1728607458,"current_range_meters":38400,"station_id":"ce4bh092rcd13ifvqd20","pricing_plan_id":"cebpf4jnsgd1na2vs0mg"},{"bike_id":"86f1a2d4-4c8e-42a8-8d84-44de2c62ad54","system_id":"levelo_inurba_marseille","lat":43.30893,"lon":5.372,"is_reserved":false,"is_disabled":false,"rental_uris":{"android":"levelo://app?vid=86f1a2d4-4c8e-42a8-8d84-44de2c62ad54","ios":"levelo://app?vid=86f1a2d4-4c8e-42a8-8d84-44de2c62ad54"},"vehicle_type_id":"4","last_reported":1728607458,"current_range_meters":30400,"station_id":"ce4bguh2rcd13ifvqckg","pricing_plan_id":"cebpf4jnsgd1na2vs0mg"},{"bike_id":"a9e92934-6d25-4206-b747-dd1555ec108e","system_id":"levelo_inurba_marseille","lat":43.28665,"lon":5.36351,"is_reserved":false,"is_disabled":false,"rental_uris":{"android":"levelo://app?vid=a9e92934-6d25-4206-b747-dd1555ec108e","ios":"levelo://app?vid=a9e92934-6d25-4206-b747-dd1555ec108e"},"vehicle_type_id":"4","last_reported":1728607458,"current_range_meters":38400,"station_id":"ce4bhah2rcd13ifvqej0","pricing_plan_id":"cebpf4jnsgd1na2vs0mg"},{"bike_id":"6e7d9ad6-b3f3-42f9-8e61-c655b64004ec","system_id":"levelo_inurba_marseille","lat":43.3118,"lon":5.38706,"is_reserved":false,"is_disabled":false,"rental_uris":{"android":"levelo://app?vid=6e7d9ad6-b3f3-42f9-8e61-c655b64004ec","ios":"levelo://app?vid=6e7d9ad6-b3f3-42f9-8e61-c655b64004ec"},"vehicle_type_id":"4","last_reported":1728607458,"current_range_meters":38800,"station_id":"ce4bgv12rcd13ifvqcp0","pricing_plan_id":"cebpf4jnsgd1na2vs0mg"},{"bike_id":"87069ffa-c4b3-458f-beca-4e7937e340fc","system_id":"levelo_inurba_marseille","lat":43.28436,"lon":5.39199,"is_reserved":false,"is_disabled":false,"rental_uris":{"android":"levelo://app?vid=87069ffa-c4b3-458f-beca-4e7937e340fc","ios":"levelo://app?vid=87069ffa-c4b3-458f-beca-4e7937e340fc"},"vehicle_type_id":"4","last_reported":1728607458,"current_range_meters":33600,"station_id":"ce4bhoh2rcd13ifvqh5g","pricing_plan_id":"cebpf4jnsgd1na2vs0mg"},{"bike_id":"245731eb-87f3-4085-9c2e-f613ec9cc480","system_id":"levelo_inurba_marseille","lat":43.28451,"lon":5.35889,"is_reserved":false,"is_disabled":false,"rental_uris":{"android":"levelo://app?vid=245731eb-87f3-4085-9c2e-f613ec9cc480","ios":"levelo://app?vid=245731eb-87f3-4085-9c2e-f613ec9cc480"},"vehicle_type_id":"4","last_reported":1728607458,"current_range_meters":10800,"station_id":"ce4bhah2rcd13ifvqei0","pricing_plan_id":"cebpf4jnsgd1na2vs0mg"},{"bike_id":"0555b5e4-8802-4733-8989-ff00fb61ea3e","system_id":"levelo_inurba_marseille","lat":43.27375,"lon":5.36259,"is_reserved":false,"is_disabled":false,"rental_uris":{"android":"levelo://app?vid=0555b5e4-8802-4733-8989-ff00fb61ea3e","ios":"levelo://app?vid=0555b5e4-8802-4733-8989-ff00fb61ea3e"},"vehicle_type_id":"4","last_reported":1728607458,"current_range_meters":26800,"station_id":"ce4bhbh2rcd13ifvqeo0","pricing_plan_id":"cebpf4jnsgd1na2vs0mg"},{"bike_id":"57add596-5b6d-4189-8e90-4c3eff7a193a","system_id":"levelo_inurba_marseille","lat":43.31357,"lon":5.38506,"is_reserved":false,"is_disabled":false,"rental_uris":{"android":"levelo://app?vid=57add596-5b6d-4189-8e90-4c3eff7a193a","ios":"levelo://app?vid=57add596-5b6d-4189-8e90-4c3eff7a193a"},"vehicle_type_id":"4","last_reported":1728607458,"current_range_meters":7200,"station_id":"ce4bgt92rcd13ifvqcf0","pricing_plan_id":"cebpf4jnsgd1na2vs0mg"},{"bike_id":"36be1c97-4211-4e9d-81ea-7936074bb272","system_id":"levelo_inurba_marseille","lat":43.31111,"lon":5.37778,"is_reserved":false,"is_disabled":false,"rental_uris":{"android":"levelo://app?vid=36be1c97-4211-4e9d-81ea-7936074bb272","ios":"levelo://app?vid=36be1c97-4211-4e9d-81ea-7936074bb272"},"vehicle_type_id":"4","last_reported":1728607458,"current_range_meters":30400,"station_id":"ce4bgt92rcd13ifvqcg0","pricing_plan_id":"cebpf4jnsgd1na2vs0mg"},{"bike_id":"9db4d985-7949-4b7f-b898-6a0ca7ba3693","system_id":"levelo_inurba_marseille","lat":43.33764,"lon":5.37416,"is_reserved":false,"is_disabled":false,"rental_uris":{"android":"levelo://app?vid=9db4d985-7949-4b7f-b898-6a0ca7ba3693","ios":"levelo://app?vid=9db4d985-7949-4b7f-b898-6a0ca7ba3693"},"vehicle_type_id":"4","last_reported":1728607458,"current_range_meters":32800,"station_id":"ce4rr2p2rcd13i802rgg","pricing_plan_id":"cebpf4jnsgd1na2vs0mg"},{"bike_id":"325ba49d-0962-4176-98a0-49b50b02aaf6","system_id":"levelo_inurba_marseille","lat":43.31893,"lon":5.40732,"is_reserved":false,"is_disabled":false,"rental_uris":{"android":"levelo://app?vid=325ba49d-0962-4176-98a0-49b50b02aaf6","ios":"levelo://app?vid=325ba49d-0962-4176-98a0-49b50b02aaf6"},"vehicle_type_id":"4","last_reported":1728607458,"current_range_meters":38000,"station_id":"ce4bhq12rcd13ifvqhig","pricing_plan_id":"cebpf4jnsgd1na2vs0mg"},{"bike_id":"d2118e1c-9062-47ef-8d68-8f1752acfb6f","system_id":"levelo_inurba_marseille","lat":43.31702,"lon":5.37767,"is_reserved":false,"is_disabled":false,"rental_uris":{"android":"levelo://app?vid=d2118e1c-9062-47ef-8d68-8f1752acfb6f","ios":"levelo://app?vid=d2118e1c-9062-47ef-8d68-8f1752acfb6f"},"vehicle_type_id":"4","last_reported":1728607458,"current_range_meters":38800,"station_id":"ce4bgth2rcd13ifvqch0","pricing_plan_id":"cebpf4jnsgd1na2vs0mg"},{"bike_id":"bd2aec49-c05b-410c-856c-a14327810257","system_id":"levelo_inurba_marseille","lat":43.30883,"lon":5.39644,"is_reserved":false,"is_disabled":false,"rental_uris":{"android":"levelo://app?vid=bd2aec49-c05b-410c-856c-a14327810257","ios":"levelo://app?vid=bd2aec49-c05b-410c-856c-a14327810257"},"vehicle_type_id":"4","last_reported":1728607458,"current_range_meters":39200,"station_id":"ce4bh012rcd13ifvqcv0","pricing_plan_id":"cebpf4jnsgd1na2vs0mg"},{"bike_id":"993d1cf8-e533-4dda-8405-3f2a846d5998","system_id":"levelo_inurba_marseille","lat":43.287,"lon":5.374,"is_reserved":false,"is_disabled":false,"rental_uris":{"android":"levelo://app?vid=993d1cf8-e533-4dda-8405-3f2a846d5998","ios":"levelo://app?vid=993d1cf8-e533-4dda-8405-3f2a846d5998"},"vehicle_type_id":"4","last_reported":1728607458,"current_range_meters":38800,"station_id":"ce4bh3p2rcd13ifvqdq0","pricing_plan_id":"cebpf4jnsgd1na2vs0mg"},{"bike_id":"d7f12b69-e913-4e3f-bcc6-c38933154fc9","system_id":"levelo_inurba_marseille","lat":43.28437,"lon":5.39194,"is_reserved":false,"is_disabled":false,"rental_uris":{"android":"levelo://app?vid=d7f12b69-e913-4e3f-bcc6-c38933154fc9","ios":"levelo://app?vid=d7f12b69-e913-4e3f-bcc6-c38933154fc9"},"vehicle_type_id":"4","last_reported":1728607458,"current_range_meters":38800,"station_id":"ce4bhoh2rcd13ifvqh5g","pricing_plan_id":"cebpf4jnsgd1na2vs0mg"},{"bike_id":"25b1fb8d-043b-40f4-aa3f-c415f5d84a10","system_id":"levelo_inurba_marseille","lat":43.31346,"lon":5.36706,"is_reserved":false,"is_disabled":false,"rental_uris":{"android":"levelo://app?vid=25b1fb8d-043b-40f4-aa3f-c415f5d84a10","ios":"levelo://app?vid=25b1fb8d-043b-40f4-aa3f-c415f5d84a10"},"vehicle_type_id":"4","last_reported":1728607458,"current_range_meters":28800,"station_id":"ce4bgr92rcd13ifvqc6g","pricing_plan_id":"cebpf4jnsgd1na2vs0mg"},{"bike_id":"4f9e2490-f71f-437e-b9eb-287889cbbc82","system_id":"levelo_inurba_marseille","lat":43.31486,"lon":5.37302,"is_reserved":false,"is_disabled":false,"rental_uris":{"android":"levelo://app?vid=4f9e2490-f71f-437e-b9eb-287889cbbc82","ios":"levelo://app?vid=4f9e2490-f71f-437e-b9eb-287889cbbc82"},"vehicle_type_id":"4","last_reported":1728607458,"current_range_meters":38000,"station_id":"ce4bgt12rcd13ifvqcd0","pricing_plan_id":"cebpf4jnsgd1na2vs0mg"},{"bike_id":"df9ee3d8-91c2-4ac9-a1ee-8b4b99e26fa3","system_id":"levelo_inurba_marseille","lat":43.30615,"lon":5.37227,"is_reserved":false,"is_disabled":false,"rental_uris":{"android":"levelo://app?vid=df9ee3d8-91c2-4ac9-a1ee-8b4b99e26fa3","ios":"levelo://app?vid=df9ee3d8-91c2-4ac9-a1ee-8b4b99e26fa3"},"vehicle_type_id":"4","last_reported":1728607458,"current_range_meters":36800,"station_id":"ce4bgqh2rcd13ifvqc4g","pricing_plan_id":"cebpf4jnsgd1na2vs0mg"},{"bike_id":"c2709d8c-182c-4c66-9678-32143d413767","system_id":"levelo_inurba_marseille","lat":43.22936,"lon":5.35378,"is_reserved":false,"is_disabled":false,"rental_uris":{"android":"levelo://app?vid=c2709d8c-182c-4c66-9678-32143d413767","ios":"levelo://app?vid=c2709d8c-182c-4c66-9678-32143d413767"},"vehicle_type_id":"4","last_reported":1728607458,"current_range_meters":34000,"station_id":"cpo3532slgdg3j2ikp40","pricing_plan_id":"cebpf4jnsgd1na2vs0mg"},{"bike_id":"9a7d337d-46a9-4a3e-ac0e-e31480127a4d","system_id":"levelo_inurba_marseille","lat":43.3154,"lon":5.38032,"is_reserved":false,"is_disabled":false,"rental_uris":{"android":"levelo://app?vid=9a7d337d-46a9-4a3e-ac0e-e31480127a4d","ios":"levelo://app?vid=9a7d337d-46a9-4a3e-ac0e-e31480127a4d"},"vehicle_type_id":"4","last_reported":1728607458,"current_range_meters":37600,"station_id":"ce4bhsp2rcd13ifvqi50","pricing_plan_id":"cebpf4jnsgd1na2vs0mg"},{"bike_id":"2d4abd7f-c14b-4585-934c-21c11d459db8","system_id":"levelo_inurba_marseille","lat":43.33717,"lon":5.39177,"is_reserved":false,"is_disabled":false,"rental_uris":{"android":"levelo://app?vid=2d4abd7f-c14b-4585-934c-21c11d459db8","ios":"levelo://app?vid=2d4abd7f-c14b-4585-934c-21c11d459db8"},"vehicle_type_id":"4","last_reported":1728607458,"current_range_meters":37600,"station_id":"ce4bhr92rcd13ifvqhsg","pricing_plan_id":"cebpf4jnsgd1na2vs0mg"},{"bike_id":"06d1f44d-bb6c-4374-8db9-6c0fc6ef35d8","system_id":"levelo_inurba_marseille","lat":43.31695,"lon":5.40453,"is_reserved":false,"is_disabled":false,"rental_uris":{"android":"levelo://app?vid=06d1f44d-bb6c-4374-8db9-6c0fc6ef35d8","ios":"levelo://app?vid=06d1f44d-bb6c-4374-8db9-6c0fc6ef35d8"},"vehicle_type_id":"4","last_reported":1728607458,"current_range_meters":36800,"station_id":"ce4bh012rcd13ifvqd00","pricing_plan_id":"cebpf4jnsgd1na2vs0mg"},{"bike_id":"6ff769cf-ecc4-4125-a3ff-0958a47aaed0","system_id":"levelo_inurba_marseille","lat":43.287,"lon":5.37393,"is_reserved":false,"is_disabled":false,"rental_uris":{"android":"levelo://app?vid=6ff769cf-ecc4-4125-a3ff-0958a47aaed0","ios":"levelo://app?vid=6ff769cf-ecc4-4125-a3ff-0958a47aaed0"},"vehicle_type_id":"4","last_reported":1728607458,"current_range_meters":39200,"station_id":"ce4bh3p2rcd13ifvqdq0","pricing_plan_id":"cebpf4jnsgd1na2vs0mg"},{"bike_id":"9710e0e8-4eb0-493f-9a9a-ca9c38c8a708","system_id":"levelo_inurba_marseille","lat":43.29571,"lon":5.39985,"is_reserved":false,"is_disabled":false,"rental_uris":{"android":"levelo://app?vid=9710e0e8-4eb0-493f-9a9a-ca9c38c8a708","ios":"levelo://app?vid=9710e0e8-4eb0-493f-9a9a-ca9c38c8a708"},"vehicle_type_id":"4","last_reported":1728607458,"current_range_meters":38400,"station_id":"ce4bh312rcd13ifvqdj0","pricing_plan_id":"cebpf4jnsgd1na2vs0mg"},{"bike_id":"d8c83016-a1e6-4367-9331-ef51b83ac16b","system_id":"levelo_inurba_marseille","lat":43.3266,"lon":5.40996,"is_reserved":false,"is_disabled":false,"rental_uris":{"android":"levelo://app?vid=d8c83016-a1e6-4367-9331-ef51b83ac16b","ios":"levelo://app?vid=d8c83016-a1e6-4367-9331-ef51b83ac16b"},"vehicle_type_id":"4","last_reported":1728607458,"current_range_meters":39200,"station_id":"ce4bhpp2rcd13ifvqhgg","pricing_plan_id":"cebpf4jnsgd1na2vs0mg"},{"bike_id":"b4e8bd77-a3ff-4b3b-85c3-f17839ebfc15","system_id":"levelo_inurba_marseille","lat":43.31756,"lon":5.39025,"is_reserved":false,"is_disabled":false,"rental_uris":{"android":"levelo://app?vid=b4e8bd77-a3ff-4b3b-85c3-f17839ebfc15","ios":"levelo://app?vid=b4e8bd77-a3ff-4b3b-85c3-f17839ebfc15"},"vehicle_type_id":"4","last_reported":1728607458,"current_range_meters":38800,"station_id":"ce4bhqp2rcd13ifvqhng","pricing_plan_id":"cebpf4jnsgd1na2vs0mg"},{"bike_id":"480aee4b-d516-4b03-874e-995df5f32160","system_id":"levelo_inurba_marseille","lat":43.28352,"lon":5.38104,"is_reserved":false,"is_disabled":false,"rental_uris":{"android":"levelo://app?vid=480aee4b-d516-4b03-874e-995df5f32160","ios":"levelo://app?vid=480aee4b-d516-4b03-874e-995df5f32160"},"vehicle_type_id":"4","last_reported":1728607458,"current_range_meters":39200,"station_id":"ce4bh412rcd13ifvqdr0","pricing_plan_id":"cebpf4jnsgd1na2vs0mg"},{"bike_id":"919c9514-57dd-4c69-b117-1e44e2297271","system_id":"levelo_inurba_marseille","lat":43.26565,"lon":5.39011,"is_reserved":false,"is_disabled":false,"rental_uris":{"android":"levelo://app?vid=919c9514-57dd-4c69-b117-1e44e2297271","ios":"levelo://app?vid=919c9514-57dd-4c69-b117-1e44e2297271"},"vehicle_type_id":"4","last_reported":1728607458,"current_range_meters":11200,"station_id":"ce4bhe12rcd13ifvqf30","pricing_plan_id":"cebpf4jnsgd1na2vs0mg"},{"bike_id":"7f30f54d-4897-4821-a6ef-7f70c9c34e64","system_id":"levelo_inurba_marseille","lat":43.2857,"lon":5.39494,"is_reserved":false,"is_disabled":false,"rental_uris":{"android":"levelo://app?vid=7f30f54d-4897-4821-a6ef-7f70c9c34e64","ios":"levelo://app?vid=7f30f54d-4897-4821-a6ef-7f70c9c34e64"},"vehicle_type_id":"4","last_reported":1728607458,"current_range_meters":38800,"station_id":"ce4bh292rcd13ifvqdg0","pricing_plan_id":"cebpf4jnsgd1na2vs0mg"},{"bike_id":"2b3648bb-e792-419a-96c0-e5aba7247d9b","system_id":"levelo_inurba_marseille","lat":43.24652,"lon":5.38897,"is_reserved":false,"is_disabled":false,"rental_uris":{"android":"levelo://app?vid=2b3648bb-e792-419a-96c0-e5aba7247d9b","ios":"levelo://app?vid=2b3648bb-e792-419a-96c0-e5aba7247d9b"},"vehicle_type_id":"4","last_reported":1728607458,"current_range_meters":17200,"station_id":"ce4bhg12rcd13ifvqf60","pricing_plan_id":"cebpf4jnsgd1na2vs0mg"},{"bike_id":"87ae3f18-f840-4e58-9750-f094922121be","system_id":"levelo_inurba_marseille","lat":43.31369,"lon":5.38498,"is_reserved":false,"is_disabled":false,"rental_uris":{"android":"levelo://app?vid=87ae3f18-f840-4e58-9750-f094922121be","ios":"levelo://app?vid=87ae3f18-f840-4e58-9750-f094922121be"},"vehicle_type_id":"4","last_reported":1728607458,"current_range_meters":10000,"station_id":"ce4bgt92rcd13ifvqcf0","pricing_plan_id":"cebpf4jnsgd1na2vs0mg"},{"bike_id":"6efdf8b1-8180-427e-a1ed-2733f8200c63","system_id":"levelo_inurba_marseille","lat":43.24677,"lon":5.38158,"is_reserved":false,"is_disabled":false,"rental_uris":{"android":"levelo://app?vid=6efdf8b1-8180-427e-a1ed-2733f8200c63","ios":"levelo://app?vid=6efdf8b1-8180-427e-a1ed-2733f8200c63"},"vehicle_type_id":"4","last_reported":1728607458,"current_range_meters":20800,"station_id":"ce4bhih2rcd13ifvqfr0","pricing_plan_id":"cebpf4jnsgd1na2vs0mg"},{"bike_id":"f92a9fb8-9f73-4cf9-bc9b-2bdf5b520248","system_id":"levelo_inurba_marseille","lat":43.32536,"lon":5.41447,"is_reserved":false,"is_disabled":false,"rental_uris":{"android":"levelo://app?vid=f92a9fb8-9f73-4cf9-bc9b-2bdf5b520248","ios":"levelo://app?vid=f92a9fb8-9f73-4cf9-bc9b-2bdf5b520248"},"vehicle_type_id":"4","last_reported":1728607458,"current_range_meters":38800,"station_id":"ce4bhq12rcd13ifvqhhg","pricing_plan_id":"cebpf4jnsgd1na2vs0mg"},{"bike_id":"4b7be203-7111-4ecd-9808-00597656e983","system_id":"levelo_inurba_marseille","lat":43.33026,"lon":5.39042,"is_reserved":false,"is_disabled":false,"rental_uris":{"android":"levelo://app?vid=4b7be203-7111-4ecd-9808-00597656e983","ios":"levelo://app?vid=4b7be203-7111-4ecd-9808-00597656e983"},"vehicle_type_id":"4","last_reported":1728607458,"current_range_meters":36800,"station_id":"ce4bhr92rcd13ifvqhrg","pricing_plan_id":"cebpf4jnsgd1na2vs0mg"},{"bike_id":"584605d3-be30-4090-92d5-abf6d6a75e1b","system_id":"levelo_inurba_marseille","lat":43.28367,"lon":5.38645,"is_reserved":false,"is_disabled":false,"rental_uris":{"android":"levelo://app?vid=584605d3-be30-4090-92d5-abf6d6a75e1b","ios":"levelo://app?vid=584605d3-be30-4090-92d5-abf6d6a75e1b"},"vehicle_type_id":"4","last_reported":1728607458,"current_range_meters":35600,"station_id":"ce4bh492rcd13ifvqdvg","pricing_plan_id":"cebpf4jnsgd1na2vs0mg"},{"bike_id":"4bb91961-9220-499a-8e25-b2ecef6e3160","system_id":"levelo_inurba_marseille","lat":43.28076,"lon":5.39652,"is_reserved":false,"is_disabled":false,"rental_uris":{"android":"levelo://app?vid=4bb91961-9220-499a-8e25-b2ecef6e3160","ios":"levelo://app?vid=4bb91961-9220-499a-8e25-b2ecef6e3160"},"vehicle_type_id":"4","last_reported":1728607458,"current_range_meters":37600,"station_id":"ce4bho12rcd13ifvqh2g","pricing_plan_id":"cebpf4jnsgd1na2vs0mg"},{"bike_id":"c1200512-69fa-4354-8ea8-f86c5ab3832b","system_id":"levelo_inurba_marseille","lat":43.241778,"lon":5.364074,"is_reserved":false,"is_disabled":false,"rental_uris":{"android":"levelo://app?vid=c1200512-69fa-4354-8ea8-f86c5ab3832b","ios":"levelo://app?vid=c1200512-69fa-4354-8ea8-f86c5ab3832b"},"vehicle_type_id":"4","last_reported":1728607458,"current_range_meters":27200,"station_id":"cpo36qri1sfpv3e86is0","pricing_plan_id":"cebpf4jnsgd1na2vs0mg"},{"bike_id":"b338f7c0-2f29-4084-8e6f-7256fe2115d2","system_id":"levelo_inurba_marseille","lat":43.31336,"lon":5.39694,"is_reserved":false,"is_disabled":false,"rental_uris":{"android":"levelo://app?vid=b338f7c0-2f29-4084-8e6f-7256fe2115d2","ios":"levelo://app?vid=b338f7c0-2f29-4084-8e6f-7256fe2115d2"},"vehicle_type_id":"4","last_reported":1728607458,"current_range_meters":38800,"station_id":"ce4bgvp2rcd13ifvqcu0","pricing_plan_id":"cebpf4jnsgd1na2vs0mg"},{"bike_id":"50aa4af7-94b4-48c9-959d-eeec3eaec001","system_id":"levelo_inurba_marseille","lat":43.2319,"lon":5.3554,"is_reserved":false,"is_disabled":false,"rental_uris":{"android":"levelo://app?vid=50aa4af7-94b4-48c9-959d-eeec3eaec001","ios":"levelo://app?vid=50aa4af7-94b4-48c9-959d-eeec3eaec001"},"vehicle_type_id":"4","last_reported":1728607458,"current_range_meters":38400,"station_id":"ce4bhu92rcd13ifvqi70","pricing_plan_id":"cebpf4jnsgd1na2vs0mg"},{"bike_id":"dade3d2f-3f22-4b1e-92c9-4504fc72033e","system_id":"levelo_inurba_marseille","lat":43.26945,"lon":5.38633,"is_reserved":false,"is_disabled":false,"rental_uris":{"android":"levelo://app?vid=dade3d2f-3f22-4b1e-92c9-4504fc72033e","ios":"levelo://app?vid=dade3d2f-3f22-4b1e-92c9-4504fc72033e"},"vehicle_type_id":"4","last_reported":1728607458,"current_range_meters":28800,"station_id":"ce4bhh92rcd13ifvqfh0","pricing_plan_id":"cebpf4jnsgd1na2vs0mg"},{"bike_id":"38811800-990c-4b4f-93b0-519c6d818a43","system_id":"levelo_inurba_marseille","lat":43.33601,"lon":5.41014,"is_reserved":false,"is_disabled":false,"rental_uris":{"android":"levelo://app?vid=38811800-990c-4b4f-93b0-519c6d818a43","ios":"levelo://app?vid=38811800-990c-4b4f-93b0-519c6d818a43"},"vehicle_type_id":"4","last_reported":1728607458,"current_range_meters":38800,"station_id":"ce4bhqh2rcd13ifvqhmg","pricing_plan_id":"cebpf4jnsgd1na2vs0mg"},{"bike_id":"4b2b99db-3ae9-40c8-bc1f-d3654b0ac7c9","system_id":"levelo_inurba_marseille","lat":43.29044,"lon":5.35898,"is_reserved":false,"is_disabled":false,"rental_uris":{"android":"levelo://app?vid=4b2b99db-3ae9-40c8-bc1f-d3654b0ac7c9","ios":"levelo://app?vid=4b2b99db-3ae9-40c8-bc1f-d3654b0ac7c9"},"vehicle_type_id":"4","last_reported":1728607458,"current_range_meters":17600,"station_id":"ce4bha92rcd13ifvqeg0","pricing_plan_id":"cebpf4jnsgd1na2vs0mg"},{"bike_id":"8f58235a-d4da-4cab-bb8e-7e93577e7259","system_id":"levelo_inurba_marseille","lat":43.23192,"lon":5.3999,"is_reserved":false,"is_disabled":false,"rental_uris":{"android":"levelo://app?vid=8f58235a-d4da-4cab-bb8e-7e93577e7259","ios":"levelo://app?vid=8f58235a-d4da-4cab-bb8e-7e93577e7259"},"vehicle_type_id":"4","last_reported":1728607458,"current_range_meters":38000,"station_id":"ce4bhn12rcd13ifvqgqg","pricing_plan_id":"cebpf4jnsgd1na2vs0mg"},{"bike_id":"84c30ed3-60f2-43c6-a6ef-72b2abd8f6b1","system_id":"levelo_inurba_marseille","lat":43.26685,"lon":5.38273,"is_reserved":false,"is_disabled":false,"rental_uris":{"android":"levelo://app?vid=84c30ed3-60f2-43c6-a6ef-72b2abd8f6b1","ios":"levelo://app?vid=84c30ed3-60f2-43c6-a6ef-72b2abd8f6b1"},"vehicle_type_id":"4","last_reported":1728607458,"current_range_meters":36000,"station_id":"ce4bhg92rcd13ifvqf90","pricing_plan_id":"cebpf4jnsgd1na2vs0mg"},{"bike_id":"d2d707dd-e240-42f7-8bed-e24e7b516267","system_id":"levelo_inurba_marseille","lat":43.28462,"lon":5.35888,"is_reserved":false,"is_disabled":false,"rental_uris":{"android":"levelo://app?vid=d2d707dd-e240-42f7-8bed-e24e7b516267","ios":"levelo://app?vid=d2d707dd-e240-42f7-8bed-e24e7b516267"},"vehicle_type_id":"4","last_reported":1728607458,"current_range_meters":32400,"station_id":"ce4bhah2rcd13ifvqei0","pricing_plan_id":"cebpf4jnsgd1na2vs0mg"},{"bike_id":"f5b618b9-95bd-4142-8fc7-f2716d4901be","system_id":"levelo_inurba_marseille","lat":43.299,"lon":5.43663,"is_reserved":false,"is_disabled":false,"rental_uris":{"android":"levelo://app?vid=f5b618b9-95bd-4142-8fc7-f2716d4901be","ios":"levelo://app?vid=f5b618b9-95bd-4142-8fc7-f2716d4901be"},"vehicle_type_id":"4","last_reported":1728607458,"current_range_meters":38800,"station_id":"ce4bhpp2rcd13ifvqhfg","pricing_plan_id":"cebpf4jnsgd1na2vs0mg"},{"bike_id":"b41b90b7-ac07-4747-9aee-0559da273445","system_id":"levelo_inurba_marseille","lat":43.27988,"lon":5.41659,"is_reserved":false,"is_disabled":false,"rental_uris":{"android":"levelo://app?vid=b41b90b7-ac07-4747-9aee-0559da273445","ios":"levelo://app?vid=b41b90b7-ac07-4747-9aee-0559da273445"},"vehicle_type_id":"4","last_reported":1728607458,"current_range_meters":26000,"station_id":"ce4bho12rcd13ifvqh1g","pricing_plan_id":"cebpf4jnsgd1na2vs0mg"},{"bike_id":"255093a8-c98a-4773-851f-60ca2d6fabdf","system_id":"levelo_inurba_marseille","lat":43.33569,"lon":5.36749,"is_reserved":false,"is_disabled":false,"rental_uris":{"android":"levelo://app?vid=255093a8-c98a-4773-851f-60ca2d6fabdf","ios":"levelo://app?vid=255093a8-c98a-4773-851f-60ca2d6fabdf"},"vehicle_type_id":"4","last_reported":1728607458,"current_range_meters":33600,"station_id":"","pricing_plan_id":"cebpf4jnsgd1na2vs0mg"},{"bike_id":"04cdfc0e-0712-459a-a56c-8097add52c1d","system_id":"levelo_inurba_marseille","lat":43.2808,"lon":5.39651,"is_reserved":false,"is_disabled":false,"rental_uris":{"android":"levelo://app?vid=04cdfc0e-0712-459a-a56c-8097add52c1d","ios":"levelo://app?vid=04cdfc0e-0712-459a-a56c-8097add52c1d"},"vehicle_type_id":"4","last_reported":1728607458,"current_range_meters":25200,"station_id":"ce4bho12rcd13ifvqh2g","pricing_plan_id":"cebpf4jnsgd1na2vs0mg"},{"bike_id":"83d2d85b-5aa3-42ba-9e0b-f1a9c5db540d","system_id":"levelo_inurba_marseille","lat":43.28727,"lon":5.36092,"is_reserved":false,"is_disabled":false,"rental_uris":{"android":"levelo://app?vid=83d2d85b-5aa3-42ba-9e0b-f1a9c5db540d","ios":"levelo://app?vid=83d2d85b-5aa3-42ba-9e0b-f1a9c5db540d"},"vehicle_type_id":"4","last_reported":1728607458,"current_range_meters":38000,"station_id":"cki0cbj6b192h4jlfktg","pricing_plan_id":"cebpf4jnsgd1na2vs0mg"},{"bike_id":"88952392-543f-49d3-813a-f4169962c7d6","system_id":"levelo_inurba_marseille","lat":43.30926,"lon":5.4014,"is_reserved":false,"is_disabled":false,"rental_uris":{"android":"levelo://app?vid=88952392-543f-49d3-813a-f4169962c7d6","ios":"levelo://app?vid=88952392-543f-49d3-813a-f4169962c7d6"},"vehicle_type_id":"4","last_reported":1728607458,"current_range_meters":38800,"station_id":"ce4bgvp2rcd13ifvqct0","pricing_plan_id":"cebpf4jnsgd1na2vs0mg"},{"bike_id":"af42afca-1be7-476c-b467-865280f1ae1e","system_id":"levelo_inurba_marseille","lat":43.27976,"lon":5.38747,"is_reserved":false,"is_disabled":false,"rental_uris":{"android":"levelo://app?vid=af42afca-1be7-476c-b467-865280f1ae1e","ios":"levelo://app?vid=af42afca-1be7-476c-b467-865280f1ae1e"},"vehicle_type_id":"4","last_reported":1728607458,"current_range_meters":33200,"station_id":"ce4bhg12rcd13ifvqf80","pricing_plan_id":"cebpf4jnsgd1na2vs0mg"},{"bike_id":"183c67db-6e50-47a7-8fef-be506edceb63","system_id":"levelo_inurba_marseille","lat":43.31362,"lon":5.38491,"is_reserved":false,"is_disabled":false,"rental_uris":{"android":"levelo://app?vid=183c67db-6e50-47a7-8fef-be506edceb63","ios":"levelo://app?vid=183c67db-6e50-47a7-8fef-be506edceb63"},"vehicle_type_id":"4","last_reported":1728607458,"current_range_meters":14400,"station_id":"ce4bgt92rcd13ifvqcf0","pricing_plan_id":"cebpf4jnsgd1na2vs0mg"},{"bike_id":"07f7c5af-386e-4a95-8588-9df5a407bf84","system_id":"levelo_inurba_marseille","lat":43.24178,"lon":5.39736,"is_reserved":false,"is_disabled":false,"rental_uris":{"android":"levelo://app?vid=07f7c5af-386e-4a95-8588-9df5a407bf84","ios":"levelo://app?vid=07f7c5af-386e-4a95-8588-9df5a407bf84"},"vehicle_type_id":"4","last_reported":1728607458,"current_range_meters":4400,"station_id":"ce4bhn12rcd13ifvqgpg","pricing_plan_id":"cebpf4jnsgd1na2vs0mg"},{"bike_id":"63567e2c-46c2-4777-824c-3dc597097fbc","system_id":"levelo_inurba_marseille","lat":43.30925,"lon":5.40148,"is_reserved":false,"is_disabled":false,"rental_uris":{"android":"levelo://app?vid=63567e2c-46c2-4777-824c-3dc597097fbc","ios":"levelo://app?vid=63567e2c-46c2-4777-824c-3dc597097fbc"},"vehicle_type_id":"4","last_reported":1728607458,"current_range_meters":24800,"station_id":"ce4bgvp2rcd13ifvqct0","pricing_plan_id":"cebpf4jnsgd1na2vs0mg"},{"bike_id":"97cf73ea-7360-4151-8a90-62bb77c261ab","system_id":"levelo_inurba_marseille","lat":43.31497,"lon":5.37304,"is_reserved":false,"is_disabled":false,"rental_uris":{"android":"levelo://app?vid=97cf73ea-7360-4151-8a90-62bb77c261ab","ios":"levelo://app?vid=97cf73ea-7360-4151-8a90-62bb77c261ab"},"vehicle_type_id":"4","last_reported":1728607458,"current_range_meters":38400,"station_id":"ce4bgt12rcd13ifvqcd0","pricing_plan_id":"cebpf4jnsgd1na2vs0mg"},{"bike_id":"e845f1f4-2aaf-485b-b3cd-a8fe8e22f8f6","system_id":"levelo_inurba_marseille","lat":43.31373,"lon":5.38514,"is_reserved":false,"is_disabled":false,"rental_uris":{"android":"levelo://app?vid=e845f1f4-2aaf-485b-b3cd-a8fe8e22f8f6","ios":"levelo://app?vid=e845f1f4-2aaf-485b-b3cd-a8fe8e22f8f6"},"vehicle_type_id":"4","last_reported":1728607458,"current_range_meters":30800,"station_id":"ce4bgt92rcd13ifvqcf0","pricing_plan_id":"cebpf4jnsgd1na2vs0mg"},{"bike_id":"ff68b789-7173-415f-860f-fb58c1b9d01d","system_id":"levelo_inurba_marseille","lat":43.22937,"lon":5.35379,"is_reserved":false,"is_disabled":false,"rental_uris":{"android":"levelo://app?vid=ff68b789-7173-415f-860f-fb58c1b9d01d","ios":"levelo://app?vid=ff68b789-7173-415f-860f-fb58c1b9d01d"},"vehicle_type_id":"4","last_reported":1728607458,"current_range_meters":33600,"station_id":"cpo3532slgdg3j2ikp40","pricing_plan_id":"cebpf4jnsgd1na2vs0mg"},{"bike_id":"285e08f4-e441-45ca-a4aa-0ceac3a304a6","system_id":"levelo_inurba_marseille","lat":43.27902,"lon":5.38016,"is_reserved":false,"is_disabled":false,"rental_uris":{"android":"levelo://app?vid=285e08f4-e441-45ca-a4aa-0ceac3a304a6","ios":"levelo://app?vid=285e08f4-e441-45ca-a4aa-0ceac3a304a6"},"vehicle_type_id":"4","last_reported":1728607458,"current_range_meters":38800,"station_id":"ce4bhf92rcd13ifvqf50","pricing_plan_id":"cebpf4jnsgd1na2vs0mg"},{"bike_id":"85e37053-04dc-4338-817e-c058e7c146dd","system_id":"levelo_inurba_marseille","lat":43.29573,"lon":5.39978,"is_reserved":false,"is_disabled":false,"rental_uris":{"android":"levelo://app?vid=85e37053-04dc-4338-817e-c058e7c146dd","ios":"levelo://app?vid=85e37053-04dc-4338-817e-c058e7c146dd"},"vehicle_type_id":"4","last_reported":1728607458,"current_range_meters":31200,"station_id":"ce4bh312rcd13ifvqdj0","pricing_plan_id":"cebpf4jnsgd1na2vs0mg"},{"bike_id":"535f898a-3477-4583-978a-dc1a76e70ff9","system_id":"levelo_inurba_marseille","lat":43.27816,"lon":5.40712,"is_reserved":false,"is_disabled":false,"rental_uris":{"android":"levelo://app?vid=535f898a-3477-4583-978a-dc1a76e70ff9","ios":"levelo://app?vid=535f898a-3477-4583-978a-dc1a76e70ff9"},"vehicle_type_id":"4","last_reported":1728607458,"current_range_meters":39200,"station_id":"ce4bhnh2rcd13ifvqgtg","pricing_plan_id":"cebpf4jnsgd1na2vs0mg"},{"bike_id":"fd7ed6d7-0577-4967-ae16-f627fd4548ff","system_id":"levelo_inurba_marseille","lat":43.28459,"lon":5.35883,"is_reserved":false,"is_disabled":false,"rental_uris":{"android":"levelo://app?vid=fd7ed6d7-0577-4967-ae16-f627fd4548ff","ios":"levelo://app?vid=fd7ed6d7-0577-4967-ae16-f627fd4548ff"},"vehicle_type_id":"4","last_reported":1728607458,"current_range_meters":30800,"station_id":"ce4bhah2rcd13ifvqei0","pricing_plan_id":"cebpf4jnsgd1na2vs0mg"},{"bike_id":"6cb5b02c-2401-484a-8b7d-b4d2106d6b08","system_id":"levelo_inurba_marseille","lat":43.23192,"lon":5.35558,"is_reserved":false,"is_disabled":false,"rental_uris":{"android":"levelo://app?vid=6cb5b02c-2401-484a-8b7d-b4d2106d6b08","ios":"levelo://app?vid=6cb5b02c-2401-484a-8b7d-b4d2106d6b08"},"vehicle_type_id":"4","last_reported":1728607458,"current_range_meters":37600,"station_id":"ce4bhu92rcd13ifvqi70","pricing_plan_id":"cebpf4jnsgd1na2vs0mg"},{"bike_id":"f255bdbb-a497-4549-91a5-4dbe27c9af42","system_id":"levelo_inurba_marseille","lat":43.24679,"lon":5.38156,"is_reserved":false,"is_disabled":false,"rental_uris":{"android":"levelo://app?vid=f255bdbb-a497-4549-91a5-4dbe27c9af42","ios":"levelo://app?vid=f255bdbb-a497-4549-91a5-4dbe27c9af42"},"vehicle_type_id":"4","last_reported":1728607458,"current_range_meters":28800,"station_id":"ce4bhih2rcd13ifvqfr0","pricing_plan_id":"cebpf4jnsgd1na2vs0mg"},{"bike_id":"ec0b4a60-abc4-400a-9df1-ce6586f92f75","system_id":"levelo_inurba_marseille","lat":43.31169,"lon":5.38712,"is_reserved":false,"is_disabled":false,"rental_uris":{"android":"levelo://app?vid=ec0b4a60-abc4-400a-9df1-ce6586f92f75","ios":"levelo://app?vid=ec0b4a60-abc4-400a-9df1-ce6586f92f75"},"vehicle_type_id":"4","last_reported":1728607458,"current_range_meters":36400,"station_id":"ce4bgv12rcd13ifvqcp0","pricing_plan_id":"cebpf4jnsgd1na2vs0mg"},{"bike_id":"22e0ddee-edd1-41a7-9f36-51665b057cb8","system_id":"levelo_inurba_marseille","lat":43.30593,"lon":5.39362,"is_reserved":false,"is_disabled":false,"rental_uris":{"android":"levelo://app?vid=22e0ddee-edd1-41a7-9f36-51665b057cb8","ios":"levelo://app?vid=22e0ddee-edd1-41a7-9f36-51665b057cb8"},"vehicle_type_id":"4","last_reported":1728607458,"current_range_meters":38400,"station_id":"ce4bh0p2rcd13ifvqd80","pricing_plan_id":"cebpf4jnsgd1na2vs0mg"},{"bike_id":"4cc81547-9e8b-49bb-93dc-9a9d97dbc29e","system_id":"levelo_inurba_marseille","lat":43.29509,"lon":5.394,"is_reserved":false,"is_disabled":false,"rental_uris":{"android":"levelo://app?vid=4cc81547-9e8b-49bb-93dc-9a9d97dbc29e","ios":"levelo://app?vid=4cc81547-9e8b-49bb-93dc-9a9d97dbc29e"},"vehicle_type_id":"4","last_reported":1728607458,"current_range_meters":27200,"station_id":"ce4bh292rcd13ifvqdf0","pricing_plan_id":"cebpf4jnsgd1na2vs0mg"},{"bike_id":"aad136a8-d860-46f5-9a88-326756167519","system_id":"levelo_inurba_marseille","lat":43.32002,"lon":5.3816,"is_reserved":false,"is_disabled":false,"rental_uris":{"android":"levelo://app?vid=aad136a8-d860-46f5-9a88-326756167519","ios":"levelo://app?vid=aad136a8-d860-46f5-9a88-326756167519"},"vehicle_type_id":"4","last_reported":1728607458,"current_range_meters":34000,"station_id":"ce4bhr12rcd13ifvqhpg","pricing_plan_id":"cebpf4jnsgd1na2vs0mg"},{"bike_id":"dfb65c45-a78a-49eb-9234-365cf5eb2f53","system_id":"levelo_inurba_marseille","lat":43.29443,"lon":5.39754,"is_reserved":false,"is_disabled":false,"rental_uris":{"android":"levelo://app?vid=dfb65c45-a78a-49eb-9234-365cf5eb2f53","ios":"levelo://app?vid=dfb65c45-a78a-49eb-9234-365cf5eb2f53"},"vehicle_type_id":"4","last_reported":1728607458,"current_range_meters":38400,"station_id":"ce4bh3h2rcd13ifvqdo0","pricing_plan_id":"cebpf4jnsgd1na2vs0mg"},{"bike_id":"70e8d9e5-8396-4d7d-be39-1fc17a440db7","system_id":"levelo_inurba_marseille","lat":43.33609,"lon":5.41024,"is_reserved":false,"is_disabled":false,"rental_uris":{"android":"levelo://app?vid=70e8d9e5-8396-4d7d-be39-1fc17a440db7","ios":"levelo://app?vid=70e8d9e5-8396-4d7d-be39-1fc17a440db7"},"vehicle_type_id":"4","last_reported":1728607458,"current_range_meters":40000,"station_id":"ce4bhqh2rcd13ifvqhmg","pricing_plan_id":"cebpf4jnsgd1na2vs0mg"},{"bike_id":"b43e010f-69ea-40f6-9796-119442586a51","system_id":"levelo_inurba_marseille","lat":43.31334,"lon":5.39702,"is_reserved":false,"is_disabled":false,"rental_uris":{"android":"levelo://app?vid=b43e010f-69ea-40f6-9796-119442586a51","ios":"levelo://app?vid=b43e010f-69ea-40f6-9796-119442586a51"},"vehicle_type_id":"4","last_reported":1728607458,"current_range_meters":8000,"station_id":"ce4bgvp2rcd13ifvqcu0","pricing_plan_id":"cebpf4jnsgd1na2vs0mg"},{"bike_id":"1027a48d-39de-4194-8126-8dfdf879107f","system_id":"levelo_inurba_marseille","lat":43.29191,"lon":5.39334,"is_reserved":false,"is_disabled":false,"rental_uris":{"android":"levelo://app?vid=1027a48d-39de-4194-8126-8dfdf879107f","ios":"levelo://app?vid=1027a48d-39de-4194-8126-8dfdf879107f"},"vehicle_type_id":"4","last_reported":1728607458,"current_range_meters":17200,"station_id":"ce4bh192rcd13ifvqdd0","pricing_plan_id":"cebpf4jnsgd1na2vs0mg"},{"bike_id":"1d5de6a2-1898-46de-a744-7c205c4121e3","system_id":"levelo_inurba_marseille","lat":43.24996,"lon":5.38935,"is_reserved":false,"is_disabled":false,"rental_uris":{"android":"levelo://app?vid=1d5de6a2-1898-46de-a744-7c205c4121e3","ios":"levelo://app?vid=1d5de6a2-1898-46de-a744-7c205c4121e3"},"vehicle_type_id":"4","last_reported":1728607458,"current_range_meters":29600,"station_id":"ce4bhgp2rcd13ifvqfd0","pricing_plan_id":"cebpf4jnsgd1na2vs0mg"},{"bike_id":"9bab9d3e-37a4-49a5-a75a-86966f750570","system_id":"levelo_inurba_marseille","lat":43.321151,"lon":5.36778,"is_reserved":false,"is_disabled":false,"rental_uris":{"android":"levelo://app?vid=9bab9d3e-37a4-49a5-a75a-86966f750570","ios":"levelo://app?vid=9bab9d3e-37a4-49a5-a75a-86966f750570"},"vehicle_type_id":"4","last_reported":1728607458,"current_range_meters":7200,"station_id":"ce4bhrh2rcd13ifvqhug","pricing_plan_id":"cebpf4jnsgd1na2vs0mg"},{"bike_id":"d8718b16-6a66-44ed-8bae-d6030455fa45","system_id":"levelo_inurba_marseille","lat":43.27182,"lon":5.40987,"is_reserved":false,"is_disabled":false,"rental_uris":{"android":"levelo://app?vid=d8718b16-6a66-44ed-8bae-d6030455fa45","ios":"levelo://app?vid=d8718b16-6a66-44ed-8bae-d6030455fa45"},"vehicle_type_id":"4","last_reported":1728607458,"current_range_meters":32800,"station_id":"ce4bhl12rcd13ifvqgf0","pricing_plan_id":"cebpf4jnsgd1na2vs0mg"},{"bike_id":"f20c6d04-2c1b-419d-a21b-c0f0c6b04d9b","system_id":"levelo_inurba_marseille","lat":43.28443,"lon":5.39182,"is_reserved":false,"is_disabled":false,"rental_uris":{"android":"levelo://app?vid=f20c6d04-2c1b-419d-a21b-c0f0c6b04d9b","ios":"levelo://app?vid=f20c6d04-2c1b-419d-a21b-c0f0c6b04d9b"},"vehicle_type_id":"4","last_reported":1728607458,"current_range_meters":11200,"station_id":"ce4bhoh2rcd13ifvqh5g","pricing_plan_id":"cebpf4jnsgd1na2vs0mg"},{"bike_id":"51b39b0c-bb7b-440f-9a2b-83211e365378","system_id":"levelo_inurba_marseille","lat":43.31484,"lon":5.37308,"is_reserved":false,"is_disabled":false,"rental_uris":{"android":"levelo://app?vid=51b39b0c-bb7b-440f-9a2b-83211e365378","ios":"levelo://app?vid=51b39b0c-bb7b-440f-9a2b-83211e365378"},"vehicle_type_id":"4","last_reported":1728607458,"current_range_meters":31200,"station_id":"ce4bgt12rcd13ifvqcd0","pricing_plan_id":"cebpf4jnsgd1na2vs0mg"},{"bike_id":"a69524d3-de83-46f0-ad67-aadb0481c57c","system_id":"levelo_inurba_marseille","lat":43.29258,"lon":5.40902,"is_reserved":false,"is_disabled":false,"rental_uris":{"android":"levelo://app?vid=a69524d3-de83-46f0-ad67-aadb0481c57c","ios":"levelo://app?vid=a69524d3-de83-46f0-ad67-aadb0481c57c"},"vehicle_type_id":"4","last_reported":1728607458,"current_range_meters":38800,"station_id":"ce4bh192rcd13ifvqdc0","pricing_plan_id":"cebpf4jnsgd1na2vs0mg"},{"bike_id":"adb90be4-49bd-45cc-90a5-0ebca320168d","system_id":"levelo_inurba_marseille","lat":43.31753,"lon":5.39018,"is_reserved":false,"is_disabled":false,"rental_uris":{"android":"levelo://app?vid=adb90be4-49bd-45cc-90a5-0ebca320168d","ios":"levelo://app?vid=adb90be4-49bd-45cc-90a5-0ebca320168d"},"vehicle_type_id":"4","last_reported":1728607458,"current_range_meters":28800,"station_id":"ce4bhqp2rcd13ifvqhng","pricing_plan_id":"cebpf4jnsgd1na2vs0mg"},{"bike_id":"9a3ef8f3-8740-4e39-9c24-cf98b0108ac8","system_id":"levelo_inurba_marseille","lat":43.28039,"lon":5.3695,"is_reserved":false,"is_disabled":false,"rental_uris":{"android":"levelo://app?vid=9a3ef8f3-8740-4e39-9c24-cf98b0108ac8","ios":"levelo://app?vid=9a3ef8f3-8740-4e39-9c24-cf98b0108ac8"},"vehicle_type_id":"4","last_reported":1728607458,"current_range_meters":17600,"station_id":"ce4bha12rcd13ifvqef0","pricing_plan_id":"cebpf4jnsgd1na2vs0mg"},{"bike_id":"686ee0a0-ed6e-4c06-867c-7fc11cb61aaa","system_id":"levelo_inurba_marseille","lat":43.30542,"lon":5.38432,"is_reserved":false,"is_disabled":false,"rental_uris":{"android":"levelo://app?vid=686ee0a0-ed6e-4c06-867c-7fc11cb61aaa","ios":"levelo://app?vid=686ee0a0-ed6e-4c06-867c-7fc11cb61aaa"},"vehicle_type_id":"4","last_reported":1728607458,"current_range_meters":12400,"station_id":"ce4bgg92rcd13ifvqb30","pricing_plan_id":"cebpf4jnsgd1na2vs0mg"},{"bike_id":"b09dbff8-a830-491c-a572-644fce18b85a","system_id":"levelo_inurba_marseille","lat":43.24668,"lon":5.38157,"is_reserved":false,"is_disabled":false,"rental_uris":{"android":"levelo://app?vid=b09dbff8-a830-491c-a572-644fce18b85a","ios":"levelo://app?vid=b09dbff8-a830-491c-a572-644fce18b85a"},"vehicle_type_id":"4","last_reported":1728607458,"current_range_meters":30800,"station_id":"ce4bhih2rcd13ifvqfr0","pricing_plan_id":"cebpf4jnsgd1na2vs0mg"},{"bike_id":"b403c7ea-19b1-464d-a198-125a8524abb8","system_id":"levelo_inurba_marseille","lat":43.28464,"lon":5.35888,"is_reserved":false,"is_disabled":false,"rental_uris":{"android":"levelo://app?vid=b403c7ea-19b1-464d-a198-125a8524abb8","ios":"levelo://app?vid=b403c7ea-19b1-464d-a198-125a8524abb8"},"vehicle_type_id":"4","last_reported":1728607458,"current_range_meters":35200,"station_id":"ce4bhah2rcd13ifvqei0","pricing_plan_id":"cebpf4jnsgd1na2vs0mg"},{"bike_id":"9f7e2fbf-bdee-4a59-b66c-f4b85e9700f4","system_id":"levelo_inurba_marseille","lat":43.24182,"lon":5.39735,"is_reserved":false,"is_disabled":false,"rental_uris":{"android":"levelo://app?vid=9f7e2fbf-bdee-4a59-b66c-f4b85e9700f4","ios":"levelo://app?vid=9f7e2fbf-bdee-4a59-b66c-f4b85e9700f4"},"vehicle_type_id":"4","last_reported":1728607458,"current_range_meters":38000,"station_id":"ce4bhn12rcd13ifvqgpg","pricing_plan_id":"cebpf4jnsgd1na2vs0mg"},{"bike_id":"d04bc5e7-208e-4bd9-8570-54355c99f2a6","system_id":"levelo_inurba_marseille","lat":43.28457,"lon":5.35884,"is_reserved":false,"is_disabled":false,"rental_uris":{"android":"levelo://app?vid=d04bc5e7-208e-4bd9-8570-54355c99f2a6","ios":"levelo://app?vid=d04bc5e7-208e-4bd9-8570-54355c99f2a6"},"vehicle_type_id":"4","last_reported":1728607458,"current_range_meters":24400,"station_id":"ce4bhah2rcd13ifvqei0","pricing_plan_id":"cebpf4jnsgd1na2vs0mg"},{"bike_id":"1bf39129-7013-4caa-8d33-ef279b792ee7","system_id":"levelo_inurba_marseille","lat":43.25579,"lon":5.38227,"is_reserved":false,"is_disabled":false,"rental_uris":{"android":"levelo://app?vid=1bf39129-7013-4caa-8d33-ef279b792ee7","ios":"levelo://app?vid=1bf39129-7013-4caa-8d33-ef279b792ee7"},"vehicle_type_id":"4","last_reported":1728607458,"current_range_meters":8800,"station_id":"ce4bhih2rcd13ifvqfs0","pricing_plan_id":"cebpf4jnsgd1na2vs0mg"},{"bike_id":"4b089144-6850-4166-bc3f-7a5b51f15694","system_id":"levelo_inurba_marseille","lat":43.30324,"lon":5.40437,"is_reserved":false,"is_disabled":false,"rental_uris":{"android":"levelo://app?vid=4b089144-6850-4166-bc3f-7a5b51f15694","ios":"levelo://app?vid=4b089144-6850-4166-bc3f-7a5b51f15694"},"vehicle_type_id":"4","last_reported":1728607458,"current_range_meters":38000,"station_id":"ce4bh012rcd13ifvqd10","pricing_plan_id":"cebpf4jnsgd1na2vs0mg"},{"bike_id":"688f6893-4e25-4b49-8a50-98b67c83c1ce","system_id":"levelo_inurba_marseille","lat":43.30644,"lon":5.40105,"is_reserved":false,"is_disabled":false,"rental_uris":{"android":"levelo://app?vid=688f6893-4e25-4b49-8a50-98b67c83c1ce","ios":"levelo://app?vid=688f6893-4e25-4b49-8a50-98b67c83c1ce"},"vehicle_type_id":"4","last_reported":1728607458,"current_range_meters":25600,"station_id":"ce4bh112rcd13ifvqda0","pricing_plan_id":"cebpf4jnsgd1na2vs0mg"},{"bike_id":"b589848d-eca5-4528-9071-1a4061596d28","system_id":"levelo_inurba_marseille","lat":43.31333,"lon":5.39703,"is_reserved":false,"is_disabled":false,"rental_uris":{"android":"levelo://app?vid=b589848d-eca5-4528-9071-1a4061596d28","ios":"levelo://app?vid=b589848d-eca5-4528-9071-1a4061596d28"},"vehicle_type_id":"4","last_reported":1728607458,"current_range_meters":38400,"station_id":"ce4bgvp2rcd13ifvqcu0","pricing_plan_id":"cebpf4jnsgd1na2vs0mg"},{"bike_id":"4bae06e8-deae-424a-93d9-e99c9cc62419","system_id":"levelo_inurba_marseille","lat":43.28082,"lon":5.39652,"is_reserved":false,"is_disabled":false,"rental_uris":{"android":"levelo://app?vid=4bae06e8-deae-424a-93d9-e99c9cc62419","ios":"levelo://app?vid=4bae06e8-deae-424a-93d9-e99c9cc62419"},"vehicle_type_id":"4","last_reported":1728607458,"current_range_meters":24800,"station_id":"ce4bho12rcd13ifvqh2g","pricing_plan_id":"cebpf4jnsgd1na2vs0mg"},{"bike_id":"8656bec1-43d6-4b7d-9a96-62a9532afc77","system_id":"levelo_inurba_marseille","lat":43.30807,"lon":5.38164,"is_reserved":false,"is_disabled":false,"rental_uris":{"android":"levelo://app?vid=8656bec1-43d6-4b7d-9a96-62a9532afc77","ios":"levelo://app?vid=8656bec1-43d6-4b7d-9a96-62a9532afc77"},"vehicle_type_id":"4","last_reported":1728607458,"current_range_meters":20400,"station_id":"ce4bgt12rcd13ifvqce0","pricing_plan_id":"cebpf4jnsgd1na2vs0mg"},{"bike_id":"813a95b0-fe76-4a18-96f4-05e751c619cd","system_id":"levelo_inurba_marseille","lat":43.27993,"lon":5.41658,"is_reserved":false,"is_disabled":false,"rental_uris":{"android":"levelo://app?vid=813a95b0-fe76-4a18-96f4-05e751c619cd","ios":"levelo://app?vid=813a95b0-fe76-4a18-96f4-05e751c619cd"},"vehicle_type_id":"4","last_reported":1728607458,"current_range_meters":38000,"station_id":"ce4bho12rcd13ifvqh1g","pricing_plan_id":"cebpf4jnsgd1na2vs0mg"},{"bike_id":"6c8183dd-cf19-4d95-90a7-79a8efb9a1c0","system_id":"levelo_inurba_marseille","lat":43.311254,"lon":5.377639,"is_reserved":false,"is_disabled":false,"rental_uris":{"android":"levelo://app?vid=6c8183dd-cf19-4d95-90a7-79a8efb9a1c0","ios":"levelo://app?vid=6c8183dd-cf19-4d95-90a7-79a8efb9a1c0"},"vehicle_type_id":"4","last_reported":1728607458,"current_range_meters":34800,"station_id":"ce4bgt92rcd13ifvqcg0","pricing_plan_id":"cebpf4jnsgd1na2vs0mg"},{"bike_id":"5b45c3bd-1aa3-4b8f-b7e4-70ffd5b269e9","system_id":"levelo_inurba_marseille","lat":43.31537,"lon":5.38021,"is_reserved":false,"is_disabled":false,"rental_uris":{"android":"levelo://app?vid=5b45c3bd-1aa3-4b8f-b7e4-70ffd5b269e9","ios":"levelo://app?vid=5b45c3bd-1aa3-4b8f-b7e4-70ffd5b269e9"},"vehicle_type_id":"4","last_reported":1728607458,"current_range_meters":40000,"station_id":"ce4bhsp2rcd13ifvqi50","pricing_plan_id":"cebpf4jnsgd1na2vs0mg"},{"bike_id":"aaa0e072-6c26-4ddb-b448-5e2b6ed2e36d","system_id":"levelo_inurba_marseille","lat":43.32294,"lon":5.38268,"is_reserved":false,"is_disabled":false,"rental_uris":{"android":"levelo://app?vid=aaa0e072-6c26-4ddb-b448-5e2b6ed2e36d","ios":"levelo://app?vid=aaa0e072-6c26-4ddb-b448-5e2b6ed2e36d"},"vehicle_type_id":"4","last_reported":1728607458,"current_range_meters":28000,"station_id":"ce4bhr12rcd13ifvqhqg","pricing_plan_id":"cebpf4jnsgd1na2vs0mg"},{"bike_id":"cc2f9d69-500e-488e-b663-00c92ef177f5","system_id":"levelo_inurba_marseille","lat":43.30413,"lon":5.41285,"is_reserved":false,"is_disabled":false,"rental_uris":{"android":"levelo://app?vid=cc2f9d69-500e-488e-b663-00c92ef177f5","ios":"levelo://app?vid=cc2f9d69-500e-488e-b663-00c92ef177f5"},"vehicle_type_id":"4","last_reported":1728607458,"current_range_meters":33200,"station_id":"ce4bhop2rcd13ifvqh8g","pricing_plan_id":"cebpf4jnsgd1na2vs0mg"},{"bike_id":"1430f6f2-73dd-42ca-8307-5f209eb4a512","system_id":"levelo_inurba_marseille","lat":43.29464,"lon":5.37631,"is_reserved":false,"is_disabled":false,"rental_uris":{"android":"levelo://app?vid=1430f6f2-73dd-42ca-8307-5f209eb4a512","ios":"levelo://app?vid=1430f6f2-73dd-42ca-8307-5f209eb4a512"},"vehicle_type_id":"4","last_reported":1728607458,"current_range_meters":9200,"station_id":"","pricing_plan_id":"cebpf4jnsgd1na2vs0mg"},{"bike_id":"d11abab0-825b-4c35-9216-4e95dc7d2562","system_id":"levelo_inurba_marseille","lat":43.31373,"lon":5.38511,"is_reserved":false,"is_disabled":false,"rental_uris":{"android":"levelo://app?vid=d11abab0-825b-4c35-9216-4e95dc7d2562","ios":"levelo://app?vid=d11abab0-825b-4c35-9216-4e95dc7d2562"},"vehicle_type_id":"4","last_reported":1728607458,"current_range_meters":9600,"station_id":"ce4bgt92rcd13ifvqcf0","pricing_plan_id":"cebpf4jnsgd1na2vs0mg"},{"bike_id":"1aedeaea-7831-419d-b347-2cf652591a45","system_id":"levelo_inurba_marseille","lat":43.28437,"lon":5.39192,"is_reserved":false,"is_disabled":false,"rental_uris":{"android":"levelo://app?vid=1aedeaea-7831-419d-b347-2cf652591a45","ios":"levelo://app?vid=1aedeaea-7831-419d-b347-2cf652591a45"},"vehicle_type_id":"4","last_reported":1728607458,"current_range_meters":39200,"station_id":"ce4bhoh2rcd13ifvqh5g","pricing_plan_id":"cebpf4jnsgd1na2vs0mg"},{"bike_id":"f4242d47-0a61-48b8-871d-ac8468e3bd41","system_id":"levelo_inurba_marseille","lat":43.28458,"lon":5.35885,"is_reserved":false,"is_disabled":false,"rental_uris":{"android":"levelo://app?vid=f4242d47-0a61-48b8-871d-ac8468e3bd41","ios":"levelo://app?vid=f4242d47-0a61-48b8-871d-ac8468e3bd41"},"vehicle_type_id":"4","last_reported":1728607458,"current_range_meters":28000,"station_id":"ce4bhah2rcd13ifvqei0","pricing_plan_id":"cebpf4jnsgd1na2vs0mg"},{"bike_id":"484a4c63-4ef1-4433-b27a-9a9ca5ad2f9a","system_id":"levelo_inurba_marseille","lat":43.22929,"lon":5.35377,"is_reserved":false,"is_disabled":false,"rental_uris":{"android":"levelo://app?vid=484a4c63-4ef1-4433-b27a-9a9ca5ad2f9a","ios":"levelo://app?vid=484a4c63-4ef1-4433-b27a-9a9ca5ad2f9a"},"vehicle_type_id":"4","last_reported":1728607458,"current_range_meters":19200,"station_id":"cpo3532slgdg3j2ikp40","pricing_plan_id":"cebpf4jnsgd1na2vs0mg"},{"bike_id":"1c1c2a36-a8d7-479d-b339-6ec9292c8ea3","system_id":"levelo_inurba_marseille","lat":43.31265,"lon":5.40171,"is_reserved":false,"is_disabled":false,"rental_uris":{"android":"levelo://app?vid=1c1c2a36-a8d7-479d-b339-6ec9292c8ea3","ios":"levelo://app?vid=1c1c2a36-a8d7-479d-b339-6ec9292c8ea3"},"vehicle_type_id":"4","last_reported":1728607458,"current_range_meters":39200,"station_id":"ce4bh092rcd13ifvqd30","pricing_plan_id":"cebpf4jnsgd1na2vs0mg"},{"bike_id":"938d4ef0-cdbe-4768-8e5e-a9defb34c824","system_id":"levelo_inurba_marseille","lat":43.30425,"lon":5.39738,"is_reserved":false,"is_disabled":false,"rental_uris":{"android":"levelo://app?vid=938d4ef0-cdbe-4768-8e5e-a9defb34c824","ios":"levelo://app?vid=938d4ef0-cdbe-4768-8e5e-a9defb34c824"},"vehicle_type_id":"4","last_reported":1728607458,"current_range_meters":9200,"station_id":"ce4bh092rcd13ifvqd20","pricing_plan_id":"cebpf4jnsgd1na2vs0mg"},{"bike_id":"72460d43-44ed-4062-9982-5381c0dac02f","system_id":"levelo_inurba_marseille","lat":43.28351,"lon":5.38102,"is_reserved":false,"is_disabled":false,"rental_uris":{"android":"levelo://app?vid=72460d43-44ed-4062-9982-5381c0dac02f","ios":"levelo://app?vid=72460d43-44ed-4062-9982-5381c0dac02f"},"vehicle_type_id":"4","last_reported":1728607458,"current_range_meters":30400,"station_id":"ce4bh412rcd13ifvqdr0","pricing_plan_id":"cebpf4jnsgd1na2vs0mg"},{"bike_id":"812321f2-e508-4f50-a9b3-4c866b112283","system_id":"levelo_inurba_marseille","lat":43.29283,"lon":5.4012,"is_reserved":false,"is_disabled":false,"rental_uris":{"android":"levelo://app?vid=812321f2-e508-4f50-a9b3-4c866b112283","ios":"levelo://app?vid=812321f2-e508-4f50-a9b3-4c866b112283"},"vehicle_type_id":"4","last_reported":1728607458,"current_range_meters":38800,"station_id":"ce4bh312rcd13ifvqdk0","pricing_plan_id":"cebpf4jnsgd1na2vs0mg"},{"bike_id":"2bacbdd4-2404-4717-b62d-31a55a103108","system_id":"levelo_inurba_marseille","lat":43.27951,"lon":5.4105,"is_reserved":false,"is_disabled":false,"rental_uris":{"android":"levelo://app?vid=2bacbdd4-2404-4717-b62d-31a55a103108","ios":"levelo://app?vid=2bacbdd4-2404-4717-b62d-31a55a103108"},"vehicle_type_id":"4","last_reported":1728607458,"current_range_meters":35200,"station_id":"ce4bhnp2rcd13ifvqh0g","pricing_plan_id":"cebpf4jnsgd1na2vs0mg"},{"bike_id":"cd66634a-a755-4837-bafe-bd5706ebd9ae","system_id":"levelo_inurba_marseille","lat":43.31727,"lon":5.42409,"is_reserved":false,"is_disabled":false,"rental_uris":{"android":"levelo://app?vid=cd66634a-a755-4837-bafe-bd5706ebd9ae","ios":"levelo://app?vid=cd66634a-a755-4837-bafe-bd5706ebd9ae"},"vehicle_type_id":"4","last_reported":1728607458,"current_range_meters":12800,"station_id":"ce4bhp92rcd13ifvqhbg","pricing_plan_id":"cebpf4jnsgd1na2vs0mg"},{"bike_id":"b1b5ad6b-82d7-4e2e-bc02-5050b6f0b80b","system_id":"levelo_inurba_marseille","lat":43.34525,"lon":5.3854,"is_reserved":false,"is_disabled":false,"rental_uris":{"android":"levelo://app?vid=b1b5ad6b-82d7-4e2e-bc02-5050b6f0b80b","ios":"levelo://app?vid=b1b5ad6b-82d7-4e2e-bc02-5050b6f0b80b"},"vehicle_type_id":"4","last_reported":1728607458,"current_range_meters":24400,"station_id":"","pricing_plan_id":"cebpf4jnsgd1na2vs0mg"},{"bike_id":"830a55b5-b356-49d6-b4bd-23022c4ba6b3","system_id":"levelo_inurba_marseille","lat":43.28464,"lon":5.35884,"is_reserved":false,"is_disabled":false,"rental_uris":{"android":"levelo://app?vid=830a55b5-b356-49d6-b4bd-23022c4ba6b3","ios":"levelo://app?vid=830a55b5-b356-49d6-b4bd-23022c4ba6b3"},"vehicle_type_id":"4","last_reported":1728607458,"current_range_meters":6400,"station_id":"ce4bhah2rcd13ifvqei0","pricing_plan_id":"cebpf4jnsgd1na2vs0mg"},{"bike_id":"fbee2a8e-163d-4917-870d-0f44b08e68e0","system_id":"levelo_inurba_marseille","lat":43.31707,"lon":5.43703,"is_reserved":false,"is_disabled":false,"rental_uris":{"android":"levelo://app?vid=fbee2a8e-163d-4917-870d-0f44b08e68e0","ios":"levelo://app?vid=fbee2a8e-163d-4917-870d-0f44b08e68e0"},"vehicle_type_id":"4","last_reported":1728607458,"current_range_meters":7200,"station_id":"ce4bhp92rcd13ifvqhcg","pricing_plan_id":"cebpf4jnsgd1na2vs0mg"},{"bike_id":"a096e2a8-13ba-49dd-95c6-a5a8569d1151","system_id":"levelo_inurba_marseille","lat":43.26566,"lon":5.39014,"is_reserved":false,"is_disabled":false,"rental_uris":{"android":"levelo://app?vid=a096e2a8-13ba-49dd-95c6-a5a8569d1151","ios":"levelo://app?vid=a096e2a8-13ba-49dd-95c6-a5a8569d1151"},"vehicle_type_id":"4","last_reported":1728607458,"current_range_meters":25600,"station_id":"ce4bhe12rcd13ifvqf30","pricing_plan_id":"cebpf4jnsgd1na2vs0mg"},{"bike_id":"f65cd028-dda9-4402-aa58-20d5d22adfef","system_id":"levelo_inurba_marseille","lat":43.28924,"lon":5.38403,"is_reserved":false,"is_disabled":false,"rental_uris":{"android":"levelo://app?vid=f65cd028-dda9-4402-aa58-20d5d22adfef","ios":"levelo://app?vid=f65cd028-dda9-4402-aa58-20d5d22adfef"},"vehicle_type_id":"4","last_reported":1728607458,"current_range_meters":11200,"station_id":"ce4bhkp2rcd13ifvqgd0","pricing_plan_id":"cebpf4jnsgd1na2vs0mg"},{"bike_id":"2679da04-4fc7-44e6-87c2-fc29d2217a4e","system_id":"levelo_inurba_marseille","lat":43.28956,"lon":5.36395,"is_reserved":false,"is_disabled":false,"rental_uris":{"android":"levelo://app?vid=2679da04-4fc7-44e6-87c2-fc29d2217a4e","ios":"levelo://app?vid=2679da04-4fc7-44e6-87c2-fc29d2217a4e"},"vehicle_type_id":"4","last_reported":1728607458,"current_range_meters":24000,"station_id":"ce4bhc92rcd13ifvqetg","pricing_plan_id":"cebpf4jnsgd1na2vs0mg"},{"bike_id":"2109543f-d89d-4d56-8d42-692585adf5ca","system_id":"levelo_inurba_marseille","lat":43.25118,"lon":5.40316,"is_reserved":false,"is_disabled":false,"rental_uris":{"android":"levelo://app?vid=2109543f-d89d-4d56-8d42-692585adf5ca","ios":"levelo://app?vid=2109543f-d89d-4d56-8d42-692585adf5ca"},"vehicle_type_id":"4","last_reported":1728607458,"current_range_meters":36400,"station_id":"ce4bhlh2rcd13ifvqgig","pricing_plan_id":"cebpf4jnsgd1na2vs0mg"},{"bike_id":"d7319dc0-f3c4-4352-842c-68a8834cf876","system_id":"levelo_inurba_marseille","lat":43.28951,"lon":5.36633,"is_reserved":false,"is_disabled":false,"rental_uris":{"android":"levelo://app?vid=d7319dc0-f3c4-4352-842c-68a8834cf876","ios":"levelo://app?vid=d7319dc0-f3c4-4352-842c-68a8834cf876"},"vehicle_type_id":"4","last_reported":1728607458,"current_range_meters":36400,"station_id":"ce4bhap2rcd13ifvqek0","pricing_plan_id":"cebpf4jnsgd1na2vs0mg"},{"bike_id":"3372ba1c-93af-4ac9-8ffa-34868b7baae2","system_id":"levelo_inurba_marseille","lat":43.31761,"lon":5.39025,"is_reserved":false,"is_disabled":false,"rental_uris":{"android":"levelo://app?vid=3372ba1c-93af-4ac9-8ffa-34868b7baae2","ios":"levelo://app?vid=3372ba1c-93af-4ac9-8ffa-34868b7baae2"},"vehicle_type_id":"4","last_reported":1728607458,"current_range_meters":14800,"station_id":"ce4bhqp2rcd13ifvqhng","pricing_plan_id":"cebpf4jnsgd1na2vs0mg"},{"bike_id":"c6e4be16-a3e8-4162-8d05-00b50129be60","system_id":"levelo_inurba_marseille","lat":43.29259,"lon":5.40906,"is_reserved":false,"is_disabled":false,"rental_uris":{"android":"levelo://app?vid=c6e4be16-a3e8-4162-8d05-00b50129be60","ios":"levelo://app?vid=c6e4be16-a3e8-4162-8d05-00b50129be60"},"vehicle_type_id":"4","last_reported":1728607458,"current_range_meters":34000,"station_id":"ce4bh192rcd13ifvqdc0","pricing_plan_id":"cebpf4jnsgd1na2vs0mg"},{"bike_id":"5a5649e8-a9bc-4d0f-be41-ed6fc56a9baf","system_id":"levelo_inurba_marseille","lat":43.22931,"lon":5.35377,"is_reserved":false,"is_disabled":false,"rental_uris":{"android":"levelo://app?vid=5a5649e8-a9bc-4d0f-be41-ed6fc56a9baf","ios":"levelo://app?vid=5a5649e8-a9bc-4d0f-be41-ed6fc56a9baf"},"vehicle_type_id":"4","last_reported":1728607458,"current_range_meters":38400,"station_id":"cpo3532slgdg3j2ikp40","pricing_plan_id":"cebpf4jnsgd1na2vs0mg"},{"bike_id":"53a77182-b6c8-45e1-91b6-d053dcf854af","system_id":"levelo_inurba_marseille","lat":43.27176,"lon":5.40997,"is_reserved":false,"is_disabled":false,"rental_uris":{"android":"levelo://app?vid=53a77182-b6c8-45e1-91b6-d053dcf854af","ios":"levelo://app?vid=53a77182-b6c8-45e1-91b6-d053dcf854af"},"vehicle_type_id":"4","last_reported":1728607458,"current_range_meters":36000,"station_id":"ce4bhl12rcd13ifvqgf0","pricing_plan_id":"cebpf4jnsgd1na2vs0mg"},{"bike_id":"104dce3b-2862-44f7-bb64-f1cb1800c635","system_id":"levelo_inurba_marseille","lat":43.33602,"lon":5.4103,"is_reserved":false,"is_disabled":false,"rental_uris":{"android":"levelo://app?vid=104dce3b-2862-44f7-bb64-f1cb1800c635","ios":"levelo://app?vid=104dce3b-2862-44f7-bb64-f1cb1800c635"},"vehicle_type_id":"4","last_reported":1728607458,"current_range_meters":39200,"station_id":"ce4bhqh2rcd13ifvqhmg","pricing_plan_id":"cebpf4jnsgd1na2vs0mg"},{"bike_id":"90fbc6c8-74c8-4f7f-a927-f3891c5b89aa","system_id":"levelo_inurba_marseille","lat":43.27614,"lon":5.36112,"is_reserved":false,"is_disabled":false,"rental_uris":{"android":"levelo://app?vid=90fbc6c8-74c8-4f7f-a927-f3891c5b89aa","ios":"levelo://app?vid=90fbc6c8-74c8-4f7f-a927-f3891c5b89aa"},"vehicle_type_id":"4","last_reported":1728607458,"current_range_meters":39200,"station_id":"ce4bgj92rcd13ifvqbe0","pricing_plan_id":"cebpf4jnsgd1na2vs0mg"},{"bike_id":"52ba39b7-b52f-491a-ba65-25e180de383f","system_id":"levelo_inurba_marseille","lat":43.27818,"lon":5.40718,"is_reserved":false,"is_disabled":false,"rental_uris":{"android":"levelo://app?vid=52ba39b7-b52f-491a-ba65-25e180de383f","ios":"levelo://app?vid=52ba39b7-b52f-491a-ba65-25e180de383f"},"vehicle_type_id":"4","last_reported":1728607458,"current_range_meters":36800,"station_id":"ce4bhnh2rcd13ifvqgtg","pricing_plan_id":"cebpf4jnsgd1na2vs0mg"},{"bike_id":"1934428b-beb7-432a-84fb-15a05123ba36","system_id":"levelo_inurba_marseille","lat":43.27562,"lon":5.38443,"is_reserved":false,"is_disabled":false,"rental_uris":{"android":"levelo://app?vid=1934428b-beb7-432a-84fb-15a05123ba36","ios":"levelo://app?vid=1934428b-beb7-432a-84fb-15a05123ba36"},"vehicle_type_id":"4","last_reported":1728607458,"current_range_meters":37600,"station_id":"ce4bhh92rcd13ifvqfi0","pricing_plan_id":"cebpf4jnsgd1na2vs0mg"},{"bike_id":"a5324fa6-e09d-4631-b8d0-c153c1f4c657","system_id":"levelo_inurba_marseille","lat":43.26556,"lon":5.37299,"is_reserved":false,"is_disabled":false,"rental_uris":{"android":"levelo://app?vid=a5324fa6-e09d-4631-b8d0-c153c1f4c657","ios":"levelo://app?vid=a5324fa6-e09d-4631-b8d0-c153c1f4c657"},"vehicle_type_id":"4","last_reported":1728607458,"current_range_meters":39200,"station_id":"ce4bhg12rcd13ifvqf70","pricing_plan_id":"cebpf4jnsgd1na2vs0mg"},{"bike_id":"df97f6ce-50ef-4e46-9e5e-930330d7e696","system_id":"levelo_inurba_marseille","lat":43.25932,"lon":5.40915,"is_reserved":false,"is_disabled":false,"rental_uris":{"android":"levelo://app?vid=df97f6ce-50ef-4e46-9e5e-930330d7e696","ios":"levelo://app?vid=df97f6ce-50ef-4e46-9e5e-930330d7e696"},"vehicle_type_id":"4","last_reported":1728607458,"current_range_meters":17600,"station_id":"ce4bhm92rcd13ifvqglg","pricing_plan_id":"cebpf4jnsgd1na2vs0mg"},{"bike_id":"5bbb0da7-9b8c-4beb-9662-09d71d1da93f","system_id":"levelo_inurba_marseille","lat":43.32363,"lon":5.38884,"is_reserved":false,"is_disabled":false,"rental_uris":{"android":"levelo://app?vid=5bbb0da7-9b8c-4beb-9662-09d71d1da93f","ios":"levelo://app?vid=5bbb0da7-9b8c-4beb-9662-09d71d1da93f"},"vehicle_type_id":"4","last_reported":1728607458,"current_range_meters":36000,"station_id":"ce4bhqp2rcd13ifvqhog","pricing_plan_id":"cebpf4jnsgd1na2vs0mg"},{"bike_id":"f02f7de8-46fc-456a-a316-ca30edbfa7e9","system_id":"levelo_inurba_marseille","lat":43.25585,"lon":5.38238,"is_reserved":false,"is_disabled":false,"rental_uris":{"android":"levelo://app?vid=f02f7de8-46fc-456a-a316-ca30edbfa7e9","ios":"levelo://app?vid=f02f7de8-46fc-456a-a316-ca30edbfa7e9"},"vehicle_type_id":"4","last_reported":1728607458,"current_range_meters":38800,"station_id":"ce4bhih2rcd13ifvqfs0","pricing_plan_id":"cebpf4jnsgd1na2vs0mg"},{"bike_id":"398993b1-56d1-4bd2-96f0-6078dceddf08","system_id":"levelo_inurba_marseille","lat":43.31527,"lon":5.38035,"is_reserved":false,"is_disabled":false,"rental_uris":{"android":"levelo://app?vid=398993b1-56d1-4bd2-96f0-6078dceddf08","ios":"levelo://app?vid=398993b1-56d1-4bd2-96f0-6078dceddf08"},"vehicle_type_id":"4","last_reported":1728607458,"current_range_meters":39200,"station_id":"ce4bhsp2rcd13ifvqi50","pricing_plan_id":"cebpf4jnsgd1na2vs0mg"},{"bike_id":"8fb2b431-bcb9-46ba-80fb-e26e84592fc5","system_id":"levelo_inurba_marseille","lat":43.23192,"lon":5.35556,"is_reserved":false,"is_disabled":false,"rental_uris":{"android":"levelo://app?vid=8fb2b431-bcb9-46ba-80fb-e26e84592fc5","ios":"levelo://app?vid=8fb2b431-bcb9-46ba-80fb-e26e84592fc5"},"vehicle_type_id":"4","last_reported":1728607458,"current_range_meters":38000,"station_id":"ce4bhu92rcd13ifvqi70","pricing_plan_id":"cebpf4jnsgd1na2vs0mg"},{"bike_id":"3eb53be9-b3c7-4330-a83a-a5ce059efb7f","system_id":"levelo_inurba_marseille","lat":43.24387,"lon":5.37058,"is_reserved":false,"is_disabled":false,"rental_uris":{"android":"levelo://app?vid=3eb53be9-b3c7-4330-a83a-a5ce059efb7f","ios":"levelo://app?vid=3eb53be9-b3c7-4330-a83a-a5ce059efb7f"},"vehicle_type_id":"4","last_reported":1728607458,"current_range_meters":16800,"station_id":"ce4bhhh2rcd13ifvqfk0","pricing_plan_id":"cebpf4jnsgd1na2vs0mg"},{"bike_id":"d076a3aa-8e43-42ef-9e17-f93bc5a7bc04","system_id":"levelo_inurba_marseille","lat":43.28416,"lon":5.3752,"is_reserved":false,"is_disabled":false,"rental_uris":{"android":"levelo://app?vid=d076a3aa-8e43-42ef-9e17-f93bc5a7bc04","ios":"levelo://app?vid=d076a3aa-8e43-42ef-9e17-f93bc5a7bc04"},"vehicle_type_id":"4","last_reported":1728607458,"current_range_meters":22000,"station_id":"ce4bh412rcd13ifvqds0","pricing_plan_id":"cebpf4jnsgd1na2vs0mg"},{"bike_id":"cc2b8a16-4487-4b44-bcdc-67850745b412","system_id":"levelo_inurba_marseille","lat":43.31119,"lon":5.37771,"is_reserved":false,"is_disabled":false,"rental_uris":{"android":"levelo://app?vid=cc2b8a16-4487-4b44-bcdc-67850745b412","ios":"levelo://app?vid=cc2b8a16-4487-4b44-bcdc-67850745b412"},"vehicle_type_id":"4","last_reported":1728607458,"current_range_meters":28800,"station_id":"ce4bgt92rcd13ifvqcg0","pricing_plan_id":"cebpf4jnsgd1na2vs0mg"},{"bike_id":"5cd8efdd-df7e-4ad5-a19f-dcb92828f82d","system_id":"levelo_inurba_marseille","lat":43.30135,"lon":5.39875,"is_reserved":false,"is_disabled":false,"rental_uris":{"android":"levelo://app?vid=5cd8efdd-df7e-4ad5-a19f-dcb92828f82d","ios":"levelo://app?vid=5cd8efdd-df7e-4ad5-a19f-dcb92828f82d"},"vehicle_type_id":"4","last_reported":1728607458,"current_range_meters":27600,"station_id":"ce4bh0h2rcd13ifvqd40","pricing_plan_id":"cebpf4jnsgd1na2vs0mg"},{"bike_id":"dbfdb842-85c2-453f-8d8d-f6a72063d2db","system_id":"levelo_inurba_marseille","lat":43.2846,"lon":5.35889,"is_reserved":false,"is_disabled":false,"rental_uris":{"android":"levelo://app?vid=dbfdb842-85c2-453f-8d8d-f6a72063d2db","ios":"levelo://app?vid=dbfdb842-85c2-453f-8d8d-f6a72063d2db"},"vehicle_type_id":"4","last_reported":1728607458,"current_range_meters":4800,"station_id":"ce4bhah2rcd13ifvqei0","pricing_plan_id":"cebpf4jnsgd1na2vs0mg"},{"bike_id":"68966495-3cc1-475f-961b-38a36f641a17","system_id":"levelo_inurba_marseille","lat":43.31707,"lon":5.37771,"is_reserved":false,"is_disabled":false,"rental_uris":{"android":"levelo://app?vid=68966495-3cc1-475f-961b-38a36f641a17","ios":"levelo://app?vid=68966495-3cc1-475f-961b-38a36f641a17"},"vehicle_type_id":"4","last_reported":1728607458,"current_range_meters":38800,"station_id":"ce4bgth2rcd13ifvqch0","pricing_plan_id":"cebpf4jnsgd1na2vs0mg"},{"bike_id":"37781618-b1b5-47b4-b76b-e9bce24807a8","system_id":"levelo_inurba_marseille","lat":43.27918,"lon":5.39587,"is_reserved":false,"is_disabled":false,"rental_uris":{"android":"levelo://app?vid=37781618-b1b5-47b4-b76b-e9bce24807a8","ios":"levelo://app?vid=37781618-b1b5-47b4-b76b-e9bce24807a8"},"vehicle_type_id":"4","last_reported":1728607458,"current_range_meters":25600,"station_id":"ce4bhf92rcd13ifvqf40","pricing_plan_id":"cebpf4jnsgd1na2vs0mg"},{"bike_id":"47e58452-78e8-4b80-bd1b-533509c8cfcd","system_id":"levelo_inurba_marseille","lat":43.25936,"lon":5.40913,"is_reserved":false,"is_disabled":false,"rental_uris":{"android":"levelo://app?vid=47e58452-78e8-4b80-bd1b-533509c8cfcd","ios":"levelo://app?vid=47e58452-78e8-4b80-bd1b-533509c8cfcd"},"vehicle_type_id":"4","last_reported":1728607458,"current_range_meters":9200,"station_id":"ce4bhm92rcd13ifvqglg","pricing_plan_id":"cebpf4jnsgd1na2vs0mg"},{"bike_id":"2f888bab-1bbe-479e-8c61-647433cd7f38","system_id":"levelo_inurba_marseille","lat":43.29871,"lon":5.39732,"is_reserved":false,"is_disabled":false,"rental_uris":{"android":"levelo://app?vid=2f888bab-1bbe-479e-8c61-647433cd7f38","ios":"levelo://app?vid=2f888bab-1bbe-479e-8c61-647433cd7f38"},"vehicle_type_id":"4","last_reported":1728607458,"current_range_meters":39200,"station_id":"ce4bh0h2rcd13ifvqd50","pricing_plan_id":"cebpf4jnsgd1na2vs0mg"},{"bike_id":"66c53e00-bc3c-47bf-96a7-e9512d8a40c8","system_id":"levelo_inurba_marseille","lat":43.285732,"lon":5.39502,"is_reserved":false,"is_disabled":false,"rental_uris":{"android":"levelo://app?vid=66c53e00-bc3c-47bf-96a7-e9512d8a40c8","ios":"levelo://app?vid=66c53e00-bc3c-47bf-96a7-e9512d8a40c8"},"vehicle_type_id":"4","last_reported":1728607458,"current_range_meters":38800,"station_id":"ce4bh292rcd13ifvqdg0","pricing_plan_id":"cebpf4jnsgd1na2vs0mg"},{"bike_id":"2e57e480-a324-489b-8946-f7d9d9edcf00","system_id":"levelo_inurba_marseille","lat":43.336151,"lon":5.410215,"is_reserved":false,"is_disabled":false,"rental_uris":{"android":"levelo://app?vid=2e57e480-a324-489b-8946-f7d9d9edcf00","ios":"levelo://app?vid=2e57e480-a324-489b-8946-f7d9d9edcf00"},"vehicle_type_id":"4","last_reported":1728607458,"current_range_meters":12800,"station_id":"ce4bhqh2rcd13ifvqhmg","pricing_plan_id":"cebpf4jnsgd1na2vs0mg"},{"bike_id":"963783a0-1ef8-4176-863a-f70f50101182","system_id":"levelo_inurba_marseille","lat":43.24174,"lon":5.39725,"is_reserved":false,"is_disabled":false,"rental_uris":{"android":"levelo://app?vid=963783a0-1ef8-4176-863a-f70f50101182","ios":"levelo://app?vid=963783a0-1ef8-4176-863a-f70f50101182"},"vehicle_type_id":"4","last_reported":1728607458,"current_range_meters":17600,"station_id":"ce4bhn12rcd13ifvqgpg","pricing_plan_id":"cebpf4jnsgd1na2vs0mg"},{"bike_id":"bda3fe94-6c86-4ae7-a299-1014f0b7764b","system_id":"levelo_inurba_marseille","lat":43.28043,"lon":5.36954,"is_reserved":false,"is_disabled":false,"rental_uris":{"android":"levelo://app?vid=bda3fe94-6c86-4ae7-a299-1014f0b7764b","ios":"levelo://app?vid=bda3fe94-6c86-4ae7-a299-1014f0b7764b"},"vehicle_type_id":"4","last_reported":1728607458,"current_range_meters":39200,"station_id":"ce4bha12rcd13ifvqef0","pricing_plan_id":"cebpf4jnsgd1na2vs0mg"},{"bike_id":"4e6a08ae-9e79-48c6-89f4-c318fef764a9","system_id":"levelo_inurba_marseille","lat":43.32,"lon":5.38154,"is_reserved":false,"is_disabled":false,"rental_uris":{"android":"levelo://app?vid=4e6a08ae-9e79-48c6-89f4-c318fef764a9","ios":"levelo://app?vid=4e6a08ae-9e79-48c6-89f4-c318fef764a9"},"vehicle_type_id":"4","last_reported":1728607458,"current_range_meters":38000,"station_id":"ce4bhr12rcd13ifvqhpg","pricing_plan_id":"cebpf4jnsgd1na2vs0mg"},{"bike_id":"bb693aec-e596-4cbe-9107-6a4434cbe1c6","system_id":"levelo_inurba_marseille","lat":43.28562,"lon":5.39495,"is_reserved":false,"is_disabled":false,"rental_uris":{"android":"levelo://app?vid=bb693aec-e596-4cbe-9107-6a4434cbe1c6","ios":"levelo://app?vid=bb693aec-e596-4cbe-9107-6a4434cbe1c6"},"vehicle_type_id":"4","last_reported":1728607458,"current_range_meters":38800,"station_id":"ce4bh292rcd13ifvqdg0","pricing_plan_id":"cebpf4jnsgd1na2vs0mg"},{"bike_id":"5ec24874-40d5-40f7-ba88-9ba229ae54d7","system_id":"levelo_inurba_marseille","lat":43.24653,"lon":5.38895,"is_reserved":false,"is_disabled":false,"rental_uris":{"android":"levelo://app?vid=5ec24874-40d5-40f7-ba88-9ba229ae54d7","ios":"levelo://app?vid=5ec24874-40d5-40f7-ba88-9ba229ae54d7"},"vehicle_type_id":"4","last_reported":1728607458,"current_range_meters":22800,"station_id":"ce4bhg12rcd13ifvqf60","pricing_plan_id":"cebpf4jnsgd1na2vs0mg"},{"bike_id":"ead90337-bd04-4723-84d7-3c938f85e2b4","system_id":"levelo_inurba_marseille","lat":43.28856,"lon":5.39328,"is_reserved":false,"is_disabled":false,"rental_uris":{"android":"levelo://app?vid=ead90337-bd04-4723-84d7-3c938f85e2b4","ios":"levelo://app?vid=ead90337-bd04-4723-84d7-3c938f85e2b4"},"vehicle_type_id":"4","last_reported":1728607458,"current_range_meters":38800,"station_id":"ce4bh2p2rcd13ifvqdi0","pricing_plan_id":"cebpf4jnsgd1na2vs0mg"},{"bike_id":"c7f4e19d-c3bd-439d-b7d2-cef61e4e5bd9","system_id":"levelo_inurba_marseille","lat":43.31167,"lon":5.38716,"is_reserved":false,"is_disabled":false,"rental_uris":{"android":"levelo://app?vid=c7f4e19d-c3bd-439d-b7d2-cef61e4e5bd9","ios":"levelo://app?vid=c7f4e19d-c3bd-439d-b7d2-cef61e4e5bd9"},"vehicle_type_id":"4","last_reported":1728607458,"current_range_meters":9600,"station_id":"ce4bgv12rcd13ifvqcp0","pricing_plan_id":"cebpf4jnsgd1na2vs0mg"},{"bike_id":"dfdacdeb-a9e3-4d52-a5cc-3d02dffad89e","system_id":"levelo_inurba_marseille","lat":43.29281,"lon":5.40127,"is_reserved":false,"is_disabled":false,"rental_uris":{"android":"levelo://app?vid=dfdacdeb-a9e3-4d52-a5cc-3d02dffad89e","ios":"levelo://app?vid=dfdacdeb-a9e3-4d52-a5cc-3d02dffad89e"},"vehicle_type_id":"4","last_reported":1728607458,"current_range_meters":38800,"station_id":"ce4bh312rcd13ifvqdk0","pricing_plan_id":"cebpf4jnsgd1na2vs0mg"},{"bike_id":"412929a4-dd66-4038-99ab-5ee5129f8e9e","system_id":"levelo_inurba_marseille","lat":43.28264,"lon":5.35084,"is_reserved":false,"is_disabled":false,"rental_uris":{"android":"levelo://app?vid=412929a4-dd66-4038-99ab-5ee5129f8e9e","ios":"levelo://app?vid=412929a4-dd66-4038-99ab-5ee5129f8e9e"},"vehicle_type_id":"4","last_reported":1728607458,"current_range_meters":25200,"station_id":"ce4bhbp2rcd13ifvqerg","pricing_plan_id":"cebpf4jnsgd1na2vs0mg"},{"bike_id":"a8f0bfa5-7bc9-40e4-a9a2-5a1a8ec5daab","system_id":"levelo_inurba_marseille","lat":43.27975,"lon":5.3875,"is_reserved":false,"is_disabled":false,"rental_uris":{"android":"levelo://app?vid=a8f0bfa5-7bc9-40e4-a9a2-5a1a8ec5daab","ios":"levelo://app?vid=a8f0bfa5-7bc9-40e4-a9a2-5a1a8ec5daab"},"vehicle_type_id":"4","last_reported":1728607458,"current_range_meters":36800,"station_id":"ce4bhg12rcd13ifvqf80","pricing_plan_id":"cebpf4jnsgd1na2vs0mg"},{"bike_id":"7705d525-2566-45bf-899e-abb57789422d","system_id":"levelo_inurba_marseille","lat":43.28571,"lon":5.39502,"is_reserved":false,"is_disabled":false,"rental_uris":{"android":"levelo://app?vid=7705d525-2566-45bf-899e-abb57789422d","ios":"levelo://app?vid=7705d525-2566-45bf-899e-abb57789422d"},"vehicle_type_id":"4","last_reported":1728607458,"current_range_meters":14800,"station_id":"ce4bh292rcd13ifvqdg0","pricing_plan_id":"cebpf4jnsgd1na2vs0mg"},{"bike_id":"ffcd1ce1-30d3-4500-af91-e8d84c79e9ff","system_id":"levelo_inurba_marseille","lat":43.30641,"lon":5.40088,"is_reserved":false,"is_disabled":false,"rental_uris":{"android":"levelo://app?vid=ffcd1ce1-30d3-4500-af91-e8d84c79e9ff","ios":"levelo://app?vid=ffcd1ce1-30d3-4500-af91-e8d84c79e9ff"},"vehicle_type_id":"4","last_reported":1728607458,"current_range_meters":39200,"station_id":"ce4bh112rcd13ifvqda0","pricing_plan_id":"cebpf4jnsgd1na2vs0mg"},{"bike_id":"84c7298a-0f73-4a21-8946-0715560cda84","system_id":"levelo_inurba_marseille","lat":43.30641,"lon":5.40093,"is_reserved":false,"is_disabled":false,"rental_uris":{"android":"levelo://app?vid=84c7298a-0f73-4a21-8946-0715560cda84","ios":"levelo://app?vid=84c7298a-0f73-4a21-8946-0715560cda84"},"vehicle_type_id":"4","last_reported":1728607458,"current_range_meters":32400,"station_id":"ce4bh112rcd13ifvqda0","pricing_plan_id":"cebpf4jnsgd1na2vs0mg"},{"bike_id":"9f830b46-6305-4180-8424-2d6cdbb5a824","system_id":"levelo_inurba_marseille","lat":43.30407,"lon":5.41292,"is_reserved":false,"is_disabled":false,"rental_uris":{"android":"levelo://app?vid=9f830b46-6305-4180-8424-2d6cdbb5a824","ios":"levelo://app?vid=9f830b46-6305-4180-8424-2d6cdbb5a824"},"vehicle_type_id":"4","last_reported":1728607458,"current_range_meters":13600,"station_id":"ce4bhop2rcd13ifvqh8g","pricing_plan_id":"cebpf4jnsgd1na2vs0mg"},{"bike_id":"b98a370f-428e-472b-b851-097e318e7656","system_id":"levelo_inurba_marseille","lat":43.27677,"lon":5.38918,"is_reserved":false,"is_disabled":false,"rental_uris":{"android":"levelo://app?vid=b98a370f-428e-472b-b851-097e318e7656","ios":"levelo://app?vid=b98a370f-428e-472b-b851-097e318e7656"},"vehicle_type_id":"4","last_reported":1728607458,"current_range_meters":38400,"station_id":"ce4bhi12rcd13ifvqfo0","pricing_plan_id":"cebpf4jnsgd1na2vs0mg"},{"bike_id":"6ec78acb-9d92-4b9e-8c67-5c118419c0bd","system_id":"levelo_inurba_marseille","lat":43.31115,"lon":5.3777,"is_reserved":false,"is_disabled":false,"rental_uris":{"android":"levelo://app?vid=6ec78acb-9d92-4b9e-8c67-5c118419c0bd","ios":"levelo://app?vid=6ec78acb-9d92-4b9e-8c67-5c118419c0bd"},"vehicle_type_id":"4","last_reported":1728607458,"current_range_meters":28000,"station_id":"ce4bgt92rcd13ifvqcg0","pricing_plan_id":"cebpf4jnsgd1na2vs0mg"},{"bike_id":"44da063b-f55f-43e5-89e7-c03ebac99da9","system_id":"levelo_inurba_marseille","lat":43.31069,"lon":5.38355,"is_reserved":false,"is_disabled":false,"rental_uris":{"android":"levelo://app?vid=44da063b-f55f-43e5-89e7-c03ebac99da9","ios":"levelo://app?vid=44da063b-f55f-43e5-89e7-c03ebac99da9"},"vehicle_type_id":"4","last_reported":1728607458,"current_range_meters":32400,"station_id":"ce4bgv92rcd13ifvqcr0","pricing_plan_id":"cebpf4jnsgd1na2vs0mg"},{"bike_id":"0d665a2a-7be6-41c7-b2cd-59c0b7ad781d","system_id":"levelo_inurba_marseille","lat":43.28465,"lon":5.35883,"is_reserved":false,"is_disabled":false,"rental_uris":{"android":"levelo://app?vid=0d665a2a-7be6-41c7-b2cd-59c0b7ad781d","ios":"levelo://app?vid=0d665a2a-7be6-41c7-b2cd-59c0b7ad781d"},"vehicle_type_id":"4","last_reported":1728607458,"current_range_meters":7200,"station_id":"ce4bhah2rcd13ifvqei0","pricing_plan_id":"cebpf4jnsgd1na2vs0mg"},{"bike_id":"e67cbedd-a992-4441-b376-acc425e0d4c2","system_id":"levelo_inurba_marseille","lat":43.25865,"lon":5.399,"is_reserved":false,"is_disabled":false,"rental_uris":{"android":"levelo://app?vid=e67cbedd-a992-4441-b376-acc425e0d4c2","ios":"levelo://app?vid=e67cbedd-a992-4441-b376-acc425e0d4c2"},"vehicle_type_id":"4","last_reported":1728607458,"current_range_meters":20800,"station_id":"ce4bhl92rcd13ifvqghg","pricing_plan_id":"cebpf4jnsgd1na2vs0mg"},{"bike_id":"27482599-6ac1-4451-896d-9d27077a44e3","system_id":"levelo_inurba_marseille","lat":43.26032,"lon":5.37556,"is_reserved":false,"is_disabled":false,"rental_uris":{"android":"levelo://app?vid=27482599-6ac1-4451-896d-9d27077a44e3","ios":"levelo://app?vid=27482599-6ac1-4451-896d-9d27077a44e3"},"vehicle_type_id":"4","last_reported":1728607458,"current_range_meters":30800,"station_id":"ce4bhgh2rcd13ifvqfa0","pricing_plan_id":"cebpf4jnsgd1na2vs0mg"},{"bike_id":"aa75c41c-1391-4d5a-b0ad-fb29c317877d","system_id":"levelo_inurba_marseille","lat":43.23072,"lon":5.35497,"is_reserved":false,"is_disabled":false,"rental_uris":{"android":"levelo://app?vid=aa75c41c-1391-4d5a-b0ad-fb29c317877d","ios":"levelo://app?vid=aa75c41c-1391-4d5a-b0ad-fb29c317877d"},"vehicle_type_id":"4","last_reported":1728607458,"current_range_meters":8800,"station_id":"cpo3342slgdg3j2ifvpg","pricing_plan_id":"cebpf4jnsgd1na2vs0mg"},{"bike_id":"773b10cd-4140-4e1a-af4b-72bc0c858471","system_id":"levelo_inurba_marseille","lat":43.31346,"lon":5.36722,"is_reserved":false,"is_disabled":false,"rental_uris":{"android":"levelo://app?vid=773b10cd-4140-4e1a-af4b-72bc0c858471","ios":"levelo://app?vid=773b10cd-4140-4e1a-af4b-72bc0c858471"},"vehicle_type_id":"4","last_reported":1728607458,"current_range_meters":38400,"station_id":"ce4bgr92rcd13ifvqc6g","pricing_plan_id":"cebpf4jnsgd1na2vs0mg"},{"bike_id":"9bffe474-7f50-4076-86d6-41980efe519d","system_id":"levelo_inurba_marseille","lat":43.29279,"lon":5.40118,"is_reserved":false,"is_disabled":false,"rental_uris":{"android":"levelo://app?vid=9bffe474-7f50-4076-86d6-41980efe519d","ios":"levelo://app?vid=9bffe474-7f50-4076-86d6-41980efe519d"},"vehicle_type_id":"4","last_reported":1728607458,"current_range_meters":38800,"station_id":"ce4bh312rcd13ifvqdk0","pricing_plan_id":"cebpf4jnsgd1na2vs0mg"},{"bike_id":"e8ecdf7f-26c2-46cd-ba97-2551e6008e5a","system_id":"levelo_inurba_marseille","lat":43.2679,"lon":5.39423,"is_reserved":false,"is_disabled":false,"rental_uris":{"android":"levelo://app?vid=e8ecdf7f-26c2-46cd-ba97-2551e6008e5a","ios":"levelo://app?vid=e8ecdf7f-26c2-46cd-ba97-2551e6008e5a"},"vehicle_type_id":"4","last_reported":1728607458,"current_range_meters":25200,"station_id":"ce4bhh12rcd13ifvqfg0","pricing_plan_id":"cebpf4jnsgd1na2vs0mg"},{"bike_id":"8db117d4-2b61-4d71-8f89-5a2e951e71cb","system_id":"levelo_inurba_marseille","lat":43.26806,"lon":5.40269,"is_reserved":false,"is_disabled":false,"rental_uris":{"android":"levelo://app?vid=8db117d4-2b61-4d71-8f89-5a2e951e71cb","ios":"levelo://app?vid=8db117d4-2b61-4d71-8f89-5a2e951e71cb"},"vehicle_type_id":"4","last_reported":1728607458,"current_range_meters":6000,"station_id":"ce501612rcd8frsf0b60","pricing_plan_id":"cebpf4jnsgd1na2vs0mg"},{"bike_id":"7038b20e-eb7d-4386-9e9f-6324751d4789","system_id":"levelo_inurba_marseille","lat":43.2807,"lon":5.3926,"is_reserved":false,"is_disabled":false,"rental_uris":{"android":"levelo://app?vid=7038b20e-eb7d-4386-9e9f-6324751d4789","ios":"levelo://app?vid=7038b20e-eb7d-4386-9e9f-6324751d4789"},"vehicle_type_id":"4","last_reported":1728607458,"current_range_meters":14800,"station_id":"","pricing_plan_id":"cebpf4jnsgd1na2vs0mg"},{"bike_id":"75f1fd93-3fd8-468d-8eee-6eb32bebf085","system_id":"levelo_inurba_marseille","lat":43.28442,"lon":5.39193,"is_reserved":false,"is_disabled":false,"rental_uris":{"android":"levelo://app?vid=75f1fd93-3fd8-468d-8eee-6eb32bebf085","ios":"levelo://app?vid=75f1fd93-3fd8-468d-8eee-6eb32bebf085"},"vehicle_type_id":"4","last_reported":1728607458,"current_range_meters":36800,"station_id":"ce4bhoh2rcd13ifvqh5g","pricing_plan_id":"cebpf4jnsgd1na2vs0mg"},{"bike_id":"f724ee69-c9ae-4fb6-bfa9-7e350f159353","system_id":"levelo_inurba_marseille","lat":43.31185,"lon":5.38706,"is_reserved":false,"is_disabled":false,"rental_uris":{"android":"levelo://app?vid=f724ee69-c9ae-4fb6-bfa9-7e350f159353","ios":"levelo://app?vid=f724ee69-c9ae-4fb6-bfa9-7e350f159353"},"vehicle_type_id":"4","last_reported":1728607458,"current_range_meters":36800,"station_id":"ce4bgv12rcd13ifvqcp0","pricing_plan_id":"cebpf4jnsgd1na2vs0mg"},{"bike_id":"d9849edc-abaa-432a-a1f1-9573c2211b86","system_id":"levelo_inurba_marseille","lat":43.28844,"lon":5.35853,"is_reserved":false,"is_disabled":false,"rental_uris":{"android":"levelo://app?vid=d9849edc-abaa-432a-a1f1-9573c2211b86","ios":"levelo://app?vid=d9849edc-abaa-432a-a1f1-9573c2211b86"},"vehicle_type_id":"4","last_reported":1728607458,"current_range_meters":31200,"station_id":"ce4bhb12rcd13ifvqem0","pricing_plan_id":"cebpf4jnsgd1na2vs0mg"},{"bike_id":"d4e7c199-5b07-4cc4-b4e1-e0fc91d98728","system_id":"levelo_inurba_marseille","lat":43.25582,"lon":5.38236,"is_reserved":false,"is_disabled":false,"rental_uris":{"android":"levelo://app?vid=d4e7c199-5b07-4cc4-b4e1-e0fc91d98728","ios":"levelo://app?vid=d4e7c199-5b07-4cc4-b4e1-e0fc91d98728"},"vehicle_type_id":"4","last_reported":1728607458,"current_range_meters":38800,"station_id":"ce4bhih2rcd13ifvqfs0","pricing_plan_id":"cebpf4jnsgd1na2vs0mg"},{"bike_id":"b1009450-6152-462c-a724-90df51eeb6db","system_id":"levelo_inurba_marseille","lat":43.32382,"lon":5.38917,"is_reserved":false,"is_disabled":false,"rental_uris":{"android":"levelo://app?vid=b1009450-6152-462c-a724-90df51eeb6db","ios":"levelo://app?vid=b1009450-6152-462c-a724-90df51eeb6db"},"vehicle_type_id":"4","last_reported":1728607458,"current_range_meters":8000,"station_id":"ce4bhqp2rcd13ifvqhog","pricing_plan_id":"cebpf4jnsgd1na2vs0mg"},{"bike_id":"2e20d9de-f8bc-4878-a304-f91123c94a74","system_id":"levelo_inurba_marseille","lat":43.29264,"lon":5.40121,"is_reserved":false,"is_disabled":false,"rental_uris":{"android":"levelo://app?vid=2e20d9de-f8bc-4878-a304-f91123c94a74","ios":"levelo://app?vid=2e20d9de-f8bc-4878-a304-f91123c94a74"},"vehicle_type_id":"4","last_reported":1728607458,"current_range_meters":38800,"station_id":"ce4bh312rcd13ifvqdk0","pricing_plan_id":"cebpf4jnsgd1na2vs0mg"},{"bike_id":"35764583-4bcb-42c3-9ac1-a3b8e46dd00d","system_id":"levelo_inurba_marseille","lat":43.32489,"lon":5.36573,"is_reserved":false,"is_disabled":false,"rental_uris":{"android":"levelo://app?vid=35764583-4bcb-42c3-9ac1-a3b8e46dd00d","ios":"levelo://app?vid=35764583-4bcb-42c3-9ac1-a3b8e46dd00d"},"vehicle_type_id":"4","last_reported":1728607458,"current_range_meters":38000,"station_id":"ce4bhs12rcd13ifvqhvg","pricing_plan_id":"cebpf4jnsgd1na2vs0mg"},{"bike_id":"74ed8130-e175-4111-9c6f-fcff7c6ed5e9","system_id":"levelo_inurba_marseille","lat":43.27995,"lon":5.41662,"is_reserved":false,"is_disabled":false,"rental_uris":{"android":"levelo://app?vid=74ed8130-e175-4111-9c6f-fcff7c6ed5e9","ios":"levelo://app?vid=74ed8130-e175-4111-9c6f-fcff7c6ed5e9"},"vehicle_type_id":"4","last_reported":1728607458,"current_range_meters":3200,"station_id":"ce4bho12rcd13ifvqh1g","pricing_plan_id":"cebpf4jnsgd1na2vs0mg"},{"bike_id":"d49254ea-353c-454e-8e6a-d7c994c807f1","system_id":"levelo_inurba_marseille","lat":43.308945,"lon":5.39661,"is_reserved":false,"is_disabled":false,"rental_uris":{"android":"levelo://app?vid=d49254ea-353c-454e-8e6a-d7c994c807f1","ios":"levelo://app?vid=d49254ea-353c-454e-8e6a-d7c994c807f1"},"vehicle_type_id":"4","last_reported":1728607458,"current_range_meters":20000,"station_id":"ce4bh012rcd13ifvqcv0","pricing_plan_id":"cebpf4jnsgd1na2vs0mg"},{"bike_id":"c4b93dc9-7c4f-495a-b230-86ef5f878385","system_id":"levelo_inurba_marseille","lat":43.31271,"lon":5.40178,"is_reserved":false,"is_disabled":false,"rental_uris":{"android":"levelo://app?vid=c4b93dc9-7c4f-495a-b230-86ef5f878385","ios":"levelo://app?vid=c4b93dc9-7c4f-495a-b230-86ef5f878385"},"vehicle_type_id":"4","last_reported":1728607458,"current_range_meters":30000,"station_id":"ce4bh092rcd13ifvqd30","pricing_plan_id":"cebpf4jnsgd1na2vs0mg"},{"bike_id":"552e6d41-358a-4502-944b-7d3a2dc8250a","system_id":"levelo_inurba_marseille","lat":43.29963,"lon":5.41322,"is_reserved":false,"is_disabled":false,"rental_uris":{"android":"levelo://app?vid=552e6d41-358a-4502-944b-7d3a2dc8250a","ios":"levelo://app?vid=552e6d41-358a-4502-944b-7d3a2dc8250a"},"vehicle_type_id":"4","last_reported":1728607458,"current_range_meters":39200,"station_id":"ce4bhp12rcd13ifvqh9g","pricing_plan_id":"cebpf4jnsgd1na2vs0mg"},