{"last_updated":1727431783,"ttl":60,"version":"2.2","data":{"bikes":[{"bike_id":"cde81f2e-499d-40e9-8626-81732272d500","system_id":"levelo_inurba_marseille","lat":43.29365,"lon":5.37837,"is_reserved":false,"is_disabled":false,"rental_uris":{"android":"levelo://app?vid=cde81f2e-499d-40e9-8626-81732272d500","ios":"levelo://app?vid=cde81f2e-499d-40e9-8626-81732272d500"},"vehicle_type_id":"4","last_reported":1727431783,"current_range_meters":19200,"station_id":"ce4bgjh2rcd13ifvqbf0","pricing_plan_id":"cebpf4jnsgd1na2vs0mg"},{"bike_id":"afeea0c1-eaa7-4b6a-9716-5bb103f13134","system_id":"levelo_inurba_marseille","lat":43.29298,"lon":5.37458,"is_reserved":false,"is_disabled":false,"rental_uris":{"android":"levelo://app?vid=afeea0c1-eaa7-4b6a-9716-5bb103f13134","ios":"levelo://app?vid=afeea0c1-eaa7-4b6a-9716-5bb103f13134"},"vehicle_type_id":"4","last_reported":1727431783,"current_range_meters":11600,"station_id":"ce4bgi12rcd13ifvqb70","pricing_plan_id":"cebpf4jnsgd1na2vs0mg"},{"bike_id":"b7d4c31a-d244-4726-a6c8-7797d4822f89","system_id":"levelo_inurba_marseille","lat":43.25933,"lon":5.40898,"is_reserved":false,"is_disabled":false,"rental_uris":{"android":"levelo://app?vid=b7d4c31a-d244-4726-a6c8-7797d4822f89","ios":"levelo://app?vid=b7d4c31a-d244-4726-a6c8-7797d4822f89"},"vehicle_type_id":"4","last_reported":1727431783,"current_range_meters":34000,"station_id":"ce4bhm92rcd13ifvqglg","pricing_plan_id":"cebpf4jnsgd1na2vs0mg"},{"bike_id":"2fb200d7-7ff2-47e1-ab61-4c1a5539af3e","system_id":"levelo_inurba_marseille","lat":43.3359,"lon":5.41022,"is_reserved":false,"is_disabled":false,"rental_uris":{"android":"levelo://app?vid=2fb200d7-7ff2-47e1-ab61-4c1a5539af3e","ios":"levelo://app?vid=2fb200d7-7ff2-47e1-ab61-4c1a5539af3e"},"vehicle_type_id":"4","last_reported":1727431783,"current_range_meters":37600,"station_id":"ce4bhqh2rcd13ifvqhmg","pricing_plan_id":"cebpf4jnsgd1na2vs0mg"},{"bike_id":"319a95fd-4cb6-4140-b1df-59a1aab23798","system_id":"levelo_inurba_marseille","lat":43.23151,"lon":5.43711,"is_reserved":false,"is_disabled":false,"rental_uris":{"android":"levelo://app?vid=319a95fd-4cb6-4140-b1df-59a1aab23798","ios":"levelo://app?vid=319a95fd-4cb6-4140-b1df-59a1aab23798"},"vehicle_type_id":"4","last_reported":1727431783,"current_range_meters":14400,"station_id":"ce4bhmp2rcd13ifvqgog","pricing_plan_id":"cebpf4jnsgd1na2vs0mg"},{"bike_id":"81a3f239-41b3-4d93-9c20-5dbb5f89ce79","system_id":"levelo_inurba_marseille","lat":43.30211,"lon":5.3946,"is_reserved":false,"is_disabled":false,"rental_uris":{"android":"levelo://app?vid=81a3f239-41b3-4d93-9c20-5dbb5f89ce79","ios":"levelo://app?vid=81a3f239-41b3-4d93-9c20-5dbb5f89ce79"},"vehicle_type_id":"4","last_reported":1727431783,"current_range_meters":38000,"station_id":"ce4bh0p2rcd13ifvqd70","pricing_plan_id":"cebpf4jnsgd1na2vs0mg"},{"bike_id":"df581604-3b4d-42d5-a292-98b0ad5f74eb","system_id":"levelo_inurba_marseille","lat":43.23178,"lon":5.39988,"is_reserved":false,"is_disabled":false,"rental_uris":{"android":"levelo://app?vid=df581604-3b4d-42d5-a292-98b0ad5f74eb","ios":"levelo://app?vid=df581604-3b4d-42d5-a292-98b0ad5f74eb"},"vehicle_type_id":"4","last_reported":1727431783,"current_range_meters":28800,"station_id":"ce4bhn12rcd13ifvqgqg","pricing_plan_id":"cebpf4jnsgd1na2vs0mg"},{"bike_id":"00482625-2a1f-4d9c-b0de-68a86c151684","system_id":"levelo_inurba_marseille","lat":43.2594,"lon":5.40903,"is_reserved":false,"is_disabled":false,"rental_uris":{"android":"levelo://app?vid=00482625-2a1f-4d9c-b0de-68a86c151684","ios":"levelo://app?vid=00482625-2a1f-4d9c-b0de-68a86c151684"},"vehicle_type_id":"4","last_reported":1727431783,"current_range_meters":27200,"station_id":"ce4bhm92rcd13ifvqglg","pricing_plan_id":"cebpf4jnsgd1na2vs0mg"},{"bike_id":"f6726164-b9ff-4663-a6df-8fe2854e4c88","system_id":"levelo_inurba_marseille","lat":43.29037,"lon":5.4,"is_reserved":false,"is_disabled":false,"rental_uris":{"android":"levelo://app?vid=f6726164-b9ff-4663-a6df-8fe2854e4c88","ios":"levelo://app?vid=f6726164-b9ff-4663-a6df-8fe2854e4c88"},"vehicle_type_id":"4","last_reported":1727431783,"current_range_meters":32400,"station_id":"ce4bh392rcd13ifvqdm0","pricing_plan_id":"cebpf4jnsgd1na2vs0mg"},{"bike_id":"f75a0d0a-455b-45ef-a4ce-1e06a8ffac1d","system_id":"levelo_inurba_marseille","lat":43.28151,"lon":5.42638,"is_reserved":false,"is_disabled":false,"rental_uris":{"android":"levelo://app?vid=f75a0d0a-455b-45ef-a4ce-1e06a8ffac1d","ios":"levelo://app?vid=f75a0d0a-455b-45ef-a4ce-1e06a8ffac1d"},"vehicle_type_id":"4","last_reported":1727431783,"current_range_meters":15200,"station_id":"ce4bhnh2rcd13ifvqgug","pricing_plan_id":"cebpf4jnsgd1na2vs0mg"},{"bike_id":"13b5e1b5-2053-4e8b-94a8-86b863d86990","system_id":"levelo_inurba_marseille","lat":43.306,"lon":5.37228,"is_reserved":false,"is_disabled":false,"rental_uris":{"android":"levelo://app?vid=13b5e1b5-2053-4e8b-94a8-86b863d86990","ios":"levelo://app?vid=13b5e1b5-2053-4e8b-94a8-86b863d86990"},"vehicle_type_id":"4","last_reported":1727431783,"current_range_meters":35200,"station_id":"ce4bgqh2rcd13ifvqc4g","pricing_plan_id":"cebpf4jnsgd1na2vs0mg"},{"bike_id":"0db56f9a-d3e3-47b0-806f-3f2742cc7cdc","system_id":"levelo_inurba_marseille","lat":43.30548,"lon":5.36547,"is_reserved":false,"is_disabled":false,"rental_uris":{"android":"levelo://app?vid=0db56f9a-d3e3-47b0-806f-3f2742cc7cdc","ios":"levelo://app?vid=0db56f9a-d3e3-47b0-806f-3f2742cc7cdc"},"vehicle_type_id":"4","last_reported":1727431783,"current_range_meters":12400,"station_id":"ce4bgs12rcd13ifvqcag","pricing_plan_id":"cebpf4jnsgd1na2vs0mg"},{"bike_id":"088562bc-64d4-46a5-8f3e-99abf39bc338","system_id":"levelo_inurba_marseille","lat":43.30547,"lon":5.36546,"is_reserved":false,"is_disabled":false,"rental_uris":{"android":"levelo://app?vid=088562bc-64d4-46a5-8f3e-99abf39bc338","ios":"levelo://app?vid=088562bc-64d4-46a5-8f3e-99abf39bc338"},"vehicle_type_id":"4","last_reported":1727431783,"current_range_meters":39200,"station_id":"ce4bgs12rcd13ifvqcag","pricing_plan_id":"cebpf4jnsgd1na2vs0mg"},{"bike_id":"55f4f50b-d6dd-4e12-86b3-1486da4af7d9","system_id":"levelo_inurba_marseille","lat":43.22929,"lon":5.35377,"is_reserved":false,"is_disabled":false,"rental_uris":{"android":"levelo://app?vid=55f4f50b-d6dd-4e12-86b3-1486da4af7d9","ios":"levelo://app?vid=55f4f50b-d6dd-4e12-86b3-1486da4af7d9"},"vehicle_type_id":"4","last_reported":1727431783,"current_range_meters":36400,"station_id":"cpo3532slgdg3j2ikp40","pricing_plan_id":"cebpf4jnsgd1na2vs0mg"},{"bike_id":"f03813ae-b67f-45be-9bb1-846ca1327581","system_id":"levelo_inurba_marseille","lat":43.29524,"lon":5.37514,"is_reserved":false,"is_disabled":false,"rental_uris":{"android":"levelo://app?vid=f03813ae-b67f-45be-9bb1-846ca1327581","ios":"levelo://app?vid=f03813ae-b67f-45be-9bb1-846ca1327581"},"vehicle_type_id":"4","last_reported":1727431783,"current_range_meters":6000,"station_id":"ce4bgkp2rcd13ifvqbmg","pricing_plan_id":"cebpf4jnsgd1na2vs0mg"},{"bike_id":"51fcdc20-0db3-45d7-b926-579a2c00f4f8","system_id":"levelo_inurba_marseille","lat":43.29041,"lon":5.39951,"is_reserved":false,"is_disabled":false,"rental_uris":{"android":"levelo://app?vid=51fcdc20-0db3-45d7-b926-579a2c00f4f8","ios":"levelo://app?vid=51fcdc20-0db3-45d7-b926-579a2c00f4f8"},"vehicle_type_id":"4","last_reported":1727431783,"current_range_meters":31200,"station_id":"ce4bh392rcd13ifvqdm0","pricing_plan_id":"cebpf4jnsgd1na2vs0mg"},{"bike_id":"bdc14df0-220c-4000-9152-3b0d644812ae","system_id":"levelo_inurba_marseille","lat":43.302612,"lon":5.368932,"is_reserved":false,"is_disabled":false,"rental_uris":{"android":"levelo://app?vid=bdc14df0-220c-4000-9152-3b0d644812ae","ios":"levelo://app?vid=bdc14df0-220c-4000-9152-3b0d644812ae"},"vehicle_type_id":"4","last_reported":1727431783,"current_range_meters":12000,"station_id":"ce4bh292rcd13ifvqdg0","pricing_plan_id":"cebpf4jnsgd1na2vs0mg"},{"bike_id":"1cd054ce-a4b1-44d8-afb0-3c23668c603a","system_id":"levelo_inurba_marseille","lat":43.30151,"lon":5.38107,"is_reserved":false,"is_disabled":false,"rental_uris":{"android":"levelo://app?vid=1cd054ce-a4b1-44d8-afb0-3c23668c603a","ios":"levelo://app?vid=1cd054ce-a4b1-44d8-afb0-3c23668c603a"},"vehicle_type_id":"4","last_reported":1727431783,"current_range_meters":19600,"station_id":"ce4bgjp2rcd13ifvqbh0","pricing_plan_id":"cebpf4jnsgd1na2vs0mg"},{"bike_id":"cd4c3ea5-3df9-4ccb-a55d-0c3b17cecce3","system_id":"levelo_inurba_marseille","lat":43.25872,"lon":5.3882,"is_reserved":false,"is_disabled":false,"rental_uris":{"android":"levelo://app?vid=cd4c3ea5-3df9-4ccb-a55d-0c3b17cecce3","ios":"levelo://app?vid=cd4c3ea5-3df9-4ccb-a55d-0c3b17cecce3"},"vehicle_type_id":"4","last_reported":1727431783,"current_range_meters":19200,"station_id":"","pricing_plan_id":"cebpf4jnsgd1na2vs0mg"},{"bike_id":"90f0504e-d0fd-4284-9409-ad37ad1a8217","system_id":"levelo_inurba_marseille","lat":43.28479,"lon":5.3842,"is_reserved":false,"is_disabled":false,"rental_uris":{"android":"levelo://app?vid=90f0504e-d0fd-4284-9409-ad37ad1a8217","ios":"levelo://app?vid=90f0504e-d0fd-4284-9409-ad37ad1a8217"},"vehicle_type_id":"4","last_reported":1727431783,"current_range_meters":30400,"station_id":"ce4bh512rcd13ifvqe3g","pricing_plan_id":"cebpf4jnsgd1na2vs0mg"},{"bike_id":"81b9627d-0987-473a-8dbf-4a459584cf1e","system_id":"levelo_inurba_marseille","lat":43.29225,"lon":5.36062,"is_reserved":false,"is_disabled":false,"rental_uris":{"android":"levelo://app?vid=81b9627d-0987-473a-8dbf-4a459584cf1e","ios":"levelo://app?vid=81b9627d-0987-473a-8dbf-4a459584cf1e"},"vehicle_type_id":"4","last_reported":1727431783,"current_range_meters":20400,"station_id":"ce4bhbh2rcd13ifvqeqg","pricing_plan_id":"cebpf4jnsgd1na2vs0mg"},{"bike_id":"e71b2228-487e-43d3-aaad-9eadfa97ebeb","system_id":"levelo_inurba_marseille","lat":43.30164,"lon":5.38081,"is_reserved":false,"is_disabled":false,"rental_uris":{"android":"levelo://app?vid=e71b2228-487e-43d3-aaad-9eadfa97ebeb","ios":"levelo://app?vid=e71b2228-487e-43d3-aaad-9eadfa97ebeb"},"vehicle_type_id":"4","last_reported":1727431783,"current_range_meters":38800,"station_id":"ce4bgjp2rcd13ifvqbh0","pricing_plan_id":"cebpf4jnsgd1na2vs0mg"},{"bike_id":"26c55631-32b9-4545-a20d-014e8e9563d2","system_id":"levelo_inurba_marseille","lat":43.27175,"lon":5.40997,"is_reserved":false,"is_disabled":false,"rental_uris":{"android":"levelo://app?vid=26c55631-32b9-4545-a20d-014e8e9563d2","ios":"levelo://app?vid=26c55631-32b9-4545-a20d-014e8e9563d2"},"vehicle_type_id":"4","last_reported":1727431783,"current_range_meters":36800,"station_id":"ce4bhl12rcd13ifvqgf0","pricing_plan_id":"cebpf4jnsgd1na2vs0mg"},{"bike_id":"26b920e3-f692-48e9-b3b4-e7ffd2ce51b1","system_id":"levelo_inurba_marseille","lat":43.31755,"lon":5.39025,"is_reserved":false,"is_disabled":false,"rental_uris":{"android":"levelo://app?vid=26b920e3-f692-48e9-b3b4-e7ffd2ce51b1","ios":"levelo://app?vid=26b920e3-f692-48e9-b3b4-e7ffd2ce51b1"},"vehicle_type_id":"4","last_reported":1727431783,"current_range_meters":33200,"station_id":"ce4bhqp2rcd13ifvqhng","pricing_plan_id":"cebpf4jnsgd1na2vs0mg"},{"bike_id":"d6ee84ac-e8ec-448e-96cc-462a6c71a66c","system_id":"levelo_inurba_marseille","lat":43.29027,"lon":5.38636,"is_reserved":false,"is_disabled":false,"rental_uris":{"android":"levelo://app?vid=d6ee84ac-e8ec-448e-96cc-462a6c71a66c","ios":"levelo://app?vid=d6ee84ac-e8ec-448e-96cc-462a6c71a66c"},"vehicle_type_id":"4","last_reported":1727431783,"current_range_meters":33200,"station_id":"ce4bh4p2rcd13ifvqe0g","pricing_plan_id":"cebpf4jnsgd1na2vs0mg"},{"bike_id":"69abde98-4227-4071-99c0-b60926b0a40b","system_id":"levelo_inurba_marseille","lat":43.33615,"lon":5.41032,"is_reserved":false,"is_disabled":false,"rental_uris":{"android":"levelo://app?vid=69abde98-4227-4071-99c0-b60926b0a40b","ios":"levelo://app?vid=69abde98-4227-4071-99c0-b60926b0a40b"},"vehicle_type_id":"4","last_reported":1727431783,"current_range_meters":25600,"station_id":"ce4bhqh2rcd13ifvqhmg","pricing_plan_id":"cebpf4jnsgd1na2vs0mg"},{"bike_id":"13d1fa7f-3172-46d6-b8a5-774106f12ce3","system_id":"levelo_inurba_marseille","lat":43.27487,"lon":5.42459,"is_reserved":false,"is_disabled":false,"rental_uris":{"android":"levelo://app?vid=13d1fa7f-3172-46d6-b8a5-774106f12ce3","ios":"levelo://app?vid=13d1fa7f-3172-46d6-b8a5-774106f12ce3"},"vehicle_type_id":"4","last_reported":1727431783,"current_range_meters":29600,"station_id":"ce4bhn92rcd13ifvqgrg","pricing_plan_id":"cebpf4jnsgd1na2vs0mg"},{"bike_id":"b6daf4df-7c90-4c5e-b397-06a87d15013f","system_id":"levelo_inurba_marseille","lat":43.33752,"lon":5.37361,"is_reserved":false,"is_disabled":false,"rental_uris":{"android":"levelo://app?vid=b6daf4df-7c90-4c5e-b397-06a87d15013f","ios":"levelo://app?vid=b6daf4df-7c90-4c5e-b397-06a87d15013f"},"vehicle_type_id":"4","last_reported":1727431783,"current_range_meters":27600,"station_id":"","pricing_plan_id":"cebpf4jnsgd1na2vs0mg"},{"bike_id":"c6a8f01e-009f-4613-948c-2dd4d8bd2d71","system_id":"levelo_inurba_marseille","lat":43.30145,"lon":5.38088,"is_reserved":false,"is_disabled":false,"rental_uris":{"android":"levelo://app?vid=c6a8f01e-009f-4613-948c-2dd4d8bd2d71","ios":"levelo://app?vid=c6a8f01e-009f-4613-948c-2dd4d8bd2d71"},"vehicle_type_id":"4","last_reported":1727431783,"current_range_meters":36800,"station_id":"ce4bgjp2rcd13ifvqbh0","pricing_plan_id":"cebpf4jnsgd1na2vs0mg"},{"bike_id":"01958bcc-1114-44e7-a1de-ed0825d11990","system_id":"levelo_inurba_marseille","lat":43.3361,"lon":5.41023,"is_reserved":false,"is_disabled":false,"rental_uris":{"android":"levelo://app?vid=01958bcc-1114-44e7-a1de-ed0825d11990","ios":"levelo://app?vid=01958bcc-1114-44e7-a1de-ed0825d11990"},"vehicle_type_id":"4","last_reported":1727431783,"current_range_meters":40000,"station_id":"ce4bhqh2rcd13ifvqhmg","pricing_plan_id":"cebpf4jnsgd1na2vs0mg"},{"bike_id":"e0e7602b-22a2-4ee3-91f4-3e8877ed6f8e","system_id":"levelo_inurba_marseille","lat":43.24802,"lon":5.37457,"is_reserved":false,"is_disabled":false,"rental_uris":{"android":"levelo://app?vid=e0e7602b-22a2-4ee3-91f4-3e8877ed6f8e","ios":"levelo://app?vid=e0e7602b-22a2-4ee3-91f4-3e8877ed6f8e"},"vehicle_type_id":"4","last_reported":1727431783,"current_range_meters":16800,"station_id":"ce4bhgh2rcd13ifvqfb0","pricing_plan_id":"cebpf4jnsgd1na2vs0mg"},{"bike_id":"dbfe1cc0-50e2-425d-8c3a-45db81a1c072","system_id":"levelo_inurba_marseille","lat":43.25824,"lon":5.39441,"is_reserved":false,"is_disabled":false,"rental_uris":{"android":"levelo://app?vid=dbfe1cc0-50e2-425d-8c3a-45db81a1c072","ios":"levelo://app?vid=dbfe1cc0-50e2-425d-8c3a-45db81a1c072"},"vehicle_type_id":"4","last_reported":1727431783,"current_range_meters":14800,"station_id":"ce4bhip2rcd13ifvqft0","pricing_plan_id":"cebpf4jnsgd1na2vs0mg"},{"bike_id":"57bc1e84-e83e-4198-85b5-3e7f9c3f0b0b","system_id":"levelo_inurba_marseille","lat":43.24165,"lon":5.36393,"is_reserved":false,"is_disabled":false,"rental_uris":{"android":"levelo://app?vid=57bc1e84-e83e-4198-85b5-3e7f9c3f0b0b","ios":"levelo://app?vid=57bc1e84-e83e-4198-85b5-3e7f9c3f0b0b"},"vehicle_type_id":"4","last_reported":1727431783,"current_range_meters":23200,"station_id":"cpo36qri1sfpv3e86is0","pricing_plan_id":"cebpf4jnsgd1na2vs0mg"},{"bike_id":"7a8458d5-44ac-4f2e-abef-3f01eb31f7ca","system_id":"levelo_inurba_marseille","lat":43.337444,"lon":5.374475,"is_reserved":false,"is_disabled":false,"rental_uris":{"android":"levelo://app?vid=7a8458d5-44ac-4f2e-abef-3f01eb31f7ca","ios":"levelo://app?vid=7a8458d5-44ac-4f2e-abef-3f01eb31f7ca"},"vehicle_type_id":"4","last_reported":1727431783,"current_range_meters":17200,"station_id":"","pricing_plan_id":"cebpf4jnsgd1na2vs0mg"},{"bike_id":"3898c4ba-b3c8-49c8-b483-c130a192cfaf","system_id":"levelo_inurba_marseille","lat":43.27178,"lon":5.40985,"is_reserved":false,"is_disabled":false,"rental_uris":{"android":"levelo://app?vid=3898c4ba-b3c8-49c8-b483-c130a192cfaf","ios":"levelo://app?vid=3898c4ba-b3c8-49c8-b483-c130a192cfaf"},"vehicle_type_id":"4","last_reported":1727431783,"current_range_meters":38400,"station_id":"ce4bhl12rcd13ifvqgf0","pricing_plan_id":"cebpf4jnsgd1na2vs0mg"},{"bike_id":"245322ad-98ce-4a03-920e-f8861ea4255a","system_id":"levelo_inurba_marseille","lat":43.2306,"lon":5.35495,"is_reserved":false,"is_disabled":false,"rental_uris":{"android":"levelo://app?vid=245322ad-98ce-4a03-920e-f8861ea4255a","ios":"levelo://app?vid=245322ad-98ce-4a03-920e-f8861ea4255a"},"vehicle_type_id":"4","last_reported":1727431783,"current_range_meters":37600,"station_id":"cpo3342slgdg3j2ifvpg","pricing_plan_id":"cebpf4jnsgd1na2vs0mg"},{"bike_id":"310eadcf-ac01-4db2-ae6f-9e97ddc1d3dd","system_id":"levelo_inurba_marseille","lat":43.284,"lon":5.375,"is_reserved":false,"is_disabled":false,"rental_uris":{"android":"levelo://app?vid=310eadcf-ac01-4db2-ae6f-9e97ddc1d3dd","ios":"levelo://app?vid=310eadcf-ac01-4db2-ae6f-9e97ddc1d3dd"},"vehicle_type_id":"4","last_reported":1727431783,"current_range_meters":28400,"station_id":"ce4bh192rcd13ifvqdd0","pricing_plan_id":"cebpf4jnsgd1na2vs0mg"},{"bike_id":"b7b92fbd-cffd-4a1f-9948-3e7f9639c013","system_id":"levelo_inurba_marseille","lat":43.30308,"lon":5.36911,"is_reserved":false,"is_disabled":false,"rental_uris":{"android":"levelo://app?vid=b7b92fbd-cffd-4a1f-9948-3e7f9639c013","ios":"levelo://app?vid=b7b92fbd-cffd-4a1f-9948-3e7f9639c013"},"vehicle_type_id":"4","last_reported":1727431783,"current_range_meters":28800,"station_id":"ce4bgqh2rcd13ifvqc5g","pricing_plan_id":"cebpf4jnsgd1na2vs0mg"},{"bike_id":"b478bdab-ddff-4645-a824-4bd76b643799","system_id":"levelo_inurba_marseille","lat":43.31993,"lon":5.38143,"is_reserved":false,"is_disabled":false,"rental_uris":{"android":"levelo://app?vid=b478bdab-ddff-4645-a824-4bd76b643799","ios":"levelo://app?vid=b478bdab-ddff-4645-a824-4bd76b643799"},"vehicle_type_id":"4","last_reported":1727431783,"current_range_meters":25600,"station_id":"ce4bhr12rcd13ifvqhpg","pricing_plan_id":"cebpf4jnsgd1na2vs0mg"},{"bike_id":"52a26326-af54-4e5c-9957-d1deb087cb46","system_id":"levelo_inurba_marseille","lat":43.24076,"lon":5.37764,"is_reserved":false,"is_disabled":false,"rental_uris":{"android":"levelo://app?vid=52a26326-af54-4e5c-9957-d1deb087cb46","ios":"levelo://app?vid=52a26326-af54-4e5c-9957-d1deb087cb46"},"vehicle_type_id":"4","last_reported":1727431783,"current_range_meters":17600,"station_id":"ce4bhnp2rcd13ifvqgvg","pricing_plan_id":"cebpf4jnsgd1na2vs0mg"},{"bike_id":"b053fadd-0221-4ed0-9fa3-be2f92edda38","system_id":"levelo_inurba_marseille","lat":43.298734,"lon":5.397291,"is_reserved":false,"is_disabled":false,"rental_uris":{"android":"levelo://app?vid=b053fadd-0221-4ed0-9fa3-be2f92edda38","ios":"levelo://app?vid=b053fadd-0221-4ed0-9fa3-be2f92edda38"},"vehicle_type_id":"4","last_reported":1727431783,"current_range_meters":32000,"station_id":"ce4bh0h2rcd13ifvqd50","pricing_plan_id":"cebpf4jnsgd1na2vs0mg"},{"bike_id":"ff5e267b-990e-4244-8248-d5369229171c","system_id":"levelo_inurba_marseille","lat":43.29229,"lon":5.36075,"is_reserved":false,"is_disabled":false,"rental_uris":{"android":"levelo://app?vid=ff5e267b-990e-4244-8248-d5369229171c","ios":"levelo://app?vid=ff5e267b-990e-4244-8248-d5369229171c"},"vehicle_type_id":"4","last_reported":1727431783,"current_range_meters":24400,"station_id":"ce4bhbh2rcd13ifvqeqg","pricing_plan_id":"cebpf4jnsgd1na2vs0mg"},{"bike_id":"b22c7394-7e14-4652-950d-6a49cc86d452","system_id":"levelo_inurba_marseille","lat":43.314575,"lon":5.372893,"is_reserved":false,"is_disabled":false,"rental_uris":{"android":"levelo://app?vid=b22c7394-7e14-4652-950d-6a49cc86d452","ios":"levelo://app?vid=b22c7394-7e14-4652-950d-6a49cc86d452"},"vehicle_type_id":"4","last_reported":1727431783,"current_range_meters":36000,"station_id":"ce4bgt12rcd13ifvqcd0","pricing_plan_id":"cebpf4jnsgd1na2vs0mg"},{"bike_id":"d69c4e96-06b8-47c0-b384-736b98acbf55","system_id":"levelo_inurba_marseille","lat":43.26202,"lon":5.37933,"is_reserved":false,"is_disabled":false,"rental_uris":{"android":"levelo://app?vid=d69c4e96-06b8-47c0-b384-736b98acbf55","ios":"levelo://app?vid=d69c4e96-06b8-47c0-b384-736b98acbf55"},"vehicle_type_id":"4","last_reported":1727431783,"current_range_meters":16400,"station_id":"ce4bhjp2rcd13ifvqg90","pricing_plan_id":"cebpf4jnsgd1na2vs0mg"},{"bike_id":"7d022498-65f9-4fd1-90ba-7b83d725622d","system_id":"levelo_inurba_marseille","lat":43.27484,"lon":5.42447,"is_reserved":false,"is_disabled":false,"rental_uris":{"android":"levelo://app?vid=7d022498-65f9-4fd1-90ba-7b83d725622d","ios":"levelo://app?vid=7d022498-65f9-4fd1-90ba-7b83d725622d"},"vehicle_type_id":"4","last_reported":1727431783,"current_range_meters":39200,"station_id":"ce4bhn92rcd13ifvqgrg","pricing_plan_id":"cebpf4jnsgd1na2vs0mg"},{"bike_id":"1689c4e5-d8f0-49de-bc61-600034cdf370","system_id":"levelo_inurba_marseille","lat":43.27807,"lon":5.40714,"is_reserved":false,"is_disabled":false,"rental_uris":{"android":"levelo://app?vid=1689c4e5-d8f0-49de-bc61-600034cdf370","ios":"levelo://app?vid=1689c4e5-d8f0-49de-bc61-600034cdf370"},"vehicle_type_id":"4","last_reported":1727431783,"current_range_meters":20000,"station_id":"ce4bhnh2rcd13ifvqgtg","pricing_plan_id":"cebpf4jnsgd1na2vs0mg"},{"bike_id":"ef333548-5b42-4805-a9c0-dab49a7bfdc3","system_id":"levelo_inurba_marseille","lat":43.32477,"lon":5.36558,"is_reserved":false,"is_disabled":false,"rental_uris":{"android":"levelo://app?vid=ef333548-5b42-4805-a9c0-dab49a7bfdc3","ios":"levelo://app?vid=ef333548-5b42-4805-a9c0-dab49a7bfdc3"},"vehicle_type_id":"4","last_reported":1727431783,"current_range_meters":40000,"station_id":"ce4bhs12rcd13ifvqhvg","pricing_plan_id":"cebpf4jnsgd1na2vs0mg"},{"bike_id":"ec0f655b-3cc3-4d33-b677-93bbfdb0705a","system_id":"levelo_inurba_marseille","lat":43.31368,"lon":5.38496,"is_reserved":false,"is_disabled":false,"rental_uris":{"android":"levelo://app?vid=ec0f655b-3cc3-4d33-b677-93bbfdb0705a","ios":"levelo://app?vid=ec0f655b-3cc3-4d33-b677-93bbfdb0705a"},"vehicle_type_id":"4","last_reported":1727431783,"current_range_meters":10800,"station_id":"ce4bgt92rcd13ifvqcf0","pricing_plan_id":"cebpf4jnsgd1na2vs0mg"},{"bike_id":"740c8093-7907-4694-893a-7128cab2c2c5","system_id":"levelo_inurba_marseille","lat":43.30544,"lon":5.36709,"is_reserved":false,"is_disabled":false,"rental_uris":{"android":"levelo://app?vid=740c8093-7907-4694-893a-7128cab2c2c5","ios":"levelo://app?vid=740c8093-7907-4694-893a-7128cab2c2c5"},"vehicle_type_id":"4","last_reported":1727431783,"current_range_meters":17200,"station_id":"ce4bgrp2rcd13ifvqc9g","pricing_plan_id":"cebpf4jnsgd1na2vs0mg"},{"bike_id":"0968ebbe-bb82-4446-8d24-0ab8271c7a4b","system_id":"levelo_inurba_marseille","lat":43.23147,"lon":5.43707,"is_reserved":false,"is_disabled":false,"rental_uris":{"android":"levelo://app?vid=0968ebbe-bb82-4446-8d24-0ab8271c7a4b","ios":"levelo://app?vid=0968ebbe-bb82-4446-8d24-0ab8271c7a4b"},"vehicle_type_id":"4","last_reported":1727431783,"current_range_meters":24400,"station_id":"ce4bhmp2rcd13ifvqgog","pricing_plan_id":"cebpf4jnsgd1na2vs0mg"},{"bike_id":"701ef5b0-588a-437b-99c6-a00baddfc677","system_id":"levelo_inurba_marseille","lat":43.3254,"lon":5.41436,"is_reserved":false,"is_disabled":false,"rental_uris":{"android":"levelo://app?vid=701ef5b0-588a-437b-99c6-a00baddfc677","ios":"levelo://app?vid=701ef5b0-588a-437b-99c6-a00baddfc677"},"vehicle_type_id":"4","last_reported":1727431783,"current_range_meters":39200,"station_id":"ce4bhq12rcd13ifvqhhg","pricing_plan_id":"cebpf4jnsgd1na2vs0mg"},{"bike_id":"aadb9b46-4125-42b2-8420-e8327b4def86","system_id":"levelo_inurba_marseille","lat":43.27486,"lon":5.42465,"is_reserved":false,"is_disabled":false,"rental_uris":{"android":"levelo://app?vid=aadb9b46-4125-42b2-8420-e8327b4def86","ios":"levelo://app?vid=aadb9b46-4125-42b2-8420-e8327b4def86"},"vehicle_type_id":"4","last_reported":1727431783,"current_range_meters":12800,"station_id":"ce4bhn92rcd13ifvqgrg","pricing_plan_id":"cebpf4jnsgd1na2vs0mg"},{"bike_id":"5433dfdf-0178-4519-b2b1-3dc587cb0bb3","system_id":"levelo_inurba_marseille","lat":43.2798,"lon":5.38741,"is_reserved":false,"is_disabled":false,"rental_uris":{"android":"levelo://app?vid=5433dfdf-0178-4519-b2b1-3dc587cb0bb3","ios":"levelo://app?vid=5433dfdf-0178-4519-b2b1-3dc587cb0bb3"},"vehicle_type_id":"4","last_reported":1727431783,"current_range_meters":26000,"station_id":"ce4bhg12rcd13ifvqf80","pricing_plan_id":"cebpf4jnsgd1na2vs0mg"},{"bike_id":"591039d5-67c5-43df-ae6f-f1c141c3a597","system_id":"levelo_inurba_marseille","lat":43.25938,"lon":5.40898,"is_reserved":false,"is_disabled":false,"rental_uris":{"android":"levelo://app?vid=591039d5-67c5-43df-ae6f-f1c141c3a597","ios":"levelo://app?vid=591039d5-67c5-43df-ae6f-f1c141c3a597"},"vehicle_type_id":"4","last_reported":1727431783,"current_range_meters":22800,"station_id":"ce4bhm92rcd13ifvqglg","pricing_plan_id":"cebpf4jnsgd1na2vs0mg"},{"bike_id":"46c7f826-6870-4085-9903-dd105da81d2b","system_id":"levelo_inurba_marseille","lat":43.24547,"lon":5.39529,"is_reserved":false,"is_disabled":false,"rental_uris":{"android":"levelo://app?vid=46c7f826-6870-4085-9903-dd105da81d2b","ios":"levelo://app?vid=46c7f826-6870-4085-9903-dd105da81d2b"},"vehicle_type_id":"4","last_reported":1727431783,"current_range_meters":23200,"station_id":"ce4bhlp2rcd13ifvqgjg","pricing_plan_id":"cebpf4jnsgd1na2vs0mg"},{"bike_id":"0315447b-7d21-4718-a157-4a50c8ad7cf1","system_id":"levelo_inurba_marseille","lat":43.23156,"lon":5.43699,"is_reserved":false,"is_disabled":false,"rental_uris":{"android":"levelo://app?vid=0315447b-7d21-4718-a157-4a50c8ad7cf1","ios":"levelo://app?vid=0315447b-7d21-4718-a157-4a50c8ad7cf1"},"vehicle_type_id":"4","last_reported":1727431783,"current_range_meters":16000,"station_id":"ce4bhmp2rcd13ifvqgog","pricing_plan_id":"cebpf4jnsgd1na2vs0mg"},{"bike_id":"bba7de10-169e-4f05-8c77-3ae54a142318","system_id":"levelo_inurba_marseille","lat":43.30153,"lon":5.38104,"is_reserved":false,"is_disabled":false,"rental_uris":{"android":"levelo://app?vid=bba7de10-169e-4f05-8c77-3ae54a142318","ios":"levelo://app?vid=bba7de10-169e-4f05-8c77-3ae54a142318"},"vehicle_type_id":"4","last_reported":1727431783,"current_range_meters":29600,"station_id":"ce4bgjp2rcd13ifvqbh0","pricing_plan_id":"cebpf4jnsgd1na2vs0mg"},{"bike_id":"45b9313f-b8e3-4910-b100-48d0c3884870","system_id":"levelo_inurba_marseille","lat":43.30539,"lon":5.38428,"is_reserved":false,"is_disabled":false,"rental_uris":{"android":"levelo://app?vid=45b9313f-b8e3-4910-b100-48d0c3884870","ios":"levelo://app?vid=45b9313f-b8e3-4910-b100-48d0c3884870"},"vehicle_type_id":"4","last_reported":1727431783,"current_range_meters":34000,"station_id":"ce4bgg92rcd13ifvqb30","pricing_plan_id":"cebpf4jnsgd1na2vs0mg"},{"bike_id":"61176cf3-9a8f-4cd2-9048-ae1d9683f6f8","system_id":"levelo_inurba_marseille","lat":43.2407,"lon":5.37754,"is_reserved":false,"is_disabled":false,"rental_uris":{"android":"levelo://app?vid=61176cf3-9a8f-4cd2-9048-ae1d9683f6f8","ios":"levelo://app?vid=61176cf3-9a8f-4cd2-9048-ae1d9683f6f8"},"vehicle_type_id":"4","last_reported":1727431783,"current_range_meters":33600,"station_id":"ce4bhnp2rcd13ifvqgvg","pricing_plan_id":"cebpf4jnsgd1na2vs0mg"},{"bike_id":"c6853b38-4f63-4c97-9007-9b8f2cbf5293","system_id":"levelo_inurba_marseille","lat":43.23152,"lon":5.43723,"is_reserved":false,"is_disabled":false,"rental_uris":{"android":"levelo://app?vid=c6853b38-4f63-4c97-9007-9b8f2cbf5293","ios":"levelo://app?vid=c6853b38-4f63-4c97-9007-9b8f2cbf5293"},"vehicle_type_id":"4","last_reported":1727431783,"current_range_meters":12400,"station_id":"ce4bhmp2rcd13ifvqgog","pricing_plan_id":"cebpf4jnsgd1na2vs0mg"},{"bike_id":"7a90e818-af27-47dd-8e0e-c3655fb3be53","system_id":"levelo_inurba_marseille","lat":43.30147,"lon":5.38085,"is_reserved":false,"is_disabled":false,"rental_uris":{"android":"levelo://app?vid=7a90e818-af27-47dd-8e0e-c3655fb3be53","ios":"levelo://app?vid=7a90e818-af27-47dd-8e0e-c3655fb3be53"},"vehicle_type_id":"4","last_reported":1727431783,"current_range_meters":30800,"station_id":"ce4bgjp2rcd13ifvqbh0","pricing_plan_id":"cebpf4jnsgd1na2vs0mg"},{"bike_id":"b704a124-9ce0-4303-b3c7-96ad008130a9","system_id":"levelo_inurba_marseille","lat":43.33614,"lon":5.41031,"is_reserved":false,"is_disabled":false,"rental_uris":{"android":"levelo://app?vid=b704a124-9ce0-4303-b3c7-96ad008130a9","ios":"levelo://app?vid=b704a124-9ce0-4303-b3c7-96ad008130a9"},"vehicle_type_id":"4","last_reported":1727431783,"current_range_meters":36800,"station_id":"ce4bhqh2rcd13ifvqhmg","pricing_plan_id":"cebpf4jnsgd1na2vs0mg"},{"bike_id":"102483dd-b4e9-43b9-85c9-f8208b777957","system_id":"levelo_inurba_marseille","lat":43.32483,"lon":5.36563,"is_reserved":false,"is_disabled":false,"rental_uris":{"android":"levelo://app?vid=102483dd-b4e9-43b9-85c9-f8208b777957","ios":"levelo://app?vid=102483dd-b4e9-43b9-85c9-f8208b777957"},"vehicle_type_id":"4","last_reported":1727431783,"current_range_meters":27200,"station_id":"ce4bhs12rcd13ifvqhvg","pricing_plan_id":"cebpf4jnsgd1na2vs0mg"},{"bike_id":"57915f32-d649-40b7-b4d1-2dbe157d9f0c","system_id":"levelo_inurba_marseille","lat":43.30535,"lon":5.36553,"is_reserved":false,"is_disabled":false,"rental_uris":{"android":"levelo://app?vid=57915f32-d649-40b7-b4d1-2dbe157d9f0c","ios":"levelo://app?vid=57915f32-d649-40b7-b4d1-2dbe157d9f0c"},"vehicle_type_id":"4","last_reported":1727431783,"current_range_meters":40000,"station_id":"ce4bgs12rcd13ifvqcag","pricing_plan_id":"cebpf4jnsgd1na2vs0mg"},{"bike_id":"d5e906e1-2c02-4cbd-813f-e28a93f83005","system_id":"levelo_inurba_marseille","lat":43.32541,"lon":5.41444,"is_reserved":false,"is_disabled":false,"rental_uris":{"android":"levelo://app?vid=d5e906e1-2c02-4cbd-813f-e28a93f83005","ios":"levelo://app?vid=d5e906e1-2c02-4cbd-813f-e28a93f83005"},"vehicle_type_id":"4","last_reported":1727431783,"current_range_meters":39200,"station_id":"ce4bhq12rcd13ifvqhhg","pricing_plan_id":"cebpf4jnsgd1na2vs0mg"},{"bike_id":"db925dc4-c970-4c1d-9ddf-87c17bd52d69","system_id":"levelo_inurba_marseille","lat":43.27485,"lon":5.42459,"is_reserved":false,"is_disabled":false,"rental_uris":{"android":"levelo://app?vid=db925dc4-c970-4c1d-9ddf-87c17bd52d69","ios":"levelo://app?vid=db925dc4-c970-4c1d-9ddf-87c17bd52d69"},"vehicle_type_id":"4","last_reported":1727431783,"current_range_meters":26000,"station_id":"ce4bhn92rcd13ifvqgrg","pricing_plan_id":"cebpf4jnsgd1na2vs0mg"},{"bike_id":"4947d5fa-46d2-4a04-8415-63c57d267379","system_id":"levelo_inurba_marseille","lat":43.31052,"lon":5.40079,"is_reserved":false,"is_disabled":false,"rental_uris":{"android":"levelo://app?vid=4947d5fa-46d2-4a04-8415-63c57d267379","ios":"levelo://app?vid=4947d5fa-46d2-4a04-8415-63c57d267379"},"vehicle_type_id":"4","last_reported":1727431783,"current_range_meters":12800,"station_id":"","pricing_plan_id":"cebpf4jnsgd1na2vs0mg"},{"bike_id":"62f54998-47d2-4d2b-b295-87f887dc19a3","system_id":"levelo_inurba_marseille","lat":43.29928,"lon":5.36548,"is_reserved":false,"is_disabled":false,"rental_uris":{"android":"levelo://app?vid=62f54998-47d2-4d2b-b295-87f887dc19a3","ios":"levelo://app?vid=62f54998-47d2-4d2b-b295-87f887dc19a3"},"vehicle_type_id":"4","last_reported":1727431783,"current_range_meters":38000,"station_id":"ce4bgm92rcd13ifvqbr0","pricing_plan_id":"cebpf4jnsgd1na2vs0mg"},{"bike_id":"a6cbb9ab-09cc-4a47-b45d-7c998d78f96c","system_id":"levelo_inurba_marseille","lat":43.29841,"lon":5.36262,"is_reserved":false,"is_disabled":false,"rental_uris":{"android":"levelo://app?vid=a6cbb9ab-09cc-4a47-b45d-7c998d78f96c","ios":"levelo://app?vid=a6cbb9ab-09cc-4a47-b45d-7c998d78f96c"},"vehicle_type_id":"4","last_reported":1727431783,"current_range_meters":36800,"station_id":"ce4bgpp2rcd13ifvqc3g","pricing_plan_id":"cebpf4jnsgd1na2vs0mg"},{"bike_id":"a96c71be-b359-4ce0-a388-f8dd827a330d","system_id":"levelo_inurba_marseille","lat":43.30547,"lon":5.36711,"is_reserved":false,"is_disabled":false,"rental_uris":{"android":"levelo://app?vid=a96c71be-b359-4ce0-a388-f8dd827a330d","ios":"levelo://app?vid=a96c71be-b359-4ce0-a388-f8dd827a330d"},"vehicle_type_id":"4","last_reported":1727431783,"current_range_meters":29600,"station_id":"ce4bgrp2rcd13ifvqc9g","pricing_plan_id":"cebpf4jnsgd1na2vs0mg"},{"bike_id":"932c7b30-012b-4098-90b0-32794be8681f","system_id":"levelo_inurba_marseille","lat":43.33605,"lon":5.41021,"is_reserved":false,"is_disabled":false,"rental_uris":{"android":"levelo://app?vid=932c7b30-012b-4098-90b0-32794be8681f","ios":"levelo://app?vid=932c7b30-012b-4098-90b0-32794be8681f"},"vehicle_type_id":"4","last_reported":1727431783,"current_range_meters":28400,"station_id":"ce4bhqh2rcd13ifvqhmg","pricing_plan_id":"cebpf4jnsgd1na2vs0mg"},{"bike_id":"c68a612f-392e-4081-8c44-ff1bbcda092f","system_id":"levelo_inurba_marseille","lat":43.32487,"lon":5.36568,"is_reserved":false,"is_disabled":false,"rental_uris":{"android":"levelo://app?vid=c68a612f-392e-4081-8c44-ff1bbcda092f","ios":"levelo://app?vid=c68a612f-392e-4081-8c44-ff1bbcda092f"},"vehicle_type_id":"4","last_reported":1727431783,"current_range_meters":36400,"station_id":"ce4bhs12rcd13ifvqhvg","pricing_plan_id":"cebpf4jnsgd1na2vs0mg"},{"bike_id":"d8c48252-4588-4704-86ec-4f5a0439137e","system_id":"levelo_inurba_marseille","lat":43.29558,"lon":5.42282,"is_reserved":false,"is_disabled":false,"rental_uris":{"android":"levelo://app?vid=d8c48252-4588-4704-86ec-4f5a0439137e","ios":"levelo://app?vid=d8c48252-4588-4704-86ec-4f5a0439137e"},"vehicle_type_id":"4","last_reported":1727431783,"current_range_meters":39200,"station_id":"ce4bhph2rcd13ifvqhdg","pricing_plan_id":"cebpf4jnsgd1na2vs0mg"},{"bike_id":"923b6583-27f6-48f9-a414-760497e91c1d","system_id":"levelo_inurba_marseille","lat":43.29308,"lon":5.37174,"is_reserved":false,"is_disabled":false,"rental_uris":{"android":"levelo://app?vid=923b6583-27f6-48f9-a414-760497e91c1d","ios":"levelo://app?vid=923b6583-27f6-48f9-a414-760497e91c1d"},"vehicle_type_id":"4","last_reported":1727431783,"current_range_meters":26000,"station_id":"ce4bgh92rcd13ifvqb40","pricing_plan_id":"cebpf4jnsgd1na2vs0mg"},{"bike_id":"1ecbf6de-3fe8-4f03-afba-e90d14867c9b","system_id":"levelo_inurba_marseille","lat":43.31362,"lon":5.38486,"is_reserved":false,"is_disabled":false,"rental_uris":{"android":"levelo://app?vid=1ecbf6de-3fe8-4f03-afba-e90d14867c9b","ios":"levelo://app?vid=1ecbf6de-3fe8-4f03-afba-e90d14867c9b"},"vehicle_type_id":"4","last_reported":1727431783,"current_range_meters":20400,"station_id":"ce4bgt92rcd13ifvqcf0","pricing_plan_id":"cebpf4jnsgd1na2vs0mg"},{"bike_id":"720aa0e6-1e56-4dba-825d-68ab81240074","system_id":"levelo_inurba_marseille","lat":43.33612,"lon":5.41027,"is_reserved":false,"is_disabled":false,"rental_uris":{"android":"levelo://app?vid=720aa0e6-1e56-4dba-825d-68ab81240074","ios":"levelo://app?vid=720aa0e6-1e56-4dba-825d-68ab81240074"},"vehicle_type_id":"4","last_reported":1727431783,"current_range_meters":20000,"station_id":"ce4bhqh2rcd13ifvqhmg","pricing_plan_id":"cebpf4jnsgd1na2vs0mg"},{"bike_id":"98b5eb15-c07e-424e-9e47-b9763061a944","system_id":"levelo_inurba_marseille","lat":43.24652,"lon":5.389,"is_reserved":false,"is_disabled":false,"rental_uris":{"android":"levelo://app?vid=98b5eb15-c07e-424e-9e47-b9763061a944","ios":"levelo://app?vid=98b5eb15-c07e-424e-9e47-b9763061a944"},"vehicle_type_id":"4","last_reported":1727431783,"current_range_meters":39200,"station_id":"ce4bhg12rcd13ifvqf60","pricing_plan_id":"cebpf4jnsgd1na2vs0mg"},{"bike_id":"dc29cc9b-e464-43f3-8e13-dd21ced846c4","system_id":"levelo_inurba_marseille","lat":43.337444,"lon":5.374475,"is_reserved":false,"is_disabled":false,"rental_uris":{"android":"levelo://app?vid=dc29cc9b-e464-43f3-8e13-dd21ced846c4","ios":"levelo://app?vid=dc29cc9b-e464-43f3-8e13-dd21ced846c4"},"vehicle_type_id":"4","last_reported":1727431783,"current_range_meters":37600,"station_id":"","pricing_plan_id":"cebpf4jnsgd1na2vs0mg"},{"bike_id":"4c3961a4-8a54-4949-9475-600d26661596","system_id":"levelo_inurba_marseille","lat":43.25933,"lon":5.40903,"is_reserved":false,"is_disabled":false,"rental_uris":{"android":"levelo://app?vid=4c3961a4-8a54-4949-9475-600d26661596","ios":"levelo://app?vid=4c3961a4-8a54-4949-9475-600d26661596"},"vehicle_type_id":"4","last_reported":1727431783,"current_range_meters":27200,"station_id":"ce4bhm92rcd13ifvqglg","pricing_plan_id":"cebpf4jnsgd1na2vs0mg"},{"bike_id":"4674fcea-2e76-46b6-acc4-19efb6b88b54","system_id":"levelo_inurba_marseille","lat":43.29845,"lon":5.36271,"is_reserved":false,"is_disabled":false,"rental_uris":{"android":"levelo://app?vid=4674fcea-2e76-46b6-acc4-19efb6b88b54","ios":"levelo://app?vid=4674fcea-2e76-46b6-acc4-19efb6b88b54"},"vehicle_type_id":"4","last_reported":1727431783,"current_range_meters":35200,"station_id":"ce4bgpp2rcd13ifvqc3g","pricing_plan_id":"cebpf4jnsgd1na2vs0mg"},{"bike_id":"17f08afc-009a-4a6e-a3d7-2b9f68f4e878","system_id":"levelo_inurba_marseille","lat":43.23153,"lon":5.43708,"is_reserved":false,"is_disabled":false,"rental_uris":{"android":"levelo://app?vid=17f08afc-009a-4a6e-a3d7-2b9f68f4e878","ios":"levelo://app?vid=17f08afc-009a-4a6e-a3d7-2b9f68f4e878"},"vehicle_type_id":"4","last_reported":1727431783,"current_range_meters":36800,"station_id":"ce4bhmp2rcd13ifvqgog","pricing_plan_id":"cebpf4jnsgd1na2vs0mg"},{"bike_id":"f9f53c68-34e9-4b9a-a539-828ba8b61713","system_id":"levelo_inurba_marseille","lat":43.28154,"lon":5.42639,"is_reserved":false,"is_disabled":false,"rental_uris":{"android":"levelo://app?vid=f9f53c68-34e9-4b9a-a539-828ba8b61713","ios":"levelo://app?vid=f9f53c68-34e9-4b9a-a539-828ba8b61713"},"vehicle_type_id":"4","last_reported":1727431783,"current_range_meters":36400,"station_id":"ce4bhnh2rcd13ifvqgug","pricing_plan_id":"cebpf4jnsgd1na2vs0mg"},{"bike_id":"9c1d6896-42ff-473e-99fe-df79b9008d74","system_id":"levelo_inurba_marseille","lat":43.29522,"lon":5.39035,"is_reserved":false,"is_disabled":false,"rental_uris":{"android":"levelo://app?vid=9c1d6896-42ff-473e-99fe-df79b9008d74","ios":"levelo://app?vid=9c1d6896-42ff-473e-99fe-df79b9008d74"},"vehicle_type_id":"4","last_reported":1727431783,"current_range_meters":6400,"station_id":"ce4bh3p2rcd13ifvqdp0","pricing_plan_id":"cebpf4jnsgd1na2vs0mg"},{"bike_id":"49ae1e59-08b3-4859-a392-0191fe810cd9","system_id":"levelo_inurba_marseille","lat":43.25937,"lon":5.40891,"is_reserved":false,"is_disabled":false,"rental_uris":{"android":"levelo://app?vid=49ae1e59-08b3-4859-a392-0191fe810cd9","ios":"levelo://app?vid=49ae1e59-08b3-4859-a392-0191fe810cd9"},"vehicle_type_id":"4","last_reported":1727431783,"current_range_meters":7200,"station_id":"ce4bhm92rcd13ifvqglg","pricing_plan_id":"cebpf4jnsgd1na2vs0mg"},{"bike_id":"3dabe597-7bed-42ce-b402-93f36374a299","system_id":"levelo_inurba_marseille","lat":43.336,"lon":5.41019,"is_reserved":false,"is_disabled":false,"rental_uris":{"android":"levelo://app?vid=3dabe597-7bed-42ce-b402-93f36374a299","ios":"levelo://app?vid=3dabe597-7bed-42ce-b402-93f36374a299"},"vehicle_type_id":"4","last_reported":1727431783,"current_range_meters":26000,"station_id":"ce4bhqh2rcd13ifvqhmg","pricing_plan_id":"cebpf4jnsgd1na2vs0mg"},{"bike_id":"c4a850bf-fbb7-476b-bfb3-bfa5d94ca6c4","system_id":"levelo_inurba_marseille","lat":43.30543,"lon":5.36717,"is_reserved":false,"is_disabled":false,"rental_uris":{"android":"levelo://app?vid=c4a850bf-fbb7-476b-bfb3-bfa5d94ca6c4","ios":"levelo://app?vid=c4a850bf-fbb7-476b-bfb3-bfa5d94ca6c4"},"vehicle_type_id":"4","last_reported":1727431783,"current_range_meters":39200,"station_id":"ce4bgrp2rcd13ifvqc9g","pricing_plan_id":"cebpf4jnsgd1na2vs0mg"},{"bike_id":"0e24d508-de92-4f3e-a611-a3ab513c5d8c","system_id":"levelo_inurba_marseille","lat":43.24082,"lon":5.3775,"is_reserved":false,"is_disabled":false,"rental_uris":{"android":"levelo://app?vid=0e24d508-de92-4f3e-a611-a3ab513c5d8c","ios":"levelo://app?vid=0e24d508-de92-4f3e-a611-a3ab513c5d8c"},"vehicle_type_id":"4","last_reported":1727431783,"current_range_meters":5600,"station_id":"ce4bhnp2rcd13ifvqgvg","pricing_plan_id":"cebpf4jnsgd1na2vs0mg"},{"bike_id":"6e46a9d3-d9be-48a4-9657-d775740f2edc","system_id":"levelo_inurba_marseille","lat":43.29004,"lon":5.3562,"is_reserved":false,"is_disabled":false,"rental_uris":{"android":"levelo://app?vid=6e46a9d3-d9be-48a4-9657-d775740f2edc","ios":"levelo://app?vid=6e46a9d3-d9be-48a4-9657-d775740f2edc"},"vehicle_type_id":"4","last_reported":1727431783,"current_range_meters":39200,"station_id":"ce4bhb92rcd13ifvqen0","pricing_plan_id":"cebpf4jnsgd1na2vs0mg"},{"bike_id":"d7803d41-d442-495f-bf03-afa0a6194ed0","system_id":"levelo_inurba_marseille","lat":43.26322,"lon":5.3769,"is_reserved":false,"is_disabled":false,"rental_uris":{"android":"levelo://app?vid=d7803d41-d442-495f-bf03-afa0a6194ed0","ios":"levelo://app?vid=d7803d41-d442-495f-bf03-afa0a6194ed0"},"vehicle_type_id":"4","last_reported":1727431783,"current_range_meters":20800,"station_id":"ce4bhgh2rcd13ifvqfb0","pricing_plan_id":"cebpf4jnsgd1na2vs0mg"},{"bike_id":"fa3e5396-3f4f-49c1-8cf9-c90809361857","system_id":"levelo_inurba_marseille","lat":43.34144,"lon":5.40905,"is_reserved":false,"is_disabled":false,"rental_uris":{"android":"levelo://app?vid=fa3e5396-3f4f-49c1-8cf9-c90809361857","ios":"levelo://app?vid=fa3e5396-3f4f-49c1-8cf9-c90809361857"},"vehicle_type_id":"4","last_reported":1727431783,"current_range_meters":3600,"station_id":"ce4bhqh2rcd13ifvqhlg","pricing_plan_id":"cebpf4jnsgd1na2vs0mg"},{"bike_id":"2777c82f-32f0-4ddb-98f4-67bf27db1081","system_id":"levelo_inurba_marseille","lat":43.26803,"lon":5.40264,"is_reserved":false,"is_disabled":false,"rental_uris":{"android":"levelo://app?vid=2777c82f-32f0-4ddb-98f4-67bf27db1081","ios":"levelo://app?vid=2777c82f-32f0-4ddb-98f4-67bf27db1081"},"vehicle_type_id":"4","last_reported":1727431783,"current_range_meters":12400,"station_id":"ce501612rcd8frsf0b60","pricing_plan_id":"cebpf4jnsgd1na2vs0mg"},{"bike_id":"8285c712-f7e8-4563-8986-9ea9d1dc8a70","system_id":"levelo_inurba_marseille","lat":43.30146,"lon":5.380828,"is_reserved":false,"is_disabled":false,"rental_uris":{"android":"levelo://app?vid=8285c712-f7e8-4563-8986-9ea9d1dc8a70","ios":"levelo://app?vid=8285c712-f7e8-4563-8986-9ea9d1dc8a70"},"vehicle_type_id":"4","last_reported":1727431783,"current_range_meters":24400,"station_id":"ce4bgjp2rcd13ifvqbh0","pricing_plan_id":"cebpf4jnsgd1na2vs0mg"},{"bike_id":"a4fa5c55-37de-4c61-bf1b-a1f770b6199f","system_id":"levelo_inurba_marseille","lat":43.30476,"lon":5.37897,"is_reserved":false,"is_disabled":false,"rental_uris":{"android":"levelo://app?vid=a4fa5c55-37de-4c61-bf1b-a1f770b6199f","ios":"levelo://app?vid=a4fa5c55-37de-4c61-bf1b-a1f770b6199f"},"vehicle_type_id":"4","last_reported":1727431783,"current_range_meters":10800,"station_id":"ce4bgup2rcd13ifvqcn0","pricing_plan_id":"cebpf4jnsgd1na2vs0mg"},{"bike_id":"80e09071-95ff-454d-9076-2a605ea174e0","system_id":"levelo_inurba_marseille","lat":43.29843,"lon":5.36263,"is_reserved":false,"is_disabled":false,"rental_uris":{"android":"levelo://app?vid=80e09071-95ff-454d-9076-2a605ea174e0","ios":"levelo://app?vid=80e09071-95ff-454d-9076-2a605ea174e0"},"vehicle_type_id":"4","last_reported":1727431783,"current_range_meters":28800,"station_id":"ce4bgpp2rcd13ifvqc3g","pricing_plan_id":"cebpf4jnsgd1na2vs0mg"},{"bike_id":"fbc74064-2796-4bb7-a53d-8400d14b2ed9","system_id":"levelo_inurba_marseille","lat":43.296,"lon":5.38099,"is_reserved":false,"is_disabled":false,"rental_uris":{"android":"levelo://app?vid=fbc74064-2796-4bb7-a53d-8400d14b2ed9","ios":"levelo://app?vid=fbc74064-2796-4bb7-a53d-8400d14b2ed9"},"vehicle_type_id":"4","last_reported":1727431783,"current_range_meters":38800,"station_id":"ce4bgl12rcd13ifvqbo0","pricing_plan_id":"cebpf4jnsgd1na2vs0mg"},{"bike_id":"102e4370-9a76-4f23-be96-9bac8d4ef039","system_id":"levelo_inurba_marseille","lat":43.30604,"lon":5.37229,"is_reserved":false,"is_disabled":false,"rental_uris":{"android":"levelo://app?vid=102e4370-9a76-4f23-be96-9bac8d4ef039","ios":"levelo://app?vid=102e4370-9a76-4f23-be96-9bac8d4ef039"},"vehicle_type_id":"4","last_reported":1727431783,"current_range_meters":25200,"station_id":"ce4bgqh2rcd13ifvqc4g","pricing_plan_id":"cebpf4jnsgd1na2vs0mg"},{"bike_id":"c257dd9c-51a4-4c68-87af-c632f697e17b","system_id":"levelo_inurba_marseille","lat":43.30534,"lon":5.38425,"is_reserved":false,"is_disabled":false,"rental_uris":{"android":"levelo://app?vid=c257dd9c-51a4-4c68-87af-c632f697e17b","ios":"levelo://app?vid=c257dd9c-51a4-4c68-87af-c632f697e17b"},"vehicle_type_id":"4","last_reported":1727431783,"current_range_meters":32800,"station_id":"ce4bgg92rcd13ifvqb30","pricing_plan_id":"cebpf4jnsgd1na2vs0mg"},{"bike_id":"75f7e45b-cc8f-4efe-9266-d11d010487e6","system_id":"levelo_inurba_marseille","lat":43.30543,"lon":5.36721,"is_reserved":false,"is_disabled":false,"rental_uris":{"android":"levelo://app?vid=75f7e45b-cc8f-4efe-9266-d11d010487e6","ios":"levelo://app?vid=75f7e45b-cc8f-4efe-9266-d11d010487e6"},"vehicle_type_id":"4","last_reported":1727431783,"current_range_meters":32400,"station_id":"ce4bgrp2rcd13ifvqc9g","pricing_plan_id":"cebpf4jnsgd1na2vs0mg"},{"bike_id":"7dcc681e-687a-4c9a-9ee2-bdf8919d45e7","system_id":"levelo_inurba_marseille","lat":43.3015,"lon":5.38078,"is_reserved":false,"is_disabled":false,"rental_uris":{"android":"levelo://app?vid=7dcc681e-687a-4c9a-9ee2-bdf8919d45e7","ios":"levelo://app?vid=7dcc681e-687a-4c9a-9ee2-bdf8919d45e7"},"vehicle_type_id":"4","last_reported":1727431783,"current_range_meters":36800,"station_id":"ce4bgjp2rcd13ifvqbh0","pricing_plan_id":"cebpf4jnsgd1na2vs0mg"},{"bike_id":"12bb2fa0-def4-44f9-9009-061dd94ed221","system_id":"levelo_inurba_marseille","lat":43.24158,"lon":5.36399,"is_reserved":false,"is_disabled":false,"rental_uris":{"android":"levelo://app?vid=12bb2fa0-def4-44f9-9009-061dd94ed221","ios":"levelo://app?vid=12bb2fa0-def4-44f9-9009-061dd94ed221"},"vehicle_type_id":"4","last_reported":1727431783,"current_range_meters":3200,"station_id":"cpo36qri1sfpv3e86is0","pricing_plan_id":"cebpf4jnsgd1na2vs0mg"},{"bike_id":"2c4a4800-f947-4ac4-a519-823ae18277cb","system_id":"levelo_inurba_marseille","lat":43.29582,"lon":5.37525,"is_reserved":false,"is_disabled":false,"rental_uris":{"android":"levelo://app?vid=2c4a4800-f947-4ac4-a519-823ae18277cb","ios":"levelo://app?vid=2c4a4800-f947-4ac4-a519-823ae18277cb"},"vehicle_type_id":"4","last_reported":1727431783,"current_range_meters":13600,"station_id":"ce4bgh92rcd13ifvqb50","pricing_plan_id":"cebpf4jnsgd1na2vs0mg"},{"bike_id":"caac2220-f204-42a6-8944-b690878e20a4","system_id":"levelo_inurba_marseille","lat":43.26198,"lon":5.37932,"is_reserved":false,"is_disabled":false,"rental_uris":{"android":"levelo://app?vid=caac2220-f204-42a6-8944-b690878e20a4","ios":"levelo://app?vid=caac2220-f204-42a6-8944-b690878e20a4"},"vehicle_type_id":"4","last_reported":1727431783,"current_range_meters":28400,"station_id":"ce4bhjp2rcd13ifvqg90","pricing_plan_id":"cebpf4jnsgd1na2vs0mg"},{"bike_id":"f916f4ea-109f-491c-b317-68616a4e1aaf","system_id":"levelo_inurba_marseille","lat":43.30602,"lon":5.37236,"is_reserved":false,"is_disabled":false,"rental_uris":{"android":"levelo://app?vid=f916f4ea-109f-491c-b317-68616a4e1aaf","ios":"levelo://app?vid=f916f4ea-109f-491c-b317-68616a4e1aaf"},"vehicle_type_id":"4","last_reported":1727431783,"current_range_meters":18000,"station_id":"ce4bgqh2rcd13ifvqc4g","pricing_plan_id":"cebpf4jnsgd1na2vs0mg"},{"bike_id":"a2c55c22-cff9-450f-991c-57d2f1cd2f53","system_id":"levelo_inurba_marseille","lat":43.2978,"lon":5.37104,"is_reserved":false,"is_disabled":false,"rental_uris":{"android":"levelo://app?vid=a2c55c22-cff9-450f-991c-57d2f1cd2f53","ios":"levelo://app?vid=a2c55c22-cff9-450f-991c-57d2f1cd2f53"},"vehicle_type_id":"4","last_reported":1727431783,"current_range_meters":17200,"station_id":"ce4bgop2rcd13ifvqc1g","pricing_plan_id":"cebpf4jnsgd1na2vs0mg"},{"bike_id":"d5354cb2-9eab-40ac-aea1-e399ee7656f3","system_id":"levelo_inurba_marseille","lat":43.27993,"lon":5.4166,"is_reserved":false,"is_disabled":false,"rental_uris":{"android":"levelo://app?vid=d5354cb2-9eab-40ac-aea1-e399ee7656f3","ios":"levelo://app?vid=d5354cb2-9eab-40ac-aea1-e399ee7656f3"},"vehicle_type_id":"4","last_reported":1727431783,"current_range_meters":22400,"station_id":"ce4bho12rcd13ifvqh1g","pricing_plan_id":"cebpf4jnsgd1na2vs0mg"},{"bike_id":"305dab19-e827-446a-9d8d-a02de3e60b41","system_id":"levelo_inurba_marseille","lat":43.27179,"lon":5.40975,"is_reserved":false,"is_disabled":false,"rental_uris":{"android":"levelo://app?vid=305dab19-e827-446a-9d8d-a02de3e60b41","ios":"levelo://app?vid=305dab19-e827-446a-9d8d-a02de3e60b41"},"vehicle_type_id":"4","last_reported":1727431783,"current_range_meters":36800,"station_id":"ce4bhl12rcd13ifvqgf0","pricing_plan_id":"cebpf4jnsgd1na2vs0mg"},{"bike_id":"2d21a934-5452-4cd4-9fa3-fb6b2a437943","system_id":"levelo_inurba_marseille","lat":43.23194,"lon":5.35558,"is_reserved":false,"is_disabled":false,"rental_uris":{"android":"levelo://app?vid=2d21a934-5452-4cd4-9fa3-fb6b2a437943","ios":"levelo://app?vid=2d21a934-5452-4cd4-9fa3-fb6b2a437943"},"vehicle_type_id":"4","last_reported":1727431783,"current_range_meters":29600,"station_id":"ce4bhu92rcd13ifvqi70","pricing_plan_id":"cebpf4jnsgd1na2vs0mg"},{"bike_id":"f24f88c3-9a1d-407b-85d6-b9786151adf0","system_id":"levelo_inurba_marseille","lat":43.27316,"lon":5.39088,"is_reserved":false,"is_disabled":false,"rental_uris":{"android":"levelo://app?vid=f24f88c3-9a1d-407b-85d6-b9786151adf0","ios":"levelo://app?vid=f24f88c3-9a1d-407b-85d6-b9786151adf0"},"vehicle_type_id":"4","last_reported":1727431783,"current_range_meters":6800,"station_id":"ce4bhgp2rcd13ifvqfe0","pricing_plan_id":"cebpf4jnsgd1na2vs0mg"},{"bike_id":"d961c983-af25-4137-beb0-8f8d41394de3","system_id":"levelo_inurba_marseille","lat":43.2315,"lon":5.43714,"is_reserved":false,"is_disabled":false,"rental_uris":{"android":"levelo://app?vid=d961c983-af25-4137-beb0-8f8d41394de3","ios":"levelo://app?vid=d961c983-af25-4137-beb0-8f8d41394de3"},"vehicle_type_id":"4","last_reported":1727431783,"current_range_meters":8400,"station_id":"ce4bhmp2rcd13ifvqgog","pricing_plan_id":"cebpf4jnsgd1na2vs0mg"},{"bike_id":"eb7ffbe4-85f3-4670-87ad-9e9ef7f9f6aa","system_id":"levelo_inurba_marseille","lat":43.31997,"lon":5.38156,"is_reserved":false,"is_disabled":false,"rental_uris":{"android":"levelo://app?vid=eb7ffbe4-85f3-4670-87ad-9e9ef7f9f6aa","ios":"levelo://app?vid=eb7ffbe4-85f3-4670-87ad-9e9ef7f9f6aa"},"vehicle_type_id":"4","last_reported":1727431783,"current_range_meters":31200,"station_id":"ce4bhr12rcd13ifvqhpg","pricing_plan_id":"cebpf4jnsgd1na2vs0mg"},{"bike_id":"47b52101-5c5d-4cee-9208-786821a1b453","system_id":"levelo_inurba_marseille","lat":43.29597,"lon":5.37599,"is_reserved":false,"is_disabled":false,"rental_uris":{"android":"levelo://app?vid=47b52101-5c5d-4cee-9208-786821a1b453","ios":"levelo://app?vid=47b52101-5c5d-4cee-9208-786821a1b453"},"vehicle_type_id":"4","last_reported":1727431783,"current_range_meters":22400,"station_id":"","pricing_plan_id":"cebpf4jnsgd1na2vs0mg"},{"bike_id":"0a9cb89d-7a9b-4cde-9667-2cf4c58ece12","system_id":"levelo_inurba_marseille","lat":43.30474,"lon":5.37892,"is_reserved":false,"is_disabled":false,"rental_uris":{"android":"levelo://app?vid=0a9cb89d-7a9b-4cde-9667-2cf4c58ece12","ios":"levelo://app?vid=0a9cb89d-7a9b-4cde-9667-2cf4c58ece12"},"vehicle_type_id":"4","last_reported":1727431783,"current_range_meters":28800,"station_id":"ce4bgup2rcd13ifvqcn0","pricing_plan_id":"cebpf4jnsgd1na2vs0mg"},{"bike_id":"2d7a9fb7-df81-4f65-9229-4f5ebff4a082","system_id":"levelo_inurba_marseille","lat":43.29558,"lon":5.4228,"is_reserved":false,"is_disabled":false,"rental_uris":{"android":"levelo://app?vid=2d7a9fb7-df81-4f65-9229-4f5ebff4a082","ios":"levelo://app?vid=2d7a9fb7-df81-4f65-9229-4f5ebff4a082"},"vehicle_type_id":"4","last_reported":1727431783,"current_range_meters":33200,"station_id":"ce4bhph2rcd13ifvqhdg","pricing_plan_id":"cebpf4jnsgd1na2vs0mg"},{"bike_id":"51cd0e26-68b5-4158-9a80-d3445331b8f5","system_id":"levelo_inurba_marseille","lat":43.23158,"lon":5.43692,"is_reserved":false,"is_disabled":false,"rental_uris":{"android":"levelo://app?vid=51cd0e26-68b5-4158-9a80-d3445331b8f5","ios":"levelo://app?vid=51cd0e26-68b5-4158-9a80-d3445331b8f5"},"vehicle_type_id":"4","last_reported":1727431783,"current_range_meters":11200,"station_id":"ce4bhmp2rcd13ifvqgog","pricing_plan_id":"cebpf4jnsgd1na2vs0mg"},{"bike_id":"7cf4e5ec-03db-4dcc-9169-77d81d4a978c","system_id":"levelo_inurba_marseille","lat":43.23967,"lon":5.36631,"is_reserved":false,"is_disabled":false,"rental_uris":{"android":"levelo://app?vid=7cf4e5ec-03db-4dcc-9169-77d81d4a978c","ios":"levelo://app?vid=7cf4e5ec-03db-4dcc-9169-77d81d4a978c"},"vehicle_type_id":"4","last_reported":1727431783,"current_range_meters":8400,"station_id":"ce4bhi12rcd13ifvqfp0","pricing_plan_id":"cebpf4jnsgd1na2vs0mg"},{"bike_id":"9fd094bc-8ed2-43ca-ba76-524b06869e7b","system_id":"levelo_inurba_marseille","lat":43.27492,"lon":5.42456,"is_reserved":false,"is_disabled":false,"rental_uris":{"android":"levelo://app?vid=9fd094bc-8ed2-43ca-ba76-524b06869e7b","ios":"levelo://app?vid=9fd094bc-8ed2-43ca-ba76-524b06869e7b"},"vehicle_type_id":"4","last_reported":1727431783,"current_range_meters":9200,"station_id":"ce4bhn92rcd13ifvqgrg","pricing_plan_id":"cebpf4jnsgd1na2vs0mg"},{"bike_id":"d36da510-d10f-4967-8fb1-fb93f1110bda","system_id":"levelo_inurba_marseille","lat":43.337444,"lon":5.374475,"is_reserved":false,"is_disabled":false,"rental_uris":{"android":"levelo://app?vid=d36da510-d10f-4967-8fb1-fb93f1110bda","ios":"levelo://app?vid=d36da510-d10f-4967-8fb1-fb93f1110bda"},"vehicle_type_id":"4","last_reported":1727431783,"current_range_meters":26800,"station_id":"ce4bgk12rcd13ifvqbi0","pricing_plan_id":"cebpf4jnsgd1na2vs0mg"},{"bike_id":"1b4b0178-3a24-4b33-98ef-05aef8dad5fc","system_id":"levelo_inurba_marseille","lat":43.26202,"lon":5.37935,"is_reserved":false,"is_disabled":false,"rental_uris":{"android":"levelo://app?vid=1b4b0178-3a24-4b33-98ef-05aef8dad5fc","ios":"levelo://app?vid=1b4b0178-3a24-4b33-98ef-05aef8dad5fc"},"vehicle_type_id":"4","last_reported":1727431783,"current_range_meters":40000,"station_id":"ce4bhjp2rcd13ifvqg90","pricing_plan_id":"cebpf4jnsgd1na2vs0mg"},{"bike_id":"fd862933-d712-4813-8866-a7ed5682df20","system_id":"levelo_inurba_marseille","lat":43.2315,"lon":5.43701,"is_reserved":false,"is_disabled":false,"rental_uris":{"android":"levelo://app?vid=fd862933-d712-4813-8866-a7ed5682df20","ios":"levelo://app?vid=fd862933-d712-4813-8866-a7ed5682df20"},"vehicle_type_id":"4","last_reported":1727431783,"current_range_meters":6800,"station_id":"ce4bhmp2rcd13ifvqgog","pricing_plan_id":"cebpf4jnsgd1na2vs0mg"},{"bike_id":"414efbfd-2f14-4017-9552-a7e185540cb6","system_id":"levelo_inurba_marseille","lat":43.30205,"lon":5.39463,"is_reserved":false,"is_disabled":false,"rental_uris":{"android":"levelo://app?vid=414efbfd-2f14-4017-9552-a7e185540cb6","ios":"levelo://app?vid=414efbfd-2f14-4017-9552-a7e185540cb6"},"vehicle_type_id":"4","last_reported":1727431783,"current_range_meters":36400,"station_id":"ce4bh0p2rcd13ifvqd70","pricing_plan_id":"cebpf4jnsgd1na2vs0mg"},{"bike_id":"fdeab252-3058-4111-add0-775c267b7e58","system_id":"levelo_inurba_marseille","lat":43.33608,"lon":5.41033,"is_reserved":false,"is_disabled":false,"rental_uris":{"android":"levelo://app?vid=fdeab252-3058-4111-add0-775c267b7e58","ios":"levelo://app?vid=fdeab252-3058-4111-add0-775c267b7e58"},"vehicle_type_id":"4","last_reported":1727431783,"current_range_meters":19600,"station_id":"ce4bhqh2rcd13ifvqhmg","pricing_plan_id":"cebpf4jnsgd1na2vs0mg"},{"bike_id":"0ba14a29-bf74-4180-bf4b-e512173473b7","system_id":"levelo_inurba_marseille","lat":43.2931,"lon":5.37183,"is_reserved":false,"is_disabled":false,"rental_uris":{"android":"levelo://app?vid=0ba14a29-bf74-4180-bf4b-e512173473b7","ios":"levelo://app?vid=0ba14a29-bf74-4180-bf4b-e512173473b7"},"vehicle_type_id":"4","last_reported":1727431783,"current_range_meters":30000,"station_id":"ce4bgh92rcd13ifvqb40","pricing_plan_id":"cebpf4jnsgd1na2vs0mg"},{"bike_id":"4dc181bc-4891-4aa2-81b0-c1e663266bbc","system_id":"levelo_inurba_marseille","lat":43.30605,"lon":5.37237,"is_reserved":false,"is_disabled":false,"rental_uris":{"android":"levelo://app?vid=4dc181bc-4891-4aa2-81b0-c1e663266bbc","ios":"levelo://app?vid=4dc181bc-4891-4aa2-81b0-c1e663266bbc"},"vehicle_type_id":"4","last_reported":1727431783,"current_range_meters":20000,"station_id":"ce4bgqh2rcd13ifvqc4g","pricing_plan_id":"cebpf4jnsgd1na2vs0mg"},{"bike_id":"c8b40ef1-0000-4246-9a0f-38f6bb288127","system_id":"levelo_inurba_marseille","lat":43.29309,"lon":5.37179,"is_reserved":false,"is_disabled":false,"rental_uris":{"android":"levelo://app?vid=c8b40ef1-0000-4246-9a0f-38f6bb288127","ios":"levelo://app?vid=c8b40ef1-0000-4246-9a0f-38f6bb288127"},"vehicle_type_id":"4","last_reported":1727431783,"current_range_meters":30400,"station_id":"ce4bgh92rcd13ifvqb40","pricing_plan_id":"cebpf4jnsgd1na2vs0mg"},{"bike_id":"85002f6e-ebfd-48de-af43-367fbe507e10","system_id":"levelo_inurba_marseille","lat":43.29032,"lon":5.37557,"is_reserved":false,"is_disabled":false,"rental_uris":{"android":"levelo://app?vid=85002f6e-ebfd-48de-af43-367fbe507e10","ios":"levelo://app?vid=85002f6e-ebfd-48de-af43-367fbe507e10"},"vehicle_type_id":"4","last_reported":1727431783,"current_range_meters":26000,"station_id":"ce4bh692rcd13ifvqe90","pricing_plan_id":"cebpf4jnsgd1na2vs0mg"},{"bike_id":"d03856c3-8a24-43aa-a48a-8787bc340424","system_id":"levelo_inurba_marseille","lat":43.30898,"lon":5.36847,"is_reserved":false,"is_disabled":false,"rental_uris":{"android":"levelo://app?vid=d03856c3-8a24-43aa-a48a-8787bc340424","ios":"levelo://app?vid=d03856c3-8a24-43aa-a48a-8787bc340424"},"vehicle_type_id":"4","last_reported":1727431783,"current_range_meters":30400,"station_id":"ce4bgn92rcd13ifvqbvg","pricing_plan_id":"cebpf4jnsgd1na2vs0mg"},{"bike_id":"312f258a-d3f3-404b-af98-eb5ec41c85c4","system_id":"levelo_inurba_marseille","lat":43.30781,"lon":5.37638,"is_reserved":false,"is_disabled":false,"rental_uris":{"android":"levelo://app?vid=312f258a-d3f3-404b-af98-eb5ec41c85c4","ios":"levelo://app?vid=312f258a-d3f3-404b-af98-eb5ec41c85c4"},"vehicle_type_id":"4","last_reported":1727431783,"current_range_meters":23200,"station_id":"ce4bgv92rcd13ifvqcq0","pricing_plan_id":"cebpf4jnsgd1na2vs0mg"},{"bike_id":"fd512eb4-5978-476b-856d-3199680a82b6","system_id":"levelo_inurba_marseille","lat":43.23153,"lon":5.43702,"is_reserved":false,"is_disabled":false,"rental_uris":{"android":"levelo://app?vid=fd512eb4-5978-476b-856d-3199680a82b6","ios":"levelo://app?vid=fd512eb4-5978-476b-856d-3199680a82b6"},"vehicle_type_id":"4","last_reported":1727431783,"current_range_meters":16800,"station_id":"ce4bhmp2rcd13ifvqgog","pricing_plan_id":"cebpf4jnsgd1na2vs0mg"},{"bike_id":"8334105b-9c65-4db8-8ef4-84c9db31f658","system_id":"levelo_inurba_marseille","lat":43.30802,"lon":5.3814,"is_reserved":false,"is_disabled":false,"rental_uris":{"android":"levelo://app?vid=8334105b-9c65-4db8-8ef4-84c9db31f658","ios":"levelo://app?vid=8334105b-9c65-4db8-8ef4-84c9db31f658"},"vehicle_type_id":"4","last_reported":1727431783,"current_range_meters":20400,"station_id":"ce4bgt12rcd13ifvqce0","pricing_plan_id":"cebpf4jnsgd1na2vs0mg"},{"bike_id":"e5edb00e-cafc-4a47-9e5b-004b7d4e67c3","system_id":"levelo_inurba_marseille","lat":43.2994,"lon":5.36545,"is_reserved":false,"is_disabled":false,"rental_uris":{"android":"levelo://app?vid=e5edb00e-cafc-4a47-9e5b-004b7d4e67c3","ios":"levelo://app?vid=e5edb00e-cafc-4a47-9e5b-004b7d4e67c3"},"vehicle_type_id":"4","last_reported":1727431783,"current_range_meters":30800,"station_id":"ce4bgm92rcd13ifvqbr0","pricing_plan_id":"cebpf4jnsgd1na2vs0mg"},{"bike_id":"59840f99-8841-4142-a16d-c075a09eb4c2","system_id":"levelo_inurba_marseille","lat":43.3133,"lon":5.39693,"is_reserved":false,"is_disabled":false,"rental_uris":{"android":"levelo://app?vid=59840f99-8841-4142-a16d-c075a09eb4c2","ios":"levelo://app?vid=59840f99-8841-4142-a16d-c075a09eb4c2"},"vehicle_type_id":"4","last_reported":1727431783,"current_range_meters":22400,"station_id":"ce4bgvp2rcd13ifvqcu0","pricing_plan_id":"cebpf4jnsgd1na2vs0mg"},{"bike_id":"79f1521a-1338-417b-a91b-231c9648f517","system_id":"levelo_inurba_marseille","lat":43.29621,"lon":5.37172,"is_reserved":false,"is_disabled":false,"rental_uris":{"android":"levelo://app?vid=79f1521a-1338-417b-a91b-231c9648f517","ios":"levelo://app?vid=79f1521a-1338-417b-a91b-231c9648f517"},"vehicle_type_id":"4","last_reported":1727431783,"current_range_meters":38800,"station_id":"ce4bgnh2rcd13ifvqc0g","pricing_plan_id":"cebpf4jnsgd1na2vs0mg"},{"bike_id":"7fc62455-2129-4459-93ea-44e36d53f76e","system_id":"levelo_inurba_marseille","lat":43.29226,"lon":5.36069,"is_reserved":false,"is_disabled":false,"rental_uris":{"android":"levelo://app?vid=7fc62455-2129-4459-93ea-44e36d53f76e","ios":"levelo://app?vid=7fc62455-2129-4459-93ea-44e36d53f76e"},"vehicle_type_id":"4","last_reported":1727431783,"current_range_meters":40000,"station_id":"ce4bhbh2rcd13ifvqeqg","pricing_plan_id":"cebpf4jnsgd1na2vs0mg"},{"bike_id":"ab4c018c-9b46-4d0c-a3ca-e11005cbd92e","system_id":"levelo_inurba_marseille","lat":43.27886,"lon":5.38021,"is_reserved":false,"is_disabled":false,"rental_uris":{"android":"levelo://app?vid=ab4c018c-9b46-4d0c-a3ca-e11005cbd92e","ios":"levelo://app?vid=ab4c018c-9b46-4d0c-a3ca-e11005cbd92e"},"vehicle_type_id":"4","last_reported":1727431783,"current_range_meters":19200,"station_id":"ce4bhf92rcd13ifvqf50","pricing_plan_id":"cebpf4jnsgd1na2vs0mg"},{"bike_id":"1ce8ddc6-2e1b-4da8-9bb5-9a26bfb16654","system_id":"levelo_inurba_marseille","lat":43.29571,"lon":5.37508,"is_reserved":false,"is_disabled":false,"rental_uris":{"android":"levelo://app?vid=1ce8ddc6-2e1b-4da8-9bb5-9a26bfb16654","ios":"levelo://app?vid=1ce8ddc6-2e1b-4da8-9bb5-9a26bfb16654"},"vehicle_type_id":"4","last_reported":1727431783,"current_range_meters":21600,"station_id":"ce4bgh92rcd13ifvqb50","pricing_plan_id":"cebpf4jnsgd1na2vs0mg"},{"bike_id":"477326bf-5dd0-4efc-b0be-ab0cc8d7b060","system_id":"levelo_inurba_marseille","lat":43.29167,"lon":5.37141,"is_reserved":false,"is_disabled":false,"rental_uris":{"android":"levelo://app?vid=477326bf-5dd0-4efc-b0be-ab0cc8d7b060","ios":"levelo://app?vid=477326bf-5dd0-4efc-b0be-ab0cc8d7b060"},"vehicle_type_id":"4","last_reported":1727431783,"current_range_meters":35200,"station_id":"ce4bha92rcd13ifvqeh0","pricing_plan_id":"cebpf4jnsgd1na2vs0mg"},{"bike_id":"5e348244-43b9-4459-a1d4-b6bf9309ac6b","system_id":"levelo_inurba_marseille","lat":43.24077,"lon":5.37739,"is_reserved":false,"is_disabled":false,"rental_uris":{"android":"levelo://app?vid=5e348244-43b9-4459-a1d4-b6bf9309ac6b","ios":"levelo://app?vid=5e348244-43b9-4459-a1d4-b6bf9309ac6b"},"vehicle_type_id":"4","last_reported":1727431783,"current_range_meters":29600,"station_id":"ce4bhnp2rcd13ifvqgvg","pricing_plan_id":"cebpf4jnsgd1na2vs0mg"},{"bike_id":"9eca55a4-3562-46d3-a1ac-b1517e256ebe","system_id":"levelo_inurba_marseille","lat":43.27067,"lon":5.4227,"is_reserved":false,"is_disabled":false,"rental_uris":{"android":"levelo://app?vid=9eca55a4-3562-46d3-a1ac-b1517e256ebe","ios":"levelo://app?vid=9eca55a4-3562-46d3-a1ac-b1517e256ebe"},"vehicle_type_id":"4","last_reported":1727431783,"current_range_meters":25200,"station_id":"ce4bhk92rcd13ifvqgb0","pricing_plan_id":"cebpf4jnsgd1na2vs0mg"},{"bike_id":"2efde4d2-fdbd-420c-b4f0-b2241ca440e0","system_id":"levelo_inurba_marseille","lat":43.28154,"lon":5.42642,"is_reserved":false,"is_disabled":false,"rental_uris":{"android":"levelo://app?vid=2efde4d2-fdbd-420c-b4f0-b2241ca440e0","ios":"levelo://app?vid=2efde4d2-fdbd-420c-b4f0-b2241ca440e0"},"vehicle_type_id":"4","last_reported":1727431783,"current_range_meters":32400,"station_id":"ce4bhnh2rcd13ifvqgug","pricing_plan_id":"cebpf4jnsgd1na2vs0mg"},{"bike_id":"9d0f4793-8827-439a-8525-f0c62ffff611","system_id":"levelo_inurba_marseille","lat":43.2956,"lon":5.37519,"is_reserved":false,"is_disabled":false,"rental_uris":{"android":"levelo://app?vid=9d0f4793-8827-439a-8525-f0c62ffff611","ios":"levelo://app?vid=9d0f4793-8827-439a-8525-f0c62ffff611"},"vehicle_type_id":"4","last_reported":1727431783,"current_range_meters":32400,"station_id":"ce4bgh92rcd13ifvqb50","pricing_plan_id":"cebpf4jnsgd1na2vs0mg"},{"bike_id":"949118ac-52df-4286-b826-aedfdc939133","system_id":"levelo_inurba_marseille","lat":43.27171,"lon":5.40994,"is_reserved":false,"is_disabled":false,"rental_uris":{"android":"levelo://app?vid=949118ac-52df-4286-b826-aedfdc939133","ios":"levelo://app?vid=949118ac-52df-4286-b826-aedfdc939133"},"vehicle_type_id":"4","last_reported":1727431783,"current_range_meters":36000,"station_id":"ce4bhl12rcd13ifvqgf0","pricing_plan_id":"cebpf4jnsgd1na2vs0mg"},{"bike_id":"f4261619-f054-436d-84de-9759d6a8d43b","system_id":"levelo_inurba_marseille","lat":43.30459,"lon":5.37901,"is_reserved":false,"is_disabled":false,"rental_uris":{"android":"levelo://app?vid=f4261619-f054-436d-84de-9759d6a8d43b","ios":"levelo://app?vid=f4261619-f054-436d-84de-9759d6a8d43b"},"vehicle_type_id":"4","last_reported":1727431783,"current_range_meters":39200,"station_id":"ce4bgup2rcd13ifvqcn0","pricing_plan_id":"cebpf4jnsgd1na2vs0mg"},{"bike_id":"1db71e48-3e6e-4ffc-aa03-992ab96fe207","system_id":"levelo_inurba_marseille","lat":43.29569,"lon":5.37507,"is_reserved":false,"is_disabled":false,"rental_uris":{"android":"levelo://app?vid=1db71e48-3e6e-4ffc-aa03-992ab96fe207","ios":"levelo://app?vid=1db71e48-3e6e-4ffc-aa03-992ab96fe207"},"vehicle_type_id":"4","last_reported":1727431783,"current_range_meters":25200,"station_id":"ce4bgh92rcd13ifvqb50","pricing_plan_id":"cebpf4jnsgd1na2vs0mg"},{"bike_id":"2e0591db-4f6b-4c7c-8ff5-8fbe69c5892f","system_id":"levelo_inurba_marseille","lat":43.31074,"lon":5.38355,"is_reserved":false,"is_disabled":false,"rental_uris":{"android":"levelo://app?vid=2e0591db-4f6b-4c7c-8ff5-8fbe69c5892f","ios":"levelo://app?vid=2e0591db-4f6b-4c7c-8ff5-8fbe69c5892f"},"vehicle_type_id":"4","last_reported":1727431783,"current_range_meters":30400,"station_id":"ce4bgv92rcd13ifvqcr0","pricing_plan_id":"cebpf4jnsgd1na2vs0mg"},{"bike_id":"c82d3bcb-c4a6-4d9e-8d43-663bba088090","system_id":"levelo_inurba_marseille","lat":43.24083,"lon":5.37743,"is_reserved":false,"is_disabled":false,"rental_uris":{"android":"levelo://app?vid=c82d3bcb-c4a6-4d9e-8d43-663bba088090","ios":"levelo://app?vid=c82d3bcb-c4a6-4d9e-8d43-663bba088090"},"vehicle_type_id":"4","last_reported":1727431783,"current_range_meters":38400,"station_id":"ce4bhnp2rcd13ifvqgvg","pricing_plan_id":"cebpf4jnsgd1na2vs0mg"},{"bike_id":"7a221aff-a308-4e51-bd6c-3606a6928c42","system_id":"levelo_inurba_marseille","lat":43.28496,"lon":5.3898,"is_reserved":false,"is_disabled":false,"rental_uris":{"android":"levelo://app?vid=7a221aff-a308-4e51-bd6c-3606a6928c42","ios":"levelo://app?vid=7a221aff-a308-4e51-bd6c-3606a6928c42"},"vehicle_type_id":"4","last_reported":1727431783,"current_range_meters":37600,"station_id":"","pricing_plan_id":"cebpf4jnsgd1na2vs0mg"},{"bike_id":"baaaeeb2-4303-420d-953d-fbe42e6cb360","system_id":"levelo_inurba_marseille","lat":43.317017,"lon":5.377432,"is_reserved":false,"is_disabled":false,"rental_uris":{"android":"levelo://app?vid=baaaeeb2-4303-420d-953d-fbe42e6cb360","ios":"levelo://app?vid=baaaeeb2-4303-420d-953d-fbe42e6cb360"},"vehicle_type_id":"4","last_reported":1727431783,"current_range_meters":4800,"station_id":"ce4bgth2rcd13ifvqch0","pricing_plan_id":"cebpf4jnsgd1na2vs0mg"},{"bike_id":"07e39731-448f-40d5-9d06-91facf9fcb8e","system_id":"levelo_inurba_marseille","lat":43.31993,"lon":5.38147,"is_reserved":false,"is_disabled":false,"rental_uris":{"android":"levelo://app?vid=07e39731-448f-40d5-9d06-91facf9fcb8e","ios":"levelo://app?vid=07e39731-448f-40d5-9d06-91facf9fcb8e"},"vehicle_type_id":"4","last_reported":1727431783,"current_range_meters":28000,"station_id":"ce4bhr12rcd13ifvqhpg","pricing_plan_id":"cebpf4jnsgd1na2vs0mg"},{"bike_id":"8a5475e3-6fbf-4e9b-b650-accf3a939b49","system_id":"levelo_inurba_marseille","lat":43.32486,"lon":5.36571,"is_reserved":false,"is_disabled":false,"rental_uris":{"android":"levelo://app?vid=8a5475e3-6fbf-4e9b-b650-accf3a939b49","ios":"levelo://app?vid=8a5475e3-6fbf-4e9b-b650-accf3a939b49"},"vehicle_type_id":"4","last_reported":1727431783,"current_range_meters":40000,"station_id":"ce4bhs12rcd13ifvqhvg","pricing_plan_id":"cebpf4jnsgd1na2vs0mg"},{"bike_id":"027699da-6e1a-43b1-ae68-183b1e03550f","system_id":"levelo_inurba_marseille","lat":43.28994,"lon":5.37593,"is_reserved":false,"is_disabled":false,"rental_uris":{"android":"levelo://app?vid=027699da-6e1a-43b1-ae68-183b1e03550f","ios":"levelo://app?vid=027699da-6e1a-43b1-ae68-183b1e03550f"},"vehicle_type_id":"4","last_reported":1727431783,"current_range_meters":34000,"station_id":"ce4bh692rcd13ifvqe90","pricing_plan_id":"cebpf4jnsgd1na2vs0mg"},{"bike_id":"7cac87a3-8f4e-483a-8d7a-7601b0c2f64f","system_id":"levelo_inurba_marseille","lat":43.24075,"lon":5.37759,"is_reserved":false,"is_disabled":false,"rental_uris":{"android":"levelo://app?vid=7cac87a3-8f4e-483a-8d7a-7601b0c2f64f","ios":"levelo://app?vid=7cac87a3-8f4e-483a-8d7a-7601b0c2f64f"},"vehicle_type_id":"4","last_reported":1727431783,"current_range_meters":38000,"station_id":"ce4bhnp2rcd13ifvqgvg","pricing_plan_id":"cebpf4jnsgd1na2vs0mg"},{"bike_id":"44f7bafc-ba85-4eca-9b98-85e86afcd36f","system_id":"levelo_inurba_marseille","lat":43.29587,"lon":5.37513,"is_reserved":false,"is_disabled":false,"rental_uris":{"android":"levelo://app?vid=44f7bafc-ba85-4eca-9b98-85e86afcd36f","ios":"levelo://app?vid=44f7bafc-ba85-4eca-9b98-85e86afcd36f"},"vehicle_type_id":"4","last_reported":1727431783,"current_range_meters":16800,"station_id":"ce4bgh92rcd13ifvqb50","pricing_plan_id":"cebpf4jnsgd1na2vs0mg"},{"bike_id":"b5eaa92b-cb1e-48d3-9a5d-2ef986c6a4f3","system_id":"levelo_inurba_marseille","lat":43.27176,"lon":5.40988,"is_reserved":false,"is_disabled":false,"rental_uris":{"android":"levelo://app?vid=b5eaa92b-cb1e-48d3-9a5d-2ef986c6a4f3","ios":"levelo://app?vid=b5eaa92b-cb1e-48d3-9a5d-2ef986c6a4f3"},"vehicle_type_id":"4","last_reported":1727431783,"current_range_meters":35200,"station_id":"ce4bhl12rcd13ifvqgf0","pricing_plan_id":"cebpf4jnsgd1na2vs0mg"},{"bike_id":"079eae73-c155-4655-a2a6-6306ceb09a5a","system_id":"levelo_inurba_marseille","lat":43.29841,"lon":5.36281,"is_reserved":false,"is_disabled":false,"rental_uris":{"android":"levelo://app?vid=079eae73-c155-4655-a2a6-6306ceb09a5a","ios":"levelo://app?vid=079eae73-c155-4655-a2a6-6306ceb09a5a"},"vehicle_type_id":"4","last_reported":1727431783,"current_range_meters":3200,"station_id":"ce4bgpp2rcd13ifvqc3g","pricing_plan_id":"cebpf4jnsgd1na2vs0mg"},{"bike_id":"97b3b6d5-9931-4944-b3cc-3d5977c1a977","system_id":"levelo_inurba_marseille","lat":43.3107,"lon":5.38354,"is_reserved":false,"is_disabled":false,"rental_uris":{"android":"levelo://app?vid=97b3b6d5-9931-4944-b3cc-3d5977c1a977","ios":"levelo://app?vid=97b3b6d5-9931-4944-b3cc-3d5977c1a977"},"vehicle_type_id":"4","last_reported":1727431783,"current_range_meters":16000,"station_id":"ce4bgv92rcd13ifvqcr0","pricing_plan_id":"cebpf4jnsgd1na2vs0mg"},{"bike_id":"7cc0438d-889c-458a-86fc-daa6eb95b88a","system_id":"levelo_inurba_marseille","lat":43.32478,"lon":5.36556,"is_reserved":false,"is_disabled":false,"rental_uris":{"android":"levelo://app?vid=7cc0438d-889c-458a-86fc-daa6eb95b88a","ios":"levelo://app?vid=7cc0438d-889c-458a-86fc-daa6eb95b88a"},"vehicle_type_id":"4","last_reported":1727431783,"current_range_meters":33600,"station_id":"ce4bhs12rcd13ifvqhvg","pricing_plan_id":"cebpf4jnsgd1na2vs0mg"},{"bike_id":"86f256a7-8096-4be3-af36-84191fc462f0","system_id":"levelo_inurba_marseille","lat":43.26953,"lon":5.3863,"is_reserved":false,"is_disabled":false,"rental_uris":{"android":"levelo://app?vid=86f256a7-8096-4be3-af36-84191fc462f0","ios":"levelo://app?vid=86f256a7-8096-4be3-af36-84191fc462f0"},"vehicle_type_id":"4","last_reported":1727431783,"current_range_meters":9600,"station_id":"ce4bhh92rcd13ifvqfh0","pricing_plan_id":"cebpf4jnsgd1na2vs0mg"},{"bike_id":"e6c0f65a-33be-415d-a1ea-248fe959262e","system_id":"levelo_inurba_marseille","lat":43.29618,"lon":5.37161,"is_reserved":false,"is_disabled":false,"rental_uris":{"android":"levelo://app?vid=e6c0f65a-33be-415d-a1ea-248fe959262e","ios":"levelo://app?vid=e6c0f65a-33be-415d-a1ea-248fe959262e"},"vehicle_type_id":"4","last_reported":1727431783,"current_range_meters":38800,"station_id":"ce4bgnh2rcd13ifvqc0g","pricing_plan_id":"cebpf4jnsgd1na2vs0mg"},{"bike_id":"acc73a6c-9246-491f-a928-d2a1e999ed3f","system_id":"levelo_inurba_marseille","lat":43.2586,"lon":5.39901,"is_reserved":false,"is_disabled":false,"rental_uris":{"android":"levelo://app?vid=acc73a6c-9246-491f-a928-d2a1e999ed3f","ios":"levelo://app?vid=acc73a6c-9246-491f-a928-d2a1e999ed3f"},"vehicle_type_id":"4","last_reported":1727431783,"current_range_meters":9600,"station_id":"ce4bhl92rcd13ifvqghg","pricing_plan_id":"cebpf4jnsgd1na2vs0mg"},{"bike_id":"b721e921-074f-403a-bad1-46bc383cd1ce","system_id":"levelo_inurba_marseille","lat":43.30429,"lon":5.37624,"is_reserved":false,"is_disabled":false,"rental_uris":{"android":"levelo://app?vid=b721e921-074f-403a-bad1-46bc383cd1ce","ios":"levelo://app?vid=b721e921-074f-403a-bad1-46bc383cd1ce"},"vehicle_type_id":"4","last_reported":1727431783,"current_range_meters":27600,"station_id":"","pricing_plan_id":"cebpf4jnsgd1na2vs0mg"},{"bike_id":"19d95d56-80d5-4269-9a88-39fdaf7c673c","system_id":"levelo_inurba_marseille","lat":43.24082,"lon":5.37748,"is_reserved":false,"is_disabled":false,"rental_uris":{"android":"levelo://app?vid=19d95d56-80d5-4269-9a88-39fdaf7c673c","ios":"levelo://app?vid=19d95d56-80d5-4269-9a88-39fdaf7c673c"},"vehicle_type_id":"4","last_reported":1727431783,"current_range_meters":28000,"station_id":"ce4bhnp2rcd13ifvqgvg","pricing_plan_id":"cebpf4jnsgd1na2vs0mg"},{"bike_id":"a0487013-f492-41a1-bf03-c1f4cd7b8c48","system_id":"levelo_inurba_marseille","lat":43.29008,"lon":5.35607,"is_reserved":false,"is_disabled":false,"rental_uris":{"android":"levelo://app?vid=a0487013-f492-41a1-bf03-c1f4cd7b8c48","ios":"levelo://app?vid=a0487013-f492-41a1-bf03-c1f4cd7b8c48"},"vehicle_type_id":"4","last_reported":1727431783,"current_range_meters":30000,"station_id":"ce4bhb92rcd13ifvqen0","pricing_plan_id":"cebpf4jnsgd1na2vs0mg"},{"bike_id":"37a3adab-d5a4-40be-963c-64b75fb764aa","system_id":"levelo_inurba_marseille","lat":43.30156,"lon":5.3808,"is_reserved":false,"is_disabled":false,"rental_uris":{"android":"levelo://app?vid=37a3adab-d5a4-40be-963c-64b75fb764aa","ios":"levelo://app?vid=37a3adab-d5a4-40be-963c-64b75fb764aa"},"vehicle_type_id":"4","last_reported":1727431783,"current_range_meters":27600,"station_id":"ce4bgjp2rcd13ifvqbh0","pricing_plan_id":"cebpf4jnsgd1na2vs0mg"},{"bike_id":"246a6eac-f816-4324-a4c5-3ecddf6b45fb","system_id":"levelo_inurba_marseille","lat":43.32533,"lon":5.41454,"is_reserved":false,"is_disabled":false,"rental_uris":{"android":"levelo://app?vid=246a6eac-f816-4324-a4c5-3ecddf6b45fb","ios":"levelo://app?vid=246a6eac-f816-4324-a4c5-3ecddf6b45fb"},"vehicle_type_id":"4","last_reported":1727431783,"current_range_meters":23200,"station_id":"ce4bhq12rcd13ifvqhhg","pricing_plan_id":"cebpf4jnsgd1na2vs0mg"},{"bike_id":"f244f90b-399e-4afd-a4ad-c99eb858a55e","system_id":"levelo_inurba_marseille","lat":43.3063,"lon":5.37256,"is_reserved":false,"is_disabled":false,"rental_uris":{"android":"levelo://app?vid=f244f90b-399e-4afd-a4ad-c99eb858a55e","ios":"levelo://app?vid=f244f90b-399e-4afd-a4ad-c99eb858a55e"},"vehicle_type_id":"4","last_reported":1727431783,"current_range_meters":36400,"station_id":"ce4bgqh2rcd13ifvqc4g","pricing_plan_id":"cebpf4jnsgd1na2vs0mg"},{"bike_id":"0079eec2-8e7b-49cd-9d17-2ee313aa92f8","system_id":"levelo_inurba_marseille","lat":43.27996,"lon":5.40007,"is_reserved":false,"is_disabled":false,"rental_uris":{"android":"levelo://app?vid=0079eec2-8e7b-49cd-9d17-2ee313aa92f8","ios":"levelo://app?vid=0079eec2-8e7b-49cd-9d17-2ee313aa92f8"},"vehicle_type_id":"4","last_reported":1727431783,"current_range_meters":32000,"station_id":"ce4bho92rcd13ifvqh4g","pricing_plan_id":"cebpf4jnsgd1na2vs0mg"},{"bike_id":"a31903f5-cb6f-4186-aeba-167b96a30b56","system_id":"levelo_inurba_marseille","lat":43.2694,"lon":5.38915,"is_reserved":false,"is_disabled":false,"rental_uris":{"android":"levelo://app?vid=a31903f5-cb6f-4186-aeba-167b96a30b56","ios":"levelo://app?vid=a31903f5-cb6f-4186-aeba-167b96a30b56"},"vehicle_type_id":"4","last_reported":1727431783,"current_range_meters":36400,"station_id":"ce4bhhh2rcd13ifvqfl0","pricing_plan_id":"cebpf4jnsgd1na2vs0mg"},{"bike_id":"7d187923-6629-4a06-bd67-979066577e39","system_id":"levelo_inurba_marseille","lat":43.25497,"lon":5.3765,"is_reserved":false,"is_disabled":false,"rental_uris":{"android":"levelo://app?vid=7d187923-6629-4a06-bd67-979066577e39","ios":"levelo://app?vid=7d187923-6629-4a06-bd67-979066577e39"},"vehicle_type_id":"4","last_reported":1727431783,"current_range_meters":38400,"station_id":"ce4bhh12rcd13ifvqff0","pricing_plan_id":"cebpf4jnsgd1na2vs0mg"},{"bike_id":"a7bca3df-0344-4204-86d7-b742d4769839","system_id":"levelo_inurba_marseille","lat":43.30863,"lon":5.3685,"is_reserved":false,"is_disabled":false,"rental_uris":{"android":"levelo://app?vid=a7bca3df-0344-4204-86d7-b742d4769839","ios":"levelo://app?vid=a7bca3df-0344-4204-86d7-b742d4769839"},"vehicle_type_id":"4","last_reported":1727431783,"current_range_meters":16800,"station_id":"ce4bgn92rcd13ifvqbvg","pricing_plan_id":"cebpf4jnsgd1na2vs0mg"},{"bike_id":"546a1bb6-ec80-485c-8b1e-bb866a56741e","system_id":"levelo_inurba_marseille","lat":43.33601,"lon":5.41017,"is_reserved":false,"is_disabled":false,"rental_uris":{"android":"levelo://app?vid=546a1bb6-ec80-485c-8b1e-bb866a56741e","ios":"levelo://app?vid=546a1bb6-ec80-485c-8b1e-bb866a56741e"},"vehicle_type_id":"4","last_reported":1727431783,"current_range_meters":20800,"station_id":"ce4bhqh2rcd13ifvqhmg","pricing_plan_id":"cebpf4jnsgd1na2vs0mg"},{"bike_id":"c812fd21-e132-41c6-8c4f-a85a6630f654","system_id":"levelo_inurba_marseille","lat":43.29582,"lon":5.37512,"is_reserved":false,"is_disabled":false,"rental_uris":{"android":"levelo://app?vid=c812fd21-e132-41c6-8c4f-a85a6630f654","ios":"levelo://app?vid=c812fd21-e132-41c6-8c4f-a85a6630f654"},"vehicle_type_id":"4","last_reported":1727431783,"current_range_meters":37600,"station_id":"ce4bgh92rcd13ifvqb50","pricing_plan_id":"cebpf4jnsgd1na2vs0mg"},{"bike_id":"0cdd23b4-5d33-44c4-96f5-e3055ce4951f","system_id":"levelo_inurba_marseille","lat":43.24388,"lon":5.37057,"is_reserved":false,"is_disabled":false,"rental_uris":{"android":"levelo://app?vid=0cdd23b4-5d33-44c4-96f5-e3055ce4951f","ios":"levelo://app?vid=0cdd23b4-5d33-44c4-96f5-e3055ce4951f"},"vehicle_type_id":"4","last_reported":1727431783,"current_range_meters":38000,"station_id":"ce4bhhh2rcd13ifvqfk0","pricing_plan_id":"cebpf4jnsgd1na2vs0mg"},{"bike_id":"6c29cb22-18ab-4102-b891-65bb94a1ca44","system_id":"levelo_inurba_marseille","lat":43.30535,"lon":5.3843,"is_reserved":false,"is_disabled":false,"rental_uris":{"android":"levelo://app?vid=6c29cb22-18ab-4102-b891-65bb94a1ca44","ios":"levelo://app?vid=6c29cb22-18ab-4102-b891-65bb94a1ca44"},"vehicle_type_id":"4","last_reported":1727431783,"current_range_meters":27200,"station_id":"ce4bgg92rcd13ifvqb30","pricing_plan_id":"cebpf4jnsgd1na2vs0mg"},{"bike_id":"f86e58ca-2eab-4c36-9203-cab642a140fc","system_id":"levelo_inurba_marseille","lat":43.30469,"lon":5.37908,"is_reserved":false,"is_disabled":false,"rental_uris":{"android":"levelo://app?vid=f86e58ca-2eab-4c36-9203-cab642a140fc","ios":"levelo://app?vid=f86e58ca-2eab-4c36-9203-cab642a140fc"},"vehicle_type_id":"4","last_reported":1727431783,"current_range_meters":40000,"station_id":"ce4bgup2rcd13ifvqcn0","pricing_plan_id":"cebpf4jnsgd1na2vs0mg"},{"bike_id":"c33c0e72-207a-4feb-bf77-0019b71c56cf","system_id":"levelo_inurba_marseille","lat":43.30548,"lon":5.36539,"is_reserved":false,"is_disabled":false,"rental_uris":{"android":"levelo://app?vid=c33c0e72-207a-4feb-bf77-0019b71c56cf","ios":"levelo://app?vid=c33c0e72-207a-4feb-bf77-0019b71c56cf"},"vehicle_type_id":"4","last_reported":1727431783,"current_range_meters":38800,"station_id":"ce4bgs12rcd13ifvqcag","pricing_plan_id":"cebpf4jnsgd1na2vs0mg"},{"bike_id":"3b0f75d7-b032-48e9-91b9-97f33bb9bc88","system_id":"levelo_inurba_marseille","lat":43.326623,"lon":5.409963,"is_reserved":false,"is_disabled":false,"rental_uris":{"android":"levelo://app?vid=3b0f75d7-b032-48e9-91b9-97f33bb9bc88","ios":"levelo://app?vid=3b0f75d7-b032-48e9-91b9-97f33bb9bc88"},"vehicle_type_id":"4","last_reported":1727431783,"current_range_meters":4000,"station_id":"ce4bhpp2rcd13ifvqhgg","pricing_plan_id":"cebpf4jnsgd1na2vs0mg"},{"bike_id":"f27d7da4-71be-4f13-a382-953a0f89230d","system_id":"levelo_inurba_marseille","lat":43.24806,"lon":5.37459,"is_reserved":false,"is_disabled":false,"rental_uris":{"android":"levelo://app?vid=f27d7da4-71be-4f13-a382-953a0f89230d","ios":"levelo://app?vid=f27d7da4-71be-4f13-a382-953a0f89230d"},"vehicle_type_id":"4","last_reported":1727431783,"current_range_meters":19600,"station_id":"ce4bhgh2rcd13ifvqfb0","pricing_plan_id":"cebpf4jnsgd1na2vs0mg"},{"bike_id":"acf48926-0d0e-45e6-96b9-00565031a1b5","system_id":"levelo_inurba_marseille","lat":43.28811,"lon":5.3636,"is_reserved":false,"is_disabled":false,"rental_uris":{"android":"levelo://app?vid=acf48926-0d0e-45e6-96b9-00565031a1b5","ios":"levelo://app?vid=acf48926-0d0e-45e6-96b9-00565031a1b5"},"vehicle_type_id":"4","last_reported":1727431783,"current_range_meters":36400,"station_id":"cki0cbj6b192h4jlfktg","pricing_plan_id":"cebpf4jnsgd1na2vs0mg"},{"bike_id":"cb0c5f3b-d106-4009-86f7-a06e25c48729","system_id":"levelo_inurba_marseille","lat":43.26685,"lon":5.38273,"is_reserved":false,"is_disabled":false,"rental_uris":{"android":"levelo://app?vid=cb0c5f3b-d106-4009-86f7-a06e25c48729","ios":"levelo://app?vid=cb0c5f3b-d106-4009-86f7-a06e25c48729"},"vehicle_type_id":"4","last_reported":1727431783,"current_range_meters":18000,"station_id":"ce4bhg92rcd13ifvqf90","pricing_plan_id":"cebpf4jnsgd1na2vs0mg"},{"bike_id":"4a4bfd88-bdfc-4802-b3a8-e798e4274727","system_id":"levelo_inurba_marseille","lat":43.32294,"lon":5.38267,"is_reserved":false,"is_disabled":false,"rental_uris":{"android":"levelo://app?vid=4a4bfd88-bdfc-4802-b3a8-e798e4274727","ios":"levelo://app?vid=4a4bfd88-bdfc-4802-b3a8-e798e4274727"},"vehicle_type_id":"4","last_reported":1727431783,"current_range_meters":18800,"station_id":"ce4bhr12rcd13ifvqhqg","pricing_plan_id":"cebpf4jnsgd1na2vs0mg"},{"bike_id":"ae90ba2a-63ce-4955-a33a-daceb115ab99","system_id":"levelo_inurba_marseille","lat":43.27947,"lon":5.41051,"is_reserved":false,"is_disabled":false,"rental_uris":{"android":"levelo://app?vid=ae90ba2a-63ce-4955-a33a-daceb115ab99","ios":"levelo://app?vid=ae90ba2a-63ce-4955-a33a-daceb115ab99"},"vehicle_type_id":"4","last_reported":1727431783,"current_range_meters":35200,"station_id":"ce4bhnp2rcd13ifvqh0g","pricing_plan_id":"cebpf4jnsgd1na2vs0mg"},{"bike_id":"8a0d9a1a-839f-47d7-bbb5-59157c7ef034","system_id":"levelo_inurba_marseille","lat":43.29895,"lon":5.43662,"is_reserved":false,"is_disabled":false,"rental_uris":{"android":"levelo://app?vid=8a0d9a1a-839f-47d7-bbb5-59157c7ef034","ios":"levelo://app?vid=8a0d9a1a-839f-47d7-bbb5-59157c7ef034"},"vehicle_type_id":"4","last_reported":1727431783,"current_range_meters":4800,"station_id":"ce4bhpp2rcd13ifvqhfg","pricing_plan_id":"cebpf4jnsgd1na2vs0mg"},{"bike_id":"182f6043-9d3b-4424-aec1-875d25d84c7a","system_id":"levelo_inurba_marseille","lat":43.29629,"lon":5.37162,"is_reserved":false,"is_disabled":false,"rental_uris":{"android":"levelo://app?vid=182f6043-9d3b-4424-aec1-875d25d84c7a","ios":"levelo://app?vid=182f6043-9d3b-4424-aec1-875d25d84c7a"},"vehicle_type_id":"4","last_reported":1727431783,"current_range_meters":24400,"station_id":"ce4bgnh2rcd13ifvqc0g","pricing_plan_id":"cebpf4jnsgd1na2vs0mg"},{"bike_id":"b8d4cfe5-fa00-4798-bb3b-a5cd96b0fee5","system_id":"levelo_inurba_marseille","lat":43.24214,"lon":5.3843,"is_reserved":false,"is_disabled":false,"rental_uris":{"android":"levelo://app?vid=b8d4cfe5-fa00-4798-bb3b-a5cd96b0fee5","ios":"levelo://app?vid=b8d4cfe5-fa00-4798-bb3b-a5cd96b0fee5"},"vehicle_type_id":"4","last_reported":1727431783,"current_range_meters":3200,"station_id":"","pricing_plan_id":"cebpf4jnsgd1na2vs0mg"},{"bike_id":"f013f297-ae65-4756-9660-efa090481ee3","system_id":"levelo_inurba_marseille","lat":43.306022,"lon":5.372289,"is_reserved":false,"is_disabled":false,"rental_uris":{"android":"levelo://app?vid=f013f297-ae65-4756-9660-efa090481ee3","ios":"levelo://app?vid=f013f297-ae65-4756-9660-efa090481ee3"},"vehicle_type_id":"4","last_reported":1727431783,"current_range_meters":27600,"station_id":"ce4bgqh2rcd13ifvqc4g","pricing_plan_id":"cebpf4jnsgd1na2vs0mg"},{"bike_id":"9a85af26-51f9-4ef7-ad9d-83a785042cfc","system_id":"levelo_inurba_marseille","lat":43.24174,"lon":5.39725,"is_reserved":false,"is_disabled":false,"rental_uris":{"android":"levelo://app?vid=9a85af26-51f9-4ef7-ad9d-83a785042cfc","ios":"levelo://app?vid=9a85af26-51f9-4ef7-ad9d-83a785042cfc"},"vehicle_type_id":"4","last_reported":1727431783,"current_range_meters":26800,"station_id":"ce4bhn12rcd13ifvqgpg","pricing_plan_id":"cebpf4jnsgd1na2vs0mg"},{"bike_id":"7a37813f-b090-4927-bed8-91ace2b5a0de","system_id":"levelo_inurba_marseille","lat":43.28612,"lon":5.3511,"is_reserved":false,"is_disabled":false,"rental_uris":{"android":"levelo://app?vid=7a37813f-b090-4927-bed8-91ace2b5a0de","ios":"levelo://app?vid=7a37813f-b090-4927-bed8-91ace2b5a0de"},"vehicle_type_id":"4","last_reported":1727431783,"current_range_meters":27600,"station_id":"ce4bhch2rcd13ifvqeug","pricing_plan_id":"cebpf4jnsgd1na2vs0mg"},{"bike_id":"f6a8a1c2-c7e6-4359-a864-953ba812b13b","system_id":"levelo_inurba_marseille","lat":43.30185,"lon":5.36614,"is_reserved":false,"is_disabled":false,"rental_uris":{"android":"levelo://app?vid=f6a8a1c2-c7e6-4359-a864-953ba812b13b","ios":"levelo://app?vid=f6a8a1c2-c7e6-4359-a864-953ba812b13b"},"vehicle_type_id":"4","last_reported":1727431783,"current_range_meters":38800,"station_id":"ce4bgrh2rcd13ifvqc8g","pricing_plan_id":"cebpf4jnsgd1na2vs0mg"},{"bike_id":"331e1389-1cfe-41f2-bec2-f34f7a69c148","system_id":"levelo_inurba_marseille","lat":43.297862,"lon":5.381086,"is_reserved":false,"is_disabled":false,"rental_uris":{"android":"levelo://app?vid=331e1389-1cfe-41f2-bec2-f34f7a69c148","ios":"levelo://app?vid=331e1389-1cfe-41f2-bec2-f34f7a69c148"},"vehicle_type_id":"4","last_reported":1727431783,"current_range_meters":6000,"station_id":"","pricing_plan_id":"cebpf4jnsgd1na2vs0mg"},{"bike_id":"3aef7862-326c-4996-a8bc-079c9f374adc","system_id":"levelo_inurba_marseille","lat":43.27066,"lon":5.42276,"is_reserved":false,"is_disabled":false,"rental_uris":{"android":"levelo://app?vid=3aef7862-326c-4996-a8bc-079c9f374adc","ios":"levelo://app?vid=3aef7862-326c-4996-a8bc-079c9f374adc"},"vehicle_type_id":"4","last_reported":1727431783,"current_range_meters":22800,"station_id":"ce4bhk92rcd13ifvqgb0","pricing_plan_id":"cebpf4jnsgd1na2vs0mg"},{"bike_id":"fbf59984-32a9-43ff-9ea3-7cd1e707c19c","system_id":"levelo_inurba_marseille","lat":43.23192,"lon":5.39994,"is_reserved":false,"is_disabled":false,"rental_uris":{"android":"levelo://app?vid=fbf59984-32a9-43ff-9ea3-7cd1e707c19c","ios":"levelo://app?vid=fbf59984-32a9-43ff-9ea3-7cd1e707c19c"},"vehicle_type_id":"4","last_reported":1727431783,"current_range_meters":21600,"station_id":"ce4bhn12rcd13ifvqgqg","pricing_plan_id":"cebpf4jnsgd1na2vs0mg"},{"bike_id":"aeb05550-f878-4143-be2c-115d32951d7a","system_id":"levelo_inurba_marseille","lat":43.23151,"lon":5.43704,"is_reserved":false,"is_disabled":false,"rental_uris":{"android":"levelo://app?vid=aeb05550-f878-4143-be2c-115d32951d7a","ios":"levelo://app?vid=aeb05550-f878-4143-be2c-115d32951d7a"},"vehicle_type_id":"4","last_reported":1727431783,"current_range_meters":38000,"station_id":"ce4bhmp2rcd13ifvqgog","pricing_plan_id":"cebpf4jnsgd1na2vs0mg"},{"bike_id":"cbed7d35-31a3-4777-95dd-7b4af024de4e","system_id":"levelo_inurba_marseille","lat":43.30602,"lon":5.37151,"is_reserved":false,"is_disabled":false,"rental_uris":{"android":"levelo://app?vid=cbed7d35-31a3-4777-95dd-7b4af024de4e","ios":"levelo://app?vid=cbed7d35-31a3-4777-95dd-7b4af024de4e"},"vehicle_type_id":"4","last_reported":1727431783,"current_range_meters":10800,"station_id":"","pricing_plan_id":"cebpf4jnsgd1na2vs0mg"},{"bike_id":"d39dd564-fa97-4ff8-a663-1e71434564ac","system_id":"levelo_inurba_marseille","lat":43.290068,"lon":5.356145,"is_reserved":false,"is_disabled":false,"rental_uris":{"android":"levelo://app?vid=d39dd564-fa97-4ff8-a663-1e71434564ac","ios":"levelo://app?vid=d39dd564-fa97-4ff8-a663-1e71434564ac"},"vehicle_type_id":"4","last_reported":1727431783,"current_range_meters":32400,"station_id":"ce4bgrh2rcd13ifvqc8g","pricing_plan_id":"cebpf4jnsgd1na2vs0mg"},{"bike_id":"a15937a1-145b-4e52-af37-7ae0831aa28a","system_id":"levelo_inurba_marseille","lat":43.30599,"lon":5.3724,"is_reserved":false,"is_disabled":false,"rental_uris":{"android":"levelo://app?vid=a15937a1-145b-4e52-af37-7ae0831aa28a","ios":"levelo://app?vid=a15937a1-145b-4e52-af37-7ae0831aa28a"},"vehicle_type_id":"4","last_reported":1727431783,"current_range_meters":6400,"station_id":"ce4bgqh2rcd13ifvqc4g","pricing_plan_id":"cebpf4jnsgd1na2vs0mg"},{"bike_id":"f40bf1fa-1f69-4f14-8be3-78cac1d0015b","system_id":"levelo_inurba_marseille","lat":43.30608,"lon":5.3724,"is_reserved":false,"is_disabled":false,"rental_uris":{"android":"levelo://app?vid=f40bf1fa-1f69-4f14-8be3-78cac1d0015b","ios":"levelo://app?vid=f40bf1fa-1f69-4f14-8be3-78cac1d0015b"},"vehicle_type_id":"4","last_reported":1727431783,"current_range_meters":39200,"station_id":"ce4bgqh2rcd13ifvqc4g","pricing_plan_id":"cebpf4jnsgd1na2vs0mg"},{"bike_id":"39911fe1-89e6-4a5d-9e87-fa1fa301e328","system_id":"levelo_inurba_marseille","lat":43.30305,"lon":5.392,"is_reserved":false,"is_disabled":false,"rental_uris":{"android":"levelo://app?vid=39911fe1-89e6-4a5d-9e87-fa1fa301e328","ios":"levelo://app?vid=39911fe1-89e6-4a5d-9e87-fa1fa301e328"},"vehicle_type_id":"4","last_reported":1727431783,"current_range_meters":39200,"station_id":"ce4bgkh2rcd13ifvqbk0","pricing_plan_id":"cebpf4jnsgd1na2vs0mg"},{"bike_id":"21ab7035-72bb-4098-8a6b-483b39dfae80","system_id":"levelo_inurba_marseille","lat":43.30534,"lon":5.36549,"is_reserved":false,"is_disabled":false,"rental_uris":{"android":"levelo://app?vid=21ab7035-72bb-4098-8a6b-483b39dfae80","ios":"levelo://app?vid=21ab7035-72bb-4098-8a6b-483b39dfae80"},"vehicle_type_id":"4","last_reported":1727431783,"current_range_meters":34000,"station_id":"ce4bgs12rcd13ifvqcag","pricing_plan_id":"cebpf4jnsgd1na2vs0mg"},{"bike_id":"0eb834e1-3994-4257-892b-fa024aaac9da","system_id":"levelo_inurba_marseille","lat":43.24081,"lon":5.37742,"is_reserved":false,"is_disabled":false,"rental_uris":{"android":"levelo://app?vid=0eb834e1-3994-4257-892b-fa024aaac9da","ios":"levelo://app?vid=0eb834e1-3994-4257-892b-fa024aaac9da"},"vehicle_type_id":"4","last_reported":1727431783,"current_range_meters":18000,"station_id":"ce4bhnp2rcd13ifvqgvg","pricing_plan_id":"cebpf4jnsgd1na2vs0mg"},{"bike_id":"10cd40b7-5439-4132-a96d-d869fb307201","system_id":"levelo_inurba_marseille","lat":43.2985,"lon":5.36283,"is_reserved":false,"is_disabled":false,"rental_uris":{"android":"levelo://app?vid=10cd40b7-5439-4132-a96d-d869fb307201","ios":"levelo://app?vid=10cd40b7-5439-4132-a96d-d869fb307201"},"vehicle_type_id":"4","last_reported":1727431783,"current_range_meters":24000,"station_id":"ce4bgpp2rcd13ifvqc3g","pricing_plan_id":"cebpf4jnsgd1na2vs0mg"},{"bike_id":"9cdaef94-e38f-427d-b9f2-943e92e40e41","system_id":"levelo_inurba_marseille","lat":43.25121,"lon":5.40315,"is_reserved":false,"is_disabled":false,"rental_uris":{"android":"levelo://app?vid=9cdaef94-e38f-427d-b9f2-943e92e40e41","ios":"levelo://app?vid=9cdaef94-e38f-427d-b9f2-943e92e40e41"},"vehicle_type_id":"4","last_reported":1727431783,"current_range_meters":33600,"station_id":"ce4bhlh2rcd13ifvqgig","pricing_plan_id":"cebpf4jnsgd1na2vs0mg"},{"bike_id":"5e3ea835-90c8-43bd-aeda-cd1344a5ef76","system_id":"levelo_inurba_marseille","lat":43.336,"lon":5.4103,"is_reserved":false,"is_disabled":false,"rental_uris":{"android":"levelo://app?vid=5e3ea835-90c8-43bd-aeda-cd1344a5ef76","ios":"levelo://app?vid=5e3ea835-90c8-43bd-aeda-cd1344a5ef76"},"vehicle_type_id":"4","last_reported":1727431783,"current_range_meters":28000,"station_id":"ce4bhqh2rcd13ifvqhmg","pricing_plan_id":"cebpf4jnsgd1na2vs0mg"},{"bike_id":"59280981-1711-4246-9e81-13626dcfd395","system_id":"levelo_inurba_marseille","lat":43.30426,"lon":5.397429,"is_reserved":false,"is_disabled":false,"rental_uris":{"android":"levelo://app?vid=59280981-1711-4246-9e81-13626dcfd395","ios":"levelo://app?vid=59280981-1711-4246-9e81-13626dcfd395"},"vehicle_type_id":"4","last_reported":1727431783,"current_range_meters":14800,"station_id":"ce4bh092rcd13ifvqd20","pricing_plan_id":"cebpf4jnsgd1na2vs0mg"},{"bike_id":"fb57c025-328c-4412-b8c8-acd31ec519bd","system_id":"levelo_inurba_marseille","lat":43.25847,"lon":5.38868,"is_reserved":false,"is_disabled":false,"rental_uris":{"android":"levelo://app?vid=fb57c025-328c-4412-b8c8-acd31ec519bd","ios":"levelo://app?vid=fb57c025-328c-4412-b8c8-acd31ec519bd"},"vehicle_type_id":"4","last_reported":1727431783,"current_range_meters":36800,"station_id":"","pricing_plan_id":"cebpf4jnsgd1na2vs0mg"},{"bike_id":"64890224-65bb-408f-aa02-1831266b7eb4","system_id":"levelo_inurba_marseille","lat":43.28609,"lon":5.37065,"is_reserved":false,"is_disabled":false,"rental_uris":{"android":"levelo://app?vid=64890224-65bb-408f-aa02-1831266b7eb4","ios":"levelo://app?vid=64890224-65bb-408f-aa02-1831266b7eb4"},"vehicle_type_id":"4","last_reported":1727431783,"current_range_meters":30000,"station_id":"ce4bht12rcd13ifvqi60","pricing_plan_id":"cebpf4jnsgd1na2vs0mg"},{"bike_id":"a479c700-b307-473e-96f3-96c83b3aee41","system_id":"levelo_inurba_marseille","lat":43.29509,"lon":5.37507,"is_reserved":false,"is_disabled":false,"rental_uris":{"android":"levelo://app?vid=a479c700-b307-473e-96f3-96c83b3aee41","ios":"levelo://app?vid=a479c700-b307-473e-96f3-96c83b3aee41"},"vehicle_type_id":"4","last_reported":1727431783,"current_range_meters":38400,"station_id":"ce4bgkp2rcd13ifvqbmg","pricing_plan_id":"cebpf4jnsgd1na2vs0mg"},{"bike_id":"6c1fda78-a27a-41ea-9d99-03a440f5f874","system_id":"levelo_inurba_marseille","lat":43.2306,"lon":5.3549,"is_reserved":false,"is_disabled":false,"rental_uris":{"android":"levelo://app?vid=6c1fda78-a27a-41ea-9d99-03a440f5f874","ios":"levelo://app?vid=6c1fda78-a27a-41ea-9d99-03a440f5f874"},"vehicle_type_id":"4","last_reported":1727431783,"current_range_meters":36800,"station_id":"cpo3342slgdg3j2ifvpg","pricing_plan_id":"cebpf4jnsgd1na2vs0mg"},{"bike_id":"b40a8231-2cb5-4b9f-97d2-940321ec1d75","system_id":"levelo_inurba_marseille","lat":43.29369,"lon":5.37851,"is_reserved":false,"is_disabled":false,"rental_uris":{"android":"levelo://app?vid=b40a8231-2cb5-4b9f-97d2-940321ec1d75","ios":"levelo://app?vid=b40a8231-2cb5-4b9f-97d2-940321ec1d75"},"vehicle_type_id":"4","last_reported":1727431783,"current_range_meters":35200,"station_id":"ce4bgjh2rcd13ifvqbf0","pricing_plan_id":"cebpf4jnsgd1na2vs0mg"},{"bike_id":"80fd4e84-4966-49f7-94ed-41cff5c14ac5","system_id":"levelo_inurba_marseille","lat":43.31496,"lon":5.37301,"is_reserved":false,"is_disabled":false,"rental_uris":{"android":"levelo://app?vid=80fd4e84-4966-49f7-94ed-41cff5c14ac5","ios":"levelo://app?vid=80fd4e84-4966-49f7-94ed-41cff5c14ac5"},"vehicle_type_id":"4","last_reported":1727431783,"current_range_meters":17600,"station_id":"ce4bgt12rcd13ifvqcd0","pricing_plan_id":"cebpf4jnsgd1na2vs0mg"},{"bike_id":"03bb3834-95d9-4e9a-b113-53ba0ae3b4b6","system_id":"levelo_inurba_marseille","lat":43.33611,"lon":5.41026,"is_reserved":false,"is_disabled":false,"rental_uris":{"android":"levelo://app?vid=03bb3834-95d9-4e9a-b113-53ba0ae3b4b6","ios":"levelo://app?vid=03bb3834-95d9-4e9a-b113-53ba0ae3b4b6"},"vehicle_type_id":"4","last_reported":1727431783,"current_range_meters":16800,"station_id":"ce4bhqh2rcd13ifvqhmg","pricing_plan_id":"cebpf4jnsgd1na2vs0mg"},{"bike_id":"951a4a31-f5bf-4298-9140-9b3fb7fd8545","system_id":"levelo_inurba_marseille","lat":43.2594,"lon":5.40894,"is_reserved":false,"is_disabled":false,"rental_uris":{"android":"levelo://app?vid=951a4a31-f5bf-4298-9140-9b3fb7fd8545","ios":"levelo://app?vid=951a4a31-f5bf-4298-9140-9b3fb7fd8545"},"vehicle_type_id":"4","last_reported":1727431783,"current_range_meters":11200,"station_id":"ce4bhm92rcd13ifvqglg","pricing_plan_id":"cebpf4jnsgd1na2vs0mg"},{"bike_id":"411a5b31-f7d4-4a24-a3e4-001d7b1dbac5","system_id":"levelo_inurba_marseille","lat":43.30151,"lon":5.38101,"is_reserved":false,"is_disabled":false,"rental_uris":{"android":"levelo://app?vid=411a5b31-f7d4-4a24-a3e4-001d7b1dbac5","ios":"levelo://app?vid=411a5b31-f7d4-4a24-a3e4-001d7b1dbac5"},"vehicle_type_id":"4","last_reported":1727431783,"current_range_meters":32000,"station_id":"ce4bgjp2rcd13ifvqbh0","pricing_plan_id":"cebpf4jnsgd1na2vs0mg"},{"bike_id":"52f23513-04f8-4899-b8b1-913e44384e99","system_id":"levelo_inurba_marseille","lat":43.29298,"lon":5.3746,"is_reserved":false,"is_disabled":false,"rental_uris":{"android":"levelo://app?vid=52f23513-04f8-4899-b8b1-913e44384e99","ios":"levelo://app?vid=52f23513-04f8-4899-b8b1-913e44384e99"},"vehicle_type_id":"4","last_reported":1727431783,"current_range_meters":39200,"station_id":"ce4bgi12rcd13ifvqb70","pricing_plan_id":"cebpf4jnsgd1na2vs0mg"},{"bike_id":"2b8e9fb2-2e0e-4e26-a7c9-a399103f5ab4","system_id":"levelo_inurba_marseille","lat":43.28463,"lon":5.35881,"is_reserved":false,"is_disabled":false,"rental_uris":{"android":"levelo://app?vid=2b8e9fb2-2e0e-4e26-a7c9-a399103f5ab4","ios":"levelo://app?vid=2b8e9fb2-2e0e-4e26-a7c9-a399103f5ab4"},"vehicle_type_id":"4","last_reported":1727431783,"current_range_meters":24800,"station_id":"ce4bhah2rcd13ifvqei0","pricing_plan_id":"cebpf4jnsgd1na2vs0mg"},{"bike_id":"b562c589-b2b4-4764-a405-e79a2be10688","system_id":"levelo_inurba_marseille","lat":43.30212,"lon":5.36623,"is_reserved":false,"is_disabled":false,"rental_uris":{"android":"levelo://app?vid=b562c589-b2b4-4764-a405-e79a2be10688","ios":"levelo://app?vid=b562c589-b2b4-4764-a405-e79a2be10688"},"vehicle_type_id":"4","last_reported":1727431783,"current_range_meters":38800,"station_id":"ce4bgrh2rcd13ifvqc8g","pricing_plan_id":"cebpf4jnsgd1na2vs0mg"},{"bike_id":"159fb419-bd1f-4938-bccd-1e9cb5a8c724","system_id":"levelo_inurba_marseille","lat":43.2466,"lon":5.38166,"is_reserved":false,"is_disabled":false,"rental_uris":{"android":"levelo://app?vid=159fb419-bd1f-4938-bccd-1e9cb5a8c724","ios":"levelo://app?vid=159fb419-bd1f-4938-bccd-1e9cb5a8c724"},"vehicle_type_id":"4","last_reported":1727431783,"current_range_meters":30000,"station_id":"ce4bhih2rcd13ifvqfr0","pricing_plan_id":"cebpf4jnsgd1na2vs0mg"},{"bike_id":"01d636ae-0609-4aa0-8b23-83aa195f7c87","system_id":"levelo_inurba_marseille","lat":43.25862,"lon":5.39905,"is_reserved":false,"is_disabled":false,"rental_uris":{"android":"levelo://app?vid=01d636ae-0609-4aa0-8b23-83aa195f7c87","ios":"levelo://app?vid=01d636ae-0609-4aa0-8b23-83aa195f7c87"},"vehicle_type_id":"4","last_reported":1727431783,"current_range_meters":38000,"station_id":"ce4bhl92rcd13ifvqghg","pricing_plan_id":"cebpf4jnsgd1na2vs0mg"},{"bike_id":"5c9770dd-ec21-4010-9090-68a5fca4bf86","system_id":"levelo_inurba_marseille","lat":43.29847,"lon":5.3628,"is_reserved":false,"is_disabled":false,"rental_uris":{"android":"levelo://app?vid=5c9770dd-ec21-4010-9090-68a5fca4bf86","ios":"levelo://app?vid=5c9770dd-ec21-4010-9090-68a5fca4bf86"},"vehicle_type_id":"4","last_reported":1727431783,"current_range_meters":28800,"station_id":"ce4bgpp2rcd13ifvqc3g","pricing_plan_id":"cebpf4jnsgd1na2vs0mg"},{"bike_id":"ae26ce62-d6ab-40ac-b95e-efbfa6ad066f","system_id":"levelo_inurba_marseille","lat":43.29583,"lon":5.37516,"is_reserved":false,"is_disabled":false,"rental_uris":{"android":"levelo://app?vid=ae26ce62-d6ab-40ac-b95e-efbfa6ad066f","ios":"levelo://app?vid=ae26ce62-d6ab-40ac-b95e-efbfa6ad066f"},"vehicle_type_id":"4","last_reported":1727431783,"current_range_meters":39200,"station_id":"ce4bgh92rcd13ifvqb50","pricing_plan_id":"cebpf4jnsgd1na2vs0mg"},