{"last_updated":1742753472,"ttl":60,"version":"2.2","data":{"bikes":[{"bike_id":"1b3b4f69-657e-4463-b7fb-c46c89f70c94","system_id":"levelo_inurba_marseille","lat":43.25456,"lon":5.38197,"is_reserved":false,"is_disabled":false,"rental_uris":{"android":"levelo://app?vid=1b3b4f69-657e-4463-b7fb-c46c89f70c94","ios":"levelo://app?vid=1b3b4f69-657e-4463-b7fb-c46c89f70c94"},"vehicle_type_id":"4","last_reported":1742753472,"current_range_meters":2800,"station_id":"","pricing_plan_id":"cebpf4jnsgd1na2vs0mg"},{"bike_id":"e3d69321-2a0b-420b-8aff-44a89610b13c","system_id":"levelo_inurba_marseille","lat":43.26821,"lon":5.39297,"is_reserved":false,"is_disabled":false,"rental_uris":{"android":"levelo://app?vid=e3d69321-2a0b-420b-8aff-44a89610b13c","ios":"levelo://app?vid=e3d69321-2a0b-420b-8aff-44a89610b13c"},"vehicle_type_id":"4","last_reported":1742753472,"current_range_meters":2800,"station_id":"ce4bhh12rcd13ifvqfg0","pricing_plan_id":"cebpf4jnsgd1na2vs0mg"},{"bike_id":"5e7a5bf0-535e-463c-ba2e-084afadd13de","system_id":"levelo_inurba_marseille","lat":43.30525,"lon":5.36735,"is_reserved":false,"is_disabled":true,"rental_uris":{"android":"levelo://app?vid=5e7a5bf0-535e-463c-ba2e-084afadd13de","ios":"levelo://app?vid=5e7a5bf0-535e-463c-ba2e-084afadd13de"},"vehicle_type_id":"4","last_reported":1742753472,"current_range_meters":2800,"station_id":"ce4bgrp2rcd13ifvqc9g","pricing_plan_id":"cebpf4jnsgd1na2vs0mg"},{"bike_id":"f843d388-802a-4764-be2a-686011490ff4","system_id":"levelo_inurba_marseille","lat":43.28441,"lon":5.39162,"is_reserved":false,"is_disabled":false,"rental_uris":{"android":"levelo://app?vid=f843d388-802a-4764-be2a-686011490ff4","ios":"levelo://app?vid=f843d388-802a-4764-be2a-686011490ff4"},"vehicle_type_id":"4","last_reported":1742753472,"current_range_meters":2800,"station_id":"ce4bhoh2rcd13ifvqh5g","pricing_plan_id":"cebpf4jnsgd1na2vs0mg"},{"bike_id":"a25d6041-e996-4e44-8b90-69c1cea5d3e6","system_id":"levelo_inurba_marseille","lat":43.30149,"lon":5.3743,"is_reserved":false,"is_disabled":false,"rental_uris":{"android":"levelo://app?vid=a25d6041-e996-4e44-8b90-69c1cea5d3e6","ios":"levelo://app?vid=a25d6041-e996-4e44-8b90-69c1cea5d3e6"},"vehicle_type_id":"4","last_reported":1742753472,"current_range_meters":3200,"station_id":"ce4bgs92rcd13ifvqcc0","pricing_plan_id":"cebpf4jnsgd1na2vs0mg"},{"bike_id":"0007fce5-562c-4dc0-afc3-21cf7828d9fe","system_id":"levelo_inurba_marseille","lat":43.30145,"lon":5.37422,"is_reserved":false,"is_disabled":false,"rental_uris":{"android":"levelo://app?vid=0007fce5-562c-4dc0-afc3-21cf7828d9fe","ios":"levelo://app?vid=0007fce5-562c-4dc0-afc3-21cf7828d9fe"},"vehicle_type_id":"4","last_reported":1742753472,"current_range_meters":3200,"station_id":"ce4bgs92rcd13ifvqcc0","pricing_plan_id":"cebpf4jnsgd1na2vs0mg"},{"bike_id":"f753c5ca-513a-4150-8fc4-30828c069f3a","system_id":"levelo_inurba_marseille","lat":43.30914,"lon":5.40181,"is_reserved":false,"is_disabled":false,"rental_uris":{"android":"levelo://app?vid=f753c5ca-513a-4150-8fc4-30828c069f3a","ios":"levelo://app?vid=f753c5ca-513a-4150-8fc4-30828c069f3a"},"vehicle_type_id":"4","last_reported":1742753472,"current_range_meters":3200,"station_id":"ce4bgvp2rcd13ifvqct0","pricing_plan_id":"cebpf4jnsgd1na2vs0mg"},{"bike_id":"3273f40d-d327-4a96-a10b-bb064e299908","system_id":"levelo_inurba_marseille","lat":43.33068,"lon":5.40825,"is_reserved":false,"is_disabled":false,"rental_uris":{"android":"levelo://app?vid=3273f40d-d327-4a96-a10b-bb064e299908","ios":"levelo://app?vid=3273f40d-d327-4a96-a10b-bb064e299908"},"vehicle_type_id":"4","last_reported":1742753472,"current_range_meters":3200,"station_id":"","pricing_plan_id":"cebpf4jnsgd1na2vs0mg"},{"bike_id":"5485cc78-0486-4586-9837-16b880c638d9","system_id":"levelo_inurba_marseille","lat":43.29312,"lon":5.37184,"is_reserved":false,"is_disabled":false,"rental_uris":{"android":"levelo://app?vid=5485cc78-0486-4586-9837-16b880c638d9","ios":"levelo://app?vid=5485cc78-0486-4586-9837-16b880c638d9"},"vehicle_type_id":"4","last_reported":1742753472,"current_range_meters":3600,"station_id":"ce4bgh92rcd13ifvqb40","pricing_plan_id":"cebpf4jnsgd1na2vs0mg"},{"bike_id":"46743844-f869-409c-a333-12b1cac67037","system_id":"levelo_inurba_marseille","lat":43.28346,"lon":5.38098,"is_reserved":false,"is_disabled":false,"rental_uris":{"android":"levelo://app?vid=46743844-f869-409c-a333-12b1cac67037","ios":"levelo://app?vid=46743844-f869-409c-a333-12b1cac67037"},"vehicle_type_id":"4","last_reported":1742753472,"current_range_meters":4000,"station_id":"ce4bh412rcd13ifvqdr0","pricing_plan_id":"cebpf4jnsgd1na2vs0mg"},{"bike_id":"3d9c3e4f-3d3b-4cb1-b9dc-46f4f0459c3f","system_id":"levelo_inurba_marseille","lat":43.25106,"lon":5.40322,"is_reserved":false,"is_disabled":false,"rental_uris":{"android":"levelo://app?vid=3d9c3e4f-3d3b-4cb1-b9dc-46f4f0459c3f","ios":"levelo://app?vid=3d9c3e4f-3d3b-4cb1-b9dc-46f4f0459c3f"},"vehicle_type_id":"4","last_reported":1742753472,"current_range_meters":4000,"station_id":"ce4bhlh2rcd13ifvqgig","pricing_plan_id":"cebpf4jnsgd1na2vs0mg"},{"bike_id":"fe427350-da5d-43ce-ad15-0a082373b2e2","system_id":"levelo_inurba_marseille","lat":43.29831,"lon":5.38086,"is_reserved":false,"is_disabled":false,"rental_uris":{"android":"levelo://app?vid=fe427350-da5d-43ce-ad15-0a082373b2e2","ios":"levelo://app?vid=fe427350-da5d-43ce-ad15-0a082373b2e2"},"vehicle_type_id":"4","last_reported":1742753472,"current_range_meters":4000,"station_id":"ce4bgip2rcd13ifvqbb0","pricing_plan_id":"cebpf4jnsgd1na2vs0mg"},{"bike_id":"fe239f3d-5c83-42bd-8b99-e0b3f3784fb5","system_id":"levelo_inurba_marseille","lat":43.24608,"lon":5.38414,"is_reserved":false,"is_disabled":false,"rental_uris":{"android":"levelo://app?vid=fe239f3d-5c83-42bd-8b99-e0b3f3784fb5","ios":"levelo://app?vid=fe239f3d-5c83-42bd-8b99-e0b3f3784fb5"},"vehicle_type_id":"4","last_reported":1742753472,"current_range_meters":4000,"station_id":"","pricing_plan_id":"cebpf4jnsgd1na2vs0mg"},{"bike_id":"5deb7fa1-05cb-4a05-ae26-18ccc1b53267","system_id":"levelo_inurba_marseille","lat":43.29262,"lon":5.38436,"is_reserved":false,"is_disabled":false,"rental_uris":{"android":"levelo://app?vid=5deb7fa1-05cb-4a05-ae26-18ccc1b53267","ios":"levelo://app?vid=5deb7fa1-05cb-4a05-ae26-18ccc1b53267"},"vehicle_type_id":"4","last_reported":1742753472,"current_range_meters":4400,"station_id":"ce4bh692rcd13ifvqea0","pricing_plan_id":"cebpf4jnsgd1na2vs0mg"},{"bike_id":"7d345e31-4c5a-4e2d-a1b1-55e94403c1e1","system_id":"levelo_inurba_marseille","lat":43.29798,"lon":5.39356,"is_reserved":false,"is_disabled":false,"rental_uris":{"android":"levelo://app?vid=7d345e31-4c5a-4e2d-a1b1-55e94403c1e1","ios":"levelo://app?vid=7d345e31-4c5a-4e2d-a1b1-55e94403c1e1"},"vehicle_type_id":"4","last_reported":1742753472,"current_range_meters":4400,"station_id":"chh1huq6cuj3fo74tm60","pricing_plan_id":"cebpf4jnsgd1na2vs0mg"},{"bike_id":"2781e85c-a73b-431f-a699-30d9451197fe","system_id":"levelo_inurba_marseille","lat":43.291962,"lon":5.375886,"is_reserved":false,"is_disabled":false,"rental_uris":{"android":"levelo://app?vid=2781e85c-a73b-431f-a699-30d9451197fe","ios":"levelo://app?vid=2781e85c-a73b-431f-a699-30d9451197fe"},"vehicle_type_id":"4","last_reported":1742753472,"current_range_meters":4400,"station_id":"ce4bgi92rcd13ifvqb90","pricing_plan_id":"cebpf4jnsgd1na2vs0mg"},{"bike_id":"ac889ad3-2e26-4ae5-9ba6-4fa04f0c5f81","system_id":"levelo_inurba_marseille","lat":43.24645,"lon":5.38906,"is_reserved":false,"is_disabled":false,"rental_uris":{"android":"levelo://app?vid=ac889ad3-2e26-4ae5-9ba6-4fa04f0c5f81","ios":"levelo://app?vid=ac889ad3-2e26-4ae5-9ba6-4fa04f0c5f81"},"vehicle_type_id":"4","last_reported":1742753472,"current_range_meters":4800,"station_id":"ce4bhg12rcd13ifvqf60","pricing_plan_id":"cebpf4jnsgd1na2vs0mg"},{"bike_id":"e22039fe-9930-4b79-8400-7d3a9b446c5b","system_id":"levelo_inurba_marseille","lat":43.32343,"lon":5.40621,"is_reserved":false,"is_disabled":false,"rental_uris":{"android":"levelo://app?vid=e22039fe-9930-4b79-8400-7d3a9b446c5b","ios":"levelo://app?vid=e22039fe-9930-4b79-8400-7d3a9b446c5b"},"vehicle_type_id":"4","last_reported":1742753472,"current_range_meters":4800,"station_id":"ce4bhq92rcd13ifvqhjg","pricing_plan_id":"cebpf4jnsgd1na2vs0mg"},{"bike_id":"23baa700-65b0-427f-a3e8-58c9dd5d9496","system_id":"levelo_inurba_marseille","lat":43.26565,"lon":5.39013,"is_reserved":false,"is_disabled":false,"rental_uris":{"android":"levelo://app?vid=23baa700-65b0-427f-a3e8-58c9dd5d9496","ios":"levelo://app?vid=23baa700-65b0-427f-a3e8-58c9dd5d9496"},"vehicle_type_id":"4","last_reported":1742753472,"current_range_meters":4800,"station_id":"ce4bhe12rcd13ifvqf30","pricing_plan_id":"cebpf4jnsgd1na2vs0mg"},{"bike_id":"b3b686e4-ef6b-4633-9df8-e4710566a5de","system_id":"levelo_inurba_marseille","lat":43.28851,"lon":5.39314,"is_reserved":false,"is_disabled":false,"rental_uris":{"android":"levelo://app?vid=b3b686e4-ef6b-4633-9df8-e4710566a5de","ios":"levelo://app?vid=b3b686e4-ef6b-4633-9df8-e4710566a5de"},"vehicle_type_id":"4","last_reported":1742753472,"current_range_meters":8400,"station_id":"","pricing_plan_id":"cebpf4jnsgd1na2vs0mg"},{"bike_id":"8ad105a0-41ec-42d9-ac44-bf0a19be1434","system_id":"levelo_inurba_marseille","lat":43.31715,"lon":5.4046,"is_reserved":false,"is_disabled":false,"rental_uris":{"android":"levelo://app?vid=8ad105a0-41ec-42d9-ac44-bf0a19be1434","ios":"levelo://app?vid=8ad105a0-41ec-42d9-ac44-bf0a19be1434"},"vehicle_type_id":"4","last_reported":1742753472,"current_range_meters":4800,"station_id":"ce4bh012rcd13ifvqd00","pricing_plan_id":"cebpf4jnsgd1na2vs0mg"},{"bike_id":"3bc17e9f-c28e-42ac-ab2f-a661d914a8b7","system_id":"levelo_inurba_marseille","lat":43.2508,"lon":5.39522,"is_reserved":false,"is_disabled":true,"rental_uris":{"android":"levelo://app?vid=3bc17e9f-c28e-42ac-ab2f-a661d914a8b7","ios":"levelo://app?vid=3bc17e9f-c28e-42ac-ab2f-a661d914a8b7"},"vehicle_type_id":"4","last_reported":1742753472,"current_range_meters":4800,"station_id":"ce4bhm12rcd13ifvqgkg","pricing_plan_id":"cebpf4jnsgd1na2vs0mg"},{"bike_id":"82cfc717-2b8e-45f4-863b-8f4e7d9d4514","system_id":"levelo_inurba_marseille","lat":43.26816,"lon":5.39416,"is_reserved":false,"is_disabled":false,"rental_uris":{"android":"levelo://app?vid=82cfc717-2b8e-45f4-863b-8f4e7d9d4514","ios":"levelo://app?vid=82cfc717-2b8e-45f4-863b-8f4e7d9d4514"},"vehicle_type_id":"4","last_reported":1742753472,"current_range_meters":4800,"station_id":"ce4bhh12rcd13ifvqfg0","pricing_plan_id":"cebpf4jnsgd1na2vs0mg"},{"bike_id":"99377dfd-44f5-43e1-96eb-b33924b15c3c","system_id":"levelo_inurba_marseille","lat":43.28371,"lon":5.38641,"is_reserved":false,"is_disabled":false,"rental_uris":{"android":"levelo://app?vid=99377dfd-44f5-43e1-96eb-b33924b15c3c","ios":"levelo://app?vid=99377dfd-44f5-43e1-96eb-b33924b15c3c"},"vehicle_type_id":"4","last_reported":1742753472,"current_range_meters":4800,"station_id":"ce4bh492rcd13ifvqdvg","pricing_plan_id":"cebpf4jnsgd1na2vs0mg"},{"bike_id":"32b1f59e-1db4-4375-ae78-764bde8f0b44","system_id":"levelo_inurba_marseille","lat":43.3248,"lon":5.36568,"is_reserved":false,"is_disabled":false,"rental_uris":{"android":"levelo://app?vid=32b1f59e-1db4-4375-ae78-764bde8f0b44","ios":"levelo://app?vid=32b1f59e-1db4-4375-ae78-764bde8f0b44"},"vehicle_type_id":"4","last_reported":1742753472,"current_range_meters":5600,"station_id":"ce4bhs12rcd13ifvqhvg","pricing_plan_id":"cebpf4jnsgd1na2vs0mg"},{"bike_id":"8713f9ae-90ea-4059-aff8-9f66e94b8fd4","system_id":"levelo_inurba_marseille","lat":43.30143,"lon":5.37412,"is_reserved":false,"is_disabled":false,"rental_uris":{"android":"levelo://app?vid=8713f9ae-90ea-4059-aff8-9f66e94b8fd4","ios":"levelo://app?vid=8713f9ae-90ea-4059-aff8-9f66e94b8fd4"},"vehicle_type_id":"4","last_reported":1742753472,"current_range_meters":5600,"station_id":"ce4bgs92rcd13ifvqcc0","pricing_plan_id":"cebpf4jnsgd1na2vs0mg"},{"bike_id":"498ac9d8-aa3b-44c4-afef-18089e78dd1d","system_id":"levelo_inurba_marseille","lat":43.295013,"lon":5.400713,"is_reserved":false,"is_disabled":false,"rental_uris":{"android":"levelo://app?vid=498ac9d8-aa3b-44c4-afef-18089e78dd1d","ios":"levelo://app?vid=498ac9d8-aa3b-44c4-afef-18089e78dd1d"},"vehicle_type_id":"4","last_reported":1742753472,"current_range_meters":5600,"station_id":"ce4bhjp2rcd13ifvqga0","pricing_plan_id":"cebpf4jnsgd1na2vs0mg"},{"bike_id":"cdf950a8-184a-4a77-b81c-94c38e94d157","system_id":"levelo_inurba_marseille","lat":43.29731,"lon":5.37674,"is_reserved":false,"is_disabled":true,"rental_uris":{"android":"levelo://app?vid=cdf950a8-184a-4a77-b81c-94c38e94d157","ios":"levelo://app?vid=cdf950a8-184a-4a77-b81c-94c38e94d157"},"vehicle_type_id":"4","last_reported":1742753472,"current_range_meters":5600,"station_id":"ce4bgkh2rcd13ifvqbl0","pricing_plan_id":"cebpf4jnsgd1na2vs0mg"},{"bike_id":"ab2df721-4c02-4276-8e5a-23800f6dd27d","system_id":"levelo_inurba_marseille","lat":43.2958,"lon":5.37509,"is_reserved":false,"is_disabled":false,"rental_uris":{"android":"levelo://app?vid=ab2df721-4c02-4276-8e5a-23800f6dd27d","ios":"levelo://app?vid=ab2df721-4c02-4276-8e5a-23800f6dd27d"},"vehicle_type_id":"4","last_reported":1742753472,"current_range_meters":5600,"station_id":"ce4bgh92rcd13ifvqb50","pricing_plan_id":"cebpf4jnsgd1na2vs0mg"},{"bike_id":"d8edcd8c-4f6a-4a41-b974-deb509bc067f","system_id":"levelo_inurba_marseille","lat":43.28616,"lon":5.35116,"is_reserved":false,"is_disabled":true,"rental_uris":{"android":"levelo://app?vid=d8edcd8c-4f6a-4a41-b974-deb509bc067f","ios":"levelo://app?vid=d8edcd8c-4f6a-4a41-b974-deb509bc067f"},"vehicle_type_id":"4","last_reported":1742753472,"current_range_meters":6000,"station_id":"ce4bhch2rcd13ifvqeug","pricing_plan_id":"cebpf4jnsgd1na2vs0mg"},{"bike_id":"affc0d8d-dd36-428d-a8ac-20865ac990b3","system_id":"levelo_inurba_marseille","lat":43.23969,"lon":5.36627,"is_reserved":false,"is_disabled":false,"rental_uris":{"android":"levelo://app?vid=affc0d8d-dd36-428d-a8ac-20865ac990b3","ios":"levelo://app?vid=affc0d8d-dd36-428d-a8ac-20865ac990b3"},"vehicle_type_id":"4","last_reported":1742753472,"current_range_meters":6000,"station_id":"ce4bhi12rcd13ifvqfp0","pricing_plan_id":"cebpf4jnsgd1na2vs0mg"},{"bike_id":"6aa80e4f-8a3d-419f-a17c-e17a85aa50a1","system_id":"levelo_inurba_marseille","lat":43.25477,"lon":5.37654,"is_reserved":false,"is_disabled":false,"rental_uris":{"android":"levelo://app?vid=6aa80e4f-8a3d-419f-a17c-e17a85aa50a1","ios":"levelo://app?vid=6aa80e4f-8a3d-419f-a17c-e17a85aa50a1"},"vehicle_type_id":"4","last_reported":1742753472,"current_range_meters":6000,"station_id":"ce4bhh12rcd13ifvqff0","pricing_plan_id":"cebpf4jnsgd1na2vs0mg"},{"bike_id":"ee865d35-9cd0-45c8-9dee-7185ba3fd133","system_id":"levelo_inurba_marseille","lat":43.2649,"lon":5.39568,"is_reserved":false,"is_disabled":false,"rental_uris":{"android":"levelo://app?vid=ee865d35-9cd0-45c8-9dee-7185ba3fd133","ios":"levelo://app?vid=ee865d35-9cd0-45c8-9dee-7185ba3fd133"},"vehicle_type_id":"4","last_reported":1742753472,"current_range_meters":6000,"station_id":"ce4bhi12rcd13ifvqfq0","pricing_plan_id":"cebpf4jnsgd1na2vs0mg"},{"bike_id":"485da989-350c-4eca-ad6f-f39ecf864d01","system_id":"levelo_inurba_marseille","lat":43.29911,"lon":5.38141,"is_reserved":false,"is_disabled":false,"rental_uris":{"android":"levelo://app?vid=485da989-350c-4eca-ad6f-f39ecf864d01","ios":"levelo://app?vid=485da989-350c-4eca-ad6f-f39ecf864d01"},"vehicle_type_id":"4","last_reported":1742753472,"current_range_meters":6000,"station_id":"ce4bgj12rcd13ifvqbc0","pricing_plan_id":"cebpf4jnsgd1na2vs0mg"},{"bike_id":"3c171e04-3b0d-4ad9-8ada-0182cca3c3a3","system_id":"levelo_inurba_marseille","lat":43.32482,"lon":5.36566,"is_reserved":false,"is_disabled":false,"rental_uris":{"android":"levelo://app?vid=3c171e04-3b0d-4ad9-8ada-0182cca3c3a3","ios":"levelo://app?vid=3c171e04-3b0d-4ad9-8ada-0182cca3c3a3"},"vehicle_type_id":"4","last_reported":1742753472,"current_range_meters":6000,"station_id":"ce4bhs12rcd13ifvqhvg","pricing_plan_id":"cebpf4jnsgd1na2vs0mg"},{"bike_id":"5a79d095-34a6-4b73-b152-1e70b8b81fa2","system_id":"levelo_inurba_marseille","lat":43.24538,"lon":5.39536,"is_reserved":false,"is_disabled":false,"rental_uris":{"android":"levelo://app?vid=5a79d095-34a6-4b73-b152-1e70b8b81fa2","ios":"levelo://app?vid=5a79d095-34a6-4b73-b152-1e70b8b81fa2"},"vehicle_type_id":"4","last_reported":1742753472,"current_range_meters":6400,"station_id":"ce4bhlp2rcd13ifvqgjg","pricing_plan_id":"cebpf4jnsgd1na2vs0mg"},{"bike_id":"a7905089-1e42-49b2-bd42-03f8876cfe2a","system_id":"levelo_inurba_marseille","lat":43.3036,"lon":5.42488,"is_reserved":false,"is_disabled":false,"rental_uris":{"android":"levelo://app?vid=a7905089-1e42-49b2-bd42-03f8876cfe2a","ios":"levelo://app?vid=a7905089-1e42-49b2-bd42-03f8876cfe2a"},"vehicle_type_id":"4","last_reported":1742753472,"current_range_meters":6400,"station_id":"ce4bhoh2rcd13ifvqh6g","pricing_plan_id":"cebpf4jnsgd1na2vs0mg"},{"bike_id":"46a24ee4-2008-468d-a93b-e5fe86858e55","system_id":"levelo_inurba_marseille","lat":43.26211,"lon":5.37937,"is_reserved":false,"is_disabled":false,"rental_uris":{"android":"levelo://app?vid=46a24ee4-2008-468d-a93b-e5fe86858e55","ios":"levelo://app?vid=46a24ee4-2008-468d-a93b-e5fe86858e55"},"vehicle_type_id":"4","last_reported":1742753472,"current_range_meters":6400,"station_id":"ce4bhjp2rcd13ifvqg90","pricing_plan_id":"cebpf4jnsgd1na2vs0mg"},{"bike_id":"77bcb388-fa63-4e4d-957c-8c59b5ca2bd2","system_id":"levelo_inurba_marseille","lat":43.318852,"lon":5.407274,"is_reserved":false,"is_disabled":false,"rental_uris":{"android":"levelo://app?vid=77bcb388-fa63-4e4d-957c-8c59b5ca2bd2","ios":"levelo://app?vid=77bcb388-fa63-4e4d-957c-8c59b5ca2bd2"},"vehicle_type_id":"4","last_reported":1742753472,"current_range_meters":6400,"station_id":"ce4bhq12rcd13ifvqhig","pricing_plan_id":"cebpf4jnsgd1na2vs0mg"},{"bike_id":"43eceb1e-f994-4b88-b023-5f7a0a135117","system_id":"levelo_inurba_marseille","lat":43.29305,"lon":5.37463,"is_reserved":false,"is_disabled":false,"rental_uris":{"android":"levelo://app?vid=43eceb1e-f994-4b88-b023-5f7a0a135117","ios":"levelo://app?vid=43eceb1e-f994-4b88-b023-5f7a0a135117"},"vehicle_type_id":"4","last_reported":1742753472,"current_range_meters":6400,"station_id":"ce4bgi12rcd13ifvqb70","pricing_plan_id":"cebpf4jnsgd1na2vs0mg"},{"bike_id":"c102df47-1a69-4d31-b8be-1bcca189eb57","system_id":"levelo_inurba_marseille","lat":43.31964,"lon":5.36942,"is_reserved":false,"is_disabled":false,"rental_uris":{"android":"levelo://app?vid=c102df47-1a69-4d31-b8be-1bcca189eb57","ios":"levelo://app?vid=c102df47-1a69-4d31-b8be-1bcca189eb57"},"vehicle_type_id":"4","last_reported":1742753472,"current_range_meters":6400,"station_id":"","pricing_plan_id":"cebpf4jnsgd1na2vs0mg"},{"bike_id":"27e69dc3-f489-40ab-9e43-a4775025f0c0","system_id":"levelo_inurba_marseille","lat":43.32558,"lon":5.41475,"is_reserved":false,"is_disabled":false,"rental_uris":{"android":"levelo://app?vid=27e69dc3-f489-40ab-9e43-a4775025f0c0","ios":"levelo://app?vid=27e69dc3-f489-40ab-9e43-a4775025f0c0"},"vehicle_type_id":"4","last_reported":1742753472,"current_range_meters":6400,"station_id":"ce4bhq12rcd13ifvqhhg","pricing_plan_id":"cebpf4jnsgd1na2vs0mg"},{"bike_id":"b1e36879-481f-4e0d-8cb0-3978de39857d","system_id":"levelo_inurba_marseille","lat":43.299,"lon":5.38136,"is_reserved":false,"is_disabled":false,"rental_uris":{"android":"levelo://app?vid=b1e36879-481f-4e0d-8cb0-3978de39857d","ios":"levelo://app?vid=b1e36879-481f-4e0d-8cb0-3978de39857d"},"vehicle_type_id":"4","last_reported":1742753472,"current_range_meters":6800,"station_id":"ce4bgj12rcd13ifvqbc0","pricing_plan_id":"cebpf4jnsgd1na2vs0mg"},{"bike_id":"f297ce99-d0be-4937-a124-3d43ddfc07f8","system_id":"levelo_inurba_marseille","lat":43.28703,"lon":5.37404,"is_reserved":false,"is_disabled":false,"rental_uris":{"android":"levelo://app?vid=f297ce99-d0be-4937-a124-3d43ddfc07f8","ios":"levelo://app?vid=f297ce99-d0be-4937-a124-3d43ddfc07f8"},"vehicle_type_id":"4","last_reported":1742753472,"current_range_meters":6800,"station_id":"ce4bh3p2rcd13ifvqdq0","pricing_plan_id":"cebpf4jnsgd1na2vs0mg"},{"bike_id":"5294bd6a-aa3c-4d73-8575-d8c48204a8f4","system_id":"levelo_inurba_marseille","lat":43.24648,"lon":5.38894,"is_reserved":false,"is_disabled":false,"rental_uris":{"android":"levelo://app?vid=5294bd6a-aa3c-4d73-8575-d8c48204a8f4","ios":"levelo://app?vid=5294bd6a-aa3c-4d73-8575-d8c48204a8f4"},"vehicle_type_id":"4","last_reported":1742753472,"current_range_meters":6800,"station_id":"ce4bhg12rcd13ifvqf60","pricing_plan_id":"cebpf4jnsgd1na2vs0mg"},{"bike_id":"1ab8da82-9a45-4a50-b57f-fab1d1595a6c","system_id":"levelo_inurba_marseille","lat":43.27315,"lon":5.39132,"is_reserved":false,"is_disabled":false,"rental_uris":{"android":"levelo://app?vid=1ab8da82-9a45-4a50-b57f-fab1d1595a6c","ios":"levelo://app?vid=1ab8da82-9a45-4a50-b57f-fab1d1595a6c"},"vehicle_type_id":"4","last_reported":1742753472,"current_range_meters":6800,"station_id":"ce4bhgp2rcd13ifvqfe0","pricing_plan_id":"cebpf4jnsgd1na2vs0mg"},{"bike_id":"85c637a4-8d12-4cd7-88c2-760ebfe72ffc","system_id":"levelo_inurba_marseille","lat":43.26193,"lon":5.37916,"is_reserved":false,"is_disabled":false,"rental_uris":{"android":"levelo://app?vid=85c637a4-8d12-4cd7-88c2-760ebfe72ffc","ios":"levelo://app?vid=85c637a4-8d12-4cd7-88c2-760ebfe72ffc"},"vehicle_type_id":"4","last_reported":1742753472,"current_range_meters":6800,"station_id":"ce4bhjp2rcd13ifvqg90","pricing_plan_id":"cebpf4jnsgd1na2vs0mg"},{"bike_id":"eb79c947-b60c-4d02-a3aa-85ecfb10ba45","system_id":"levelo_inurba_marseille","lat":43.292,"lon":5.39332,"is_reserved":false,"is_disabled":false,"rental_uris":{"android":"levelo://app?vid=eb79c947-b60c-4d02-a3aa-85ecfb10ba45","ios":"levelo://app?vid=eb79c947-b60c-4d02-a3aa-85ecfb10ba45"},"vehicle_type_id":"4","last_reported":1742753472,"current_range_meters":6800,"station_id":"ce4bh192rcd13ifvqdd0","pricing_plan_id":"cebpf4jnsgd1na2vs0mg"},{"bike_id":"4bbee01b-80b4-497e-86e8-8fce287c4265","system_id":"levelo_inurba_marseille","lat":43.26199,"lon":5.37938,"is_reserved":false,"is_disabled":false,"rental_uris":{"android":"levelo://app?vid=4bbee01b-80b4-497e-86e8-8fce287c4265","ios":"levelo://app?vid=4bbee01b-80b4-497e-86e8-8fce287c4265"},"vehicle_type_id":"4","last_reported":1742753472,"current_range_meters":6800,"station_id":"ce4bhjp2rcd13ifvqg90","pricing_plan_id":"cebpf4jnsgd1na2vs0mg"},{"bike_id":"81f2e770-83c2-40d7-bac2-a22b4efc821d","system_id":"levelo_inurba_marseille","lat":43.26217,"lon":5.40433,"is_reserved":false,"is_disabled":false,"rental_uris":{"android":"levelo://app?vid=81f2e770-83c2-40d7-bac2-a22b4efc821d","ios":"levelo://app?vid=81f2e770-83c2-40d7-bac2-a22b4efc821d"},"vehicle_type_id":"4","last_reported":1742753472,"current_range_meters":6800,"station_id":"ce4bhmh2rcd13ifvqgmg","pricing_plan_id":"cebpf4jnsgd1na2vs0mg"},{"bike_id":"ca7b5ff0-70ee-4826-b357-b50fdefd8b05","system_id":"levelo_inurba_marseille","lat":43.32369,"lon":5.38892,"is_reserved":false,"is_disabled":false,"rental_uris":{"android":"levelo://app?vid=ca7b5ff0-70ee-4826-b357-b50fdefd8b05","ios":"levelo://app?vid=ca7b5ff0-70ee-4826-b357-b50fdefd8b05"},"vehicle_type_id":"4","last_reported":1742753472,"current_range_meters":6800,"station_id":"ce4bhqp2rcd13ifvqhog","pricing_plan_id":"cebpf4jnsgd1na2vs0mg"},{"bike_id":"5d4cc92c-eafe-478c-8820-ef016b1e9d02","system_id":"levelo_inurba_marseille","lat":43.29899,"lon":5.43663,"is_reserved":false,"is_disabled":false,"rental_uris":{"android":"levelo://app?vid=5d4cc92c-eafe-478c-8820-ef016b1e9d02","ios":"levelo://app?vid=5d4cc92c-eafe-478c-8820-ef016b1e9d02"},"vehicle_type_id":"4","last_reported":1742753472,"current_range_meters":6800,"station_id":"ce4bhpp2rcd13ifvqhfg","pricing_plan_id":"cebpf4jnsgd1na2vs0mg"},{"bike_id":"76a73682-e507-4679-ae6f-2820ae7d19f0","system_id":"levelo_inurba_marseille","lat":43.31711,"lon":5.40465,"is_reserved":false,"is_disabled":false,"rental_uris":{"android":"levelo://app?vid=76a73682-e507-4679-ae6f-2820ae7d19f0","ios":"levelo://app?vid=76a73682-e507-4679-ae6f-2820ae7d19f0"},"vehicle_type_id":"4","last_reported":1742753472,"current_range_meters":6800,"station_id":"ce4bh012rcd13ifvqd00","pricing_plan_id":"cebpf4jnsgd1na2vs0mg"},{"bike_id":"014cf003-1505-49cd-ba72-06250a2191ab","system_id":"levelo_inurba_marseille","lat":43.2305,"lon":5.35505,"is_reserved":false,"is_disabled":false,"rental_uris":{"android":"levelo://app?vid=014cf003-1505-49cd-ba72-06250a2191ab","ios":"levelo://app?vid=014cf003-1505-49cd-ba72-06250a2191ab"},"vehicle_type_id":"4","last_reported":1742753472,"current_range_meters":6800,"station_id":"cpo3342slgdg3j2ifvpg","pricing_plan_id":"cebpf4jnsgd1na2vs0mg"},{"bike_id":"8b373d40-9f05-4cac-be50-8567acf63c84","system_id":"levelo_inurba_marseille","lat":43.2927,"lon":5.36855,"is_reserved":false,"is_disabled":false,"rental_uris":{"android":"levelo://app?vid=8b373d40-9f05-4cac-be50-8567acf63c84","ios":"levelo://app?vid=8b373d40-9f05-4cac-be50-8567acf63c84"},"vehicle_type_id":"4","last_reported":1742753472,"current_range_meters":6800,"station_id":"ce4bhbp2rcd13ifvqesg","pricing_plan_id":"cebpf4jnsgd1na2vs0mg"},{"bike_id":"bfafc1ac-72f5-49ad-b72f-6f62a3d5f50c","system_id":"levelo_inurba_marseille","lat":43.300707,"lon":5.38391,"is_reserved":false,"is_disabled":false,"rental_uris":{"android":"levelo://app?vid=bfafc1ac-72f5-49ad-b72f-6f62a3d5f50c","ios":"levelo://app?vid=bfafc1ac-72f5-49ad-b72f-6f62a3d5f50c"},"vehicle_type_id":"4","last_reported":1742753472,"current_range_meters":6800,"station_id":"ce4bgj92rcd13ifvqbd0","pricing_plan_id":"cebpf4jnsgd1na2vs0mg"},{"bike_id":"1df0b3b2-8b10-4d59-a49f-c6ab72341a39","system_id":"levelo_inurba_marseille","lat":43.23087,"lon":5.3553,"is_reserved":false,"is_disabled":false,"rental_uris":{"android":"levelo://app?vid=1df0b3b2-8b10-4d59-a49f-c6ab72341a39","ios":"levelo://app?vid=1df0b3b2-8b10-4d59-a49f-c6ab72341a39"},"vehicle_type_id":"4","last_reported":1742753472,"current_range_meters":6800,"station_id":"cpo3342slgdg3j2ifvpg","pricing_plan_id":"cebpf4jnsgd1na2vs0mg"},{"bike_id":"e56a3d33-0582-4293-892b-cdc36c750052","system_id":"levelo_inurba_marseille","lat":43.31372,"lon":5.38489,"is_reserved":false,"is_disabled":false,"rental_uris":{"android":"levelo://app?vid=e56a3d33-0582-4293-892b-cdc36c750052","ios":"levelo://app?vid=e56a3d33-0582-4293-892b-cdc36c750052"},"vehicle_type_id":"4","last_reported":1742753472,"current_range_meters":6800,"station_id":"ce4bgt92rcd13ifvqcf0","pricing_plan_id":"cebpf4jnsgd1na2vs0mg"},{"bike_id":"768ca5e6-f1bb-42f2-ac3f-2632b474747d","system_id":"levelo_inurba_marseille","lat":43.25831,"lon":5.39452,"is_reserved":false,"is_disabled":false,"rental_uris":{"android":"levelo://app?vid=768ca5e6-f1bb-42f2-ac3f-2632b474747d","ios":"levelo://app?vid=768ca5e6-f1bb-42f2-ac3f-2632b474747d"},"vehicle_type_id":"4","last_reported":1742753472,"current_range_meters":6800,"station_id":"ce4bhip2rcd13ifvqft0","pricing_plan_id":"cebpf4jnsgd1na2vs0mg"},{"bike_id":"7d101eb3-689d-4e64-990d-9c03a418b4e3","system_id":"levelo_inurba_marseille","lat":43.31323,"lon":5.39692,"is_reserved":false,"is_disabled":false,"rental_uris":{"android":"levelo://app?vid=7d101eb3-689d-4e64-990d-9c03a418b4e3","ios":"levelo://app?vid=7d101eb3-689d-4e64-990d-9c03a418b4e3"},"vehicle_type_id":"4","last_reported":1742753472,"current_range_meters":7200,"station_id":"ce4bgvp2rcd13ifvqcu0","pricing_plan_id":"cebpf4jnsgd1na2vs0mg"},{"bike_id":"3f3f99da-6673-441e-a5b3-6857219a400e","system_id":"levelo_inurba_marseille","lat":43.25016,"lon":5.38921,"is_reserved":false,"is_disabled":false,"rental_uris":{"android":"levelo://app?vid=3f3f99da-6673-441e-a5b3-6857219a400e","ios":"levelo://app?vid=3f3f99da-6673-441e-a5b3-6857219a400e"},"vehicle_type_id":"4","last_reported":1742753472,"current_range_meters":7200,"station_id":"ce4bhgp2rcd13ifvqfd0","pricing_plan_id":"cebpf4jnsgd1na2vs0mg"},{"bike_id":"8ed1ac19-a2dd-4532-af16-423d1df5a6d4","system_id":"levelo_inurba_marseille","lat":43.23121,"lon":5.41376,"is_reserved":false,"is_disabled":false,"rental_uris":{"android":"levelo://app?vid=8ed1ac19-a2dd-4532-af16-423d1df5a6d4","ios":"levelo://app?vid=8ed1ac19-a2dd-4532-af16-423d1df5a6d4"},"vehicle_type_id":"4","last_reported":1742753472,"current_range_meters":7200,"station_id":"","pricing_plan_id":"cebpf4jnsgd1na2vs0mg"},{"bike_id":"f52f1403-e5ef-4f15-816b-2ba1cd83754e","system_id":"levelo_inurba_marseille","lat":43.32624,"lon":5.36377,"is_reserved":false,"is_disabled":false,"rental_uris":{"android":"levelo://app?vid=f52f1403-e5ef-4f15-816b-2ba1cd83754e","ios":"levelo://app?vid=f52f1403-e5ef-4f15-816b-2ba1cd83754e"},"vehicle_type_id":"4","last_reported":1742753472,"current_range_meters":7200,"station_id":"","pricing_plan_id":"cebpf4jnsgd1na2vs0mg"},{"bike_id":"1db98baf-7e31-48e3-8a8a-dcfedb9e5490","system_id":"levelo_inurba_marseille","lat":43.23189,"lon":5.39984,"is_reserved":false,"is_disabled":false,"rental_uris":{"android":"levelo://app?vid=1db98baf-7e31-48e3-8a8a-dcfedb9e5490","ios":"levelo://app?vid=1db98baf-7e31-48e3-8a8a-dcfedb9e5490"},"vehicle_type_id":"4","last_reported":1742753472,"current_range_meters":8000,"station_id":"ce4bhn12rcd13ifvqgqg","pricing_plan_id":"cebpf4jnsgd1na2vs0mg"},{"bike_id":"f085f268-092b-40fd-a36c-bcabd9c6a529","system_id":"levelo_inurba_marseille","lat":43.30148,"lon":5.39878,"is_reserved":false,"is_disabled":false,"rental_uris":{"android":"levelo://app?vid=f085f268-092b-40fd-a36c-bcabd9c6a529","ios":"levelo://app?vid=f085f268-092b-40fd-a36c-bcabd9c6a529"},"vehicle_type_id":"4","last_reported":1742753472,"current_range_meters":8000,"station_id":"ce4bh0h2rcd13ifvqd40","pricing_plan_id":"cebpf4jnsgd1na2vs0mg"},{"bike_id":"72503a27-a949-4a46-b139-c44d4f416a58","system_id":"levelo_inurba_marseille","lat":43.23188,"lon":5.35557,"is_reserved":false,"is_disabled":false,"rental_uris":{"android":"levelo://app?vid=72503a27-a949-4a46-b139-c44d4f416a58","ios":"levelo://app?vid=72503a27-a949-4a46-b139-c44d4f416a58"},"vehicle_type_id":"4","last_reported":1742753472,"current_range_meters":8000,"station_id":"ce4bhu92rcd13ifvqi70","pricing_plan_id":"cebpf4jnsgd1na2vs0mg"},{"bike_id":"42dac74d-cb0b-441e-84af-c9fc6427c0c9","system_id":"levelo_inurba_marseille","lat":43.27953,"lon":5.38674,"is_reserved":false,"is_disabled":false,"rental_uris":{"android":"levelo://app?vid=42dac74d-cb0b-441e-84af-c9fc6427c0c9","ios":"levelo://app?vid=42dac74d-cb0b-441e-84af-c9fc6427c0c9"},"vehicle_type_id":"4","last_reported":1742753472,"current_range_meters":8000,"station_id":"ce4bhg12rcd13ifvqf80","pricing_plan_id":"cebpf4jnsgd1na2vs0mg"},{"bike_id":"ea375b77-5265-4f10-98eb-8a594992fa8c","system_id":"levelo_inurba_marseille","lat":43.23033,"lon":5.35504,"is_reserved":false,"is_disabled":false,"rental_uris":{"android":"levelo://app?vid=ea375b77-5265-4f10-98eb-8a594992fa8c","ios":"levelo://app?vid=ea375b77-5265-4f10-98eb-8a594992fa8c"},"vehicle_type_id":"4","last_reported":1742753472,"current_range_meters":8000,"station_id":"cpo3342slgdg3j2ifvpg","pricing_plan_id":"cebpf4jnsgd1na2vs0mg"},{"bike_id":"23aae21a-1ee8-4544-a323-476ec541691a","system_id":"levelo_inurba_marseille","lat":43.231882,"lon":5.39984,"is_reserved":false,"is_disabled":false,"rental_uris":{"android":"levelo://app?vid=23aae21a-1ee8-4544-a323-476ec541691a","ios":"levelo://app?vid=23aae21a-1ee8-4544-a323-476ec541691a"},"vehicle_type_id":"4","last_reported":1742753472,"current_range_meters":8000,"station_id":"ce4bhn12rcd13ifvqgqg","pricing_plan_id":"cebpf4jnsgd1na2vs0mg"},{"bike_id":"965ebdeb-c027-49a3-aa13-989ec399c57b","system_id":"levelo_inurba_marseille","lat":43.29007,"lon":5.38627,"is_reserved":false,"is_disabled":false,"rental_uris":{"android":"levelo://app?vid=965ebdeb-c027-49a3-aa13-989ec399c57b","ios":"levelo://app?vid=965ebdeb-c027-49a3-aa13-989ec399c57b"},"vehicle_type_id":"4","last_reported":1742753472,"current_range_meters":8000,"station_id":"ce4bh4p2rcd13ifvqe0g","pricing_plan_id":"cebpf4jnsgd1na2vs0mg"},{"bike_id":"83d4f7a3-9b98-49e0-a20c-492cb63ffab8","system_id":"levelo_inurba_marseille","lat":43.26223,"lon":5.40454,"is_reserved":false,"is_disabled":false,"rental_uris":{"android":"levelo://app?vid=83d4f7a3-9b98-49e0-a20c-492cb63ffab8","ios":"levelo://app?vid=83d4f7a3-9b98-49e0-a20c-492cb63ffab8"},"vehicle_type_id":"4","last_reported":1742753472,"current_range_meters":8000,"station_id":"ce4bhmh2rcd13ifvqgmg","pricing_plan_id":"cebpf4jnsgd1na2vs0mg"},{"bike_id":"7a2bfb8b-6c0f-4ce6-8daa-3a5e663ad3cf","system_id":"levelo_inurba_marseille","lat":43.31746,"lon":5.39037,"is_reserved":false,"is_disabled":false,"rental_uris":{"android":"levelo://app?vid=7a2bfb8b-6c0f-4ce6-8daa-3a5e663ad3cf","ios":"levelo://app?vid=7a2bfb8b-6c0f-4ce6-8daa-3a5e663ad3cf"},"vehicle_type_id":"4","last_reported":1742753472,"current_range_meters":8000,"station_id":"ce4bhqp2rcd13ifvqhng","pricing_plan_id":"cebpf4jnsgd1na2vs0mg"},{"bike_id":"5de93a4e-8597-44d3-b79a-a868c09960fb","system_id":"levelo_inurba_marseille","lat":43.26194,"lon":5.37459,"is_reserved":false,"is_disabled":true,"rental_uris":{"android":"levelo://app?vid=5de93a4e-8597-44d3-b79a-a868c09960fb","ios":"levelo://app?vid=5de93a4e-8597-44d3-b79a-a868c09960fb"},"vehicle_type_id":"4","last_reported":1742753472,"current_range_meters":8000,"station_id":"ce4bhgp2rcd13ifvqfc0","pricing_plan_id":"cebpf4jnsgd1na2vs0mg"},{"bike_id":"72123cf2-9d2b-41b8-9bee-4f35b0be3549","system_id":"levelo_inurba_marseille","lat":43.23053,"lon":5.35501,"is_reserved":false,"is_disabled":true,"rental_uris":{"android":"levelo://app?vid=72123cf2-9d2b-41b8-9bee-4f35b0be3549","ios":"levelo://app?vid=72123cf2-9d2b-41b8-9bee-4f35b0be3549"},"vehicle_type_id":"4","last_reported":1742753472,"current_range_meters":8000,"station_id":"cpo3342slgdg3j2ifvpg","pricing_plan_id":"cebpf4jnsgd1na2vs0mg"},{"bike_id":"65b84453-2ebb-466f-aa59-9e0dd1fa6abb","system_id":"levelo_inurba_marseille","lat":43.26562,"lon":5.39039,"is_reserved":false,"is_disabled":false,"rental_uris":{"android":"levelo://app?vid=65b84453-2ebb-466f-aa59-9e0dd1fa6abb","ios":"levelo://app?vid=65b84453-2ebb-466f-aa59-9e0dd1fa6abb"},"vehicle_type_id":"4","last_reported":1742753472,"current_range_meters":8000,"station_id":"ce4bhe12rcd13ifvqf30","pricing_plan_id":"cebpf4jnsgd1na2vs0mg"},{"bike_id":"97b13862-64cd-49d1-b4f1-989a03a88f74","system_id":"levelo_inurba_marseille","lat":43.27975,"lon":5.38763,"is_reserved":false,"is_disabled":false,"rental_uris":{"android":"levelo://app?vid=97b13862-64cd-49d1-b4f1-989a03a88f74","ios":"levelo://app?vid=97b13862-64cd-49d1-b4f1-989a03a88f74"},"vehicle_type_id":"4","last_reported":1742753472,"current_range_meters":8000,"station_id":"ce4bhg12rcd13ifvqf80","pricing_plan_id":"cebpf4jnsgd1na2vs0mg"},{"bike_id":"83dc8c3b-0ab2-4e1d-a457-d96e2da2b897","system_id":"levelo_inurba_marseille","lat":43.28413,"lon":5.37503,"is_reserved":false,"is_disabled":false,"rental_uris":{"android":"levelo://app?vid=83dc8c3b-0ab2-4e1d-a457-d96e2da2b897","ios":"levelo://app?vid=83dc8c3b-0ab2-4e1d-a457-d96e2da2b897"},"vehicle_type_id":"4","last_reported":1742753472,"current_range_meters":8000,"station_id":"ce4bh412rcd13ifvqds0","pricing_plan_id":"cebpf4jnsgd1na2vs0mg"},{"bike_id":"d7b53f50-9646-4e4b-a511-e3c26017cd7d","system_id":"levelo_inurba_marseille","lat":43.29784,"lon":5.37107,"is_reserved":false,"is_disabled":false,"rental_uris":{"android":"levelo://app?vid=d7b53f50-9646-4e4b-a511-e3c26017cd7d","ios":"levelo://app?vid=d7b53f50-9646-4e4b-a511-e3c26017cd7d"},"vehicle_type_id":"4","last_reported":1742753472,"current_range_meters":8400,"station_id":"ce4bgop2rcd13ifvqc1g","pricing_plan_id":"cebpf4jnsgd1na2vs0mg"},{"bike_id":"f82d61b6-a985-4cdd-af91-32f19ae82d4c","system_id":"levelo_inurba_marseille","lat":43.26227,"lon":5.37446,"is_reserved":false,"is_disabled":false,"rental_uris":{"android":"levelo://app?vid=f82d61b6-a985-4cdd-af91-32f19ae82d4c","ios":"levelo://app?vid=f82d61b6-a985-4cdd-af91-32f19ae82d4c"},"vehicle_type_id":"4","last_reported":1742753472,"current_range_meters":8400,"station_id":"","pricing_plan_id":"cebpf4jnsgd1na2vs0mg"},{"bike_id":"4569a8b0-2a16-4be6-9b3e-675606c6ee46","system_id":"levelo_inurba_marseille","lat":43.29273,"lon":5.36836,"is_reserved":false,"is_disabled":false,"rental_uris":{"android":"levelo://app?vid=4569a8b0-2a16-4be6-9b3e-675606c6ee46","ios":"levelo://app?vid=4569a8b0-2a16-4be6-9b3e-675606c6ee46"},"vehicle_type_id":"4","last_reported":1742753472,"current_range_meters":8400,"station_id":"ce4bhbp2rcd13ifvqesg","pricing_plan_id":"cebpf4jnsgd1na2vs0mg"},{"bike_id":"a7a9d68a-b527-472d-b45c-c1363e8def55","system_id":"levelo_inurba_marseille","lat":43.26224,"lon":5.3743,"is_reserved":false,"is_disabled":true,"rental_uris":{"android":"levelo://app?vid=a7a9d68a-b527-472d-b45c-c1363e8def55","ios":"levelo://app?vid=a7a9d68a-b527-472d-b45c-c1363e8def55"},"vehicle_type_id":"4","last_reported":1742753472,"current_range_meters":8400,"station_id":"ce4bhgp2rcd13ifvqfc0","pricing_plan_id":"cebpf4jnsgd1na2vs0mg"},{"bike_id":"787fb028-74e3-4ece-a600-b719e0014a09","system_id":"levelo_inurba_marseille","lat":43.24669,"lon":5.38155,"is_reserved":false,"is_disabled":false,"rental_uris":{"android":"levelo://app?vid=787fb028-74e3-4ece-a600-b719e0014a09","ios":"levelo://app?vid=787fb028-74e3-4ece-a600-b719e0014a09"},"vehicle_type_id":"4","last_reported":1742753472,"current_range_meters":8400,"station_id":"ce4bhih2rcd13ifvqfr0","pricing_plan_id":"cebpf4jnsgd1na2vs0mg"},{"bike_id":"afe267cc-ea32-4afd-aea0-5930e2b40abe","system_id":"levelo_inurba_marseille","lat":43.29277,"lon":5.36849,"is_reserved":false,"is_disabled":false,"rental_uris":{"android":"levelo://app?vid=afe267cc-ea32-4afd-aea0-5930e2b40abe","ios":"levelo://app?vid=afe267cc-ea32-4afd-aea0-5930e2b40abe"},"vehicle_type_id":"4","last_reported":1742753472,"current_range_meters":8400,"station_id":"ce4bhbp2rcd13ifvqesg","pricing_plan_id":"cebpf4jnsgd1na2vs0mg"},{"bike_id":"ad263336-64b9-4f27-8f30-4a49fa7dcbf6","system_id":"levelo_inurba_marseille","lat":43.2765,"lon":5.42684,"is_reserved":false,"is_disabled":false,"rental_uris":{"android":"levelo://app?vid=ad263336-64b9-4f27-8f30-4a49fa7dcbf6","ios":"levelo://app?vid=ad263336-64b9-4f27-8f30-4a49fa7dcbf6"},"vehicle_type_id":"4","last_reported":1742753472,"current_range_meters":8400,"station_id":"","pricing_plan_id":"cebpf4jnsgd1na2vs0mg"},{"bike_id":"75239504-6411-4c5a-918c-ff12c7d01c06","system_id":"levelo_inurba_marseille","lat":43.27815,"lon":5.40708,"is_reserved":false,"is_disabled":false,"rental_uris":{"android":"levelo://app?vid=75239504-6411-4c5a-918c-ff12c7d01c06","ios":"levelo://app?vid=75239504-6411-4c5a-918c-ff12c7d01c06"},"vehicle_type_id":"4","last_reported":1742753472,"current_range_meters":8400,"station_id":"ce4bhnh2rcd13ifvqgtg","pricing_plan_id":"cebpf4jnsgd1na2vs0mg"},{"bike_id":"ffb9c1c5-c3d2-4a65-a2f7-1e321dafe0dc","system_id":"levelo_inurba_marseille","lat":43.29368,"lon":5.37837,"is_reserved":false,"is_disabled":false,"rental_uris":{"android":"levelo://app?vid=ffb9c1c5-c3d2-4a65-a2f7-1e321dafe0dc","ios":"levelo://app?vid=ffb9c1c5-c3d2-4a65-a2f7-1e321dafe0dc"},"vehicle_type_id":"4","last_reported":1742753472,"current_range_meters":8400,"station_id":"ce4bgjh2rcd13ifvqbf0","pricing_plan_id":"cebpf4jnsgd1na2vs0mg"},{"bike_id":"525e076a-3225-46f1-acfc-cf966b12abdd","system_id":"levelo_inurba_marseille","lat":43.24665,"lon":5.38182,"is_reserved":false,"is_disabled":false,"rental_uris":{"android":"levelo://app?vid=525e076a-3225-46f1-acfc-cf966b12abdd","ios":"levelo://app?vid=525e076a-3225-46f1-acfc-cf966b12abdd"},"vehicle_type_id":"4","last_reported":1742753472,"current_range_meters":8400,"station_id":"ce4bhih2rcd13ifvqfr0","pricing_plan_id":"cebpf4jnsgd1na2vs0mg"},{"bike_id":"040f3bf0-bc9b-4bc1-8565-1964eb7156d5","system_id":"levelo_inurba_marseille","lat":43.29459,"lon":5.38503,"is_reserved":false,"is_disabled":false,"rental_uris":{"android":"levelo://app?vid=040f3bf0-bc9b-4bc1-8565-1964eb7156d5","ios":"levelo://app?vid=040f3bf0-bc9b-4bc1-8565-1964eb7156d5"},"vehicle_type_id":"4","last_reported":1742753472,"current_range_meters":8800,"station_id":"","pricing_plan_id":"cebpf4jnsgd1na2vs0mg"},{"bike_id":"037e6ede-daec-42c4-b1a5-a4ddfe378bc9","system_id":"levelo_inurba_marseille","lat":43.28715,"lon":5.3795,"is_reserved":false,"is_disabled":true,"rental_uris":{"android":"levelo://app?vid=037e6ede-daec-42c4-b1a5-a4ddfe378bc9","ios":"levelo://app?vid=037e6ede-daec-42c4-b1a5-a4ddfe378bc9"},"vehicle_type_id":"4","last_reported":1742753472,"current_range_meters":8800,"station_id":"ce4bh9p2rcd13ifvqec0","pricing_plan_id":"cebpf4jnsgd1na2vs0mg"},{"bike_id":"ccede58f-23d7-4a55-a771-737b775f8d48","system_id":"levelo_inurba_marseille","lat":43.28403,"lon":5.37513,"is_reserved":false,"is_disabled":false,"rental_uris":{"android":"levelo://app?vid=ccede58f-23d7-4a55-a771-737b775f8d48","ios":"levelo://app?vid=ccede58f-23d7-4a55-a771-737b775f8d48"},"vehicle_type_id":"4","last_reported":1742753472,"current_range_meters":8800,"station_id":"ce4bh412rcd13ifvqds0","pricing_plan_id":"cebpf4jnsgd1na2vs0mg"},{"bike_id":"f4f9737a-7a8a-4bd6-bc6d-d3432c9c05e9","system_id":"levelo_inurba_marseille","lat":43.2998,"lon":5.38481,"is_reserved":false,"is_disabled":false,"rental_uris":{"android":"levelo://app?vid=f4f9737a-7a8a-4bd6-bc6d-d3432c9c05e9","ios":"levelo://app?vid=f4f9737a-7a8a-4bd6-bc6d-d3432c9c05e9"},"vehicle_type_id":"4","last_reported":1742753472,"current_range_meters":8800,"station_id":"ce4bgj92rcd13ifvqbd0","pricing_plan_id":"cebpf4jnsgd1na2vs0mg"},{"bike_id":"dded0294-32f1-470c-8a38-f64890dd987e","system_id":"levelo_inurba_marseille","lat":43.26204,"lon":5.37913,"is_reserved":false,"is_disabled":false,"rental_uris":{"android":"levelo://app?vid=dded0294-32f1-470c-8a38-f64890dd987e","ios":"levelo://app?vid=dded0294-32f1-470c-8a38-f64890dd987e"},"vehicle_type_id":"4","last_reported":1742753472,"current_range_meters":8800,"station_id":"ce4bhjp2rcd13ifvqg90","pricing_plan_id":"cebpf4jnsgd1na2vs0mg"},{"bike_id":"56a7b81f-d003-4eba-a45d-13db92fbbb41","system_id":"levelo_inurba_marseille","lat":43.28013,"lon":5.41938,"is_reserved":false,"is_disabled":false,"rental_uris":{"android":"levelo://app?vid=56a7b81f-d003-4eba-a45d-13db92fbbb41","ios":"levelo://app?vid=56a7b81f-d003-4eba-a45d-13db92fbbb41"},"vehicle_type_id":"4","last_reported":1742753472,"current_range_meters":9200,"station_id":"","pricing_plan_id":"cebpf4jnsgd1na2vs0mg"},{"bike_id":"482fbe6e-e09b-45c3-8473-7afd64a282ea","system_id":"levelo_inurba_marseille","lat":43.2655,"lon":5.39025,"is_reserved":false,"is_disabled":false,"rental_uris":{"android":"levelo://app?vid=482fbe6e-e09b-45c3-8473-7afd64a282ea","ios":"levelo://app?vid=482fbe6e-e09b-45c3-8473-7afd64a282ea"},"vehicle_type_id":"4","last_reported":1742753472,"current_range_meters":8800,"station_id":"ce4bhe12rcd13ifvqf30","pricing_plan_id":"cebpf4jnsgd1na2vs0mg"},{"bike_id":"405b5661-84ac-4afa-ae23-865c997e54cb","system_id":"levelo_inurba_marseille","lat":43.24652,"lon":5.38196,"is_reserved":false,"is_disabled":false,"rental_uris":{"android":"levelo://app?vid=405b5661-84ac-4afa-ae23-865c997e54cb","ios":"levelo://app?vid=405b5661-84ac-4afa-ae23-865c997e54cb"},"vehicle_type_id":"4","last_reported":1742753472,"current_range_meters":8800,"station_id":"ce4bhih2rcd13ifvqfr0","pricing_plan_id":"cebpf4jnsgd1na2vs0mg"},{"bike_id":"2032e81a-8d24-4036-9cc6-bf67698b8322","system_id":"levelo_inurba_marseille","lat":43.24192,"lon":5.39739,"is_reserved":false,"is_disabled":false,"rental_uris":{"android":"levelo://app?vid=2032e81a-8d24-4036-9cc6-bf67698b8322","ios":"levelo://app?vid=2032e81a-8d24-4036-9cc6-bf67698b8322"},"vehicle_type_id":"4","last_reported":1742753472,"current_range_meters":8800,"station_id":"ce4bhn12rcd13ifvqgpg","pricing_plan_id":"cebpf4jnsgd1na2vs0mg"},{"bike_id":"185f8e58-4262-415e-b9f2-00efc6ea231d","system_id":"levelo_inurba_marseille","lat":43.29574,"lon":5.3997,"is_reserved":false,"is_disabled":false,"rental_uris":{"android":"levelo://app?vid=185f8e58-4262-415e-b9f2-00efc6ea231d","ios":"levelo://app?vid=185f8e58-4262-415e-b9f2-00efc6ea231d"},"vehicle_type_id":"4","last_reported":1742753472,"current_range_meters":8800,"station_id":"ce4bh312rcd13ifvqdj0","pricing_plan_id":"cebpf4jnsgd1na2vs0mg"},{"bike_id":"52390db3-1658-4d95-8474-5735938b9643","system_id":"levelo_inurba_marseille","lat":43.2625,"lon":5.40497,"is_reserved":false,"is_disabled":false,"rental_uris":{"android":"levelo://app?vid=52390db3-1658-4d95-8474-5735938b9643","ios":"levelo://app?vid=52390db3-1658-4d95-8474-5735938b9643"},"vehicle_type_id":"4","last_reported":1742753472,"current_range_meters":8800,"station_id":"","pricing_plan_id":"cebpf4jnsgd1na2vs0mg"},{"bike_id":"cf77c3de-2e49-49f7-b42f-b6056222e772","system_id":"levelo_inurba_marseille","lat":43.29782,"lon":5.3935,"is_reserved":false,"is_disabled":false,"rental_uris":{"android":"levelo://app?vid=cf77c3de-2e49-49f7-b42f-b6056222e772","ios":"levelo://app?vid=cf77c3de-2e49-49f7-b42f-b6056222e772"},"vehicle_type_id":"4","last_reported":1742753472,"current_range_meters":9200,"station_id":"chh1huq6cuj3fo74tm60","pricing_plan_id":"cebpf4jnsgd1na2vs0mg"},{"bike_id":"ce8e0a57-4459-4644-a5c3-b0626fd39aae","system_id":"levelo_inurba_marseille","lat":43.30155,"lon":5.37431,"is_reserved":false,"is_disabled":false,"rental_uris":{"android":"levelo://app?vid=ce8e0a57-4459-4644-a5c3-b0626fd39aae","ios":"levelo://app?vid=ce8e0a57-4459-4644-a5c3-b0626fd39aae"},"vehicle_type_id":"4","last_reported":1742753472,"current_range_meters":9200,"station_id":"ce4bgs92rcd13ifvqcc0","pricing_plan_id":"cebpf4jnsgd1na2vs0mg"},{"bike_id":"cd383773-4b9e-47b8-a0dc-4b9211546aa7","system_id":"levelo_inurba_marseille","lat":43.33595,"lon":5.40975,"is_reserved":false,"is_disabled":false,"rental_uris":{"android":"levelo://app?vid=cd383773-4b9e-47b8-a0dc-4b9211546aa7","ios":"levelo://app?vid=cd383773-4b9e-47b8-a0dc-4b9211546aa7"},"vehicle_type_id":"4","last_reported":1742753472,"current_range_meters":9200,"station_id":"","pricing_plan_id":"cebpf4jnsgd1na2vs0mg"},{"bike_id":"f4e19b4a-ac71-4661-af32-23c14635182e","system_id":"levelo_inurba_marseille","lat":43.2957,"lon":5.37517,"is_reserved":false,"is_disabled":false,"rental_uris":{"android":"levelo://app?vid=f4e19b4a-ac71-4661-af32-23c14635182e","ios":"levelo://app?vid=f4e19b4a-ac71-4661-af32-23c14635182e"},"vehicle_type_id":"4","last_reported":1742753472,"current_range_meters":9200,"station_id":"ce4bgh92rcd13ifvqb50","pricing_plan_id":"cebpf4jnsgd1na2vs0mg"},{"bike_id":"f6c056a6-2322-4c01-af0a-8f6649999ef0","system_id":"levelo_inurba_marseille","lat":43.27569,"lon":5.38403,"is_reserved":false,"is_disabled":false,"rental_uris":{"android":"levelo://app?vid=f6c056a6-2322-4c01-af0a-8f6649999ef0","ios":"levelo://app?vid=f6c056a6-2322-4c01-af0a-8f6649999ef0"},"vehicle_type_id":"4","last_reported":1742753472,"current_range_meters":9200,"station_id":"ce4bhh92rcd13ifvqfi0","pricing_plan_id":"cebpf4jnsgd1na2vs0mg"},{"bike_id":"2fd4d927-0f70-4f4e-9269-8cd3b232bcd8","system_id":"levelo_inurba_marseille","lat":43.2596,"lon":5.40885,"is_reserved":false,"is_disabled":false,"rental_uris":{"android":"levelo://app?vid=2fd4d927-0f70-4f4e-9269-8cd3b232bcd8","ios":"levelo://app?vid=2fd4d927-0f70-4f4e-9269-8cd3b232bcd8"},"vehicle_type_id":"4","last_reported":1742753472,"current_range_meters":9200,"station_id":"ce4bhm92rcd13ifvqglg","pricing_plan_id":"cebpf4jnsgd1na2vs0mg"},{"bike_id":"05ba75e1-5e9f-478d-8f1b-3ee97c9f5b8a","system_id":"levelo_inurba_marseille","lat":43.30146,"lon":5.37423,"is_reserved":false,"is_disabled":false,"rental_uris":{"android":"levelo://app?vid=05ba75e1-5e9f-478d-8f1b-3ee97c9f5b8a","ios":"levelo://app?vid=05ba75e1-5e9f-478d-8f1b-3ee97c9f5b8a"},"vehicle_type_id":"4","last_reported":1742753472,"current_range_meters":9200,"station_id":"ce4bgs92rcd13ifvqcc0","pricing_plan_id":"cebpf4jnsgd1na2vs0mg"},{"bike_id":"e49f04e6-8c91-4f9f-888c-625dd797cb28","system_id":"levelo_inurba_marseille","lat":43.284133,"lon":5.3752,"is_reserved":false,"is_disabled":false,"rental_uris":{"android":"levelo://app?vid=e49f04e6-8c91-4f9f-888c-625dd797cb28","ios":"levelo://app?vid=e49f04e6-8c91-4f9f-888c-625dd797cb28"},"vehicle_type_id":"4","last_reported":1742753472,"current_range_meters":9200,"station_id":"ce4bh412rcd13ifvqds0","pricing_plan_id":"cebpf4jnsgd1na2vs0mg"},{"bike_id":"ee071e85-a82d-4bb4-a152-5d20f2f99a93","system_id":"levelo_inurba_marseille","lat":43.24667,"lon":5.38181,"is_reserved":false,"is_disabled":false,"rental_uris":{"android":"levelo://app?vid=ee071e85-a82d-4bb4-a152-5d20f2f99a93","ios":"levelo://app?vid=ee071e85-a82d-4bb4-a152-5d20f2f99a93"},"vehicle_type_id":"4","last_reported":1742753472,"current_range_meters":9200,"station_id":"ce4bhih2rcd13ifvqfr0","pricing_plan_id":"cebpf4jnsgd1na2vs0mg"},{"bike_id":"ca7ca978-1fef-4a0e-9aa2-95e430214d5b","system_id":"levelo_inurba_marseille","lat":43.24169,"lon":5.36403,"is_reserved":false,"is_disabled":false,"rental_uris":{"android":"levelo://app?vid=ca7ca978-1fef-4a0e-9aa2-95e430214d5b","ios":"levelo://app?vid=ca7ca978-1fef-4a0e-9aa2-95e430214d5b"},"vehicle_type_id":"4","last_reported":1742753472,"current_range_meters":9200,"station_id":"cpo36qri1sfpv3e86is0","pricing_plan_id":"cebpf4jnsgd1na2vs0mg"},{"bike_id":"3bb33489-a82f-4739-bc09-2fe3082e2e8c","system_id":"levelo_inurba_marseille","lat":43.308,"lon":5.37345,"is_reserved":false,"is_disabled":false,"rental_uris":{"android":"levelo://app?vid=3bb33489-a82f-4739-bc09-2fe3082e2e8c","ios":"levelo://app?vid=3bb33489-a82f-4739-bc09-2fe3082e2e8c"},"vehicle_type_id":"4","last_reported":1742753472,"current_range_meters":9200,"station_id":"","pricing_plan_id":"cebpf4jnsgd1na2vs0mg"},{"bike_id":"8ae5743c-76da-4e48-a313-5a74718a8a5b","system_id":"levelo_inurba_marseille","lat":43.31686,"lon":5.40475,"is_reserved":false,"is_disabled":false,"rental_uris":{"android":"levelo://app?vid=8ae5743c-76da-4e48-a313-5a74718a8a5b","ios":"levelo://app?vid=8ae5743c-76da-4e48-a313-5a74718a8a5b"},"vehicle_type_id":"4","last_reported":1742753472,"current_range_meters":9200,"station_id":"ce4bh012rcd13ifvqd00","pricing_plan_id":"cebpf4jnsgd1na2vs0mg"},{"bike_id":"80bd481f-76dd-47f5-8a33-ce4926e26fff","system_id":"levelo_inurba_marseille","lat":43.26203,"lon":5.37426,"is_reserved":false,"is_disabled":true,"rental_uris":{"android":"levelo://app?vid=80bd481f-76dd-47f5-8a33-ce4926e26fff","ios":"levelo://app?vid=80bd481f-76dd-47f5-8a33-ce4926e26fff"},"vehicle_type_id":"4","last_reported":1742753472,"current_range_meters":9200,"station_id":"ce4bhgp2rcd13ifvqfc0","pricing_plan_id":"cebpf4jnsgd1na2vs0mg"},{"bike_id":"90d741ab-af2e-4b2c-b7ab-5eaa4381d69c","system_id":"levelo_inurba_marseille","lat":43.29794,"lon":5.39339,"is_reserved":false,"is_disabled":false,"rental_uris":{"android":"levelo://app?vid=90d741ab-af2e-4b2c-b7ab-5eaa4381d69c","ios":"levelo://app?vid=90d741ab-af2e-4b2c-b7ab-5eaa4381d69c"},"vehicle_type_id":"4","last_reported":1742753472,"current_range_meters":9600,"station_id":"chh1huq6cuj3fo74tm60","pricing_plan_id":"cebpf4jnsgd1na2vs0mg"},{"bike_id":"2fcf9fde-ee4f-46db-99e2-a0c7861b3975","system_id":"levelo_inurba_marseille","lat":43.31998,"lon":5.38164,"is_reserved":false,"is_disabled":false,"rental_uris":{"android":"levelo://app?vid=2fcf9fde-ee4f-46db-99e2-a0c7861b3975","ios":"levelo://app?vid=2fcf9fde-ee4f-46db-99e2-a0c7861b3975"},"vehicle_type_id":"4","last_reported":1742753472,"current_range_meters":9600,"station_id":"ce4bhr12rcd13ifvqhpg","pricing_plan_id":"cebpf4jnsgd1na2vs0mg"},{"bike_id":"dd5d6d06-0e34-4684-b128-c77a8d50ab86","system_id":"levelo_inurba_marseille","lat":43.30146,"lon":5.37399,"is_reserved":false,"is_disabled":false,"rental_uris":{"android":"levelo://app?vid=dd5d6d06-0e34-4684-b128-c77a8d50ab86","ios":"levelo://app?vid=dd5d6d06-0e34-4684-b128-c77a8d50ab86"},"vehicle_type_id":"4","last_reported":1742753472,"current_range_meters":9600,"station_id":"ce4bgs92rcd13ifvqcc0","pricing_plan_id":"cebpf4jnsgd1na2vs0mg"},{"bike_id":"cefa8367-d268-4736-bbb1-17473695ab1f","system_id":"levelo_inurba_marseille","lat":43.31702,"lon":5.40476,"is_reserved":false,"is_disabled":false,"rental_uris":{"android":"levelo://app?vid=cefa8367-d268-4736-bbb1-17473695ab1f","ios":"levelo://app?vid=cefa8367-d268-4736-bbb1-17473695ab1f"},"vehicle_type_id":"4","last_reported":1742753472,"current_range_meters":9600,"station_id":"ce4bh012rcd13ifvqd00","pricing_plan_id":"cebpf4jnsgd1na2vs0mg"},{"bike_id":"085ef65d-1c70-4528-b12f-795338c2d1da","system_id":"levelo_inurba_marseille","lat":43.32005,"lon":5.38158,"is_reserved":false,"is_disabled":false,"rental_uris":{"android":"levelo://app?vid=085ef65d-1c70-4528-b12f-795338c2d1da","ios":"levelo://app?vid=085ef65d-1c70-4528-b12f-795338c2d1da"},"vehicle_type_id":"4","last_reported":1742753472,"current_range_meters":9600,"station_id":"ce4bhr12rcd13ifvqhpg","pricing_plan_id":"cebpf4jnsgd1na2vs0mg"},{"bike_id":"e286c3ad-5aad-4e60-be2d-b5f6cad4b6bc","system_id":"levelo_inurba_marseille","lat":43.29294,"lon":5.37432,"is_reserved":false,"is_disabled":true,"rental_uris":{"android":"levelo://app?vid=e286c3ad-5aad-4e60-be2d-b5f6cad4b6bc","ios":"levelo://app?vid=e286c3ad-5aad-4e60-be2d-b5f6cad4b6bc"},"vehicle_type_id":"4","last_reported":1742753472,"current_range_meters":9600,"station_id":"ce4bgi12rcd13ifvqb70","pricing_plan_id":"cebpf4jnsgd1na2vs0mg"},{"bike_id":"751ff1ed-b498-4578-9bd4-943bf6c9d8eb","system_id":"levelo_inurba_marseille","lat":43.23192,"lon":5.35561,"is_reserved":false,"is_disabled":false,"rental_uris":{"android":"levelo://app?vid=751ff1ed-b498-4578-9bd4-943bf6c9d8eb","ios":"levelo://app?vid=751ff1ed-b498-4578-9bd4-943bf6c9d8eb"},"vehicle_type_id":"4","last_reported":1742753472,"current_range_meters":9600,"station_id":"ce4bhu92rcd13ifvqi70","pricing_plan_id":"cebpf4jnsgd1na2vs0mg"},{"bike_id":"8baa2ca8-9eb2-4942-ba47-ed90d166dad3","system_id":"levelo_inurba_marseille","lat":43.25324,"lon":5.40213,"is_reserved":false,"is_disabled":true,"rental_uris":{"android":"levelo://app?vid=8baa2ca8-9eb2-4942-ba47-ed90d166dad3","ios":"levelo://app?vid=8baa2ca8-9eb2-4942-ba47-ed90d166dad3"},"vehicle_type_id":"4","last_reported":1742753472,"current_range_meters":9600,"station_id":"","pricing_plan_id":"cebpf4jnsgd1na2vs0mg"},{"bike_id":"ba52014b-a246-4894-a2c7-c3fb0c4bebc3","system_id":"levelo_inurba_marseille","lat":43.27823,"lon":5.40721,"is_reserved":false,"is_disabled":false,"rental_uris":{"android":"levelo://app?vid=ba52014b-a246-4894-a2c7-c3fb0c4bebc3","ios":"levelo://app?vid=ba52014b-a246-4894-a2c7-c3fb0c4bebc3"},"vehicle_type_id":"4","last_reported":1742753472,"current_range_meters":9600,"station_id":"ce4bhnh2rcd13ifvqgtg","pricing_plan_id":"cebpf4jnsgd1na2vs0mg"},{"bike_id":"db96ab39-a5ac-46c4-b7dc-2e16e3f1c6e7","system_id":"levelo_inurba_marseille","lat":43.28509,"lon":5.35604,"is_reserved":false,"is_disabled":false,"rental_uris":{"android":"levelo://app?vid=db96ab39-a5ac-46c4-b7dc-2e16e3f1c6e7","ios":"levelo://app?vid=db96ab39-a5ac-46c4-b7dc-2e16e3f1c6e7"},"vehicle_type_id":"4","last_reported":1742753472,"current_range_meters":9600,"station_id":"","pricing_plan_id":"cebpf4jnsgd1na2vs0mg"},{"bike_id":"466b52b1-619d-4757-a4a2-7dbcc5ac0e91","system_id":"levelo_inurba_marseille","lat":43.30378,"lon":5.42494,"is_reserved":false,"is_disabled":false,"rental_uris":{"android":"levelo://app?vid=466b52b1-619d-4757-a4a2-7dbcc5ac0e91","ios":"levelo://app?vid=466b52b1-619d-4757-a4a2-7dbcc5ac0e91"},"vehicle_type_id":"4","last_reported":1742753472,"current_range_meters":9600,"station_id":"ce4bhoh2rcd13ifvqh6g","pricing_plan_id":"cebpf4jnsgd1na2vs0mg"},{"bike_id":"d9619124-b86e-4528-838c-a208fa96ae17","system_id":"levelo_inurba_marseille","lat":43.30287,"lon":5.39213,"is_reserved":false,"is_disabled":false,"rental_uris":{"android":"levelo://app?vid=d9619124-b86e-4528-838c-a208fa96ae17","ios":"levelo://app?vid=d9619124-b86e-4528-838c-a208fa96ae17"},"vehicle_type_id":"4","last_reported":1742753472,"current_range_meters":9600,"station_id":"ce4bgkh2rcd13ifvqbk0","pricing_plan_id":"cebpf4jnsgd1na2vs0mg"},{"bike_id":"bdd85a69-2526-423f-83bc-580097d3e5b5","system_id":"levelo_inurba_marseille","lat":43.23069,"lon":5.35495,"is_reserved":false,"is_disabled":false,"rental_uris":{"android":"levelo://app?vid=bdd85a69-2526-423f-83bc-580097d3e5b5","ios":"levelo://app?vid=bdd85a69-2526-423f-83bc-580097d3e5b5"},"vehicle_type_id":"4","last_reported":1742753472,"current_range_meters":9600,"station_id":"cpo3342slgdg3j2ifvpg","pricing_plan_id":"cebpf4jnsgd1na2vs0mg"},{"bike_id":"d954b141-3cee-4de0-9c29-d5babd11cd82","system_id":"levelo_inurba_marseille","lat":43.25106,"lon":5.39501,"is_reserved":false,"is_disabled":false,"rental_uris":{"android":"levelo://app?vid=d954b141-3cee-4de0-9c29-d5babd11cd82","ios":"levelo://app?vid=d954b141-3cee-4de0-9c29-d5babd11cd82"},"vehicle_type_id":"4","last_reported":1742753472,"current_range_meters":9600,"station_id":"ce4bhm12rcd13ifvqgkg","pricing_plan_id":"cebpf4jnsgd1na2vs0mg"},{"bike_id":"d5111fc3-ad39-4829-a181-fbb1f7623cca","system_id":"levelo_inurba_marseille","lat":43.3028,"lon":5.39201,"is_reserved":false,"is_disabled":false,"rental_uris":{"android":"levelo://app?vid=d5111fc3-ad39-4829-a181-fbb1f7623cca","ios":"levelo://app?vid=d5111fc3-ad39-4829-a181-fbb1f7623cca"},"vehicle_type_id":"4","last_reported":1742753472,"current_range_meters":9600,"station_id":"ce4bgkh2rcd13ifvqbk0","pricing_plan_id":"cebpf4jnsgd1na2vs0mg"},{"bike_id":"801ac92f-133f-417e-90ff-e9cdca3569b0","system_id":"levelo_inurba_marseille","lat":43.24077,"lon":5.37792,"is_reserved":false,"is_disabled":false,"rental_uris":{"android":"levelo://app?vid=801ac92f-133f-417e-90ff-e9cdca3569b0","ios":"levelo://app?vid=801ac92f-133f-417e-90ff-e9cdca3569b0"},"vehicle_type_id":"4","last_reported":1742753472,"current_range_meters":9600,"station_id":"ce4bhnp2rcd13ifvqgvg","pricing_plan_id":"cebpf4jnsgd1na2vs0mg"},{"bike_id":"dd19e631-dcf0-499f-95ff-eaf99af1e8eb","system_id":"levelo_inurba_marseille","lat":43.31327,"lon":5.39689,"is_reserved":false,"is_disabled":false,"rental_uris":{"android":"levelo://app?vid=dd19e631-dcf0-499f-95ff-eaf99af1e8eb","ios":"levelo://app?vid=dd19e631-dcf0-499f-95ff-eaf99af1e8eb"},"vehicle_type_id":"4","last_reported":1742753472,"current_range_meters":9600,"station_id":"ce4bgvp2rcd13ifvqcu0","pricing_plan_id":"cebpf4jnsgd1na2vs0mg"},{"bike_id":"f7128881-3250-47b4-940a-0a23e9764e36","system_id":"levelo_inurba_marseille","lat":43.25937,"lon":5.40906,"is_reserved":false,"is_disabled":false,"rental_uris":{"android":"levelo://app?vid=f7128881-3250-47b4-940a-0a23e9764e36","ios":"levelo://app?vid=f7128881-3250-47b4-940a-0a23e9764e36"},"vehicle_type_id":"4","last_reported":1742753472,"current_range_meters":9600,"station_id":"ce4bhm92rcd13ifvqglg","pricing_plan_id":"cebpf4jnsgd1na2vs0mg"},{"bike_id":"5932f5b5-0803-41be-ad57-2c62bb691349","system_id":"levelo_inurba_marseille","lat":43.24666,"lon":5.38181,"is_reserved":false,"is_disabled":false,"rental_uris":{"android":"levelo://app?vid=5932f5b5-0803-41be-ad57-2c62bb691349","ios":"levelo://app?vid=5932f5b5-0803-41be-ad57-2c62bb691349"},"vehicle_type_id":"4","last_reported":1742753472,"current_range_meters":10000,"station_id":"ce4bhih2rcd13ifvqfr0","pricing_plan_id":"cebpf4jnsgd1na2vs0mg"},{"bike_id":"07541760-82c4-4d38-b58c-85ffff07e965","system_id":"levelo_inurba_marseille","lat":43.23944,"lon":5.36642,"is_reserved":false,"is_disabled":false,"rental_uris":{"android":"levelo://app?vid=07541760-82c4-4d38-b58c-85ffff07e965","ios":"levelo://app?vid=07541760-82c4-4d38-b58c-85ffff07e965"},"vehicle_type_id":"4","last_reported":1742753472,"current_range_meters":10000,"station_id":"ce4bhi12rcd13ifvqfp0","pricing_plan_id":"cebpf4jnsgd1na2vs0mg"},{"bike_id":"d19336df-f78d-467c-b46d-9799f2f84ee2","system_id":"levelo_inurba_marseille","lat":43.24676,"lon":5.38175,"is_reserved":false,"is_disabled":false,"rental_uris":{"android":"levelo://app?vid=d19336df-f78d-467c-b46d-9799f2f84ee2","ios":"levelo://app?vid=d19336df-f78d-467c-b46d-9799f2f84ee2"},"vehicle_type_id":"4","last_reported":1742753472,"current_range_meters":10000,"station_id":"ce4bhih2rcd13ifvqfr0","pricing_plan_id":"cebpf4jnsgd1na2vs0mg"},{"bike_id":"928a2538-2d41-45d1-9772-e0bb5d913897","system_id":"levelo_inurba_marseille","lat":43.30536,"lon":5.36704,"is_reserved":false,"is_disabled":false,"rental_uris":{"android":"levelo://app?vid=928a2538-2d41-45d1-9772-e0bb5d913897","ios":"levelo://app?vid=928a2538-2d41-45d1-9772-e0bb5d913897"},"vehicle_type_id":"4","last_reported":1742753472,"current_range_meters":10000,"station_id":"ce4bgrp2rcd13ifvqc9g","pricing_plan_id":"cebpf4jnsgd1na2vs0mg"},{"bike_id":"08fcbc8a-2ec7-4352-afeb-2a43a18f8a05","system_id":"levelo_inurba_marseille","lat":43.27618,"lon":5.36102,"is_reserved":false,"is_disabled":true,"rental_uris":{"android":"levelo://app?vid=08fcbc8a-2ec7-4352-afeb-2a43a18f8a05","ios":"levelo://app?vid=08fcbc8a-2ec7-4352-afeb-2a43a18f8a05"},"vehicle_type_id":"4","last_reported":1742753472,"current_range_meters":10000,"station_id":"ce4bgj92rcd13ifvqbe0","pricing_plan_id":"cebpf4jnsgd1na2vs0mg"},{"bike_id":"4c8a4056-48ac-48f3-aef0-9ae5cc16b399","system_id":"levelo_inurba_marseille","lat":43.27867,"lon":5.40688,"is_reserved":false,"is_disabled":false,"rental_uris":{"android":"levelo://app?vid=4c8a4056-48ac-48f3-aef0-9ae5cc16b399","ios":"levelo://app?vid=4c8a4056-48ac-48f3-aef0-9ae5cc16b399"},"vehicle_type_id":"4","last_reported":1742753472,"current_range_meters":10000,"station_id":"","pricing_plan_id":"cebpf4jnsgd1na2vs0mg"},{"bike_id":"196e5527-f8ec-47c9-88d8-c0c49611574a","system_id":"levelo_inurba_marseille","lat":43.23054,"lon":5.35503,"is_reserved":false,"is_disabled":false,"rental_uris":{"android":"levelo://app?vid=196e5527-f8ec-47c9-88d8-c0c49611574a","ios":"levelo://app?vid=196e5527-f8ec-47c9-88d8-c0c49611574a"},"vehicle_type_id":"4","last_reported":1742753472,"current_range_meters":10000,"station_id":"cpo3342slgdg3j2ifvpg","pricing_plan_id":"cebpf4jnsgd1na2vs0mg"},{"bike_id":"32472832-a93e-47a2-925d-c37093eefcdd","system_id":"levelo_inurba_marseille","lat":43.24075,"lon":5.3776,"is_reserved":false,"is_disabled":false,"rental_uris":{"android":"levelo://app?vid=32472832-a93e-47a2-925d-c37093eefcdd","ios":"levelo://app?vid=32472832-a93e-47a2-925d-c37093eefcdd"},"vehicle_type_id":"4","last_reported":1742753472,"current_range_meters":10000,"station_id":"ce4bhnp2rcd13ifvqgvg","pricing_plan_id":"cebpf4jnsgd1na2vs0mg"},{"bike_id":"6cc11fdc-cd43-4e0c-8bda-afa942c971fd","system_id":"levelo_inurba_marseille","lat":43.30543,"lon":5.36752,"is_reserved":false,"is_disabled":false,"rental_uris":{"android":"levelo://app?vid=6cc11fdc-cd43-4e0c-8bda-afa942c971fd","ios":"levelo://app?vid=6cc11fdc-cd43-4e0c-8bda-afa942c971fd"},"vehicle_type_id":"4","last_reported":1742753472,"current_range_meters":10800,"station_id":"ce4bgrp2rcd13ifvqc9g","pricing_plan_id":"cebpf4jnsgd1na2vs0mg"},{"bike_id":"10f70e08-4a02-45bc-8957-557423bf07f1","system_id":"levelo_inurba_marseille","lat":43.29884,"lon":5.38926,"is_reserved":false,"is_disabled":false,"rental_uris":{"android":"levelo://app?vid=10f70e08-4a02-45bc-8957-557423bf07f1","ios":"levelo://app?vid=10f70e08-4a02-45bc-8957-557423bf07f1"},"vehicle_type_id":"4","last_reported":1742753472,"current_range_meters":10800,"station_id":"ce4bh392rcd13ifvqdl0","pricing_plan_id":"cebpf4jnsgd1na2vs0mg"},{"bike_id":"a8054457-ef9c-4293-879f-1eab83000740","system_id":"levelo_inurba_marseille","lat":43.24172,"lon":5.36399,"is_reserved":false,"is_disabled":false,"rental_uris":{"android":"levelo://app?vid=a8054457-ef9c-4293-879f-1eab83000740","ios":"levelo://app?vid=a8054457-ef9c-4293-879f-1eab83000740"},"vehicle_type_id":"4","last_reported":1742753472,"current_range_meters":10800,"station_id":"cpo36qri1sfpv3e86is0","pricing_plan_id":"cebpf4jnsgd1na2vs0mg"},{"bike_id":"8288bc6f-a736-415a-b750-66a681c2599f","system_id":"levelo_inurba_marseille","lat":43.29983,"lon":5.37156,"is_reserved":false,"is_disabled":false,"rental_uris":{"android":"levelo://app?vid=8288bc6f-a736-415a-b750-66a681c2599f","ios":"levelo://app?vid=8288bc6f-a736-415a-b750-66a681c2599f"},"vehicle_type_id":"4","last_reported":1742753472,"current_range_meters":10800,"station_id":"ce4bgr92rcd13ifvqc7g","pricing_plan_id":"cebpf4jnsgd1na2vs0mg"},{"bike_id":"769a31f7-6969-49ba-8b94-76d2acb92451","system_id":"levelo_inurba_marseille","lat":43.28457,"lon":5.3589,"is_reserved":false,"is_disabled":false,"rental_uris":{"android":"levelo://app?vid=769a31f7-6969-49ba-8b94-76d2acb92451","ios":"levelo://app?vid=769a31f7-6969-49ba-8b94-76d2acb92451"},"vehicle_type_id":"4","last_reported":1742753472,"current_range_meters":10800,"station_id":"ce4bhah2rcd13ifvqei0","pricing_plan_id":"cebpf4jnsgd1na2vs0mg"},{"bike_id":"60bc5ef2-d120-4be4-8b53-10f64fb77c9a","system_id":"levelo_inurba_marseille","lat":43.2657,"lon":5.39011,"is_reserved":false,"is_disabled":false,"rental_uris":{"android":"levelo://app?vid=60bc5ef2-d120-4be4-8b53-10f64fb77c9a","ios":"levelo://app?vid=60bc5ef2-d120-4be4-8b53-10f64fb77c9a"},"vehicle_type_id":"4","last_reported":1742753472,"current_range_meters":10800,"station_id":"ce4bhe12rcd13ifvqf30","pricing_plan_id":"cebpf4jnsgd1na2vs0mg"},{"bike_id":"f48a0817-7997-47a8-8e6c-21114c013c28","system_id":"levelo_inurba_marseille","lat":43.26797,"lon":5.40296,"is_reserved":false,"is_disabled":false,"rental_uris":{"android":"levelo://app?vid=f48a0817-7997-47a8-8e6c-21114c013c28","ios":"levelo://app?vid=f48a0817-7997-47a8-8e6c-21114c013c28"},"vehicle_type_id":"4","last_reported":1742753472,"current_range_meters":10800,"station_id":"ce501612rcd8frsf0b60","pricing_plan_id":"cebpf4jnsgd1na2vs0mg"},{"bike_id":"f657da43-9a05-4822-9c77-ad8671579423","system_id":"levelo_inurba_marseille","lat":43.29576,"lon":5.39966,"is_reserved":false,"is_disabled":true,"rental_uris":{"android":"levelo://app?vid=f657da43-9a05-4822-9c77-ad8671579423","ios":"levelo://app?vid=f657da43-9a05-4822-9c77-ad8671579423"},"vehicle_type_id":"4","last_reported":1742753472,"current_range_meters":10800,"station_id":"ce4bh312rcd13ifvqdj0","pricing_plan_id":"cebpf4jnsgd1na2vs0mg"},{"bike_id":"aba525f0-2511-4431-b0df-04fa0de75a3c","system_id":"levelo_inurba_marseille","lat":43.254,"lon":5.41897,"is_reserved":false,"is_disabled":false,"rental_uris":{"android":"levelo://app?vid=aba525f0-2511-4431-b0df-04fa0de75a3c","ios":"levelo://app?vid=aba525f0-2511-4431-b0df-04fa0de75a3c"},"vehicle_type_id":"4","last_reported":1742753472,"current_range_meters":11200,"station_id":"","pricing_plan_id":"cebpf4jnsgd1na2vs0mg"},{"bike_id":"17238c44-02e8-4ba3-abe3-5ae6a9cab49f","system_id":"levelo_inurba_marseille","lat":43.31756,"lon":5.3902,"is_reserved":false,"is_disabled":true,"rental_uris":{"android":"levelo://app?vid=17238c44-02e8-4ba3-abe3-5ae6a9cab49f","ios":"levelo://app?vid=17238c44-02e8-4ba3-abe3-5ae6a9cab49f"},"vehicle_type_id":"4","last_reported":1742753472,"current_range_meters":11200,"station_id":"ce4bhqp2rcd13ifvqhng","pricing_plan_id":"cebpf4jnsgd1na2vs0mg"},{"bike_id":"4baf8c5d-e0fe-4a6c-97de-a71e960c5338","system_id":"levelo_inurba_marseille","lat":43.24166,"lon":5.36395,"is_reserved":false,"is_disabled":false,"rental_uris":{"android":"levelo://app?vid=4baf8c5d-e0fe-4a6c-97de-a71e960c5338","ios":"levelo://app?vid=4baf8c5d-e0fe-4a6c-97de-a71e960c5338"},"vehicle_type_id":"4","last_reported":1742753472,"current_range_meters":11200,"station_id":"cpo36qri1sfpv3e86is0","pricing_plan_id":"cebpf4jnsgd1na2vs0mg"},{"bike_id":"538598e3-4a4a-4a03-ade9-098ecfba7760","system_id":"levelo_inurba_marseille","lat":43.28611,"lon":5.37059,"is_reserved":false,"is_disabled":false,"rental_uris":{"android":"levelo://app?vid=538598e3-4a4a-4a03-ade9-098ecfba7760","ios":"levelo://app?vid=538598e3-4a4a-4a03-ade9-098ecfba7760"},"vehicle_type_id":"4","last_reported":1742753472,"current_range_meters":11200,"station_id":"ce4bht12rcd13ifvqi60","pricing_plan_id":"cebpf4jnsgd1na2vs0mg"},{"bike_id":"8ac76298-3375-4b96-8a90-9315b1510fa4","system_id":"levelo_inurba_marseille","lat":43.27846,"lon":5.40741,"is_reserved":false,"is_disabled":true,"rental_uris":{"android":"levelo://app?vid=8ac76298-3375-4b96-8a90-9315b1510fa4","ios":"levelo://app?vid=8ac76298-3375-4b96-8a90-9315b1510fa4"},"vehicle_type_id":"4","last_reported":1742753472,"current_range_meters":11200,"station_id":"ce4bhnh2rcd13ifvqgtg","pricing_plan_id":"cebpf4jnsgd1na2vs0mg"},{"bike_id":"901ad870-67db-4efd-a3cc-2d5ce9510114","system_id":"levelo_inurba_marseille","lat":43.26784,"lon":5.3937,"is_reserved":false,"is_disabled":false,"rental_uris":{"android":"levelo://app?vid=901ad870-67db-4efd-a3cc-2d5ce9510114","ios":"levelo://app?vid=901ad870-67db-4efd-a3cc-2d5ce9510114"},"vehicle_type_id":"4","last_reported":1742753472,"current_range_meters":11200,"station_id":"ce4bhh12rcd13ifvqfg0","pricing_plan_id":"cebpf4jnsgd1na2vs0mg"},{"bike_id":"bb7b5ca9-bb8f-4485-a4b9-0875cc90970e","system_id":"levelo_inurba_marseille","lat":43.29565,"lon":5.40008,"is_reserved":false,"is_disabled":false,"rental_uris":{"android":"levelo://app?vid=bb7b5ca9-bb8f-4485-a4b9-0875cc90970e","ios":"levelo://app?vid=bb7b5ca9-bb8f-4485-a4b9-0875cc90970e"},"vehicle_type_id":"4","last_reported":1742753472,"current_range_meters":11200,"station_id":"ce4bh312rcd13ifvqdj0","pricing_plan_id":"cebpf4jnsgd1na2vs0mg"},{"bike_id":"56ee8a05-3e5c-4077-8dfe-7f8dd505ab1c","system_id":"levelo_inurba_marseille","lat":43.27916,"lon":5.39586,"is_reserved":false,"is_disabled":false,"rental_uris":{"android":"levelo://app?vid=56ee8a05-3e5c-4077-8dfe-7f8dd505ab1c","ios":"levelo://app?vid=56ee8a05-3e5c-4077-8dfe-7f8dd505ab1c"},"vehicle_type_id":"4","last_reported":1742753472,"current_range_meters":11200,"station_id":"ce4bhf92rcd13ifvqf40","pricing_plan_id":"cebpf4jnsgd1na2vs0mg"},{"bike_id":"eab591c8-b7ae-43a3-b710-51e9bbc9a430","system_id":"levelo_inurba_marseille","lat":43.27988,"lon":5.41658,"is_reserved":false,"is_disabled":false,"rental_uris":{"android":"levelo://app?vid=eab591c8-b7ae-43a3-b710-51e9bbc9a430","ios":"levelo://app?vid=eab591c8-b7ae-43a3-b710-51e9bbc9a430"},"vehicle_type_id":"4","last_reported":1742753472,"current_range_meters":11200,"station_id":"ce4bho12rcd13ifvqh1g","pricing_plan_id":"cebpf4jnsgd1na2vs0mg"},{"bike_id":"b608ddca-25a2-49b8-b203-71f1ab4c4806","system_id":"levelo_inurba_marseille","lat":43.29907,"lon":5.3816,"is_reserved":false,"is_disabled":false,"rental_uris":{"android":"levelo://app?vid=b608ddca-25a2-49b8-b203-71f1ab4c4806","ios":"levelo://app?vid=b608ddca-25a2-49b8-b203-71f1ab4c4806"},"vehicle_type_id":"4","last_reported":1742753472,"current_range_meters":11200,"station_id":"ce4bgj12rcd13ifvqbc0","pricing_plan_id":"cebpf4jnsgd1na2vs0mg"},{"bike_id":"034718de-67f9-4b03-9b14-13a8fc4858ac","system_id":"levelo_inurba_marseille","lat":43.23193,"lon":5.35584,"is_reserved":false,"is_disabled":false,"rental_uris":{"android":"levelo://app?vid=034718de-67f9-4b03-9b14-13a8fc4858ac","ios":"levelo://app?vid=034718de-67f9-4b03-9b14-13a8fc4858ac"},"vehicle_type_id":"4","last_reported":1742753472,"current_range_meters":11600,"station_id":"ce4bhu92rcd13ifvqi70","pricing_plan_id":"cebpf4jnsgd1na2vs0mg"},{"bike_id":"e2b68c00-ea55-4d0f-ae98-6403b351276c","system_id":"levelo_inurba_marseille","lat":43.23055,"lon":5.3546,"is_reserved":false,"is_disabled":false,"rental_uris":{"android":"levelo://app?vid=e2b68c00-ea55-4d0f-ae98-6403b351276c","ios":"levelo://app?vid=e2b68c00-ea55-4d0f-ae98-6403b351276c"},"vehicle_type_id":"4","last_reported":1742753472,"current_range_meters":11600,"station_id":"cpo3342slgdg3j2ifvpg","pricing_plan_id":"cebpf4jnsgd1na2vs0mg"},{"bike_id":"2b06e22a-afe8-4083-957f-b453f0c8ef78","system_id":"levelo_inurba_marseille","lat":43.287043,"lon":5.363918,"is_reserved":false,"is_disabled":false,"rental_uris":{"android":"levelo://app?vid=2b06e22a-afe8-4083-957f-b453f0c8ef78","ios":"levelo://app?vid=2b06e22a-afe8-4083-957f-b453f0c8ef78"},"vehicle_type_id":"4","last_reported":1742753472,"current_range_meters":12000,"station_id":"ce4bhah2rcd13ifvqei0","pricing_plan_id":"cebpf4jnsgd1na2vs0mg"},{"bike_id":"e77d191c-b6c2-4af6-8798-46f31e387227","system_id":"levelo_inurba_marseille","lat":43.3016,"lon":5.37431,"is_reserved":false,"is_disabled":false,"rental_uris":{"android":"levelo://app?vid=e77d191c-b6c2-4af6-8798-46f31e387227","ios":"levelo://app?vid=e77d191c-b6c2-4af6-8798-46f31e387227"},"vehicle_type_id":"4","last_reported":1742753472,"current_range_meters":12000,"station_id":"ce4bgs92rcd13ifvqcc0","pricing_plan_id":"cebpf4jnsgd1na2vs0mg"},{"bike_id":"6fb52db1-c0cd-47f7-851d-43b9eaa58080","system_id":"levelo_inurba_marseille","lat":43.30297,"lon":5.39212,"is_reserved":false,"is_disabled":false,"rental_uris":{"android":"levelo://app?vid=6fb52db1-c0cd-47f7-851d-43b9eaa58080","ios":"levelo://app?vid=6fb52db1-c0cd-47f7-851d-43b9eaa58080"},"vehicle_type_id":"4","last_reported":1742753472,"current_range_meters":12000,"station_id":"ce4bgkh2rcd13ifvqbk0","pricing_plan_id":"cebpf4jnsgd1na2vs0mg"},{"bike_id":"2edd92a2-108b-434c-a9eb-23d699db4bc1","system_id":"levelo_inurba_marseille","lat":43.28728,"lon":5.36087,"is_reserved":false,"is_disabled":false,"rental_uris":{"android":"levelo://app?vid=2edd92a2-108b-434c-a9eb-23d699db4bc1","ios":"levelo://app?vid=2edd92a2-108b-434c-a9eb-23d699db4bc1"},"vehicle_type_id":"4","last_reported":1742753472,"current_range_meters":12000,"station_id":"cki0cbj6b192h4jlfktg","pricing_plan_id":"cebpf4jnsgd1na2vs0mg"},{"bike_id":"e550c819-1679-406b-a3b2-ca325b910ab7","system_id":"levelo_inurba_marseille","lat":43.29319,"lon":5.37179,"is_reserved":false,"is_disabled":false,"rental_uris":{"android":"levelo://app?vid=e550c819-1679-406b-a3b2-ca325b910ab7","ios":"levelo://app?vid=e550c819-1679-406b-a3b2-ca325b910ab7"},"vehicle_type_id":"4","last_reported":1742753472,"current_range_meters":12000,"station_id":"ce4bgh92rcd13ifvqb40","pricing_plan_id":"cebpf4jnsgd1na2vs0mg"},{"bike_id":"b2da56fc-aa9e-4153-a16c-90da6900728a","system_id":"levelo_inurba_marseille","lat":43.29705,"lon":5.36616,"is_reserved":false,"is_disabled":false,"rental_uris":{"android":"levelo://app?vid=b2da56fc-aa9e-4153-a16c-90da6900728a","ios":"levelo://app?vid=b2da56fc-aa9e-4153-a16c-90da6900728a"},"vehicle_type_id":"4","last_reported":1742753472,"current_range_meters":12000,"station_id":"ce4bgn12rcd13ifvqbt0","pricing_plan_id":"cebpf4jnsgd1na2vs0mg"},{"bike_id":"4c39b4fa-d748-471c-9e95-21b5508c81cb","system_id":"levelo_inurba_marseille","lat":43.29885,"lon":5.38167,"is_reserved":false,"is_disabled":false,"rental_uris":{"android":"levelo://app?vid=4c39b4fa-d748-471c-9e95-21b5508c81cb","ios":"levelo://app?vid=4c39b4fa-d748-471c-9e95-21b5508c81cb"},"vehicle_type_id":"4","last_reported":1742753472,"current_range_meters":12000,"station_id":"ce4bgj12rcd13ifvqbc0","pricing_plan_id":"cebpf4jnsgd1na2vs0mg"},{"bike_id":"07d2588e-1c39-4374-9617-02c4335cb75a","system_id":"levelo_inurba_marseille","lat":43.26785,"lon":5.39413,"is_reserved":false,"is_disabled":false,"rental_uris":{"android":"levelo://app?vid=07d2588e-1c39-4374-9617-02c4335cb75a","ios":"levelo://app?vid=07d2588e-1c39-4374-9617-02c4335cb75a"},"vehicle_type_id":"4","last_reported":1742753472,"current_range_meters":12400,"station_id":"ce4bhh12rcd13ifvqfg0","pricing_plan_id":"cebpf4jnsgd1na2vs0mg"},{"bike_id":"f52c7f07-7a6b-4dbc-aeae-9fa998834082","system_id":"levelo_inurba_marseille","lat":43.3228,"lon":5.37557,"is_reserved":false,"is_disabled":false,"rental_uris":{"android":"levelo://app?vid=f52c7f07-7a6b-4dbc-aeae-9fa998834082","ios":"levelo://app?vid=f52c7f07-7a6b-4dbc-aeae-9fa998834082"},"vehicle_type_id":"4","last_reported":1742753472,"current_range_meters":12400,"station_id":"","pricing_plan_id":"cebpf4jnsgd1na2vs0mg"},{"bike_id":"9bd66c75-2d6b-4709-91e0-c8130478cce4","system_id":"levelo_inurba_marseille","lat":43.2592,"lon":5.40934,"is_reserved":false,"is_disabled":false,"rental_uris":{"android":"levelo://app?vid=9bd66c75-2d6b-4709-91e0-c8130478cce4","ios":"levelo://app?vid=9bd66c75-2d6b-4709-91e0-c8130478cce4"},"vehicle_type_id":"4","last_reported":1742753472,"current_range_meters":12400,"station_id":"ce4bhm92rcd13ifvqglg","pricing_plan_id":"cebpf4jnsgd1na2vs0mg"},{"bike_id":"81c28995-a624-4bc5-ad4b-6d333e9d549b","system_id":"levelo_inurba_marseille","lat":43.24652,"lon":5.38166,"is_reserved":false,"is_disabled":false,"rental_uris":{"android":"levelo://app?vid=81c28995-a624-4bc5-ad4b-6d333e9d549b","ios":"levelo://app?vid=81c28995-a624-4bc5-ad4b-6d333e9d549b"},"vehicle_type_id":"4","last_reported":1742753472,"current_range_meters":12400,"station_id":"ce4bhih2rcd13ifvqfr0","pricing_plan_id":"cebpf4jnsgd1na2vs0mg"},{"bike_id":"7f4f438b-b746-4c06-968b-127a42fad23b","system_id":"levelo_inurba_marseille","lat":43.29595,"lon":5.38089,"is_reserved":false,"is_disabled":false,"rental_uris":{"android":"levelo://app?vid=7f4f438b-b746-4c06-968b-127a42fad23b","ios":"levelo://app?vid=7f4f438b-b746-4c06-968b-127a42fad23b"},"vehicle_type_id":"4","last_reported":1742753472,"current_range_meters":12400,"station_id":"ce4bgl12rcd13ifvqbo0","pricing_plan_id":"cebpf4jnsgd1na2vs0mg"},{"bike_id":"ea209d18-91de-4c9d-9324-5b35d3037f05","system_id":"levelo_inurba_marseille","lat":43.29007,"lon":5.35606,"is_reserved":false,"is_disabled":false,"rental_uris":{"android":"levelo://app?vid=ea209d18-91de-4c9d-9324-5b35d3037f05","ios":"levelo://app?vid=ea209d18-91de-4c9d-9324-5b35d3037f05"},"vehicle_type_id":"4","last_reported":1742753472,"current_range_meters":12400,"station_id":"ce4bhb92rcd13ifvqen0","pricing_plan_id":"cebpf4jnsgd1na2vs0mg"},{"bike_id":"282809df-29b4-411f-b718-322266f75751","system_id":"levelo_inurba_marseille","lat":43.23035,"lon":5.35523,"is_reserved":false,"is_disabled":false,"rental_uris":{"android":"levelo://app?vid=282809df-29b4-411f-b718-322266f75751","ios":"levelo://app?vid=282809df-29b4-411f-b718-322266f75751"},"vehicle_type_id":"4","last_reported":1742753472,"current_range_meters":12400,"station_id":"cpo3342slgdg3j2ifvpg","pricing_plan_id":"cebpf4jnsgd1na2vs0mg"},{"bike_id":"91766ae4-572d-4094-98ea-3e1ad341c4e1","system_id":"levelo_inurba_marseille","lat":43.31169,"lon":5.38256,"is_reserved":false,"is_disabled":false,"rental_uris":{"android":"levelo://app?vid=91766ae4-572d-4094-98ea-3e1ad341c4e1","ios":"levelo://app?vid=91766ae4-572d-4094-98ea-3e1ad341c4e1"},"vehicle_type_id":"4","last_reported":1742753472,"current_range_meters":12400,"station_id":"","pricing_plan_id":"cebpf4jnsgd1na2vs0mg"},{"bike_id":"87545654-a94d-47f7-8810-40c176bd5745","system_id":"levelo_inurba_marseille","lat":43.29803,"lon":5.38095,"is_reserved":false,"is_disabled":false,"rental_uris":{"android":"levelo://app?vid=87545654-a94d-47f7-8810-40c176bd5745","ios":"levelo://app?vid=87545654-a94d-47f7-8810-40c176bd5745"},"vehicle_type_id":"4","last_reported":1742753472,"current_range_meters":12400,"station_id":"ce4bgip2rcd13ifvqbb0","pricing_plan_id":"cebpf4jnsgd1na2vs0mg"},{"bike_id":"a8b3cb95-f059-47ac-b672-1c7197ca6c51","system_id":"levelo_inurba_marseille","lat":43.28151,"lon":5.42661,"is_reserved":false,"is_disabled":false,"rental_uris":{"android":"levelo://app?vid=a8b3cb95-f059-47ac-b672-1c7197ca6c51","ios":"levelo://app?vid=a8b3cb95-f059-47ac-b672-1c7197ca6c51"},"vehicle_type_id":"4","last_reported":1742753472,"current_range_meters":12800,"station_id":"ce4bhnh2rcd13ifvqgug","pricing_plan_id":"cebpf4jnsgd1na2vs0mg"},{"bike_id":"b4033be0-5b35-45ca-9979-c7890f6c888e","system_id":"levelo_inurba_marseille","lat":43.311677,"lon":5.387185,"is_reserved":false,"is_disabled":false,"rental_uris":{"android":"levelo://app?vid=b4033be0-5b35-45ca-9979-c7890f6c888e","ios":"levelo://app?vid=b4033be0-5b35-45ca-9979-c7890f6c888e"},"vehicle_type_id":"4","last_reported":1742753472,"current_range_meters":12800,"station_id":"ce4bh612rcd13ifvqe6g","pricing_plan_id":"cebpf4jnsgd1na2vs0mg"},{"bike_id":"794fb38b-1d82-45e0-bfb3-5bbb935a3b94","system_id":"levelo_inurba_marseille","lat":43.26211,"lon":5.37438,"is_reserved":false,"is_disabled":false,"rental_uris":{"android":"levelo://app?vid=794fb38b-1d82-45e0-bfb3-5bbb935a3b94","ios":"levelo://app?vid=794fb38b-1d82-45e0-bfb3-5bbb935a3b94"},"vehicle_type_id":"4","last_reported":1742753472,"current_range_meters":12800,"station_id":"ce4bhgp2rcd13ifvqfc0","pricing_plan_id":"cebpf4jnsgd1na2vs0mg"},{"bike_id":"91fe4491-ca4a-4013-b7e2-2a802c238a70","system_id":"levelo_inurba_marseille","lat":43.31073,"lon":5.38355,"is_reserved":false,"is_disabled":false,"rental_uris":{"android":"levelo://app?vid=91fe4491-ca4a-4013-b7e2-2a802c238a70","ios":"levelo://app?vid=91fe4491-ca4a-4013-b7e2-2a802c238a70"},"vehicle_type_id":"4","last_reported":1742753472,"current_range_meters":12800,"station_id":"ce4bgv92rcd13ifvqcr0","pricing_plan_id":"cebpf4jnsgd1na2vs0mg"},{"bike_id":"034ee108-51e6-457e-ac57-73b1ca0dac93","system_id":"levelo_inurba_marseille","lat":43.29268,"lon":5.3844,"is_reserved":false,"is_disabled":false,"rental_uris":{"android":"levelo://app?vid=034ee108-51e6-457e-ac57-73b1ca0dac93","ios":"levelo://app?vid=034ee108-51e6-457e-ac57-73b1ca0dac93"},"vehicle_type_id":"4","last_reported":1742753472,"current_range_meters":12800,"station_id":"ce4bh692rcd13ifvqea0","pricing_plan_id":"cebpf4jnsgd1na2vs0mg"},{"bike_id":"587c4b09-c6c3-4755-8011-d820e3904490","system_id":"levelo_inurba_marseille","lat":43.23955,"lon":5.36631,"is_reserved":false,"is_disabled":false,"rental_uris":{"android":"levelo://app?vid=587c4b09-c6c3-4755-8011-d820e3904490","ios":"levelo://app?vid=587c4b09-c6c3-4755-8011-d820e3904490"},"vehicle_type_id":"4","last_reported":1742753472,"current_range_meters":12800,"station_id":"ce4bhi12rcd13ifvqfp0","pricing_plan_id":"cebpf4jnsgd1na2vs0mg"},{"bike_id":"24b77e8f-4e9e-4342-9950-404af23a4ef7","system_id":"levelo_inurba_marseille","lat":43.23954,"lon":5.36634,"is_reserved":false,"is_disabled":false,"rental_uris":{"android":"levelo://app?vid=24b77e8f-4e9e-4342-9950-404af23a4ef7","ios":"levelo://app?vid=24b77e8f-4e9e-4342-9950-404af23a4ef7"},"vehicle_type_id":"4","last_reported":1742753472,"current_range_meters":13600,"station_id":"ce4bhi12rcd13ifvqfp0","pricing_plan_id":"cebpf4jnsgd1na2vs0mg"},{"bike_id":"73f24004-486a-42ce-8b4c-437345158989","system_id":"levelo_inurba_marseille","lat":43.2593,"lon":5.40902,"is_reserved":false,"is_disabled":false,"rental_uris":{"android":"levelo://app?vid=73f24004-486a-42ce-8b4c-437345158989","ios":"levelo://app?vid=73f24004-486a-42ce-8b4c-437345158989"},"vehicle_type_id":"4","last_reported":1742753472,"current_range_meters":13600,"station_id":"ce4bhm92rcd13ifvqglg","pricing_plan_id":"cebpf4jnsgd1na2vs0mg"},{"bike_id":"f52d578c-2e92-468c-8d0d-6b48faf8734d","system_id":"levelo_inurba_marseille","lat":43.29865,"lon":5.38905,"is_reserved":false,"is_disabled":true,"rental_uris":{"android":"levelo://app?vid=f52d578c-2e92-468c-8d0d-6b48faf8734d","ios":"levelo://app?vid=f52d578c-2e92-468c-8d0d-6b48faf8734d"},"vehicle_type_id":"4","last_reported":1742753472,"current_range_meters":13600,"station_id":"ce4bh392rcd13ifvqdl0","pricing_plan_id":"cebpf4jnsgd1na2vs0mg"},{"bike_id":"362ce256-d873-44d5-8d0c-8eb3060da6b1","system_id":"levelo_inurba_marseille","lat":43.28149,"lon":5.42656,"is_reserved":false,"is_disabled":false,"rental_uris":{"android":"levelo://app?vid=362ce256-d873-44d5-8d0c-8eb3060da6b1","ios":"levelo://app?vid=362ce256-d873-44d5-8d0c-8eb3060da6b1"},"vehicle_type_id":"4","last_reported":1742753472,"current_range_meters":13600,"station_id":"ce4bhnh2rcd13ifvqgug","pricing_plan_id":"cebpf4jnsgd1na2vs0mg"},{"bike_id":"eb4a2c41-628d-4b10-b766-2b8f69e0c0c0","system_id":"levelo_inurba_marseille","lat":43.30894,"lon":5.36845,"is_reserved":false,"is_disabled":false,"rental_uris":{"android":"levelo://app?vid=eb4a2c41-628d-4b10-b766-2b8f69e0c0c0","ios":"levelo://app?vid=eb4a2c41-628d-4b10-b766-2b8f69e0c0c0"},"vehicle_type_id":"4","last_reported":1742753472,"current_range_meters":13600,"station_id":"ce4bgn92rcd13ifvqbvg","pricing_plan_id":"cebpf4jnsgd1na2vs0mg"},{"bike_id":"75c4418e-12f5-45ee-8c1f-91dc5829f101","system_id":"levelo_inurba_marseille","lat":43.28448,"lon":5.35901,"is_reserved":false,"is_disabled":false,"rental_uris":{"android":"levelo://app?vid=75c4418e-12f5-45ee-8c1f-91dc5829f101","ios":"levelo://app?vid=75c4418e-12f5-45ee-8c1f-91dc5829f101"},"vehicle_type_id":"4","last_reported":1742753472,"current_range_meters":13600,"station_id":"ce4bhah2rcd13ifvqei0","pricing_plan_id":"cebpf4jnsgd1na2vs0mg"},{"bike_id":"190b2064-fd76-48bb-8245-b597993b1043","system_id":"levelo_inurba_marseille","lat":43.27823,"lon":5.40775,"is_reserved":false,"is_disabled":false,"rental_uris":{"android":"levelo://app?vid=190b2064-fd76-48bb-8245-b597993b1043","ios":"levelo://app?vid=190b2064-fd76-48bb-8245-b597993b1043"},"vehicle_type_id":"4","last_reported":1742753472,"current_range_meters":13600,"station_id":"ce4bhnh2rcd13ifvqgtg","pricing_plan_id":"cebpf4jnsgd1na2vs0mg"},{"bike_id":"2ca0e00a-5797-4fdf-8ea8-686805ca80c9","system_id":"levelo_inurba_marseille","lat":43.30948,"lon":5.39018,"is_reserved":false,"is_disabled":true,"rental_uris":{"android":"levelo://app?vid=2ca0e00a-5797-4fdf-8ea8-686805ca80c9","ios":"levelo://app?vid=2ca0e00a-5797-4fdf-8ea8-686805ca80c9"},"vehicle_type_id":"4","last_reported":1742753472,"current_range_meters":14000,"station_id":"ce4bgup2rcd13ifvqco0","pricing_plan_id":"cebpf4jnsgd1na2vs0mg"},{"bike_id":"f4c2871c-dc7c-49cb-b1e5-8a07711e5a03","system_id":"levelo_inurba_marseille","lat":43.28956,"lon":5.37269,"is_reserved":false,"is_disabled":false,"rental_uris":{"android":"levelo://app?vid=f4c2871c-dc7c-49cb-b1e5-8a07711e5a03","ios":"levelo://app?vid=f4c2871c-dc7c-49cb-b1e5-8a07711e5a03"},"vehicle_type_id":"4","last_reported":1742753472,"current_range_meters":13600,"station_id":"ce4bh692rcd13ifvqe90","pricing_plan_id":"cebpf4jnsgd1na2vs0mg"},{"bike_id":"48c9254c-41e8-4499-b873-b258065f3c89","system_id":"levelo_inurba_marseille","lat":43.29787,"lon":5.38113,"is_reserved":false,"is_disabled":false,"rental_uris":{"android":"levelo://app?vid=48c9254c-41e8-4499-b873-b258065f3c89","ios":"levelo://app?vid=48c9254c-41e8-4499-b873-b258065f3c89"},"vehicle_type_id":"4","last_reported":1742753472,"current_range_meters":14000,"station_id":"ce4bgip2rcd13ifvqbb0","pricing_plan_id":"cebpf4jnsgd1na2vs0mg"},{"bike_id":"18e3bce1-32a6-4831-8871-ad0cdfc43d55","system_id":"levelo_inurba_marseille","lat":43.32362,"lon":5.36757,"is_reserved":false,"is_disabled":false,"rental_uris":{"android":"levelo://app?vid=18e3bce1-32a6-4831-8871-ad0cdfc43d55","ios":"levelo://app?vid=18e3bce1-32a6-4831-8871-ad0cdfc43d55"},"vehicle_type_id":"4","last_reported":1742753472,"current_range_meters":14000,"station_id":"ce4bhsh2rcd13ifvqi2g","pricing_plan_id":"cebpf4jnsgd1na2vs0mg"},{"bike_id":"db1794fa-49c9-4d95-a5be-910e5e794ce7","system_id":"levelo_inurba_marseille","lat":43.31069,"lon":5.38353,"is_reserved":false,"is_disabled":false,"rental_uris":{"android":"levelo://app?vid=db1794fa-49c9-4d95-a5be-910e5e794ce7","ios":"levelo://app?vid=db1794fa-49c9-4d95-a5be-910e5e794ce7"},"vehicle_type_id":"4","last_reported":1742753472,"current_range_meters":14000,"station_id":"ce4bgv92rcd13ifvqcr0","pricing_plan_id":"cebpf4jnsgd1na2vs0mg"},{"bike_id":"94fb8f40-edb7-4462-93df-4ab16a2dad2a","system_id":"levelo_inurba_marseille","lat":43.29598,"lon":5.38097,"is_reserved":false,"is_disabled":false,"rental_uris":{"android":"levelo://app?vid=94fb8f40-edb7-4462-93df-4ab16a2dad2a","ios":"levelo://app?vid=94fb8f40-edb7-4462-93df-4ab16a2dad2a"},"vehicle_type_id":"4","last_reported":1742753472,"current_range_meters":14000,"station_id":"ce4bgl12rcd13ifvqbo0","pricing_plan_id":"cebpf4jnsgd1na2vs0mg"},{"bike_id":"1e7860af-e565-49d1-b5d8-ea5d721fdbbf","system_id":"levelo_inurba_marseille","lat":43.32337,"lon":5.40627,"is_reserved":false,"is_disabled":false,"rental_uris":{"android":"levelo://app?vid=1e7860af-e565-49d1-b5d8-ea5d721fdbbf","ios":"levelo://app?vid=1e7860af-e565-49d1-b5d8-ea5d721fdbbf"},"vehicle_type_id":"4","last_reported":1742753472,"current_range_meters":14400,"station_id":"ce4bhq92rcd13ifvqhjg","pricing_plan_id":"cebpf4jnsgd1na2vs0mg"},{"bike_id":"87e86a8c-06a5-4c7c-ad4c-f947c9935fa5","system_id":"levelo_inurba_marseille","lat":43.23184,"lon":5.39978,"is_reserved":false,"is_disabled":false,"rental_uris":{"android":"levelo://app?vid=87e86a8c-06a5-4c7c-ad4c-f947c9935fa5","ios":"levelo://app?vid=87e86a8c-06a5-4c7c-ad4c-f947c9935fa5"},"vehicle_type_id":"4","last_reported":1742753472,"current_range_meters":14400,"station_id":"ce4bhn12rcd13ifvqgqg","pricing_plan_id":"cebpf4jnsgd1na2vs0mg"},{"bike_id":"ccb7158d-a155-4eb7-8a07-bb189c222fc8","system_id":"levelo_inurba_marseille","lat":43.26493,"lon":5.39545,"is_reserved":false,"is_disabled":false,"rental_uris":{"android":"levelo://app?vid=ccb7158d-a155-4eb7-8a07-bb189c222fc8","ios":"levelo://app?vid=ccb7158d-a155-4eb7-8a07-bb189c222fc8"},"vehicle_type_id":"4","last_reported":1742753472,"current_range_meters":14400,"station_id":"ce4bhi12rcd13ifvqfq0","pricing_plan_id":"cebpf4jnsgd1na2vs0mg"},{"bike_id":"8db8e94c-5c15-452d-8525-723b319c3c7c","system_id":"levelo_inurba_marseille","lat":43.28862,"lon":5.39346,"is_reserved":false,"is_disabled":true,"rental_uris":{"android":"levelo://app?vid=8db8e94c-5c15-452d-8525-723b319c3c7c","ios":"levelo://app?vid=8db8e94c-5c15-452d-8525-723b319c3c7c"},"vehicle_type_id":"4","last_reported":1742753472,"current_range_meters":14400,"station_id":"ce4bh2p2rcd13ifvqdi0","pricing_plan_id":"cebpf4jnsgd1na2vs0mg"},{"bike_id":"e74c8352-61dd-41a6-948f-14e913a7bc2d","system_id":"levelo_inurba_marseille","lat":43.316,"lon":5.405651,"is_reserved":false,"is_disabled":false,"rental_uris":{"android":"levelo://app?vid=e74c8352-61dd-41a6-948f-14e913a7bc2d","ios":"levelo://app?vid=e74c8352-61dd-41a6-948f-14e913a7bc2d"},"vehicle_type_id":"4","last_reported":1742753472,"current_range_meters":14400,"station_id":"ce4bhq12rcd13ifvqhig","pricing_plan_id":"cebpf4jnsgd1na2vs0mg"},{"bike_id":"d1f7ca60-4bb4-4dd9-9c90-e8069ceefa40","system_id":"levelo_inurba_marseille","lat":43.24163,"lon":5.36418,"is_reserved":false,"is_disabled":false,"rental_uris":{"android":"levelo://app?vid=d1f7ca60-4bb4-4dd9-9c90-e8069ceefa40","ios":"levelo://app?vid=d1f7ca60-4bb4-4dd9-9c90-e8069ceefa40"},"vehicle_type_id":"4","last_reported":1742753472,"current_range_meters":14800,"station_id":"cpo36qri1sfpv3e86is0","pricing_plan_id":"cebpf4jnsgd1na2vs0mg"},{"bike_id":"3ea22581-9d15-4848-b0f8-c0f02e0d5298","system_id":"levelo_inurba_marseille","lat":43.31149,"lon":5.3872,"is_reserved":false,"is_disabled":false,"rental_uris":{"android":"levelo://app?vid=3ea22581-9d15-4848-b0f8-c0f02e0d5298","ios":"levelo://app?vid=3ea22581-9d15-4848-b0f8-c0f02e0d5298"},"vehicle_type_id":"4","last_reported":1742753472,"current_range_meters":14800,"station_id":"ce4bgv12rcd13ifvqcp0","pricing_plan_id":"cebpf4jnsgd1na2vs0mg"},{"bike_id":"2ac190db-f881-48e8-b825-74557ca23683","system_id":"levelo_inurba_marseille","lat":43.28345,"lon":5.38098,"is_reserved":false,"is_disabled":false,"rental_uris":{"android":"levelo://app?vid=2ac190db-f881-48e8-b825-74557ca23683","ios":"levelo://app?vid=2ac190db-f881-48e8-b825-74557ca23683"},"vehicle_type_id":"4","last_reported":1742753472,"current_range_meters":14800,"station_id":"ce4bh412rcd13ifvqdr0","pricing_plan_id":"cebpf4jnsgd1na2vs0mg"},{"bike_id":"76757220-d8a3-400d-93c0-947089c24c8c","system_id":"levelo_inurba_marseille","lat":43.29897,"lon":5.43664,"is_reserved":false,"is_disabled":false,"rental_uris":{"android":"levelo://app?vid=76757220-d8a3-400d-93c0-947089c24c8c","ios":"levelo://app?vid=76757220-d8a3-400d-93c0-947089c24c8c"},"vehicle_type_id":"4","last_reported":1742753472,"current_range_meters":14800,"station_id":"ce4bhpp2rcd13ifvqhfg","pricing_plan_id":"cebpf4jnsgd1na2vs0mg"},{"bike_id":"a07caa43-c25b-405f-afad-ff3d631ddc36","system_id":"levelo_inurba_marseille","lat":43.25823,"lon":5.39433,"is_reserved":false,"is_disabled":false,"rental_uris":{"android":"levelo://app?vid=a07caa43-c25b-405f-afad-ff3d631ddc36","ios":"levelo://app?vid=a07caa43-c25b-405f-afad-ff3d631ddc36"},"vehicle_type_id":"4","last_reported":1742753472,"current_range_meters":14800,"station_id":"ce4bhip2rcd13ifvqft0","pricing_plan_id":"cebpf4jnsgd1na2vs0mg"},{"bike_id":"7c5334ba-0042-4d70-b208-96d4a6a22001","system_id":"levelo_inurba_marseille","lat":43.28718,"lon":5.36113,"is_reserved":false,"is_disabled":false,"rental_uris":{"android":"levelo://app?vid=7c5334ba-0042-4d70-b208-96d4a6a22001","ios":"levelo://app?vid=7c5334ba-0042-4d70-b208-96d4a6a22001"},"vehicle_type_id":"4","last_reported":1742753472,"current_range_meters":14800,"station_id":"cki0cbj6b192h4jlfktg","pricing_plan_id":"cebpf4jnsgd1na2vs0mg"},{"bike_id":"310bc4a6-d508-43bd-92b8-382630ef6a8f","system_id":"levelo_inurba_marseille","lat":43.30429,"lon":5.39746,"is_reserved":false,"is_disabled":false,"rental_uris":{"android":"levelo://app?vid=310bc4a6-d508-43bd-92b8-382630ef6a8f","ios":"levelo://app?vid=310bc4a6-d508-43bd-92b8-382630ef6a8f"},"vehicle_type_id":"4","last_reported":1742753472,"current_range_meters":14800,"station_id":"ce4bh092rcd13ifvqd20","pricing_plan_id":"cebpf4jnsgd1na2vs0mg"},{"bike_id":"ba2d81c1-95da-4808-8257-fd67c693bbbe","system_id":"levelo_inurba_marseille","lat":43.29519,"lon":5.37494,"is_reserved":false,"is_disabled":false,"rental_uris":{"android":"levelo://app?vid=ba2d81c1-95da-4808-8257-fd67c693bbbe","ios":"levelo://app?vid=ba2d81c1-95da-4808-8257-fd67c693bbbe"},"vehicle_type_id":"4","last_reported":1742753472,"current_range_meters":14800,"station_id":"ce4bgkp2rcd13ifvqbmg","pricing_plan_id":"cebpf4jnsgd1na2vs0mg"},{"bike_id":"21456277-6144-4163-8a6a-df2215d8b9cb","system_id":"levelo_inurba_marseille","lat":43.27808,"lon":5.40745,"is_reserved":false,"is_disabled":false,"rental_uris":{"android":"levelo://app?vid=21456277-6144-4163-8a6a-df2215d8b9cb","ios":"levelo://app?vid=21456277-6144-4163-8a6a-df2215d8b9cb"},"vehicle_type_id":"4","last_reported":1742753472,"current_range_meters":15200,"station_id":"ce4bhnh2rcd13ifvqgtg","pricing_plan_id":"cebpf4jnsgd1na2vs0mg"},{"bike_id":"c3ea81e6-8675-4847-b618-2dfb23c938f8","system_id":"levelo_inurba_marseille","lat":43.276171,"lon":5.361014,"is_reserved":false,"is_disabled":true,"rental_uris":{"android":"levelo://app?vid=c3ea81e6-8675-4847-b618-2dfb23c938f8","ios":"levelo://app?vid=c3ea81e6-8675-4847-b618-2dfb23c938f8"},"vehicle_type_id":"4","last_reported":1742753472,"current_range_meters":15200,"station_id":"ce4bgj92rcd13ifvqbe0","pricing_plan_id":"cebpf4jnsgd1na2vs0mg"},{"bike_id":"1997b10d-1d35-44d3-85c4-29c84df0623c","system_id":"levelo_inurba_marseille","lat":43.24069,"lon":5.37768,"is_reserved":false,"is_disabled":false,"rental_uris":{"android":"levelo://app?vid=1997b10d-1d35-44d3-85c4-29c84df0623c","ios":"levelo://app?vid=1997b10d-1d35-44d3-85c4-29c84df0623c"},"vehicle_type_id":"4","last_reported":1742753472,"current_range_meters":15200,"station_id":"ce4bhnp2rcd13ifvqgvg","pricing_plan_id":"cebpf4jnsgd1na2vs0mg"},{"bike_id":"6da13cbe-fe0b-42ba-8b7f-69afa665c6dc","system_id":"levelo_inurba_marseille","lat":43.3035,"lon":5.3756,"is_reserved":false,"is_disabled":false,"rental_uris":{"android":"levelo://app?vid=6da13cbe-fe0b-42ba-8b7f-69afa665c6dc","ios":"levelo://app?vid=6da13cbe-fe0b-42ba-8b7f-69afa665c6dc"},"vehicle_type_id":"4","last_reported":1742753472,"current_range_meters":15200,"station_id":"","pricing_plan_id":"cebpf4jnsgd1na2vs0mg"},{"bike_id":"5cd3e5bf-29e6-4dab-a930-b49601feb04c","system_id":"levelo_inurba_marseille","lat":43.30157,"lon":5.37478,"is_reserved":false,"is_disabled":false,"rental_uris":{"android":"levelo://app?vid=5cd3e5bf-29e6-4dab-a930-b49601feb04c","ios":"levelo://app?vid=5cd3e5bf-29e6-4dab-a930-b49601feb04c"},"vehicle_type_id":"4","last_reported":1742753472,"current_range_meters":15200,"station_id":"","pricing_plan_id":"cebpf4jnsgd1na2vs0mg"},{"bike_id":"64da6105-406b-402f-b4c9-ed2c19fbf402","system_id":"levelo_inurba_marseille","lat":43.292725,"lon":5.384452,"is_reserved":false,"is_disabled":false,"rental_uris":{"android":"levelo://app?vid=64da6105-406b-402f-b4c9-ed2c19fbf402","ios":"levelo://app?vid=64da6105-406b-402f-b4c9-ed2c19fbf402"},"vehicle_type_id":"4","last_reported":1742753472,"current_range_meters":16000,"station_id":"","pricing_plan_id":"cebpf4jnsgd1na2vs0mg"},{"bike_id":"f74b13c7-053c-4b7a-983a-625dd03e6fbb","system_id":"levelo_inurba_marseille","lat":43.23187,"lon":5.35562,"is_reserved":false,"is_disabled":false,"rental_uris":{"android":"levelo://app?vid=f74b13c7-053c-4b7a-983a-625dd03e6fbb","ios":"levelo://app?vid=f74b13c7-053c-4b7a-983a-625dd03e6fbb"},"vehicle_type_id":"4","last_reported":1742753472,"current_range_meters":16000,"station_id":"ce4bhu92rcd13ifvqi70","pricing_plan_id":"cebpf4jnsgd1na2vs0mg"},{"bike_id":"2a3ff796-2af1-48cf-a1ce-876eed353be8","system_id":"levelo_inurba_marseille","lat":43.32657,"lon":5.40996,"is_reserved":false,"is_disabled":false,"rental_uris":{"android":"levelo://app?vid=2a3ff796-2af1-48cf-a1ce-876eed353be8","ios":"levelo://app?vid=2a3ff796-2af1-48cf-a1ce-876eed353be8"},"vehicle_type_id":"4","last_reported":1742753472,"current_range_meters":16000,"station_id":"ce4bhpp2rcd13ifvqhgg","pricing_plan_id":"cebpf4jnsgd1na2vs0mg"},{"bike_id":"fd75b0f4-d590-40ad-8ab6-124339ae9bb3","system_id":"levelo_inurba_marseille","lat":43.32619,"lon":5.41051,"is_reserved":false,"is_disabled":false,"rental_uris":{"android":"levelo://app?vid=fd75b0f4-d590-40ad-8ab6-124339ae9bb3","ios":"levelo://app?vid=fd75b0f4-d590-40ad-8ab6-124339ae9bb3"},"vehicle_type_id":"4","last_reported":1742753472,"current_range_meters":16000,"station_id":"","pricing_plan_id":"cebpf4jnsgd1na2vs0mg"},{"bike_id":"e784bcf0-e6f4-419c-acc0-929d2665a4b7","system_id":"levelo_inurba_marseille","lat":43.28171,"lon":5.4263,"is_reserved":false,"is_disabled":false,"rental_uris":{"android":"levelo://app?vid=e784bcf0-e6f4-419c-acc0-929d2665a4b7","ios":"levelo://app?vid=e784bcf0-e6f4-419c-acc0-929d2665a4b7"},"vehicle_type_id":"4","last_reported":1742753472,"current_range_meters":16000,"station_id":"ce4bhnh2rcd13ifvqgug","pricing_plan_id":"cebpf4jnsgd1na2vs0mg"},{"bike_id":"b97b8876-d969-4576-b7ab-db9b2177d974","system_id":"levelo_inurba_marseille","lat":43.27709,"lon":5.38739,"is_reserved":false,"is_disabled":false,"rental_uris":{"android":"levelo://app?vid=b97b8876-d969-4576-b7ab-db9b2177d974","ios":"levelo://app?vid=b97b8876-d969-4576-b7ab-db9b2177d974"},"vehicle_type_id":"4","last_reported":1742753472,"current_range_meters":16000,"station_id":"","pricing_plan_id":"cebpf4jnsgd1na2vs0mg"},{"bike_id":"c4ab3472-f8f2-45ed-ad61-5a88a3be4471","system_id":"levelo_inurba_marseille","lat":43.2984,"lon":5.37907,"is_reserved":false,"is_disabled":false,"rental_uris":{"android":"levelo://app?vid=c4ab3472-f8f2-45ed-ad61-5a88a3be4471","ios":"levelo://app?vid=c4ab3472-f8f2-45ed-ad61-5a88a3be4471"},"vehicle_type_id":"4","last_reported":1742753472,"current_range_meters":16000,"station_id":"","pricing_plan_id":"cebpf4jnsgd1na2vs0mg"},{"bike_id":"6eba8d8c-22e7-439f-ab05-699ce76fecec","system_id":"levelo_inurba_marseille","lat":43.27978,"lon":5.38785,"is_reserved":false,"is_disabled":false,"rental_uris":{"android":"levelo://app?vid=6eba8d8c-22e7-439f-ab05-699ce76fecec","ios":"levelo://app?vid=6eba8d8c-22e7-439f-ab05-699ce76fecec"},"vehicle_type_id":"4","last_reported":1742753472,"current_range_meters":16000,"station_id":"ce4bhg12rcd13ifvqf80","pricing_plan_id":"cebpf4jnsgd1na2vs0mg"},{"bike_id":"f19b6c24-facc-4cbc-b7a5-7e6ed0bf3fc5","system_id":"levelo_inurba_marseille","lat":43.28347,"lon":5.38114,"is_reserved":false,"is_disabled":false,"rental_uris":{"android":"levelo://app?vid=f19b6c24-facc-4cbc-b7a5-7e6ed0bf3fc5","ios":"levelo://app?vid=f19b6c24-facc-4cbc-b7a5-7e6ed0bf3fc5"},"vehicle_type_id":"4","last_reported":1742753472,"current_range_meters":16000,"station_id":"ce4bh412rcd13ifvqdr0","pricing_plan_id":"cebpf4jnsgd1na2vs0mg"},{"bike_id":"9b3dcaf5-b313-4c20-91dc-f1c16272632c","system_id":"levelo_inurba_marseille","lat":43.28151,"lon":5.42689,"is_reserved":false,"is_disabled":false,"rental_uris":{"android":"levelo://app?vid=9b3dcaf5-b313-4c20-91dc-f1c16272632c","ios":"levelo://app?vid=9b3dcaf5-b313-4c20-91dc-f1c16272632c"},"vehicle_type_id":"4","last_reported":1742753472,"current_range_meters":16000,"station_id":"ce4bhnh2rcd13ifvqgug","pricing_plan_id":"cebpf4jnsgd1na2vs0mg"},