{"last_updated":1691590022,"ttl":30,"version":"2.2","data":{"bikes":[{"bike_id":"a0df643c-f5f0-45e5-8579-755401df5e60","system_id":"levelo_inurba_marseille","lat":43.313391,"lon":5.36706,"is_reserved":false,"is_disabled":false,"rental_uris":{"android":"levelo://app?vid=a0df643c-f5f0-45e5-8579-755401df5e60","ios":"levelo://app?vid=a0df643c-f5f0-45e5-8579-755401df5e60"},"vehicle_type_id":"4","last_reported":1691590022,"current_range_meters":31200,"station_id":"ce4bgr92rcd13ifvqc6g","pricing_plan_id":"free"},{"bike_id":"03348f95-094b-4f0d-9a61-719d2fdedb64","system_id":"levelo_inurba_marseille","lat":43.313391,"lon":5.36706,"is_reserved":false,"is_disabled":false,"rental_uris":{"android":"levelo://app?vid=03348f95-094b-4f0d-9a61-719d2fdedb64","ios":"levelo://app?vid=03348f95-094b-4f0d-9a61-719d2fdedb64"},"vehicle_type_id":"4","last_reported":1691590022,"current_range_meters":22400,"station_id":"ce4bgr92rcd13ifvqc6g","pricing_plan_id":"free"},{"bike_id":"2f631430-6cfd-4fa8-8cde-155892af507b","system_id":"levelo_inurba_marseille","lat":43.31341,"lon":5.367098,"is_reserved":false,"is_disabled":false,"rental_uris":{"android":"levelo://app?vid=2f631430-6cfd-4fa8-8cde-155892af507b","ios":"levelo://app?vid=2f631430-6cfd-4fa8-8cde-155892af507b"},"vehicle_type_id":"4","last_reported":1691590022,"current_range_meters":18800,"station_id":"ce4bgr92rcd13ifvqc6g","pricing_plan_id":"free"},{"bike_id":"b77b5319-cd84-42eb-bced-aff9ff6dafa8","system_id":"levelo_inurba_marseille","lat":43.31341,"lon":5.367098,"is_reserved":false,"is_disabled":false,"rental_uris":{"android":"levelo://app?vid=b77b5319-cd84-42eb-bced-aff9ff6dafa8","ios":"levelo://app?vid=b77b5319-cd84-42eb-bced-aff9ff6dafa8"},"vehicle_type_id":"4","last_reported":1691590022,"current_range_meters":17600,"station_id":"ce4bgr92rcd13ifvqc6g","pricing_plan_id":"free"},{"bike_id":"3cd8374d-4366-4c4a-833e-d87217864c4d","system_id":"levelo_inurba_marseille","lat":43.313391,"lon":5.36706,"is_reserved":false,"is_disabled":false,"rental_uris":{"android":"levelo://app?vid=3cd8374d-4366-4c4a-833e-d87217864c4d","ios":"levelo://app?vid=3cd8374d-4366-4c4a-833e-d87217864c4d"},"vehicle_type_id":"4","last_reported":1691590022,"current_range_meters":25600,"station_id":"ce4bgr92rcd13ifvqc6g","pricing_plan_id":"free"},{"bike_id":"53ee2073-1ac1-49cd-8634-eda60b87cace","system_id":"levelo_inurba_marseille","lat":43.313391,"lon":5.36706,"is_reserved":false,"is_disabled":false,"rental_uris":{"android":"levelo://app?vid=53ee2073-1ac1-49cd-8634-eda60b87cace","ios":"levelo://app?vid=53ee2073-1ac1-49cd-8634-eda60b87cace"},"vehicle_type_id":"4","last_reported":1691590022,"current_range_meters":30400,"station_id":"ce4bgr92rcd13ifvqc6g","pricing_plan_id":"free"},{"bike_id":"12fc2eb2-808e-4112-9fe1-bf7b265d0f5d","system_id":"levelo_inurba_marseille","lat":43.31341,"lon":5.367098,"is_reserved":false,"is_disabled":false,"rental_uris":{"android":"levelo://app?vid=12fc2eb2-808e-4112-9fe1-bf7b265d0f5d","ios":"levelo://app?vid=12fc2eb2-808e-4112-9fe1-bf7b265d0f5d"},"vehicle_type_id":"4","last_reported":1691590022,"current_range_meters":29600,"station_id":"ce4bgr92rcd13ifvqc6g","pricing_plan_id":"free"},{"bike_id":"ef471e9f-56d6-407c-82b0-ecd24473caa7","system_id":"levelo_inurba_marseille","lat":43.31341,"lon":5.367098,"is_reserved":false,"is_disabled":false,"rental_uris":{"android":"levelo://app?vid=ef471e9f-56d6-407c-82b0-ecd24473caa7","ios":"levelo://app?vid=ef471e9f-56d6-407c-82b0-ecd24473caa7"},"vehicle_type_id":"4","last_reported":1691590022,"current_range_meters":20000,"station_id":"ce4bgr92rcd13ifvqc6g","pricing_plan_id":"free"},{"bike_id":"b6830e92-fa79-4920-8776-90b25d9f0c0e","system_id":"levelo_inurba_marseille","lat":43.31341,"lon":5.367098,"is_reserved":false,"is_disabled":false,"rental_uris":{"android":"levelo://app?vid=b6830e92-fa79-4920-8776-90b25d9f0c0e","ios":"levelo://app?vid=b6830e92-fa79-4920-8776-90b25d9f0c0e"},"vehicle_type_id":"4","last_reported":1691590022,"current_range_meters":22400,"station_id":"ce4bgr92rcd13ifvqc6g","pricing_plan_id":"free"},{"bike_id":"04381479-df53-4f78-a8e8-70eb84bf8c24","system_id":"levelo_inurba_marseille","lat":43.313391,"lon":5.36706,"is_reserved":false,"is_disabled":false,"rental_uris":{"android":"levelo://app?vid=04381479-df53-4f78-a8e8-70eb84bf8c24","ios":"levelo://app?vid=04381479-df53-4f78-a8e8-70eb84bf8c24"},"vehicle_type_id":"4","last_reported":1691590022,"current_range_meters":11600,"station_id":"ce4bgr92rcd13ifvqc6g","pricing_plan_id":"free"},{"bike_id":"b392bfe2-2366-47ba-9c59-27109ac3fe3b","system_id":"levelo_inurba_marseille","lat":43.31341,"lon":5.367098,"is_reserved":false,"is_disabled":false,"rental_uris":{"android":"levelo://app?vid=b392bfe2-2366-47ba-9c59-27109ac3fe3b","ios":"levelo://app?vid=b392bfe2-2366-47ba-9c59-27109ac3fe3b"},"vehicle_type_id":"4","last_reported":1691590022,"current_range_meters":22400,"station_id":"ce4bgr92rcd13ifvqc6g","pricing_plan_id":"free"},{"bike_id":"3af50383-0d2b-468e-bb50-ea19e0d7b7ba","system_id":"levelo_inurba_marseille","lat":43.313391,"lon":5.36706,"is_reserved":false,"is_disabled":false,"rental_uris":{"android":"levelo://app?vid=3af50383-0d2b-468e-bb50-ea19e0d7b7ba","ios":"levelo://app?vid=3af50383-0d2b-468e-bb50-ea19e0d7b7ba"},"vehicle_type_id":"4","last_reported":1691590022,"current_range_meters":16400,"station_id":"ce4bgr92rcd13ifvqc6g","pricing_plan_id":"free"},{"bike_id":"8c722ad0-51d8-4d61-a6f9-2798da6ba753","system_id":"levelo_inurba_marseille","lat":43.31341,"lon":5.367098,"is_reserved":false,"is_disabled":false,"rental_uris":{"android":"levelo://app?vid=8c722ad0-51d8-4d61-a6f9-2798da6ba753","ios":"levelo://app?vid=8c722ad0-51d8-4d61-a6f9-2798da6ba753"},"vehicle_type_id":"4","last_reported":1691590022,"current_range_meters":29200,"station_id":"ce4bgr92rcd13ifvqc6g","pricing_plan_id":"free"},{"bike_id":"cbaae489-09a7-4a36-93af-53e335cfa7bc","system_id":"levelo_inurba_marseille","lat":43.31341,"lon":5.367098,"is_reserved":false,"is_disabled":false,"rental_uris":{"android":"levelo://app?vid=cbaae489-09a7-4a36-93af-53e335cfa7bc","ios":"levelo://app?vid=cbaae489-09a7-4a36-93af-53e335cfa7bc"},"vehicle_type_id":"4","last_reported":1691590022,"current_range_meters":31200,"station_id":"ce4bgr92rcd13ifvqc6g","pricing_plan_id":"free"},{"bike_id":"d868dd62-326e-4cc2-827f-7b45ed54e27e","system_id":"levelo_inurba_marseille","lat":43.31341,"lon":5.367098,"is_reserved":false,"is_disabled":false,"rental_uris":{"android":"levelo://app?vid=d868dd62-326e-4cc2-827f-7b45ed54e27e","ios":"levelo://app?vid=d868dd62-326e-4cc2-827f-7b45ed54e27e"},"vehicle_type_id":"4","last_reported":1691590022,"current_range_meters":31600,"station_id":"ce4bgr92rcd13ifvqc6g","pricing_plan_id":"free"},{"bike_id":"92c52dda-a519-48bb-a6d9-cdef3b5d39dc","system_id":"levelo_inurba_marseille","lat":43.31341,"lon":5.367098,"is_reserved":false,"is_disabled":false,"rental_uris":{"android":"levelo://app?vid=92c52dda-a519-48bb-a6d9-cdef3b5d39dc","ios":"levelo://app?vid=92c52dda-a519-48bb-a6d9-cdef3b5d39dc"},"vehicle_type_id":"4","last_reported":1691590022,"current_range_meters":29200,"station_id":"ce4bgr92rcd13ifvqc6g","pricing_plan_id":"free"},{"bike_id":"88a24a3a-bdb7-480c-95bb-303afc934803","system_id":"levelo_inurba_marseille","lat":43.312239,"lon":5.368562,"is_reserved":false,"is_disabled":false,"rental_uris":{"android":"levelo://app?vid=88a24a3a-bdb7-480c-95bb-303afc934803","ios":"levelo://app?vid=88a24a3a-bdb7-480c-95bb-303afc934803"},"vehicle_type_id":"4","last_reported":1691590022,"current_range_meters":31600,"station_id":"ce4bgl92rcd13ifvqbq0","pricing_plan_id":"free"},{"bike_id":"1a40f73b-2246-437a-8bbb-f97e6f7bfc39","system_id":"levelo_inurba_marseille","lat":43.312239,"lon":5.368562,"is_reserved":false,"is_disabled":false,"rental_uris":{"android":"levelo://app?vid=1a40f73b-2246-437a-8bbb-f97e6f7bfc39","ios":"levelo://app?vid=1a40f73b-2246-437a-8bbb-f97e6f7bfc39"},"vehicle_type_id":"4","last_reported":1691590022,"current_range_meters":20800,"station_id":"ce4bgl92rcd13ifvqbq0","pricing_plan_id":"free"},{"bike_id":"1f5acead-3833-4f4d-bf1d-f7aeaade1692","system_id":"levelo_inurba_marseille","lat":43.312239,"lon":5.368562,"is_reserved":false,"is_disabled":false,"rental_uris":{"android":"levelo://app?vid=1f5acead-3833-4f4d-bf1d-f7aeaade1692","ios":"levelo://app?vid=1f5acead-3833-4f4d-bf1d-f7aeaade1692"},"vehicle_type_id":"4","last_reported":1691590022,"current_range_meters":31600,"station_id":"ce4bgl92rcd13ifvqbq0","pricing_plan_id":"free"},{"bike_id":"d8ee1607-9150-4484-9479-3c07c1be8908","system_id":"levelo_inurba_marseille","lat":43.312239,"lon":5.368562,"is_reserved":false,"is_disabled":false,"rental_uris":{"android":"levelo://app?vid=d8ee1607-9150-4484-9479-3c07c1be8908","ios":"levelo://app?vid=d8ee1607-9150-4484-9479-3c07c1be8908"},"vehicle_type_id":"4","last_reported":1691590022,"current_range_meters":31200,"station_id":"ce4bgl92rcd13ifvqbq0","pricing_plan_id":"free"},{"bike_id":"80b26346-b04c-43c7-96fd-91f45d07b9e9","system_id":"levelo_inurba_marseille","lat":43.312239,"lon":5.368562,"is_reserved":false,"is_disabled":false,"rental_uris":{"android":"levelo://app?vid=80b26346-b04c-43c7-96fd-91f45d07b9e9","ios":"levelo://app?vid=80b26346-b04c-43c7-96fd-91f45d07b9e9"},"vehicle_type_id":"4","last_reported":1691590022,"current_range_meters":27600,"station_id":"ce4bgl92rcd13ifvqbq0","pricing_plan_id":"free"},{"bike_id":"ae73783a-68cb-4dfb-9555-d313f458c011","system_id":"levelo_inurba_marseille","lat":43.312239,"lon":5.368562,"is_reserved":false,"is_disabled":false,"rental_uris":{"android":"levelo://app?vid=ae73783a-68cb-4dfb-9555-d313f458c011","ios":"levelo://app?vid=ae73783a-68cb-4dfb-9555-d313f458c011"},"vehicle_type_id":"4","last_reported":1691590022,"current_range_meters":30800,"station_id":"ce4bgl92rcd13ifvqbq0","pricing_plan_id":"free"},{"bike_id":"d70dab7d-7960-4244-8d33-7cab883f4b9b","system_id":"levelo_inurba_marseille","lat":43.312239,"lon":5.368562,"is_reserved":false,"is_disabled":false,"rental_uris":{"android":"levelo://app?vid=d70dab7d-7960-4244-8d33-7cab883f4b9b","ios":"levelo://app?vid=d70dab7d-7960-4244-8d33-7cab883f4b9b"},"vehicle_type_id":"4","last_reported":1691590022,"current_range_meters":31600,"station_id":"ce4bgl92rcd13ifvqbq0","pricing_plan_id":"free"},{"bike_id":"6c0bade0-438f-4e4e-8c65-08b9b00e0b11","system_id":"levelo_inurba_marseille","lat":43.312239,"lon":5.368562,"is_reserved":false,"is_disabled":false,"rental_uris":{"android":"levelo://app?vid=6c0bade0-438f-4e4e-8c65-08b9b00e0b11","ios":"levelo://app?vid=6c0bade0-438f-4e4e-8c65-08b9b00e0b11"},"vehicle_type_id":"4","last_reported":1691590022,"current_range_meters":27200,"station_id":"ce4bgl92rcd13ifvqbq0","pricing_plan_id":"free"},{"bike_id":"4a5d1f2d-33e7-49f9-b9e6-b2b85267e96e","system_id":"levelo_inurba_marseille","lat":43.312239,"lon":5.368562,"is_reserved":false,"is_disabled":false,"rental_uris":{"android":"levelo://app?vid=4a5d1f2d-33e7-49f9-b9e6-b2b85267e96e","ios":"levelo://app?vid=4a5d1f2d-33e7-49f9-b9e6-b2b85267e96e"},"vehicle_type_id":"4","last_reported":1691590022,"current_range_meters":31600,"station_id":"ce4bgl92rcd13ifvqbq0","pricing_plan_id":"free"},{"bike_id":"8d25639b-14c0-49b5-a12e-0d4301b58bc2","system_id":"levelo_inurba_marseille","lat":43.312239,"lon":5.368562,"is_reserved":false,"is_disabled":false,"rental_uris":{"android":"levelo://app?vid=8d25639b-14c0-49b5-a12e-0d4301b58bc2","ios":"levelo://app?vid=8d25639b-14c0-49b5-a12e-0d4301b58bc2"},"vehicle_type_id":"4","last_reported":1691590022,"current_range_meters":31200,"station_id":"ce4bgl92rcd13ifvqbq0","pricing_plan_id":"free"},{"bike_id":"0cc6e118-b2c7-4825-b79b-a49ec2017c13","system_id":"levelo_inurba_marseille","lat":43.312239,"lon":5.368562,"is_reserved":false,"is_disabled":false,"rental_uris":{"android":"levelo://app?vid=0cc6e118-b2c7-4825-b79b-a49ec2017c13","ios":"levelo://app?vid=0cc6e118-b2c7-4825-b79b-a49ec2017c13"},"vehicle_type_id":"4","last_reported":1691590022,"current_range_meters":30000,"station_id":"ce4bgl92rcd13ifvqbq0","pricing_plan_id":"free"},{"bike_id":"cb47e838-e765-4a38-8180-e97be87cbc97","system_id":"levelo_inurba_marseille","lat":43.312239,"lon":5.368562,"is_reserved":false,"is_disabled":false,"rental_uris":{"android":"levelo://app?vid=cb47e838-e765-4a38-8180-e97be87cbc97","ios":"levelo://app?vid=cb47e838-e765-4a38-8180-e97be87cbc97"},"vehicle_type_id":"4","last_reported":1691590022,"current_range_meters":18000,"station_id":"ce4bgl92rcd13ifvqbq0","pricing_plan_id":"free"},{"bike_id":"746337e7-4bd4-4212-abf0-6c47d02aa9a2","system_id":"levelo_inurba_marseille","lat":43.312239,"lon":5.368562,"is_reserved":false,"is_disabled":false,"rental_uris":{"android":"levelo://app?vid=746337e7-4bd4-4212-abf0-6c47d02aa9a2","ios":"levelo://app?vid=746337e7-4bd4-4212-abf0-6c47d02aa9a2"},"vehicle_type_id":"4","last_reported":1691590022,"current_range_meters":16400,"station_id":"ce4bgl92rcd13ifvqbq0","pricing_plan_id":"free"},{"bike_id":"cf76ceea-0ede-44a5-9e72-5332e1639bb1","system_id":"levelo_inurba_marseille","lat":43.312239,"lon":5.368562,"is_reserved":false,"is_disabled":false,"rental_uris":{"android":"levelo://app?vid=cf76ceea-0ede-44a5-9e72-5332e1639bb1","ios":"levelo://app?vid=cf76ceea-0ede-44a5-9e72-5332e1639bb1"},"vehicle_type_id":"4","last_reported":1691590022,"current_range_meters":7200,"station_id":"ce4bgl92rcd13ifvqbq0","pricing_plan_id":"free"},{"bike_id":"4dbfead8-9274-44df-a397-222741afe8a2","system_id":"levelo_inurba_marseille","lat":43.312239,"lon":5.368562,"is_reserved":false,"is_disabled":false,"rental_uris":{"android":"levelo://app?vid=4dbfead8-9274-44df-a397-222741afe8a2","ios":"levelo://app?vid=4dbfead8-9274-44df-a397-222741afe8a2"},"vehicle_type_id":"4","last_reported":1691590022,"current_range_meters":17600,"station_id":"ce4bgl92rcd13ifvqbq0","pricing_plan_id":"free"},{"bike_id":"ad9c59bf-901f-41e9-a882-104d3f2d12a0","system_id":"levelo_inurba_marseille","lat":43.312239,"lon":5.368562,"is_reserved":false,"is_disabled":false,"rental_uris":{"android":"levelo://app?vid=ad9c59bf-901f-41e9-a882-104d3f2d12a0","ios":"levelo://app?vid=ad9c59bf-901f-41e9-a882-104d3f2d12a0"},"vehicle_type_id":"4","last_reported":1691590022,"current_range_meters":24000,"station_id":"ce4bgl92rcd13ifvqbq0","pricing_plan_id":"free"},{"bike_id":"4f66e1b7-3d96-426e-bb08-f47e7fbcca53","system_id":"levelo_inurba_marseille","lat":43.312239,"lon":5.368562,"is_reserved":false,"is_disabled":false,"rental_uris":{"android":"levelo://app?vid=4f66e1b7-3d96-426e-bb08-f47e7fbcca53","ios":"levelo://app?vid=4f66e1b7-3d96-426e-bb08-f47e7fbcca53"},"vehicle_type_id":"4","last_reported":1691590022,"current_range_meters":24400,"station_id":"ce4bgl92rcd13ifvqbq0","pricing_plan_id":"free"},{"bike_id":"75d49a07-0ba7-408c-9feb-26ffbb16fcf1","system_id":"levelo_inurba_marseille","lat":43.309076,"lon":5.368465,"is_reserved":false,"is_disabled":false,"rental_uris":{"android":"levelo://app?vid=75d49a07-0ba7-408c-9feb-26ffbb16fcf1","ios":"levelo://app?vid=75d49a07-0ba7-408c-9feb-26ffbb16fcf1"},"vehicle_type_id":"4","last_reported":1691590022,"current_range_meters":19200,"station_id":"ce4bgn92rcd13ifvqbvg","pricing_plan_id":"free"},{"bike_id":"c5b3c2d7-7544-46aa-a393-77515a52f870","system_id":"levelo_inurba_marseille","lat":43.309076,"lon":5.368465,"is_reserved":false,"is_disabled":false,"rental_uris":{"android":"levelo://app?vid=c5b3c2d7-7544-46aa-a393-77515a52f870","ios":"levelo://app?vid=c5b3c2d7-7544-46aa-a393-77515a52f870"},"vehicle_type_id":"4","last_reported":1691590022,"current_range_meters":0,"station_id":"ce4bgn92rcd13ifvqbvg","pricing_plan_id":"free"},{"bike_id":"a5b897a3-bcd0-435a-9320-e12bcfb87cc5","system_id":"levelo_inurba_marseille","lat":43.314811,"lon":5.373103,"is_reserved":false,"is_disabled":false,"rental_uris":{"android":"levelo://app?vid=a5b897a3-bcd0-435a-9320-e12bcfb87cc5","ios":"levelo://app?vid=a5b897a3-bcd0-435a-9320-e12bcfb87cc5"},"vehicle_type_id":"4","last_reported":1691590022,"current_range_meters":31200,"station_id":"ce4bgt12rcd13ifvqcd0","pricing_plan_id":"free"},{"bike_id":"0a299271-5bc8-40e5-ab4b-fba47662252a","system_id":"levelo_inurba_marseille","lat":43.31498,"lon":5.37298,"is_reserved":false,"is_disabled":false,"rental_uris":{"android":"levelo://app?vid=0a299271-5bc8-40e5-ab4b-fba47662252a","ios":"levelo://app?vid=0a299271-5bc8-40e5-ab4b-fba47662252a"},"vehicle_type_id":"4","last_reported":1691590022,"current_range_meters":31200,"station_id":"ce4bgt12rcd13ifvqcd0","pricing_plan_id":"free"},{"bike_id":"95fbec98-718c-4965-b8aa-22dec9b7d216","system_id":"levelo_inurba_marseille","lat":43.31493,"lon":5.37304,"is_reserved":false,"is_disabled":false,"rental_uris":{"android":"levelo://app?vid=95fbec98-718c-4965-b8aa-22dec9b7d216","ios":"levelo://app?vid=95fbec98-718c-4965-b8aa-22dec9b7d216"},"vehicle_type_id":"4","last_reported":1691590022,"current_range_meters":800,"station_id":"ce4bgt12rcd13ifvqcd0","pricing_plan_id":"free"},{"bike_id":"3766c619-9653-4ec9-98ad-6f6219574f59","system_id":"levelo_inurba_marseille","lat":43.309039,"lon":5.371797,"is_reserved":false,"is_disabled":false,"rental_uris":{"android":"levelo://app?vid=3766c619-9653-4ec9-98ad-6f6219574f59","ios":"levelo://app?vid=3766c619-9653-4ec9-98ad-6f6219574f59"},"vehicle_type_id":"4","last_reported":1691590022,"current_range_meters":14400,"station_id":"ce4bguh2rcd13ifvqckg","pricing_plan_id":"free"},{"bike_id":"75c144f9-aee3-4447-91e6-f543a25955e1","system_id":"levelo_inurba_marseille","lat":43.30543,"lon":5.36714,"is_reserved":false,"is_disabled":false,"rental_uris":{"android":"levelo://app?vid=75c144f9-aee3-4447-91e6-f543a25955e1","ios":"levelo://app?vid=75c144f9-aee3-4447-91e6-f543a25955e1"},"vehicle_type_id":"4","last_reported":1691590022,"current_range_meters":28800,"station_id":"ce4bgrp2rcd13ifvqc9g","pricing_plan_id":"free"},{"bike_id":"77a30468-4a2f-423a-849c-3c223b26cc53","system_id":"levelo_inurba_marseille","lat":43.30539,"lon":5.36553,"is_reserved":false,"is_disabled":false,"rental_uris":{"android":"levelo://app?vid=77a30468-4a2f-423a-849c-3c223b26cc53","ios":"levelo://app?vid=77a30468-4a2f-423a-849c-3c223b26cc53"},"vehicle_type_id":"4","last_reported":1691590022,"current_range_meters":31600,"station_id":"ce4bh092rcd13ifvqd20","pricing_plan_id":"free"},{"bike_id":"81693735-b589-4fa8-be70-aead1b446919","system_id":"levelo_inurba_marseille","lat":43.305989,"lon":5.37225,"is_reserved":false,"is_disabled":false,"rental_uris":{"android":"levelo://app?vid=81693735-b589-4fa8-be70-aead1b446919","ios":"levelo://app?vid=81693735-b589-4fa8-be70-aead1b446919"},"vehicle_type_id":"4","last_reported":1691590022,"current_range_meters":8000,"station_id":"ce4bgqh2rcd13ifvqc4g","pricing_plan_id":"free"},{"bike_id":"4f717866-d364-4e9a-b3c1-01d819498732","system_id":"levelo_inurba_marseille","lat":43.30815,"lon":5.37658,"is_reserved":false,"is_disabled":false,"rental_uris":{"android":"levelo://app?vid=4f717866-d364-4e9a-b3c1-01d819498732","ios":"levelo://app?vid=4f717866-d364-4e9a-b3c1-01d819498732"},"vehicle_type_id":"4","last_reported":1691590022,"current_range_meters":31200,"station_id":"ce4bgv92rcd13ifvqcq0","pricing_plan_id":"free"},{"bike_id":"5057ece2-f01e-4728-8b3f-11203107a956","system_id":"levelo_inurba_marseille","lat":43.30782,"lon":5.37655,"is_reserved":false,"is_disabled":false,"rental_uris":{"android":"levelo://app?vid=5057ece2-f01e-4728-8b3f-11203107a956","ios":"levelo://app?vid=5057ece2-f01e-4728-8b3f-11203107a956"},"vehicle_type_id":"4","last_reported":1691590022,"current_range_meters":23600,"station_id":"ce4bgv92rcd13ifvqcq0","pricing_plan_id":"free"},{"bike_id":"f97d00a3-1a23-410b-b45b-05d1960be2f4","system_id":"levelo_inurba_marseille","lat":43.30778,"lon":5.37657,"is_reserved":false,"is_disabled":false,"rental_uris":{"android":"levelo://app?vid=f97d00a3-1a23-410b-b45b-05d1960be2f4","ios":"levelo://app?vid=f97d00a3-1a23-410b-b45b-05d1960be2f4"},"vehicle_type_id":"4","last_reported":1691590022,"current_range_meters":6400,"station_id":"ce4bgv92rcd13ifvqcq0","pricing_plan_id":"free"},{"bike_id":"20b5ce43-c7f1-4b3b-b3b7-a6912248472f","system_id":"levelo_inurba_marseille","lat":43.317075,"lon":5.377367,"is_reserved":false,"is_disabled":false,"rental_uris":{"android":"levelo://app?vid=20b5ce43-c7f1-4b3b-b3b7-a6912248472f","ios":"levelo://app?vid=20b5ce43-c7f1-4b3b-b3b7-a6912248472f"},"vehicle_type_id":"4","last_reported":1691590022,"current_range_meters":30000,"station_id":"ce4bgth2rcd13ifvqch0","pricing_plan_id":"free"},{"bike_id":"c0fea9aa-658c-496e-8538-4a5ed2925bb9","system_id":"levelo_inurba_marseille","lat":43.317075,"lon":5.377367,"is_reserved":false,"is_disabled":false,"rental_uris":{"android":"levelo://app?vid=c0fea9aa-658c-496e-8538-4a5ed2925bb9","ios":"levelo://app?vid=c0fea9aa-658c-496e-8538-4a5ed2925bb9"},"vehicle_type_id":"4","last_reported":1691590022,"current_range_meters":31200,"station_id":"ce4bgth2rcd13ifvqch0","pricing_plan_id":"free"},{"bike_id":"65affa8a-9878-4fb2-aeeb-5e00e608d8f2","system_id":"levelo_inurba_marseille","lat":43.317075,"lon":5.377367,"is_reserved":false,"is_disabled":false,"rental_uris":{"android":"levelo://app?vid=65affa8a-9878-4fb2-aeeb-5e00e608d8f2","ios":"levelo://app?vid=65affa8a-9878-4fb2-aeeb-5e00e608d8f2"},"vehicle_type_id":"4","last_reported":1691590022,"current_range_meters":31200,"station_id":"ce4bgth2rcd13ifvqch0","pricing_plan_id":"free"},{"bike_id":"b1c47f7f-d58d-4b23-afc7-5d3872c88590","system_id":"levelo_inurba_marseille","lat":43.317075,"lon":5.377367,"is_reserved":false,"is_disabled":false,"rental_uris":{"android":"levelo://app?vid=b1c47f7f-d58d-4b23-afc7-5d3872c88590","ios":"levelo://app?vid=b1c47f7f-d58d-4b23-afc7-5d3872c88590"},"vehicle_type_id":"4","last_reported":1691590022,"current_range_meters":27200,"station_id":"ce4bgth2rcd13ifvqch0","pricing_plan_id":"free"},{"bike_id":"dbadef06-daaa-4454-a704-981a09e77f2d","system_id":"levelo_inurba_marseille","lat":43.317075,"lon":5.377367,"is_reserved":false,"is_disabled":false,"rental_uris":{"android":"levelo://app?vid=dbadef06-daaa-4454-a704-981a09e77f2d","ios":"levelo://app?vid=dbadef06-daaa-4454-a704-981a09e77f2d"},"vehicle_type_id":"4","last_reported":1691590022,"current_range_meters":30400,"station_id":"ce4bgth2rcd13ifvqch0","pricing_plan_id":"free"},{"bike_id":"1ff32b16-90c7-4292-8f9f-988c738f96e1","system_id":"levelo_inurba_marseille","lat":43.30319,"lon":5.36892,"is_reserved":false,"is_disabled":false,"rental_uris":{"android":"levelo://app?vid=1ff32b16-90c7-4292-8f9f-988c738f96e1","ios":"levelo://app?vid=1ff32b16-90c7-4292-8f9f-988c738f96e1"},"vehicle_type_id":"4","last_reported":1691590022,"current_range_meters":26800,"station_id":"ce4bgqh2rcd13ifvqc5g","pricing_plan_id":"free"},{"bike_id":"aa0b690d-06ba-4fd4-9084-eff5c1a04b5a","system_id":"levelo_inurba_marseille","lat":43.303046,"lon":5.368981,"is_reserved":false,"is_disabled":false,"rental_uris":{"android":"levelo://app?vid=aa0b690d-06ba-4fd4-9084-eff5c1a04b5a","ios":"levelo://app?vid=aa0b690d-06ba-4fd4-9084-eff5c1a04b5a"},"vehicle_type_id":"4","last_reported":1691590022,"current_range_meters":2000,"station_id":"ce4bgqh2rcd13ifvqc5g","pricing_plan_id":"free"},{"bike_id":"e2eeb3c0-a12a-4085-8d10-eabb17bc6f6b","system_id":"levelo_inurba_marseille","lat":43.30301,"lon":5.36911,"is_reserved":false,"is_disabled":false,"rental_uris":{"android":"levelo://app?vid=e2eeb3c0-a12a-4085-8d10-eabb17bc6f6b","ios":"levelo://app?vid=e2eeb3c0-a12a-4085-8d10-eabb17bc6f6b"},"vehicle_type_id":"4","last_reported":1691590022,"current_range_meters":0,"station_id":"ce4bgqh2rcd13ifvqc5g","pricing_plan_id":"free"},{"bike_id":"a1cba214-11a0-4a38-98b7-7961191ebf71","system_id":"levelo_inurba_marseille","lat":43.315293,"lon":5.380349,"is_reserved":false,"is_disabled":false,"rental_uris":{"android":"levelo://app?vid=a1cba214-11a0-4a38-98b7-7961191ebf71","ios":"levelo://app?vid=a1cba214-11a0-4a38-98b7-7961191ebf71"},"vehicle_type_id":"4","last_reported":1691590022,"current_range_meters":23600,"station_id":"ce4bhsp2rcd13ifvqi50","pricing_plan_id":"free"},{"bike_id":"e1005da5-bb80-4616-860f-088eec988d2e","system_id":"levelo_inurba_marseille","lat":43.301939,"lon":5.366286,"is_reserved":false,"is_disabled":false,"rental_uris":{"android":"levelo://app?vid=e1005da5-bb80-4616-860f-088eec988d2e","ios":"levelo://app?vid=e1005da5-bb80-4616-860f-088eec988d2e"},"vehicle_type_id":"4","last_reported":1691590022,"current_range_meters":21200,"station_id":"ce4bgrh2rcd13ifvqc8g","pricing_plan_id":"free"},{"bike_id":"e97625fd-2eaa-48c5-b166-350326f0c552","system_id":"levelo_inurba_marseille","lat":43.301939,"lon":5.366286,"is_reserved":false,"is_disabled":false,"rental_uris":{"android":"levelo://app?vid=e97625fd-2eaa-48c5-b166-350326f0c552","ios":"levelo://app?vid=e97625fd-2eaa-48c5-b166-350326f0c552"},"vehicle_type_id":"4","last_reported":1691590022,"current_range_meters":30800,"station_id":"ce4bgrh2rcd13ifvqc8g","pricing_plan_id":"free"},{"bike_id":"ea088d60-ead8-422e-91c5-543251b495bd","system_id":"levelo_inurba_marseille","lat":43.30189,"lon":5.36625,"is_reserved":false,"is_disabled":false,"rental_uris":{"android":"levelo://app?vid=ea088d60-ead8-422e-91c5-543251b495bd","ios":"levelo://app?vid=ea088d60-ead8-422e-91c5-543251b495bd"},"vehicle_type_id":"4","last_reported":1691590022,"current_range_meters":19200,"station_id":"ce4bgrh2rcd13ifvqc8g","pricing_plan_id":"free"},{"bike_id":"379280da-78a7-4929-b80b-826c529cd980","system_id":"levelo_inurba_marseille","lat":43.301939,"lon":5.366286,"is_reserved":false,"is_disabled":false,"rental_uris":{"android":"levelo://app?vid=379280da-78a7-4929-b80b-826c529cd980","ios":"levelo://app?vid=379280da-78a7-4929-b80b-826c529cd980"},"vehicle_type_id":"4","last_reported":1691590022,"current_range_meters":26400,"station_id":"ce4bgrh2rcd13ifvqc8g","pricing_plan_id":"free"},{"bike_id":"a16006d2-a7a3-464f-ba16-415a2a5a5e7e","system_id":"levelo_inurba_marseille","lat":43.30803,"lon":5.38149,"is_reserved":false,"is_disabled":false,"rental_uris":{"android":"levelo://app?vid=a16006d2-a7a3-464f-ba16-415a2a5a5e7e","ios":"levelo://app?vid=a16006d2-a7a3-464f-ba16-415a2a5a5e7e"},"vehicle_type_id":"4","last_reported":1691590022,"current_range_meters":30000,"station_id":"ce4bgt12rcd13ifvqce0","pricing_plan_id":"free"},{"bike_id":"6597076d-71d0-413d-8cff-272a436931af","system_id":"levelo_inurba_marseille","lat":43.308012,"lon":5.381511,"is_reserved":false,"is_disabled":false,"rental_uris":{"android":"levelo://app?vid=6597076d-71d0-413d-8cff-272a436931af","ios":"levelo://app?vid=6597076d-71d0-413d-8cff-272a436931af"},"vehicle_type_id":"4","last_reported":1691590022,"current_range_meters":20400,"station_id":"ce4bgt12rcd13ifvqce0","pricing_plan_id":"free"},{"bike_id":"5177b50b-9485-46c1-8040-a94fb2386166","system_id":"levelo_inurba_marseille","lat":43.304606,"lon":5.379026,"is_reserved":false,"is_disabled":false,"rental_uris":{"android":"levelo://app?vid=5177b50b-9485-46c1-8040-a94fb2386166","ios":"levelo://app?vid=5177b50b-9485-46c1-8040-a94fb2386166"},"vehicle_type_id":"4","last_reported":1691590022,"current_range_meters":14000,"station_id":"ce4bgup2rcd13ifvqcn0","pricing_plan_id":"free"},{"bike_id":"a1ee251c-17a7-496a-bdae-5b42e5768dc4","system_id":"levelo_inurba_marseille","lat":43.304606,"lon":5.379026,"is_reserved":false,"is_disabled":false,"rental_uris":{"android":"levelo://app?vid=a1ee251c-17a7-496a-bdae-5b42e5768dc4","ios":"levelo://app?vid=a1ee251c-17a7-496a-bdae-5b42e5768dc4"},"vehicle_type_id":"4","last_reported":1691590022,"current_range_meters":31200,"station_id":"ce4bgup2rcd13ifvqcn0","pricing_plan_id":"free"},{"bike_id":"35a335f5-9a57-4a09-b29d-b954da982fd3","system_id":"levelo_inurba_marseille","lat":43.304606,"lon":5.379026,"is_reserved":false,"is_disabled":false,"rental_uris":{"android":"levelo://app?vid=35a335f5-9a57-4a09-b29d-b954da982fd3","ios":"levelo://app?vid=35a335f5-9a57-4a09-b29d-b954da982fd3"},"vehicle_type_id":"4","last_reported":1691590022,"current_range_meters":23200,"station_id":"ce4bgup2rcd13ifvqcn0","pricing_plan_id":"free"},{"bike_id":"84b1699d-d8ab-4b51-a56c-9a23d6b12356","system_id":"levelo_inurba_marseille","lat":43.302784,"lon":5.377158,"is_reserved":false,"is_disabled":false,"rental_uris":{"android":"levelo://app?vid=84b1699d-d8ab-4b51-a56c-9a23d6b12356","ios":"levelo://app?vid=84b1699d-d8ab-4b51-a56c-9a23d6b12356"},"vehicle_type_id":"4","last_reported":1691590022,"current_range_meters":30400,"station_id":"ce4bguh2rcd13ifvqcj0","pricing_plan_id":"free"},{"bike_id":"94126101-ae9c-4634-92ab-a2dd74292049","system_id":"levelo_inurba_marseille","lat":43.302784,"lon":5.377158,"is_reserved":false,"is_disabled":false,"rental_uris":{"android":"levelo://app?vid=94126101-ae9c-4634-92ab-a2dd74292049","ios":"levelo://app?vid=94126101-ae9c-4634-92ab-a2dd74292049"},"vehicle_type_id":"4","last_reported":1691590022,"current_range_meters":29600,"station_id":"ce4bguh2rcd13ifvqcj0","pricing_plan_id":"free"},{"bike_id":"ccd676cc-ca45-49c7-8c1f-8efe2939ee5f","system_id":"levelo_inurba_marseille","lat":43.302784,"lon":5.377158,"is_reserved":false,"is_disabled":false,"rental_uris":{"android":"levelo://app?vid=ccd676cc-ca45-49c7-8c1f-8efe2939ee5f","ios":"levelo://app?vid=ccd676cc-ca45-49c7-8c1f-8efe2939ee5f"},"vehicle_type_id":"4","last_reported":1691590022,"current_range_meters":31200,"station_id":"ce4bguh2rcd13ifvqcj0","pricing_plan_id":"free"},{"bike_id":"7b419518-ea7f-4da5-b99a-931cff3ce7fb","system_id":"levelo_inurba_marseille","lat":43.319935,"lon":5.381699,"is_reserved":false,"is_disabled":false,"rental_uris":{"android":"levelo://app?vid=7b419518-ea7f-4da5-b99a-931cff3ce7fb","ios":"levelo://app?vid=7b419518-ea7f-4da5-b99a-931cff3ce7fb"},"vehicle_type_id":"4","last_reported":1691590022,"current_range_meters":31200,"station_id":"ce4bhr12rcd13ifvqhpg","pricing_plan_id":"free"},{"bike_id":"34d34957-3a05-48d3-a56a-489b167561fb","system_id":"levelo_inurba_marseille","lat":43.319935,"lon":5.381699,"is_reserved":false,"is_disabled":false,"rental_uris":{"android":"levelo://app?vid=34d34957-3a05-48d3-a56a-489b167561fb","ios":"levelo://app?vid=34d34957-3a05-48d3-a56a-489b167561fb"},"vehicle_type_id":"4","last_reported":1691590022,"current_range_meters":31200,"station_id":"ce4bhr12rcd13ifvqhpg","pricing_plan_id":"free"},{"bike_id":"eb9ca236-8bea-4a16-80b9-f4dcd1570b49","system_id":"levelo_inurba_marseille","lat":43.319935,"lon":5.381699,"is_reserved":false,"is_disabled":false,"rental_uris":{"android":"levelo://app?vid=eb9ca236-8bea-4a16-80b9-f4dcd1570b49","ios":"levelo://app?vid=eb9ca236-8bea-4a16-80b9-f4dcd1570b49"},"vehicle_type_id":"4","last_reported":1691590022,"current_range_meters":20000,"station_id":"ce4bhr12rcd13ifvqhpg","pricing_plan_id":"free"},{"bike_id":"153224a8-a388-4333-b138-6066fcad6ea7","system_id":"levelo_inurba_marseille","lat":43.313571,"lon":5.384829,"is_reserved":false,"is_disabled":false,"rental_uris":{"android":"levelo://app?vid=153224a8-a388-4333-b138-6066fcad6ea7","ios":"levelo://app?vid=153224a8-a388-4333-b138-6066fcad6ea7"},"vehicle_type_id":"4","last_reported":1691590022,"current_range_meters":24000,"station_id":"ce4bgt92rcd13ifvqcf0","pricing_plan_id":"free"},{"bike_id":"28086311-ed09-4177-a83a-413c3dedd48b","system_id":"levelo_inurba_marseille","lat":43.313571,"lon":5.384829,"is_reserved":false,"is_disabled":false,"rental_uris":{"android":"levelo://app?vid=28086311-ed09-4177-a83a-413c3dedd48b","ios":"levelo://app?vid=28086311-ed09-4177-a83a-413c3dedd48b"},"vehicle_type_id":"4","last_reported":1691590022,"current_range_meters":10800,"station_id":"ce4bgt92rcd13ifvqcf0","pricing_plan_id":"free"},{"bike_id":"cb654f9d-8160-49fb-b09f-4b0f408c90ca","system_id":"levelo_inurba_marseille","lat":43.313571,"lon":5.384829,"is_reserved":false,"is_disabled":false,"rental_uris":{"android":"levelo://app?vid=cb654f9d-8160-49fb-b09f-4b0f408c90ca","ios":"levelo://app?vid=cb654f9d-8160-49fb-b09f-4b0f408c90ca"},"vehicle_type_id":"4","last_reported":1691590022,"current_range_meters":15600,"station_id":"ce4bgt92rcd13ifvqcf0","pricing_plan_id":"free"},{"bike_id":"e30c3070-4fe5-4573-8f13-8513cb601b4d","system_id":"levelo_inurba_marseille","lat":43.31364,"lon":5.38495,"is_reserved":false,"is_disabled":false,"rental_uris":{"android":"levelo://app?vid=e30c3070-4fe5-4573-8f13-8513cb601b4d","ios":"levelo://app?vid=e30c3070-4fe5-4573-8f13-8513cb601b4d"},"vehicle_type_id":"4","last_reported":1691590022,"current_range_meters":22400,"station_id":"","pricing_plan_id":"free"},{"bike_id":"7f310282-a620-4341-80fb-7a3f16d5f344","system_id":"levelo_inurba_marseille","lat":43.29981,"lon":5.37187,"is_reserved":false,"is_disabled":false,"rental_uris":{"android":"levelo://app?vid=7f310282-a620-4341-80fb-7a3f16d5f344","ios":"levelo://app?vid=7f310282-a620-4341-80fb-7a3f16d5f344"},"vehicle_type_id":"4","last_reported":1691590022,"current_range_meters":31200,"station_id":"ce4bgr92rcd13ifvqc7g","pricing_plan_id":"free"},{"bike_id":"15b2f289-e8da-4c30-a721-2cf15799ace1","system_id":"levelo_inurba_marseille","lat":43.31976,"lon":5.38269,"is_reserved":false,"is_disabled":false,"rental_uris":{"android":"levelo://app?vid=15b2f289-e8da-4c30-a721-2cf15799ace1","ios":"levelo://app?vid=15b2f289-e8da-4c30-a721-2cf15799ace1"},"vehicle_type_id":"4","last_reported":1691590022,"current_range_meters":5200,"station_id":"","pricing_plan_id":"free"},{"bike_id":"b8f6602d-933d-435e-83b2-0498e558a9f2","system_id":"levelo_inurba_marseille","lat":43.3054,"lon":5.38417,"is_reserved":false,"is_disabled":false,"rental_uris":{"android":"levelo://app?vid=b8f6602d-933d-435e-83b2-0498e558a9f2","ios":"levelo://app?vid=b8f6602d-933d-435e-83b2-0498e558a9f2"},"vehicle_type_id":"4","last_reported":1691590022,"current_range_meters":5200,"station_id":"ce4bgg92rcd13ifvqb30","pricing_plan_id":"free"},{"bike_id":"e12b4729-a1d9-4909-9759-e5b8690101b0","system_id":"levelo_inurba_marseille","lat":43.3008,"lon":5.37833,"is_reserved":false,"is_disabled":false,"rental_uris":{"android":"levelo://app?vid=e12b4729-a1d9-4909-9759-e5b8690101b0","ios":"levelo://app?vid=e12b4729-a1d9-4909-9759-e5b8690101b0"},"vehicle_type_id":"4","last_reported":1691590022,"current_range_meters":14400,"station_id":"","pricing_plan_id":"free"},{"bike_id":"31d86e85-7983-4758-88f8-ce8bddf05a71","system_id":"levelo_inurba_marseille","lat":43.298433,"lon":5.362774,"is_reserved":false,"is_disabled":false,"rental_uris":{"android":"levelo://app?vid=31d86e85-7983-4758-88f8-ce8bddf05a71","ios":"levelo://app?vid=31d86e85-7983-4758-88f8-ce8bddf05a71"},"vehicle_type_id":"4","last_reported":1691590022,"current_range_meters":23600,"station_id":"ce4bgpp2rcd13ifvqc3g","pricing_plan_id":"free"},{"bike_id":"30537d43-af02-4a10-b928-7b9b8cf633d2","system_id":"levelo_inurba_marseille","lat":43.305265,"lon":5.384239,"is_reserved":false,"is_disabled":false,"rental_uris":{"android":"levelo://app?vid=30537d43-af02-4a10-b928-7b9b8cf633d2","ios":"levelo://app?vid=30537d43-af02-4a10-b928-7b9b8cf633d2"},"vehicle_type_id":"4","last_reported":1691590022,"current_range_meters":19600,"station_id":"ce4bgg92rcd13ifvqb30","pricing_plan_id":"free"},{"bike_id":"d6dd8eb5-d398-4754-9547-4542b455d7c2","system_id":"levelo_inurba_marseille","lat":43.305364,"lon":5.384119,"is_reserved":false,"is_disabled":false,"rental_uris":{"android":"levelo://app?vid=d6dd8eb5-d398-4754-9547-4542b455d7c2","ios":"levelo://app?vid=d6dd8eb5-d398-4754-9547-4542b455d7c2"},"vehicle_type_id":"4","last_reported":1691590022,"current_range_meters":20800,"station_id":"ce4bgg92rcd13ifvqb30","pricing_plan_id":"free"},{"bike_id":"f2ba73aa-6797-48c1-a5ad-7066bcdcb295","system_id":"levelo_inurba_marseille","lat":43.298433,"lon":5.362774,"is_reserved":false,"is_disabled":false,"rental_uris":{"android":"levelo://app?vid=f2ba73aa-6797-48c1-a5ad-7066bcdcb295","ios":"levelo://app?vid=f2ba73aa-6797-48c1-a5ad-7066bcdcb295"},"vehicle_type_id":"4","last_reported":1691590022,"current_range_meters":30000,"station_id":"ce4bgpp2rcd13ifvqc3g","pricing_plan_id":"free"},{"bike_id":"0adf9f92-b558-4319-b1c7-82642d9b154a","system_id":"levelo_inurba_marseille","lat":43.298433,"lon":5.362774,"is_reserved":false,"is_disabled":false,"rental_uris":{"android":"levelo://app?vid=0adf9f92-b558-4319-b1c7-82642d9b154a","ios":"levelo://app?vid=0adf9f92-b558-4319-b1c7-82642d9b154a"},"vehicle_type_id":"4","last_reported":1691590022,"current_range_meters":31200,"station_id":"ce4bgpp2rcd13ifvqc3g","pricing_plan_id":"free"},{"bike_id":"2c3b5047-5033-4ba5-99c4-80ce4bd67dbb","system_id":"levelo_inurba_marseille","lat":43.298433,"lon":5.362774,"is_reserved":false,"is_disabled":false,"rental_uris":{"android":"levelo://app?vid=2c3b5047-5033-4ba5-99c4-80ce4bd67dbb","ios":"levelo://app?vid=2c3b5047-5033-4ba5-99c4-80ce4bd67dbb"},"vehicle_type_id":"4","last_reported":1691590022,"current_range_meters":31600,"station_id":"ce4bgpp2rcd13ifvqc3g","pricing_plan_id":"free"},{"bike_id":"eeceba83-0214-406d-a047-c8c4764bc463","system_id":"levelo_inurba_marseille","lat":43.299243,"lon":5.37481,"is_reserved":false,"is_disabled":false,"rental_uris":{"android":"levelo://app?vid=eeceba83-0214-406d-a047-c8c4764bc463","ios":"levelo://app?vid=eeceba83-0214-406d-a047-c8c4764bc463"},"vehicle_type_id":"4","last_reported":1691590022,"current_range_meters":17600,"station_id":"ce4bgjh2rcd13ifvqbg0","pricing_plan_id":"free"},{"bike_id":"ca5d040c-3a79-419f-9fcb-3658f5ece189","system_id":"levelo_inurba_marseille","lat":43.298433,"lon":5.362774,"is_reserved":false,"is_disabled":false,"rental_uris":{"android":"levelo://app?vid=ca5d040c-3a79-419f-9fcb-3658f5ece189","ios":"levelo://app?vid=ca5d040c-3a79-419f-9fcb-3658f5ece189"},"vehicle_type_id":"4","last_reported":1691590022,"current_range_meters":31200,"station_id":"ce4bgpp2rcd13ifvqc3g","pricing_plan_id":"free"},{"bike_id":"1f3cb71a-af51-492d-8082-71ce230393f4","system_id":"levelo_inurba_marseille","lat":43.298433,"lon":5.362774,"is_reserved":false,"is_disabled":false,"rental_uris":{"android":"levelo://app?vid=1f3cb71a-af51-492d-8082-71ce230393f4","ios":"levelo://app?vid=1f3cb71a-af51-492d-8082-71ce230393f4"},"vehicle_type_id":"4","last_reported":1691590022,"current_range_meters":31200,"station_id":"ce4bgpp2rcd13ifvqc3g","pricing_plan_id":"free"},{"bike_id":"4a6881d2-6ef7-4791-860d-62e1f027fa52","system_id":"levelo_inurba_marseille","lat":43.311722,"lon":5.387247,"is_reserved":false,"is_disabled":false,"rental_uris":{"android":"levelo://app?vid=4a6881d2-6ef7-4791-860d-62e1f027fa52","ios":"levelo://app?vid=4a6881d2-6ef7-4791-860d-62e1f027fa52"},"vehicle_type_id":"4","last_reported":1691590022,"current_range_meters":2800,"station_id":"ce4bgv12rcd13ifvqcp0","pricing_plan_id":"free"},{"bike_id":"9e1e4b0b-7c69-43f1-addb-e2479ec6afe9","system_id":"levelo_inurba_marseille","lat":43.297774,"lon":5.370875,"is_reserved":false,"is_disabled":false,"rental_uris":{"android":"levelo://app?vid=9e1e4b0b-7c69-43f1-addb-e2479ec6afe9","ios":"levelo://app?vid=9e1e4b0b-7c69-43f1-addb-e2479ec6afe9"},"vehicle_type_id":"4","last_reported":1691590022,"current_range_meters":2000,"station_id":"ce4bgop2rcd13ifvqc1g","pricing_plan_id":"free"},{"bike_id":"3a574de3-b31f-4b53-9fcf-1545808be757","system_id":"levelo_inurba_marseille","lat":43.32287,"lon":5.38267,"is_reserved":false,"is_disabled":false,"rental_uris":{"android":"levelo://app?vid=3a574de3-b31f-4b53-9fcf-1545808be757","ios":"levelo://app?vid=3a574de3-b31f-4b53-9fcf-1545808be757"},"vehicle_type_id":"4","last_reported":1691590022,"current_range_meters":26000,"station_id":"ce4bhr12rcd13ifvqhqg","pricing_plan_id":"free"},{"bike_id":"b3e59944-51c6-41f6-a617-bc9454b48e90","system_id":"levelo_inurba_marseille","lat":43.32822,"lon":5.3667,"is_reserved":false,"is_disabled":false,"rental_uris":{"android":"levelo://app?vid=b3e59944-51c6-41f6-a617-bc9454b48e90","ios":"levelo://app?vid=b3e59944-51c6-41f6-a617-bc9454b48e90"},"vehicle_type_id":"4","last_reported":1691590022,"current_range_meters":31200,"station_id":"ce4bhs92rcd13ifvqi0g","pricing_plan_id":"free"},{"bike_id":"2fdf06f0-8fe8-4a94-ae1f-c98849da9368","system_id":"levelo_inurba_marseille","lat":43.32825,"lon":5.36681,"is_reserved":false,"is_disabled":false,"rental_uris":{"android":"levelo://app?vid=2fdf06f0-8fe8-4a94-ae1f-c98849da9368","ios":"levelo://app?vid=2fdf06f0-8fe8-4a94-ae1f-c98849da9368"},"vehicle_type_id":"4","last_reported":1691590022,"current_range_meters":29600,"station_id":"ce4bhs92rcd13ifvqi0g","pricing_plan_id":"free"},{"bike_id":"69208cf7-0ad1-487d-a460-18606486926b","system_id":"levelo_inurba_marseille","lat":43.328371,"lon":5.366909,"is_reserved":false,"is_disabled":false,"rental_uris":{"android":"levelo://app?vid=69208cf7-0ad1-487d-a460-18606486926b","ios":"levelo://app?vid=69208cf7-0ad1-487d-a460-18606486926b"},"vehicle_type_id":"4","last_reported":1691590022,"current_range_meters":31200,"station_id":"ce4bhs92rcd13ifvqi0g","pricing_plan_id":"free"},{"bike_id":"d94ebd8d-5bb5-42e8-bd44-6f638190d19b","system_id":"levelo_inurba_marseille","lat":43.328259,"lon":5.366854,"is_reserved":false,"is_disabled":false,"rental_uris":{"android":"levelo://app?vid=d94ebd8d-5bb5-42e8-bd44-6f638190d19b","ios":"levelo://app?vid=d94ebd8d-5bb5-42e8-bd44-6f638190d19b"},"vehicle_type_id":"4","last_reported":1691590022,"current_range_meters":31200,"station_id":"ce4bhs92rcd13ifvqi0g","pricing_plan_id":"free"},{"bike_id":"ceca8cd4-3d1e-41a7-9382-c718aad1c6a0","system_id":"levelo_inurba_marseille","lat":43.32826,"lon":5.36674,"is_reserved":false,"is_disabled":false,"rental_uris":{"android":"levelo://app?vid=ceca8cd4-3d1e-41a7-9382-c718aad1c6a0","ios":"levelo://app?vid=ceca8cd4-3d1e-41a7-9382-c718aad1c6a0"},"vehicle_type_id":"4","last_reported":1691590022,"current_range_meters":10000,"station_id":"ce4bhs92rcd13ifvqi0g","pricing_plan_id":"free"},{"bike_id":"96a24695-afe7-4738-b13e-7bd48d93c2cd","system_id":"levelo_inurba_marseille","lat":43.32826,"lon":5.3667,"is_reserved":false,"is_disabled":false,"rental_uris":{"android":"levelo://app?vid=96a24695-afe7-4738-b13e-7bd48d93c2cd","ios":"levelo://app?vid=96a24695-afe7-4738-b13e-7bd48d93c2cd"},"vehicle_type_id":"4","last_reported":1691590022,"current_range_meters":25200,"station_id":"ce4bhs92rcd13ifvqi0g","pricing_plan_id":"free"},{"bike_id":"1aa045b9-3de3-4cf3-bcc9-d7e40ca37fd7","system_id":"levelo_inurba_marseille","lat":43.32831,"lon":5.36674,"is_reserved":false,"is_disabled":false,"rental_uris":{"android":"levelo://app?vid=1aa045b9-3de3-4cf3-bcc9-d7e40ca37fd7","ios":"levelo://app?vid=1aa045b9-3de3-4cf3-bcc9-d7e40ca37fd7"},"vehicle_type_id":"4","last_reported":1691590022,"current_range_meters":25200,"station_id":"ce4bhs92rcd13ifvqi0g","pricing_plan_id":"free"},{"bike_id":"22ab1de9-259f-4ba8-9b1b-8a48368f1118","system_id":"levelo_inurba_marseille","lat":43.32832,"lon":5.36684,"is_reserved":false,"is_disabled":false,"rental_uris":{"android":"levelo://app?vid=22ab1de9-259f-4ba8-9b1b-8a48368f1118","ios":"levelo://app?vid=22ab1de9-259f-4ba8-9b1b-8a48368f1118"},"vehicle_type_id":"4","last_reported":1691590022,"current_range_meters":30400,"station_id":"ce4bhs92rcd13ifvqi0g","pricing_plan_id":"free"},{"bike_id":"3dee33b0-1dbd-4d86-9b6b-12fca67c3ee9","system_id":"levelo_inurba_marseille","lat":43.32832,"lon":5.3667,"is_reserved":false,"is_disabled":false,"rental_uris":{"android":"levelo://app?vid=3dee33b0-1dbd-4d86-9b6b-12fca67c3ee9","ios":"levelo://app?vid=3dee33b0-1dbd-4d86-9b6b-12fca67c3ee9"},"vehicle_type_id":"4","last_reported":1691590022,"current_range_meters":23200,"station_id":"ce4bhs92rcd13ifvqi0g","pricing_plan_id":"free"},{"bike_id":"7455d1ec-0412-41e7-8728-a43009b14238","system_id":"levelo_inurba_marseille","lat":43.32833,"lon":5.3668,"is_reserved":false,"is_disabled":false,"rental_uris":{"android":"levelo://app?vid=7455d1ec-0412-41e7-8728-a43009b14238","ios":"levelo://app?vid=7455d1ec-0412-41e7-8728-a43009b14238"},"vehicle_type_id":"4","last_reported":1691590022,"current_range_meters":19200,"station_id":"ce4bhs92rcd13ifvqi0g","pricing_plan_id":"free"},{"bike_id":"dd789220-e7b5-42c1-b9dc-dc4243148021","system_id":"levelo_inurba_marseille","lat":43.297163,"lon":5.365866,"is_reserved":false,"is_disabled":false,"rental_uris":{"android":"levelo://app?vid=dd789220-e7b5-42c1-b9dc-dc4243148021","ios":"levelo://app?vid=dd789220-e7b5-42c1-b9dc-dc4243148021"},"vehicle_type_id":"4","last_reported":1691590022,"current_range_meters":31200,"station_id":"ce4bgn12rcd13ifvqbt0","pricing_plan_id":"free"},{"bike_id":"f404519f-b4d2-4a1b-8634-7ab24d5a8bab","system_id":"levelo_inurba_marseille","lat":43.297163,"lon":5.365866,"is_reserved":false,"is_disabled":false,"rental_uris":{"android":"levelo://app?vid=f404519f-b4d2-4a1b-8634-7ab24d5a8bab","ios":"levelo://app?vid=f404519f-b4d2-4a1b-8634-7ab24d5a8bab"},"vehicle_type_id":"4","last_reported":1691590022,"current_range_meters":8800,"station_id":"ce4bgn12rcd13ifvqbt0","pricing_plan_id":"free"},{"bike_id":"26aa3228-72df-4772-8305-1603e4dd8f54","system_id":"levelo_inurba_marseille","lat":43.296921,"lon":5.376579,"is_reserved":false,"is_disabled":false,"rental_uris":{"android":"levelo://app?vid=26aa3228-72df-4772-8305-1603e4dd8f54","ios":"levelo://app?vid=26aa3228-72df-4772-8305-1603e4dd8f54"},"vehicle_type_id":"4","last_reported":1691590022,"current_range_meters":0,"station_id":"ce4bgkh2rcd13ifvqbl0","pricing_plan_id":"free"},{"bike_id":"00115edb-3065-44ee-aa0d-b0f3e38d35ed","system_id":"levelo_inurba_marseille","lat":43.30976,"lon":5.39005,"is_reserved":false,"is_disabled":false,"rental_uris":{"android":"levelo://app?vid=00115edb-3065-44ee-aa0d-b0f3e38d35ed","ios":"levelo://app?vid=00115edb-3065-44ee-aa0d-b0f3e38d35ed"},"vehicle_type_id":"4","last_reported":1691590022,"current_range_meters":30000,"station_id":"ce4bgup2rcd13ifvqco0","pricing_plan_id":"free"},{"bike_id":"feafbc4a-14ce-4f67-8909-c304852ea133","system_id":"levelo_inurba_marseille","lat":43.299028,"lon":5.381509,"is_reserved":false,"is_disabled":false,"rental_uris":{"android":"levelo://app?vid=feafbc4a-14ce-4f67-8909-c304852ea133","ios":"levelo://app?vid=feafbc4a-14ce-4f67-8909-c304852ea133"},"vehicle_type_id":"4","last_reported":1691590022,"current_range_meters":25200,"station_id":"ce4bgj12rcd13ifvqbc0","pricing_plan_id":"free"},{"bike_id":"67bf6f54-0066-4632-bd5e-6c18d78f8763","system_id":"levelo_inurba_marseille","lat":43.317557,"lon":5.390173,"is_reserved":false,"is_disabled":false,"rental_uris":{"android":"levelo://app?vid=67bf6f54-0066-4632-bd5e-6c18d78f8763","ios":"levelo://app?vid=67bf6f54-0066-4632-bd5e-6c18d78f8763"},"vehicle_type_id":"4","last_reported":1691590022,"current_range_meters":30400,"station_id":"ce4bhqp2rcd13ifvqhng","pricing_plan_id":"free"},{"bike_id":"1407c1a6-2ea8-47fc-bdcc-75f0132adf21","system_id":"levelo_inurba_marseille","lat":43.317557,"lon":5.390173,"is_reserved":false,"is_disabled":false,"rental_uris":{"android":"levelo://app?vid=1407c1a6-2ea8-47fc-bdcc-75f0132adf21","ios":"levelo://app?vid=1407c1a6-2ea8-47fc-bdcc-75f0132adf21"},"vehicle_type_id":"4","last_reported":1691590022,"current_range_meters":25200,"station_id":"ce4bhqp2rcd13ifvqhng","pricing_plan_id":"free"},{"bike_id":"9f780d5f-25f7-4665-bb1f-ee2252260176","system_id":"levelo_inurba_marseille","lat":43.317557,"lon":5.390173,"is_reserved":false,"is_disabled":false,"rental_uris":{"android":"levelo://app?vid=9f780d5f-25f7-4665-bb1f-ee2252260176","ios":"levelo://app?vid=9f780d5f-25f7-4665-bb1f-ee2252260176"},"vehicle_type_id":"4","last_reported":1691590022,"current_range_meters":26400,"station_id":"ce4bhqp2rcd13ifvqhng","pricing_plan_id":"free"},{"bike_id":"e77b3d0f-7a57-4c82-b455-52a093522c55","system_id":"levelo_inurba_marseille","lat":43.317557,"lon":5.390173,"is_reserved":false,"is_disabled":false,"rental_uris":{"android":"levelo://app?vid=e77b3d0f-7a57-4c82-b455-52a093522c55","ios":"levelo://app?vid=e77b3d0f-7a57-4c82-b455-52a093522c55"},"vehicle_type_id":"4","last_reported":1691590022,"current_range_meters":27600,"station_id":"ce4bhqp2rcd13ifvqhng","pricing_plan_id":"free"},{"bike_id":"f0d506b5-1334-4bf3-b008-61812ced1ee1","system_id":"levelo_inurba_marseille","lat":43.317557,"lon":5.390173,"is_reserved":false,"is_disabled":false,"rental_uris":{"android":"levelo://app?vid=f0d506b5-1334-4bf3-b008-61812ced1ee1","ios":"levelo://app?vid=f0d506b5-1334-4bf3-b008-61812ced1ee1"},"vehicle_type_id":"4","last_reported":1691590022,"current_range_meters":24800,"station_id":"ce4bhqp2rcd13ifvqhng","pricing_plan_id":"free"},{"bike_id":"4ac2e1cb-ccbf-4b9a-b24d-70e9e0a66a09","system_id":"levelo_inurba_marseille","lat":43.317557,"lon":5.390173,"is_reserved":false,"is_disabled":false,"rental_uris":{"android":"levelo://app?vid=4ac2e1cb-ccbf-4b9a-b24d-70e9e0a66a09","ios":"levelo://app?vid=4ac2e1cb-ccbf-4b9a-b24d-70e9e0a66a09"},"vehicle_type_id":"4","last_reported":1691590022,"current_range_meters":31200,"station_id":"ce4bhqp2rcd13ifvqhng","pricing_plan_id":"free"},{"bike_id":"5c960f21-4fa0-4fac-81c2-ff0397396ba7","system_id":"levelo_inurba_marseille","lat":43.317557,"lon":5.390173,"is_reserved":false,"is_disabled":false,"rental_uris":{"android":"levelo://app?vid=5c960f21-4fa0-4fac-81c2-ff0397396ba7","ios":"levelo://app?vid=5c960f21-4fa0-4fac-81c2-ff0397396ba7"},"vehicle_type_id":"4","last_reported":1691590022,"current_range_meters":28000,"station_id":"ce4bhqp2rcd13ifvqhng","pricing_plan_id":"free"},{"bike_id":"bbdf66e1-433b-4a72-929b-a9f7a519bdb2","system_id":"levelo_inurba_marseille","lat":43.317557,"lon":5.390173,"is_reserved":false,"is_disabled":false,"rental_uris":{"android":"levelo://app?vid=bbdf66e1-433b-4a72-929b-a9f7a519bdb2","ios":"levelo://app?vid=bbdf66e1-433b-4a72-929b-a9f7a519bdb2"},"vehicle_type_id":"4","last_reported":1691590022,"current_range_meters":31200,"station_id":"ce4bhqp2rcd13ifvqhng","pricing_plan_id":"free"},{"bike_id":"e100d0ee-4947-4f52-b0f2-914cc410ca25","system_id":"levelo_inurba_marseille","lat":43.30428,"lon":5.38887,"is_reserved":false,"is_disabled":false,"rental_uris":{"android":"levelo://app?vid=e100d0ee-4947-4f52-b0f2-914cc410ca25","ios":"levelo://app?vid=e100d0ee-4947-4f52-b0f2-914cc410ca25"},"vehicle_type_id":"4","last_reported":1691590022,"current_range_meters":21600,"station_id":"ce4bgk12rcd13ifvqbi0","pricing_plan_id":"free"},{"bike_id":"a4df99ce-0488-49dd-a888-94686f562e88","system_id":"levelo_inurba_marseille","lat":43.295748,"lon":5.37522,"is_reserved":false,"is_disabled":false,"rental_uris":{"android":"levelo://app?vid=a4df99ce-0488-49dd-a888-94686f562e88","ios":"levelo://app?vid=a4df99ce-0488-49dd-a888-94686f562e88"},"vehicle_type_id":"4","last_reported":1691590022,"current_range_meters":29600,"station_id":"ce4bgh92rcd13ifvqb50","pricing_plan_id":"free"},{"bike_id":"a9e1ea04-1031-4176-883b-43941c917b70","system_id":"levelo_inurba_marseille","lat":43.296263,"lon":5.377094,"is_reserved":false,"is_disabled":false,"rental_uris":{"android":"levelo://app?vid=a9e1ea04-1031-4176-883b-43941c917b70","ios":"levelo://app?vid=a9e1ea04-1031-4176-883b-43941c917b70"},"vehicle_type_id":"4","last_reported":1691590022,"current_range_meters":10800,"station_id":"ce4bgi92rcd13ifvqb90","pricing_plan_id":"free"},{"bike_id":"9f407741-3e82-42f6-9092-a4177cc78039","system_id":"levelo_inurba_marseille","lat":43.32367,"lon":5.388836,"is_reserved":false,"is_disabled":false,"rental_uris":{"android":"levelo://app?vid=9f407741-3e82-42f6-9092-a4177cc78039","ios":"levelo://app?vid=9f407741-3e82-42f6-9092-a4177cc78039"},"vehicle_type_id":"4","last_reported":1691590022,"current_range_meters":19200,"station_id":"ce4bhqp2rcd13ifvqhog","pricing_plan_id":"free"},{"bike_id":"2d8b254a-87f3-4049-a7bc-03fd28f94150","system_id":"levelo_inurba_marseille","lat":43.32367,"lon":5.388836,"is_reserved":false,"is_disabled":false,"rental_uris":{"android":"levelo://app?vid=2d8b254a-87f3-4049-a7bc-03fd28f94150","ios":"levelo://app?vid=2d8b254a-87f3-4049-a7bc-03fd28f94150"},"vehicle_type_id":"4","last_reported":1691590022,"current_range_meters":19600,"station_id":"ce4bhqp2rcd13ifvqhog","pricing_plan_id":"free"},{"bike_id":"09bdcea8-f003-494e-acb1-85fbb290a0e2","system_id":"levelo_inurba_marseille","lat":43.32367,"lon":5.388836,"is_reserved":false,"is_disabled":false,"rental_uris":{"android":"levelo://app?vid=09bdcea8-f003-494e-acb1-85fbb290a0e2","ios":"levelo://app?vid=09bdcea8-f003-494e-acb1-85fbb290a0e2"},"vehicle_type_id":"4","last_reported":1691590022,"current_range_meters":31200,"station_id":"ce4bhqp2rcd13ifvqhog","pricing_plan_id":"free"},{"bike_id":"706b5370-7eed-4a42-a1a9-b4cf78d1d029","system_id":"levelo_inurba_marseille","lat":43.32367,"lon":5.388836,"is_reserved":false,"is_disabled":false,"rental_uris":{"android":"levelo://app?vid=706b5370-7eed-4a42-a1a9-b4cf78d1d029","ios":"levelo://app?vid=706b5370-7eed-4a42-a1a9-b4cf78d1d029"},"vehicle_type_id":"4","last_reported":1691590022,"current_range_meters":31200,"station_id":"ce4bhqp2rcd13ifvqhog","pricing_plan_id":"free"},{"bike_id":"eaad0f71-f290-4338-9e3a-b85deb3d9357","system_id":"levelo_inurba_marseille","lat":43.32367,"lon":5.38887,"is_reserved":false,"is_disabled":false,"rental_uris":{"android":"levelo://app?vid=eaad0f71-f290-4338-9e3a-b85deb3d9357","ios":"levelo://app?vid=eaad0f71-f290-4338-9e3a-b85deb3d9357"},"vehicle_type_id":"4","last_reported":1691590022,"current_range_meters":31200,"station_id":"ce4bhqp2rcd13ifvqhog","pricing_plan_id":"free"},{"bike_id":"6eb38218-f694-405c-82c1-aeca5a265f50","system_id":"levelo_inurba_marseille","lat":43.29595,"lon":5.381,"is_reserved":false,"is_disabled":false,"rental_uris":{"android":"levelo://app?vid=6eb38218-f694-405c-82c1-aeca5a265f50","ios":"levelo://app?vid=6eb38218-f694-405c-82c1-aeca5a265f50"},"vehicle_type_id":"4","last_reported":1691590022,"current_range_meters":26800,"station_id":"","pricing_plan_id":"free"},{"bike_id":"ff2d9c4e-d01b-46e9-bdb3-a875ee483c00","system_id":"levelo_inurba_marseille","lat":43.2927,"lon":5.3684,"is_reserved":false,"is_disabled":false,"rental_uris":{"android":"levelo://app?vid=ff2d9c4e-d01b-46e9-bdb3-a875ee483c00","ios":"levelo://app?vid=ff2d9c4e-d01b-46e9-bdb3-a875ee483c00"},"vehicle_type_id":"4","last_reported":1691590022,"current_range_meters":23200,"station_id":"","pricing_plan_id":"free"},{"bike_id":"dbe406a0-e31d-4174-932b-0d8d584d17c2","system_id":"levelo_inurba_marseille","lat":43.292749,"lon":5.368398,"is_reserved":false,"is_disabled":false,"rental_uris":{"android":"levelo://app?vid=dbe406a0-e31d-4174-932b-0d8d584d17c2","ios":"levelo://app?vid=dbe406a0-e31d-4174-932b-0d8d584d17c2"},"vehicle_type_id":"4","last_reported":1691590022,"current_range_meters":31200,"station_id":"ce4bhbp2rcd13ifvqesg","pricing_plan_id":"free"},{"bike_id":"5788fffb-ba02-4354-bc62-9dd28cfa0d08","system_id":"levelo_inurba_marseille","lat":43.305994,"lon":5.393687,"is_reserved":false,"is_disabled":false,"rental_uris":{"android":"levelo://app?vid=5788fffb-ba02-4354-bc62-9dd28cfa0d08","ios":"levelo://app?vid=5788fffb-ba02-4354-bc62-9dd28cfa0d08"},"vehicle_type_id":"4","last_reported":1691590022,"current_range_meters":27600,"station_id":"ce4bh0p2rcd13ifvqd80","pricing_plan_id":"free"},{"bike_id":"a43a80e0-6a50-4315-ae45-e332fc04f98d","system_id":"levelo_inurba_marseille","lat":43.302992,"lon":5.392136,"is_reserved":false,"is_disabled":false,"rental_uris":{"android":"levelo://app?vid=a43a80e0-6a50-4315-ae45-e332fc04f98d","ios":"levelo://app?vid=a43a80e0-6a50-4315-ae45-e332fc04f98d"},"vehicle_type_id":"4","last_reported":1691590022,"current_range_meters":16000,"station_id":"ce4bgkh2rcd13ifvqbk0","pricing_plan_id":"free"},{"bike_id":"7d5bca1c-59d9-4537-853c-d50c5f3751f1","system_id":"levelo_inurba_marseille","lat":43.302992,"lon":5.392136,"is_reserved":false,"is_disabled":false,"rental_uris":{"android":"levelo://app?vid=7d5bca1c-59d9-4537-853c-d50c5f3751f1","ios":"levelo://app?vid=7d5bca1c-59d9-4537-853c-d50c5f3751f1"},"vehicle_type_id":"4","last_reported":1691590022,"current_range_meters":11200,"station_id":"ce4bgkh2rcd13ifvqbk0","pricing_plan_id":"free"},{"bike_id":"6882d243-0013-4f1a-8ad1-9d50112ee45f","system_id":"levelo_inurba_marseille","lat":43.300852,"lon":5.390859,"is_reserved":false,"is_disabled":false,"rental_uris":{"android":"levelo://app?vid=6882d243-0013-4f1a-8ad1-9d50112ee45f","ios":"levelo://app?vid=6882d243-0013-4f1a-8ad1-9d50112ee45f"},"vehicle_type_id":"4","last_reported":1691590022,"current_range_meters":19200,"station_id":"ce4bh192rcd13ifvqdb0","pricing_plan_id":"free"},{"bike_id":"bc27d754-27cc-4f3d-b1d8-41c1401130a4","system_id":"levelo_inurba_marseille","lat":43.300852,"lon":5.390859,"is_reserved":false,"is_disabled":false,"rental_uris":{"android":"levelo://app?vid=bc27d754-27cc-4f3d-b1d8-41c1401130a4","ios":"levelo://app?vid=bc27d754-27cc-4f3d-b1d8-41c1401130a4"},"vehicle_type_id":"4","last_reported":1691590022,"current_range_meters":26000,"station_id":"ce4bh192rcd13ifvqdb0","pricing_plan_id":"free"},{"bike_id":"11f55429-ff23-4fb6-bed8-d320a7b4eb07","system_id":"levelo_inurba_marseille","lat":43.29893,"lon":5.388997,"is_reserved":false,"is_disabled":false,"rental_uris":{"android":"levelo://app?vid=11f55429-ff23-4fb6-bed8-d320a7b4eb07","ios":"levelo://app?vid=11f55429-ff23-4fb6-bed8-d320a7b4eb07"},"vehicle_type_id":"4","last_reported":1691590022,"current_range_meters":4400,"station_id":"ce4bh392rcd13ifvqdl0","pricing_plan_id":"free"},{"bike_id":"abea409e-acb2-4447-84cf-24b0345dcca8","system_id":"levelo_inurba_marseille","lat":43.30885,"lon":5.39632,"is_reserved":false,"is_disabled":false,"rental_uris":{"android":"levelo://app?vid=abea409e-acb2-4447-84cf-24b0345dcca8","ios":"levelo://app?vid=abea409e-acb2-4447-84cf-24b0345dcca8"},"vehicle_type_id":"4","last_reported":1691590022,"current_range_meters":2800,"station_id":"ce4bh012rcd13ifvqcv0","pricing_plan_id":"free"},{"bike_id":"e64ae3cf-d100-42d0-bbbc-bb2bc790684e","system_id":"levelo_inurba_marseille","lat":43.313291,"lon":5.396838,"is_reserved":false,"is_disabled":false,"rental_uris":{"android":"levelo://app?vid=e64ae3cf-d100-42d0-bbbc-bb2bc790684e","ios":"levelo://app?vid=e64ae3cf-d100-42d0-bbbc-bb2bc790684e"},"vehicle_type_id":"4","last_reported":1691590022,"current_range_meters":24400,"station_id":"ce4bgvp2rcd13ifvqcu0","pricing_plan_id":"free"},{"bike_id":"9d0a0bb9-9b03-4d30-9a7e-c987e0370759","system_id":"levelo_inurba_marseille","lat":43.28939,"lon":5.36636,"is_reserved":false,"is_disabled":false,"rental_uris":{"android":"levelo://app?vid=9d0a0bb9-9b03-4d30-9a7e-c987e0370759","ios":"levelo://app?vid=9d0a0bb9-9b03-4d30-9a7e-c987e0370759"},"vehicle_type_id":"4","last_reported":1691590022,"current_range_meters":3600,"station_id":"ce4bhap2rcd13ifvqek0","pricing_plan_id":"free"},{"bike_id":"44242817-746f-496c-bd16-54c4c75103e3","system_id":"levelo_inurba_marseille","lat":43.29041,"lon":5.399634,"is_reserved":false,"is_disabled":false,"rental_uris":{"android":"levelo://app?vid=44242817-746f-496c-bd16-54c4c75103e3","ios":"levelo://app?vid=44242817-746f-496c-bd16-54c4c75103e3"},"vehicle_type_id":"4","last_reported":1691590022,"current_range_meters":10400,"station_id":"ce4bh392rcd13ifvqdm0","pricing_plan_id":"free"},{"bike_id":"65d8f9c8-415d-4370-81ac-ceee1babf0cb","system_id":"levelo_inurba_marseille","lat":43.304274,"lon":5.397513,"is_reserved":false,"is_disabled":false,"rental_uris":{"android":"levelo://app?vid=65d8f9c8-415d-4370-81ac-ceee1babf0cb","ios":"levelo://app?vid=65d8f9c8-415d-4370-81ac-ceee1babf0cb"},"vehicle_type_id":"4","last_reported":1691590022,"current_range_meters":23200,"station_id":"ce4bh092rcd13ifvqd20","pricing_plan_id":"free"},{"bike_id":"5f4ab2ee-54fb-4f14-83df-cec731d95b92","system_id":"levelo_inurba_marseille","lat":43.304274,"lon":5.397513,"is_reserved":false,"is_disabled":false,"rental_uris":{"android":"levelo://app?vid=5f4ab2ee-54fb-4f14-83df-cec731d95b92","ios":"levelo://app?vid=5f4ab2ee-54fb-4f14-83df-cec731d95b92"},"vehicle_type_id":"4","last_reported":1691590022,"current_range_meters":14000,"station_id":"ce4bh092rcd13ifvqd20","pricing_plan_id":"free"},{"bike_id":"4134a781-cf6e-4b88-804a-88dae89d7443","system_id":"levelo_inurba_marseille","lat":43.30481,"lon":5.39776,"is_reserved":false,"is_disabled":false,"rental_uris":{"android":"levelo://app?vid=4134a781-cf6e-4b88-804a-88dae89d7443","ios":"levelo://app?vid=4134a781-cf6e-4b88-804a-88dae89d7443"},"vehicle_type_id":"4","last_reported":1691590022,"current_range_meters":18800,"station_id":"","pricing_plan_id":"free"},{"bike_id":"e664e507-feca-418b-bad7-475c414c2a64","system_id":"levelo_inurba_marseille","lat":43.2926,"lon":5.38436,"is_reserved":false,"is_disabled":false,"rental_uris":{"android":"levelo://app?vid=e664e507-feca-418b-bad7-475c414c2a64","ios":"levelo://app?vid=e664e507-feca-418b-bad7-475c414c2a64"},"vehicle_type_id":"4","last_reported":1691590022,"current_range_meters":9600,"station_id":"ce4bh692rcd13ifvqea0","pricing_plan_id":"free"},{"bike_id":"1d39cb6b-9879-4e3f-8a27-1c570603366e","system_id":"levelo_inurba_marseille","lat":43.33046,"lon":5.38906,"is_reserved":false,"is_disabled":false,"rental_uris":{"android":"levelo://app?vid=1d39cb6b-9879-4e3f-8a27-1c570603366e","ios":"levelo://app?vid=1d39cb6b-9879-4e3f-8a27-1c570603366e"},"vehicle_type_id":"4","last_reported":1691590022,"current_range_meters":31200,"station_id":"ce4bhr92rcd13ifvqhrg","pricing_plan_id":"free"},{"bike_id":"89a907ba-7b40-471c-91f6-7095487b0f24","system_id":"levelo_inurba_marseille","lat":43.29248,"lon":5.38448,"is_reserved":false,"is_disabled":false,"rental_uris":{"android":"levelo://app?vid=89a907ba-7b40-471c-91f6-7095487b0f24","ios":"levelo://app?vid=89a907ba-7b40-471c-91f6-7095487b0f24"},"vehicle_type_id":"4","last_reported":1691590022,"current_range_meters":6400,"station_id":"ce4bh692rcd13ifvqea0","pricing_plan_id":"free"},{"bike_id":"f71aed5b-352a-4d4c-967b-b7e0283ec3d5","system_id":"levelo_inurba_marseille","lat":43.33046,"lon":5.38913,"is_reserved":false,"is_disabled":false,"rental_uris":{"android":"levelo://app?vid=f71aed5b-352a-4d4c-967b-b7e0283ec3d5","ios":"levelo://app?vid=f71aed5b-352a-4d4c-967b-b7e0283ec3d5"},"vehicle_type_id":"4","last_reported":1691590022,"current_range_meters":29600,"station_id":"ce4bhr92rcd13ifvqhrg","pricing_plan_id":"free"},{"bike_id":"3287fb30-ec66-4dda-b599-a65f0dc59abf","system_id":"levelo_inurba_marseille","lat":43.33049,"lon":5.38909,"is_reserved":false,"is_disabled":false,"rental_uris":{"android":"levelo://app?vid=3287fb30-ec66-4dda-b599-a65f0dc59abf","ios":"levelo://app?vid=3287fb30-ec66-4dda-b599-a65f0dc59abf"},"vehicle_type_id":"4","last_reported":1691590022,"current_range_meters":25200,"station_id":"ce4bhr92rcd13ifvqhrg","pricing_plan_id":"free"},{"bike_id":"0ed23cb6-1270-4254-b126-2273cf59137e","system_id":"levelo_inurba_marseille","lat":43.33046,"lon":5.38916,"is_reserved":false,"is_disabled":false,"rental_uris":{"android":"levelo://app?vid=0ed23cb6-1270-4254-b126-2273cf59137e","ios":"levelo://app?vid=0ed23cb6-1270-4254-b126-2273cf59137e"},"vehicle_type_id":"4","last_reported":1691590022,"current_range_meters":23200,"station_id":"ce4bhr92rcd13ifvqhrg","pricing_plan_id":"free"},{"bike_id":"979de499-9e12-4ff2-9460-38757b5c7b57","system_id":"levelo_inurba_marseille","lat":43.33047,"lon":5.38916,"is_reserved":false,"is_disabled":false,"rental_uris":{"android":"levelo://app?vid=979de499-9e12-4ff2-9460-38757b5c7b57","ios":"levelo://app?vid=979de499-9e12-4ff2-9460-38757b5c7b57"},"vehicle_type_id":"4","last_reported":1691590022,"current_range_meters":26400,"station_id":"ce4bhr92rcd13ifvqhrg","pricing_plan_id":"free"},{"bike_id":"7b78d55e-e99c-4fa7-968a-c672d6912f00","system_id":"levelo_inurba_marseille","lat":43.290104,"lon":5.356111,"is_reserved":false,"is_disabled":false,"rental_uris":{"android":"levelo://app?vid=7b78d55e-e99c-4fa7-968a-c672d6912f00","ios":"levelo://app?vid=7b78d55e-e99c-4fa7-968a-c672d6912f00"},"vehicle_type_id":"4","last_reported":1691590022,"current_range_meters":31200,"station_id":"ce4bhb92rcd13ifvqen0","pricing_plan_id":"free"},{"bike_id":"f8bf6a9c-58da-4368-a1c1-f966be94a14b","system_id":"levelo_inurba_marseille","lat":43.33052,"lon":5.38916,"is_reserved":false,"is_disabled":false,"rental_uris":{"android":"levelo://app?vid=f8bf6a9c-58da-4368-a1c1-f966be94a14b","ios":"levelo://app?vid=f8bf6a9c-58da-4368-a1c1-f966be94a14b"},"vehicle_type_id":"4","last_reported":1691590022,"current_range_meters":31200,"station_id":"ce4bhr92rcd13ifvqhrg","pricing_plan_id":"free"},{"bike_id":"d92191b5-3897-428d-989c-4b986c7a7e64","system_id":"levelo_inurba_marseille","lat":43.29001,"lon":5.3561,"is_reserved":false,"is_disabled":false,"rental_uris":{"android":"levelo://app?vid=d92191b5-3897-428d-989c-4b986c7a7e64","ios":"levelo://app?vid=d92191b5-3897-428d-989c-4b986c7a7e64"},"vehicle_type_id":"4","last_reported":1691590022,"current_range_meters":31200,"station_id":"ce4bhb92rcd13ifvqen0","pricing_plan_id":"free"},{"bike_id":"3789a97d-7bf0-4eae-b43c-c56f8fe07905","system_id":"levelo_inurba_marseille","lat":43.290995,"lon":5.381361,"is_reserved":false,"is_disabled":false,"rental_uris":{"android":"levelo://app?vid=3789a97d-7bf0-4eae-b43c-c56f8fe07905","ios":"levelo://app?vid=3789a97d-7bf0-4eae-b43c-c56f8fe07905"},"vehicle_type_id":"4","last_reported":1691590022,"current_range_meters":26000,"station_id":"ce4bh512rcd13ifvqe2g","pricing_plan_id":"free"},{"bike_id":"68eced19-c145-4c60-9e5a-0cc2af451a2e","system_id":"levelo_inurba_marseille","lat":43.290995,"lon":5.381361,"is_reserved":false,"is_disabled":false,"rental_uris":{"android":"levelo://app?vid=68eced19-c145-4c60-9e5a-0cc2af451a2e","ios":"levelo://app?vid=68eced19-c145-4c60-9e5a-0cc2af451a2e"},"vehicle_type_id":"4","last_reported":1691590022,"current_range_meters":8400,"station_id":"ce4bh512rcd13ifvqe2g","pricing_plan_id":"free"},{"bike_id":"f198c161-acb7-4ca6-9524-793839d40a0e","system_id":"levelo_inurba_marseille","lat":43.297815,"lon":5.393548,"is_reserved":false,"is_disabled":false,"rental_uris":{"android":"levelo://app?vid=f198c161-acb7-4ca6-9524-793839d40a0e","ios":"levelo://app?vid=f198c161-acb7-4ca6-9524-793839d40a0e"},"vehicle_type_id":"4","last_reported":1691590022,"current_range_meters":9600,"station_id":"chh1huq6cuj3fo74tm60","pricing_plan_id":"free"},{"bike_id":"382eb50b-6423-4f50-9cab-357d28409c23","system_id":"levelo_inurba_marseille","lat":43.295169,"lon":5.390426,"is_reserved":false,"is_disabled":false,"rental_uris":{"android":"levelo://app?vid=382eb50b-6423-4f50-9cab-357d28409c23","ios":"levelo://app?vid=382eb50b-6423-4f50-9cab-357d28409c23"},"vehicle_type_id":"4","last_reported":1691590022,"current_range_meters":24800,"station_id":"ce4bh3p2rcd13ifvqdp0","pricing_plan_id":"free"},{"bike_id":"bce8007a-1827-4509-a1bf-23fe40a9e3b0","system_id":"levelo_inurba_marseille","lat":43.295169,"lon":5.390426,"is_reserved":false,"is_disabled":false,"rental_uris":{"android":"levelo://app?vid=bce8007a-1827-4509-a1bf-23fe40a9e3b0","ios":"levelo://app?vid=bce8007a-1827-4509-a1bf-23fe40a9e3b0"},"vehicle_type_id":"4","last_reported":1691590022,"current_range_meters":0,"station_id":"ce4bh3p2rcd13ifvqdp0","pricing_plan_id":"free"},{"bike_id":"6e3938f2-c2d2-4427-990f-31ff2ffee3b8","system_id":"levelo_inurba_marseille","lat":43.29023,"lon":5.38133,"is_reserved":false,"is_disabled":false,"rental_uris":{"android":"levelo://app?vid=6e3938f2-c2d2-4427-990f-31ff2ffee3b8","ios":"levelo://app?vid=6e3938f2-c2d2-4427-990f-31ff2ffee3b8"},"vehicle_type_id":"4","last_reported":1691590022,"current_range_meters":16000,"station_id":"ce4bh4p2rcd13ifvqe1g","pricing_plan_id":"free"},{"bike_id":"601ed74f-26e2-4dcf-a3ff-e31beda06644","system_id":"levelo_inurba_marseille","lat":43.28856,"lon":5.358371,"is_reserved":false,"is_disabled":false,"rental_uris":{"android":"levelo://app?vid=601ed74f-26e2-4dcf-a3ff-e31beda06644","ios":"levelo://app?vid=601ed74f-26e2-4dcf-a3ff-e31beda06644"},"vehicle_type_id":"4","last_reported":1691590022,"current_range_meters":23600,"station_id":"ce4bhb12rcd13ifvqem0","pricing_plan_id":"free"},{"bike_id":"83886b27-5629-4d6b-92e8-1404e9dd28fb","system_id":"levelo_inurba_marseille","lat":43.28856,"lon":5.358371,"is_reserved":false,"is_disabled":false,"rental_uris":{"android":"levelo://app?vid=83886b27-5629-4d6b-92e8-1404e9dd28fb","ios":"levelo://app?vid=83886b27-5629-4d6b-92e8-1404e9dd28fb"},"vehicle_type_id":"4","last_reported":1691590022,"current_range_meters":29200,"station_id":"ce4bhb12rcd13ifvqem0","pricing_plan_id":"free"},{"bike_id":"3585088c-1fad-4eca-b223-780202197d91","system_id":"levelo_inurba_marseille","lat":43.33017,"lon":5.3925,"is_reserved":false,"is_disabled":false,"rental_uris":{"android":"levelo://app?vid=3585088c-1fad-4eca-b223-780202197d91","ios":"levelo://app?vid=3585088c-1fad-4eca-b223-780202197d91"},"vehicle_type_id":"4","last_reported":1691590022,"current_range_meters":8800,"station_id":"","pricing_plan_id":"free"},{"bike_id":"587f2a5e-97aa-4562-ad3a-7a9ad8b5b318","system_id":"levelo_inurba_marseille","lat":43.33763,"lon":5.37464,"is_reserved":false,"is_disabled":false,"rental_uris":{"android":"levelo://app?vid=587f2a5e-97aa-4562-ad3a-7a9ad8b5b318","ios":"levelo://app?vid=587f2a5e-97aa-4562-ad3a-7a9ad8b5b318"},"vehicle_type_id":"4","last_reported":1691590022,"current_range_meters":30000,"station_id":"","pricing_plan_id":"free"},{"bike_id":"e028adba-da58-4772-ad78-d04cf06c5bc2","system_id":"levelo_inurba_marseille","lat":43.301117,"lon":5.398795,"is_reserved":false,"is_disabled":false,"rental_uris":{"android":"levelo://app?vid=e028adba-da58-4772-ad78-d04cf06c5bc2","ios":"levelo://app?vid=e028adba-da58-4772-ad78-d04cf06c5bc2"},"vehicle_type_id":"4","last_reported":1691590022,"current_range_meters":21600,"station_id":"ce4bh0h2rcd13ifvqd40","pricing_plan_id":"free"},{"bike_id":"783d275f-dd0a-40f6-8660-177f8d59dbb4","system_id":"levelo_inurba_marseille","lat":43.301117,"lon":5.398795,"is_reserved":false,"is_disabled":false,"rental_uris":{"android":"levelo://app?vid=783d275f-dd0a-40f6-8660-177f8d59dbb4","ios":"levelo://app?vid=783d275f-dd0a-40f6-8660-177f8d59dbb4"},"vehicle_type_id":"4","last_reported":1691590022,"current_range_meters":24000,"station_id":"ce4bh0h2rcd13ifvqd40","pricing_plan_id":"free"},{"bike_id":"201fee71-ed2b-49d3-8baa-a536957ca90d","system_id":"levelo_inurba_marseille","lat":43.286591,"lon":5.363346,"is_reserved":false,"is_disabled":false,"rental_uris":{"android":"levelo://app?vid=201fee71-ed2b-49d3-8baa-a536957ca90d","ios":"levelo://app?vid=201fee71-ed2b-49d3-8baa-a536957ca90d"},"vehicle_type_id":"4","last_reported":1691590022,"current_range_meters":29200,"station_id":"ce4bhah2rcd13ifvqej0","pricing_plan_id":"free"},{"bike_id":"6ba54b25-0416-47d2-b823-65e0ee4791f3","system_id":"levelo_inurba_marseille","lat":43.286593,"lon":5.363346,"is_reserved":false,"is_disabled":false,"rental_uris":{"android":"levelo://app?vid=6ba54b25-0416-47d2-b823-65e0ee4791f3","ios":"levelo://app?vid=6ba54b25-0416-47d2-b823-65e0ee4791f3"},"vehicle_type_id":"4","last_reported":1691590022,"current_range_meters":0,"station_id":"ce4bhah2rcd13ifvqej0","pricing_plan_id":"free"},{"bike_id":"75199276-b705-4ad7-b6a9-49aeaa84628a","system_id":"levelo_inurba_marseille","lat":43.286591,"lon":5.363346,"is_reserved":false,"is_disabled":false,"rental_uris":{"android":"levelo://app?vid=75199276-b705-4ad7-b6a9-49aeaa84628a","ios":"levelo://app?vid=75199276-b705-4ad7-b6a9-49aeaa84628a"},"vehicle_type_id":"4","last_reported":1691590022,"current_range_meters":31200,"station_id":"ce4bhah2rcd13ifvqej0","pricing_plan_id":"free"},{"bike_id":"2c3df343-bc1c-4eb8-b5f5-75a560bc4a09","system_id":"levelo_inurba_marseille","lat":43.298681,"lon":5.397225,"is_reserved":false,"is_disabled":false,"rental_uris":{"android":"levelo://app?vid=2c3df343-bc1c-4eb8-b5f5-75a560bc4a09","ios":"levelo://app?vid=2c3df343-bc1c-4eb8-b5f5-75a560bc4a09"},"vehicle_type_id":"4","last_reported":1691590022,"current_range_meters":29600,"station_id":"ce4bh0h2rcd13ifvqd50","pricing_plan_id":"free"},{"bike_id":"7b9e2d57-7c2f-4652-8ec0-ee4d147afe24","system_id":"levelo_inurba_marseille","lat":43.302548,"lon":5.400568,"is_reserved":false,"is_disabled":false,"rental_uris":{"android":"levelo://app?vid=7b9e2d57-7c2f-4652-8ec0-ee4d147afe24","ios":"levelo://app?vid=7b9e2d57-7c2f-4652-8ec0-ee4d147afe24"},"vehicle_type_id":"4","last_reported":1691590022,"current_range_meters":0,"station_id":"","pricing_plan_id":"free"},{"bike_id":"99f6ae20-6aa4-48d1-b942-2321f85c32a8","system_id":"levelo_inurba_marseille","lat":43.302759,"lon":5.400793,"is_reserved":false,"is_disabled":false,"rental_uris":{"android":"levelo://app?vid=99f6ae20-6aa4-48d1-b942-2321f85c32a8","ios":"levelo://app?vid=99f6ae20-6aa4-48d1-b942-2321f85c32a8"},"vehicle_type_id":"4","last_reported":1691590022,"current_range_meters":11600,"station_id":"ce4bgvh2rcd13ifvqcs0","pricing_plan_id":"free"},{"bike_id":"253895c9-7c50-418f-bfe1-435e87535b30","system_id":"levelo_inurba_marseille","lat":43.286039,"lon":5.370679,"is_reserved":false,"is_disabled":false,"rental_uris":{"android":"levelo://app?vid=253895c9-7c50-418f-bfe1-435e87535b30","ios":"levelo://app?vid=253895c9-7c50-418f-bfe1-435e87535b30"},"vehicle_type_id":"4","last_reported":1691590022,"current_range_meters":25200,"station_id":"ce4bht12rcd13ifvqi60","pricing_plan_id":"free"},{"bike_id":"7c83a4b9-f3a7-47e0-b92d-be75925a290a","system_id":"levelo_inurba_marseille","lat":43.291994,"lon":5.392907,"is_reserved":false,"is_disabled":false,"rental_uris":{"android":"levelo://app?vid=7c83a4b9-f3a7-47e0-b92d-be75925a290a","ios":"levelo://app?vid=7c83a4b9-f3a7-47e0-b92d-be75925a290a"},"vehicle_type_id":"4","last_reported":1691590022,"current_range_meters":6800,"station_id":"ce4bh192rcd13ifvqdd0","pricing_plan_id":"free"},{"bike_id":"efb0bd66-6fa1-4975-aebb-b3f8072b7a9f","system_id":"levelo_inurba_marseille","lat":43.284538,"lon":5.358657,"is_reserved":false,"is_disabled":false,"rental_uris":{"android":"levelo://app?vid=efb0bd66-6fa1-4975-aebb-b3f8072b7a9f","ios":"levelo://app?vid=efb0bd66-6fa1-4975-aebb-b3f8072b7a9f"},"vehicle_type_id":"4","last_reported":1691590022,"current_range_meters":24400,"station_id":"ce4bhah2rcd13ifvqei0","pricing_plan_id":"free"},{"bike_id":"ec84e330-b1e2-4822-8e6d-3a6a32af77a4","system_id":"levelo_inurba_marseille","lat":43.284538,"lon":5.358657,"is_reserved":false,"is_disabled":false,"rental_uris":{"android":"levelo://app?vid=ec84e330-b1e2-4822-8e6d-3a6a32af77a4","ios":"levelo://app?vid=ec84e330-b1e2-4822-8e6d-3a6a32af77a4"},"vehicle_type_id":"4","last_reported":1691590022,"current_range_meters":22400,"station_id":"ce4bhah2rcd13ifvqei0","pricing_plan_id":"free"},{"bike_id":"eeb5c25c-fd68-44da-bb13-72693465b5ba","system_id":"levelo_inurba_marseille","lat":43.28617,"lon":5.35107,"is_reserved":false,"is_disabled":false,"rental_uris":{"android":"levelo://app?vid=eeb5c25c-fd68-44da-bb13-72693465b5ba","ios":"levelo://app?vid=eeb5c25c-fd68-44da-bb13-72693465b5ba"},"vehicle_type_id":"4","last_reported":1691590022,"current_range_meters":21200,"station_id":"ce4bhch2rcd13ifvqeug","pricing_plan_id":"free"},{"bike_id":"9ca5125b-7c90-4ffd-82a7-ee6a4473ee2c","system_id":"levelo_inurba_marseille","lat":43.286105,"lon":5.35121,"is_reserved":false,"is_disabled":false,"rental_uris":{"android":"levelo://app?vid=9ca5125b-7c90-4ffd-82a7-ee6a4473ee2c","ios":"levelo://app?vid=9ca5125b-7c90-4ffd-82a7-ee6a4473ee2c"},"vehicle_type_id":"4","last_reported":1691590022,"current_range_meters":29200,"station_id":"ce4bhch2rcd13ifvqeug","pricing_plan_id":"free"},{"bike_id":"f6533de5-cd03-46aa-9ae4-29a04feb6794","system_id":"levelo_inurba_marseille","lat":43.28616,"lon":5.35103,"is_reserved":false,"is_disabled":false,"rental_uris":{"android":"levelo://app?vid=f6533de5-cd03-46aa-9ae4-29a04feb6794","ios":"levelo://app?vid=f6533de5-cd03-46aa-9ae4-29a04feb6794"},"vehicle_type_id":"4","last_reported":1691590022,"current_range_meters":21200,"station_id":"ce4bhch2rcd13ifvqeug","pricing_plan_id":"free"},{"bike_id":"f61c35de-6685-4dcc-b333-be272111181b","system_id":"levelo_inurba_marseille","lat":43.28615,"lon":5.35106,"is_reserved":false,"is_disabled":false,"rental_uris":{"android":"levelo://app?vid=f61c35de-6685-4dcc-b333-be272111181b","ios":"levelo://app?vid=f61c35de-6685-4dcc-b333-be272111181b"},"vehicle_type_id":"4","last_reported":1691590022,"current_range_meters":31200,"station_id":"ce4bhch2rcd13ifvqeug","pricing_plan_id":"free"},{"bike_id":"d849ed16-9085-4532-9c53-73956fbb8d88","system_id":"levelo_inurba_marseille","lat":43.28615,"lon":5.35106,"is_reserved":false,"is_disabled":false,"rental_uris":{"android":"levelo://app?vid=d849ed16-9085-4532-9c53-73956fbb8d88","ios":"levelo://app?vid=d849ed16-9085-4532-9c53-73956fbb8d88"},"vehicle_type_id":"4","last_reported":1691590022,"current_range_meters":25600,"station_id":"ce4bhch2rcd13ifvqeug","pricing_plan_id":"free"},{"bike_id":"5cc873be-13ab-4e9f-b6de-446711c60013","system_id":"levelo_inurba_marseille","lat":43.28615,"lon":5.35103,"is_reserved":false,"is_disabled":false,"rental_uris":{"android":"levelo://app?vid=5cc873be-13ab-4e9f-b6de-446711c60013","ios":"levelo://app?vid=5cc873be-13ab-4e9f-b6de-446711c60013"},"vehicle_type_id":"4","last_reported":1691590022,"current_range_meters":15600,"station_id":"ce4bhch2rcd13ifvqeug","pricing_plan_id":"free"},{"bike_id":"cdee7ed6-8617-469d-a657-7e304352d1d2","system_id":"levelo_inurba_marseille","lat":43.285856,"lon":5.350771,"is_reserved":false,"is_disabled":false,"rental_uris":{"android":"levelo://app?vid=cdee7ed6-8617-469d-a657-7e304352d1d2","ios":"levelo://app?vid=cdee7ed6-8617-469d-a657-7e304352d1d2"},"vehicle_type_id":"4","last_reported":1691590022,"current_range_meters":13200,"station_id":"ce4bhch2rcd13ifvqeug","pricing_plan_id":"free"},{"bike_id":"9b9d427b-74d3-49d4-9bb6-5d7b7399e76c","system_id":"levelo_inurba_marseille","lat":43.28614,"lon":5.35104,"is_reserved":false,"is_disabled":false,"rental_uris":{"android":"levelo://app?vid=9b9d427b-74d3-49d4-9bb6-5d7b7399e76c","ios":"levelo://app?vid=9b9d427b-74d3-49d4-9bb6-5d7b7399e76c"},"vehicle_type_id":"4","last_reported":1691590022,"current_range_meters":2800,"station_id":"ce4bhch2rcd13ifvqeug","pricing_plan_id":"free"},{"bike_id":"c4b48f77-c0b9-421a-8d21-fd3c0be5a2a4","system_id":"levelo_inurba_marseille","lat":43.28613,"lon":5.35105,"is_reserved":false,"is_disabled":false,"rental_uris":{"android":"levelo://app?vid=c4b48f77-c0b9-421a-8d21-fd3c0be5a2a4","ios":"levelo://app?vid=c4b48f77-c0b9-421a-8d21-fd3c0be5a2a4"},"vehicle_type_id":"4","last_reported":1691590022,"current_range_meters":24400,"station_id":"ce4bhch2rcd13ifvqeug","pricing_plan_id":"free"},{"bike_id":"8515a403-9b59-4de8-9f12-b4832e18956c","system_id":"levelo_inurba_marseille","lat":43.28613,"lon":5.35105,"is_reserved":false,"is_disabled":false,"rental_uris":{"android":"levelo://app?vid=8515a403-9b59-4de8-9f12-b4832e18956c","ios":"levelo://app?vid=8515a403-9b59-4de8-9f12-b4832e18956c"},"vehicle_type_id":"4","last_reported":1691590022,"current_range_meters":24800,"station_id":"ce4bhch2rcd13ifvqeug","pricing_plan_id":"free"},{"bike_id":"a21e80ce-b26a-4c92-acf9-50add4868139","system_id":"levelo_inurba_marseille","lat":43.28612,"lon":5.35108,"is_reserved":false,"is_disabled":false,"rental_uris":{"android":"levelo://app?vid=a21e80ce-b26a-4c92-acf9-50add4868139","ios":"levelo://app?vid=a21e80ce-b26a-4c92-acf9-50add4868139"},"vehicle_type_id":"4","last_reported":1691590022,"current_range_meters":26800,"station_id":"ce4bhch2rcd13ifvqeug","pricing_plan_id":"free"},{"bike_id":"89cee22f-f32a-4910-86c8-a4f50aa3bc6b","system_id":"levelo_inurba_marseille","lat":43.28612,"lon":5.35102,"is_reserved":false,"is_disabled":false,"rental_uris":{"android":"levelo://app?vid=89cee22f-f32a-4910-86c8-a4f50aa3bc6b","ios":"levelo://app?vid=89cee22f-f32a-4910-86c8-a4f50aa3bc6b"},"vehicle_type_id":"4","last_reported":1691590022,"current_range_meters":26400,"station_id":"ce4bhch2rcd13ifvqeug","pricing_plan_id":"free"},{"bike_id":"7bfaf776-a589-4b0a-b881-9816c974f233","system_id":"levelo_inurba_marseille","lat":43.285856,"lon":5.350771,"is_reserved":false,"is_disabled":false,"rental_uris":{"android":"levelo://app?vid=7bfaf776-a589-4b0a-b881-9816c974f233","ios":"levelo://app?vid=7bfaf776-a589-4b0a-b881-9816c974f233"},"vehicle_type_id":"4","last_reported":1691590022,"current_range_meters":31200,"station_id":"ce4bhch2rcd13ifvqeug","pricing_plan_id":"free"},{"bike_id":"6eaf5140-63f9-4533-bcbf-82b35e341718","system_id":"levelo_inurba_marseille","lat":43.28608,"lon":5.351,"is_reserved":false,"is_disabled":false,"rental_uris":{"android":"levelo://app?vid=6eaf5140-63f9-4533-bcbf-82b35e341718","ios":"levelo://app?vid=6eaf5140-63f9-4533-bcbf-82b35e341718"},"vehicle_type_id":"4","last_reported":1691590022,"current_range_meters":23200,"station_id":"ce4bhch2rcd13ifvqeug","pricing_plan_id":"free"},{"bike_id":"cc6b7855-79f7-4023-ada3-b33f095d8200","system_id":"levelo_inurba_marseille","lat":43.28608,"lon":5.35096,"is_reserved":false,"is_disabled":false,"rental_uris":{"android":"levelo://app?vid=cc6b7855-79f7-4023-ada3-b33f095d8200","ios":"levelo://app?vid=cc6b7855-79f7-4023-ada3-b33f095d8200"},"vehicle_type_id":"4","last_reported":1691590022,"current_range_meters":20400,"station_id":"ce4bhch2rcd13ifvqeug","pricing_plan_id":"free"},{"bike_id":"591dc1ad-6f22-46c6-9ae9-64cdf307bfd7","system_id":"levelo_inurba_marseille","lat":43.286595,"lon":5.386795,"is_reserved":false,"is_disabled":false,"rental_uris":{"android":"levelo://app?vid=591dc1ad-6f22-46c6-9ae9-64cdf307bfd7","ios":"levelo://app?vid=591dc1ad-6f22-46c6-9ae9-64cdf307bfd7"},"vehicle_type_id":"4","last_reported":1691590022,"current_range_meters":12000,"station_id":"ce4bh492rcd13ifvqdug","pricing_plan_id":"free"},{"bike_id":"dd2becab-2d97-4a95-92a6-0f4995f2c033","system_id":"levelo_inurba_marseille","lat":43.286595,"lon":5.386795,"is_reserved":false,"is_disabled":false,"rental_uris":{"android":"levelo://app?vid=dd2becab-2d97-4a95-92a6-0f4995f2c033","ios":"levelo://app?vid=dd2becab-2d97-4a95-92a6-0f4995f2c033"},"vehicle_type_id":"4","last_reported":1691590022,"current_range_meters":19600,"station_id":"ce4bh492rcd13ifvqdug","pricing_plan_id":"free"},{"bike_id":"dbcb6f6a-4d7e-42dc-97b5-d25059cec3b3","system_id":"levelo_inurba_marseille","lat":43.286595,"lon":5.386795,"is_reserved":false,"is_disabled":false,"rental_uris":{"android":"levelo://app?vid=dbcb6f6a-4d7e-42dc-97b5-d25059cec3b3","ios":"levelo://app?vid=dbcb6f6a-4d7e-42dc-97b5-d25059cec3b3"},"vehicle_type_id":"4","last_reported":1691590022,"current_range_meters":19200,"station_id":"ce4bh492rcd13ifvqdug","pricing_plan_id":"free"},{"bike_id":"e335f635-6bde-48e3-b05a-147b7652e5e9","system_id":"levelo_inurba_marseille","lat":43.31887,"lon":5.4073,"is_reserved":false,"is_disabled":false,"rental_uris":{"android":"levelo://app?vid=e335f635-6bde-48e3-b05a-147b7652e5e9","ios":"levelo://app?vid=e335f635-6bde-48e3-b05a-147b7652e5e9"},"vehicle_type_id":"4","last_reported":1691590022,"current_range_meters":20400,"station_id":"ce4bhq12rcd13ifvqhig","pricing_plan_id":"free"},{"bike_id":"74cd7623-30f6-4c70-895d-4164883b3104","system_id":"levelo_inurba_marseille","lat":43.31882,"lon":5.40737,"is_reserved":false,"is_disabled":false,"rental_uris":{"android":"levelo://app?vid=74cd7623-30f6-4c70-895d-4164883b3104","ios":"levelo://app?vid=74cd7623-30f6-4c70-895d-4164883b3104"},"vehicle_type_id":"4","last_reported":1691590022,"current_range_meters":25200,"station_id":"ce4bhq12rcd13ifvqhig","pricing_plan_id":"free"},{"bike_id":"c1c36742-594e-4942-8b1b-16f98a15fa5e","system_id":"levelo_inurba_marseille","lat":43.32333,"lon":5.40621,"is_reserved":false,"is_disabled":false,"rental_uris":{"android":"levelo://app?vid=c1c36742-594e-4942-8b1b-16f98a15fa5e","ios":"levelo://app?vid=c1c36742-594e-4942-8b1b-16f98a15fa5e"},"vehicle_type_id":"4","last_reported":1691590022,"current_range_meters":31200,"station_id":"ce4bhq92rcd13ifvqhjg","pricing_plan_id":"free"},{"bike_id":"0e6c688c-90c1-425f-835d-141ca562192e","system_id":"levelo_inurba_marseille","lat":43.2846,"lon":5.34976,"is_reserved":false,"is_disabled":false,"rental_uris":{"android":"levelo://app?vid=0e6c688c-90c1-425f-835d-141ca562192e","ios":"levelo://app?vid=0e6c688c-90c1-425f-835d-141ca562192e"},"vehicle_type_id":"4","last_reported":1691590022,"current_range_meters":31200,"station_id":"ce4bhbh2rcd13ifvqepg","pricing_plan_id":"free"},{"bike_id":"c9eae1eb-a458-4a03-889a-06f5b9cb84c9","system_id":"levelo_inurba_marseille","lat":43.28432,"lon":5.34977,"is_reserved":false,"is_disabled":false,"rental_uris":{"android":"levelo://app?vid=c9eae1eb-a458-4a03-889a-06f5b9cb84c9","ios":"levelo://app?vid=c9eae1eb-a458-4a03-889a-06f5b9cb84c9"},"vehicle_type_id":"4","last_reported":1691590022,"current_range_meters":31200,"station_id":"ce4bhbh2rcd13ifvqepg","pricing_plan_id":"free"},{"bike_id":"1b747f00-6bc0-469e-96a6-1f454139e50f","system_id":"levelo_inurba_marseille","lat":43.284219,"lon":5.3497,"is_reserved":false,"is_disabled":false,"rental_uris":{"android":"levelo://app?vid=1b747f00-6bc0-469e-96a6-1f454139e50f","ios":"levelo://app?vid=1b747f00-6bc0-469e-96a6-1f454139e50f"},"vehicle_type_id":"4","last_reported":1691590022,"current_range_meters":31200,"station_id":"ce4bhbh2rcd13ifvqepg","pricing_plan_id":"free"},{"bike_id":"71036f5e-c133-430f-bad0-fefe7ae69bd1","system_id":"levelo_inurba_marseille","lat":43.28425,"lon":5.34982,"is_reserved":false,"is_disabled":false,"rental_uris":{"android":"levelo://app?vid=71036f5e-c133-430f-bad0-fefe7ae69bd1","ios":"levelo://app?vid=71036f5e-c133-430f-bad0-fefe7ae69bd1"},"vehicle_type_id":"4","last_reported":1691590022,"current_range_meters":14000,"station_id":"ce4bhbh2rcd13ifvqepg","pricing_plan_id":"free"},{"bike_id":"874a5045-2d66-4bc4-812a-880975f22397","system_id":"levelo_inurba_marseille","lat":43.284219,"lon":5.3497,"is_reserved":false,"is_disabled":false,"rental_uris":{"android":"levelo://app?vid=874a5045-2d66-4bc4-812a-880975f22397","ios":"levelo://app?vid=874a5045-2d66-4bc4-812a-880975f22397"},"vehicle_type_id":"4","last_reported":1691590022,"current_range_meters":25600,"station_id":"ce4bhbh2rcd13ifvqepg","pricing_plan_id":"free"},{"bike_id":"60a44590-abfb-4704-92b1-56cc7a87b409","system_id":"levelo_inurba_marseille","lat":43.28423,"lon":5.34981,"is_reserved":false,"is_disabled":false,"rental_uris":{"android":"levelo://app?vid=60a44590-abfb-4704-92b1-56cc7a87b409","ios":"levelo://app?vid=60a44590-abfb-4704-92b1-56cc7a87b409"},"vehicle_type_id":"4","last_reported":1691590022,"current_range_meters":5200,"station_id":"ce4bhbh2rcd13ifvqepg","pricing_plan_id":"free"},{"bike_id":"e716e168-37b1-435f-9048-fbafd6f685bb","system_id":"levelo_inurba_marseille","lat":43.28424,"lon":5.34977,"is_reserved":false,"is_disabled":false,"rental_uris":{"android":"levelo://app?vid=e716e168-37b1-435f-9048-fbafd6f685bb","ios":"levelo://app?vid=e716e168-37b1-435f-9048-fbafd6f685bb"},"vehicle_type_id":"4","last_reported":1691590022,"current_range_meters":31200,"station_id":"ce4bhbh2rcd13ifvqepg","pricing_plan_id":"free"},{"bike_id":"0c4f6653-63de-4629-b794-e81e4f5cc810","system_id":"levelo_inurba_marseille","lat":43.28418,"lon":5.34995,"is_reserved":false,"is_disabled":false,"rental_uris":{"android":"levelo://app?vid=0c4f6653-63de-4629-b794-e81e4f5cc810","ios":"levelo://app?vid=0c4f6653-63de-4629-b794-e81e4f5cc810"},"vehicle_type_id":"4","last_reported":1691590022,"current_range_meters":24800,"station_id":"ce4bhbh2rcd13ifvqepg","pricing_plan_id":"free"},{"bike_id":"b386e3f5-f647-47d1-ba08-23b9e7a83a3a","system_id":"levelo_inurba_marseille","lat":43.28418,"lon":5.34991,"is_reserved":false,"is_disabled":false,"rental_uris":{"android":"levelo://app?vid=b386e3f5-f647-47d1-ba08-23b9e7a83a3a","ios":"levelo://app?vid=b386e3f5-f647-47d1-ba08-23b9e7a83a3a"},"vehicle_type_id":"4","last_reported":1691590022,"current_range_meters":23600,"station_id":"ce4bhbh2rcd13ifvqepg","pricing_plan_id":"free"},{"bike_id":"8582b4c9-be3a-42eb-b162-1dcdca880c7f","system_id":"levelo_inurba_marseille","lat":43.28417,"lon":5.34994,"is_reserved":false,"is_disabled":false,"rental_uris":{"android":"levelo://app?vid=8582b4c9-be3a-42eb-b162-1dcdca880c7f","ios":"levelo://app?vid=8582b4c9-be3a-42eb-b162-1dcdca880c7f"},"vehicle_type_id":"4","last_reported":1691590022,"current_range_meters":23600,"station_id":"ce4bhbh2rcd13ifvqepg","pricing_plan_id":"free"},{"bike_id":"44475ed7-2b08-40aa-8c9e-a964c402fb12","system_id":"levelo_inurba_marseille","lat":43.28416,"lon":5.34997,"is_reserved":false,"is_disabled":false,"rental_uris":{"android":"levelo://app?vid=44475ed7-2b08-40aa-8c9e-a964c402fb12","ios":"levelo://app?vid=44475ed7-2b08-40aa-8c9e-a964c402fb12"},"vehicle_type_id":"4","last_reported":1691590022,"current_range_meters":22800,"station_id":"ce4bhbh2rcd13ifvqepg","pricing_plan_id":"free"},{"bike_id":"3d3b35a5-b93d-44c8-a63c-e1faa1e19906","system_id":"levelo_inurba_marseille","lat":43.28416,"lon":5.34996,"is_reserved":false,"is_disabled":false,"rental_uris":{"android":"levelo://app?vid=3d3b35a5-b93d-44c8-a63c-e1faa1e19906","ios":"levelo://app?vid=3d3b35a5-b93d-44c8-a63c-e1faa1e19906"},"vehicle_type_id":"4","last_reported":1691590022,"current_range_meters":24400,"station_id":"ce4bhbh2rcd13ifvqepg","pricing_plan_id":"free"},{"bike_id":"ea60a5ff-2d48-432b-8323-54244e62ff33","system_id":"levelo_inurba_marseille","lat":43.28416,"lon":5.34995,"is_reserved":false,"is_disabled":false,"rental_uris":{"android":"levelo://app?vid=ea60a5ff-2d48-432b-8323-54244e62ff33","ios":"levelo://app?vid=ea60a5ff-2d48-432b-8323-54244e62ff33"},"vehicle_type_id":"4","last_reported":1691590022,"current_range_meters":15600,"station_id":"ce4bhbh2rcd13ifvqepg","pricing_plan_id":"free"},{"bike_id":"493687be-9154-4391-acbb-91bcfea101ec","system_id":"levelo_inurba_marseille","lat":43.284219,"lon":5.3497,"is_reserved":false,"is_disabled":false,"rental_uris":{"android":"levelo://app?vid=493687be-9154-4391-acbb-91bcfea101ec","ios":"levelo://app?vid=493687be-9154-4391-acbb-91bcfea101ec"},"vehicle_type_id":"4","last_reported":1691590022,"current_range_meters":26000,"station_id":"ce4bhbh2rcd13ifvqepg","pricing_plan_id":"free"},{"bike_id":"555582e9-11a1-48b2-b969-5b64c5c362ea","system_id":"levelo_inurba_marseille","lat":43.28417,"lon":5.34991,"is_reserved":false,"is_disabled":false,"rental_uris":{"android":"levelo://app?vid=555582e9-11a1-48b2-b969-5b64c5c362ea","ios":"levelo://app?vid=555582e9-11a1-48b2-b969-5b64c5c362ea"},"vehicle_type_id":"4","last_reported":1691590022,"current_range_meters":10400,"station_id":"ce4bhbh2rcd13ifvqepg","pricing_plan_id":"free"},{"bike_id":"ad4434c9-3fcf-4af6-aa98-d33e6735879c","system_id":"levelo_inurba_marseille","lat":43.28417,"lon":5.34988,"is_reserved":false,"is_disabled":false,"rental_uris":{"android":"levelo://app?vid=ad4434c9-3fcf-4af6-aa98-d33e6735879c","ios":"levelo://app?vid=ad4434c9-3fcf-4af6-aa98-d33e6735879c"},"vehicle_type_id":"4","last_reported":1691590022,"current_range_meters":24000,"station_id":"ce4bhbh2rcd13ifvqepg","pricing_plan_id":"free"},{"bike_id":"ec095672-ac5b-4381-ac93-429e454daa78","system_id":"levelo_inurba_marseille","lat":43.28415,"lon":5.34992,"is_reserved":false,"is_disabled":false,"rental_uris":{"android":"levelo://app?vid=ec095672-ac5b-4381-ac93-429e454daa78","ios":"levelo://app?vid=ec095672-ac5b-4381-ac93-429e454daa78"},"vehicle_type_id":"4","last_reported":1691590022,"current_range_meters":10400,"station_id":"ce4bhbh2rcd13ifvqepg","pricing_plan_id":"free"},{"bike_id":"5d53820f-243f-41e4-a16b-9f5f7bbb3595","system_id":"levelo_inurba_marseille","lat":43.28419,"lon":5.34976,"is_reserved":false,"is_disabled":false,"rental_uris":{"android":"levelo://app?vid=5d53820f-243f-41e4-a16b-9f5f7bbb3595","ios":"levelo://app?vid=5d53820f-243f-41e4-a16b-9f5f7bbb3595"},"vehicle_type_id":"4","last_reported":1691590022,"current_range_meters":4000,"station_id":"ce4bhbh2rcd13ifvqepg","pricing_plan_id":"free"},{"bike_id":"8018e059-097b-41f6-8eef-09b622d9d107","system_id":"levelo_inurba_marseille","lat":43.28417,"lon":5.34977,"is_reserved":false,"is_disabled":false,"rental_uris":{"android":"levelo://app?vid=8018e059-097b-41f6-8eef-09b622d9d107","ios":"levelo://app?vid=8018e059-097b-41f6-8eef-09b622d9d107"},"vehicle_type_id":"4","last_reported":1691590022,"current_range_meters":9200,"station_id":"ce4bhbh2rcd13ifvqepg","pricing_plan_id":"free"},{"bike_id":"84aa36e3-0ced-4747-9e46-1e1fc3bdf475","system_id":"levelo_inurba_marseille","lat":43.28413,"lon":5.34989,"is_reserved":false,"is_disabled":false,"rental_uris":{"android":"levelo://app?vid=84aa36e3-0ced-4747-9e46-1e1fc3bdf475","ios":"levelo://app?vid=84aa36e3-0ced-4747-9e46-1e1fc3bdf475"},"vehicle_type_id":"4","last_reported":1691590022,"current_range_meters":14000,"station_id":"ce4bhbh2rcd13ifvqepg","pricing_plan_id":"free"},{"bike_id":"cf4ad1fa-2a3b-4a66-8d93-601581513f61","system_id":"levelo_inurba_marseille","lat":43.2841,"lon":5.34995,"is_reserved":false,"is_disabled":false,"rental_uris":{"android":"levelo://app?vid=cf4ad1fa-2a3b-4a66-8d93-601581513f61","ios":"levelo://app?vid=cf4ad1fa-2a3b-4a66-8d93-601581513f61"},"vehicle_type_id":"4","last_reported":1691590022,"current_range_meters":30800,"station_id":"ce4bhbh2rcd13ifvqepg","pricing_plan_id":"free"},{"bike_id":"7f4a6c65-5ed5-4a7d-8805-a342aa71fcd1","system_id":"levelo_inurba_marseille","lat":43.28413,"lon":5.34981,"is_reserved":false,"is_disabled":false,"rental_uris":{"android":"levelo://app?vid=7f4a6c65-5ed5-4a7d-8805-a342aa71fcd1","ios":"levelo://app?vid=7f4a6c65-5ed5-4a7d-8805-a342aa71fcd1"},"vehicle_type_id":"4","last_reported":1691590022,"current_range_meters":22000,"station_id":"ce4bhbh2rcd13ifvqepg","pricing_plan_id":"free"},{"bike_id":"c3d38c3a-8373-4902-ad76-129e665a7274","system_id":"levelo_inurba_marseille","lat":43.28412,"lon":5.34979,"is_reserved":false,"is_disabled":false,"rental_uris":{"android":"levelo://app?vid=c3d38c3a-8373-4902-ad76-129e665a7274","ios":"levelo://app?vid=c3d38c3a-8373-4902-ad76-129e665a7274"},"vehicle_type_id":"4","last_reported":1691590022,"current_range_meters":17600,"station_id":"ce4bhbh2rcd13ifvqepg","pricing_plan_id":"free"},{"bike_id":"5cec26ac-344f-432b-af34-450b75305b9b","system_id":"levelo_inurba_marseille","lat":43.292724,"lon":5.401131,"is_reserved":false,"is_disabled":false,"rental_uris":{"android":"levelo://app?vid=5cec26ac-344f-432b-af34-450b75305b9b","ios":"levelo://app?vid=5cec26ac-344f-432b-af34-450b75305b9b"},"vehicle_type_id":"4","last_reported":1691590022,"current_range_meters":31200,"station_id":"ce4bh312rcd13ifvqdk0","pricing_plan_id":"free"},{"bike_id":"903263ca-332e-4565-b4b1-eaf8553d8093","system_id":"levelo_inurba_marseille","lat":43.28274,"lon":5.35077,"is_reserved":false,"is_disabled":false,"rental_uris":{"android":"levelo://app?vid=903263ca-332e-4565-b4b1-eaf8553d8093","ios":"levelo://app?vid=903263ca-332e-4565-b4b1-eaf8553d8093"},"vehicle_type_id":"4","last_reported":1691590022,"current_range_meters":26800,"station_id":"ce4bhbp2rcd13ifvqerg","pricing_plan_id":"free"},{"bike_id":"4fb67569-ac8b-4687-a813-4d45a34da4ea","system_id":"levelo_inurba_marseille","lat":43.28274,"lon":5.35072,"is_reserved":false,"is_disabled":false,"rental_uris":{"android":"levelo://app?vid=4fb67569-ac8b-4687-a813-4d45a34da4ea","ios":"levelo://app?vid=4fb67569-ac8b-4687-a813-4d45a34da4ea"},"vehicle_type_id":"4","last_reported":1691590022,"current_range_meters":31200,"station_id":"ce4bhbp2rcd13ifvqerg","pricing_plan_id":"free"},{"bike_id":"85da7706-d4ea-4404-a8b3-6582200009d0","system_id":"levelo_inurba_marseille","lat":43.282744,"lon":5.350533,"is_reserved":false,"is_disabled":false,"rental_uris":{"android":"levelo://app?vid=85da7706-d4ea-4404-a8b3-6582200009d0","ios":"levelo://app?vid=85da7706-d4ea-4404-a8b3-6582200009d0"},"vehicle_type_id":"4","last_reported":1691590022,"current_range_meters":18400,"station_id":"ce4bhbp2rcd13ifvqerg","pricing_plan_id":"free"},{"bike_id":"d907275c-7f6a-4a9d-9042-a8c60f3dd221","system_id":"levelo_inurba_marseille","lat":43.282744,"lon":5.350533,"is_reserved":false,"is_disabled":false,"rental_uris":{"android":"levelo://app?vid=d907275c-7f6a-4a9d-9042-a8c60f3dd221","ios":"levelo://app?vid=d907275c-7f6a-4a9d-9042-a8c60f3dd221"},"vehicle_type_id":"4","last_reported":1691590022,"current_range_meters":26400,"station_id":"ce4bhbp2rcd13ifvqerg","pricing_plan_id":"free"},{"bike_id":"507a9641-f15f-4809-aa66-a6491c1664f8","system_id":"levelo_inurba_marseille","lat":43.28271,"lon":5.35075,"is_reserved":false,"is_disabled":false,"rental_uris":{"android":"levelo://app?vid=507a9641-f15f-4809-aa66-a6491c1664f8","ios":"levelo://app?vid=507a9641-f15f-4809-aa66-a6491c1664f8"},"vehicle_type_id":"4","last_reported":1691590022,"current_range_meters":18800,"station_id":"ce4bhbp2rcd13ifvqerg","pricing_plan_id":"free"},{"bike_id":"c39d469e-8cba-4fb4-bf2c-3b7e2e2faab4","system_id":"levelo_inurba_marseille","lat":43.2827,"lon":5.35078,"is_reserved":false,"is_disabled":false,"rental_uris":{"android":"levelo://app?vid=c39d469e-8cba-4fb4-bf2c-3b7e2e2faab4","ios":"levelo://app?vid=c39d469e-8cba-4fb4-bf2c-3b7e2e2faab4"},"vehicle_type_id":"4","last_reported":1691590022,"current_range_meters":25600,"station_id":"ce4bhbp2rcd13ifvqerg","pricing_plan_id":"free"},{"bike_id":"20414492-60f0-4236-bd2f-7c23a8eefa73","system_id":"levelo_inurba_marseille","lat":43.28268,"lon":5.35084,"is_reserved":false,"is_disabled":false,"rental_uris":{"android":"levelo://app?vid=20414492-60f0-4236-bd2f-7c23a8eefa73","ios":"levelo://app?vid=20414492-60f0-4236-bd2f-7c23a8eefa73"},"vehicle_type_id":"4","last_reported":1691590022,"current_range_meters":30000,"station_id":"ce4bhbp2rcd13ifvqerg","pricing_plan_id":"free"},{"bike_id":"9db8c599-066a-4f24-b919-6e4dbe0942b9","system_id":"levelo_inurba_marseille","lat":43.28268,"lon":5.35081,"is_reserved":false,"is_disabled":false,"rental_uris":{"android":"levelo://app?vid=9db8c599-066a-4f24-b919-6e4dbe0942b9","ios":"levelo://app?vid=9db8c599-066a-4f24-b919-6e4dbe0942b9"},"vehicle_type_id":"4","last_reported":1691590022,"current_range_meters":24400,"station_id":"ce4bhbp2rcd13ifvqerg","pricing_plan_id":"free"},{"bike_id":"121c73f7-fb38-4d38-a1dc-f82312b0ae8d","system_id":"levelo_inurba_marseille","lat":43.283502,"lon":5.386471,"is_reserved":false,"is_disabled":false,"rental_uris":{"android":"levelo://app?vid=121c73f7-fb38-4d38-a1dc-f82312b0ae8d","ios":"levelo://app?vid=121c73f7-fb38-4d38-a1dc-f82312b0ae8d"},"vehicle_type_id":"4","last_reported":1691590022,"current_range_meters":14000,"station_id":"ce4bh492rcd13ifvqdvg","pricing_plan_id":"free"},{"bike_id":"901d7e8d-9fa9-4cf4-bf69-ab13b7dbf41f","system_id":"levelo_inurba_marseille","lat":43.28269,"lon":5.35075,"is_reserved":false,"is_disabled":false,"rental_uris":{"android":"levelo://app?vid=901d7e8d-9fa9-4cf4-bf69-ab13b7dbf41f","ios":"levelo://app?vid=901d7e8d-9fa9-4cf4-bf69-ab13b7dbf41f"},"vehicle_type_id":"4","last_reported":1691590022,"current_range_meters":11600,"station_id":"ce4bhbp2rcd13ifvqerg","pricing_plan_id":"free"},{"bike_id":"19e147de-9bb5-4859-ad02-47193171850f","system_id":"levelo_inurba_marseille","lat":43.28268,"lon":5.35078,"is_reserved":false,"is_disabled":false,"rental_uris":{"android":"levelo://app?vid=19e147de-9bb5-4859-ad02-47193171850f","ios":"levelo://app?vid=19e147de-9bb5-4859-ad02-47193171850f"},"vehicle_type_id":"4","last_reported":1691590022,"current_range_meters":18400,"station_id":"ce4bhbp2rcd13ifvqerg","pricing_plan_id":"free"},{"bike_id":"0fc21935-2b81-480e-a3f1-777e723b8a50","system_id":"levelo_inurba_marseille","lat":43.2827,"lon":5.35069,"is_reserved":false,"is_disabled":false,"rental_uris":{"android":"levelo://app?vid=0fc21935-2b81-480e-a3f1-777e723b8a50","ios":"levelo://app?vid=0fc21935-2b81-480e-a3f1-777e723b8a50"},"vehicle_type_id":"4","last_reported":1691590022,"current_range_meters":11600,"station_id":"ce4bhbp2rcd13ifvqerg","pricing_plan_id":"free"},{"bike_id":"c6fdf197-938e-4a01-bd65-8085210c939f","system_id":"levelo_inurba_marseille","lat":43.282744,"lon":5.350533,"is_reserved":false,"is_disabled":false,"rental_uris":{"android":"levelo://app?vid=c6fdf197-938e-4a01-bd65-8085210c939f","ios":"levelo://app?vid=c6fdf197-938e-4a01-bd65-8085210c939f"},"vehicle_type_id":"4","last_reported":1691590022,"current_range_meters":18800,"station_id":"ce4bhbp2rcd13ifvqerg","pricing_plan_id":"free"},