{"last_updated":1762783848,"ttl":60,"version":"2.2","data":{"bikes":[{"bike_id":"a22621ed-dce3-441e-82fa-0978db9d5cc0","system_id":"levelo_inurba_marseille","lat":43.337444,"lon":5.374475,"is_reserved":false,"is_disabled":false,"rental_uris":{"android":"levelo://app?vid=a22621ed-dce3-441e-82fa-0978db9d5cc0","ios":"levelo://app?vid=a22621ed-dce3-441e-82fa-0978db9d5cc0"},"vehicle_type_id":"4","last_reported":1762783848,"current_range_meters":0,"station_id":"","pricing_plan_id":"cebpf4jnsgd1na2vs0mg"},{"bike_id":"321d43c2-a97c-419e-a110-a172b4ee23e9","system_id":"levelo_inurba_marseille","lat":43.261625,"lon":5.417795,"is_reserved":false,"is_disabled":false,"rental_uris":{"android":"levelo://app?vid=321d43c2-a97c-419e-a110-a172b4ee23e9","ios":"levelo://app?vid=321d43c2-a97c-419e-a110-a172b4ee23e9"},"vehicle_type_id":"4","last_reported":1762783848,"current_range_meters":2800,"station_id":"","pricing_plan_id":"cebpf4jnsgd1na2vs0mg"},{"bike_id":"6c101f09-e973-4b32-93e6-3555797301c7","system_id":"levelo_inurba_marseille","lat":43.29769,"lon":5.36795,"is_reserved":false,"is_disabled":false,"rental_uris":{"android":"levelo://app?vid=6c101f09-e973-4b32-93e6-3555797301c7","ios":"levelo://app?vid=6c101f09-e973-4b32-93e6-3555797301c7"},"vehicle_type_id":"4","last_reported":1762783848,"current_range_meters":2800,"station_id":"","pricing_plan_id":"cebpf4jnsgd1na2vs0mg"},{"bike_id":"3b294fa9-3f9f-4381-a2a8-e3592d375a68","system_id":"levelo_inurba_marseille","lat":43.267003,"lon":5.396927,"is_reserved":false,"is_disabled":false,"rental_uris":{"android":"levelo://app?vid=3b294fa9-3f9f-4381-a2a8-e3592d375a68","ios":"levelo://app?vid=3b294fa9-3f9f-4381-a2a8-e3592d375a68"},"vehicle_type_id":"4","last_reported":1762783848,"current_range_meters":2800,"station_id":"","pricing_plan_id":"cebpf4jnsgd1na2vs0mg"},{"bike_id":"910cc3ae-7ba4-48e5-a244-931e2df10a06","system_id":"levelo_inurba_marseille","lat":43.27109,"lon":5.39294,"is_reserved":false,"is_disabled":false,"rental_uris":{"android":"levelo://app?vid=910cc3ae-7ba4-48e5-a244-931e2df10a06","ios":"levelo://app?vid=910cc3ae-7ba4-48e5-a244-931e2df10a06"},"vehicle_type_id":"4","last_reported":1762783848,"current_range_meters":2800,"station_id":"","pricing_plan_id":"cebpf4jnsgd1na2vs0mg"},{"bike_id":"7cbbb6f9-2a0f-48ba-a9c8-586b9fc8c3d5","system_id":"levelo_inurba_marseille","lat":43.24388,"lon":5.37057,"is_reserved":false,"is_disabled":false,"rental_uris":{"android":"levelo://app?vid=7cbbb6f9-2a0f-48ba-a9c8-586b9fc8c3d5","ios":"levelo://app?vid=7cbbb6f9-2a0f-48ba-a9c8-586b9fc8c3d5"},"vehicle_type_id":"4","last_reported":1762783848,"current_range_meters":3200,"station_id":"ce4bhhh2rcd13ifvqfk0","pricing_plan_id":"cebpf4jnsgd1na2vs0mg"},{"bike_id":"0cce9c7b-8b70-4fe1-be9d-fc33fcb36c61","system_id":"levelo_inurba_marseille","lat":43.27322,"lon":5.39067,"is_reserved":false,"is_disabled":false,"rental_uris":{"android":"levelo://app?vid=0cce9c7b-8b70-4fe1-be9d-fc33fcb36c61","ios":"levelo://app?vid=0cce9c7b-8b70-4fe1-be9d-fc33fcb36c61"},"vehicle_type_id":"4","last_reported":1762783848,"current_range_meters":3200,"station_id":"ce4bhgp2rcd13ifvqfe0","pricing_plan_id":"cebpf4jnsgd1na2vs0mg"},{"bike_id":"f682dd9b-14a5-4b55-8385-4433b5e1b231","system_id":"levelo_inurba_marseille","lat":43.2826,"lon":5.35069,"is_reserved":false,"is_disabled":false,"rental_uris":{"android":"levelo://app?vid=f682dd9b-14a5-4b55-8385-4433b5e1b231","ios":"levelo://app?vid=f682dd9b-14a5-4b55-8385-4433b5e1b231"},"vehicle_type_id":"4","last_reported":1762783848,"current_range_meters":3200,"station_id":"ce4bhbp2rcd13ifvqerg","pricing_plan_id":"cebpf4jnsgd1na2vs0mg"},{"bike_id":"26ee2f14-eed1-45e7-aea5-0c330057a6a5","system_id":"levelo_inurba_marseille","lat":43.24166,"lon":5.36453,"is_reserved":false,"is_disabled":false,"rental_uris":{"android":"levelo://app?vid=26ee2f14-eed1-45e7-aea5-0c330057a6a5","ios":"levelo://app?vid=26ee2f14-eed1-45e7-aea5-0c330057a6a5"},"vehicle_type_id":"4","last_reported":1762783848,"current_range_meters":3600,"station_id":"cpo36qri1sfpv3e86is0","pricing_plan_id":"cebpf4jnsgd1na2vs0mg"},{"bike_id":"5cdb8250-cc17-4091-bc99-828f2a284ec9","system_id":"levelo_inurba_marseille","lat":43.25855,"lon":5.39926,"is_reserved":false,"is_disabled":false,"rental_uris":{"android":"levelo://app?vid=5cdb8250-cc17-4091-bc99-828f2a284ec9","ios":"levelo://app?vid=5cdb8250-cc17-4091-bc99-828f2a284ec9"},"vehicle_type_id":"4","last_reported":1762783848,"current_range_meters":3600,"station_id":"ce4bhl92rcd13ifvqghg","pricing_plan_id":"cebpf4jnsgd1na2vs0mg"},{"bike_id":"a1f9acd4-4678-445a-b21a-692921eaeb80","system_id":"levelo_inurba_marseille","lat":43.29931,"lon":5.3653,"is_reserved":false,"is_disabled":false,"rental_uris":{"android":"levelo://app?vid=a1f9acd4-4678-445a-b21a-692921eaeb80","ios":"levelo://app?vid=a1f9acd4-4678-445a-b21a-692921eaeb80"},"vehicle_type_id":"4","last_reported":1762783848,"current_range_meters":4000,"station_id":"ce4bgm92rcd13ifvqbr0","pricing_plan_id":"cebpf4jnsgd1na2vs0mg"},{"bike_id":"27b21cdd-62e5-481a-8973-d8ba474336f6","system_id":"levelo_inurba_marseille","lat":43.25079,"lon":5.39513,"is_reserved":false,"is_disabled":false,"rental_uris":{"android":"levelo://app?vid=27b21cdd-62e5-481a-8973-d8ba474336f6","ios":"levelo://app?vid=27b21cdd-62e5-481a-8973-d8ba474336f6"},"vehicle_type_id":"4","last_reported":1762783848,"current_range_meters":4000,"station_id":"ce4bhm12rcd13ifvqgkg","pricing_plan_id":"cebpf4jnsgd1na2vs0mg"},{"bike_id":"d58162db-574a-44f0-b573-b59c9312a09d","system_id":"levelo_inurba_marseille","lat":43.282683,"lon":5.35051,"is_reserved":false,"is_disabled":true,"rental_uris":{"android":"levelo://app?vid=d58162db-574a-44f0-b573-b59c9312a09d","ios":"levelo://app?vid=d58162db-574a-44f0-b573-b59c9312a09d"},"vehicle_type_id":"4","last_reported":1762783848,"current_range_meters":4000,"station_id":"ce4bhbp2rcd13ifvqerg","pricing_plan_id":"cebpf4jnsgd1na2vs0mg"},{"bike_id":"ff4ef39c-02f0-4765-a850-9f2c00ad1de9","system_id":"levelo_inurba_marseille","lat":43.297937,"lon":5.380985,"is_reserved":false,"is_disabled":false,"rental_uris":{"android":"levelo://app?vid=ff4ef39c-02f0-4765-a850-9f2c00ad1de9","ios":"levelo://app?vid=ff4ef39c-02f0-4765-a850-9f2c00ad1de9"},"vehicle_type_id":"4","last_reported":1762783848,"current_range_meters":4000,"station_id":"ce4bgip2rcd13ifvqbb0","pricing_plan_id":"cebpf4jnsgd1na2vs0mg"},{"bike_id":"870a9ad1-db35-4ab0-bc9a-84476efc6571","system_id":"levelo_inurba_marseille","lat":43.327932,"lon":5.426547,"is_reserved":false,"is_disabled":false,"rental_uris":{"android":"levelo://app?vid=870a9ad1-db35-4ab0-bc9a-84476efc6571","ios":"levelo://app?vid=870a9ad1-db35-4ab0-bc9a-84476efc6571"},"vehicle_type_id":"4","last_reported":1762783848,"current_range_meters":4000,"station_id":"","pricing_plan_id":"cebpf4jnsgd1na2vs0mg"},{"bike_id":"8680a8bd-ac80-427d-abfd-6b78a47a0471","system_id":"levelo_inurba_marseille","lat":43.24641,"lon":5.43158,"is_reserved":false,"is_disabled":false,"rental_uris":{"android":"levelo://app?vid=8680a8bd-ac80-427d-abfd-6b78a47a0471","ios":"levelo://app?vid=8680a8bd-ac80-427d-abfd-6b78a47a0471"},"vehicle_type_id":"4","last_reported":1762783848,"current_range_meters":4400,"station_id":"st_d2m6c4gdas8pm72e190g","pricing_plan_id":"cebpf4jnsgd1na2vs0mg"},{"bike_id":"197f07c5-675e-4e46-9283-f6fccdbd486a","system_id":"levelo_inurba_marseille","lat":43.28613,"lon":5.37061,"is_reserved":false,"is_disabled":false,"rental_uris":{"android":"levelo://app?vid=197f07c5-675e-4e46-9283-f6fccdbd486a","ios":"levelo://app?vid=197f07c5-675e-4e46-9283-f6fccdbd486a"},"vehicle_type_id":"4","last_reported":1762783848,"current_range_meters":4400,"station_id":"ce4bht12rcd13ifvqi60","pricing_plan_id":"cebpf4jnsgd1na2vs0mg"},{"bike_id":"561aaca9-a21e-45d3-89f6-65d35ec493af","system_id":"levelo_inurba_marseille","lat":43.30903,"lon":5.3685,"is_reserved":false,"is_disabled":false,"rental_uris":{"android":"levelo://app?vid=561aaca9-a21e-45d3-89f6-65d35ec493af","ios":"levelo://app?vid=561aaca9-a21e-45d3-89f6-65d35ec493af"},"vehicle_type_id":"4","last_reported":1762783848,"current_range_meters":4400,"station_id":"ce4bgn92rcd13ifvqbvg","pricing_plan_id":"cebpf4jnsgd1na2vs0mg"},{"bike_id":"b05048b6-3636-4628-97b9-678771374061","system_id":"levelo_inurba_marseille","lat":43.302625,"lon":5.369074,"is_reserved":false,"is_disabled":false,"rental_uris":{"android":"levelo://app?vid=b05048b6-3636-4628-97b9-678771374061","ios":"levelo://app?vid=b05048b6-3636-4628-97b9-678771374061"},"vehicle_type_id":"4","last_reported":1762783848,"current_range_meters":4400,"station_id":"ce4bgqh2rcd13ifvqc5g","pricing_plan_id":"cebpf4jnsgd1na2vs0mg"},{"bike_id":"8040d437-b793-4c7c-83dd-8a60b4a68d3a","system_id":"levelo_inurba_marseille","lat":43.25931,"lon":5.40911,"is_reserved":false,"is_disabled":true,"rental_uris":{"android":"levelo://app?vid=8040d437-b793-4c7c-83dd-8a60b4a68d3a","ios":"levelo://app?vid=8040d437-b793-4c7c-83dd-8a60b4a68d3a"},"vehicle_type_id":"4","last_reported":1762783848,"current_range_meters":4400,"station_id":"ce4bhm92rcd13ifvqglg","pricing_plan_id":"cebpf4jnsgd1na2vs0mg"},{"bike_id":"0704c978-910a-440a-9b93-fbcdf0fb628c","system_id":"levelo_inurba_marseille","lat":43.303312,"lon":5.404379,"is_reserved":false,"is_disabled":false,"rental_uris":{"android":"levelo://app?vid=0704c978-910a-440a-9b93-fbcdf0fb628c","ios":"levelo://app?vid=0704c978-910a-440a-9b93-fbcdf0fb628c"},"vehicle_type_id":"4","last_reported":1762783848,"current_range_meters":4400,"station_id":"ce4bh012rcd13ifvqd10","pricing_plan_id":"cebpf4jnsgd1na2vs0mg"},{"bike_id":"15262499-bed2-469d-9de0-a57990e1ba34","system_id":"levelo_inurba_marseille","lat":43.23189,"lon":5.39984,"is_reserved":false,"is_disabled":false,"rental_uris":{"android":"levelo://app?vid=15262499-bed2-469d-9de0-a57990e1ba34","ios":"levelo://app?vid=15262499-bed2-469d-9de0-a57990e1ba34"},"vehicle_type_id":"4","last_reported":1762783848,"current_range_meters":4400,"station_id":"ce4bhn12rcd13ifvqgqg","pricing_plan_id":"cebpf4jnsgd1na2vs0mg"},{"bike_id":"a0faaa3b-0733-4758-9360-d16fd1bd13ad","system_id":"levelo_inurba_marseille","lat":43.23193,"lon":5.35546,"is_reserved":false,"is_disabled":false,"rental_uris":{"android":"levelo://app?vid=a0faaa3b-0733-4758-9360-d16fd1bd13ad","ios":"levelo://app?vid=a0faaa3b-0733-4758-9360-d16fd1bd13ad"},"vehicle_type_id":"4","last_reported":1762783848,"current_range_meters":4400,"station_id":"ce4bhu92rcd13ifvqi70","pricing_plan_id":"cebpf4jnsgd1na2vs0mg"},{"bike_id":"ece59277-5411-4b73-bed6-e49f0bf86c58","system_id":"levelo_inurba_marseille","lat":43.24649,"lon":5.38892,"is_reserved":false,"is_disabled":false,"rental_uris":{"android":"levelo://app?vid=ece59277-5411-4b73-bed6-e49f0bf86c58","ios":"levelo://app?vid=ece59277-5411-4b73-bed6-e49f0bf86c58"},"vehicle_type_id":"4","last_reported":1762783848,"current_range_meters":4800,"station_id":"ce4bhg12rcd13ifvqf60","pricing_plan_id":"cebpf4jnsgd1na2vs0mg"},{"bike_id":"d952f428-0938-4178-be08-f8aedb251e69","system_id":"levelo_inurba_marseille","lat":43.28038,"lon":5.36943,"is_reserved":false,"is_disabled":false,"rental_uris":{"android":"levelo://app?vid=d952f428-0938-4178-be08-f8aedb251e69","ios":"levelo://app?vid=d952f428-0938-4178-be08-f8aedb251e69"},"vehicle_type_id":"4","last_reported":1762783848,"current_range_meters":4800,"station_id":"ce4bha12rcd13ifvqef0","pricing_plan_id":"cebpf4jnsgd1na2vs0mg"},{"bike_id":"794fc345-070f-4528-aaca-4fc72dd4d4ff","system_id":"levelo_inurba_marseille","lat":43.2827,"lon":5.3507,"is_reserved":false,"is_disabled":false,"rental_uris":{"android":"levelo://app?vid=794fc345-070f-4528-aaca-4fc72dd4d4ff","ios":"levelo://app?vid=794fc345-070f-4528-aaca-4fc72dd4d4ff"},"vehicle_type_id":"4","last_reported":1762783848,"current_range_meters":5600,"station_id":"ce4bhbp2rcd13ifvqerg","pricing_plan_id":"cebpf4jnsgd1na2vs0mg"},{"bike_id":"6a5cb119-1a64-415c-a949-ec0bb54d8799","system_id":"levelo_inurba_marseille","lat":43.33174,"lon":5.37675,"is_reserved":false,"is_disabled":false,"rental_uris":{"android":"levelo://app?vid=6a5cb119-1a64-415c-a949-ec0bb54d8799","ios":"levelo://app?vid=6a5cb119-1a64-415c-a949-ec0bb54d8799"},"vehicle_type_id":"4","last_reported":1762783848,"current_range_meters":5600,"station_id":"st_d46cu089ee8s73dldbu0","pricing_plan_id":"cebpf4jnsgd1na2vs0mg"},{"bike_id":"0dcc6b97-1f7b-4b74-a55c-9029bdbbcf38","system_id":"levelo_inurba_marseille","lat":43.2174,"lon":5.34613,"is_reserved":false,"is_disabled":false,"rental_uris":{"android":"levelo://app?vid=0dcc6b97-1f7b-4b74-a55c-9029bdbbcf38","ios":"levelo://app?vid=0dcc6b97-1f7b-4b74-a55c-9029bdbbcf38"},"vehicle_type_id":"4","last_reported":1762783848,"current_range_meters":5600,"station_id":"st_cvj6r9ubvosntc0bgbag","pricing_plan_id":"cebpf4jnsgd1na2vs0mg"},{"bike_id":"589f0afc-0a77-4f5f-93a0-f53e39c7c164","system_id":"levelo_inurba_marseille","lat":43.2808,"lon":5.347735,"is_reserved":false,"is_disabled":false,"rental_uris":{"android":"levelo://app?vid=589f0afc-0a77-4f5f-93a0-f53e39c7c164","ios":"levelo://app?vid=589f0afc-0a77-4f5f-93a0-f53e39c7c164"},"vehicle_type_id":"4","last_reported":1762783848,"current_range_meters":5600,"station_id":"","pricing_plan_id":"cebpf4jnsgd1na2vs0mg"},{"bike_id":"2e031e2c-c6f5-44c9-9b6c-671ac50832e7","system_id":"levelo_inurba_marseille","lat":43.31062,"lon":5.38361,"is_reserved":false,"is_disabled":false,"rental_uris":{"android":"levelo://app?vid=2e031e2c-c6f5-44c9-9b6c-671ac50832e7","ios":"levelo://app?vid=2e031e2c-c6f5-44c9-9b6c-671ac50832e7"},"vehicle_type_id":"4","last_reported":1762783848,"current_range_meters":5600,"station_id":"ce4bgv92rcd13ifvqcr0","pricing_plan_id":"cebpf4jnsgd1na2vs0mg"},{"bike_id":"5e6f9bbd-6d86-4d29-86dc-d7cf0e1bfffa","system_id":"levelo_inurba_marseille","lat":43.23196,"lon":5.35546,"is_reserved":false,"is_disabled":false,"rental_uris":{"android":"levelo://app?vid=5e6f9bbd-6d86-4d29-86dc-d7cf0e1bfffa","ios":"levelo://app?vid=5e6f9bbd-6d86-4d29-86dc-d7cf0e1bfffa"},"vehicle_type_id":"4","last_reported":1762783848,"current_range_meters":6000,"station_id":"ce4bhu92rcd13ifvqi70","pricing_plan_id":"cebpf4jnsgd1na2vs0mg"},{"bike_id":"15db09df-59b0-446a-87c5-e354a3319258","system_id":"levelo_inurba_marseille","lat":43.28485,"lon":5.48397,"is_reserved":false,"is_disabled":false,"rental_uris":{"android":"levelo://app?vid=15db09df-59b0-446a-87c5-e354a3319258","ios":"levelo://app?vid=15db09df-59b0-446a-87c5-e354a3319258"},"vehicle_type_id":"4","last_reported":1762783848,"current_range_meters":6000,"station_id":"","pricing_plan_id":"cebpf4jnsgd1na2vs0mg"},{"bike_id":"00e6b3f3-8e6e-4f9b-8417-9ce74034d382","system_id":"levelo_inurba_marseille","lat":43.25111,"lon":5.40319,"is_reserved":false,"is_disabled":false,"rental_uris":{"android":"levelo://app?vid=00e6b3f3-8e6e-4f9b-8417-9ce74034d382","ios":"levelo://app?vid=00e6b3f3-8e6e-4f9b-8417-9ce74034d382"},"vehicle_type_id":"4","last_reported":1762783848,"current_range_meters":6000,"station_id":"ce4bhlh2rcd13ifvqgig","pricing_plan_id":"cebpf4jnsgd1na2vs0mg"},{"bike_id":"6f98b7a7-ae98-40be-aded-6fe2b547bfca","system_id":"levelo_inurba_marseille","lat":43.337444,"lon":5.374475,"is_reserved":false,"is_disabled":false,"rental_uris":{"android":"levelo://app?vid=6f98b7a7-ae98-40be-aded-6fe2b547bfca","ios":"levelo://app?vid=6f98b7a7-ae98-40be-aded-6fe2b547bfca"},"vehicle_type_id":"4","last_reported":1762783848,"current_range_meters":6000,"station_id":"","pricing_plan_id":"cebpf4jnsgd1na2vs0mg"},{"bike_id":"eebc9f8a-254a-4286-9970-d203c936264d","system_id":"levelo_inurba_marseille","lat":43.31633,"lon":5.37447,"is_reserved":false,"is_disabled":false,"rental_uris":{"android":"levelo://app?vid=eebc9f8a-254a-4286-9970-d203c936264d","ios":"levelo://app?vid=eebc9f8a-254a-4286-9970-d203c936264d"},"vehicle_type_id":"4","last_reported":1762783848,"current_range_meters":6000,"station_id":"","pricing_plan_id":"cebpf4jnsgd1na2vs0mg"},{"bike_id":"81a8e609-57a7-4021-9d7e-4ed1ef20a708","system_id":"levelo_inurba_marseille","lat":43.21736,"lon":5.34607,"is_reserved":false,"is_disabled":false,"rental_uris":{"android":"levelo://app?vid=81a8e609-57a7-4021-9d7e-4ed1ef20a708","ios":"levelo://app?vid=81a8e609-57a7-4021-9d7e-4ed1ef20a708"},"vehicle_type_id":"4","last_reported":1762783848,"current_range_meters":6400,"station_id":"st_cvj6r9ubvosntc0bgbag","pricing_plan_id":"cebpf4jnsgd1na2vs0mg"},{"bike_id":"a468abfc-41a1-4cf8-84ac-466c31dd44ec","system_id":"levelo_inurba_marseille","lat":43.26799,"lon":5.39046,"is_reserved":false,"is_disabled":false,"rental_uris":{"android":"levelo://app?vid=a468abfc-41a1-4cf8-84ac-466c31dd44ec","ios":"levelo://app?vid=a468abfc-41a1-4cf8-84ac-466c31dd44ec"},"vehicle_type_id":"4","last_reported":1762783848,"current_range_meters":6400,"station_id":"","pricing_plan_id":"cebpf4jnsgd1na2vs0mg"},{"bike_id":"76c0a210-154c-45c0-a653-32e716579d54","system_id":"levelo_inurba_marseille","lat":43.21737,"lon":5.34606,"is_reserved":false,"is_disabled":false,"rental_uris":{"android":"levelo://app?vid=76c0a210-154c-45c0-a653-32e716579d54","ios":"levelo://app?vid=76c0a210-154c-45c0-a653-32e716579d54"},"vehicle_type_id":"4","last_reported":1762783848,"current_range_meters":6400,"station_id":"st_cvj6r9ubvosntc0bgbag","pricing_plan_id":"cebpf4jnsgd1na2vs0mg"},{"bike_id":"c1a8951c-0b8b-4e04-9556-ddc347871e56","system_id":"levelo_inurba_marseille","lat":43.33598,"lon":5.35445,"is_reserved":false,"is_disabled":false,"rental_uris":{"android":"levelo://app?vid=c1a8951c-0b8b-4e04-9556-ddc347871e56","ios":"levelo://app?vid=c1a8951c-0b8b-4e04-9556-ddc347871e56"},"vehicle_type_id":"4","last_reported":1762783848,"current_range_meters":6400,"station_id":"","pricing_plan_id":"cebpf4jnsgd1na2vs0mg"},{"bike_id":"936d3177-a893-454a-88df-b3f3c042a254","system_id":"levelo_inurba_marseille","lat":43.29174,"lon":5.37158,"is_reserved":false,"is_disabled":false,"rental_uris":{"android":"levelo://app?vid=936d3177-a893-454a-88df-b3f3c042a254","ios":"levelo://app?vid=936d3177-a893-454a-88df-b3f3c042a254"},"vehicle_type_id":"4","last_reported":1762783848,"current_range_meters":6400,"station_id":"ce4bha92rcd13ifvqeh0","pricing_plan_id":"cebpf4jnsgd1na2vs0mg"},{"bike_id":"d7203625-966b-4e32-b966-34895486530f","system_id":"levelo_inurba_marseille","lat":43.279538,"lon":5.387463,"is_reserved":false,"is_disabled":false,"rental_uris":{"android":"levelo://app?vid=d7203625-966b-4e32-b966-34895486530f","ios":"levelo://app?vid=d7203625-966b-4e32-b966-34895486530f"},"vehicle_type_id":"4","last_reported":1762783848,"current_range_meters":6800,"station_id":"ce4bhg12rcd13ifvqf80","pricing_plan_id":"cebpf4jnsgd1na2vs0mg"},{"bike_id":"c4d55e0e-f9db-4505-8964-61029e9d9d57","system_id":"levelo_inurba_marseille","lat":43.29569,"lon":5.39967,"is_reserved":false,"is_disabled":false,"rental_uris":{"android":"levelo://app?vid=c4d55e0e-f9db-4505-8964-61029e9d9d57","ios":"levelo://app?vid=c4d55e0e-f9db-4505-8964-61029e9d9d57"},"vehicle_type_id":"4","last_reported":1762783848,"current_range_meters":6800,"station_id":"ce4bh312rcd13ifvqdj0","pricing_plan_id":"cebpf4jnsgd1na2vs0mg"},{"bike_id":"f252fb10-641f-4db6-a985-be91a97aee7a","system_id":"levelo_inurba_marseille","lat":43.24074,"lon":5.37758,"is_reserved":false,"is_disabled":false,"rental_uris":{"android":"levelo://app?vid=f252fb10-641f-4db6-a985-be91a97aee7a","ios":"levelo://app?vid=f252fb10-641f-4db6-a985-be91a97aee7a"},"vehicle_type_id":"4","last_reported":1762783848,"current_range_meters":6800,"station_id":"ce4bhnp2rcd13ifvqgvg","pricing_plan_id":"cebpf4jnsgd1na2vs0mg"},{"bike_id":"11fc4d3b-733f-446e-ae27-782a71ccb828","system_id":"levelo_inurba_marseille","lat":43.29915,"lon":5.36546,"is_reserved":false,"is_disabled":false,"rental_uris":{"android":"levelo://app?vid=11fc4d3b-733f-446e-ae27-782a71ccb828","ios":"levelo://app?vid=11fc4d3b-733f-446e-ae27-782a71ccb828"},"vehicle_type_id":"4","last_reported":1762783848,"current_range_meters":6800,"station_id":"ce4bgm92rcd13ifvqbr0","pricing_plan_id":"cebpf4jnsgd1na2vs0mg"},{"bike_id":"d72faab4-63f8-43b6-999e-4ba7e8738b48","system_id":"levelo_inurba_marseille","lat":43.292664,"lon":5.384367,"is_reserved":false,"is_disabled":false,"rental_uris":{"android":"levelo://app?vid=d72faab4-63f8-43b6-999e-4ba7e8738b48","ios":"levelo://app?vid=d72faab4-63f8-43b6-999e-4ba7e8738b48"},"vehicle_type_id":"4","last_reported":1762783848,"current_range_meters":7200,"station_id":"ce4bh692rcd13ifvqea0","pricing_plan_id":"cebpf4jnsgd1na2vs0mg"},{"bike_id":"2716f584-1ca5-4bb7-9d9f-507914216823","system_id":"levelo_inurba_marseille","lat":43.27848,"lon":5.39196,"is_reserved":false,"is_disabled":false,"rental_uris":{"android":"levelo://app?vid=2716f584-1ca5-4bb7-9d9f-507914216823","ios":"levelo://app?vid=2716f584-1ca5-4bb7-9d9f-507914216823"},"vehicle_type_id":"4","last_reported":1762783848,"current_range_meters":7200,"station_id":"ce4bhjp2rcd13ifvqga0","pricing_plan_id":"cebpf4jnsgd1na2vs0mg"},{"bike_id":"bee22918-9c73-478f-a49e-30e90355d7a0","system_id":"levelo_inurba_marseille","lat":43.2123,"lon":5.35039,"is_reserved":false,"is_disabled":false,"rental_uris":{"android":"levelo://app?vid=bee22918-9c73-478f-a49e-30e90355d7a0","ios":"levelo://app?vid=bee22918-9c73-478f-a49e-30e90355d7a0"},"vehicle_type_id":"4","last_reported":1762783848,"current_range_meters":7200,"station_id":"","pricing_plan_id":"cebpf4jnsgd1na2vs0mg"},{"bike_id":"f67f33ef-23fe-4ff5-8a43-7b241a0de7da","system_id":"levelo_inurba_marseille","lat":43.32088,"lon":5.36802,"is_reserved":false,"is_disabled":false,"rental_uris":{"android":"levelo://app?vid=f67f33ef-23fe-4ff5-8a43-7b241a0de7da","ios":"levelo://app?vid=f67f33ef-23fe-4ff5-8a43-7b241a0de7da"},"vehicle_type_id":"4","last_reported":1762783848,"current_range_meters":8000,"station_id":"ce4bhrh2rcd13ifvqhug","pricing_plan_id":"cebpf4jnsgd1na2vs0mg"},{"bike_id":"a4ac7d48-30e9-4310-b720-793a40fcb1d1","system_id":"levelo_inurba_marseille","lat":43.21733,"lon":5.34622,"is_reserved":false,"is_disabled":false,"rental_uris":{"android":"levelo://app?vid=a4ac7d48-30e9-4310-b720-793a40fcb1d1","ios":"levelo://app?vid=a4ac7d48-30e9-4310-b720-793a40fcb1d1"},"vehicle_type_id":"4","last_reported":1762783848,"current_range_meters":8000,"station_id":"st_cvj6r9ubvosntc0bgbag","pricing_plan_id":"cebpf4jnsgd1na2vs0mg"},{"bike_id":"bcb7664a-39c2-46f8-930f-41cebd3d0b86","system_id":"levelo_inurba_marseille","lat":43.21187,"lon":5.35073,"is_reserved":false,"is_disabled":true,"rental_uris":{"android":"levelo://app?vid=bcb7664a-39c2-46f8-930f-41cebd3d0b86","ios":"levelo://app?vid=bcb7664a-39c2-46f8-930f-41cebd3d0b86"},"vehicle_type_id":"4","last_reported":1762783848,"current_range_meters":8000,"station_id":"st_cvj6sg6p6f1abm77japg","pricing_plan_id":"cebpf4jnsgd1na2vs0mg"},{"bike_id":"22935b26-5561-46d1-855f-e11e2a6939d6","system_id":"levelo_inurba_marseille","lat":43.27207,"lon":5.39184,"is_reserved":false,"is_disabled":false,"rental_uris":{"android":"levelo://app?vid=22935b26-5561-46d1-855f-e11e2a6939d6","ios":"levelo://app?vid=22935b26-5561-46d1-855f-e11e2a6939d6"},"vehicle_type_id":"4","last_reported":1762783848,"current_range_meters":8400,"station_id":"ce4bhhp2rcd13ifvqfm0","pricing_plan_id":"cebpf4jnsgd1na2vs0mg"},{"bike_id":"5997c6b0-b0f4-4848-a8f1-63ca201df211","system_id":"levelo_inurba_marseille","lat":43.33933,"lon":5.4151,"is_reserved":false,"is_disabled":false,"rental_uris":{"android":"levelo://app?vid=5997c6b0-b0f4-4848-a8f1-63ca201df211","ios":"levelo://app?vid=5997c6b0-b0f4-4848-a8f1-63ca201df211"},"vehicle_type_id":"4","last_reported":1762783848,"current_range_meters":8400,"station_id":"","pricing_plan_id":"cebpf4jnsgd1na2vs0mg"},{"bike_id":"15d072cf-8276-4361-b77f-14147d04b60b","system_id":"levelo_inurba_marseille","lat":43.24551,"lon":5.39525,"is_reserved":false,"is_disabled":false,"rental_uris":{"android":"levelo://app?vid=15d072cf-8276-4361-b77f-14147d04b60b","ios":"levelo://app?vid=15d072cf-8276-4361-b77f-14147d04b60b"},"vehicle_type_id":"4","last_reported":1762783848,"current_range_meters":8800,"station_id":"ce4bhlp2rcd13ifvqgjg","pricing_plan_id":"cebpf4jnsgd1na2vs0mg"},{"bike_id":"8a70902f-69d6-4919-8959-461b868d6967","system_id":"levelo_inurba_marseille","lat":43.21739,"lon":5.34611,"is_reserved":false,"is_disabled":false,"rental_uris":{"android":"levelo://app?vid=8a70902f-69d6-4919-8959-461b868d6967","ios":"levelo://app?vid=8a70902f-69d6-4919-8959-461b868d6967"},"vehicle_type_id":"4","last_reported":1762783848,"current_range_meters":8800,"station_id":"st_cvj6r9ubvosntc0bgbag","pricing_plan_id":"cebpf4jnsgd1na2vs0mg"},{"bike_id":"093bf278-b2ef-4f94-8ba4-3b0905fdf1a0","system_id":"levelo_inurba_marseille","lat":43.30178,"lon":5.38079,"is_reserved":false,"is_disabled":false,"rental_uris":{"android":"levelo://app?vid=093bf278-b2ef-4f94-8ba4-3b0905fdf1a0","ios":"levelo://app?vid=093bf278-b2ef-4f94-8ba4-3b0905fdf1a0"},"vehicle_type_id":"4","last_reported":1762783848,"current_range_meters":9200,"station_id":"ce4bgjp2rcd13ifvqbh0","pricing_plan_id":"cebpf4jnsgd1na2vs0mg"},{"bike_id":"50da1aee-7d19-41f6-8a84-c20fda02cba2","system_id":"levelo_inurba_marseille","lat":43.273454,"lon":5.390751,"is_reserved":false,"is_disabled":false,"rental_uris":{"android":"levelo://app?vid=50da1aee-7d19-41f6-8a84-c20fda02cba2","ios":"levelo://app?vid=50da1aee-7d19-41f6-8a84-c20fda02cba2"},"vehicle_type_id":"4","last_reported":1762783848,"current_range_meters":9200,"station_id":"ce4bhgp2rcd13ifvqfe0","pricing_plan_id":"cebpf4jnsgd1na2vs0mg"},{"bike_id":"3f0a6089-21f3-4bb4-8a67-647cbbbfb9bc","system_id":"levelo_inurba_marseille","lat":43.27999,"lon":5.41653,"is_reserved":false,"is_disabled":false,"rental_uris":{"android":"levelo://app?vid=3f0a6089-21f3-4bb4-8a67-647cbbbfb9bc","ios":"levelo://app?vid=3f0a6089-21f3-4bb4-8a67-647cbbbfb9bc"},"vehicle_type_id":"4","last_reported":1762783848,"current_range_meters":9200,"station_id":"ce4bho12rcd13ifvqh1g","pricing_plan_id":"cebpf4jnsgd1na2vs0mg"},{"bike_id":"296b35f4-bf34-48bd-a614-0084f905815f","system_id":"levelo_inurba_marseille","lat":43.29915,"lon":5.36395,"is_reserved":false,"is_disabled":false,"rental_uris":{"android":"levelo://app?vid=296b35f4-bf34-48bd-a614-0084f905815f","ios":"levelo://app?vid=296b35f4-bf34-48bd-a614-0084f905815f"},"vehicle_type_id":"4","last_reported":1762783848,"current_range_meters":9200,"station_id":"","pricing_plan_id":"cebpf4jnsgd1na2vs0mg"},{"bike_id":"d32acf6f-21aa-4fbf-bed6-33d296ca0f9f","system_id":"levelo_inurba_marseille","lat":43.21757,"lon":5.34611,"is_reserved":false,"is_disabled":false,"rental_uris":{"android":"levelo://app?vid=d32acf6f-21aa-4fbf-bed6-33d296ca0f9f","ios":"levelo://app?vid=d32acf6f-21aa-4fbf-bed6-33d296ca0f9f"},"vehicle_type_id":"4","last_reported":1762783848,"current_range_meters":9600,"station_id":"st_cvj6r9ubvosntc0bgbag","pricing_plan_id":"cebpf4jnsgd1na2vs0mg"},{"bike_id":"159c4104-e089-4a2c-91f1-c59a05fd82f0","system_id":"levelo_inurba_marseille","lat":43.25501,"lon":5.37652,"is_reserved":false,"is_disabled":false,"rental_uris":{"android":"levelo://app?vid=159c4104-e089-4a2c-91f1-c59a05fd82f0","ios":"levelo://app?vid=159c4104-e089-4a2c-91f1-c59a05fd82f0"},"vehicle_type_id":"4","last_reported":1762783848,"current_range_meters":9600,"station_id":"ce4bhh12rcd13ifvqff0","pricing_plan_id":"cebpf4jnsgd1na2vs0mg"},{"bike_id":"c2aeafca-1675-405e-a15f-726ce99a1f1b","system_id":"levelo_inurba_marseille","lat":43.29188,"lon":5.39338,"is_reserved":false,"is_disabled":false,"rental_uris":{"android":"levelo://app?vid=c2aeafca-1675-405e-a15f-726ce99a1f1b","ios":"levelo://app?vid=c2aeafca-1675-405e-a15f-726ce99a1f1b"},"vehicle_type_id":"4","last_reported":1762783848,"current_range_meters":9600,"station_id":"ce4bh192rcd13ifvqdd0","pricing_plan_id":"cebpf4jnsgd1na2vs0mg"},{"bike_id":"f08621f1-92b2-4985-8a3a-96dd283a7c2b","system_id":"levelo_inurba_marseille","lat":43.31354,"lon":5.37932,"is_reserved":false,"is_disabled":false,"rental_uris":{"android":"levelo://app?vid=f08621f1-92b2-4985-8a3a-96dd283a7c2b","ios":"levelo://app?vid=f08621f1-92b2-4985-8a3a-96dd283a7c2b"},"vehicle_type_id":"4","last_reported":1762783848,"current_range_meters":9600,"station_id":"","pricing_plan_id":"cebpf4jnsgd1na2vs0mg"},{"bike_id":"9a0427e2-92da-495c-988c-bd37140d2bca","system_id":"levelo_inurba_marseille","lat":43.211919,"lon":5.350798,"is_reserved":false,"is_disabled":false,"rental_uris":{"android":"levelo://app?vid=9a0427e2-92da-495c-988c-bd37140d2bca","ios":"levelo://app?vid=9a0427e2-92da-495c-988c-bd37140d2bca"},"vehicle_type_id":"4","last_reported":1762783848,"current_range_meters":9600,"station_id":"","pricing_plan_id":"cebpf4jnsgd1na2vs0mg"},{"bike_id":"50736b28-c799-48c1-bf4e-7ff67b650b47","system_id":"levelo_inurba_marseille","lat":43.24799,"lon":5.37454,"is_reserved":false,"is_disabled":false,"rental_uris":{"android":"levelo://app?vid=50736b28-c799-48c1-bf4e-7ff67b650b47","ios":"levelo://app?vid=50736b28-c799-48c1-bf4e-7ff67b650b47"},"vehicle_type_id":"4","last_reported":1762783848,"current_range_meters":10000,"station_id":"ce4bhgh2rcd13ifvqfb0","pricing_plan_id":"cebpf4jnsgd1na2vs0mg"},{"bike_id":"7c623fdd-8dec-40f7-9989-e1ee2f9df1be","system_id":"levelo_inurba_marseille","lat":43.29839,"lon":5.36265,"is_reserved":false,"is_disabled":false,"rental_uris":{"android":"levelo://app?vid=7c623fdd-8dec-40f7-9989-e1ee2f9df1be","ios":"levelo://app?vid=7c623fdd-8dec-40f7-9989-e1ee2f9df1be"},"vehicle_type_id":"4","last_reported":1762783848,"current_range_meters":10000,"station_id":"ce4bgpp2rcd13ifvqc3g","pricing_plan_id":"cebpf4jnsgd1na2vs0mg"},{"bike_id":"2aa32200-75e6-438e-bb0d-a9bc847da4a8","system_id":"levelo_inurba_marseille","lat":43.24946,"lon":5.40494,"is_reserved":false,"is_disabled":false,"rental_uris":{"android":"levelo://app?vid=2aa32200-75e6-438e-bb0d-a9bc847da4a8","ios":"levelo://app?vid=2aa32200-75e6-438e-bb0d-a9bc847da4a8"},"vehicle_type_id":"4","last_reported":1762783848,"current_range_meters":10000,"station_id":"st_d2ngiaodas8pm72gd1h0","pricing_plan_id":"cebpf4jnsgd1na2vs0mg"},{"bike_id":"7d716906-2629-477b-a1c7-8480cabee110","system_id":"levelo_inurba_marseille","lat":43.2841,"lon":5.37514,"is_reserved":false,"is_disabled":false,"rental_uris":{"android":"levelo://app?vid=7d716906-2629-477b-a1c7-8480cabee110","ios":"levelo://app?vid=7d716906-2629-477b-a1c7-8480cabee110"},"vehicle_type_id":"4","last_reported":1762783848,"current_range_meters":10000,"station_id":"ce4bh412rcd13ifvqds0","pricing_plan_id":"cebpf4jnsgd1na2vs0mg"},{"bike_id":"b4cb9bc3-2674-422b-8c74-5594292dd02e","system_id":"levelo_inurba_marseille","lat":43.27545,"lon":5.37511,"is_reserved":false,"is_disabled":false,"rental_uris":{"android":"levelo://app?vid=b4cb9bc3-2674-422b-8c74-5594292dd02e","ios":"levelo://app?vid=b4cb9bc3-2674-422b-8c74-5594292dd02e"},"vehicle_type_id":"4","last_reported":1762783848,"current_range_meters":10000,"station_id":"","pricing_plan_id":"cebpf4jnsgd1na2vs0mg"},{"bike_id":"dbd0ee98-46db-4f12-88a2-b9ac27e6b6c6","system_id":"levelo_inurba_marseille","lat":43.309312,"lon":5.382187,"is_reserved":false,"is_disabled":false,"rental_uris":{"android":"levelo://app?vid=dbd0ee98-46db-4f12-88a2-b9ac27e6b6c6","ios":"levelo://app?vid=dbd0ee98-46db-4f12-88a2-b9ac27e6b6c6"},"vehicle_type_id":"4","last_reported":1762783848,"current_range_meters":10800,"station_id":"ce4bgup2rcd13ifvqcn0","pricing_plan_id":"cebpf4jnsgd1na2vs0mg"},{"bike_id":"82d394db-34ba-4222-aaaa-904b0d7db091","system_id":"levelo_inurba_marseille","lat":43.21745,"lon":5.34611,"is_reserved":false,"is_disabled":false,"rental_uris":{"android":"levelo://app?vid=82d394db-34ba-4222-aaaa-904b0d7db091","ios":"levelo://app?vid=82d394db-34ba-4222-aaaa-904b0d7db091"},"vehicle_type_id":"4","last_reported":1762783848,"current_range_meters":10800,"station_id":"st_cvj6r9ubvosntc0bgbag","pricing_plan_id":"cebpf4jnsgd1na2vs0mg"},{"bike_id":"07618fb4-fdf4-452a-a76e-4b0defae3541","system_id":"levelo_inurba_marseille","lat":43.22535,"lon":5.3484,"is_reserved":false,"is_disabled":false,"rental_uris":{"android":"levelo://app?vid=07618fb4-fdf4-452a-a76e-4b0defae3541","ios":"levelo://app?vid=07618fb4-fdf4-452a-a76e-4b0defae3541"},"vehicle_type_id":"4","last_reported":1762783848,"current_range_meters":10800,"station_id":"","pricing_plan_id":"cebpf4jnsgd1na2vs0mg"},{"bike_id":"0d60bf1d-5f77-468d-9bfe-05e357f34955","system_id":"levelo_inurba_marseille","lat":43.29282,"lon":5.37286,"is_reserved":false,"is_disabled":false,"rental_uris":{"android":"levelo://app?vid=0d60bf1d-5f77-468d-9bfe-05e357f34955","ios":"levelo://app?vid=0d60bf1d-5f77-468d-9bfe-05e357f34955"},"vehicle_type_id":"4","last_reported":1762783848,"current_range_meters":10800,"station_id":"ce4bgkh2rcd13ifvqbl0","pricing_plan_id":"cebpf4jnsgd1na2vs0mg"},{"bike_id":"fef01338-52ce-46e5-a7aa-4e2503a24868","system_id":"levelo_inurba_marseille","lat":43.243851,"lon":5.370612,"is_reserved":false,"is_disabled":false,"rental_uris":{"android":"levelo://app?vid=fef01338-52ce-46e5-a7aa-4e2503a24868","ios":"levelo://app?vid=fef01338-52ce-46e5-a7aa-4e2503a24868"},"vehicle_type_id":"4","last_reported":1762783848,"current_range_meters":10800,"station_id":"ce4bhhh2rcd13ifvqfk0","pricing_plan_id":"cebpf4jnsgd1na2vs0mg"},{"bike_id":"1b8b0a09-b5bb-4843-bc01-82aa41421079","system_id":"levelo_inurba_marseille","lat":43.26561,"lon":5.39027,"is_reserved":false,"is_disabled":false,"rental_uris":{"android":"levelo://app?vid=1b8b0a09-b5bb-4843-bc01-82aa41421079","ios":"levelo://app?vid=1b8b0a09-b5bb-4843-bc01-82aa41421079"},"vehicle_type_id":"4","last_reported":1762783848,"current_range_meters":10800,"station_id":"ce4bhe12rcd13ifvqf30","pricing_plan_id":"cebpf4jnsgd1na2vs0mg"},{"bike_id":"5e7218d5-a97b-42ba-913e-b10953be11e3","system_id":"levelo_inurba_marseille","lat":43.24165,"lon":5.36436,"is_reserved":false,"is_disabled":false,"rental_uris":{"android":"levelo://app?vid=5e7218d5-a97b-42ba-913e-b10953be11e3","ios":"levelo://app?vid=5e7218d5-a97b-42ba-913e-b10953be11e3"},"vehicle_type_id":"4","last_reported":1762783848,"current_range_meters":11200,"station_id":"cpo36qri1sfpv3e86is0","pricing_plan_id":"cebpf4jnsgd1na2vs0mg"},{"bike_id":"be790c63-16cc-4826-93ea-0de7558ac2d2","system_id":"levelo_inurba_marseille","lat":43.29041,"lon":5.35916,"is_reserved":false,"is_disabled":false,"rental_uris":{"android":"levelo://app?vid=be790c63-16cc-4826-93ea-0de7558ac2d2","ios":"levelo://app?vid=be790c63-16cc-4826-93ea-0de7558ac2d2"},"vehicle_type_id":"4","last_reported":1762783848,"current_range_meters":11200,"station_id":"ce4bha92rcd13ifvqeg0","pricing_plan_id":"cebpf4jnsgd1na2vs0mg"},{"bike_id":"ab4ac132-5519-4aac-ac12-8b8c2929bb7e","system_id":"levelo_inurba_marseille","lat":43.32302,"lon":5.38493,"is_reserved":false,"is_disabled":false,"rental_uris":{"android":"levelo://app?vid=ab4ac132-5519-4aac-ac12-8b8c2929bb7e","ios":"levelo://app?vid=ab4ac132-5519-4aac-ac12-8b8c2929bb7e"},"vehicle_type_id":"4","last_reported":1762783848,"current_range_meters":11200,"station_id":"st_d45171o9ee8s73djdqug","pricing_plan_id":"cebpf4jnsgd1na2vs0mg"},{"bike_id":"e1f2c26c-a7d3-430e-a618-dfc3e2b59ec3","system_id":"levelo_inurba_marseille","lat":43.30277,"lon":5.37699,"is_reserved":false,"is_disabled":false,"rental_uris":{"android":"levelo://app?vid=e1f2c26c-a7d3-430e-a618-dfc3e2b59ec3","ios":"levelo://app?vid=e1f2c26c-a7d3-430e-a618-dfc3e2b59ec3"},"vehicle_type_id":"4","last_reported":1762783848,"current_range_meters":11200,"station_id":"ce4bguh2rcd13ifvqcj0","pricing_plan_id":"cebpf4jnsgd1na2vs0mg"},{"bike_id":"573fadcc-aa6f-4146-bcfe-349701581382","system_id":"levelo_inurba_marseille","lat":43.27922,"lon":5.39578,"is_reserved":false,"is_disabled":false,"rental_uris":{"android":"levelo://app?vid=573fadcc-aa6f-4146-bcfe-349701581382","ios":"levelo://app?vid=573fadcc-aa6f-4146-bcfe-349701581382"},"vehicle_type_id":"4","last_reported":1762783848,"current_range_meters":11200,"station_id":"ce4bhf92rcd13ifvqf40","pricing_plan_id":"cebpf4jnsgd1na2vs0mg"},{"bike_id":"cf41bac8-b3bf-4d78-b58b-1504370da1f3","system_id":"levelo_inurba_marseille","lat":43.21747,"lon":5.34615,"is_reserved":false,"is_disabled":false,"rental_uris":{"android":"levelo://app?vid=cf41bac8-b3bf-4d78-b58b-1504370da1f3","ios":"levelo://app?vid=cf41bac8-b3bf-4d78-b58b-1504370da1f3"},"vehicle_type_id":"4","last_reported":1762783848,"current_range_meters":11200,"station_id":"st_cvj6r9ubvosntc0bgbag","pricing_plan_id":"cebpf4jnsgd1na2vs0mg"},{"bike_id":"46748178-17b8-4dc8-80b3-39159ff743e0","system_id":"levelo_inurba_marseille","lat":43.30005,"lon":5.38374,"is_reserved":false,"is_disabled":false,"rental_uris":{"android":"levelo://app?vid=46748178-17b8-4dc8-80b3-39159ff743e0","ios":"levelo://app?vid=46748178-17b8-4dc8-80b3-39159ff743e0"},"vehicle_type_id":"4","last_reported":1762783848,"current_range_meters":11200,"station_id":"","pricing_plan_id":"cebpf4jnsgd1na2vs0mg"},{"bike_id":"05f793b6-60c7-47f7-9019-ae99625fe80e","system_id":"levelo_inurba_marseille","lat":43.32478,"lon":5.36571,"is_reserved":false,"is_disabled":false,"rental_uris":{"android":"levelo://app?vid=05f793b6-60c7-47f7-9019-ae99625fe80e","ios":"levelo://app?vid=05f793b6-60c7-47f7-9019-ae99625fe80e"},"vehicle_type_id":"4","last_reported":1762783848,"current_range_meters":11200,"station_id":"ce4bhs12rcd13ifvqhvg","pricing_plan_id":"cebpf4jnsgd1na2vs0mg"},{"bike_id":"fe802377-9b06-4faa-b766-896f38357d57","system_id":"levelo_inurba_marseille","lat":43.25495,"lon":5.3764,"is_reserved":false,"is_disabled":false,"rental_uris":{"android":"levelo://app?vid=fe802377-9b06-4faa-b766-896f38357d57","ios":"levelo://app?vid=fe802377-9b06-4faa-b766-896f38357d57"},"vehicle_type_id":"4","last_reported":1762783848,"current_range_meters":11200,"station_id":"ce4bhh12rcd13ifvqff0","pricing_plan_id":"cebpf4jnsgd1na2vs0mg"},{"bike_id":"dd4fae39-19ac-41ab-b561-08838cbf5997","system_id":"levelo_inurba_marseille","lat":43.28609,"lon":5.37063,"is_reserved":false,"is_disabled":false,"rental_uris":{"android":"levelo://app?vid=dd4fae39-19ac-41ab-b561-08838cbf5997","ios":"levelo://app?vid=dd4fae39-19ac-41ab-b561-08838cbf5997"},"vehicle_type_id":"4","last_reported":1762783848,"current_range_meters":11200,"station_id":"ce4bht12rcd13ifvqi60","pricing_plan_id":"cebpf4jnsgd1na2vs0mg"},{"bike_id":"edf2b38f-e4aa-4c56-8872-49167d89ded3","system_id":"levelo_inurba_marseille","lat":43.27995,"lon":5.41667,"is_reserved":false,"is_disabled":false,"rental_uris":{"android":"levelo://app?vid=edf2b38f-e4aa-4c56-8872-49167d89ded3","ios":"levelo://app?vid=edf2b38f-e4aa-4c56-8872-49167d89ded3"},"vehicle_type_id":"4","last_reported":1762783848,"current_range_meters":11200,"station_id":"ce4bho12rcd13ifvqh1g","pricing_plan_id":"cebpf4jnsgd1na2vs0mg"},{"bike_id":"d8c82544-9dfd-4e3a-a66c-c2466982661a","system_id":"levelo_inurba_marseille","lat":43.25871,"lon":5.39896,"is_reserved":false,"is_disabled":false,"rental_uris":{"android":"levelo://app?vid=d8c82544-9dfd-4e3a-a66c-c2466982661a","ios":"levelo://app?vid=d8c82544-9dfd-4e3a-a66c-c2466982661a"},"vehicle_type_id":"4","last_reported":1762783848,"current_range_meters":11200,"station_id":"ce4bhl92rcd13ifvqghg","pricing_plan_id":"cebpf4jnsgd1na2vs0mg"},{"bike_id":"77dd386a-c491-4903-b512-c2486567c465","system_id":"levelo_inurba_marseille","lat":43.28925,"lon":5.36649,"is_reserved":false,"is_disabled":false,"rental_uris":{"android":"levelo://app?vid=77dd386a-c491-4903-b512-c2486567c465","ios":"levelo://app?vid=77dd386a-c491-4903-b512-c2486567c465"},"vehicle_type_id":"4","last_reported":1762783848,"current_range_meters":11200,"station_id":"ce4bhap2rcd13ifvqek0","pricing_plan_id":"cebpf4jnsgd1na2vs0mg"},{"bike_id":"4d1ecef6-36d1-4165-b6d4-755d36d62709","system_id":"levelo_inurba_marseille","lat":43.29978,"lon":5.37184,"is_reserved":false,"is_disabled":false,"rental_uris":{"android":"levelo://app?vid=4d1ecef6-36d1-4165-b6d4-755d36d62709","ios":"levelo://app?vid=4d1ecef6-36d1-4165-b6d4-755d36d62709"},"vehicle_type_id":"4","last_reported":1762783848,"current_range_meters":11600,"station_id":"ce4bgr92rcd13ifvqc7g","pricing_plan_id":"cebpf4jnsgd1na2vs0mg"},{"bike_id":"91adbe56-f082-46eb-a344-dffeacf869cd","system_id":"levelo_inurba_marseille","lat":43.31358,"lon":5.38487,"is_reserved":false,"is_disabled":false,"rental_uris":{"android":"levelo://app?vid=91adbe56-f082-46eb-a344-dffeacf869cd","ios":"levelo://app?vid=91adbe56-f082-46eb-a344-dffeacf869cd"},"vehicle_type_id":"4","last_reported":1762783848,"current_range_meters":11600,"station_id":"ce4bgt92rcd13ifvqcf0","pricing_plan_id":"cebpf4jnsgd1na2vs0mg"},{"bike_id":"0f20af60-6bf9-4514-bb5d-2a96c026aa98","system_id":"levelo_inurba_marseille","lat":43.29271,"lon":5.38445,"is_reserved":false,"is_disabled":false,"rental_uris":{"android":"levelo://app?vid=0f20af60-6bf9-4514-bb5d-2a96c026aa98","ios":"levelo://app?vid=0f20af60-6bf9-4514-bb5d-2a96c026aa98"},"vehicle_type_id":"4","last_reported":1762783848,"current_range_meters":11600,"station_id":"ce4bh692rcd13ifvqea0","pricing_plan_id":"cebpf4jnsgd1na2vs0mg"},{"bike_id":"39ff6a52-7c15-4e36-9056-950efe8be9ca","system_id":"levelo_inurba_marseille","lat":43.28473,"lon":5.48396,"is_reserved":false,"is_disabled":false,"rental_uris":{"android":"levelo://app?vid=39ff6a52-7c15-4e36-9056-950efe8be9ca","ios":"levelo://app?vid=39ff6a52-7c15-4e36-9056-950efe8be9ca"},"vehicle_type_id":"4","last_reported":1762783848,"current_range_meters":11600,"station_id":"","pricing_plan_id":"cebpf4jnsgd1na2vs0mg"},{"bike_id":"b3b5c72f-da31-4319-b715-df9a3cf2d257","system_id":"levelo_inurba_marseille","lat":43.295846,"lon":5.375941,"is_reserved":false,"is_disabled":false,"rental_uris":{"android":"levelo://app?vid=b3b5c72f-da31-4319-b715-df9a3cf2d257","ios":"levelo://app?vid=b3b5c72f-da31-4319-b715-df9a3cf2d257"},"vehicle_type_id":"4","last_reported":1762783848,"current_range_meters":11600,"station_id":"ce4bgi92rcd13ifvqb90","pricing_plan_id":"cebpf4jnsgd1na2vs0mg"},{"bike_id":"96807a8e-1b45-4a36-b7ed-92091f4bcaf6","system_id":"levelo_inurba_marseille","lat":43.309306,"lon":5.401424,"is_reserved":false,"is_disabled":false,"rental_uris":{"android":"levelo://app?vid=96807a8e-1b45-4a36-b7ed-92091f4bcaf6","ios":"levelo://app?vid=96807a8e-1b45-4a36-b7ed-92091f4bcaf6"},"vehicle_type_id":"4","last_reported":1762783848,"current_range_meters":12000,"station_id":"","pricing_plan_id":"cebpf4jnsgd1na2vs0mg"},{"bike_id":"e17839a3-96d6-489d-881e-36b6da5aeb29","system_id":"levelo_inurba_marseille","lat":43.285937,"lon":5.370604,"is_reserved":false,"is_disabled":false,"rental_uris":{"android":"levelo://app?vid=e17839a3-96d6-489d-881e-36b6da5aeb29","ios":"levelo://app?vid=e17839a3-96d6-489d-881e-36b6da5aeb29"},"vehicle_type_id":"4","last_reported":1762783848,"current_range_meters":12000,"station_id":"ce4bht12rcd13ifvqi60","pricing_plan_id":"cebpf4jnsgd1na2vs0mg"},{"bike_id":"ac8a8750-1d87-4cf8-9c77-e78b99da5512","system_id":"levelo_inurba_marseille","lat":43.23605,"lon":5.361713,"is_reserved":false,"is_disabled":false,"rental_uris":{"android":"levelo://app?vid=ac8a8750-1d87-4cf8-9c77-e78b99da5512","ios":"levelo://app?vid=ac8a8750-1d87-4cf8-9c77-e78b99da5512"},"vehicle_type_id":"4","last_reported":1762783848,"current_range_meters":12400,"station_id":"","pricing_plan_id":"cebpf4jnsgd1na2vs0mg"},{"bike_id":"896a0fc4-e98e-425f-b646-7db4d5ace172","system_id":"levelo_inurba_marseille","lat":43.3199,"lon":5.38155,"is_reserved":false,"is_disabled":false,"rental_uris":{"android":"levelo://app?vid=896a0fc4-e98e-425f-b646-7db4d5ace172","ios":"levelo://app?vid=896a0fc4-e98e-425f-b646-7db4d5ace172"},"vehicle_type_id":"4","last_reported":1762783848,"current_range_meters":12400,"station_id":"ce4bhr12rcd13ifvqhpg","pricing_plan_id":"cebpf4jnsgd1na2vs0mg"},{"bike_id":"57a0e79f-facd-4ab6-a76f-84233bc7be89","system_id":"levelo_inurba_marseille","lat":43.24381,"lon":5.370623,"is_reserved":false,"is_disabled":false,"rental_uris":{"android":"levelo://app?vid=57a0e79f-facd-4ab6-a76f-84233bc7be89","ios":"levelo://app?vid=57a0e79f-facd-4ab6-a76f-84233bc7be89"},"vehicle_type_id":"4","last_reported":1762783848,"current_range_meters":12400,"station_id":"ce4bhhh2rcd13ifvqfk0","pricing_plan_id":"cebpf4jnsgd1na2vs0mg"},{"bike_id":"24de70df-9b80-4721-8771-f61cb7be1ef9","system_id":"levelo_inurba_marseille","lat":43.3192,"lon":5.38126,"is_reserved":false,"is_disabled":false,"rental_uris":{"android":"levelo://app?vid=24de70df-9b80-4721-8771-f61cb7be1ef9","ios":"levelo://app?vid=24de70df-9b80-4721-8771-f61cb7be1ef9"},"vehicle_type_id":"4","last_reported":1762783848,"current_range_meters":12400,"station_id":"","pricing_plan_id":"cebpf4jnsgd1na2vs0mg"},{"bike_id":"ee676784-715b-4226-9bd3-48c659f578c3","system_id":"levelo_inurba_marseille","lat":43.27506,"lon":5.42442,"is_reserved":false,"is_disabled":false,"rental_uris":{"android":"levelo://app?vid=ee676784-715b-4226-9bd3-48c659f578c3","ios":"levelo://app?vid=ee676784-715b-4226-9bd3-48c659f578c3"},"vehicle_type_id":"4","last_reported":1762783848,"current_range_meters":12400,"station_id":"ce4bhn92rcd13ifvqgrg","pricing_plan_id":"cebpf4jnsgd1na2vs0mg"},{"bike_id":"0f4f6d58-47b7-4e12-865b-8802e8d41703","system_id":"levelo_inurba_marseille","lat":43.23141,"lon":5.43734,"is_reserved":false,"is_disabled":false,"rental_uris":{"android":"levelo://app?vid=0f4f6d58-47b7-4e12-865b-8802e8d41703","ios":"levelo://app?vid=0f4f6d58-47b7-4e12-865b-8802e8d41703"},"vehicle_type_id":"4","last_reported":1762783848,"current_range_meters":12400,"station_id":"ce4bhmp2rcd13ifvqgog","pricing_plan_id":"cebpf4jnsgd1na2vs0mg"},{"bike_id":"f14d005e-ec2a-40e8-a5b6-f9ba55648bdf","system_id":"levelo_inurba_marseille","lat":43.246315,"lon":5.431503,"is_reserved":false,"is_disabled":false,"rental_uris":{"android":"levelo://app?vid=f14d005e-ec2a-40e8-a5b6-f9ba55648bdf","ios":"levelo://app?vid=f14d005e-ec2a-40e8-a5b6-f9ba55648bdf"},"vehicle_type_id":"4","last_reported":1762783848,"current_range_meters":12400,"station_id":"st_d2m6c4gdas8pm72e190g","pricing_plan_id":"cebpf4jnsgd1na2vs0mg"},{"bike_id":"93b49ebf-d9fa-49cd-9da3-22e867a810f3","system_id":"levelo_inurba_marseille","lat":43.29744,"lon":5.41118,"is_reserved":false,"is_disabled":false,"rental_uris":{"android":"levelo://app?vid=93b49ebf-d9fa-49cd-9da3-22e867a810f3","ios":"levelo://app?vid=93b49ebf-d9fa-49cd-9da3-22e867a810f3"},"vehicle_type_id":"4","last_reported":1762783848,"current_range_meters":12400,"station_id":"","pricing_plan_id":"cebpf4jnsgd1na2vs0mg"},{"bike_id":"2d003246-289e-4235-87e3-d86a55465f5e","system_id":"levelo_inurba_marseille","lat":43.29892,"lon":5.37537,"is_reserved":false,"is_disabled":false,"rental_uris":{"android":"levelo://app?vid=2d003246-289e-4235-87e3-d86a55465f5e","ios":"levelo://app?vid=2d003246-289e-4235-87e3-d86a55465f5e"},"vehicle_type_id":"4","last_reported":1762783848,"current_range_meters":12800,"station_id":"","pricing_plan_id":"cebpf4jnsgd1na2vs0mg"},{"bike_id":"ca2ef447-57e9-493d-ba43-31786b8c8787","system_id":"levelo_inurba_marseille","lat":43.29265,"lon":5.38444,"is_reserved":false,"is_disabled":false,"rental_uris":{"android":"levelo://app?vid=ca2ef447-57e9-493d-ba43-31786b8c8787","ios":"levelo://app?vid=ca2ef447-57e9-493d-ba43-31786b8c8787"},"vehicle_type_id":"4","last_reported":1762783848,"current_range_meters":12800,"station_id":"ce4bh692rcd13ifvqea0","pricing_plan_id":"cebpf4jnsgd1na2vs0mg"},{"bike_id":"29957527-d4ee-49a7-b561-7e1ae2c0cee5","system_id":"levelo_inurba_marseille","lat":43.29756,"lon":5.42786,"is_reserved":false,"is_disabled":false,"rental_uris":{"android":"levelo://app?vid=29957527-d4ee-49a7-b561-7e1ae2c0cee5","ios":"levelo://app?vid=29957527-d4ee-49a7-b561-7e1ae2c0cee5"},"vehicle_type_id":"4","last_reported":1762783848,"current_range_meters":12800,"station_id":"st_d3md5207bmas73dh9klg","pricing_plan_id":"cebpf4jnsgd1na2vs0mg"},{"bike_id":"3fe8dc5d-c387-4f1a-9c4c-484bc8924e3c","system_id":"levelo_inurba_marseille","lat":43.26205,"lon":5.405,"is_reserved":false,"is_disabled":false,"rental_uris":{"android":"levelo://app?vid=3fe8dc5d-c387-4f1a-9c4c-484bc8924e3c","ios":"levelo://app?vid=3fe8dc5d-c387-4f1a-9c4c-484bc8924e3c"},"vehicle_type_id":"4","last_reported":1762783848,"current_range_meters":12800,"station_id":"ce4bhmh2rcd13ifvqgmg","pricing_plan_id":"cebpf4jnsgd1na2vs0mg"},{"bike_id":"d331b58f-0754-4181-93f7-d4d5e2f8b496","system_id":"levelo_inurba_marseille","lat":43.225347,"lon":5.348291,"is_reserved":false,"is_disabled":false,"rental_uris":{"android":"levelo://app?vid=d331b58f-0754-4181-93f7-d4d5e2f8b496","ios":"levelo://app?vid=d331b58f-0754-4181-93f7-d4d5e2f8b496"},"vehicle_type_id":"4","last_reported":1762783848,"current_range_meters":12800,"station_id":"","pricing_plan_id":"cebpf4jnsgd1na2vs0mg"},{"bike_id":"ae74c969-5367-45a8-bef7-d2869dfbce21","system_id":"levelo_inurba_marseille","lat":43.21738,"lon":5.34607,"is_reserved":false,"is_disabled":false,"rental_uris":{"android":"levelo://app?vid=ae74c969-5367-45a8-bef7-d2869dfbce21","ios":"levelo://app?vid=ae74c969-5367-45a8-bef7-d2869dfbce21"},"vehicle_type_id":"4","last_reported":1762783848,"current_range_meters":12800,"station_id":"st_cvj6r9ubvosntc0bgbag","pricing_plan_id":"cebpf4jnsgd1na2vs0mg"},{"bike_id":"d289261c-a2f9-43a4-b105-28fa77cc26ae","system_id":"levelo_inurba_marseille","lat":43.25863,"lon":5.39895,"is_reserved":false,"is_disabled":false,"rental_uris":{"android":"levelo://app?vid=d289261c-a2f9-43a4-b105-28fa77cc26ae","ios":"levelo://app?vid=d289261c-a2f9-43a4-b105-28fa77cc26ae"},"vehicle_type_id":"4","last_reported":1762783848,"current_range_meters":12800,"station_id":"ce4bhl92rcd13ifvqghg","pricing_plan_id":"cebpf4jnsgd1na2vs0mg"},{"bike_id":"6cabc134-f7d8-4d2a-bbae-38c0c2e6cf14","system_id":"levelo_inurba_marseille","lat":43.30152,"lon":5.38093,"is_reserved":false,"is_disabled":false,"rental_uris":{"android":"levelo://app?vid=6cabc134-f7d8-4d2a-bbae-38c0c2e6cf14","ios":"levelo://app?vid=6cabc134-f7d8-4d2a-bbae-38c0c2e6cf14"},"vehicle_type_id":"4","last_reported":1762783848,"current_range_meters":13600,"station_id":"ce4bgjp2rcd13ifvqbh0","pricing_plan_id":"cebpf4jnsgd1na2vs0mg"},{"bike_id":"a2261492-19dd-44fa-8c32-b4eeed495387","system_id":"levelo_inurba_marseille","lat":43.29841,"lon":5.36291,"is_reserved":false,"is_disabled":false,"rental_uris":{"android":"levelo://app?vid=a2261492-19dd-44fa-8c32-b4eeed495387","ios":"levelo://app?vid=a2261492-19dd-44fa-8c32-b4eeed495387"},"vehicle_type_id":"4","last_reported":1762783848,"current_range_meters":13600,"station_id":"ce4bgpp2rcd13ifvqc3g","pricing_plan_id":"cebpf4jnsgd1na2vs0mg"},{"bike_id":"d6b75172-a54d-43ca-b697-6718fd745d98","system_id":"levelo_inurba_marseille","lat":43.211872,"lon":5.350793,"is_reserved":false,"is_disabled":false,"rental_uris":{"android":"levelo://app?vid=d6b75172-a54d-43ca-b697-6718fd745d98","ios":"levelo://app?vid=d6b75172-a54d-43ca-b697-6718fd745d98"},"vehicle_type_id":"4","last_reported":1762783848,"current_range_meters":13600,"station_id":"st_cvj6sg6p6f1abm77japg","pricing_plan_id":"cebpf4jnsgd1na2vs0mg"},{"bike_id":"382626dc-3189-45f7-89ad-6443fee51444","system_id":"levelo_inurba_marseille","lat":43.312469,"lon":5.36849,"is_reserved":false,"is_disabled":false,"rental_uris":{"android":"levelo://app?vid=382626dc-3189-45f7-89ad-6443fee51444","ios":"levelo://app?vid=382626dc-3189-45f7-89ad-6443fee51444"},"vehicle_type_id":"4","last_reported":1762783848,"current_range_meters":13600,"station_id":"ce4bgl92rcd13ifvqbq0","pricing_plan_id":"cebpf4jnsgd1na2vs0mg"},{"bike_id":"5e6bc625-50e1-4e62-a767-fc749456a9ff","system_id":"levelo_inurba_marseille","lat":43.301511,"lon":5.38106,"is_reserved":false,"is_disabled":false,"rental_uris":{"android":"levelo://app?vid=5e6bc625-50e1-4e62-a767-fc749456a9ff","ios":"levelo://app?vid=5e6bc625-50e1-4e62-a767-fc749456a9ff"},"vehicle_type_id":"4","last_reported":1762783848,"current_range_meters":13600,"station_id":"ce4bgjp2rcd13ifvqbh0","pricing_plan_id":"cebpf4jnsgd1na2vs0mg"},{"bike_id":"ffe050e8-e964-43f0-affe-fdb013a22c0b","system_id":"levelo_inurba_marseille","lat":43.337444,"lon":5.374475,"is_reserved":false,"is_disabled":false,"rental_uris":{"android":"levelo://app?vid=ffe050e8-e964-43f0-affe-fdb013a22c0b","ios":"levelo://app?vid=ffe050e8-e964-43f0-affe-fdb013a22c0b"},"vehicle_type_id":"4","last_reported":1762783848,"current_range_meters":13600,"station_id":"","pricing_plan_id":"cebpf4jnsgd1na2vs0mg"},{"bike_id":"6bee480e-c68e-46c7-b3b8-7f110436cc8a","system_id":"levelo_inurba_marseille","lat":43.21747,"lon":5.34596,"is_reserved":false,"is_disabled":false,"rental_uris":{"android":"levelo://app?vid=6bee480e-c68e-46c7-b3b8-7f110436cc8a","ios":"levelo://app?vid=6bee480e-c68e-46c7-b3b8-7f110436cc8a"},"vehicle_type_id":"4","last_reported":1762783848,"current_range_meters":14000,"station_id":"st_cvj6r9ubvosntc0bgbag","pricing_plan_id":"cebpf4jnsgd1na2vs0mg"},{"bike_id":"f7f8c5ec-3459-4e53-b264-869ca4568d1a","system_id":"levelo_inurba_marseille","lat":43.30899,"lon":5.36886,"is_reserved":false,"is_disabled":false,"rental_uris":{"android":"levelo://app?vid=f7f8c5ec-3459-4e53-b264-869ca4568d1a","ios":"levelo://app?vid=f7f8c5ec-3459-4e53-b264-869ca4568d1a"},"vehicle_type_id":"4","last_reported":1762783848,"current_range_meters":14000,"station_id":"ce4bgn92rcd13ifvqbvg","pricing_plan_id":"cebpf4jnsgd1na2vs0mg"},{"bike_id":"9fc59d22-8e56-48e1-b7b6-6b21b0982bb9","system_id":"levelo_inurba_marseille","lat":43.23193,"lon":5.35549,"is_reserved":false,"is_disabled":false,"rental_uris":{"android":"levelo://app?vid=9fc59d22-8e56-48e1-b7b6-6b21b0982bb9","ios":"levelo://app?vid=9fc59d22-8e56-48e1-b7b6-6b21b0982bb9"},"vehicle_type_id":"4","last_reported":1762783848,"current_range_meters":14000,"station_id":"ce4bhu92rcd13ifvqi70","pricing_plan_id":"cebpf4jnsgd1na2vs0mg"},{"bike_id":"d8b3b568-caa0-4d24-a07c-e5cf12729b4b","system_id":"levelo_inurba_marseille","lat":43.28363,"lon":5.38634,"is_reserved":false,"is_disabled":false,"rental_uris":{"android":"levelo://app?vid=d8b3b568-caa0-4d24-a07c-e5cf12729b4b","ios":"levelo://app?vid=d8b3b568-caa0-4d24-a07c-e5cf12729b4b"},"vehicle_type_id":"4","last_reported":1762783848,"current_range_meters":14000,"station_id":"ce4bh492rcd13ifvqdvg","pricing_plan_id":"cebpf4jnsgd1na2vs0mg"},{"bike_id":"3bf04d76-8a3e-4747-a598-1c1f45ccf5d2","system_id":"levelo_inurba_marseille","lat":43.303511,"lon":5.418708,"is_reserved":false,"is_disabled":false,"rental_uris":{"android":"levelo://app?vid=3bf04d76-8a3e-4747-a598-1c1f45ccf5d2","ios":"levelo://app?vid=3bf04d76-8a3e-4747-a598-1c1f45ccf5d2"},"vehicle_type_id":"4","last_reported":1762783848,"current_range_meters":14400,"station_id":"ce4bhop2rcd13ifvqh7g","pricing_plan_id":"cebpf4jnsgd1na2vs0mg"},{"bike_id":"0dc46807-733c-4644-9fb2-782197d2523d","system_id":"levelo_inurba_marseille","lat":43.301395,"lon":5.387786,"is_reserved":false,"is_disabled":false,"rental_uris":{"android":"levelo://app?vid=0dc46807-733c-4644-9fb2-782197d2523d","ios":"levelo://app?vid=0dc46807-733c-4644-9fb2-782197d2523d"},"vehicle_type_id":"4","last_reported":1762783848,"current_range_meters":14400,"station_id":"ce4bh012rcd13ifvqd00","pricing_plan_id":"cebpf4jnsgd1na2vs0mg"},{"bike_id":"81ae76cc-b801-4759-b58f-2b51d812735a","system_id":"levelo_inurba_marseille","lat":43.21745,"lon":5.34608,"is_reserved":false,"is_disabled":false,"rental_uris":{"android":"levelo://app?vid=81ae76cc-b801-4759-b58f-2b51d812735a","ios":"levelo://app?vid=81ae76cc-b801-4759-b58f-2b51d812735a"},"vehicle_type_id":"4","last_reported":1762783848,"current_range_meters":14400,"station_id":"st_cvj6r9ubvosntc0bgbag","pricing_plan_id":"cebpf4jnsgd1na2vs0mg"},{"bike_id":"0e31a6f6-01cf-461a-b016-d9d1c4df46d9","system_id":"levelo_inurba_marseille","lat":43.29088,"lon":5.38127,"is_reserved":false,"is_disabled":false,"rental_uris":{"android":"levelo://app?vid=0e31a6f6-01cf-461a-b016-d9d1c4df46d9","ios":"levelo://app?vid=0e31a6f6-01cf-461a-b016-d9d1c4df46d9"},"vehicle_type_id":"4","last_reported":1762783848,"current_range_meters":14400,"station_id":"ce4bh512rcd13ifvqe2g","pricing_plan_id":"cebpf4jnsgd1na2vs0mg"},{"bike_id":"e3ca31e7-8c60-464d-95fd-3aad12a4aaf3","system_id":"levelo_inurba_marseille","lat":43.30962,"lon":5.38294,"is_reserved":false,"is_disabled":false,"rental_uris":{"android":"levelo://app?vid=e3ca31e7-8c60-464d-95fd-3aad12a4aaf3","ios":"levelo://app?vid=e3ca31e7-8c60-464d-95fd-3aad12a4aaf3"},"vehicle_type_id":"4","last_reported":1762783848,"current_range_meters":14400,"station_id":"","pricing_plan_id":"cebpf4jnsgd1na2vs0mg"},{"bike_id":"4fb09423-6e9f-4762-8def-3e18c2268bab","system_id":"levelo_inurba_marseille","lat":43.25504,"lon":5.37654,"is_reserved":false,"is_disabled":false,"rental_uris":{"android":"levelo://app?vid=4fb09423-6e9f-4762-8def-3e18c2268bab","ios":"levelo://app?vid=4fb09423-6e9f-4762-8def-3e18c2268bab"},"vehicle_type_id":"4","last_reported":1762783848,"current_range_meters":14400,"station_id":"ce4bhh12rcd13ifvqff0","pricing_plan_id":"cebpf4jnsgd1na2vs0mg"},{"bike_id":"3a04f9c7-e08e-4429-8b60-3f57df5d4f6c","system_id":"levelo_inurba_marseille","lat":43.33163,"lon":5.37687,"is_reserved":false,"is_disabled":false,"rental_uris":{"android":"levelo://app?vid=3a04f9c7-e08e-4429-8b60-3f57df5d4f6c","ios":"levelo://app?vid=3a04f9c7-e08e-4429-8b60-3f57df5d4f6c"},"vehicle_type_id":"4","last_reported":1762783848,"current_range_meters":14400,"station_id":"st_d46cu089ee8s73dldbu0","pricing_plan_id":"cebpf4jnsgd1na2vs0mg"},{"bike_id":"1242a8d2-9346-4e57-8612-a1d9af83d2d6","system_id":"levelo_inurba_marseille","lat":43.21735,"lon":5.34609,"is_reserved":false,"is_disabled":false,"rental_uris":{"android":"levelo://app?vid=1242a8d2-9346-4e57-8612-a1d9af83d2d6","ios":"levelo://app?vid=1242a8d2-9346-4e57-8612-a1d9af83d2d6"},"vehicle_type_id":"4","last_reported":1762783848,"current_range_meters":14400,"station_id":"st_cvj6r9ubvosntc0bgbag","pricing_plan_id":"cebpf4jnsgd1na2vs0mg"},{"bike_id":"764cfc62-0782-4e60-9775-8e09756efaca","system_id":"levelo_inurba_marseille","lat":43.262144,"lon":5.374407,"is_reserved":false,"is_disabled":false,"rental_uris":{"android":"levelo://app?vid=764cfc62-0782-4e60-9775-8e09756efaca","ios":"levelo://app?vid=764cfc62-0782-4e60-9775-8e09756efaca"},"vehicle_type_id":"4","last_reported":1762783848,"current_range_meters":14800,"station_id":"ce4bhgp2rcd13ifvqfc0","pricing_plan_id":"cebpf4jnsgd1na2vs0mg"},{"bike_id":"6454c2ab-8a41-457a-b5bd-3352bdb411a8","system_id":"levelo_inurba_marseille","lat":43.283295,"lon":5.350218,"is_reserved":false,"is_disabled":false,"rental_uris":{"android":"levelo://app?vid=6454c2ab-8a41-457a-b5bd-3352bdb411a8","ios":"levelo://app?vid=6454c2ab-8a41-457a-b5bd-3352bdb411a8"},"vehicle_type_id":"4","last_reported":1762783848,"current_range_meters":14800,"station_id":"ce4bhbp2rcd13ifvqerg","pricing_plan_id":"cebpf4jnsgd1na2vs0mg"},{"bike_id":"1086c95b-b74f-4e99-9e15-ae33be8101e5","system_id":"levelo_inurba_marseille","lat":43.30109,"lon":5.37652,"is_reserved":false,"is_disabled":false,"rental_uris":{"android":"levelo://app?vid=1086c95b-b74f-4e99-9e15-ae33be8101e5","ios":"levelo://app?vid=1086c95b-b74f-4e99-9e15-ae33be8101e5"},"vehicle_type_id":"4","last_reported":1762783848,"current_range_meters":14800,"station_id":"","pricing_plan_id":"cebpf4jnsgd1na2vs0mg"},{"bike_id":"9e0a01a6-a037-44c8-9e6a-9fe856216f86","system_id":"levelo_inurba_marseille","lat":43.217475,"lon":5.346025,"is_reserved":false,"is_disabled":false,"rental_uris":{"android":"levelo://app?vid=9e0a01a6-a037-44c8-9e6a-9fe856216f86","ios":"levelo://app?vid=9e0a01a6-a037-44c8-9e6a-9fe856216f86"},"vehicle_type_id":"4","last_reported":1762783848,"current_range_meters":14800,"station_id":"st_cvj6r9ubvosntc0bgbag","pricing_plan_id":"cebpf4jnsgd1na2vs0mg"},{"bike_id":"99891c1d-9d50-4787-b2eb-1c68be846d92","system_id":"levelo_inurba_marseille","lat":43.32108,"lon":5.36787,"is_reserved":false,"is_disabled":false,"rental_uris":{"android":"levelo://app?vid=99891c1d-9d50-4787-b2eb-1c68be846d92","ios":"levelo://app?vid=99891c1d-9d50-4787-b2eb-1c68be846d92"},"vehicle_type_id":"4","last_reported":1762783848,"current_range_meters":14800,"station_id":"ce4bhrh2rcd13ifvqhug","pricing_plan_id":"cebpf4jnsgd1na2vs0mg"},{"bike_id":"3d7e3c5d-3cf8-431d-a3ee-8f6004bb3f84","system_id":"levelo_inurba_marseille","lat":43.3091,"lon":5.36843,"is_reserved":false,"is_disabled":false,"rental_uris":{"android":"levelo://app?vid=3d7e3c5d-3cf8-431d-a3ee-8f6004bb3f84","ios":"levelo://app?vid=3d7e3c5d-3cf8-431d-a3ee-8f6004bb3f84"},"vehicle_type_id":"4","last_reported":1762783848,"current_range_meters":14800,"station_id":"ce4bgn92rcd13ifvqbvg","pricing_plan_id":"cebpf4jnsgd1na2vs0mg"},{"bike_id":"bab1d297-0aed-4c46-b021-bc1fc4ba390c","system_id":"levelo_inurba_marseille","lat":43.21747,"lon":5.34622,"is_reserved":false,"is_disabled":false,"rental_uris":{"android":"levelo://app?vid=bab1d297-0aed-4c46-b021-bc1fc4ba390c","ios":"levelo://app?vid=bab1d297-0aed-4c46-b021-bc1fc4ba390c"},"vehicle_type_id":"4","last_reported":1762783848,"current_range_meters":14800,"station_id":"st_cvj6r9ubvosntc0bgbag","pricing_plan_id":"cebpf4jnsgd1na2vs0mg"},{"bike_id":"4ef56f27-b618-4191-843e-9c861890082c","system_id":"levelo_inurba_marseille","lat":43.28543,"lon":5.39272,"is_reserved":false,"is_disabled":true,"rental_uris":{"android":"levelo://app?vid=4ef56f27-b618-4191-843e-9c861890082c","ios":"levelo://app?vid=4ef56f27-b618-4191-843e-9c861890082c"},"vehicle_type_id":"4","last_reported":1762783848,"current_range_meters":14800,"station_id":"","pricing_plan_id":"cebpf4jnsgd1na2vs0mg"},{"bike_id":"a94c05b4-d038-422e-84b5-df4d48c9b320","system_id":"levelo_inurba_marseille","lat":43.283506,"lon":5.380979,"is_reserved":false,"is_disabled":false,"rental_uris":{"android":"levelo://app?vid=a94c05b4-d038-422e-84b5-df4d48c9b320","ios":"levelo://app?vid=a94c05b4-d038-422e-84b5-df4d48c9b320"},"vehicle_type_id":"4","last_reported":1762783848,"current_range_meters":15200,"station_id":"ce4bh412rcd13ifvqdr0","pricing_plan_id":"cebpf4jnsgd1na2vs0mg"},{"bike_id":"0a2fadd2-0816-4f53-ad36-842e3d13cc2e","system_id":"levelo_inurba_marseille","lat":43.2927,"lon":5.38442,"is_reserved":false,"is_disabled":false,"rental_uris":{"android":"levelo://app?vid=0a2fadd2-0816-4f53-ad36-842e3d13cc2e","ios":"levelo://app?vid=0a2fadd2-0816-4f53-ad36-842e3d13cc2e"},"vehicle_type_id":"4","last_reported":1762783848,"current_range_meters":15200,"station_id":"ce4bh692rcd13ifvqea0","pricing_plan_id":"cebpf4jnsgd1na2vs0mg"},{"bike_id":"fb0e6bea-d078-4452-905b-07db49a4858c","system_id":"levelo_inurba_marseille","lat":43.28479,"lon":5.48402,"is_reserved":false,"is_disabled":false,"rental_uris":{"android":"levelo://app?vid=fb0e6bea-d078-4452-905b-07db49a4858c","ios":"levelo://app?vid=fb0e6bea-d078-4452-905b-07db49a4858c"},"vehicle_type_id":"4","last_reported":1762783848,"current_range_meters":15200,"station_id":"","pricing_plan_id":"cebpf4jnsgd1na2vs0mg"},{"bike_id":"b0f65dd5-7080-42f8-bb3b-b5fdbbaffdce","system_id":"levelo_inurba_marseille","lat":43.23152,"lon":5.43715,"is_reserved":false,"is_disabled":false,"rental_uris":{"android":"levelo://app?vid=b0f65dd5-7080-42f8-bb3b-b5fdbbaffdce","ios":"levelo://app?vid=b0f65dd5-7080-42f8-bb3b-b5fdbbaffdce"},"vehicle_type_id":"4","last_reported":1762783848,"current_range_meters":15200,"station_id":"ce4bhmp2rcd13ifvqgog","pricing_plan_id":"cebpf4jnsgd1na2vs0mg"},{"bike_id":"9e31a918-e645-47aa-aea7-0a93a017617b","system_id":"levelo_inurba_marseille","lat":43.21182,"lon":5.35084,"is_reserved":false,"is_disabled":false,"rental_uris":{"android":"levelo://app?vid=9e31a918-e645-47aa-aea7-0a93a017617b","ios":"levelo://app?vid=9e31a918-e645-47aa-aea7-0a93a017617b"},"vehicle_type_id":"4","last_reported":1762783848,"current_range_meters":15200,"station_id":"st_cvj6sg6p6f1abm77japg","pricing_plan_id":"cebpf4jnsgd1na2vs0mg"},{"bike_id":"9be94b56-15ef-463f-ba7e-e63df6171cb1","system_id":"levelo_inurba_marseille","lat":43.217481,"lon":5.345989,"is_reserved":false,"is_disabled":false,"rental_uris":{"android":"levelo://app?vid=9be94b56-15ef-463f-ba7e-e63df6171cb1","ios":"levelo://app?vid=9be94b56-15ef-463f-ba7e-e63df6171cb1"},"vehicle_type_id":"4","last_reported":1762783848,"current_range_meters":15200,"station_id":"st_cvj6r9ubvosntc0bgbag","pricing_plan_id":"cebpf4jnsgd1na2vs0mg"},{"bike_id":"b7589c36-c725-4ae0-a367-12f6a2c5f1ef","system_id":"levelo_inurba_marseille","lat":43.29812,"lon":5.44073,"is_reserved":false,"is_disabled":false,"rental_uris":{"android":"levelo://app?vid=b7589c36-c725-4ae0-a367-12f6a2c5f1ef","ios":"levelo://app?vid=b7589c36-c725-4ae0-a367-12f6a2c5f1ef"},"vehicle_type_id":"4","last_reported":1762783848,"current_range_meters":16000,"station_id":"st_d3jp68qikq2c7381ktn0","pricing_plan_id":"cebpf4jnsgd1na2vs0mg"},{"bike_id":"2d4da948-180c-4e40-afd8-a9efd3e8d334","system_id":"levelo_inurba_marseille","lat":43.23056,"lon":5.35493,"is_reserved":false,"is_disabled":false,"rental_uris":{"android":"levelo://app?vid=2d4da948-180c-4e40-afd8-a9efd3e8d334","ios":"levelo://app?vid=2d4da948-180c-4e40-afd8-a9efd3e8d334"},"vehicle_type_id":"4","last_reported":1762783848,"current_range_meters":16000,"station_id":"cpo3342slgdg3j2ifvpg","pricing_plan_id":"cebpf4jnsgd1na2vs0mg"},{"bike_id":"42f9b2fc-c1e6-4d45-ab2b-79ad7e1e3860","system_id":"levelo_inurba_marseille","lat":43.29926,"lon":5.36538,"is_reserved":false,"is_disabled":false,"rental_uris":{"android":"levelo://app?vid=42f9b2fc-c1e6-4d45-ab2b-79ad7e1e3860","ios":"levelo://app?vid=42f9b2fc-c1e6-4d45-ab2b-79ad7e1e3860"},"vehicle_type_id":"4","last_reported":1762783848,"current_range_meters":16000,"station_id":"ce4bgm92rcd13ifvqbr0","pricing_plan_id":"cebpf4jnsgd1na2vs0mg"},{"bike_id":"693a8ac0-46fd-4fd4-b068-765c4fd7d4e0","system_id":"levelo_inurba_marseille","lat":43.31168,"lon":5.38723,"is_reserved":false,"is_disabled":false,"rental_uris":{"android":"levelo://app?vid=693a8ac0-46fd-4fd4-b068-765c4fd7d4e0","ios":"levelo://app?vid=693a8ac0-46fd-4fd4-b068-765c4fd7d4e0"},"vehicle_type_id":"4","last_reported":1762783848,"current_range_meters":16000,"station_id":"ce4bgv12rcd13ifvqcp0","pricing_plan_id":"cebpf4jnsgd1na2vs0mg"},{"bike_id":"180a70a9-8924-4885-9ca3-10c578c02589","system_id":"levelo_inurba_marseille","lat":43.22537,"lon":5.348321,"is_reserved":false,"is_disabled":false,"rental_uris":{"android":"levelo://app?vid=180a70a9-8924-4885-9ca3-10c578c02589","ios":"levelo://app?vid=180a70a9-8924-4885-9ca3-10c578c02589"},"vehicle_type_id":"4","last_reported":1762783848,"current_range_meters":16000,"station_id":"","pricing_plan_id":"cebpf4jnsgd1na2vs0mg"},{"bike_id":"7bf7ce2d-a8b1-46cb-8d0b-478a3f2c3d3f","system_id":"levelo_inurba_marseille","lat":43.29756,"lon":5.42774,"is_reserved":false,"is_disabled":false,"rental_uris":{"android":"levelo://app?vid=7bf7ce2d-a8b1-46cb-8d0b-478a3f2c3d3f","ios":"levelo://app?vid=7bf7ce2d-a8b1-46cb-8d0b-478a3f2c3d3f"},"vehicle_type_id":"4","last_reported":1762783848,"current_range_meters":16000,"station_id":"st_d3md5207bmas73dh9klg","pricing_plan_id":"cebpf4jnsgd1na2vs0mg"},{"bike_id":"5173966d-3921-48b2-b7f1-a29c251a52d5","system_id":"levelo_inurba_marseille","lat":43.28482,"lon":5.38543,"is_reserved":false,"is_disabled":false,"rental_uris":{"android":"levelo://app?vid=5173966d-3921-48b2-b7f1-a29c251a52d5","ios":"levelo://app?vid=5173966d-3921-48b2-b7f1-a29c251a52d5"},"vehicle_type_id":"4","last_reported":1762783848,"current_range_meters":16000,"station_id":"ce4bh8p2rcd13ifvqeb0","pricing_plan_id":"cebpf4jnsgd1na2vs0mg"},{"bike_id":"8e68222b-ca1a-4572-ab49-5c947856ba7c","system_id":"levelo_inurba_marseille","lat":43.24544,"lon":5.39521,"is_reserved":false,"is_disabled":false,"rental_uris":{"android":"levelo://app?vid=8e68222b-ca1a-4572-ab49-5c947856ba7c","ios":"levelo://app?vid=8e68222b-ca1a-4572-ab49-5c947856ba7c"},"vehicle_type_id":"4","last_reported":1762783848,"current_range_meters":16000,"station_id":"ce4bhlp2rcd13ifvqgjg","pricing_plan_id":"cebpf4jnsgd1na2vs0mg"},{"bike_id":"50bd906f-f66c-4773-8e69-65d41802e55d","system_id":"levelo_inurba_marseille","lat":43.22533,"lon":5.34834,"is_reserved":false,"is_disabled":false,"rental_uris":{"android":"levelo://app?vid=50bd906f-f66c-4773-8e69-65d41802e55d","ios":"levelo://app?vid=50bd906f-f66c-4773-8e69-65d41802e55d"},"vehicle_type_id":"4","last_reported":1762783848,"current_range_meters":16400,"station_id":"","pricing_plan_id":"cebpf4jnsgd1na2vs0mg"},{"bike_id":"4b68d13f-f5d9-4b23-871f-a9d0ced8871b","system_id":"levelo_inurba_marseille","lat":43.3123,"lon":5.37874,"is_reserved":false,"is_disabled":false,"rental_uris":{"android":"levelo://app?vid=4b68d13f-f5d9-4b23-871f-a9d0ced8871b","ios":"levelo://app?vid=4b68d13f-f5d9-4b23-871f-a9d0ced8871b"},"vehicle_type_id":"4","last_reported":1762783848,"current_range_meters":16400,"station_id":"","pricing_plan_id":"cebpf4jnsgd1na2vs0mg"},{"bike_id":"99d9d76d-d94f-48e3-abc3-f50dd41e3269","system_id":"levelo_inurba_marseille","lat":43.31141,"lon":5.3834,"is_reserved":false,"is_disabled":false,"rental_uris":{"android":"levelo://app?vid=99d9d76d-d94f-48e3-abc3-f50dd41e3269","ios":"levelo://app?vid=99d9d76d-d94f-48e3-abc3-f50dd41e3269"},"vehicle_type_id":"4","last_reported":1762783848,"current_range_meters":16400,"station_id":"","pricing_plan_id":"cebpf4jnsgd1na2vs0mg"},{"bike_id":"2d2a37da-93cc-474a-aae8-90916753a030","system_id":"levelo_inurba_marseille","lat":43.24062,"lon":5.37757,"is_reserved":false,"is_disabled":false,"rental_uris":{"android":"levelo://app?vid=2d2a37da-93cc-474a-aae8-90916753a030","ios":"levelo://app?vid=2d2a37da-93cc-474a-aae8-90916753a030"},"vehicle_type_id":"4","last_reported":1762783848,"current_range_meters":16400,"station_id":"ce4bhnp2rcd13ifvqgvg","pricing_plan_id":"cebpf4jnsgd1na2vs0mg"},{"bike_id":"f46ad7eb-f85b-4432-be90-167e726c28e3","system_id":"levelo_inurba_marseille","lat":43.23135,"lon":5.43725,"is_reserved":false,"is_disabled":false,"rental_uris":{"android":"levelo://app?vid=f46ad7eb-f85b-4432-be90-167e726c28e3","ios":"levelo://app?vid=f46ad7eb-f85b-4432-be90-167e726c28e3"},"vehicle_type_id":"4","last_reported":1762783848,"current_range_meters":16400,"station_id":"ce4bhmp2rcd13ifvqgog","pricing_plan_id":"cebpf4jnsgd1na2vs0mg"},{"bike_id":"7f14d21d-9e16-4961-9d70-b10fd067921a","system_id":"levelo_inurba_marseille","lat":43.217475,"lon":5.346026,"is_reserved":false,"is_disabled":false,"rental_uris":{"android":"levelo://app?vid=7f14d21d-9e16-4961-9d70-b10fd067921a","ios":"levelo://app?vid=7f14d21d-9e16-4961-9d70-b10fd067921a"},"vehicle_type_id":"4","last_reported":1762783848,"current_range_meters":16400,"station_id":"st_cvj6r9ubvosntc0bgbag","pricing_plan_id":"cebpf4jnsgd1na2vs0mg"},{"bike_id":"096cdd72-f6cf-4a1a-9fed-102492f9041f","system_id":"levelo_inurba_marseille","lat":43.23183,"lon":5.39975,"is_reserved":false,"is_disabled":false,"rental_uris":{"android":"levelo://app?vid=096cdd72-f6cf-4a1a-9fed-102492f9041f","ios":"levelo://app?vid=096cdd72-f6cf-4a1a-9fed-102492f9041f"},"vehicle_type_id":"4","last_reported":1762783848,"current_range_meters":16400,"station_id":"ce4bhn12rcd13ifvqgqg","pricing_plan_id":"cebpf4jnsgd1na2vs0mg"},{"bike_id":"3a4c0ecf-6d30-4898-a13c-eea1f39bdd00","system_id":"levelo_inurba_marseille","lat":43.28993,"lon":5.35613,"is_reserved":false,"is_disabled":false,"rental_uris":{"android":"levelo://app?vid=3a4c0ecf-6d30-4898-a13c-eea1f39bdd00","ios":"levelo://app?vid=3a4c0ecf-6d30-4898-a13c-eea1f39bdd00"},"vehicle_type_id":"4","last_reported":1762783848,"current_range_meters":16400,"station_id":"ce4bhb92rcd13ifvqen0","pricing_plan_id":"cebpf4jnsgd1na2vs0mg"},{"bike_id":"2a6bf930-93f8-4fcb-a805-f30f695f94aa","system_id":"levelo_inurba_marseille","lat":43.32043,"lon":5.41544,"is_reserved":false,"is_disabled":false,"rental_uris":{"android":"levelo://app?vid=2a6bf930-93f8-4fcb-a805-f30f695f94aa","ios":"levelo://app?vid=2a6bf930-93f8-4fcb-a805-f30f695f94aa"},"vehicle_type_id":"4","last_reported":1762783848,"current_range_meters":16400,"station_id":"ce4bhq92rcd13ifvqhkg","pricing_plan_id":"cebpf4jnsgd1na2vs0mg"},{"bike_id":"cf974fbf-4917-4fa2-8011-f52b0026513d","system_id":"levelo_inurba_marseille","lat":43.2989,"lon":5.38894,"is_reserved":false,"is_disabled":false,"rental_uris":{"android":"levelo://app?vid=cf974fbf-4917-4fa2-8011-f52b0026513d","ios":"levelo://app?vid=cf974fbf-4917-4fa2-8011-f52b0026513d"},"vehicle_type_id":"4","last_reported":1762783848,"current_range_meters":16800,"station_id":"ce4bh392rcd13ifvqdl0","pricing_plan_id":"cebpf4jnsgd1na2vs0mg"},{"bike_id":"eb981f96-c1a6-4158-ab39-357b040342db","system_id":"levelo_inurba_marseille","lat":43.27492,"lon":5.42472,"is_reserved":false,"is_disabled":false,"rental_uris":{"android":"levelo://app?vid=eb981f96-c1a6-4158-ab39-357b040342db","ios":"levelo://app?vid=eb981f96-c1a6-4158-ab39-357b040342db"},"vehicle_type_id":"4","last_reported":1762783848,"current_range_meters":16800,"station_id":"ce4bhn92rcd13ifvqgrg","pricing_plan_id":"cebpf4jnsgd1na2vs0mg"},{"bike_id":"0792b3de-a617-4e0f-9ad5-6401a677bb8a","system_id":"levelo_inurba_marseille","lat":43.28997,"lon":5.35605,"is_reserved":false,"is_disabled":false,"rental_uris":{"android":"levelo://app?vid=0792b3de-a617-4e0f-9ad5-6401a677bb8a","ios":"levelo://app?vid=0792b3de-a617-4e0f-9ad5-6401a677bb8a"},"vehicle_type_id":"4","last_reported":1762783848,"current_range_meters":16800,"station_id":"ce4bhb92rcd13ifvqen0","pricing_plan_id":"cebpf4jnsgd1na2vs0mg"},{"bike_id":"a652226a-9d72-4fbd-badc-7063b09062fd","system_id":"levelo_inurba_marseille","lat":43.26053,"lon":5.39399,"is_reserved":false,"is_disabled":false,"rental_uris":{"android":"levelo://app?vid=a652226a-9d72-4fbd-badc-7063b09062fd","ios":"levelo://app?vid=a652226a-9d72-4fbd-badc-7063b09062fd"},"vehicle_type_id":"4","last_reported":1762783848,"current_range_meters":16800,"station_id":"ce4bhh92rcd13ifvqfj0","pricing_plan_id":"cebpf4jnsgd1na2vs0mg"},{"bike_id":"1016aac3-b163-4bd4-b914-896c361c935b","system_id":"levelo_inurba_marseille","lat":43.32114,"lon":5.3885,"is_reserved":false,"is_disabled":false,"rental_uris":{"android":"levelo://app?vid=1016aac3-b163-4bd4-b914-896c361c935b","ios":"levelo://app?vid=1016aac3-b163-4bd4-b914-896c361c935b"},"vehicle_type_id":"4","last_reported":1762783848,"current_range_meters":16800,"station_id":"","pricing_plan_id":"cebpf4jnsgd1na2vs0mg"},{"bike_id":"9d9191b0-d53e-4117-b688-275a1987775b","system_id":"levelo_inurba_marseille","lat":43.3015,"lon":5.38088,"is_reserved":false,"is_disabled":false,"rental_uris":{"android":"levelo://app?vid=9d9191b0-d53e-4117-b688-275a1987775b","ios":"levelo://app?vid=9d9191b0-d53e-4117-b688-275a1987775b"},"vehicle_type_id":"4","last_reported":1762783848,"current_range_meters":16800,"station_id":"ce4bgjp2rcd13ifvqbh0","pricing_plan_id":"cebpf4jnsgd1na2vs0mg"},{"bike_id":"a33005c1-f643-4adb-8bee-fa011c7be68c","system_id":"levelo_inurba_marseille","lat":43.225311,"lon":5.348257,"is_reserved":false,"is_disabled":false,"rental_uris":{"android":"levelo://app?vid=a33005c1-f643-4adb-8bee-fa011c7be68c","ios":"levelo://app?vid=a33005c1-f643-4adb-8bee-fa011c7be68c"},"vehicle_type_id":"4","last_reported":1762783848,"current_range_meters":16800,"station_id":"","pricing_plan_id":"cebpf4jnsgd1na2vs0mg"},{"bike_id":"0001f610-ee0b-4dfa-a101-19ef82b4afb7","system_id":"levelo_inurba_marseille","lat":43.29799,"lon":5.44107,"is_reserved":false,"is_disabled":false,"rental_uris":{"android":"levelo://app?vid=0001f610-ee0b-4dfa-a101-19ef82b4afb7","ios":"levelo://app?vid=0001f610-ee0b-4dfa-a101-19ef82b4afb7"},"vehicle_type_id":"4","last_reported":1762783848,"current_range_meters":16800,"station_id":"st_d3jp68qikq2c7381ktn0","pricing_plan_id":"cebpf4jnsgd1na2vs0mg"},{"bike_id":"8f21b9ac-b65e-4748-b416-37733cdb3485","system_id":"levelo_inurba_marseille","lat":43.289935,"lon":5.356134,"is_reserved":false,"is_disabled":false,"rental_uris":{"android":"levelo://app?vid=8f21b9ac-b65e-4748-b416-37733cdb3485","ios":"levelo://app?vid=8f21b9ac-b65e-4748-b416-37733cdb3485"},"vehicle_type_id":"4","last_reported":1762783848,"current_range_meters":16800,"station_id":"","pricing_plan_id":"cebpf4jnsgd1na2vs0mg"},{"bike_id":"9bb03971-d451-4bf5-aa8e-213181bb15c5","system_id":"levelo_inurba_marseille","lat":43.29918,"lon":5.37467,"is_reserved":false,"is_disabled":false,"rental_uris":{"android":"levelo://app?vid=9bb03971-d451-4bf5-aa8e-213181bb15c5","ios":"levelo://app?vid=9bb03971-d451-4bf5-aa8e-213181bb15c5"},"vehicle_type_id":"4","last_reported":1762783848,"current_range_meters":16800,"station_id":"ce4bgjh2rcd13ifvqbg0","pricing_plan_id":"cebpf4jnsgd1na2vs0mg"},{"bike_id":"5812481a-ba7e-425c-b2a4-09283d0f2939","system_id":"levelo_inurba_marseille","lat":43.27998,"lon":5.40016,"is_reserved":false,"is_disabled":false,"rental_uris":{"android":"levelo://app?vid=5812481a-ba7e-425c-b2a4-09283d0f2939","ios":"levelo://app?vid=5812481a-ba7e-425c-b2a4-09283d0f2939"},"vehicle_type_id":"4","last_reported":1762783848,"current_range_meters":16800,"station_id":"ce4bho92rcd13ifvqh4g","pricing_plan_id":"cebpf4jnsgd1na2vs0mg"},{"bike_id":"c87d9473-1204-439b-9d46-9a7b7abc1a2a","system_id":"levelo_inurba_marseille","lat":43.26491,"lon":5.39539,"is_reserved":false,"is_disabled":false,"rental_uris":{"android":"levelo://app?vid=c87d9473-1204-439b-9d46-9a7b7abc1a2a","ios":"levelo://app?vid=c87d9473-1204-439b-9d46-9a7b7abc1a2a"},"vehicle_type_id":"4","last_reported":1762783848,"current_range_meters":16800,"station_id":"ce4bhi12rcd13ifvqfq0","pricing_plan_id":"cebpf4jnsgd1na2vs0mg"},{"bike_id":"b4d94b7a-33d4-48be-978b-c2068d4f96f5","system_id":"levelo_inurba_marseille","lat":43.301981,"lon":5.38229,"is_reserved":false,"is_disabled":false,"rental_uris":{"android":"levelo://app?vid=b4d94b7a-33d4-48be-978b-c2068d4f96f5","ios":"levelo://app?vid=b4d94b7a-33d4-48be-978b-c2068d4f96f5"},"vehicle_type_id":"4","last_reported":1762783848,"current_range_meters":16800,"station_id":"ce4bgjp2rcd13ifvqbh0","pricing_plan_id":"cebpf4jnsgd1na2vs0mg"},{"bike_id":"8db29058-1744-4cee-9b65-4519fa9c98ac","system_id":"levelo_inurba_marseille","lat":43.21741,"lon":5.34615,"is_reserved":false,"is_disabled":false,"rental_uris":{"android":"levelo://app?vid=8db29058-1744-4cee-9b65-4519fa9c98ac","ios":"levelo://app?vid=8db29058-1744-4cee-9b65-4519fa9c98ac"},"vehicle_type_id":"4","last_reported":1762783848,"current_range_meters":17200,"station_id":"st_cvj6r9ubvosntc0bgbag","pricing_plan_id":"cebpf4jnsgd1na2vs0mg"},{"bike_id":"c80766a6-aa9a-4c09-88b6-397546065fcc","system_id":"levelo_inurba_marseille","lat":43.232,"lon":5.35558,"is_reserved":false,"is_disabled":false,"rental_uris":{"android":"levelo://app?vid=c80766a6-aa9a-4c09-88b6-397546065fcc","ios":"levelo://app?vid=c80766a6-aa9a-4c09-88b6-397546065fcc"},"vehicle_type_id":"4","last_reported":1762783848,"current_range_meters":17200,"station_id":"ce4bhu92rcd13ifvqi70","pricing_plan_id":"cebpf4jnsgd1na2vs0mg"},{"bike_id":"4cae9d5c-a24c-41f1-9f54-aaa487e732a6","system_id":"levelo_inurba_marseille","lat":43.29944,"lon":5.38201,"is_reserved":false,"is_disabled":false,"rental_uris":{"android":"levelo://app?vid=4cae9d5c-a24c-41f1-9f54-aaa487e732a6","ios":"levelo://app?vid=4cae9d5c-a24c-41f1-9f54-aaa487e732a6"},"vehicle_type_id":"4","last_reported":1762783848,"current_range_meters":17200,"station_id":"","pricing_plan_id":"cebpf4jnsgd1na2vs0mg"},{"bike_id":"6ae87b41-3981-4b69-b43c-0b6bde62265a","system_id":"levelo_inurba_marseille","lat":43.33777,"lon":5.37436,"is_reserved":false,"is_disabled":false,"rental_uris":{"android":"levelo://app?vid=6ae87b41-3981-4b69-b43c-0b6bde62265a","ios":"levelo://app?vid=6ae87b41-3981-4b69-b43c-0b6bde62265a"},"vehicle_type_id":"4","last_reported":1762783848,"current_range_meters":17200,"station_id":"","pricing_plan_id":"cebpf4jnsgd1na2vs0mg"},{"bike_id":"42bbdb4f-c9b7-4299-b4a6-0178a6a32bf3","system_id":"levelo_inurba_marseille","lat":43.31819,"lon":5.37433,"is_reserved":false,"is_disabled":false,"rental_uris":{"android":"levelo://app?vid=42bbdb4f-c9b7-4299-b4a6-0178a6a32bf3","ios":"levelo://app?vid=42bbdb4f-c9b7-4299-b4a6-0178a6a32bf3"},"vehicle_type_id":"4","last_reported":1762783848,"current_range_meters":17200,"station_id":"","pricing_plan_id":"cebpf4jnsgd1na2vs0mg"},{"bike_id":"a506955a-debf-4b40-a307-aa2bd90a16c0","system_id":"levelo_inurba_marseille","lat":43.28923,"lon":5.38407,"is_reserved":false,"is_disabled":false,"rental_uris":{"android":"levelo://app?vid=a506955a-debf-4b40-a307-aa2bd90a16c0","ios":"levelo://app?vid=a506955a-debf-4b40-a307-aa2bd90a16c0"},"vehicle_type_id":"4","last_reported":1762783848,"current_range_meters":17200,"station_id":"ce4bh612rcd13ifvqe6g","pricing_plan_id":"cebpf4jnsgd1na2vs0mg"},{"bike_id":"122bdab4-68f6-41de-a130-9cd3d01ccdfd","system_id":"levelo_inurba_marseille","lat":43.22533,"lon":5.34829,"is_reserved":false,"is_disabled":false,"rental_uris":{"android":"levelo://app?vid=122bdab4-68f6-41de-a130-9cd3d01ccdfd","ios":"levelo://app?vid=122bdab4-68f6-41de-a130-9cd3d01ccdfd"},"vehicle_type_id":"4","last_reported":1762783848,"current_range_meters":17200,"station_id":"","pricing_plan_id":"cebpf4jnsgd1na2vs0mg"},{"bike_id":"7560e695-60e0-431d-a83a-963ddf5e3590","system_id":"levelo_inurba_marseille","lat":43.30447,"lon":5.3792,"is_reserved":false,"is_disabled":false,"rental_uris":{"android":"levelo://app?vid=7560e695-60e0-431d-a83a-963ddf5e3590","ios":"levelo://app?vid=7560e695-60e0-431d-a83a-963ddf5e3590"},"vehicle_type_id":"4","last_reported":1762783848,"current_range_meters":17200,"station_id":"ce4bgup2rcd13ifvqcn0","pricing_plan_id":"cebpf4jnsgd1na2vs0mg"},{"bike_id":"b15275c6-e462-4a0a-8caf-77a2cc56d365","system_id":"levelo_inurba_marseille","lat":43.21184,"lon":5.35071,"is_reserved":false,"is_disabled":false,"rental_uris":{"android":"levelo://app?vid=b15275c6-e462-4a0a-8caf-77a2cc56d365","ios":"levelo://app?vid=b15275c6-e462-4a0a-8caf-77a2cc56d365"},"vehicle_type_id":"4","last_reported":1762783848,"current_range_meters":17200,"station_id":"st_cvj6sg6p6f1abm77japg","pricing_plan_id":"cebpf4jnsgd1na2vs0mg"},{"bike_id":"ea88b474-8b01-4542-ab09-6ab2ff602a2c","system_id":"levelo_inurba_marseille","lat":43.217358,"lon":5.34599,"is_reserved":false,"is_disabled":false,"rental_uris":{"android":"levelo://app?vid=ea88b474-8b01-4542-ab09-6ab2ff602a2c","ios":"levelo://app?vid=ea88b474-8b01-4542-ab09-6ab2ff602a2c"},"vehicle_type_id":"4","last_reported":1762783848,"current_range_meters":17200,"station_id":"st_cvj6r9ubvosntc0bgbag","pricing_plan_id":"cebpf4jnsgd1na2vs0mg"},{"bike_id":"c28654ef-e0a6-47cb-a0fc-615c6eef425f","system_id":"levelo_inurba_marseille","lat":43.29014,"lon":5.38163,"is_reserved":false,"is_disabled":false,"rental_uris":{"android":"levelo://app?vid=c28654ef-e0a6-47cb-a0fc-615c6eef425f","ios":"levelo://app?vid=c28654ef-e0a6-47cb-a0fc-615c6eef425f"},"vehicle_type_id":"4","last_reported":1762783848,"current_range_meters":17600,"station_id":"ce4bh4p2rcd13ifvqe1g","pricing_plan_id":"cebpf4jnsgd1na2vs0mg"},{"bike_id":"efe72f7d-3d8e-4211-a587-a3b9db8d809a","system_id":"levelo_inurba_marseille","lat":43.26784,"lon":5.39415,"is_reserved":false,"is_disabled":false,"rental_uris":{"android":"levelo://app?vid=efe72f7d-3d8e-4211-a587-a3b9db8d809a","ios":"levelo://app?vid=efe72f7d-3d8e-4211-a587-a3b9db8d809a"},"vehicle_type_id":"4","last_reported":1762783848,"current_range_meters":17600,"station_id":"ce4bhh12rcd13ifvqfg0","pricing_plan_id":"cebpf4jnsgd1na2vs0mg"},{"bike_id":"09880af0-899c-427e-bfec-ab0fdb229c89","system_id":"levelo_inurba_marseille","lat":43.30898,"lon":5.36731,"is_reserved":false,"is_disabled":false,"rental_uris":{"android":"levelo://app?vid=09880af0-899c-427e-bfec-ab0fdb229c89","ios":"levelo://app?vid=09880af0-899c-427e-bfec-ab0fdb229c89"},"vehicle_type_id":"4","last_reported":1762783848,"current_range_meters":17600,"station_id":"","pricing_plan_id":"cebpf4jnsgd1na2vs0mg"},{"bike_id":"a1841d02-b053-4f88-89ac-a2a3e0997d3f","system_id":"levelo_inurba_marseille","lat":43.21729,"lon":5.34616,"is_reserved":false,"is_disabled":false,"rental_uris":{"android":"levelo://app?vid=a1841d02-b053-4f88-89ac-a2a3e0997d3f","ios":"levelo://app?vid=a1841d02-b053-4f88-89ac-a2a3e0997d3f"},"vehicle_type_id":"4","last_reported":1762783848,"current_range_meters":17600,"station_id":"st_cvj6r9ubvosntc0bgbag","pricing_plan_id":"cebpf4jnsgd1na2vs0mg"},{"bike_id":"3e7bbb98-77d7-4b96-995c-d3e56f12c51d","system_id":"levelo_inurba_marseille","lat":43.21741,"lon":5.34616,"is_reserved":false,"is_disabled":false,"rental_uris":{"android":"levelo://app?vid=3e7bbb98-77d7-4b96-995c-d3e56f12c51d","ios":"levelo://app?vid=3e7bbb98-77d7-4b96-995c-d3e56f12c51d"},"vehicle_type_id":"4","last_reported":1762783848,"current_range_meters":17600,"station_id":"st_cvj6r9ubvosntc0bgbag","pricing_plan_id":"cebpf4jnsgd1na2vs0mg"},{"bike_id":"339719f7-df72-4245-8395-f7ad2766da21","system_id":"levelo_inurba_marseille","lat":43.31275,"lon":5.40179,"is_reserved":false,"is_disabled":false,"rental_uris":{"android":"levelo://app?vid=339719f7-df72-4245-8395-f7ad2766da21","ios":"levelo://app?vid=339719f7-df72-4245-8395-f7ad2766da21"},"vehicle_type_id":"4","last_reported":1762783848,"current_range_meters":17600,"station_id":"ce4bh092rcd13ifvqd30","pricing_plan_id":"cebpf4jnsgd1na2vs0mg"},{"bike_id":"851e52a7-7701-41a2-9335-4b4a9404896b","system_id":"levelo_inurba_marseille","lat":43.2981,"lon":5.44072,"is_reserved":false,"is_disabled":false,"rental_uris":{"android":"levelo://app?vid=851e52a7-7701-41a2-9335-4b4a9404896b","ios":"levelo://app?vid=851e52a7-7701-41a2-9335-4b4a9404896b"},"vehicle_type_id":"4","last_reported":1762783848,"current_range_meters":17600,"station_id":"st_d3jp68qikq2c7381ktn0","pricing_plan_id":"cebpf4jnsgd1na2vs0mg"},{"bike_id":"9d17da99-70bb-4b67-8039-45f6b860f755","system_id":"levelo_inurba_marseille","lat":43.3014,"lon":5.37427,"is_reserved":false,"is_disabled":false,"rental_uris":{"android":"levelo://app?vid=9d17da99-70bb-4b67-8039-45f6b860f755","ios":"levelo://app?vid=9d17da99-70bb-4b67-8039-45f6b860f755"},"vehicle_type_id":"4","last_reported":1762783848,"current_range_meters":18000,"station_id":"ce4bgs92rcd13ifvqcc0","pricing_plan_id":"cebpf4jnsgd1na2vs0mg"},{"bike_id":"9b074fe4-3bb3-4006-bfd4-2e3156b0f4f1","system_id":"levelo_inurba_marseille","lat":43.2985,"lon":5.36285,"is_reserved":false,"is_disabled":false,"rental_uris":{"android":"levelo://app?vid=9b074fe4-3bb3-4006-bfd4-2e3156b0f4f1","ios":"levelo://app?vid=9b074fe4-3bb3-4006-bfd4-2e3156b0f4f1"},"vehicle_type_id":"4","last_reported":1762783848,"current_range_meters":18000,"station_id":"ce4bgpp2rcd13ifvqc3g","pricing_plan_id":"cebpf4jnsgd1na2vs0mg"},{"bike_id":"e42ae780-88f7-4976-bd6c-142242483cf6","system_id":"levelo_inurba_marseille","lat":43.21191,"lon":5.35072,"is_reserved":false,"is_disabled":false,"rental_uris":{"android":"levelo://app?vid=e42ae780-88f7-4976-bd6c-142242483cf6","ios":"levelo://app?vid=e42ae780-88f7-4976-bd6c-142242483cf6"},"vehicle_type_id":"4","last_reported":1762783848,"current_range_meters":18000,"station_id":"st_cvj6sg6p6f1abm77japg","pricing_plan_id":"cebpf4jnsgd1na2vs0mg"},{"bike_id":"d610cd16-c813-406e-bee7-295ec8ce6047","system_id":"levelo_inurba_marseille","lat":43.31096,"lon":5.36949,"is_reserved":false,"is_disabled":false,"rental_uris":{"android":"levelo://app?vid=d610cd16-c813-406e-bee7-295ec8ce6047","ios":"levelo://app?vid=d610cd16-c813-406e-bee7-295ec8ce6047"},"vehicle_type_id":"4","last_reported":1762783848,"current_range_meters":18000,"station_id":"","pricing_plan_id":"cebpf4jnsgd1na2vs0mg"},{"bike_id":"9122f5db-1c29-45cf-8c6f-693bf9c6818f","system_id":"levelo_inurba_marseille","lat":43.2407,"lon":5.3777,"is_reserved":false,"is_disabled":false,"rental_uris":{"android":"levelo://app?vid=9122f5db-1c29-45cf-8c6f-693bf9c6818f","ios":"levelo://app?vid=9122f5db-1c29-45cf-8c6f-693bf9c6818f"},"vehicle_type_id":"4","last_reported":1762783848,"current_range_meters":18000,"station_id":"ce4bhnp2rcd13ifvqgvg","pricing_plan_id":"cebpf4jnsgd1na2vs0mg"},{"bike_id":"5eb28dc9-1056-4fe2-a3f0-4c13efc57df0","system_id":"levelo_inurba_marseille","lat":43.25926,"lon":5.40912,"is_reserved":false,"is_disabled":true,"rental_uris":{"android":"levelo://app?vid=5eb28dc9-1056-4fe2-a3f0-4c13efc57df0","ios":"levelo://app?vid=5eb28dc9-1056-4fe2-a3f0-4c13efc57df0"},"vehicle_type_id":"4","last_reported":1762783848,"current_range_meters":18000,"station_id":"ce4bhm92rcd13ifvqglg","pricing_plan_id":"cebpf4jnsgd1na2vs0mg"},{"bike_id":"9910f78d-0d00-41eb-bf2f-05498043d9ab","system_id":"levelo_inurba_marseille","lat":43.29941,"lon":5.36544,"is_reserved":false,"is_disabled":false,"rental_uris":{"android":"levelo://app?vid=9910f78d-0d00-41eb-bf2f-05498043d9ab","ios":"levelo://app?vid=9910f78d-0d00-41eb-bf2f-05498043d9ab"},"vehicle_type_id":"4","last_reported":1762783848,"current_range_meters":18000,"station_id":"ce4bgm92rcd13ifvqbr0","pricing_plan_id":"cebpf4jnsgd1na2vs0mg"},{"bike_id":"5dbd84dd-cc46-4566-b300-5ee5796603c8","system_id":"levelo_inurba_marseille","lat":43.2959,"lon":5.3675,"is_reserved":false,"is_disabled":false,"rental_uris":{"android":"levelo://app?vid=5dbd84dd-cc46-4566-b300-5ee5796603c8","ios":"levelo://app?vid=5dbd84dd-cc46-4566-b300-5ee5796603c8"},"vehicle_type_id":"4","last_reported":1762783848,"current_range_meters":18000,"station_id":"ce4bgph2rcd13ifvqc2g","pricing_plan_id":"cebpf4jnsgd1na2vs0mg"},{"bike_id":"413856cf-522d-461d-a863-50732c1e855f","system_id":"levelo_inurba_marseille","lat":43.24073,"lon":5.37735,"is_reserved":false,"is_disabled":false,"rental_uris":{"android":"levelo://app?vid=413856cf-522d-461d-a863-50732c1e855f","ios":"levelo://app?vid=413856cf-522d-461d-a863-50732c1e855f"},"vehicle_type_id":"4","last_reported":1762783848,"current_range_meters":18800,"station_id":"ce4bhnp2rcd13ifvqgvg","pricing_plan_id":"cebpf4jnsgd1na2vs0mg"},{"bike_id":"3c00ef6b-ee47-4053-a130-c7c873f85077","system_id":"levelo_inurba_marseille","lat":43.305264,"lon":5.384175,"is_reserved":false,"is_disabled":false,"rental_uris":{"android":"levelo://app?vid=3c00ef6b-ee47-4053-a130-c7c873f85077","ios":"levelo://app?vid=3c00ef6b-ee47-4053-a130-c7c873f85077"},"vehicle_type_id":"4","last_reported":1762783848,"current_range_meters":18800,"station_id":"ce4bgg92rcd13ifvqb30","pricing_plan_id":"cebpf4jnsgd1na2vs0mg"},{"bike_id":"43661bb1-a889-477c-9b1e-7f6c51978d5f","system_id":"levelo_inurba_marseille","lat":43.25577,"lon":5.38246,"is_reserved":false,"is_disabled":false,"rental_uris":{"android":"levelo://app?vid=43661bb1-a889-477c-9b1e-7f6c51978d5f","ios":"levelo://app?vid=43661bb1-a889-477c-9b1e-7f6c51978d5f"},"vehicle_type_id":"4","last_reported":1762783848,"current_range_meters":18800,"station_id":"ce4bhih2rcd13ifvqfs0","pricing_plan_id":"cebpf4jnsgd1na2vs0mg"},{"bike_id":"e2ae78b6-0e45-4d14-be67-9fe3a6a70a8e","system_id":"levelo_inurba_marseille","lat":43.28973,"lon":5.37839,"is_reserved":false,"is_disabled":true,"rental_uris":{"android":"levelo://app?vid=e2ae78b6-0e45-4d14-be67-9fe3a6a70a8e","ios":"levelo://app?vid=e2ae78b6-0e45-4d14-be67-9fe3a6a70a8e"},"vehicle_type_id":"4","last_reported":1762783848,"current_range_meters":18800,"station_id":"ce4bh9p2rcd13ifvqed0","pricing_plan_id":"cebpf4jnsgd1na2vs0mg"},{"bike_id":"b74c1b90-f0e7-4590-9b4e-fded9dc27f03","system_id":"levelo_inurba_marseille","lat":43.21747,"lon":5.34607,"is_reserved":false,"is_disabled":false,"rental_uris":{"android":"levelo://app?vid=b74c1b90-f0e7-4590-9b4e-fded9dc27f03","ios":"levelo://app?vid=b74c1b90-f0e7-4590-9b4e-fded9dc27f03"},"vehicle_type_id":"4","last_reported":1762783848,"current_range_meters":18800,"station_id":"st_cvj6r9ubvosntc0bgbag","pricing_plan_id":"cebpf4jnsgd1na2vs0mg"},{"bike_id":"4ee5411e-71be-4fd2-8ff3-66ebe7421104","system_id":"levelo_inurba_marseille","lat":43.21743,"lon":5.34605,"is_reserved":false,"is_disabled":false,"rental_uris":{"android":"levelo://app?vid=4ee5411e-71be-4fd2-8ff3-66ebe7421104","ios":"levelo://app?vid=4ee5411e-71be-4fd2-8ff3-66ebe7421104"},"vehicle_type_id":"4","last_reported":1762783848,"current_range_meters":18800,"station_id":"st_cvj6r9ubvosntc0bgbag","pricing_plan_id":"cebpf4jnsgd1na2vs0mg"},{"bike_id":"d900c339-5489-4108-89e5-9b53f0f4d1db","system_id":"levelo_inurba_marseille","lat":43.225329,"lon":5.348353,"is_reserved":false,"is_disabled":false,"rental_uris":{"android":"levelo://app?vid=d900c339-5489-4108-89e5-9b53f0f4d1db","ios":"levelo://app?vid=d900c339-5489-4108-89e5-9b53f0f4d1db"},"vehicle_type_id":"4","last_reported":1762783848,"current_range_meters":18800,"station_id":"","pricing_plan_id":"cebpf4jnsgd1na2vs0mg"},{"bike_id":"1177a17a-3534-48ca-ae87-7a7bb51efb80","system_id":"levelo_inurba_marseille","lat":43.26781,"lon":5.39413,"is_reserved":false,"is_disabled":false,"rental_uris":{"android":"levelo://app?vid=1177a17a-3534-48ca-ae87-7a7bb51efb80","ios":"levelo://app?vid=1177a17a-3534-48ca-ae87-7a7bb51efb80"},"vehicle_type_id":"4","last_reported":1762783848,"current_range_meters":18800,"station_id":"ce4bhh12rcd13ifvqfg0","pricing_plan_id":"cebpf4jnsgd1na2vs0mg"},{"bike_id":"03a83275-e54f-4e8b-afa5-0797e4a4dcde","system_id":"levelo_inurba_marseille","lat":43.240615,"lon":5.377736,"is_reserved":false,"is_disabled":false,"rental_uris":{"android":"levelo://app?vid=03a83275-e54f-4e8b-afa5-0797e4a4dcde","ios":"levelo://app?vid=03a83275-e54f-4e8b-afa5-0797e4a4dcde"},"vehicle_type_id":"4","last_reported":1762783848,"current_range_meters":18800,"station_id":"ce4bhnp2rcd13ifvqgvg","pricing_plan_id":"cebpf4jnsgd1na2vs0mg"},{"bike_id":"e2104b6a-7e12-4a20-ae1b-cf4b446d5e26","system_id":"levelo_inurba_marseille","lat":43.28469,"lon":5.48401,"is_reserved":false,"is_disabled":false,"rental_uris":{"android":"levelo://app?vid=e2104b6a-7e12-4a20-ae1b-cf4b446d5e26","ios":"levelo://app?vid=e2104b6a-7e12-4a20-ae1b-cf4b446d5e26"},"vehicle_type_id":"4","last_reported":1762783848,"current_range_meters":18800,"station_id":"st_d3svhcjqgbts73a3dn0g","pricing_plan_id":"cebpf4jnsgd1na2vs0mg"},{"bike_id":"7bb20222-522b-46eb-a2bc-450ced48fb38","system_id":"levelo_inurba_marseille","lat":43.31482,"lon":5.37311,"is_reserved":false,"is_disabled":false,"rental_uris":{"android":"levelo://app?vid=7bb20222-522b-46eb-a2bc-450ced48fb38","ios":"levelo://app?vid=7bb20222-522b-46eb-a2bc-450ced48fb38"},"vehicle_type_id":"4","last_reported":1762783848,"current_range_meters":18800,"station_id":"ce4bgt12rcd13ifvqcd0","pricing_plan_id":"cebpf4jnsgd1na2vs0mg"},{"bike_id":"17f37e83-0577-449d-9b26-a3ef4243544e","system_id":"levelo_inurba_marseille","lat":43.29271,"lon":5.38434,"is_reserved":false,"is_disabled":false,"rental_uris":{"android":"levelo://app?vid=17f37e83-0577-449d-9b26-a3ef4243544e","ios":"levelo://app?vid=17f37e83-0577-449d-9b26-a3ef4243544e"},"vehicle_type_id":"4","last_reported":1762783848,"current_range_meters":18800,"station_id":"ce4bh692rcd13ifvqea0","pricing_plan_id":"cebpf4jnsgd1na2vs0mg"},{"bike_id":"dc96d759-bf63-44bf-be28-a012fb15f8ae","system_id":"levelo_inurba_marseille","lat":43.23977,"lon":5.36615,"is_reserved":false,"is_disabled":false,"rental_uris":{"android":"levelo://app?vid=dc96d759-bf63-44bf-be28-a012fb15f8ae","ios":"levelo://app?vid=dc96d759-bf63-44bf-be28-a012fb15f8ae"},"vehicle_type_id":"4","last_reported":1762783848,"current_range_meters":18800,"station_id":"ce4bhi12rcd13ifvqfp0","pricing_plan_id":"cebpf4jnsgd1na2vs0mg"},{"bike_id":"89f48309-fa84-45ca-ba8c-1519d88f534d","system_id":"levelo_inurba_marseille","lat":43.28774,"lon":5.40829,"is_reserved":false,"is_disabled":true,"rental_uris":{"android":"levelo://app?vid=89f48309-fa84-45ca-ba8c-1519d88f534d","ios":"levelo://app?vid=89f48309-fa84-45ca-ba8c-1519d88f534d"},"vehicle_type_id":"4","last_reported":1762783848,"current_range_meters":18800,"station_id":"","pricing_plan_id":"cebpf4jnsgd1na2vs0mg"},{"bike_id":"32403806-31bf-4020-aef3-c57587ac5a86","system_id":"levelo_inurba_marseille","lat":43.31255,"lon":5.40177,"is_reserved":false,"is_disabled":false,"rental_uris":{"android":"levelo://app?vid=32403806-31bf-4020-aef3-c57587ac5a86","ios":"levelo://app?vid=32403806-31bf-4020-aef3-c57587ac5a86"},"vehicle_type_id":"4","last_reported":1762783848,"current_range_meters":18800,"station_id":"ce4bh092rcd13ifvqd30","pricing_plan_id":"cebpf4jnsgd1na2vs0mg"},{"bike_id":"1cedf961-91a0-49bb-b0bc-fb49c375052c","system_id":"levelo_inurba_marseille","lat":43.24169,"lon":5.36426,"is_reserved":false,"is_disabled":false,"rental_uris":{"android":"levelo://app?vid=1cedf961-91a0-49bb-b0bc-fb49c375052c","ios":"levelo://app?vid=1cedf961-91a0-49bb-b0bc-fb49c375052c"},"vehicle_type_id":"4","last_reported":1762783848,"current_range_meters":18800,"station_id":"cpo36qri1sfpv3e86is0","pricing_plan_id":"cebpf4jnsgd1na2vs0mg"},{"bike_id":"96d132e6-f9ce-4bce-a02d-cee681ed88c4","system_id":"levelo_inurba_marseille","lat":43.26193,"lon":5.40463,"is_reserved":false,"is_disabled":false,"rental_uris":{"android":"levelo://app?vid=96d132e6-f9ce-4bce-a02d-cee681ed88c4","ios":"levelo://app?vid=96d132e6-f9ce-4bce-a02d-cee681ed88c4"},"vehicle_type_id":"4","last_reported":1762783848,"current_range_meters":19200,"station_id":"ce4bhmh2rcd13ifvqgmg","pricing_plan_id":"cebpf4jnsgd1na2vs0mg"},{"bike_id":"23f7a5c4-e2fd-4025-83ab-4e6849641f33","system_id":"levelo_inurba_marseille","lat":43.29091,"lon":5.38144,"is_reserved":false,"is_disabled":false,"rental_uris":{"android":"levelo://app?vid=23f7a5c4-e2fd-4025-83ab-4e6849641f33","ios":"levelo://app?vid=23f7a5c4-e2fd-4025-83ab-4e6849641f33"},"vehicle_type_id":"4","last_reported":1762783848,"current_range_meters":19200,"station_id":"ce4bh512rcd13ifvqe2g","pricing_plan_id":"cebpf4jnsgd1na2vs0mg"},{"bike_id":"133221aa-9b50-47e0-8e84-d97303b30313","system_id":"levelo_inurba_marseille","lat":43.2463,"lon":5.43152,"is_reserved":false,"is_disabled":false,"rental_uris":{"android":"levelo://app?vid=133221aa-9b50-47e0-8e84-d97303b30313","ios":"levelo://app?vid=133221aa-9b50-47e0-8e84-d97303b30313"},"vehicle_type_id":"4","last_reported":1762783848,"current_range_meters":19200,"station_id":"st_d2m6c4gdas8pm72e190g","pricing_plan_id":"cebpf4jnsgd1na2vs0mg"},{"bike_id":"74dc2b1c-2447-4423-927a-07f7b3ff659b","system_id":"levelo_inurba_marseille","lat":43.29784,"lon":5.37103,"is_reserved":false,"is_disabled":false,"rental_uris":{"android":"levelo://app?vid=74dc2b1c-2447-4423-927a-07f7b3ff659b","ios":"levelo://app?vid=74dc2b1c-2447-4423-927a-07f7b3ff659b"},"vehicle_type_id":"4","last_reported":1762783848,"current_range_meters":19200,"station_id":"ce4bgop2rcd13ifvqc1g","pricing_plan_id":"cebpf4jnsgd1na2vs0mg"},{"bike_id":"3529e7f0-6288-4097-b46c-e852d742f44d","system_id":"levelo_inurba_marseille","lat":43.29541,"lon":5.39013,"is_reserved":false,"is_disabled":false,"rental_uris":{"android":"levelo://app?vid=3529e7f0-6288-4097-b46c-e852d742f44d","ios":"levelo://app?vid=3529e7f0-6288-4097-b46c-e852d742f44d"},"vehicle_type_id":"4","last_reported":1762783848,"current_range_meters":19200,"station_id":"ce4bh3p2rcd13ifvqdp0","pricing_plan_id":"cebpf4jnsgd1na2vs0mg"},{"bike_id":"dd7d08cf-71f4-4d34-8370-e9a180e96b7b","system_id":"levelo_inurba_marseille","lat":43.2315,"lon":5.4373,"is_reserved":false,"is_disabled":false,"rental_uris":{"android":"levelo://app?vid=dd7d08cf-71f4-4d34-8370-e9a180e96b7b","ios":"levelo://app?vid=dd7d08cf-71f4-4d34-8370-e9a180e96b7b"},"vehicle_type_id":"4","last_reported":1762783848,"current_range_meters":19200,"station_id":"ce4bhmp2rcd13ifvqgog","pricing_plan_id":"cebpf4jnsgd1na2vs0mg"},{"bike_id":"6075b342-0a95-4aa1-ad46-9b8be5f6fe1f","system_id":"levelo_inurba_marseille","lat":43.265659,"lon":5.390018,"is_reserved":false,"is_disabled":false,"rental_uris":{"android":"levelo://app?vid=6075b342-0a95-4aa1-ad46-9b8be5f6fe1f","ios":"levelo://app?vid=6075b342-0a95-4aa1-ad46-9b8be5f6fe1f"},"vehicle_type_id":"4","last_reported":1762783848,"current_range_meters":19600,"station_id":"ce4bhe12rcd13ifvqf30","pricing_plan_id":"cebpf4jnsgd1na2vs0mg"},{"bike_id":"f22919b3-38ab-42c0-9020-f53075a0e228","system_id":"levelo_inurba_marseille","lat":43.301387,"lon":5.374265,"is_reserved":false,"is_disabled":false,"rental_uris":{"android":"levelo://app?vid=f22919b3-38ab-42c0-9020-f53075a0e228","ios":"levelo://app?vid=f22919b3-38ab-42c0-9020-f53075a0e228"},"vehicle_type_id":"4","last_reported":1762783848,"current_range_meters":19600,"station_id":"ce4bgs92rcd13ifvqcc0","pricing_plan_id":"cebpf4jnsgd1na2vs0mg"},