{"last_updated":1717520827,"ttl":30,"version":"2.2","data":{"bikes":[{"bike_id":"4849a2e9-2a76-4a22-a294-7058840cdefb","system_id":"levelo_inurba_marseille","lat":43.312239,"lon":5.368562,"is_reserved":false,"is_disabled":false,"rental_uris":{"android":"levelo://app?vid=4849a2e9-2a76-4a22-a294-7058840cdefb","ios":"levelo://app?vid=4849a2e9-2a76-4a22-a294-7058840cdefb"},"vehicle_type_id":"4","last_reported":1717520827,"current_range_meters":0,"station_id":"ce4bgl92rcd13ifvqbq0","pricing_plan_id":"cebpf4jnsgd1na2vs0mg"},{"bike_id":"75d3ba61-d568-405b-9d0f-262c1bf726fb","system_id":"levelo_inurba_marseille","lat":43.309039,"lon":5.371797,"is_reserved":false,"is_disabled":false,"rental_uris":{"android":"levelo://app?vid=75d3ba61-d568-405b-9d0f-262c1bf726fb","ios":"levelo://app?vid=75d3ba61-d568-405b-9d0f-262c1bf726fb"},"vehicle_type_id":"4","last_reported":1717520827,"current_range_meters":0,"station_id":"ce4bguh2rcd13ifvqckg","pricing_plan_id":"cebpf4jnsgd1na2vs0mg"},{"bike_id":"5e37b873-40eb-49cc-8009-0954e736dfe8","system_id":"levelo_inurba_marseille","lat":43.31489,"lon":5.37306,"is_reserved":false,"is_disabled":false,"rental_uris":{"android":"levelo://app?vid=5e37b873-40eb-49cc-8009-0954e736dfe8","ios":"levelo://app?vid=5e37b873-40eb-49cc-8009-0954e736dfe8"},"vehicle_type_id":"4","last_reported":1717520827,"current_range_meters":0,"station_id":"ce4bgt12rcd13ifvqcd0","pricing_plan_id":"cebpf4jnsgd1na2vs0mg"},{"bike_id":"618f5471-2803-41a6-b95f-08dbc13db155","system_id":"levelo_inurba_marseille","lat":43.30537,"lon":5.367345,"is_reserved":false,"is_disabled":false,"rental_uris":{"android":"levelo://app?vid=618f5471-2803-41a6-b95f-08dbc13db155","ios":"levelo://app?vid=618f5471-2803-41a6-b95f-08dbc13db155"},"vehicle_type_id":"4","last_reported":1717520827,"current_range_meters":0,"station_id":"ce4bgrp2rcd13ifvqc9g","pricing_plan_id":"cebpf4jnsgd1na2vs0mg"},{"bike_id":"345f6f09-034f-4e2c-8e9f-496b6f5e7b7e","system_id":"levelo_inurba_marseille","lat":43.317075,"lon":5.377367,"is_reserved":false,"is_disabled":false,"rental_uris":{"android":"levelo://app?vid=345f6f09-034f-4e2c-8e9f-496b6f5e7b7e","ios":"levelo://app?vid=345f6f09-034f-4e2c-8e9f-496b6f5e7b7e"},"vehicle_type_id":"4","last_reported":1717520827,"current_range_meters":30400,"station_id":"ce4bgth2rcd13ifvqch0","pricing_plan_id":"cebpf4jnsgd1na2vs0mg"},{"bike_id":"5401ff84-06c4-4c94-b76e-411da2f5ffe9","system_id":"levelo_inurba_marseille","lat":43.321409,"lon":5.371398,"is_reserved":false,"is_disabled":false,"rental_uris":{"android":"levelo://app?vid=5401ff84-06c4-4c94-b76e-411da2f5ffe9","ios":"levelo://app?vid=5401ff84-06c4-4c94-b76e-411da2f5ffe9"},"vehicle_type_id":"4","last_reported":1717520827,"current_range_meters":10800,"station_id":"","pricing_plan_id":"cebpf4jnsgd1na2vs0mg"},{"bike_id":"783daa45-de8c-4a17-94c8-1136c1d99dd5","system_id":"levelo_inurba_marseille","lat":43.301939,"lon":5.366286,"is_reserved":false,"is_disabled":false,"rental_uris":{"android":"levelo://app?vid=783daa45-de8c-4a17-94c8-1136c1d99dd5","ios":"levelo://app?vid=783daa45-de8c-4a17-94c8-1136c1d99dd5"},"vehicle_type_id":"4","last_reported":1717520827,"current_range_meters":6800,"station_id":"ce4bgrh2rcd13ifvqc8g","pricing_plan_id":"cebpf4jnsgd1na2vs0mg"},{"bike_id":"26e732d7-4cff-4265-a08d-cbb5ede10cc0","system_id":"levelo_inurba_marseille","lat":43.303046,"lon":5.368981,"is_reserved":false,"is_disabled":false,"rental_uris":{"android":"levelo://app?vid=26e732d7-4cff-4265-a08d-cbb5ede10cc0","ios":"levelo://app?vid=26e732d7-4cff-4265-a08d-cbb5ede10cc0"},"vehicle_type_id":"4","last_reported":1717520827,"current_range_meters":0,"station_id":"ce4bgqh2rcd13ifvqc5g","pricing_plan_id":"cebpf4jnsgd1na2vs0mg"},{"bike_id":"3ffa68db-0cd3-49db-aab4-890442806ddc","system_id":"levelo_inurba_marseille","lat":43.315289,"lon":5.380349,"is_reserved":false,"is_disabled":false,"rental_uris":{"android":"levelo://app?vid=3ffa68db-0cd3-49db-aab4-890442806ddc","ios":"levelo://app?vid=3ffa68db-0cd3-49db-aab4-890442806ddc"},"vehicle_type_id":"4","last_reported":1717520827,"current_range_meters":1600,"station_id":"ce4bhsp2rcd13ifvqi50","pricing_plan_id":"cebpf4jnsgd1na2vs0mg"},{"bike_id":"504e88b7-e177-4c92-a544-ad2fd200dc7f","system_id":"levelo_inurba_marseille","lat":43.315293,"lon":5.380349,"is_reserved":false,"is_disabled":false,"rental_uris":{"android":"levelo://app?vid=504e88b7-e177-4c92-a544-ad2fd200dc7f","ios":"levelo://app?vid=504e88b7-e177-4c92-a544-ad2fd200dc7f"},"vehicle_type_id":"4","last_reported":1717520827,"current_range_meters":9600,"station_id":"ce4bhsp2rcd13ifvqi50","pricing_plan_id":"cebpf4jnsgd1na2vs0mg"},{"bike_id":"08809f29-0bf1-48d0-8036-de46975a6f22","system_id":"levelo_inurba_marseille","lat":43.315293,"lon":5.380349,"is_reserved":false,"is_disabled":false,"rental_uris":{"android":"levelo://app?vid=08809f29-0bf1-48d0-8036-de46975a6f22","ios":"levelo://app?vid=08809f29-0bf1-48d0-8036-de46975a6f22"},"vehicle_type_id":"4","last_reported":1717520827,"current_range_meters":0,"station_id":"ce4bhsp2rcd13ifvqi50","pricing_plan_id":"cebpf4jnsgd1na2vs0mg"},{"bike_id":"c8c25d46-775d-4d18-bc50-53ae52578531","system_id":"levelo_inurba_marseille","lat":43.301939,"lon":5.366286,"is_reserved":false,"is_disabled":false,"rental_uris":{"android":"levelo://app?vid=c8c25d46-775d-4d18-bc50-53ae52578531","ios":"levelo://app?vid=c8c25d46-775d-4d18-bc50-53ae52578531"},"vehicle_type_id":"4","last_reported":1717520827,"current_range_meters":25600,"station_id":"ce4bgrh2rcd13ifvqc8g","pricing_plan_id":"cebpf4jnsgd1na2vs0mg"},{"bike_id":"efb7fe86-dc79-4044-a429-775294ae0e8d","system_id":"levelo_inurba_marseille","lat":43.301939,"lon":5.366286,"is_reserved":false,"is_disabled":false,"rental_uris":{"android":"levelo://app?vid=efb7fe86-dc79-4044-a429-775294ae0e8d","ios":"levelo://app?vid=efb7fe86-dc79-4044-a429-775294ae0e8d"},"vehicle_type_id":"4","last_reported":1717520827,"current_range_meters":14800,"station_id":"ce4bgrh2rcd13ifvqc8g","pricing_plan_id":"cebpf4jnsgd1na2vs0mg"},{"bike_id":"92e1deed-3c96-44e2-844f-59bd781fffad","system_id":"levelo_inurba_marseille","lat":43.324771,"lon":5.36557,"is_reserved":false,"is_disabled":false,"rental_uris":{"android":"levelo://app?vid=92e1deed-3c96-44e2-844f-59bd781fffad","ios":"levelo://app?vid=92e1deed-3c96-44e2-844f-59bd781fffad"},"vehicle_type_id":"4","last_reported":1717520827,"current_range_meters":0,"station_id":"ce4bhs12rcd13ifvqhvg","pricing_plan_id":"cebpf4jnsgd1na2vs0mg"},{"bike_id":"1a48df33-b22c-4419-94b8-72d016575dc1","system_id":"levelo_inurba_marseille","lat":43.324854,"lon":5.365734,"is_reserved":false,"is_disabled":false,"rental_uris":{"android":"levelo://app?vid=1a48df33-b22c-4419-94b8-72d016575dc1","ios":"levelo://app?vid=1a48df33-b22c-4419-94b8-72d016575dc1"},"vehicle_type_id":"4","last_reported":1717520827,"current_range_meters":0,"station_id":"ce4bhs12rcd13ifvqhvg","pricing_plan_id":"cebpf4jnsgd1na2vs0mg"},{"bike_id":"172a0b7a-5d4a-41cb-8bd9-2db70526dce2","system_id":"levelo_inurba_marseille","lat":43.310715,"lon":5.383501,"is_reserved":false,"is_disabled":false,"rental_uris":{"android":"levelo://app?vid=172a0b7a-5d4a-41cb-8bd9-2db70526dce2","ios":"levelo://app?vid=172a0b7a-5d4a-41cb-8bd9-2db70526dce2"},"vehicle_type_id":"4","last_reported":1717520827,"current_range_meters":0,"station_id":"ce4bgv92rcd13ifvqcr0","pricing_plan_id":"cebpf4jnsgd1na2vs0mg"},{"bike_id":"c06e82ac-c6dc-4e34-bc1c-abcd2a19c14a","system_id":"levelo_inurba_marseille","lat":43.310773,"lon":5.383562,"is_reserved":false,"is_disabled":false,"rental_uris":{"android":"levelo://app?vid=c06e82ac-c6dc-4e34-bc1c-abcd2a19c14a","ios":"levelo://app?vid=c06e82ac-c6dc-4e34-bc1c-abcd2a19c14a"},"vehicle_type_id":"4","last_reported":1717520827,"current_range_meters":0,"station_id":"ce4bgv92rcd13ifvqcr0","pricing_plan_id":"cebpf4jnsgd1na2vs0mg"},{"bike_id":"2e5a824c-8467-46e8-a153-81d6828bb79e","system_id":"levelo_inurba_marseille","lat":43.310804,"lon":5.38359,"is_reserved":false,"is_disabled":false,"rental_uris":{"android":"levelo://app?vid=2e5a824c-8467-46e8-a153-81d6828bb79e","ios":"levelo://app?vid=2e5a824c-8467-46e8-a153-81d6828bb79e"},"vehicle_type_id":"4","last_reported":1717520827,"current_range_meters":22000,"station_id":"ce4bgv92rcd13ifvqcr0","pricing_plan_id":"cebpf4jnsgd1na2vs0mg"},{"bike_id":"66bc4b71-a479-4604-bff6-7f5d2d6822ce","system_id":"levelo_inurba_marseille","lat":43.31076,"lon":5.38361,"is_reserved":false,"is_disabled":false,"rental_uris":{"android":"levelo://app?vid=66bc4b71-a479-4604-bff6-7f5d2d6822ce","ios":"levelo://app?vid=66bc4b71-a479-4604-bff6-7f5d2d6822ce"},"vehicle_type_id":"4","last_reported":1717520827,"current_range_meters":0,"station_id":"ce4bgv92rcd13ifvqcr0","pricing_plan_id":"cebpf4jnsgd1na2vs0mg"},{"bike_id":"2d17fa2e-55cb-40df-8eed-88ca99ae2dd3","system_id":"levelo_inurba_marseille","lat":43.319279,"lon":5.382056,"is_reserved":false,"is_disabled":false,"rental_uris":{"android":"levelo://app?vid=2d17fa2e-55cb-40df-8eed-88ca99ae2dd3","ios":"levelo://app?vid=2d17fa2e-55cb-40df-8eed-88ca99ae2dd3"},"vehicle_type_id":"4","last_reported":1717520827,"current_range_meters":0,"station_id":"ce4bhr12rcd13ifvqhpg","pricing_plan_id":"cebpf4jnsgd1na2vs0mg"},{"bike_id":"7cd6cb2c-0e45-4817-b84b-06ce438e0cce","system_id":"levelo_inurba_marseille","lat":43.319935,"lon":5.381699,"is_reserved":false,"is_disabled":false,"rental_uris":{"android":"levelo://app?vid=7cd6cb2c-0e45-4817-b84b-06ce438e0cce","ios":"levelo://app?vid=7cd6cb2c-0e45-4817-b84b-06ce438e0cce"},"vehicle_type_id":"4","last_reported":1717520827,"current_range_meters":11200,"station_id":"ce4bhr12rcd13ifvqhpg","pricing_plan_id":"cebpf4jnsgd1na2vs0mg"},{"bike_id":"816bf89a-24c7-4580-a48b-7cd2170fe034","system_id":"levelo_inurba_marseille","lat":43.319935,"lon":5.381699,"is_reserved":false,"is_disabled":false,"rental_uris":{"android":"levelo://app?vid=816bf89a-24c7-4580-a48b-7cd2170fe034","ios":"levelo://app?vid=816bf89a-24c7-4580-a48b-7cd2170fe034"},"vehicle_type_id":"4","last_reported":1717520827,"current_range_meters":3600,"station_id":"ce4bhr12rcd13ifvqhpg","pricing_plan_id":"cebpf4jnsgd1na2vs0mg"},{"bike_id":"0de36e3d-89d6-428f-a00b-30b749a5bf5c","system_id":"levelo_inurba_marseille","lat":43.30033,"lon":5.37214,"is_reserved":false,"is_disabled":false,"rental_uris":{"android":"levelo://app?vid=0de36e3d-89d6-428f-a00b-30b749a5bf5c","ios":"levelo://app?vid=0de36e3d-89d6-428f-a00b-30b749a5bf5c"},"vehicle_type_id":"4","last_reported":1717520827,"current_range_meters":15600,"station_id":"","pricing_plan_id":"cebpf4jnsgd1na2vs0mg"},{"bike_id":"3f518752-4275-4f6e-bdd5-5983ec3c0251","system_id":"levelo_inurba_marseille","lat":43.299831,"lon":5.371867,"is_reserved":false,"is_disabled":false,"rental_uris":{"android":"levelo://app?vid=3f518752-4275-4f6e-bdd5-5983ec3c0251","ios":"levelo://app?vid=3f518752-4275-4f6e-bdd5-5983ec3c0251"},"vehicle_type_id":"4","last_reported":1717520827,"current_range_meters":0,"station_id":"ce4bgr92rcd13ifvqc7g","pricing_plan_id":"cebpf4jnsgd1na2vs0mg"},{"bike_id":"85e38808-4bb9-4bf7-8dd2-6dd43fc24074","system_id":"levelo_inurba_marseille","lat":43.299724,"lon":5.371829,"is_reserved":false,"is_disabled":false,"rental_uris":{"android":"levelo://app?vid=85e38808-4bb9-4bf7-8dd2-6dd43fc24074","ios":"levelo://app?vid=85e38808-4bb9-4bf7-8dd2-6dd43fc24074"},"vehicle_type_id":"4","last_reported":1717520827,"current_range_meters":800,"station_id":"ce4bgr92rcd13ifvqc7g","pricing_plan_id":"cebpf4jnsgd1na2vs0mg"},{"bike_id":"0e7d470e-4b5c-4f8a-a963-9ea5441c6a4a","system_id":"levelo_inurba_marseille","lat":43.29957,"lon":5.3716,"is_reserved":false,"is_disabled":false,"rental_uris":{"android":"levelo://app?vid=0e7d470e-4b5c-4f8a-a963-9ea5441c6a4a","ios":"levelo://app?vid=0e7d470e-4b5c-4f8a-a963-9ea5441c6a4a"},"vehicle_type_id":"4","last_reported":1717520827,"current_range_meters":30000,"station_id":"ce4bgr92rcd13ifvqc7g","pricing_plan_id":"cebpf4jnsgd1na2vs0mg"},{"bike_id":"7c0279c4-785e-41cc-9875-11b1aa5697b0","system_id":"levelo_inurba_marseille","lat":43.298433,"lon":5.362774,"is_reserved":false,"is_disabled":false,"rental_uris":{"android":"levelo://app?vid=7c0279c4-785e-41cc-9875-11b1aa5697b0","ios":"levelo://app?vid=7c0279c4-785e-41cc-9875-11b1aa5697b0"},"vehicle_type_id":"4","last_reported":1717520827,"current_range_meters":29200,"station_id":"ce4bgpp2rcd13ifvqc3g","pricing_plan_id":"cebpf4jnsgd1na2vs0mg"},{"bike_id":"9c4f209a-2ea7-4f33-9374-df3fbf1aabf8","system_id":"levelo_inurba_marseille","lat":43.298433,"lon":5.362774,"is_reserved":false,"is_disabled":false,"rental_uris":{"android":"levelo://app?vid=9c4f209a-2ea7-4f33-9374-df3fbf1aabf8","ios":"levelo://app?vid=9c4f209a-2ea7-4f33-9374-df3fbf1aabf8"},"vehicle_type_id":"4","last_reported":1717520827,"current_range_meters":23600,"station_id":"ce4bgpp2rcd13ifvqc3g","pricing_plan_id":"cebpf4jnsgd1na2vs0mg"},{"bike_id":"1b2edab3-1b05-4308-ad53-434d3b6a1932","system_id":"levelo_inurba_marseille","lat":43.305364,"lon":5.384119,"is_reserved":false,"is_disabled":false,"rental_uris":{"android":"levelo://app?vid=1b2edab3-1b05-4308-ad53-434d3b6a1932","ios":"levelo://app?vid=1b2edab3-1b05-4308-ad53-434d3b6a1932"},"vehicle_type_id":"4","last_reported":1717520827,"current_range_meters":19200,"station_id":"ce4bgg92rcd13ifvqb30","pricing_plan_id":"cebpf4jnsgd1na2vs0mg"},{"bike_id":"0d1106ab-63e7-484c-b294-a12b7bef1f39","system_id":"levelo_inurba_marseille","lat":43.299243,"lon":5.374807,"is_reserved":false,"is_disabled":false,"rental_uris":{"android":"levelo://app?vid=0d1106ab-63e7-484c-b294-a12b7bef1f39","ios":"levelo://app?vid=0d1106ab-63e7-484c-b294-a12b7bef1f39"},"vehicle_type_id":"4","last_reported":1717520827,"current_range_meters":2800,"station_id":"ce4bgjh2rcd13ifvqbg0","pricing_plan_id":"cebpf4jnsgd1na2vs0mg"},{"bike_id":"7462f7f5-be0e-483b-a5d1-bfc248f84d42","system_id":"levelo_inurba_marseille","lat":43.299243,"lon":5.37481,"is_reserved":false,"is_disabled":false,"rental_uris":{"android":"levelo://app?vid=7462f7f5-be0e-483b-a5d1-bfc248f84d42","ios":"levelo://app?vid=7462f7f5-be0e-483b-a5d1-bfc248f84d42"},"vehicle_type_id":"4","last_reported":1717520827,"current_range_meters":0,"station_id":"ce4bgjh2rcd13ifvqbg0","pricing_plan_id":"cebpf4jnsgd1na2vs0mg"},{"bike_id":"68bff547-3fff-4a4f-8c69-af9f88633e6d","system_id":"levelo_inurba_marseille","lat":43.299155,"lon":5.37468,"is_reserved":false,"is_disabled":false,"rental_uris":{"android":"levelo://app?vid=68bff547-3fff-4a4f-8c69-af9f88633e6d","ios":"levelo://app?vid=68bff547-3fff-4a4f-8c69-af9f88633e6d"},"vehicle_type_id":"4","last_reported":1717520827,"current_range_meters":0,"station_id":"ce4bgjh2rcd13ifvqbg0","pricing_plan_id":"cebpf4jnsgd1na2vs0mg"},{"bike_id":"0f2c1f3d-f145-4294-8a2a-f7bb66a7ff88","system_id":"levelo_inurba_marseille","lat":43.311722,"lon":5.387247,"is_reserved":false,"is_disabled":false,"rental_uris":{"android":"levelo://app?vid=0f2c1f3d-f145-4294-8a2a-f7bb66a7ff88","ios":"levelo://app?vid=0f2c1f3d-f145-4294-8a2a-f7bb66a7ff88"},"vehicle_type_id":"4","last_reported":1717520827,"current_range_meters":3200,"station_id":"ce4bgv12rcd13ifvqcp0","pricing_plan_id":"cebpf4jnsgd1na2vs0mg"},{"bike_id":"0bfa5ed5-be5b-40b2-bd6f-595057ec6469","system_id":"levelo_inurba_marseille","lat":43.322872,"lon":5.382756,"is_reserved":false,"is_disabled":false,"rental_uris":{"android":"levelo://app?vid=0bfa5ed5-be5b-40b2-bd6f-595057ec6469","ios":"levelo://app?vid=0bfa5ed5-be5b-40b2-bd6f-595057ec6469"},"vehicle_type_id":"4","last_reported":1717520827,"current_range_meters":0,"station_id":"ce4bhr12rcd13ifvqhqg","pricing_plan_id":"cebpf4jnsgd1na2vs0mg"},{"bike_id":"009c68a3-03f7-40dc-ba43-197ed62ee38b","system_id":"levelo_inurba_marseille","lat":43.298021,"lon":5.370969,"is_reserved":false,"is_disabled":false,"rental_uris":{"android":"levelo://app?vid=009c68a3-03f7-40dc-ba43-197ed62ee38b","ios":"levelo://app?vid=009c68a3-03f7-40dc-ba43-197ed62ee38b"},"vehicle_type_id":"4","last_reported":1717520827,"current_range_meters":0,"station_id":"ce4bgop2rcd13ifvqc1g","pricing_plan_id":"cebpf4jnsgd1na2vs0mg"},{"bike_id":"06e2d2f3-481f-405f-892b-a600e28871b6","system_id":"levelo_inurba_marseille","lat":43.322872,"lon":5.382756,"is_reserved":false,"is_disabled":false,"rental_uris":{"android":"levelo://app?vid=06e2d2f3-481f-405f-892b-a600e28871b6","ios":"levelo://app?vid=06e2d2f3-481f-405f-892b-a600e28871b6"},"vehicle_type_id":"4","last_reported":1717520827,"current_range_meters":5200,"station_id":"ce4bhr12rcd13ifvqhqg","pricing_plan_id":"cebpf4jnsgd1na2vs0mg"},{"bike_id":"c1f69bca-9c85-44fb-97e8-6680022d8d18","system_id":"levelo_inurba_marseille","lat":43.297054,"lon":5.3667,"is_reserved":false,"is_disabled":false,"rental_uris":{"android":"levelo://app?vid=c1f69bca-9c85-44fb-97e8-6680022d8d18","ios":"levelo://app?vid=c1f69bca-9c85-44fb-97e8-6680022d8d18"},"vehicle_type_id":"4","last_reported":1717520827,"current_range_meters":0,"station_id":"ce4bgn12rcd13ifvqbt0","pricing_plan_id":"cebpf4jnsgd1na2vs0mg"},{"bike_id":"a13e9f4d-634e-417f-953b-5b8ccb9df470","system_id":"levelo_inurba_marseille","lat":43.29631,"lon":5.3715,"is_reserved":false,"is_disabled":false,"rental_uris":{"android":"levelo://app?vid=a13e9f4d-634e-417f-953b-5b8ccb9df470","ios":"levelo://app?vid=a13e9f4d-634e-417f-953b-5b8ccb9df470"},"vehicle_type_id":"4","last_reported":1717520827,"current_range_meters":0,"station_id":"ce4bgnh2rcd13ifvqc0g","pricing_plan_id":"cebpf4jnsgd1na2vs0mg"},{"bike_id":"fd3cf103-8ff3-4e3e-9126-f02721bcc63d","system_id":"levelo_inurba_marseille","lat":43.29628,"lon":5.37156,"is_reserved":false,"is_disabled":false,"rental_uris":{"android":"levelo://app?vid=fd3cf103-8ff3-4e3e-9126-f02721bcc63d","ios":"levelo://app?vid=fd3cf103-8ff3-4e3e-9126-f02721bcc63d"},"vehicle_type_id":"4","last_reported":1717520827,"current_range_meters":0,"station_id":"ce4bgph2rcd13ifvqc2g","pricing_plan_id":"cebpf4jnsgd1na2vs0mg"},{"bike_id":"1af512ce-480e-485d-94a2-cdb6611daa31","system_id":"levelo_inurba_marseille","lat":43.29573,"lon":5.367355,"is_reserved":false,"is_disabled":false,"rental_uris":{"android":"levelo://app?vid=1af512ce-480e-485d-94a2-cdb6611daa31","ios":"levelo://app?vid=1af512ce-480e-485d-94a2-cdb6611daa31"},"vehicle_type_id":"4","last_reported":1717520827,"current_range_meters":3200,"station_id":"ce4bgph2rcd13ifvqc2g","pricing_plan_id":"cebpf4jnsgd1na2vs0mg"},{"bike_id":"19a7db4a-98f9-41cc-8aa7-ac69bd835c49","system_id":"levelo_inurba_marseille","lat":43.296921,"lon":5.376579,"is_reserved":false,"is_disabled":false,"rental_uris":{"android":"levelo://app?vid=19a7db4a-98f9-41cc-8aa7-ac69bd835c49","ios":"levelo://app?vid=19a7db4a-98f9-41cc-8aa7-ac69bd835c49"},"vehicle_type_id":"4","last_reported":1717520827,"current_range_meters":0,"station_id":"ce4bgkh2rcd13ifvqbl0","pricing_plan_id":"cebpf4jnsgd1na2vs0mg"},{"bike_id":"7333d8be-5f96-4135-a142-de0d1d4b311e","system_id":"levelo_inurba_marseille","lat":43.309503,"lon":5.39036,"is_reserved":false,"is_disabled":false,"rental_uris":{"android":"levelo://app?vid=7333d8be-5f96-4135-a142-de0d1d4b311e","ios":"levelo://app?vid=7333d8be-5f96-4135-a142-de0d1d4b311e"},"vehicle_type_id":"4","last_reported":1717520827,"current_range_meters":0,"station_id":"ce4bgup2rcd13ifvqco0","pricing_plan_id":"cebpf4jnsgd1na2vs0mg"},{"bike_id":"41889238-5b06-4e2a-a0d6-634be91e14f7","system_id":"levelo_inurba_marseille","lat":43.309589,"lon":5.390258,"is_reserved":false,"is_disabled":false,"rental_uris":{"android":"levelo://app?vid=41889238-5b06-4e2a-a0d6-634be91e14f7","ios":"levelo://app?vid=41889238-5b06-4e2a-a0d6-634be91e14f7"},"vehicle_type_id":"4","last_reported":1717520827,"current_range_meters":0,"station_id":"ce4bgup2rcd13ifvqco0","pricing_plan_id":"cebpf4jnsgd1na2vs0mg"},{"bike_id":"bf646f7d-7c82-4d46-8c2d-b97afd60bbca","system_id":"levelo_inurba_marseille","lat":43.309589,"lon":5.390258,"is_reserved":false,"is_disabled":false,"rental_uris":{"android":"levelo://app?vid=bf646f7d-7c82-4d46-8c2d-b97afd60bbca","ios":"levelo://app?vid=bf646f7d-7c82-4d46-8c2d-b97afd60bbca"},"vehicle_type_id":"4","last_reported":1717520827,"current_range_meters":0,"station_id":"ce4bgup2rcd13ifvqco0","pricing_plan_id":"cebpf4jnsgd1na2vs0mg"},{"bike_id":"72a342c1-b8ca-4342-be12-c234bd59f3af","system_id":"levelo_inurba_marseille","lat":43.309589,"lon":5.390258,"is_reserved":false,"is_disabled":false,"rental_uris":{"android":"levelo://app?vid=72a342c1-b8ca-4342-be12-c234bd59f3af","ios":"levelo://app?vid=72a342c1-b8ca-4342-be12-c234bd59f3af"},"vehicle_type_id":"4","last_reported":1717520827,"current_range_meters":31200,"station_id":"ce4bgup2rcd13ifvqco0","pricing_plan_id":"cebpf4jnsgd1na2vs0mg"},{"bike_id":"090a12d3-b309-4556-9e05-b70f937a365d","system_id":"levelo_inurba_marseille","lat":43.317557,"lon":5.390173,"is_reserved":false,"is_disabled":false,"rental_uris":{"android":"levelo://app?vid=090a12d3-b309-4556-9e05-b70f937a365d","ios":"levelo://app?vid=090a12d3-b309-4556-9e05-b70f937a365d"},"vehicle_type_id":"4","last_reported":1717520827,"current_range_meters":7600,"station_id":"ce4bhqp2rcd13ifvqhng","pricing_plan_id":"cebpf4jnsgd1na2vs0mg"},{"bike_id":"3dee4708-6cf2-4fc9-a451-db9507a906bb","system_id":"levelo_inurba_marseille","lat":43.317557,"lon":5.390173,"is_reserved":false,"is_disabled":false,"rental_uris":{"android":"levelo://app?vid=3dee4708-6cf2-4fc9-a451-db9507a906bb","ios":"levelo://app?vid=3dee4708-6cf2-4fc9-a451-db9507a906bb"},"vehicle_type_id":"4","last_reported":1717520827,"current_range_meters":16400,"station_id":"ce4bhqp2rcd13ifvqhng","pricing_plan_id":"cebpf4jnsgd1na2vs0mg"},{"bike_id":"61a45587-516b-4519-9ad9-92e5ddc2e169","system_id":"levelo_inurba_marseille","lat":43.317557,"lon":5.390173,"is_reserved":false,"is_disabled":false,"rental_uris":{"android":"levelo://app?vid=61a45587-516b-4519-9ad9-92e5ddc2e169","ios":"levelo://app?vid=61a45587-516b-4519-9ad9-92e5ddc2e169"},"vehicle_type_id":"4","last_reported":1717520827,"current_range_meters":0,"station_id":"ce4bhqp2rcd13ifvqhng","pricing_plan_id":"cebpf4jnsgd1na2vs0mg"},{"bike_id":"58e20805-c2dc-49f0-abfe-451a118632ce","system_id":"levelo_inurba_marseille","lat":43.31757,"lon":5.39018,"is_reserved":false,"is_disabled":false,"rental_uris":{"android":"levelo://app?vid=58e20805-c2dc-49f0-abfe-451a118632ce","ios":"levelo://app?vid=58e20805-c2dc-49f0-abfe-451a118632ce"},"vehicle_type_id":"4","last_reported":1717520827,"current_range_meters":4400,"station_id":"ce4bhqp2rcd13ifvqhng","pricing_plan_id":"cebpf4jnsgd1na2vs0mg"},{"bike_id":"a6f8f726-af2a-41fa-bd92-3e0b536990e3","system_id":"levelo_inurba_marseille","lat":43.317557,"lon":5.390173,"is_reserved":false,"is_disabled":false,"rental_uris":{"android":"levelo://app?vid=a6f8f726-af2a-41fa-bd92-3e0b536990e3","ios":"levelo://app?vid=a6f8f726-af2a-41fa-bd92-3e0b536990e3"},"vehicle_type_id":"4","last_reported":1717520827,"current_range_meters":14400,"station_id":"ce4bhqp2rcd13ifvqhng","pricing_plan_id":"cebpf4jnsgd1na2vs0mg"},{"bike_id":"f8f51f43-829a-4025-b930-bc684756852b","system_id":"levelo_inurba_marseille","lat":43.317557,"lon":5.390173,"is_reserved":false,"is_disabled":false,"rental_uris":{"android":"levelo://app?vid=f8f51f43-829a-4025-b930-bc684756852b","ios":"levelo://app?vid=f8f51f43-829a-4025-b930-bc684756852b"},"vehicle_type_id":"4","last_reported":1717520827,"current_range_meters":20000,"station_id":"ce4bhqp2rcd13ifvqhng","pricing_plan_id":"cebpf4jnsgd1na2vs0mg"},{"bike_id":"dacf4d35-4ecb-405d-9d70-65411210be1e","system_id":"levelo_inurba_marseille","lat":43.29577,"lon":5.375,"is_reserved":false,"is_disabled":false,"rental_uris":{"android":"levelo://app?vid=dacf4d35-4ecb-405d-9d70-65411210be1e","ios":"levelo://app?vid=dacf4d35-4ecb-405d-9d70-65411210be1e"},"vehicle_type_id":"4","last_reported":1717520827,"current_range_meters":0,"station_id":"ce4bgh92rcd13ifvqb50","pricing_plan_id":"cebpf4jnsgd1na2vs0mg"},{"bike_id":"dfbc4b7e-ce25-4a15-8332-3327c6bbc918","system_id":"levelo_inurba_marseille","lat":43.295756,"lon":5.37498,"is_reserved":false,"is_disabled":false,"rental_uris":{"android":"levelo://app?vid=dfbc4b7e-ce25-4a15-8332-3327c6bbc918","ios":"levelo://app?vid=dfbc4b7e-ce25-4a15-8332-3327c6bbc918"},"vehicle_type_id":"4","last_reported":1717520827,"current_range_meters":0,"station_id":"ce4bgh92rcd13ifvqb50","pricing_plan_id":"cebpf4jnsgd1na2vs0mg"},{"bike_id":"af138a7d-7af9-4e3b-81c4-eae1371ef19c","system_id":"levelo_inurba_marseille","lat":43.298037,"lon":5.381066,"is_reserved":false,"is_disabled":false,"rental_uris":{"android":"levelo://app?vid=af138a7d-7af9-4e3b-81c4-eae1371ef19c","ios":"levelo://app?vid=af138a7d-7af9-4e3b-81c4-eae1371ef19c"},"vehicle_type_id":"4","last_reported":1717520827,"current_range_meters":1200,"station_id":"ce4bgip2rcd13ifvqbb0","pricing_plan_id":"cebpf4jnsgd1na2vs0mg"},{"bike_id":"05a994a4-551c-4801-86be-112cd0cc9ead","system_id":"levelo_inurba_marseille","lat":43.29796,"lon":5.38099,"is_reserved":false,"is_disabled":false,"rental_uris":{"android":"levelo://app?vid=05a994a4-551c-4801-86be-112cd0cc9ead","ios":"levelo://app?vid=05a994a4-551c-4801-86be-112cd0cc9ead"},"vehicle_type_id":"4","last_reported":1717520827,"current_range_meters":0,"station_id":"ce4bgip2rcd13ifvqbb0","pricing_plan_id":"cebpf4jnsgd1na2vs0mg"},{"bike_id":"855c7b60-18ab-4c52-8c14-5673ad3a982a","system_id":"levelo_inurba_marseille","lat":43.297931,"lon":5.381084,"is_reserved":false,"is_disabled":false,"rental_uris":{"android":"levelo://app?vid=855c7b60-18ab-4c52-8c14-5673ad3a982a","ios":"levelo://app?vid=855c7b60-18ab-4c52-8c14-5673ad3a982a"},"vehicle_type_id":"4","last_reported":1717520827,"current_range_meters":0,"station_id":"ce4bgip2rcd13ifvqbb0","pricing_plan_id":"cebpf4jnsgd1na2vs0mg"},{"bike_id":"fc4b85bb-4929-42f8-bc00-505dbeb9bb49","system_id":"levelo_inurba_marseille","lat":43.298037,"lon":5.381066,"is_reserved":false,"is_disabled":false,"rental_uris":{"android":"levelo://app?vid=fc4b85bb-4929-42f8-bc00-505dbeb9bb49","ios":"levelo://app?vid=fc4b85bb-4929-42f8-bc00-505dbeb9bb49"},"vehicle_type_id":"4","last_reported":1717520827,"current_range_meters":800,"station_id":"ce4bgip2rcd13ifvqbb0","pricing_plan_id":"cebpf4jnsgd1na2vs0mg"},{"bike_id":"c0e6a9b5-92aa-4f38-ba32-3ec1fa4cbfc5","system_id":"levelo_inurba_marseille","lat":43.296263,"lon":5.377094,"is_reserved":false,"is_disabled":false,"rental_uris":{"android":"levelo://app?vid=c0e6a9b5-92aa-4f38-ba32-3ec1fa4cbfc5","ios":"levelo://app?vid=c0e6a9b5-92aa-4f38-ba32-3ec1fa4cbfc5"},"vehicle_type_id":"4","last_reported":1717520827,"current_range_meters":400,"station_id":"ce4bgi92rcd13ifvqb90","pricing_plan_id":"cebpf4jnsgd1na2vs0mg"},{"bike_id":"7c1e5c9c-328a-424d-b7de-a8e35933b108","system_id":"levelo_inurba_marseille","lat":43.309589,"lon":5.390258,"is_reserved":false,"is_disabled":false,"rental_uris":{"android":"levelo://app?vid=7c1e5c9c-328a-424d-b7de-a8e35933b108","ios":"levelo://app?vid=7c1e5c9c-328a-424d-b7de-a8e35933b108"},"vehicle_type_id":"4","last_reported":1717520827,"current_range_meters":18000,"station_id":"ce4bgup2rcd13ifvqco0","pricing_plan_id":"cebpf4jnsgd1na2vs0mg"},{"bike_id":"45774146-95ea-4231-a64e-bf043efc5996","system_id":"levelo_inurba_marseille","lat":43.295261,"lon":5.374961,"is_reserved":false,"is_disabled":false,"rental_uris":{"android":"levelo://app?vid=45774146-95ea-4231-a64e-bf043efc5996","ios":"levelo://app?vid=45774146-95ea-4231-a64e-bf043efc5996"},"vehicle_type_id":"4","last_reported":1717520827,"current_range_meters":0,"station_id":"ce4bgkp2rcd13ifvqbmg","pricing_plan_id":"cebpf4jnsgd1na2vs0mg"},{"bike_id":"e8c39f8d-079f-46b3-85e9-17f102b51a1d","system_id":"levelo_inurba_marseille","lat":43.29981,"lon":5.38499,"is_reserved":false,"is_disabled":false,"rental_uris":{"android":"levelo://app?vid=e8c39f8d-079f-46b3-85e9-17f102b51a1d","ios":"levelo://app?vid=e8c39f8d-079f-46b3-85e9-17f102b51a1d"},"vehicle_type_id":"4","last_reported":1717520827,"current_range_meters":25200,"station_id":"ce4bgj92rcd13ifvqbd0","pricing_plan_id":"cebpf4jnsgd1na2vs0mg"},{"bike_id":"4a445a1c-6e4b-4eb6-9388-0751425a6d0f","system_id":"levelo_inurba_marseille","lat":43.29971,"lon":5.38493,"is_reserved":false,"is_disabled":false,"rental_uris":{"android":"levelo://app?vid=4a445a1c-6e4b-4eb6-9388-0751425a6d0f","ios":"levelo://app?vid=4a445a1c-6e4b-4eb6-9388-0751425a6d0f"},"vehicle_type_id":"4","last_reported":1717520827,"current_range_meters":0,"station_id":"ce4bgj92rcd13ifvqbd0","pricing_plan_id":"cebpf4jnsgd1na2vs0mg"},{"bike_id":"564115d0-a5c3-4df3-8e43-780dd5100278","system_id":"levelo_inurba_marseille","lat":43.299707,"lon":5.384859,"is_reserved":false,"is_disabled":false,"rental_uris":{"android":"levelo://app?vid=564115d0-a5c3-4df3-8e43-780dd5100278","ios":"levelo://app?vid=564115d0-a5c3-4df3-8e43-780dd5100278"},"vehicle_type_id":"4","last_reported":1717520827,"current_range_meters":0,"station_id":"ce4bgj92rcd13ifvqbd0","pricing_plan_id":"cebpf4jnsgd1na2vs0mg"},{"bike_id":"d9772259-b919-435d-baf2-39d1979870b7","system_id":"levelo_inurba_marseille","lat":43.299707,"lon":5.384859,"is_reserved":false,"is_disabled":false,"rental_uris":{"android":"levelo://app?vid=d9772259-b919-435d-baf2-39d1979870b7","ios":"levelo://app?vid=d9772259-b919-435d-baf2-39d1979870b7"},"vehicle_type_id":"4","last_reported":1717520827,"current_range_meters":400,"station_id":"ce4bgj92rcd13ifvqbd0","pricing_plan_id":"cebpf4jnsgd1na2vs0mg"},{"bike_id":"a5247693-99f0-45b2-93a9-73f9f7640c12","system_id":"levelo_inurba_marseille","lat":43.29965,"lon":5.38499,"is_reserved":false,"is_disabled":false,"rental_uris":{"android":"levelo://app?vid=a5247693-99f0-45b2-93a9-73f9f7640c12","ios":"levelo://app?vid=a5247693-99f0-45b2-93a9-73f9f7640c12"},"vehicle_type_id":"4","last_reported":1717520827,"current_range_meters":0,"station_id":"ce4bgj92rcd13ifvqbd0","pricing_plan_id":"cebpf4jnsgd1na2vs0mg"},{"bike_id":"1a3616e2-0f8c-4ac5-823e-d79b0b0866c7","system_id":"levelo_inurba_marseille","lat":43.299724,"lon":5.384848,"is_reserved":false,"is_disabled":false,"rental_uris":{"android":"levelo://app?vid=1a3616e2-0f8c-4ac5-823e-d79b0b0866c7","ios":"levelo://app?vid=1a3616e2-0f8c-4ac5-823e-d79b0b0866c7"},"vehicle_type_id":"4","last_reported":1717520827,"current_range_meters":10400,"station_id":"ce4bgj92rcd13ifvqbd0","pricing_plan_id":"cebpf4jnsgd1na2vs0mg"},{"bike_id":"a7ee13d4-0cad-4238-8a97-6b1fc1550bbe","system_id":"levelo_inurba_marseille","lat":43.29529,"lon":5.385581,"is_reserved":false,"is_disabled":false,"rental_uris":{"android":"levelo://app?vid=a7ee13d4-0cad-4238-8a97-6b1fc1550bbe","ios":"levelo://app?vid=a7ee13d4-0cad-4238-8a97-6b1fc1550bbe"},"vehicle_type_id":"4","last_reported":1717520827,"current_range_meters":0,"station_id":"ce4bgih2rcd13ifvqba0","pricing_plan_id":"cebpf4jnsgd1na2vs0mg"},{"bike_id":"befc21f9-71b4-425c-b76f-0d3590918e1e","system_id":"levelo_inurba_marseille","lat":43.323118,"lon":5.389072,"is_reserved":false,"is_disabled":false,"rental_uris":{"android":"levelo://app?vid=befc21f9-71b4-425c-b76f-0d3590918e1e","ios":"levelo://app?vid=befc21f9-71b4-425c-b76f-0d3590918e1e"},"vehicle_type_id":"4","last_reported":1717520827,"current_range_meters":0,"station_id":"ce4bhqp2rcd13ifvqhog","pricing_plan_id":"cebpf4jnsgd1na2vs0mg"},{"bike_id":"e2e4d6b1-3496-49b2-9ef2-e8848a9b4505","system_id":"levelo_inurba_marseille","lat":43.32367,"lon":5.388836,"is_reserved":false,"is_disabled":false,"rental_uris":{"android":"levelo://app?vid=e2e4d6b1-3496-49b2-9ef2-e8848a9b4505","ios":"levelo://app?vid=e2e4d6b1-3496-49b2-9ef2-e8848a9b4505"},"vehicle_type_id":"4","last_reported":1717520827,"current_range_meters":7200,"station_id":"ce4bhqp2rcd13ifvqhog","pricing_plan_id":"cebpf4jnsgd1na2vs0mg"},{"bike_id":"cb57f991-7141-44a1-ab31-331a34fcae12","system_id":"levelo_inurba_marseille","lat":43.32365,"lon":5.38886,"is_reserved":false,"is_disabled":false,"rental_uris":{"android":"levelo://app?vid=cb57f991-7141-44a1-ab31-331a34fcae12","ios":"levelo://app?vid=cb57f991-7141-44a1-ab31-331a34fcae12"},"vehicle_type_id":"4","last_reported":1717520827,"current_range_meters":16000,"station_id":"ce4bhqp2rcd13ifvqhog","pricing_plan_id":"cebpf4jnsgd1na2vs0mg"},{"bike_id":"87ff42e9-f3c4-4b13-a616-cf2215540ed0","system_id":"levelo_inurba_marseille","lat":43.29601,"lon":5.381084,"is_reserved":false,"is_disabled":false,"rental_uris":{"android":"levelo://app?vid=87ff42e9-f3c4-4b13-a616-cf2215540ed0","ios":"levelo://app?vid=87ff42e9-f3c4-4b13-a616-cf2215540ed0"},"vehicle_type_id":"4","last_reported":1717520827,"current_range_meters":0,"station_id":"ce4bgl12rcd13ifvqbo0","pricing_plan_id":"cebpf4jnsgd1na2vs0mg"},{"bike_id":"cf175049-c04e-4754-ba82-c7da7e8bc463","system_id":"levelo_inurba_marseille","lat":43.29602,"lon":5.38112,"is_reserved":false,"is_disabled":false,"rental_uris":{"android":"levelo://app?vid=cf175049-c04e-4754-ba82-c7da7e8bc463","ios":"levelo://app?vid=cf175049-c04e-4754-ba82-c7da7e8bc463"},"vehicle_type_id":"4","last_reported":1717520827,"current_range_meters":0,"station_id":"ce4bgl12rcd13ifvqbo0","pricing_plan_id":"cebpf4jnsgd1na2vs0mg"},{"bike_id":"1685cde9-0062-4a36-b5c6-beaa21908d3e","system_id":"levelo_inurba_marseille","lat":43.29602,"lon":5.381084,"is_reserved":false,"is_disabled":false,"rental_uris":{"android":"levelo://app?vid=1685cde9-0062-4a36-b5c6-beaa21908d3e","ios":"levelo://app?vid=1685cde9-0062-4a36-b5c6-beaa21908d3e"},"vehicle_type_id":"4","last_reported":1717520827,"current_range_meters":28400,"station_id":"ce4bgl12rcd13ifvqbo0","pricing_plan_id":"cebpf4jnsgd1na2vs0mg"},{"bike_id":"892aa623-8d9d-4c49-a056-e24922760fd4","system_id":"levelo_inurba_marseille","lat":43.29601,"lon":5.381084,"is_reserved":false,"is_disabled":false,"rental_uris":{"android":"levelo://app?vid=892aa623-8d9d-4c49-a056-e24922760fd4","ios":"levelo://app?vid=892aa623-8d9d-4c49-a056-e24922760fd4"},"vehicle_type_id":"4","last_reported":1717520827,"current_range_meters":0,"station_id":"ce4bgl12rcd13ifvqbo0","pricing_plan_id":"cebpf4jnsgd1na2vs0mg"},{"bike_id":"959f999b-f05d-4485-b741-1ff3c23215a5","system_id":"levelo_inurba_marseille","lat":43.293249,"lon":5.371578,"is_reserved":false,"is_disabled":false,"rental_uris":{"android":"levelo://app?vid=959f999b-f05d-4485-b741-1ff3c23215a5","ios":"levelo://app?vid=959f999b-f05d-4485-b741-1ff3c23215a5"},"vehicle_type_id":"4","last_reported":1717520827,"current_range_meters":400,"station_id":"ce4bgh92rcd13ifvqb40","pricing_plan_id":"cebpf4jnsgd1na2vs0mg"},{"bike_id":"ee188525-d484-4ec5-920e-3e0b340e4422","system_id":"levelo_inurba_marseille","lat":43.292749,"lon":5.368402,"is_reserved":false,"is_disabled":false,"rental_uris":{"android":"levelo://app?vid=ee188525-d484-4ec5-920e-3e0b340e4422","ios":"levelo://app?vid=ee188525-d484-4ec5-920e-3e0b340e4422"},"vehicle_type_id":"4","last_reported":1717520827,"current_range_meters":400,"station_id":"ce4bhbp2rcd13ifvqesg","pricing_plan_id":"cebpf4jnsgd1na2vs0mg"},{"bike_id":"2b3f074f-bf86-4178-994d-b17cb570cba9","system_id":"levelo_inurba_marseille","lat":43.293259,"lon":5.371586,"is_reserved":false,"is_disabled":false,"rental_uris":{"android":"levelo://app?vid=2b3f074f-bf86-4178-994d-b17cb570cba9","ios":"levelo://app?vid=2b3f074f-bf86-4178-994d-b17cb570cba9"},"vehicle_type_id":"4","last_reported":1717520827,"current_range_meters":7600,"station_id":"ce4bgh92rcd13ifvqb40","pricing_plan_id":"cebpf4jnsgd1na2vs0mg"},{"bike_id":"543c1169-b633-462f-a505-171653ed2523","system_id":"levelo_inurba_marseille","lat":43.292749,"lon":5.368398,"is_reserved":false,"is_disabled":false,"rental_uris":{"android":"levelo://app?vid=543c1169-b633-462f-a505-171653ed2523","ios":"levelo://app?vid=543c1169-b633-462f-a505-171653ed2523"},"vehicle_type_id":"4","last_reported":1717520827,"current_range_meters":10400,"station_id":"ce4bhbp2rcd13ifvqesg","pricing_plan_id":"cebpf4jnsgd1na2vs0mg"},{"bike_id":"3e1a190d-3230-4fea-a5f8-27b13b5309dc","system_id":"levelo_inurba_marseille","lat":43.29273,"lon":5.36837,"is_reserved":false,"is_disabled":false,"rental_uris":{"android":"levelo://app?vid=3e1a190d-3230-4fea-a5f8-27b13b5309dc","ios":"levelo://app?vid=3e1a190d-3230-4fea-a5f8-27b13b5309dc"},"vehicle_type_id":"4","last_reported":1717520827,"current_range_meters":0,"station_id":"ce4bhbp2rcd13ifvqesg","pricing_plan_id":"cebpf4jnsgd1na2vs0mg"},{"bike_id":"f3b0b6c1-9370-4f07-9984-370cd60d0f6c","system_id":"levelo_inurba_marseille","lat":43.292749,"lon":5.368398,"is_reserved":false,"is_disabled":false,"rental_uris":{"android":"levelo://app?vid=f3b0b6c1-9370-4f07-9984-370cd60d0f6c","ios":"levelo://app?vid=f3b0b6c1-9370-4f07-9984-370cd60d0f6c"},"vehicle_type_id":"4","last_reported":1717520827,"current_range_meters":21600,"station_id":"ce4bhbp2rcd13ifvqesg","pricing_plan_id":"cebpf4jnsgd1na2vs0mg"},{"bike_id":"49583a69-fe05-4a7e-9754-c3d9191430a7","system_id":"levelo_inurba_marseille","lat":43.293009,"lon":5.374584,"is_reserved":false,"is_disabled":false,"rental_uris":{"android":"levelo://app?vid=49583a69-fe05-4a7e-9754-c3d9191430a7","ios":"levelo://app?vid=49583a69-fe05-4a7e-9754-c3d9191430a7"},"vehicle_type_id":"4","last_reported":1717520827,"current_range_meters":0,"station_id":"ce4bgi12rcd13ifvqb70","pricing_plan_id":"cebpf4jnsgd1na2vs0mg"},{"bike_id":"5571255a-1ff9-4137-a1c6-ee6130e68f32","system_id":"levelo_inurba_marseille","lat":43.305994,"lon":5.393687,"is_reserved":false,"is_disabled":false,"rental_uris":{"android":"levelo://app?vid=5571255a-1ff9-4137-a1c6-ee6130e68f32","ios":"levelo://app?vid=5571255a-1ff9-4137-a1c6-ee6130e68f32"},"vehicle_type_id":"4","last_reported":1717520827,"current_range_meters":11200,"station_id":"ce4bh0p2rcd13ifvqd80","pricing_plan_id":"cebpf4jnsgd1na2vs0mg"},{"bike_id":"c3eca5a4-cdd5-42dc-b633-06367bcca4b8","system_id":"levelo_inurba_marseille","lat":43.305994,"lon":5.393687,"is_reserved":false,"is_disabled":false,"rental_uris":{"android":"levelo://app?vid=c3eca5a4-cdd5-42dc-b633-06367bcca4b8","ios":"levelo://app?vid=c3eca5a4-cdd5-42dc-b633-06367bcca4b8"},"vehicle_type_id":"4","last_reported":1717520827,"current_range_meters":0,"station_id":"ce4bh0p2rcd13ifvqd80","pricing_plan_id":"cebpf4jnsgd1na2vs0mg"},{"bike_id":"0506efcf-6639-4453-987b-4b6e6c4caf34","system_id":"levelo_inurba_marseille","lat":43.293009,"lon":5.374584,"is_reserved":false,"is_disabled":false,"rental_uris":{"android":"levelo://app?vid=0506efcf-6639-4453-987b-4b6e6c4caf34","ios":"levelo://app?vid=0506efcf-6639-4453-987b-4b6e6c4caf34"},"vehicle_type_id":"4","last_reported":1717520827,"current_range_meters":17600,"station_id":"ce4bgi12rcd13ifvqb70","pricing_plan_id":"cebpf4jnsgd1na2vs0mg"},{"bike_id":"772349d0-6f1f-4cf5-99c5-3ff1fb4d228d","system_id":"levelo_inurba_marseille","lat":43.303002,"lon":5.392142,"is_reserved":false,"is_disabled":false,"rental_uris":{"android":"levelo://app?vid=772349d0-6f1f-4cf5-99c5-3ff1fb4d228d","ios":"levelo://app?vid=772349d0-6f1f-4cf5-99c5-3ff1fb4d228d"},"vehicle_type_id":"4","last_reported":1717520827,"current_range_meters":26400,"station_id":"ce4bgkh2rcd13ifvqbk0","pricing_plan_id":"cebpf4jnsgd1na2vs0mg"},{"bike_id":"fd96fef2-3f3f-4aae-91e6-cb5e5c684ad4","system_id":"levelo_inurba_marseille","lat":43.30337,"lon":5.39252,"is_reserved":false,"is_disabled":false,"rental_uris":{"android":"levelo://app?vid=fd96fef2-3f3f-4aae-91e6-cb5e5c684ad4","ios":"levelo://app?vid=fd96fef2-3f3f-4aae-91e6-cb5e5c684ad4"},"vehicle_type_id":"4","last_reported":1717520827,"current_range_meters":4800,"station_id":"","pricing_plan_id":"cebpf4jnsgd1na2vs0mg"},{"bike_id":"463e99d2-ad54-4978-8901-7e4c54edf6cf","system_id":"levelo_inurba_marseille","lat":43.2923,"lon":5.36093,"is_reserved":false,"is_disabled":false,"rental_uris":{"android":"levelo://app?vid=463e99d2-ad54-4978-8901-7e4c54edf6cf","ios":"levelo://app?vid=463e99d2-ad54-4978-8901-7e4c54edf6cf"},"vehicle_type_id":"4","last_reported":1717520827,"current_range_meters":24800,"station_id":"","pricing_plan_id":"cebpf4jnsgd1na2vs0mg"},{"bike_id":"3bafcd6e-7425-4e97-a1d3-3993f9cb09d0","system_id":"levelo_inurba_marseille","lat":43.292253,"lon":5.360683,"is_reserved":false,"is_disabled":false,"rental_uris":{"android":"levelo://app?vid=3bafcd6e-7425-4e97-a1d3-3993f9cb09d0","ios":"levelo://app?vid=3bafcd6e-7425-4e97-a1d3-3993f9cb09d0"},"vehicle_type_id":"4","last_reported":1717520827,"current_range_meters":28000,"station_id":"ce4bhbh2rcd13ifvqeqg","pricing_plan_id":"cebpf4jnsgd1na2vs0mg"},{"bike_id":"a4154e4f-1deb-4076-8ab6-01589b9c92b4","system_id":"levelo_inurba_marseille","lat":43.30085,"lon":5.390856,"is_reserved":false,"is_disabled":false,"rental_uris":{"android":"levelo://app?vid=a4154e4f-1deb-4076-8ab6-01589b9c92b4","ios":"levelo://app?vid=a4154e4f-1deb-4076-8ab6-01589b9c92b4"},"vehicle_type_id":"4","last_reported":1717520827,"current_range_meters":16800,"station_id":"ce4bh192rcd13ifvqdb0","pricing_plan_id":"cebpf4jnsgd1na2vs0mg"},{"bike_id":"5f9fada6-f05b-4efb-bd32-7438ad9d64e8","system_id":"levelo_inurba_marseille","lat":43.30085,"lon":5.390856,"is_reserved":false,"is_disabled":false,"rental_uris":{"android":"levelo://app?vid=5f9fada6-f05b-4efb-bd32-7438ad9d64e8","ios":"levelo://app?vid=5f9fada6-f05b-4efb-bd32-7438ad9d64e8"},"vehicle_type_id":"4","last_reported":1717520827,"current_range_meters":0,"station_id":"ce4bh192rcd13ifvqdb0","pricing_plan_id":"cebpf4jnsgd1na2vs0mg"},{"bike_id":"6ff42318-c673-4af9-ac5b-9177a785b271","system_id":"levelo_inurba_marseille","lat":43.292311,"lon":5.360731,"is_reserved":false,"is_disabled":false,"rental_uris":{"android":"levelo://app?vid=6ff42318-c673-4af9-ac5b-9177a785b271","ios":"levelo://app?vid=6ff42318-c673-4af9-ac5b-9177a785b271"},"vehicle_type_id":"4","last_reported":1717520827,"current_range_meters":0,"station_id":"ce4bhbh2rcd13ifvqeqg","pricing_plan_id":"cebpf4jnsgd1na2vs0mg"},{"bike_id":"03cbe6d8-eea5-4cd9-a8b0-52d0f84c7269","system_id":"levelo_inurba_marseille","lat":43.29887,"lon":5.38896,"is_reserved":false,"is_disabled":false,"rental_uris":{"android":"levelo://app?vid=03cbe6d8-eea5-4cd9-a8b0-52d0f84c7269","ios":"levelo://app?vid=03cbe6d8-eea5-4cd9-a8b0-52d0f84c7269"},"vehicle_type_id":"4","last_reported":1717520827,"current_range_meters":800,"station_id":"ce4bh392rcd13ifvqdl0","pricing_plan_id":"cebpf4jnsgd1na2vs0mg"},{"bike_id":"fcb23a1b-9e73-4a5b-9d6a-da9f94bb1510","system_id":"levelo_inurba_marseille","lat":43.298764,"lon":5.388973,"is_reserved":false,"is_disabled":false,"rental_uris":{"android":"levelo://app?vid=fcb23a1b-9e73-4a5b-9d6a-da9f94bb1510","ios":"levelo://app?vid=fcb23a1b-9e73-4a5b-9d6a-da9f94bb1510"},"vehicle_type_id":"4","last_reported":1717520827,"current_range_meters":0,"station_id":"ce4bh392rcd13ifvqdl0","pricing_plan_id":"cebpf4jnsgd1na2vs0mg"},{"bike_id":"4c9355a8-14a9-47f5-ab5a-a912fa1c3c39","system_id":"levelo_inurba_marseille","lat":43.291675,"lon":5.371583,"is_reserved":false,"is_disabled":false,"rental_uris":{"android":"levelo://app?vid=4c9355a8-14a9-47f5-ab5a-a912fa1c3c39","ios":"levelo://app?vid=4c9355a8-14a9-47f5-ab5a-a912fa1c3c39"},"vehicle_type_id":"4","last_reported":1717520827,"current_range_meters":15600,"station_id":"ce4bha92rcd13ifvqeh0","pricing_plan_id":"cebpf4jnsgd1na2vs0mg"},{"bike_id":"744eb4cd-fb94-4f4c-9126-8f64ef1c10fc","system_id":"levelo_inurba_marseille","lat":43.292027,"lon":5.358696,"is_reserved":false,"is_disabled":false,"rental_uris":{"android":"levelo://app?vid=744eb4cd-fb94-4f4c-9126-8f64ef1c10fc","ios":"levelo://app?vid=744eb4cd-fb94-4f4c-9126-8f64ef1c10fc"},"vehicle_type_id":"4","last_reported":1717520827,"current_range_meters":0,"station_id":"ce4bhb12rcd13ifvqel0","pricing_plan_id":"cebpf4jnsgd1na2vs0mg"},{"bike_id":"07e696ca-4a83-463e-83f3-fffac8f2bd7c","system_id":"levelo_inurba_marseille","lat":43.313291,"lon":5.396838,"is_reserved":false,"is_disabled":false,"rental_uris":{"android":"levelo://app?vid=07e696ca-4a83-463e-83f3-fffac8f2bd7c","ios":"levelo://app?vid=07e696ca-4a83-463e-83f3-fffac8f2bd7c"},"vehicle_type_id":"4","last_reported":1717520827,"current_range_meters":0,"station_id":"ce4bgvp2rcd13ifvqcu0","pricing_plan_id":"cebpf4jnsgd1na2vs0mg"},{"bike_id":"764f69fa-736e-4ade-b13f-97e7cef9a985","system_id":"levelo_inurba_marseille","lat":43.29192,"lon":5.35799,"is_reserved":false,"is_disabled":false,"rental_uris":{"android":"levelo://app?vid=764f69fa-736e-4ade-b13f-97e7cef9a985","ios":"levelo://app?vid=764f69fa-736e-4ade-b13f-97e7cef9a985"},"vehicle_type_id":"4","last_reported":1717520827,"current_range_meters":20000,"station_id":"","pricing_plan_id":"cebpf4jnsgd1na2vs0mg"},{"bike_id":"749abb02-5c6c-484e-84ff-5f71253873e7","system_id":"levelo_inurba_marseille","lat":43.291994,"lon":5.357886,"is_reserved":false,"is_disabled":false,"rental_uris":{"android":"levelo://app?vid=749abb02-5c6c-484e-84ff-5f71253873e7","ios":"levelo://app?vid=749abb02-5c6c-484e-84ff-5f71253873e7"},"vehicle_type_id":"4","last_reported":1717520827,"current_range_meters":4400,"station_id":"ce4bhb12rcd13ifvqel0","pricing_plan_id":"cebpf4jnsgd1na2vs0mg"},{"bike_id":"91202ba7-e721-4b91-ae9c-1a277a54a7e4","system_id":"levelo_inurba_marseille","lat":43.313291,"lon":5.396838,"is_reserved":false,"is_disabled":false,"rental_uris":{"android":"levelo://app?vid=91202ba7-e721-4b91-ae9c-1a277a54a7e4","ios":"levelo://app?vid=91202ba7-e721-4b91-ae9c-1a277a54a7e4"},"vehicle_type_id":"4","last_reported":1717520827,"current_range_meters":0,"station_id":"ce4bgvp2rcd13ifvqcu0","pricing_plan_id":"cebpf4jnsgd1na2vs0mg"},{"bike_id":"4d3c82a3-c6c6-4d5c-a61a-301f82f9bcdc","system_id":"levelo_inurba_marseille","lat":43.313291,"lon":5.396838,"is_reserved":false,"is_disabled":false,"rental_uris":{"android":"levelo://app?vid=4d3c82a3-c6c6-4d5c-a61a-301f82f9bcdc","ios":"levelo://app?vid=4d3c82a3-c6c6-4d5c-a61a-301f82f9bcdc"},"vehicle_type_id":"4","last_reported":1717520827,"current_range_meters":28400,"station_id":"ce4bgvp2rcd13ifvqcu0","pricing_plan_id":"cebpf4jnsgd1na2vs0mg"},{"bike_id":"43632675-0625-4dae-9868-1a7be9c5427b","system_id":"levelo_inurba_marseille","lat":43.30865,"lon":5.39645,"is_reserved":false,"is_disabled":false,"rental_uris":{"android":"levelo://app?vid=43632675-0625-4dae-9868-1a7be9c5427b","ios":"levelo://app?vid=43632675-0625-4dae-9868-1a7be9c5427b"},"vehicle_type_id":"4","last_reported":1717520827,"current_range_meters":0,"station_id":"ce4bh012rcd13ifvqcv0","pricing_plan_id":"cebpf4jnsgd1na2vs0mg"},{"bike_id":"2da983ea-bba8-444a-a163-5891b30b32dd","system_id":"levelo_inurba_marseille","lat":43.309038,"lon":5.396546,"is_reserved":false,"is_disabled":false,"rental_uris":{"android":"levelo://app?vid=2da983ea-bba8-444a-a163-5891b30b32dd","ios":"levelo://app?vid=2da983ea-bba8-444a-a163-5891b30b32dd"},"vehicle_type_id":"4","last_reported":1717520827,"current_range_meters":0,"station_id":"ce4bh012rcd13ifvqcv0","pricing_plan_id":"cebpf4jnsgd1na2vs0mg"},{"bike_id":"0ce7e744-8bd2-4eb6-bd92-36bc33f3d339","system_id":"levelo_inurba_marseille","lat":43.309038,"lon":5.396546,"is_reserved":false,"is_disabled":false,"rental_uris":{"android":"levelo://app?vid=0ce7e744-8bd2-4eb6-bd92-36bc33f3d339","ios":"levelo://app?vid=0ce7e744-8bd2-4eb6-bd92-36bc33f3d339"},"vehicle_type_id":"4","last_reported":1717520827,"current_range_meters":4000,"station_id":"ce4bh012rcd13ifvqcv0","pricing_plan_id":"cebpf4jnsgd1na2vs0mg"},{"bike_id":"0296c2b3-aa49-4d25-af59-7fbb3c55e964","system_id":"levelo_inurba_marseille","lat":43.309047,"lon":5.396551,"is_reserved":false,"is_disabled":false,"rental_uris":{"android":"levelo://app?vid=0296c2b3-aa49-4d25-af59-7fbb3c55e964","ios":"levelo://app?vid=0296c2b3-aa49-4d25-af59-7fbb3c55e964"},"vehicle_type_id":"4","last_reported":1717520827,"current_range_meters":7600,"station_id":"ce4bh012rcd13ifvqcv0","pricing_plan_id":"cebpf4jnsgd1na2vs0mg"},{"bike_id":"a4034c72-3f6a-4013-92e0-3d7d89e6ccd5","system_id":"levelo_inurba_marseille","lat":43.29529,"lon":5.385581,"is_reserved":false,"is_disabled":false,"rental_uris":{"android":"levelo://app?vid=a4034c72-3f6a-4013-92e0-3d7d89e6ccd5","ios":"levelo://app?vid=a4034c72-3f6a-4013-92e0-3d7d89e6ccd5"},"vehicle_type_id":"4","last_reported":1717520827,"current_range_meters":19200,"station_id":"ce4bgih2rcd13ifvqba0","pricing_plan_id":"cebpf4jnsgd1na2vs0mg"},{"bike_id":"5b2f3f75-9413-44e9-a0ed-f9824c4079d6","system_id":"levelo_inurba_marseille","lat":43.292005,"lon":5.357875,"is_reserved":false,"is_disabled":false,"rental_uris":{"android":"levelo://app?vid=5b2f3f75-9413-44e9-a0ed-f9824c4079d6","ios":"levelo://app?vid=5b2f3f75-9413-44e9-a0ed-f9824c4079d6"},"vehicle_type_id":"4","last_reported":1717520827,"current_range_meters":16800,"station_id":"ce4bhb12rcd13ifvqel0","pricing_plan_id":"cebpf4jnsgd1na2vs0mg"},{"bike_id":"ea197ba5-8cdc-4e1c-a8cf-5a79f23db11a","system_id":"levelo_inurba_marseille","lat":43.309038,"lon":5.396546,"is_reserved":false,"is_disabled":false,"rental_uris":{"android":"levelo://app?vid=ea197ba5-8cdc-4e1c-a8cf-5a79f23db11a","ios":"levelo://app?vid=ea197ba5-8cdc-4e1c-a8cf-5a79f23db11a"},"vehicle_type_id":"4","last_reported":1717520827,"current_range_meters":4000,"station_id":"ce4bh012rcd13ifvqcv0","pricing_plan_id":"cebpf4jnsgd1na2vs0mg"},{"bike_id":"46d351c3-66eb-4339-91cb-b3b9b4602325","system_id":"levelo_inurba_marseille","lat":43.290779,"lon":5.371482,"is_reserved":false,"is_disabled":false,"rental_uris":{"android":"levelo://app?vid=46d351c3-66eb-4339-91cb-b3b9b4602325","ios":"levelo://app?vid=46d351c3-66eb-4339-91cb-b3b9b4602325"},"vehicle_type_id":"4","last_reported":1717520827,"current_range_meters":18000,"station_id":"ce4bh5p2rcd13ifvqe4g","pricing_plan_id":"cebpf4jnsgd1na2vs0mg"},{"bike_id":"bfa07457-5aa0-4e60-8981-0c511cc2623f","system_id":"levelo_inurba_marseille","lat":43.290779,"lon":5.371482,"is_reserved":false,"is_disabled":false,"rental_uris":{"android":"levelo://app?vid=bfa07457-5aa0-4e60-8981-0c511cc2623f","ios":"levelo://app?vid=bfa07457-5aa0-4e60-8981-0c511cc2623f"},"vehicle_type_id":"4","last_reported":1717520827,"current_range_meters":3600,"station_id":"ce4bh5p2rcd13ifvqe4g","pricing_plan_id":"cebpf4jnsgd1na2vs0mg"},{"bike_id":"e411793e-9bdd-4944-ac6e-821ee4b58337","system_id":"levelo_inurba_marseille","lat":43.302008,"lon":5.394694,"is_reserved":false,"is_disabled":false,"rental_uris":{"android":"levelo://app?vid=e411793e-9bdd-4944-ac6e-821ee4b58337","ios":"levelo://app?vid=e411793e-9bdd-4944-ac6e-821ee4b58337"},"vehicle_type_id":"4","last_reported":1717520827,"current_range_meters":18400,"station_id":"ce4bh0p2rcd13ifvqd70","pricing_plan_id":"cebpf4jnsgd1na2vs0mg"},{"bike_id":"a7643b47-1bda-47ac-baa8-2f85f03eb068","system_id":"levelo_inurba_marseille","lat":43.290631,"lon":5.359244,"is_reserved":false,"is_disabled":false,"rental_uris":{"android":"levelo://app?vid=a7643b47-1bda-47ac-baa8-2f85f03eb068","ios":"levelo://app?vid=a7643b47-1bda-47ac-baa8-2f85f03eb068"},"vehicle_type_id":"4","last_reported":1717520827,"current_range_meters":800,"station_id":"ce4bha92rcd13ifvqeg0","pricing_plan_id":"cebpf4jnsgd1na2vs0mg"},{"bike_id":"7e0baa14-92e6-46c7-80b7-b6803caa6197","system_id":"levelo_inurba_marseille","lat":43.289468,"lon":5.363719,"is_reserved":false,"is_disabled":false,"rental_uris":{"android":"levelo://app?vid=7e0baa14-92e6-46c7-80b7-b6803caa6197","ios":"levelo://app?vid=7e0baa14-92e6-46c7-80b7-b6803caa6197"},"vehicle_type_id":"4","last_reported":1717520827,"current_range_meters":12000,"station_id":"ce4bhc92rcd13ifvqetg","pricing_plan_id":"cebpf4jnsgd1na2vs0mg"},{"bike_id":"a604b50d-577d-418f-8753-be31df4225f4","system_id":"levelo_inurba_marseille","lat":43.294249,"lon":5.386298,"is_reserved":false,"is_disabled":false,"rental_uris":{"android":"levelo://app?vid=a604b50d-577d-418f-8753-be31df4225f4","ios":"levelo://app?vid=a604b50d-577d-418f-8753-be31df4225f4"},"vehicle_type_id":"4","last_reported":1717520827,"current_range_meters":0,"station_id":"ce4bh2h2rcd13ifvqdh0","pricing_plan_id":"cebpf4jnsgd1na2vs0mg"},{"bike_id":"79120bb1-4eda-48b7-aff6-883d8c3d489b","system_id":"levelo_inurba_marseille","lat":43.289184,"lon":5.366408,"is_reserved":false,"is_disabled":false,"rental_uris":{"android":"levelo://app?vid=79120bb1-4eda-48b7-aff6-883d8c3d489b","ios":"levelo://app?vid=79120bb1-4eda-48b7-aff6-883d8c3d489b"},"vehicle_type_id":"4","last_reported":1717520827,"current_range_meters":18800,"station_id":"ce4bhap2rcd13ifvqek0","pricing_plan_id":"cebpf4jnsgd1na2vs0mg"},{"bike_id":"3500299c-b1f0-471b-b3f3-ca82746305d7","system_id":"levelo_inurba_marseille","lat":43.294153,"lon":5.386305,"is_reserved":false,"is_disabled":false,"rental_uris":{"android":"levelo://app?vid=3500299c-b1f0-471b-b3f3-ca82746305d7","ios":"levelo://app?vid=3500299c-b1f0-471b-b3f3-ca82746305d7"},"vehicle_type_id":"4","last_reported":1717520827,"current_range_meters":7200,"station_id":"ce4bh2h2rcd13ifvqdh0","pricing_plan_id":"cebpf4jnsgd1na2vs0mg"},{"bike_id":"2d3bea60-1205-4e2a-a0ee-f4020662a2b9","system_id":"levelo_inurba_marseille","lat":43.289184,"lon":5.366408,"is_reserved":false,"is_disabled":false,"rental_uris":{"android":"levelo://app?vid=2d3bea60-1205-4e2a-a0ee-f4020662a2b9","ios":"levelo://app?vid=2d3bea60-1205-4e2a-a0ee-f4020662a2b9"},"vehicle_type_id":"4","last_reported":1717520827,"current_range_meters":0,"station_id":"ce4bhap2rcd13ifvqek0","pricing_plan_id":"cebpf4jnsgd1na2vs0mg"},{"bike_id":"579554f0-e994-4fec-ad13-ab517d173bef","system_id":"levelo_inurba_marseille","lat":43.289184,"lon":5.366408,"is_reserved":false,"is_disabled":false,"rental_uris":{"android":"levelo://app?vid=579554f0-e994-4fec-ad13-ab517d173bef","ios":"levelo://app?vid=579554f0-e994-4fec-ad13-ab517d173bef"},"vehicle_type_id":"4","last_reported":1717520827,"current_range_meters":0,"station_id":"ce4bhap2rcd13ifvqek0","pricing_plan_id":"cebpf4jnsgd1na2vs0mg"},{"bike_id":"9e75fc62-994a-40af-a106-8b175955ccc4","system_id":"levelo_inurba_marseille","lat":43.28933,"lon":5.366319,"is_reserved":false,"is_disabled":false,"rental_uris":{"android":"levelo://app?vid=9e75fc62-994a-40af-a106-8b175955ccc4","ios":"levelo://app?vid=9e75fc62-994a-40af-a106-8b175955ccc4"},"vehicle_type_id":"4","last_reported":1717520827,"current_range_meters":0,"station_id":"ce4bhap2rcd13ifvqek0","pricing_plan_id":"cebpf4jnsgd1na2vs0mg"},{"bike_id":"510eebdc-04e2-4ce0-8472-5a29a87f42fc","system_id":"levelo_inurba_marseille","lat":43.289468,"lon":5.363719,"is_reserved":false,"is_disabled":false,"rental_uris":{"android":"levelo://app?vid=510eebdc-04e2-4ce0-8472-5a29a87f42fc","ios":"levelo://app?vid=510eebdc-04e2-4ce0-8472-5a29a87f42fc"},"vehicle_type_id":"4","last_reported":1717520827,"current_range_meters":3600,"station_id":"ce4bhc92rcd13ifvqetg","pricing_plan_id":"cebpf4jnsgd1na2vs0mg"},{"bike_id":"5e9a0f93-12a7-402f-b4f8-068a78add1d7","system_id":"levelo_inurba_marseille","lat":43.292642,"lon":5.384254,"is_reserved":false,"is_disabled":false,"rental_uris":{"android":"levelo://app?vid=5e9a0f93-12a7-402f-b4f8-068a78add1d7","ios":"levelo://app?vid=5e9a0f93-12a7-402f-b4f8-068a78add1d7"},"vehicle_type_id":"4","last_reported":1717520827,"current_range_meters":1200,"station_id":"ce4bh692rcd13ifvqea0","pricing_plan_id":"cebpf4jnsgd1na2vs0mg"},{"bike_id":"c85ae021-d76c-4f36-8796-56717cc385a0","system_id":"levelo_inurba_marseille","lat":43.292642,"lon":5.384254,"is_reserved":false,"is_disabled":false,"rental_uris":{"android":"levelo://app?vid=c85ae021-d76c-4f36-8796-56717cc385a0","ios":"levelo://app?vid=c85ae021-d76c-4f36-8796-56717cc385a0"},"vehicle_type_id":"4","last_reported":1717520827,"current_range_meters":0,"station_id":"ce4bh692rcd13ifvqea0","pricing_plan_id":"cebpf4jnsgd1na2vs0mg"},{"bike_id":"802119bb-c45f-47c8-8f83-ad675e58675f","system_id":"levelo_inurba_marseille","lat":43.292644,"lon":5.384257,"is_reserved":false,"is_disabled":false,"rental_uris":{"android":"levelo://app?vid=802119bb-c45f-47c8-8f83-ad675e58675f","ios":"levelo://app?vid=802119bb-c45f-47c8-8f83-ad675e58675f"},"vehicle_type_id":"4","last_reported":1717520827,"current_range_meters":0,"station_id":"ce4bh692rcd13ifvqea0","pricing_plan_id":"cebpf4jnsgd1na2vs0mg"},{"bike_id":"404d84e2-a828-4e9e-aeeb-d5c8f277d82b","system_id":"levelo_inurba_marseille","lat":43.292617,"lon":5.384456,"is_reserved":false,"is_disabled":false,"rental_uris":{"android":"levelo://app?vid=404d84e2-a828-4e9e-aeeb-d5c8f277d82b","ios":"levelo://app?vid=404d84e2-a828-4e9e-aeeb-d5c8f277d82b"},"vehicle_type_id":"4","last_reported":1717520827,"current_range_meters":0,"station_id":"ce4bh692rcd13ifvqea0","pricing_plan_id":"cebpf4jnsgd1na2vs0mg"},{"bike_id":"bd6bfb9d-272b-4963-b2cd-ff63dc03c31e","system_id":"levelo_inurba_marseille","lat":43.292644,"lon":5.384257,"is_reserved":false,"is_disabled":false,"rental_uris":{"android":"levelo://app?vid=bd6bfb9d-272b-4963-b2cd-ff63dc03c31e","ios":"levelo://app?vid=bd6bfb9d-272b-4963-b2cd-ff63dc03c31e"},"vehicle_type_id":"4","last_reported":1717520827,"current_range_meters":0,"station_id":"ce4bh692rcd13ifvqea0","pricing_plan_id":"cebpf4jnsgd1na2vs0mg"},{"bike_id":"67f203b7-592b-46ab-a92f-d2bdbf24b0eb","system_id":"levelo_inurba_marseille","lat":43.330442,"lon":5.389148,"is_reserved":false,"is_disabled":false,"rental_uris":{"android":"levelo://app?vid=67f203b7-592b-46ab-a92f-d2bdbf24b0eb","ios":"levelo://app?vid=67f203b7-592b-46ab-a92f-d2bdbf24b0eb"},"vehicle_type_id":"4","last_reported":1717520827,"current_range_meters":24400,"station_id":"ce4bhr92rcd13ifvqhrg","pricing_plan_id":"cebpf4jnsgd1na2vs0mg"},{"bike_id":"c79f0677-cd8c-42e9-8f75-626bd7041c63","system_id":"levelo_inurba_marseille","lat":43.290104,"lon":5.356111,"is_reserved":false,"is_disabled":false,"rental_uris":{"android":"levelo://app?vid=c79f0677-cd8c-42e9-8f75-626bd7041c63","ios":"levelo://app?vid=c79f0677-cd8c-42e9-8f75-626bd7041c63"},"vehicle_type_id":"4","last_reported":1717520827,"current_range_meters":4400,"station_id":"ce4bhb92rcd13ifvqen0","pricing_plan_id":"cebpf4jnsgd1na2vs0mg"},{"bike_id":"df82cdbc-a6f7-42c5-92c1-3e8024e84715","system_id":"levelo_inurba_marseille","lat":43.290103,"lon":5.356114,"is_reserved":false,"is_disabled":false,"rental_uris":{"android":"levelo://app?vid=df82cdbc-a6f7-42c5-92c1-3e8024e84715","ios":"levelo://app?vid=df82cdbc-a6f7-42c5-92c1-3e8024e84715"},"vehicle_type_id":"4","last_reported":1717520827,"current_range_meters":800,"station_id":"ce4bhb92rcd13ifvqen0","pricing_plan_id":"cebpf4jnsgd1na2vs0mg"},{"bike_id":"1d542ac7-aafc-4890-bb0b-6814af6337bf","system_id":"levelo_inurba_marseille","lat":43.330442,"lon":5.389148,"is_reserved":false,"is_disabled":false,"rental_uris":{"android":"levelo://app?vid=1d542ac7-aafc-4890-bb0b-6814af6337bf","ios":"levelo://app?vid=1d542ac7-aafc-4890-bb0b-6814af6337bf"},"vehicle_type_id":"4","last_reported":1717520827,"current_range_meters":10000,"station_id":"ce4bhr92rcd13ifvqhrg","pricing_plan_id":"cebpf4jnsgd1na2vs0mg"},{"bike_id":"83071d4d-e412-4b5b-b34d-9e84b8b3d65d","system_id":"levelo_inurba_marseille","lat":43.295169,"lon":5.390426,"is_reserved":false,"is_disabled":false,"rental_uris":{"android":"levelo://app?vid=83071d4d-e412-4b5b-b34d-9e84b8b3d65d","ios":"levelo://app?vid=83071d4d-e412-4b5b-b34d-9e84b8b3d65d"},"vehicle_type_id":"4","last_reported":1717520827,"current_range_meters":10800,"station_id":"ce4bh3p2rcd13ifvqdp0","pricing_plan_id":"cebpf4jnsgd1na2vs0mg"},{"bike_id":"cb4eea19-2539-45a6-8319-45843e12f993","system_id":"levelo_inurba_marseille","lat":43.295169,"lon":5.390426,"is_reserved":false,"is_disabled":false,"rental_uris":{"android":"levelo://app?vid=cb4eea19-2539-45a6-8319-45843e12f993","ios":"levelo://app?vid=cb4eea19-2539-45a6-8319-45843e12f993"},"vehicle_type_id":"4","last_reported":1717520827,"current_range_meters":21200,"station_id":"ce4bh3p2rcd13ifvqdp0","pricing_plan_id":"cebpf4jnsgd1na2vs0mg"},{"bike_id":"9cbb71c0-f027-41ce-bc48-77017642825e","system_id":"levelo_inurba_marseille","lat":43.295169,"lon":5.390426,"is_reserved":false,"is_disabled":false,"rental_uris":{"android":"levelo://app?vid=9cbb71c0-f027-41ce-bc48-77017642825e","ios":"levelo://app?vid=9cbb71c0-f027-41ce-bc48-77017642825e"},"vehicle_type_id":"4","last_reported":1717520827,"current_range_meters":24000,"station_id":"ce4bh3p2rcd13ifvqdp0","pricing_plan_id":"cebpf4jnsgd1na2vs0mg"},{"bike_id":"bbe4c5f5-ff83-40ae-8615-ca0fe4d73e68","system_id":"levelo_inurba_marseille","lat":43.330442,"lon":5.389148,"is_reserved":false,"is_disabled":false,"rental_uris":{"android":"levelo://app?vid=bbe4c5f5-ff83-40ae-8615-ca0fe4d73e68","ios":"levelo://app?vid=bbe4c5f5-ff83-40ae-8615-ca0fe4d73e68"},"vehicle_type_id":"4","last_reported":1717520827,"current_range_meters":8400,"station_id":"ce4bhr92rcd13ifvqhrg","pricing_plan_id":"cebpf4jnsgd1na2vs0mg"},{"bike_id":"dce62d08-aec7-4ef9-9fc1-b99ec4487b86","system_id":"levelo_inurba_marseille","lat":43.330442,"lon":5.389148,"is_reserved":false,"is_disabled":false,"rental_uris":{"android":"levelo://app?vid=dce62d08-aec7-4ef9-9fc1-b99ec4487b86","ios":"levelo://app?vid=dce62d08-aec7-4ef9-9fc1-b99ec4487b86"},"vehicle_type_id":"4","last_reported":1717520827,"current_range_meters":0,"station_id":"ce4bhr92rcd13ifvqhrg","pricing_plan_id":"cebpf4jnsgd1na2vs0mg"},{"bike_id":"4775a8d1-0d5a-49df-b41a-7b403726af33","system_id":"levelo_inurba_marseille","lat":43.330442,"lon":5.389148,"is_reserved":false,"is_disabled":false,"rental_uris":{"android":"levelo://app?vid=4775a8d1-0d5a-49df-b41a-7b403726af33","ios":"levelo://app?vid=4775a8d1-0d5a-49df-b41a-7b403726af33"},"vehicle_type_id":"4","last_reported":1717520827,"current_range_meters":18000,"station_id":"ce4bhr92rcd13ifvqhrg","pricing_plan_id":"cebpf4jnsgd1na2vs0mg"},{"bike_id":"0beb7888-2e89-4ef9-8a87-b39fbfa2c062","system_id":"levelo_inurba_marseille","lat":43.330442,"lon":5.389148,"is_reserved":false,"is_disabled":false,"rental_uris":{"android":"levelo://app?vid=0beb7888-2e89-4ef9-8a87-b39fbfa2c062","ios":"levelo://app?vid=0beb7888-2e89-4ef9-8a87-b39fbfa2c062"},"vehicle_type_id":"4","last_reported":1717520827,"current_range_meters":12800,"station_id":"ce4bhr92rcd13ifvqhrg","pricing_plan_id":"cebpf4jnsgd1na2vs0mg"},{"bike_id":"254192c8-7c0d-44f9-9081-f635c151e2f3","system_id":"levelo_inurba_marseille","lat":43.330442,"lon":5.389148,"is_reserved":false,"is_disabled":false,"rental_uris":{"android":"levelo://app?vid=254192c8-7c0d-44f9-9081-f635c151e2f3","ios":"levelo://app?vid=254192c8-7c0d-44f9-9081-f635c151e2f3"},"vehicle_type_id":"4","last_reported":1717520827,"current_range_meters":31600,"station_id":"ce4bhr92rcd13ifvqhrg","pricing_plan_id":"cebpf4jnsgd1na2vs0mg"},{"bike_id":"200758cc-a980-439e-9a29-a167aae7a4a0","system_id":"levelo_inurba_marseille","lat":43.330442,"lon":5.389148,"is_reserved":false,"is_disabled":false,"rental_uris":{"android":"levelo://app?vid=200758cc-a980-439e-9a29-a167aae7a4a0","ios":"levelo://app?vid=200758cc-a980-439e-9a29-a167aae7a4a0"},"vehicle_type_id":"4","last_reported":1717520827,"current_range_meters":25200,"station_id":"ce4bhr92rcd13ifvqhrg","pricing_plan_id":"cebpf4jnsgd1na2vs0mg"},{"bike_id":"b1e1c7bf-41ab-4c02-b6b2-c235171209a1","system_id":"levelo_inurba_marseille","lat":43.295169,"lon":5.390426,"is_reserved":false,"is_disabled":false,"rental_uris":{"android":"levelo://app?vid=b1e1c7bf-41ab-4c02-b6b2-c235171209a1","ios":"levelo://app?vid=b1e1c7bf-41ab-4c02-b6b2-c235171209a1"},"vehicle_type_id":"4","last_reported":1717520827,"current_range_meters":10400,"station_id":"ce4bh3p2rcd13ifvqdp0","pricing_plan_id":"cebpf4jnsgd1na2vs0mg"},{"bike_id":"629596dd-f6e6-4d5c-a90d-92ecd9bc89b7","system_id":"levelo_inurba_marseille","lat":43.330442,"lon":5.389148,"is_reserved":false,"is_disabled":false,"rental_uris":{"android":"levelo://app?vid=629596dd-f6e6-4d5c-a90d-92ecd9bc89b7","ios":"levelo://app?vid=629596dd-f6e6-4d5c-a90d-92ecd9bc89b7"},"vehicle_type_id":"4","last_reported":1717520827,"current_range_meters":0,"station_id":"ce4bhr92rcd13ifvqhrg","pricing_plan_id":"cebpf4jnsgd1na2vs0mg"},{"bike_id":"e7096369-178b-490c-ab74-f7f1da1d0fdf","system_id":"levelo_inurba_marseille","lat":43.330442,"lon":5.389148,"is_reserved":false,"is_disabled":false,"rental_uris":{"android":"levelo://app?vid=e7096369-178b-490c-ab74-f7f1da1d0fdf","ios":"levelo://app?vid=e7096369-178b-490c-ab74-f7f1da1d0fdf"},"vehicle_type_id":"4","last_reported":1717520827,"current_range_meters":20400,"station_id":"ce4bhr92rcd13ifvqhrg","pricing_plan_id":"cebpf4jnsgd1na2vs0mg"},{"bike_id":"dc37b1be-67b7-4423-ba4f-52260a48674f","system_id":"levelo_inurba_marseille","lat":43.330442,"lon":5.389148,"is_reserved":false,"is_disabled":false,"rental_uris":{"android":"levelo://app?vid=dc37b1be-67b7-4423-ba4f-52260a48674f","ios":"levelo://app?vid=dc37b1be-67b7-4423-ba4f-52260a48674f"},"vehicle_type_id":"4","last_reported":1717520827,"current_range_meters":13200,"station_id":"ce4bhr92rcd13ifvqhrg","pricing_plan_id":"cebpf4jnsgd1na2vs0mg"},{"bike_id":"47c7927e-81e4-453b-8eed-6b52232ec34c","system_id":"levelo_inurba_marseille","lat":43.330442,"lon":5.389148,"is_reserved":false,"is_disabled":false,"rental_uris":{"android":"levelo://app?vid=47c7927e-81e4-453b-8eed-6b52232ec34c","ios":"levelo://app?vid=47c7927e-81e4-453b-8eed-6b52232ec34c"},"vehicle_type_id":"4","last_reported":1717520827,"current_range_meters":31600,"station_id":"ce4bhr92rcd13ifvqhrg","pricing_plan_id":"cebpf4jnsgd1na2vs0mg"},{"bike_id":"6ea25449-2305-4161-9a48-52a8290c60f2","system_id":"levelo_inurba_marseille","lat":43.330442,"lon":5.389148,"is_reserved":false,"is_disabled":false,"rental_uris":{"android":"levelo://app?vid=6ea25449-2305-4161-9a48-52a8290c60f2","ios":"levelo://app?vid=6ea25449-2305-4161-9a48-52a8290c60f2"},"vehicle_type_id":"4","last_reported":1717520827,"current_range_meters":22800,"station_id":"ce4bhr92rcd13ifvqhrg","pricing_plan_id":"cebpf4jnsgd1na2vs0mg"},{"bike_id":"f9aa627e-3620-4096-ae76-0c38b21b39f5","system_id":"levelo_inurba_marseille","lat":43.330442,"lon":5.389148,"is_reserved":false,"is_disabled":false,"rental_uris":{"android":"levelo://app?vid=f9aa627e-3620-4096-ae76-0c38b21b39f5","ios":"levelo://app?vid=f9aa627e-3620-4096-ae76-0c38b21b39f5"},"vehicle_type_id":"4","last_reported":1717520827,"current_range_meters":17600,"station_id":"ce4bhr92rcd13ifvqhrg","pricing_plan_id":"cebpf4jnsgd1na2vs0mg"},{"bike_id":"52082711-f349-40c9-8350-827066808b06","system_id":"levelo_inurba_marseille","lat":43.330442,"lon":5.389148,"is_reserved":false,"is_disabled":false,"rental_uris":{"android":"levelo://app?vid=52082711-f349-40c9-8350-827066808b06","ios":"levelo://app?vid=52082711-f349-40c9-8350-827066808b06"},"vehicle_type_id":"4","last_reported":1717520827,"current_range_meters":16400,"station_id":"ce4bhr92rcd13ifvqhrg","pricing_plan_id":"cebpf4jnsgd1na2vs0mg"},{"bike_id":"022dc454-bf1e-442d-9a3a-a7174368b36c","system_id":"levelo_inurba_marseille","lat":43.295169,"lon":5.390426,"is_reserved":false,"is_disabled":false,"rental_uris":{"android":"levelo://app?vid=022dc454-bf1e-442d-9a3a-a7174368b36c","ios":"levelo://app?vid=022dc454-bf1e-442d-9a3a-a7174368b36c"},"vehicle_type_id":"4","last_reported":1717520827,"current_range_meters":21200,"station_id":"ce4bh3p2rcd13ifvqdp0","pricing_plan_id":"cebpf4jnsgd1na2vs0mg"},{"bike_id":"4c392a69-3abc-4bfc-bb3f-290c28480468","system_id":"levelo_inurba_marseille","lat":43.28856,"lon":5.358371,"is_reserved":false,"is_disabled":false,"rental_uris":{"android":"levelo://app?vid=4c392a69-3abc-4bfc-bb3f-290c28480468","ios":"levelo://app?vid=4c392a69-3abc-4bfc-bb3f-290c28480468"},"vehicle_type_id":"4","last_reported":1717520827,"current_range_meters":2800,"station_id":"ce4bhb12rcd13ifvqem0","pricing_plan_id":"cebpf4jnsgd1na2vs0mg"},{"bike_id":"8c64c778-2f47-4d8f-be19-69c590a8c0e0","system_id":"levelo_inurba_marseille","lat":43.33032,"lon":5.3912,"is_reserved":false,"is_disabled":false,"rental_uris":{"android":"levelo://app?vid=8c64c778-2f47-4d8f-be19-69c590a8c0e0","ios":"levelo://app?vid=8c64c778-2f47-4d8f-be19-69c590a8c0e0"},"vehicle_type_id":"4","last_reported":1717520827,"current_range_meters":17600,"station_id":"ce4bhr92rcd13ifvqhrg","pricing_plan_id":"cebpf4jnsgd1na2vs0mg"},{"bike_id":"60037342-7c50-4876-b2b7-86f6b2d063dd","system_id":"levelo_inurba_marseille","lat":43.295169,"lon":5.390426,"is_reserved":false,"is_disabled":false,"rental_uris":{"android":"levelo://app?vid=60037342-7c50-4876-b2b7-86f6b2d063dd","ios":"levelo://app?vid=60037342-7c50-4876-b2b7-86f6b2d063dd"},"vehicle_type_id":"4","last_reported":1717520827,"current_range_meters":2800,"station_id":"ce4bh3p2rcd13ifvqdp0","pricing_plan_id":"cebpf4jnsgd1na2vs0mg"},{"bike_id":"4998d057-82c5-4b0c-aef1-4b41fe54f912","system_id":"levelo_inurba_marseille","lat":43.28856,"lon":5.358371,"is_reserved":false,"is_disabled":false,"rental_uris":{"android":"levelo://app?vid=4998d057-82c5-4b0c-aef1-4b41fe54f912","ios":"levelo://app?vid=4998d057-82c5-4b0c-aef1-4b41fe54f912"},"vehicle_type_id":"4","last_reported":1717520827,"current_range_meters":23200,"station_id":"ce4bhb12rcd13ifvqem0","pricing_plan_id":"cebpf4jnsgd1na2vs0mg"},{"bike_id":"5ee045fa-ea7a-4d63-b7b1-a08be1b158c4","system_id":"levelo_inurba_marseille","lat":43.28856,"lon":5.358371,"is_reserved":false,"is_disabled":false,"rental_uris":{"android":"levelo://app?vid=5ee045fa-ea7a-4d63-b7b1-a08be1b158c4","ios":"levelo://app?vid=5ee045fa-ea7a-4d63-b7b1-a08be1b158c4"},"vehicle_type_id":"4","last_reported":1717520827,"current_range_meters":31200,"station_id":"ce4bhb12rcd13ifvqem0","pricing_plan_id":"cebpf4jnsgd1na2vs0mg"},{"bike_id":"fdb843e9-1e21-4009-ae23-d2f6008a8e5d","system_id":"levelo_inurba_marseille","lat":43.312609,"lon":5.401662,"is_reserved":false,"is_disabled":false,"rental_uris":{"android":"levelo://app?vid=fdb843e9-1e21-4009-ae23-d2f6008a8e5d","ios":"levelo://app?vid=fdb843e9-1e21-4009-ae23-d2f6008a8e5d"},"vehicle_type_id":"4","last_reported":1717520827,"current_range_meters":0,"station_id":"ce4bh092rcd13ifvqd30","pricing_plan_id":"cebpf4jnsgd1na2vs0mg"},{"bike_id":"524441b5-8a10-4a77-a613-4ae173cab640","system_id":"levelo_inurba_marseille","lat":43.312609,"lon":5.401662,"is_reserved":false,"is_disabled":false,"rental_uris":{"android":"levelo://app?vid=524441b5-8a10-4a77-a613-4ae173cab640","ios":"levelo://app?vid=524441b5-8a10-4a77-a613-4ae173cab640"},"vehicle_type_id":"4","last_reported":1717520827,"current_range_meters":0,"station_id":"ce4bh092rcd13ifvqd30","pricing_plan_id":"cebpf4jnsgd1na2vs0mg"},{"bike_id":"4cd1330a-0938-402e-b9be-7c20a9854b2b","system_id":"levelo_inurba_marseille","lat":43.312609,"lon":5.401662,"is_reserved":false,"is_disabled":false,"rental_uris":{"android":"levelo://app?vid=4cd1330a-0938-402e-b9be-7c20a9854b2b","ios":"levelo://app?vid=4cd1330a-0938-402e-b9be-7c20a9854b2b"},"vehicle_type_id":"4","last_reported":1717520827,"current_range_meters":0,"station_id":"ce4bh092rcd13ifvqd30","pricing_plan_id":"cebpf4jnsgd1na2vs0mg"},{"bike_id":"2d2c73a1-8fd5-422a-b1da-f085447e3aa3","system_id":"levelo_inurba_marseille","lat":43.28822,"lon":5.35832,"is_reserved":false,"is_disabled":false,"rental_uris":{"android":"levelo://app?vid=2d2c73a1-8fd5-422a-b1da-f085447e3aa3","ios":"levelo://app?vid=2d2c73a1-8fd5-422a-b1da-f085447e3aa3"},"vehicle_type_id":"4","last_reported":1717520827,"current_range_meters":22000,"station_id":"ce4bhb12rcd13ifvqem0","pricing_plan_id":"cebpf4jnsgd1na2vs0mg"},{"bike_id":"9eeb26df-97c6-4213-8911-2b27039c158a","system_id":"levelo_inurba_marseille","lat":43.312609,"lon":5.401662,"is_reserved":false,"is_disabled":false,"rental_uris":{"android":"levelo://app?vid=9eeb26df-97c6-4213-8911-2b27039c158a","ios":"levelo://app?vid=9eeb26df-97c6-4213-8911-2b27039c158a"},"vehicle_type_id":"4","last_reported":1717520827,"current_range_meters":26400,"station_id":"ce4bh092rcd13ifvqd30","pricing_plan_id":"cebpf4jnsgd1na2vs0mg"},{"bike_id":"26e88c15-1ebf-4978-814d-f8bc280f73dc","system_id":"levelo_inurba_marseille","lat":43.337446,"lon":5.37483,"is_reserved":false,"is_disabled":false,"rental_uris":{"android":"levelo://app?vid=26e88c15-1ebf-4978-814d-f8bc280f73dc","ios":"levelo://app?vid=26e88c15-1ebf-4978-814d-f8bc280f73dc"},"vehicle_type_id":"4","last_reported":1717520827,"current_range_meters":22400,"station_id":"","pricing_plan_id":"cebpf4jnsgd1na2vs0mg"},{"bike_id":"ed10c4e4-d3ba-48d3-9097-538e65a623f5","system_id":"levelo_inurba_marseille","lat":43.33756,"lon":5.37449,"is_reserved":false,"is_disabled":false,"rental_uris":{"android":"levelo://app?vid=ed10c4e4-d3ba-48d3-9097-538e65a623f5","ios":"levelo://app?vid=ed10c4e4-d3ba-48d3-9097-538e65a623f5"},"vehicle_type_id":"4","last_reported":1717520827,"current_range_meters":27200,"station_id":"","pricing_plan_id":"cebpf4jnsgd1na2vs0mg"},{"bike_id":"67c7fd8a-9660-4be1-bf01-de6860e1b761","system_id":"levelo_inurba_marseille","lat":43.306402,"lon":5.400919,"is_reserved":false,"is_disabled":false,"rental_uris":{"android":"levelo://app?vid=67c7fd8a-9660-4be1-bf01-de6860e1b761","ios":"levelo://app?vid=67c7fd8a-9660-4be1-bf01-de6860e1b761"},"vehicle_type_id":"4","last_reported":1717520827,"current_range_meters":0,"station_id":"ce4bh112rcd13ifvqda0","pricing_plan_id":"cebpf4jnsgd1na2vs0mg"},{"bike_id":"bda4c628-718c-4667-ad10-2f1ef30f1296","system_id":"levelo_inurba_marseille","lat":43.30642,"lon":5.401031,"is_reserved":false,"is_disabled":false,"rental_uris":{"android":"levelo://app?vid=bda4c628-718c-4667-ad10-2f1ef30f1296","ios":"levelo://app?vid=bda4c628-718c-4667-ad10-2f1ef30f1296"},"vehicle_type_id":"4","last_reported":1717520827,"current_range_meters":0,"station_id":"ce4bh112rcd13ifvqda0","pricing_plan_id":"cebpf4jnsgd1na2vs0mg"},{"bike_id":"09d9e0a1-6686-413b-aed5-30e37d103bc4","system_id":"levelo_inurba_marseille","lat":43.301117,"lon":5.398795,"is_reserved":false,"is_disabled":false,"rental_uris":{"android":"levelo://app?vid=09d9e0a1-6686-413b-aed5-30e37d103bc4","ios":"levelo://app?vid=09d9e0a1-6686-413b-aed5-30e37d103bc4"},"vehicle_type_id":"4","last_reported":1717520827,"current_range_meters":3200,"station_id":"ce4bh0h2rcd13ifvqd40","pricing_plan_id":"cebpf4jnsgd1na2vs0mg"},{"bike_id":"add55eed-832a-4026-b428-ecbf1f1b8b33","system_id":"levelo_inurba_marseille","lat":43.28727,"lon":5.36078,"is_reserved":false,"is_disabled":false,"rental_uris":{"android":"levelo://app?vid=add55eed-832a-4026-b428-ecbf1f1b8b33","ios":"levelo://app?vid=add55eed-832a-4026-b428-ecbf1f1b8b33"},"vehicle_type_id":"4","last_reported":1717520827,"current_range_meters":21600,"station_id":"cki0cbj6b192h4jlfktg","pricing_plan_id":"cebpf4jnsgd1na2vs0mg"},{"bike_id":"7508c35d-36c5-4e64-8e22-773495d1e509","system_id":"levelo_inurba_marseille","lat":43.2873,"lon":5.36086,"is_reserved":false,"is_disabled":false,"rental_uris":{"android":"levelo://app?vid=7508c35d-36c5-4e64-8e22-773495d1e509","ios":"levelo://app?vid=7508c35d-36c5-4e64-8e22-773495d1e509"},"vehicle_type_id":"4","last_reported":1717520827,"current_range_meters":17600,"station_id":"cki0cbj6b192h4jlfktg","pricing_plan_id":"cebpf4jnsgd1na2vs0mg"},{"bike_id":"478c0755-2fab-4b13-a482-62206f3b91bf","system_id":"levelo_inurba_marseille","lat":43.317104,"lon":5.436818,"is_reserved":false,"is_disabled":false,"rental_uris":{"android":"levelo://app?vid=478c0755-2fab-4b13-a482-62206f3b91bf","ios":"levelo://app?vid=478c0755-2fab-4b13-a482-62206f3b91bf"},"vehicle_type_id":"4","last_reported":1717520827,"current_range_meters":5600,"station_id":"ce4bhp92rcd13ifvqhcg","pricing_plan_id":"cebpf4jnsgd1na2vs0mg"},{"bike_id":"369be8b8-e180-44e5-a51b-7641a673f317","system_id":"levelo_inurba_marseille","lat":43.32652,"lon":5.39702,"is_reserved":false,"is_disabled":false,"rental_uris":{"android":"levelo://app?vid=369be8b8-e180-44e5-a51b-7641a673f317","ios":"levelo://app?vid=369be8b8-e180-44e5-a51b-7641a673f317"},"vehicle_type_id":"4","last_reported":1717520827,"current_range_meters":400,"station_id":"","pricing_plan_id":"cebpf4jnsgd1na2vs0mg"},{"bike_id":"1f46e9b9-f042-4eda-b4fa-162777a50a24","system_id":"levelo_inurba_marseille","lat":43.28727,"lon":5.36078,"is_reserved":false,"is_disabled":false,"rental_uris":{"android":"levelo://app?vid=1f46e9b9-f042-4eda-b4fa-162777a50a24","ios":"levelo://app?vid=1f46e9b9-f042-4eda-b4fa-162777a50a24"},"vehicle_type_id":"4","last_reported":1717520827,"current_range_meters":31600,"station_id":"cki0cbj6b192h4jlfktg","pricing_plan_id":"cebpf4jnsgd1na2vs0mg"},{"bike_id":"7f9df186-dd77-4d11-a7bf-384b5b930681","system_id":"levelo_inurba_marseille","lat":43.28727,"lon":5.36078,"is_reserved":false,"is_disabled":false,"rental_uris":{"android":"levelo://app?vid=7f9df186-dd77-4d11-a7bf-384b5b930681","ios":"levelo://app?vid=7f9df186-dd77-4d11-a7bf-384b5b930681"},"vehicle_type_id":"4","last_reported":1717520827,"current_range_meters":9600,"station_id":"cki0cbj6b192h4jlfktg","pricing_plan_id":"cebpf4jnsgd1na2vs0mg"},{"bike_id":"c330d17c-90cc-42e4-9b1d-0317b0285fdf","system_id":"levelo_inurba_marseille","lat":43.298681,"lon":5.397225,"is_reserved":false,"is_disabled":false,"rental_uris":{"android":"levelo://app?vid=c330d17c-90cc-42e4-9b1d-0317b0285fdf","ios":"levelo://app?vid=c330d17c-90cc-42e4-9b1d-0317b0285fdf"},"vehicle_type_id":"4","last_reported":1717520827,"current_range_meters":5600,"station_id":"ce4bh0h2rcd13ifvqd50","pricing_plan_id":"cebpf4jnsgd1na2vs0mg"},{"bike_id":"a747fb5f-ef57-4a54-b177-ebea304beeca","system_id":"levelo_inurba_marseille","lat":43.286593,"lon":5.363346,"is_reserved":false,"is_disabled":false,"rental_uris":{"android":"levelo://app?vid=a747fb5f-ef57-4a54-b177-ebea304beeca","ios":"levelo://app?vid=a747fb5f-ef57-4a54-b177-ebea304beeca"},"vehicle_type_id":"4","last_reported":1717520827,"current_range_meters":2400,"station_id":"ce4bhah2rcd13ifvqej0","pricing_plan_id":"cebpf4jnsgd1na2vs0mg"},{"bike_id":"8e42dde8-6a82-40bd-8145-d9c8bc7a2f68","system_id":"levelo_inurba_marseille","lat":43.295196,"lon":5.39397,"is_reserved":false,"is_disabled":false,"rental_uris":{"android":"levelo://app?vid=8e42dde8-6a82-40bd-8145-d9c8bc7a2f68","ios":"levelo://app?vid=8e42dde8-6a82-40bd-8145-d9c8bc7a2f68"},"vehicle_type_id":"4","last_reported":1717520827,"current_range_meters":0,"station_id":"ce4bh292rcd13ifvqdf0","pricing_plan_id":"cebpf4jnsgd1na2vs0mg"},{"bike_id":"0f672ff5-2bcc-45e5-b88c-706221c8b554","system_id":"levelo_inurba_marseille","lat":43.286961,"lon":5.373785,"is_reserved":false,"is_disabled":false,"rental_uris":{"android":"levelo://app?vid=0f672ff5-2bcc-45e5-b88c-706221c8b554","ios":"levelo://app?vid=0f672ff5-2bcc-45e5-b88c-706221c8b554"},"vehicle_type_id":"4","last_reported":1717520827,"current_range_meters":0,"station_id":"ce4bh3p2rcd13ifvqdq0","pricing_plan_id":"cebpf4jnsgd1na2vs0mg"},{"bike_id":"6b759a97-9b60-4c70-b580-dc5b714fbbb9","system_id":"levelo_inurba_marseille","lat":43.28695,"lon":5.37388,"is_reserved":false,"is_disabled":false,"rental_uris":{"android":"levelo://app?vid=6b759a97-9b60-4c70-b580-dc5b714fbbb9","ios":"levelo://app?vid=6b759a97-9b60-4c70-b580-dc5b714fbbb9"},"vehicle_type_id":"4","last_reported":1717520827,"current_range_meters":2400,"station_id":"ce4bh3p2rcd13ifvqdq0","pricing_plan_id":"cebpf4jnsgd1na2vs0mg"},{"bike_id":"bf6f9844-ef83-4f8e-84b7-bed606554633","system_id":"levelo_inurba_marseille","lat":43.286961,"lon":5.373785,"is_reserved":false,"is_disabled":false,"rental_uris":{"android":"levelo://app?vid=bf6f9844-ef83-4f8e-84b7-bed606554633","ios":"levelo://app?vid=bf6f9844-ef83-4f8e-84b7-bed606554633"},"vehicle_type_id":"4","last_reported":1717520827,"current_range_meters":13200,"station_id":"ce4bh3p2rcd13ifvqdq0","pricing_plan_id":"cebpf4jnsgd1na2vs0mg"},{"bike_id":"115e62c8-4051-4b31-886d-af0e3088e4ab","system_id":"levelo_inurba_marseille","lat":43.295194,"lon":5.39397,"is_reserved":false,"is_disabled":false,"rental_uris":{"android":"levelo://app?vid=115e62c8-4051-4b31-886d-af0e3088e4ab","ios":"levelo://app?vid=115e62c8-4051-4b31-886d-af0e3088e4ab"},"vehicle_type_id":"4","last_reported":1717520827,"current_range_meters":18800,"station_id":"ce4bh292rcd13ifvqdf0","pricing_plan_id":"cebpf4jnsgd1na2vs0mg"},{"bike_id":"120d8b1c-b5ae-4b20-beb9-dc3fbdcda539","system_id":"levelo_inurba_marseille","lat":43.295196,"lon":5.39397,"is_reserved":false,"is_disabled":false,"rental_uris":{"android":"levelo://app?vid=120d8b1c-b5ae-4b20-beb9-dc3fbdcda539","ios":"levelo://app?vid=120d8b1c-b5ae-4b20-beb9-dc3fbdcda539"},"vehicle_type_id":"4","last_reported":1717520827,"current_range_meters":15600,"station_id":"ce4bh292rcd13ifvqdf0","pricing_plan_id":"cebpf4jnsgd1na2vs0mg"},{"bike_id":"6277c929-9778-46e8-b854-20436e1e0b32","system_id":"levelo_inurba_marseille","lat":43.302759,"lon":5.400793,"is_reserved":false,"is_disabled":false,"rental_uris":{"android":"levelo://app?vid=6277c929-9778-46e8-b854-20436e1e0b32","ios":"levelo://app?vid=6277c929-9778-46e8-b854-20436e1e0b32"},"vehicle_type_id":"4","last_reported":1717520827,"current_range_meters":8800,"station_id":"ce4bgvh2rcd13ifvqcs0","pricing_plan_id":"cebpf4jnsgd1na2vs0mg"},{"bike_id":"7e92ed8e-8d72-437c-aa64-7a2b3c1307c0","system_id":"levelo_inurba_marseille","lat":43.302759,"lon":5.400793,"is_reserved":false,"is_disabled":false,"rental_uris":{"android":"levelo://app?vid=7e92ed8e-8d72-437c-aa64-7a2b3c1307c0","ios":"levelo://app?vid=7e92ed8e-8d72-437c-aa64-7a2b3c1307c0"},"vehicle_type_id":"4","last_reported":1717520827,"current_range_meters":0,"station_id":"ce4bgvh2rcd13ifvqcs0","pricing_plan_id":"cebpf4jnsgd1na2vs0mg"},{"bike_id":"70036f7f-4b28-4c13-a51b-a1b9983298b8","system_id":"levelo_inurba_marseille","lat":43.302759,"lon":5.400793,"is_reserved":false,"is_disabled":false,"rental_uris":{"android":"levelo://app?vid=70036f7f-4b28-4c13-a51b-a1b9983298b8","ios":"levelo://app?vid=70036f7f-4b28-4c13-a51b-a1b9983298b8"},"vehicle_type_id":"4","last_reported":1717520827,"current_range_meters":11200,"station_id":"ce4bgvh2rcd13ifvqcs0","pricing_plan_id":"cebpf4jnsgd1na2vs0mg"},{"bike_id":"80645f17-2237-4fd2-8005-b7a5dca3e151","system_id":"levelo_inurba_marseille","lat":43.290336,"lon":5.386425,"is_reserved":false,"is_disabled":false,"rental_uris":{"android":"levelo://app?vid=80645f17-2237-4fd2-8005-b7a5dca3e151","ios":"levelo://app?vid=80645f17-2237-4fd2-8005-b7a5dca3e151"},"vehicle_type_id":"4","last_reported":1717520827,"current_range_meters":6800,"station_id":"ce4bh4p2rcd13ifvqe0g","pricing_plan_id":"cebpf4jnsgd1na2vs0mg"},{"bike_id":"4fd4dba8-1627-40fe-9e5e-a6567ec40b7f","system_id":"levelo_inurba_marseille","lat":43.286148,"lon":5.370654,"is_reserved":false,"is_disabled":false,"rental_uris":{"android":"levelo://app?vid=4fd4dba8-1627-40fe-9e5e-a6567ec40b7f","ios":"levelo://app?vid=4fd4dba8-1627-40fe-9e5e-a6567ec40b7f"},"vehicle_type_id":"4","last_reported":1717520827,"current_range_meters":30400,"station_id":"ce4bht12rcd13ifvqi60","pricing_plan_id":"cebpf4jnsgd1na2vs0mg"},{"bike_id":"91c4ce60-de74-43a9-ac88-fc0588db7565","system_id":"levelo_inurba_marseille","lat":43.28614,"lon":5.37069,"is_reserved":false,"is_disabled":false,"rental_uris":{"android":"levelo://app?vid=91c4ce60-de74-43a9-ac88-fc0588db7565","ios":"levelo://app?vid=91c4ce60-de74-43a9-ac88-fc0588db7565"},"vehicle_type_id":"4","last_reported":1717520827,"current_range_meters":30400,"station_id":"ce4bht12rcd13ifvqi60","pricing_plan_id":"cebpf4jnsgd1na2vs0mg"},{"bike_id":"a9466b26-03b2-465e-af2a-3ebe25341322","system_id":"levelo_inurba_marseille","lat":43.28612,"lon":5.37058,"is_reserved":false,"is_disabled":false,"rental_uris":{"android":"levelo://app?vid=a9466b26-03b2-465e-af2a-3ebe25341322","ios":"levelo://app?vid=a9466b26-03b2-465e-af2a-3ebe25341322"},"vehicle_type_id":"4","last_reported":1717520827,"current_range_meters":30400,"station_id":"ce4bht12rcd13ifvqi60","pricing_plan_id":"cebpf4jnsgd1na2vs0mg"},{"bike_id":"3a0cbaf0-bec6-42b7-be7e-f278816e761e","system_id":"levelo_inurba_marseille","lat":43.286039,"lon":5.370679,"is_reserved":false,"is_disabled":false,"rental_uris":{"android":"levelo://app?vid=3a0cbaf0-bec6-42b7-be7e-f278816e761e","ios":"levelo://app?vid=3a0cbaf0-bec6-42b7-be7e-f278816e761e"},"vehicle_type_id":"4","last_reported":1717520827,"current_range_meters":0,"station_id":"ce4bht12rcd13ifvqi60","pricing_plan_id":"cebpf4jnsgd1na2vs0mg"},{"bike_id":"c3d1ee13-1d19-4150-b079-70668bf0329b","system_id":"levelo_inurba_marseille","lat":43.316821,"lon":5.404737,"is_reserved":false,"is_disabled":false,"rental_uris":{"android":"levelo://app?vid=c3d1ee13-1d19-4150-b079-70668bf0329b","ios":"levelo://app?vid=c3d1ee13-1d19-4150-b079-70668bf0329b"},"vehicle_type_id":"4","last_reported":1717520827,"current_range_meters":0,"station_id":"ce4bh012rcd13ifvqd00","pricing_plan_id":"cebpf4jnsgd1na2vs0mg"},{"bike_id":"e5a15965-4d0c-4ff4-b5d5-c6b797ee1018","system_id":"levelo_inurba_marseille","lat":43.316821,"lon":5.404737,"is_reserved":false,"is_disabled":false,"rental_uris":{"android":"levelo://app?vid=e5a15965-4d0c-4ff4-b5d5-c6b797ee1018","ios":"levelo://app?vid=e5a15965-4d0c-4ff4-b5d5-c6b797ee1018"},"vehicle_type_id":"4","last_reported":1717520827,"current_range_meters":15200,"station_id":"ce4bh012rcd13ifvqd00","pricing_plan_id":"cebpf4jnsgd1na2vs0mg"},{"bike_id":"c11d1e67-f670-417b-a2bd-44b873881b11","system_id":"levelo_inurba_marseille","lat":43.31684,"lon":5.40472,"is_reserved":false,"is_disabled":false,"rental_uris":{"android":"levelo://app?vid=c11d1e67-f670-417b-a2bd-44b873881b11","ios":"levelo://app?vid=c11d1e67-f670-417b-a2bd-44b873881b11"},"vehicle_type_id":"4","last_reported":1717520827,"current_range_meters":400,"station_id":"ce4bh012rcd13ifvqd00","pricing_plan_id":"cebpf4jnsgd1na2vs0mg"},{"bike_id":"3c23483c-85f2-4681-a95e-df46361e30ea","system_id":"levelo_inurba_marseille","lat":43.284538,"lon":5.358657,"is_reserved":false,"is_disabled":false,"rental_uris":{"android":"levelo://app?vid=3c23483c-85f2-4681-a95e-df46361e30ea","ios":"levelo://app?vid=3c23483c-85f2-4681-a95e-df46361e30ea"},"vehicle_type_id":"4","last_reported":1717520827,"current_range_meters":10800,"station_id":"ce4bhah2rcd13ifvqei0","pricing_plan_id":"cebpf4jnsgd1na2vs0mg"},{"bike_id":"121df1dc-aadf-4b97-944e-a28ebfb46a43","system_id":"levelo_inurba_marseille","lat":43.284538,"lon":5.358657,"is_reserved":false,"is_disabled":false,"rental_uris":{"android":"levelo://app?vid=121df1dc-aadf-4b97-944e-a28ebfb46a43","ios":"levelo://app?vid=121df1dc-aadf-4b97-944e-a28ebfb46a43"},"vehicle_type_id":"4","last_reported":1717520827,"current_range_meters":1200,"station_id":"ce4bhah2rcd13ifvqei0","pricing_plan_id":"cebpf4jnsgd1na2vs0mg"},{"bike_id":"17fe2530-b1c4-40d3-8961-95baf784366e","system_id":"levelo_inurba_marseille","lat":43.284534,"lon":5.358662,"is_reserved":false,"is_disabled":false,"rental_uris":{"android":"levelo://app?vid=17fe2530-b1c4-40d3-8961-95baf784366e","ios":"levelo://app?vid=17fe2530-b1c4-40d3-8961-95baf784366e"},"vehicle_type_id":"4","last_reported":1717520827,"current_range_meters":2400,"station_id":"ce4bhah2rcd13ifvqei0","pricing_plan_id":"cebpf4jnsgd1na2vs0mg"},{"bike_id":"66a872fa-e2e9-4346-bb2f-29a9799ce8c7","system_id":"levelo_inurba_marseille","lat":43.284538,"lon":5.358657,"is_reserved":false,"is_disabled":false,"rental_uris":{"android":"levelo://app?vid=66a872fa-e2e9-4346-bb2f-29a9799ce8c7","ios":"levelo://app?vid=66a872fa-e2e9-4346-bb2f-29a9799ce8c7"},"vehicle_type_id":"4","last_reported":1717520827,"current_range_meters":32000,"station_id":"ce4bhah2rcd13ifvqei0","pricing_plan_id":"cebpf4jnsgd1na2vs0mg"},{"bike_id":"b61cd810-ac3d-4354-810b-804304315258","system_id":"levelo_inurba_marseille","lat":43.284538,"lon":5.358657,"is_reserved":false,"is_disabled":false,"rental_uris":{"android":"levelo://app?vid=b61cd810-ac3d-4354-810b-804304315258","ios":"levelo://app?vid=b61cd810-ac3d-4354-810b-804304315258"},"vehicle_type_id":"4","last_reported":1717520827,"current_range_meters":8800,"station_id":"ce4bhah2rcd13ifvqei0","pricing_plan_id":"cebpf4jnsgd1na2vs0mg"},{"bike_id":"40e6dcea-ae5c-449f-922f-1f10ae71d50c","system_id":"levelo_inurba_marseille","lat":43.28465,"lon":5.3588,"is_reserved":false,"is_disabled":false,"rental_uris":{"android":"levelo://app?vid=40e6dcea-ae5c-449f-922f-1f10ae71d50c","ios":"levelo://app?vid=40e6dcea-ae5c-449f-922f-1f10ae71d50c"},"vehicle_type_id":"4","last_reported":1717520827,"current_range_meters":400,"station_id":"ce4bhah2rcd13ifvqei0","pricing_plan_id":"cebpf4jnsgd1na2vs0mg"},{"bike_id":"af5c3532-4b91-4a71-bff8-555d0ba52bb0","system_id":"levelo_inurba_marseille","lat":43.284538,"lon":5.358657,"is_reserved":false,"is_disabled":false,"rental_uris":{"android":"levelo://app?vid=af5c3532-4b91-4a71-bff8-555d0ba52bb0","ios":"levelo://app?vid=af5c3532-4b91-4a71-bff8-555d0ba52bb0"},"vehicle_type_id":"4","last_reported":1717520827,"current_range_meters":13200,"station_id":"ce4bhah2rcd13ifvqei0","pricing_plan_id":"cebpf4jnsgd1na2vs0mg"},{"bike_id":"0a94dc2c-61ad-4f57-94ef-5987e25ef0d2","system_id":"levelo_inurba_marseille","lat":43.284534,"lon":5.358662,"is_reserved":false,"is_disabled":false,"rental_uris":{"android":"levelo://app?vid=0a94dc2c-61ad-4f57-94ef-5987e25ef0d2","ios":"levelo://app?vid=0a94dc2c-61ad-4f57-94ef-5987e25ef0d2"},"vehicle_type_id":"4","last_reported":1717520827,"current_range_meters":1600,"station_id":"ce4bhah2rcd13ifvqei0","pricing_plan_id":"cebpf4jnsgd1na2vs0mg"},{"bike_id":"5a98b3c3-7472-4bf6-8030-c4dffdefa9e1","system_id":"levelo_inurba_marseille","lat":43.28463,"lon":5.35883,"is_reserved":false,"is_disabled":false,"rental_uris":{"android":"levelo://app?vid=5a98b3c3-7472-4bf6-8030-c4dffdefa9e1","ios":"levelo://app?vid=5a98b3c3-7472-4bf6-8030-c4dffdefa9e1"},"vehicle_type_id":"4","last_reported":1717520827,"current_range_meters":0,"station_id":"ce4bhah2rcd13ifvqei0","pricing_plan_id":"cebpf4jnsgd1na2vs0mg"},{"bike_id":"ff136627-9657-4c74-bbb5-7d3f8500ec01","system_id":"levelo_inurba_marseille","lat":43.284521,"lon":5.359565,"is_reserved":false,"is_disabled":false,"rental_uris":{"android":"levelo://app?vid=ff136627-9657-4c74-bbb5-7d3f8500ec01","ios":"levelo://app?vid=ff136627-9657-4c74-bbb5-7d3f8500ec01"},"vehicle_type_id":"4","last_reported":1717520827,"current_range_meters":0,"station_id":"ce4bhah2rcd13ifvqei0","pricing_plan_id":"cebpf4jnsgd1na2vs0mg"},{"bike_id":"41fab9e3-0d73-4abf-ac53-60c9aff107e0","system_id":"levelo_inurba_marseille","lat":43.284538,"lon":5.358657,"is_reserved":false,"is_disabled":false,"rental_uris":{"android":"levelo://app?vid=41fab9e3-0d73-4abf-ac53-60c9aff107e0","ios":"levelo://app?vid=41fab9e3-0d73-4abf-ac53-60c9aff107e0"},"vehicle_type_id":"4","last_reported":1717520827,"current_range_meters":16400,"station_id":"ce4bhah2rcd13ifvqei0","pricing_plan_id":"cebpf4jnsgd1na2vs0mg"},{"bike_id":"85ba3262-13d3-42cb-9169-0d3f0b61e456","system_id":"levelo_inurba_marseille","lat":43.284538,"lon":5.358657,"is_reserved":false,"is_disabled":false,"rental_uris":{"android":"levelo://app?vid=85ba3262-13d3-42cb-9169-0d3f0b61e456","ios":"levelo://app?vid=85ba3262-13d3-42cb-9169-0d3f0b61e456"},"vehicle_type_id":"4","last_reported":1717520827,"current_range_meters":11600,"station_id":"ce4bhah2rcd13ifvqei0","pricing_plan_id":"cebpf4jnsgd1na2vs0mg"},{"bike_id":"a85bcb5c-4e0e-4c43-bf8f-4008f1c59ea6","system_id":"levelo_inurba_marseille","lat":43.28459,"lon":5.35896,"is_reserved":false,"is_disabled":false,"rental_uris":{"android":"levelo://app?vid=a85bcb5c-4e0e-4c43-bf8f-4008f1c59ea6","ios":"levelo://app?vid=a85bcb5c-4e0e-4c43-bf8f-4008f1c59ea6"},"vehicle_type_id":"4","last_reported":1717520827,"current_range_meters":19600,"station_id":"ce4bhah2rcd13ifvqei0","pricing_plan_id":"cebpf4jnsgd1na2vs0mg"},{"bike_id":"fafb6da7-1486-46b8-8c73-ad1de5006879","system_id":"levelo_inurba_marseille","lat":43.284538,"lon":5.358657,"is_reserved":false,"is_disabled":false,"rental_uris":{"android":"levelo://app?vid=fafb6da7-1486-46b8-8c73-ad1de5006879","ios":"levelo://app?vid=fafb6da7-1486-46b8-8c73-ad1de5006879"},"vehicle_type_id":"4","last_reported":1717520827,"current_range_meters":9200,"station_id":"ce4bhah2rcd13ifvqei0","pricing_plan_id":"cebpf4jnsgd1na2vs0mg"},{"bike_id":"58d1a004-8dbb-45f9-b287-ca54811dd8ff","system_id":"levelo_inurba_marseille","lat":43.284534,"lon":5.358662,"is_reserved":false,"is_disabled":false,"rental_uris":{"android":"levelo://app?vid=58d1a004-8dbb-45f9-b287-ca54811dd8ff","ios":"levelo://app?vid=58d1a004-8dbb-45f9-b287-ca54811dd8ff"},"vehicle_type_id":"4","last_reported":1717520827,"current_range_meters":23600,"station_id":"ce4bhah2rcd13ifvqei0","pricing_plan_id":"cebpf4jnsgd1na2vs0mg"},{"bike_id":"f65860fe-2d7f-40e1-b0b9-6da506ab2dd2","system_id":"levelo_inurba_marseille","lat":43.284538,"lon":5.358657,"is_reserved":false,"is_disabled":false,"rental_uris":{"android":"levelo://app?vid=f65860fe-2d7f-40e1-b0b9-6da506ab2dd2","ios":"levelo://app?vid=f65860fe-2d7f-40e1-b0b9-6da506ab2dd2"},"vehicle_type_id":"4","last_reported":1717520827,"current_range_meters":15600,"station_id":"ce4bhah2rcd13ifvqei0","pricing_plan_id":"cebpf4jnsgd1na2vs0mg"},{"bike_id":"00323740-0c39-4724-9465-34d65f6255b6","system_id":"levelo_inurba_marseille","lat":43.284538,"lon":5.358657,"is_reserved":false,"is_disabled":false,"rental_uris":{"android":"levelo://app?vid=00323740-0c39-4724-9465-34d65f6255b6","ios":"levelo://app?vid=00323740-0c39-4724-9465-34d65f6255b6"},"vehicle_type_id":"4","last_reported":1717520827,"current_range_meters":18800,"station_id":"ce4bhah2rcd13ifvqei0","pricing_plan_id":"cebpf4jnsgd1na2vs0mg"},{"bike_id":"40c0f399-4160-410d-a181-fc3a1051a78f","system_id":"levelo_inurba_marseille","lat":43.28456,"lon":5.35885,"is_reserved":false,"is_disabled":false,"rental_uris":{"android":"levelo://app?vid=40c0f399-4160-410d-a181-fc3a1051a78f","ios":"levelo://app?vid=40c0f399-4160-410d-a181-fc3a1051a78f"},"vehicle_type_id":"4","last_reported":1717520827,"current_range_meters":800,"station_id":"ce4bhah2rcd13ifvqei0","pricing_plan_id":"cebpf4jnsgd1na2vs0mg"},{"bike_id":"5a1acaff-4898-4314-8c10-020c97778dba","system_id":"levelo_inurba_marseille","lat":43.259009,"lon":5.40929,"is_reserved":false,"is_disabled":false,"rental_uris":{"android":"levelo://app?vid=5a1acaff-4898-4314-8c10-020c97778dba","ios":"levelo://app?vid=5a1acaff-4898-4314-8c10-020c97778dba"},"vehicle_type_id":"4","last_reported":1717520827,"current_range_meters":16800,"station_id":"ce4bhm92rcd13ifvqglg","pricing_plan_id":"cebpf4jnsgd1na2vs0mg"},{"bike_id":"6b407b85-a21b-4a73-b3e2-7a0e8989f0a7","system_id":"levelo_inurba_marseille","lat":43.28619,"lon":5.35104,"is_reserved":false,"is_disabled":false,"rental_uris":{"android":"levelo://app?vid=6b407b85-a21b-4a73-b3e2-7a0e8989f0a7","ios":"levelo://app?vid=6b407b85-a21b-4a73-b3e2-7a0e8989f0a7"},"vehicle_type_id":"4","last_reported":1717520827,"current_range_meters":0,"station_id":"ce4bhch2rcd13ifvqeug","pricing_plan_id":"cebpf4jnsgd1na2vs0mg"},{"bike_id":"64a2d2c5-c294-49f5-8f33-b0d707c15f86","system_id":"levelo_inurba_marseille","lat":43.28618,"lon":5.35105,"is_reserved":false,"is_disabled":false,"rental_uris":{"android":"levelo://app?vid=64a2d2c5-c294-49f5-8f33-b0d707c15f86","ios":"levelo://app?vid=64a2d2c5-c294-49f5-8f33-b0d707c15f86"},"vehicle_type_id":"4","last_reported":1717520827,"current_range_meters":0,"station_id":"ce4bhch2rcd13ifvqeug","pricing_plan_id":"cebpf4jnsgd1na2vs0mg"},{"bike_id":"61be765c-8494-49ac-ac0d-49617e136898","system_id":"levelo_inurba_marseille","lat":43.285856,"lon":5.350771,"is_reserved":false,"is_disabled":false,"rental_uris":{"android":"levelo://app?vid=61be765c-8494-49ac-ac0d-49617e136898","ios":"levelo://app?vid=61be765c-8494-49ac-ac0d-49617e136898"},"vehicle_type_id":"4","last_reported":1717520827,"current_range_meters":0,"station_id":"ce4bhch2rcd13ifvqeug","pricing_plan_id":"cebpf4jnsgd1na2vs0mg"},{"bike_id":"8c5d5b7b-02f9-4b70-98d4-30cb1ac6eece","system_id":"levelo_inurba_marseille","lat":43.285856,"lon":5.350771,"is_reserved":false,"is_disabled":false,"rental_uris":{"android":"levelo://app?vid=8c5d5b7b-02f9-4b70-98d4-30cb1ac6eece","ios":"levelo://app?vid=8c5d5b7b-02f9-4b70-98d4-30cb1ac6eece"},"vehicle_type_id":"4","last_reported":1717520827,"current_range_meters":7600,"station_id":"ce4bhch2rcd13ifvqeug","pricing_plan_id":"cebpf4jnsgd1na2vs0mg"},{"bike_id":"2db9247b-b10a-4034-8e99-4680de08b122","system_id":"levelo_inurba_marseille","lat":43.28612,"lon":5.35108,"is_reserved":false,"is_disabled":false,"rental_uris":{"android":"levelo://app?vid=2db9247b-b10a-4034-8e99-4680de08b122","ios":"levelo://app?vid=2db9247b-b10a-4034-8e99-4680de08b122"},"vehicle_type_id":"4","last_reported":1717520827,"current_range_meters":4400,"station_id":"ce4bhch2rcd13ifvqeug","pricing_plan_id":"cebpf4jnsgd1na2vs0mg"},{"bike_id":"dc257628-46d0-4c9c-8914-09b6f18cc0f1","system_id":"levelo_inurba_marseille","lat":43.285856,"lon":5.350771,"is_reserved":false,"is_disabled":false,"rental_uris":{"android":"levelo://app?vid=dc257628-46d0-4c9c-8914-09b6f18cc0f1","ios":"levelo://app?vid=dc257628-46d0-4c9c-8914-09b6f18cc0f1"},"vehicle_type_id":"4","last_reported":1717520827,"current_range_meters":0,"station_id":"ce4bhch2rcd13ifvqeug","pricing_plan_id":"cebpf4jnsgd1na2vs0mg"},{"bike_id":"237c459f-114a-44ff-a394-ec911676596c","system_id":"levelo_inurba_marseille","lat":43.28613,"lon":5.35102,"is_reserved":false,"is_disabled":false,"rental_uris":{"android":"levelo://app?vid=237c459f-114a-44ff-a394-ec911676596c","ios":"levelo://app?vid=237c459f-114a-44ff-a394-ec911676596c"},"vehicle_type_id":"4","last_reported":1717520827,"current_range_meters":13600,"station_id":"ce4bhch2rcd13ifvqeug","pricing_plan_id":"cebpf4jnsgd1na2vs0mg"},{"bike_id":"b427deca-ff7f-4f6f-b5f0-c02582d5bb4b","system_id":"levelo_inurba_marseille","lat":43.285856,"lon":5.350771,"is_reserved":false,"is_disabled":false,"rental_uris":{"android":"levelo://app?vid=b427deca-ff7f-4f6f-b5f0-c02582d5bb4b","ios":"levelo://app?vid=b427deca-ff7f-4f6f-b5f0-c02582d5bb4b"},"vehicle_type_id":"4","last_reported":1717520827,"current_range_meters":0,"station_id":"ce4bhch2rcd13ifvqeug","pricing_plan_id":"cebpf4jnsgd1na2vs0mg"},{"bike_id":"b5a9d45f-0a03-4bc3-84c6-ffa0865ab3de","system_id":"levelo_inurba_marseille","lat":43.28613,"lon":5.35099,"is_reserved":false,"is_disabled":false,"rental_uris":{"android":"levelo://app?vid=b5a9d45f-0a03-4bc3-84c6-ffa0865ab3de","ios":"levelo://app?vid=b5a9d45f-0a03-4bc3-84c6-ffa0865ab3de"},"vehicle_type_id":"4","last_reported":1717520827,"current_range_meters":28800,"station_id":"ce4bhch2rcd13ifvqeug","pricing_plan_id":"cebpf4jnsgd1na2vs0mg"},{"bike_id":"c0747371-7fa6-4385-aa90-ebd29b8a0f1b","system_id":"levelo_inurba_marseille","lat":43.283998,"lon":5.375062,"is_reserved":false,"is_disabled":false,"rental_uris":{"android":"levelo://app?vid=c0747371-7fa6-4385-aa90-ebd29b8a0f1b","ios":"levelo://app?vid=c0747371-7fa6-4385-aa90-ebd29b8a0f1b"},"vehicle_type_id":"4","last_reported":1717520827,"current_range_meters":0,"station_id":"ce4bh412rcd13ifvqds0","pricing_plan_id":"cebpf4jnsgd1na2vs0mg"},{"bike_id":"2b4ae7d5-03a8-4d7b-94b9-ba9e1acdaa91","system_id":"levelo_inurba_marseille","lat":43.283998,"lon":5.375062,"is_reserved":false,"is_disabled":false,"rental_uris":{"android":"levelo://app?vid=2b4ae7d5-03a8-4d7b-94b9-ba9e1acdaa91","ios":"levelo://app?vid=2b4ae7d5-03a8-4d7b-94b9-ba9e1acdaa91"},"vehicle_type_id":"4","last_reported":1717520827,"current_range_meters":15600,"station_id":"ce4bh412rcd13ifvqds0","pricing_plan_id":"cebpf4jnsgd1na2vs0mg"},{"bike_id":"e301ec32-09a7-43db-a0a7-7f5da2409c99","system_id":"levelo_inurba_marseille","lat":43.283998,"lon":5.375062,"is_reserved":false,"is_disabled":false,"rental_uris":{"android":"levelo://app?vid=e301ec32-09a7-43db-a0a7-7f5da2409c99","ios":"levelo://app?vid=e301ec32-09a7-43db-a0a7-7f5da2409c99"},"vehicle_type_id":"4","last_reported":1717520827,"current_range_meters":0,"station_id":"ce4bh412rcd13ifvqds0","pricing_plan_id":"cebpf4jnsgd1na2vs0mg"},{"bike_id":"ed7c8c93-7e96-4d89-b782-4573a4457d6b","system_id":"levelo_inurba_marseille","lat":43.283998,"lon":5.375062,"is_reserved":false,"is_disabled":false,"rental_uris":{"android":"levelo://app?vid=ed7c8c93-7e96-4d89-b782-4573a4457d6b","ios":"levelo://app?vid=ed7c8c93-7e96-4d89-b782-4573a4457d6b"},"vehicle_type_id":"4","last_reported":1717520827,"current_range_meters":10800,"station_id":"ce4bh412rcd13ifvqds0","pricing_plan_id":"cebpf4jnsgd1na2vs0mg"},{"bike_id":"9016b700-dcfb-4c65-ad52-bfe1e995e1ec","system_id":"levelo_inurba_marseille","lat":43.283998,"lon":5.375062,"is_reserved":false,"is_disabled":false,"rental_uris":{"android":"levelo://app?vid=9016b700-dcfb-4c65-ad52-bfe1e995e1ec","ios":"levelo://app?vid=9016b700-dcfb-4c65-ad52-bfe1e995e1ec"},"vehicle_type_id":"4","last_reported":1717520827,"current_range_meters":10400,"station_id":"ce4bh412rcd13ifvqds0","pricing_plan_id":"cebpf4jnsgd1na2vs0mg"},