{"last_updated":1689703740,"ttl":30,"version":"2.2","data":{"bikes":[{"bike_id":"1be0e7b5-34db-44bd-b46c-7e85bb1d9492","system_id":"levelo_inurba_marseille","lat":43.312239,"lon":5.368562,"is_reserved":false,"is_disabled":false,"rental_uris":{"android":"levelo://app?vid=1be0e7b5-34db-44bd-b46c-7e85bb1d9492","ios":"levelo://app?vid=1be0e7b5-34db-44bd-b46c-7e85bb1d9492"},"vehicle_type_id":"4","last_reported":1689703741,"current_range_meters":7200,"station_id":"ce4bgl92rcd13ifvqbq0","pricing_plan_id":"free"},{"bike_id":"c19b7d7c-98b5-4a5f-9938-599eaa8cc46a","system_id":"levelo_inurba_marseille","lat":43.312239,"lon":5.368562,"is_reserved":false,"is_disabled":false,"rental_uris":{"android":"levelo://app?vid=c19b7d7c-98b5-4a5f-9938-599eaa8cc46a","ios":"levelo://app?vid=c19b7d7c-98b5-4a5f-9938-599eaa8cc46a"},"vehicle_type_id":"4","last_reported":1689703741,"current_range_meters":22800,"station_id":"ce4bgl92rcd13ifvqbq0","pricing_plan_id":"free"},{"bike_id":"b65e9fb1-761d-45f8-a43e-c25bf0fa119a","system_id":"levelo_inurba_marseille","lat":43.31304,"lon":5.37136,"is_reserved":false,"is_disabled":false,"rental_uris":{"android":"levelo://app?vid=b65e9fb1-761d-45f8-a43e-c25bf0fa119a","ios":"levelo://app?vid=b65e9fb1-761d-45f8-a43e-c25bf0fa119a"},"vehicle_type_id":"4","last_reported":1689703741,"current_range_meters":27600,"station_id":"","pricing_plan_id":"free"},{"bike_id":"c17c2dad-4391-4c0b-b97b-44133b0beb01","system_id":"levelo_inurba_marseille","lat":43.314811,"lon":5.373103,"is_reserved":false,"is_disabled":false,"rental_uris":{"android":"levelo://app?vid=c17c2dad-4391-4c0b-b97b-44133b0beb01","ios":"levelo://app?vid=c17c2dad-4391-4c0b-b97b-44133b0beb01"},"vehicle_type_id":"4","last_reported":1689703741,"current_range_meters":28400,"station_id":"ce4bgt12rcd13ifvqcd0","pricing_plan_id":"free"},{"bike_id":"0cdc183f-5029-4a2e-83dd-2f6864e2aae4","system_id":"levelo_inurba_marseille","lat":43.314811,"lon":5.373103,"is_reserved":false,"is_disabled":false,"rental_uris":{"android":"levelo://app?vid=0cdc183f-5029-4a2e-83dd-2f6864e2aae4","ios":"levelo://app?vid=0cdc183f-5029-4a2e-83dd-2f6864e2aae4"},"vehicle_type_id":"4","last_reported":1689703741,"current_range_meters":22800,"station_id":"ce4bgt12rcd13ifvqcd0","pricing_plan_id":"free"},{"bike_id":"9ebfdadf-eebb-4934-973d-55963c25c762","system_id":"levelo_inurba_marseille","lat":43.314811,"lon":5.373103,"is_reserved":false,"is_disabled":false,"rental_uris":{"android":"levelo://app?vid=9ebfdadf-eebb-4934-973d-55963c25c762","ios":"levelo://app?vid=9ebfdadf-eebb-4934-973d-55963c25c762"},"vehicle_type_id":"4","last_reported":1689703741,"current_range_meters":30800,"station_id":"ce4bgt12rcd13ifvqcd0","pricing_plan_id":"free"},{"bike_id":"ca312f4b-e602-41ed-9df8-7e663dcec9b6","system_id":"levelo_inurba_marseille","lat":43.30894,"lon":5.37193,"is_reserved":false,"is_disabled":false,"rental_uris":{"android":"levelo://app?vid=ca312f4b-e602-41ed-9df8-7e663dcec9b6","ios":"levelo://app?vid=ca312f4b-e602-41ed-9df8-7e663dcec9b6"},"vehicle_type_id":"4","last_reported":1689703741,"current_range_meters":5600,"station_id":"ce4bguh2rcd13ifvqckg","pricing_plan_id":"free"},{"bike_id":"f508272a-ab00-434e-841c-4959d5643898","system_id":"levelo_inurba_marseille","lat":43.31664,"lon":5.3731,"is_reserved":false,"is_disabled":false,"rental_uris":{"android":"levelo://app?vid=f508272a-ab00-434e-841c-4959d5643898","ios":"levelo://app?vid=f508272a-ab00-434e-841c-4959d5643898"},"vehicle_type_id":"4","last_reported":1689703741,"current_range_meters":26000,"station_id":"","pricing_plan_id":"free"},{"bike_id":"d5452eac-45ec-41ca-8734-58f25f4b1789","system_id":"levelo_inurba_marseille","lat":43.31305,"lon":5.37682,"is_reserved":false,"is_disabled":false,"rental_uris":{"android":"levelo://app?vid=d5452eac-45ec-41ca-8734-58f25f4b1789","ios":"levelo://app?vid=d5452eac-45ec-41ca-8734-58f25f4b1789"},"vehicle_type_id":"4","last_reported":1689703741,"current_range_meters":29600,"station_id":"","pricing_plan_id":"free"},{"bike_id":"a2e136f1-c728-4018-88c2-a46aa30aa3c2","system_id":"levelo_inurba_marseille","lat":43.305368,"lon":5.367343,"is_reserved":false,"is_disabled":false,"rental_uris":{"android":"levelo://app?vid=a2e136f1-c728-4018-88c2-a46aa30aa3c2","ios":"levelo://app?vid=a2e136f1-c728-4018-88c2-a46aa30aa3c2"},"vehicle_type_id":"4","last_reported":1689703741,"current_range_meters":24800,"station_id":"ce4bgrp2rcd13ifvqc9g","pricing_plan_id":"free"},{"bike_id":"75f806f0-7871-4f16-a944-41aaaba75a74","system_id":"levelo_inurba_marseille","lat":43.317075,"lon":5.377367,"is_reserved":false,"is_disabled":false,"rental_uris":{"android":"levelo://app?vid=75f806f0-7871-4f16-a944-41aaaba75a74","ios":"levelo://app?vid=75f806f0-7871-4f16-a944-41aaaba75a74"},"vehicle_type_id":"4","last_reported":1689703741,"current_range_meters":27200,"station_id":"ce4bgth2rcd13ifvqch0","pricing_plan_id":"free"},{"bike_id":"071e26e0-af79-4432-93e0-2b23acda0269","system_id":"levelo_inurba_marseille","lat":43.317075,"lon":5.377367,"is_reserved":false,"is_disabled":false,"rental_uris":{"android":"levelo://app?vid=071e26e0-af79-4432-93e0-2b23acda0269","ios":"levelo://app?vid=071e26e0-af79-4432-93e0-2b23acda0269"},"vehicle_type_id":"4","last_reported":1689703741,"current_range_meters":30000,"station_id":"ce4bgth2rcd13ifvqch0","pricing_plan_id":"free"},{"bike_id":"a3f4c536-8c2c-442e-83df-fe41c5dfa652","system_id":"levelo_inurba_marseille","lat":43.317075,"lon":5.377367,"is_reserved":false,"is_disabled":false,"rental_uris":{"android":"levelo://app?vid=a3f4c536-8c2c-442e-83df-fe41c5dfa652","ios":"levelo://app?vid=a3f4c536-8c2c-442e-83df-fe41c5dfa652"},"vehicle_type_id":"4","last_reported":1689703741,"current_range_meters":14000,"station_id":"ce4bgth2rcd13ifvqch0","pricing_plan_id":"free"},{"bike_id":"3b5adf91-9019-4966-9be5-457ef9969770","system_id":"levelo_inurba_marseille","lat":43.315289,"lon":5.380349,"is_reserved":false,"is_disabled":false,"rental_uris":{"android":"levelo://app?vid=3b5adf91-9019-4966-9be5-457ef9969770","ios":"levelo://app?vid=3b5adf91-9019-4966-9be5-457ef9969770"},"vehicle_type_id":"4","last_reported":1689703741,"current_range_meters":20400,"station_id":"ce4bhsp2rcd13ifvqi50","pricing_plan_id":"free"},{"bike_id":"75e3c4fe-84b6-4386-9d3e-2453be7848f5","system_id":"levelo_inurba_marseille","lat":43.315293,"lon":5.380349,"is_reserved":false,"is_disabled":false,"rental_uris":{"android":"levelo://app?vid=75e3c4fe-84b6-4386-9d3e-2453be7848f5","ios":"levelo://app?vid=75e3c4fe-84b6-4386-9d3e-2453be7848f5"},"vehicle_type_id":"4","last_reported":1689703741,"current_range_meters":31200,"station_id":"ce4bhsp2rcd13ifvqi50","pricing_plan_id":"free"},{"bike_id":"6763bc13-1a65-4adb-8e2f-7fd8ef2476ad","system_id":"levelo_inurba_marseille","lat":43.315293,"lon":5.380349,"is_reserved":false,"is_disabled":false,"rental_uris":{"android":"levelo://app?vid=6763bc13-1a65-4adb-8e2f-7fd8ef2476ad","ios":"levelo://app?vid=6763bc13-1a65-4adb-8e2f-7fd8ef2476ad"},"vehicle_type_id":"4","last_reported":1689703741,"current_range_meters":25200,"station_id":"ce4bhsp2rcd13ifvqi50","pricing_plan_id":"free"},{"bike_id":"e54d2f4d-380c-4edb-a8b8-84194545f76d","system_id":"levelo_inurba_marseille","lat":43.302784,"lon":5.377158,"is_reserved":false,"is_disabled":false,"rental_uris":{"android":"levelo://app?vid=e54d2f4d-380c-4edb-a8b8-84194545f76d","ios":"levelo://app?vid=e54d2f4d-380c-4edb-a8b8-84194545f76d"},"vehicle_type_id":"4","last_reported":1689703741,"current_range_meters":30400,"station_id":"ce4bguh2rcd13ifvqcj0","pricing_plan_id":"free"},{"bike_id":"81dbb561-ba63-4cda-a721-d080e1d9f826","system_id":"levelo_inurba_marseille","lat":43.319935,"lon":5.381699,"is_reserved":false,"is_disabled":false,"rental_uris":{"android":"levelo://app?vid=81dbb561-ba63-4cda-a721-d080e1d9f826","ios":"levelo://app?vid=81dbb561-ba63-4cda-a721-d080e1d9f826"},"vehicle_type_id":"4","last_reported":1689703741,"current_range_meters":19200,"station_id":"ce4bhr12rcd13ifvqhpg","pricing_plan_id":"free"},{"bike_id":"aecf68cc-6dab-4d48-9b33-456f56f1c060","system_id":"levelo_inurba_marseille","lat":43.319935,"lon":5.381699,"is_reserved":false,"is_disabled":false,"rental_uris":{"android":"levelo://app?vid=aecf68cc-6dab-4d48-9b33-456f56f1c060","ios":"levelo://app?vid=aecf68cc-6dab-4d48-9b33-456f56f1c060"},"vehicle_type_id":"4","last_reported":1689703741,"current_range_meters":25600,"station_id":"ce4bhr12rcd13ifvqhpg","pricing_plan_id":"free"},{"bike_id":"b0dd87b2-d98f-41f0-92f5-f872f1fe0084","system_id":"levelo_inurba_marseille","lat":43.319935,"lon":5.381699,"is_reserved":false,"is_disabled":false,"rental_uris":{"android":"levelo://app?vid=b0dd87b2-d98f-41f0-92f5-f872f1fe0084","ios":"levelo://app?vid=b0dd87b2-d98f-41f0-92f5-f872f1fe0084"},"vehicle_type_id":"4","last_reported":1689703741,"current_range_meters":30800,"station_id":"ce4bhr12rcd13ifvqhpg","pricing_plan_id":"free"},{"bike_id":"19100311-c096-4ea3-9658-fe0675467fb5","system_id":"levelo_inurba_marseille","lat":43.319935,"lon":5.381699,"is_reserved":false,"is_disabled":false,"rental_uris":{"android":"levelo://app?vid=19100311-c096-4ea3-9658-fe0675467fb5","ios":"levelo://app?vid=19100311-c096-4ea3-9658-fe0675467fb5"},"vehicle_type_id":"4","last_reported":1689703741,"current_range_meters":30800,"station_id":"ce4bhr12rcd13ifvqhpg","pricing_plan_id":"free"},{"bike_id":"e53fffce-5122-41a9-b6d2-11feb049e05e","system_id":"levelo_inurba_marseille","lat":43.313571,"lon":5.384829,"is_reserved":false,"is_disabled":false,"rental_uris":{"android":"levelo://app?vid=e53fffce-5122-41a9-b6d2-11feb049e05e","ios":"levelo://app?vid=e53fffce-5122-41a9-b6d2-11feb049e05e"},"vehicle_type_id":"4","last_reported":1689703741,"current_range_meters":18400,"station_id":"ce4bgt92rcd13ifvqcf0","pricing_plan_id":"free"},{"bike_id":"4e41d636-6e10-4540-9dbf-ea6dc483b5af","system_id":"levelo_inurba_marseille","lat":43.313571,"lon":5.384829,"is_reserved":false,"is_disabled":false,"rental_uris":{"android":"levelo://app?vid=4e41d636-6e10-4540-9dbf-ea6dc483b5af","ios":"levelo://app?vid=4e41d636-6e10-4540-9dbf-ea6dc483b5af"},"vehicle_type_id":"4","last_reported":1689703741,"current_range_meters":30400,"station_id":"ce4bgt92rcd13ifvqcf0","pricing_plan_id":"free"},{"bike_id":"7fd04096-ef74-42ae-9071-194dbc127a4c","system_id":"levelo_inurba_marseille","lat":43.299222,"lon":5.365554,"is_reserved":false,"is_disabled":false,"rental_uris":{"android":"levelo://app?vid=7fd04096-ef74-42ae-9071-194dbc127a4c","ios":"levelo://app?vid=7fd04096-ef74-42ae-9071-194dbc127a4c"},"vehicle_type_id":"4","last_reported":1689703741,"current_range_meters":7200,"station_id":"ce4bgm92rcd13ifvqbr0","pricing_plan_id":"free"},{"bike_id":"473d1f92-8477-43ed-adfc-2019be213804","system_id":"levelo_inurba_marseille","lat":43.299243,"lon":5.374807,"is_reserved":false,"is_disabled":false,"rental_uris":{"android":"levelo://app?vid=473d1f92-8477-43ed-adfc-2019be213804","ios":"levelo://app?vid=473d1f92-8477-43ed-adfc-2019be213804"},"vehicle_type_id":"4","last_reported":1689703741,"current_range_meters":400,"station_id":"ce4bgjh2rcd13ifvqbg0","pricing_plan_id":"free"},{"bike_id":"5f0f16f6-eaf3-449b-b282-81400274a1a2","system_id":"levelo_inurba_marseille","lat":43.31165,"lon":5.38719,"is_reserved":false,"is_disabled":false,"rental_uris":{"android":"levelo://app?vid=5f0f16f6-eaf3-449b-b282-81400274a1a2","ios":"levelo://app?vid=5f0f16f6-eaf3-449b-b282-81400274a1a2"},"vehicle_type_id":"4","last_reported":1689703741,"current_range_meters":30000,"station_id":"","pricing_plan_id":"free"},{"bike_id":"6d2a9240-d864-4743-9e10-d3266f25f7ef","system_id":"levelo_inurba_marseille","lat":43.322872,"lon":5.382756,"is_reserved":false,"is_disabled":false,"rental_uris":{"android":"levelo://app?vid=6d2a9240-d864-4743-9e10-d3266f25f7ef","ios":"levelo://app?vid=6d2a9240-d864-4743-9e10-d3266f25f7ef"},"vehicle_type_id":"4","last_reported":1689703741,"current_range_meters":22000,"station_id":"ce4bhr12rcd13ifvqhqg","pricing_plan_id":"free"},{"bike_id":"2ed41945-cea8-4afa-87d0-4eb6bbef9c57","system_id":"levelo_inurba_marseille","lat":43.32286,"lon":5.38263,"is_reserved":false,"is_disabled":false,"rental_uris":{"android":"levelo://app?vid=2ed41945-cea8-4afa-87d0-4eb6bbef9c57","ios":"levelo://app?vid=2ed41945-cea8-4afa-87d0-4eb6bbef9c57"},"vehicle_type_id":"4","last_reported":1689703741,"current_range_meters":25200,"station_id":"ce4bhr12rcd13ifvqhqg","pricing_plan_id":"free"},{"bike_id":"7c154cf1-be76-45ac-8f98-526cdbeb1a99","system_id":"levelo_inurba_marseille","lat":43.322872,"lon":5.382756,"is_reserved":false,"is_disabled":false,"rental_uris":{"android":"levelo://app?vid=7c154cf1-be76-45ac-8f98-526cdbeb1a99","ios":"levelo://app?vid=7c154cf1-be76-45ac-8f98-526cdbeb1a99"},"vehicle_type_id":"4","last_reported":1689703741,"current_range_meters":25600,"station_id":"ce4bhr12rcd13ifvqhqg","pricing_plan_id":"free"},{"bike_id":"38cb8470-ab16-4d1e-bd37-13ef2ac7db48","system_id":"levelo_inurba_marseille","lat":43.322872,"lon":5.382756,"is_reserved":false,"is_disabled":false,"rental_uris":{"android":"levelo://app?vid=38cb8470-ab16-4d1e-bd37-13ef2ac7db48","ios":"levelo://app?vid=38cb8470-ab16-4d1e-bd37-13ef2ac7db48"},"vehicle_type_id":"4","last_reported":1689703741,"current_range_meters":24800,"station_id":"ce4bhr12rcd13ifvqhqg","pricing_plan_id":"free"},{"bike_id":"a11921e7-a2f2-41ca-973f-06a6684cf79e","system_id":"levelo_inurba_marseille","lat":43.322872,"lon":5.382756,"is_reserved":false,"is_disabled":false,"rental_uris":{"android":"levelo://app?vid=a11921e7-a2f2-41ca-973f-06a6684cf79e","ios":"levelo://app?vid=a11921e7-a2f2-41ca-973f-06a6684cf79e"},"vehicle_type_id":"4","last_reported":1689703741,"current_range_meters":18400,"station_id":"ce4bhr12rcd13ifvqhqg","pricing_plan_id":"free"},{"bike_id":"e916ca30-98a4-4365-b6d6-d96cd71c267d","system_id":"levelo_inurba_marseille","lat":43.32291,"lon":5.38265,"is_reserved":false,"is_disabled":false,"rental_uris":{"android":"levelo://app?vid=e916ca30-98a4-4365-b6d6-d96cd71c267d","ios":"levelo://app?vid=e916ca30-98a4-4365-b6d6-d96cd71c267d"},"vehicle_type_id":"4","last_reported":1689703741,"current_range_meters":16800,"station_id":"ce4bhr12rcd13ifvqhqg","pricing_plan_id":"free"},{"bike_id":"64127e17-b117-4a26-b5b1-f27db8ca0e03","system_id":"levelo_inurba_marseille","lat":43.322872,"lon":5.382756,"is_reserved":false,"is_disabled":false,"rental_uris":{"android":"levelo://app?vid=64127e17-b117-4a26-b5b1-f27db8ca0e03","ios":"levelo://app?vid=64127e17-b117-4a26-b5b1-f27db8ca0e03"},"vehicle_type_id":"4","last_reported":1689703741,"current_range_meters":22000,"station_id":"ce4bhr12rcd13ifvqhqg","pricing_plan_id":"free"},{"bike_id":"3296666b-4550-46e5-8780-de3f4f4bdb22","system_id":"levelo_inurba_marseille","lat":43.32287,"lon":5.38277,"is_reserved":false,"is_disabled":false,"rental_uris":{"android":"levelo://app?vid=3296666b-4550-46e5-8780-de3f4f4bdb22","ios":"levelo://app?vid=3296666b-4550-46e5-8780-de3f4f4bdb22"},"vehicle_type_id":"4","last_reported":1689703741,"current_range_meters":24000,"station_id":"ce4bhr12rcd13ifvqhqg","pricing_plan_id":"free"},{"bike_id":"be92d518-68b8-4f05-a3c0-5d2d0d4d757d","system_id":"levelo_inurba_marseille","lat":43.32822,"lon":5.36688,"is_reserved":false,"is_disabled":false,"rental_uris":{"android":"levelo://app?vid=be92d518-68b8-4f05-a3c0-5d2d0d4d757d","ios":"levelo://app?vid=be92d518-68b8-4f05-a3c0-5d2d0d4d757d"},"vehicle_type_id":"4","last_reported":1689703741,"current_range_meters":21200,"station_id":"ce4bhs92rcd13ifvqi0g","pricing_plan_id":"free"},{"bike_id":"c52398db-3149-4ccd-8b41-49b4cc753238","system_id":"levelo_inurba_marseille","lat":43.32826,"lon":5.36681,"is_reserved":false,"is_disabled":false,"rental_uris":{"android":"levelo://app?vid=c52398db-3149-4ccd-8b41-49b4cc753238","ios":"levelo://app?vid=c52398db-3149-4ccd-8b41-49b4cc753238"},"vehicle_type_id":"4","last_reported":1689703741,"current_range_meters":20800,"station_id":"ce4bhs92rcd13ifvqi0g","pricing_plan_id":"free"},{"bike_id":"ca80ddc9-4224-4881-ba12-3ea418891e6c","system_id":"levelo_inurba_marseille","lat":43.32827,"lon":5.36692,"is_reserved":false,"is_disabled":false,"rental_uris":{"android":"levelo://app?vid=ca80ddc9-4224-4881-ba12-3ea418891e6c","ios":"levelo://app?vid=ca80ddc9-4224-4881-ba12-3ea418891e6c"},"vehicle_type_id":"4","last_reported":1689703741,"current_range_meters":400,"station_id":"ce4bhs92rcd13ifvqi0g","pricing_plan_id":"free"},{"bike_id":"68aff992-6a2f-4df7-84f1-5f129124d378","system_id":"levelo_inurba_marseille","lat":43.32827,"lon":5.3668,"is_reserved":false,"is_disabled":false,"rental_uris":{"android":"levelo://app?vid=68aff992-6a2f-4df7-84f1-5f129124d378","ios":"levelo://app?vid=68aff992-6a2f-4df7-84f1-5f129124d378"},"vehicle_type_id":"4","last_reported":1689703741,"current_range_meters":31200,"station_id":"ce4bhs92rcd13ifvqi0g","pricing_plan_id":"free"},{"bike_id":"bccd87f9-44fb-4c8c-b55e-836d1e79bd1d","system_id":"levelo_inurba_marseille","lat":43.328371,"lon":5.366909,"is_reserved":false,"is_disabled":false,"rental_uris":{"android":"levelo://app?vid=bccd87f9-44fb-4c8c-b55e-836d1e79bd1d","ios":"levelo://app?vid=bccd87f9-44fb-4c8c-b55e-836d1e79bd1d"},"vehicle_type_id":"4","last_reported":1689703741,"current_range_meters":24800,"station_id":"ce4bhs92rcd13ifvqi0g","pricing_plan_id":"free"},{"bike_id":"1785ac81-c45b-4e28-b2e3-d4fb077dcc49","system_id":"levelo_inurba_marseille","lat":43.32828,"lon":5.36686,"is_reserved":false,"is_disabled":false,"rental_uris":{"android":"levelo://app?vid=1785ac81-c45b-4e28-b2e3-d4fb077dcc49","ios":"levelo://app?vid=1785ac81-c45b-4e28-b2e3-d4fb077dcc49"},"vehicle_type_id":"4","last_reported":1689703741,"current_range_meters":18400,"station_id":"ce4bhs92rcd13ifvqi0g","pricing_plan_id":"free"},{"bike_id":"1b1a92f9-a469-49be-ae33-4794a606317c","system_id":"levelo_inurba_marseille","lat":43.328371,"lon":5.366909,"is_reserved":false,"is_disabled":false,"rental_uris":{"android":"levelo://app?vid=1b1a92f9-a469-49be-ae33-4794a606317c","ios":"levelo://app?vid=1b1a92f9-a469-49be-ae33-4794a606317c"},"vehicle_type_id":"4","last_reported":1689703741,"current_range_meters":18800,"station_id":"ce4bhs92rcd13ifvqi0g","pricing_plan_id":"free"},{"bike_id":"3916e407-8c11-4a2b-8e00-1d25f7bfdca8","system_id":"levelo_inurba_marseille","lat":43.297163,"lon":5.365866,"is_reserved":false,"is_disabled":false,"rental_uris":{"android":"levelo://app?vid=3916e407-8c11-4a2b-8e00-1d25f7bfdca8","ios":"levelo://app?vid=3916e407-8c11-4a2b-8e00-1d25f7bfdca8"},"vehicle_type_id":"4","last_reported":1689703741,"current_range_meters":30000,"station_id":"ce4bgn12rcd13ifvqbt0","pricing_plan_id":"free"},{"bike_id":"ddb98b9f-6cf4-4cb3-b14d-0a011e7483d3","system_id":"levelo_inurba_marseille","lat":43.297163,"lon":5.365866,"is_reserved":false,"is_disabled":false,"rental_uris":{"android":"levelo://app?vid=ddb98b9f-6cf4-4cb3-b14d-0a011e7483d3","ios":"levelo://app?vid=ddb98b9f-6cf4-4cb3-b14d-0a011e7483d3"},"vehicle_type_id":"4","last_reported":1689703741,"current_range_meters":30400,"station_id":"ce4bgn12rcd13ifvqbt0","pricing_plan_id":"free"},{"bike_id":"eb414e3d-48ee-4bed-aadf-aaf017756557","system_id":"levelo_inurba_marseille","lat":43.32832,"lon":5.36695,"is_reserved":false,"is_disabled":false,"rental_uris":{"android":"levelo://app?vid=eb414e3d-48ee-4bed-aadf-aaf017756557","ios":"levelo://app?vid=eb414e3d-48ee-4bed-aadf-aaf017756557"},"vehicle_type_id":"4","last_reported":1689703741,"current_range_meters":23600,"station_id":"ce4bhs92rcd13ifvqi0g","pricing_plan_id":"free"},{"bike_id":"05f61ee2-50db-419a-b4c2-15d64fa3a4b7","system_id":"levelo_inurba_marseille","lat":43.32832,"lon":5.36686,"is_reserved":false,"is_disabled":false,"rental_uris":{"android":"levelo://app?vid=05f61ee2-50db-419a-b4c2-15d64fa3a4b7","ios":"levelo://app?vid=05f61ee2-50db-419a-b4c2-15d64fa3a4b7"},"vehicle_type_id":"4","last_reported":1689703741,"current_range_meters":16800,"station_id":"ce4bhs92rcd13ifvqi0g","pricing_plan_id":"free"},{"bike_id":"a183349e-8fc2-422b-a1a4-311bf42922ae","system_id":"levelo_inurba_marseille","lat":43.32832,"lon":5.36681,"is_reserved":false,"is_disabled":false,"rental_uris":{"android":"levelo://app?vid=a183349e-8fc2-422b-a1a4-311bf42922ae","ios":"levelo://app?vid=a183349e-8fc2-422b-a1a4-311bf42922ae"},"vehicle_type_id":"4","last_reported":1689703741,"current_range_meters":24400,"station_id":"ce4bhs92rcd13ifvqi0g","pricing_plan_id":"free"},{"bike_id":"fa22a42c-19fd-4d4c-b13d-acfa470204e5","system_id":"levelo_inurba_marseille","lat":43.328371,"lon":5.366909,"is_reserved":false,"is_disabled":false,"rental_uris":{"android":"levelo://app?vid=fa22a42c-19fd-4d4c-b13d-acfa470204e5","ios":"levelo://app?vid=fa22a42c-19fd-4d4c-b13d-acfa470204e5"},"vehicle_type_id":"4","last_reported":1689703741,"current_range_meters":23600,"station_id":"ce4bhs92rcd13ifvqi0g","pricing_plan_id":"free"},{"bike_id":"77348f87-5b31-4f9f-b66a-9c8321662707","system_id":"levelo_inurba_marseille","lat":43.297163,"lon":5.365866,"is_reserved":false,"is_disabled":false,"rental_uris":{"android":"levelo://app?vid=77348f87-5b31-4f9f-b66a-9c8321662707","ios":"levelo://app?vid=77348f87-5b31-4f9f-b66a-9c8321662707"},"vehicle_type_id":"4","last_reported":1689703741,"current_range_meters":30000,"station_id":"ce4bgn12rcd13ifvqbt0","pricing_plan_id":"free"},{"bike_id":"ff046285-14f5-4296-b609-2de9aedfcd51","system_id":"levelo_inurba_marseille","lat":43.296129,"lon":5.370777,"is_reserved":false,"is_disabled":false,"rental_uris":{"android":"levelo://app?vid=ff046285-14f5-4296-b609-2de9aedfcd51","ios":"levelo://app?vid=ff046285-14f5-4296-b609-2de9aedfcd51"},"vehicle_type_id":"4","last_reported":1689703741,"current_range_meters":26000,"station_id":"ce4bgnh2rcd13ifvqc0g","pricing_plan_id":"free"},{"bike_id":"c085e820-8517-49d0-bcc1-1ff6940862c3","system_id":"levelo_inurba_marseille","lat":43.29573,"lon":5.367355,"is_reserved":false,"is_disabled":false,"rental_uris":{"android":"levelo://app?vid=c085e820-8517-49d0-bcc1-1ff6940862c3","ios":"levelo://app?vid=c085e820-8517-49d0-bcc1-1ff6940862c3"},"vehicle_type_id":"4","last_reported":1689703741,"current_range_meters":31200,"station_id":"ce4bgph2rcd13ifvqc2g","pricing_plan_id":"free"},{"bike_id":"b2550093-fadf-4a66-8e9a-1dfd7649dcf9","system_id":"levelo_inurba_marseille","lat":43.29578,"lon":5.36738,"is_reserved":false,"is_disabled":false,"rental_uris":{"android":"levelo://app?vid=b2550093-fadf-4a66-8e9a-1dfd7649dcf9","ios":"levelo://app?vid=b2550093-fadf-4a66-8e9a-1dfd7649dcf9"},"vehicle_type_id":"4","last_reported":1689703741,"current_range_meters":22000,"station_id":"ce4bgph2rcd13ifvqc2g","pricing_plan_id":"free"},{"bike_id":"12d8cebc-cc57-40e7-8102-feba75ea1121","system_id":"levelo_inurba_marseille","lat":43.29573,"lon":5.367355,"is_reserved":false,"is_disabled":false,"rental_uris":{"android":"levelo://app?vid=12d8cebc-cc57-40e7-8102-feba75ea1121","ios":"levelo://app?vid=12d8cebc-cc57-40e7-8102-feba75ea1121"},"vehicle_type_id":"4","last_reported":1689703741,"current_range_meters":20400,"station_id":"ce4bgph2rcd13ifvqc2g","pricing_plan_id":"free"},{"bike_id":"61fd66a9-5e88-4046-ba52-8753c9dd746c","system_id":"levelo_inurba_marseille","lat":43.29576,"lon":5.36742,"is_reserved":false,"is_disabled":false,"rental_uris":{"android":"levelo://app?vid=61fd66a9-5e88-4046-ba52-8753c9dd746c","ios":"levelo://app?vid=61fd66a9-5e88-4046-ba52-8753c9dd746c"},"vehicle_type_id":"4","last_reported":1689703741,"current_range_meters":31200,"station_id":"ce4bgph2rcd13ifvqc2g","pricing_plan_id":"free"},{"bike_id":"11ee362a-447b-437c-9cc1-8c2c1025c76f","system_id":"levelo_inurba_marseille","lat":43.317557,"lon":5.390173,"is_reserved":false,"is_disabled":false,"rental_uris":{"android":"levelo://app?vid=11ee362a-447b-437c-9cc1-8c2c1025c76f","ios":"levelo://app?vid=11ee362a-447b-437c-9cc1-8c2c1025c76f"},"vehicle_type_id":"4","last_reported":1689703741,"current_range_meters":20800,"station_id":"ce4bhqp2rcd13ifvqhng","pricing_plan_id":"free"},{"bike_id":"3daa75b0-6298-4859-80cd-9f42f5dd00c5","system_id":"levelo_inurba_marseille","lat":43.317557,"lon":5.390173,"is_reserved":false,"is_disabled":false,"rental_uris":{"android":"levelo://app?vid=3daa75b0-6298-4859-80cd-9f42f5dd00c5","ios":"levelo://app?vid=3daa75b0-6298-4859-80cd-9f42f5dd00c5"},"vehicle_type_id":"4","last_reported":1689703741,"current_range_meters":9200,"station_id":"ce4bhqp2rcd13ifvqhng","pricing_plan_id":"free"},{"bike_id":"149c94ad-2e03-4c5c-a382-ac5d9737014a","system_id":"levelo_inurba_marseille","lat":43.317557,"lon":5.390173,"is_reserved":false,"is_disabled":false,"rental_uris":{"android":"levelo://app?vid=149c94ad-2e03-4c5c-a382-ac5d9737014a","ios":"levelo://app?vid=149c94ad-2e03-4c5c-a382-ac5d9737014a"},"vehicle_type_id":"4","last_reported":1689703741,"current_range_meters":31200,"station_id":"ce4bhqp2rcd13ifvqhng","pricing_plan_id":"free"},{"bike_id":"94959e57-b440-423f-8dc5-bb4906fcdbdd","system_id":"levelo_inurba_marseille","lat":43.317557,"lon":5.390173,"is_reserved":false,"is_disabled":false,"rental_uris":{"android":"levelo://app?vid=94959e57-b440-423f-8dc5-bb4906fcdbdd","ios":"levelo://app?vid=94959e57-b440-423f-8dc5-bb4906fcdbdd"},"vehicle_type_id":"4","last_reported":1689703741,"current_range_meters":30800,"station_id":"ce4bhqp2rcd13ifvqhng","pricing_plan_id":"free"},{"bike_id":"a4ce986c-bb39-40b0-9ba0-9e7c714bc33e","system_id":"levelo_inurba_marseille","lat":43.317557,"lon":5.390173,"is_reserved":false,"is_disabled":false,"rental_uris":{"android":"levelo://app?vid=a4ce986c-bb39-40b0-9ba0-9e7c714bc33e","ios":"levelo://app?vid=a4ce986c-bb39-40b0-9ba0-9e7c714bc33e"},"vehicle_type_id":"4","last_reported":1689703741,"current_range_meters":22000,"station_id":"ce4bhqp2rcd13ifvqhng","pricing_plan_id":"free"},{"bike_id":"5a3bae3f-877a-4441-96ce-3bab3b483ea1","system_id":"levelo_inurba_marseille","lat":43.317557,"lon":5.390173,"is_reserved":false,"is_disabled":false,"rental_uris":{"android":"levelo://app?vid=5a3bae3f-877a-4441-96ce-3bab3b483ea1","ios":"levelo://app?vid=5a3bae3f-877a-4441-96ce-3bab3b483ea1"},"vehicle_type_id":"4","last_reported":1689703741,"current_range_meters":26400,"station_id":"ce4bhqp2rcd13ifvqhng","pricing_plan_id":"free"},{"bike_id":"9226d253-6c9e-4843-b47c-adcff3d04d13","system_id":"levelo_inurba_marseille","lat":43.29811,"lon":5.38093,"is_reserved":false,"is_disabled":false,"rental_uris":{"android":"levelo://app?vid=9226d253-6c9e-4843-b47c-adcff3d04d13","ios":"levelo://app?vid=9226d253-6c9e-4843-b47c-adcff3d04d13"},"vehicle_type_id":"4","last_reported":1689703741,"current_range_meters":17200,"station_id":"ce4bgip2rcd13ifvqbb0","pricing_plan_id":"free"},{"bike_id":"95871bbd-5906-4d0d-9fd0-f5e4a25fcbae","system_id":"levelo_inurba_marseille","lat":43.29797,"lon":5.38102,"is_reserved":false,"is_disabled":false,"rental_uris":{"android":"levelo://app?vid=95871bbd-5906-4d0d-9fd0-f5e4a25fcbae","ios":"levelo://app?vid=95871bbd-5906-4d0d-9fd0-f5e4a25fcbae"},"vehicle_type_id":"4","last_reported":1689703741,"current_range_meters":0,"station_id":"ce4bgip2rcd13ifvqbb0","pricing_plan_id":"free"},{"bike_id":"47e9a84c-ad55-4b76-b5ed-820bc92aa41c","system_id":"levelo_inurba_marseille","lat":43.304274,"lon":5.388873,"is_reserved":false,"is_disabled":false,"rental_uris":{"android":"levelo://app?vid=47e9a84c-ad55-4b76-b5ed-820bc92aa41c","ios":"levelo://app?vid=47e9a84c-ad55-4b76-b5ed-820bc92aa41c"},"vehicle_type_id":"4","last_reported":1689703741,"current_range_meters":18800,"station_id":"ce4bgk12rcd13ifvqbi0","pricing_plan_id":"free"},{"bike_id":"92146313-dc46-41c0-a678-a6ad30febdd4","system_id":"levelo_inurba_marseille","lat":43.30437,"lon":5.38892,"is_reserved":false,"is_disabled":false,"rental_uris":{"android":"levelo://app?vid=92146313-dc46-41c0-a678-a6ad30febdd4","ios":"levelo://app?vid=92146313-dc46-41c0-a678-a6ad30febdd4"},"vehicle_type_id":"4","last_reported":1689703741,"current_range_meters":22000,"station_id":"","pricing_plan_id":"free"},{"bike_id":"2d3f08e3-7b41-4333-836a-b2e5af2c7fc2","system_id":"levelo_inurba_marseille","lat":43.304274,"lon":5.388873,"is_reserved":false,"is_disabled":false,"rental_uris":{"android":"levelo://app?vid=2d3f08e3-7b41-4333-836a-b2e5af2c7fc2","ios":"levelo://app?vid=2d3f08e3-7b41-4333-836a-b2e5af2c7fc2"},"vehicle_type_id":"4","last_reported":1689703741,"current_range_meters":1200,"station_id":"ce4bgk12rcd13ifvqbi0","pricing_plan_id":"free"},{"bike_id":"5dc1d124-3032-4a48-8177-d94d673b07da","system_id":"levelo_inurba_marseille","lat":43.299717,"lon":5.384845,"is_reserved":false,"is_disabled":false,"rental_uris":{"android":"levelo://app?vid=5dc1d124-3032-4a48-8177-d94d673b07da","ios":"levelo://app?vid=5dc1d124-3032-4a48-8177-d94d673b07da"},"vehicle_type_id":"4","last_reported":1689703741,"current_range_meters":1600,"station_id":"ce4bgj92rcd13ifvqbd0","pricing_plan_id":"free"},{"bike_id":"3268a752-0a28-45d2-badf-8f9e4626fc93","system_id":"levelo_inurba_marseille","lat":43.299707,"lon":5.384859,"is_reserved":false,"is_disabled":false,"rental_uris":{"android":"levelo://app?vid=3268a752-0a28-45d2-badf-8f9e4626fc93","ios":"levelo://app?vid=3268a752-0a28-45d2-badf-8f9e4626fc93"},"vehicle_type_id":"4","last_reported":1689703741,"current_range_meters":7200,"station_id":"ce4bgj92rcd13ifvqbd0","pricing_plan_id":"free"},{"bike_id":"1400db7a-3fb2-4d12-af9e-42dedeea0aa3","system_id":"levelo_inurba_marseille","lat":43.32367,"lon":5.388836,"is_reserved":false,"is_disabled":false,"rental_uris":{"android":"levelo://app?vid=1400db7a-3fb2-4d12-af9e-42dedeea0aa3","ios":"levelo://app?vid=1400db7a-3fb2-4d12-af9e-42dedeea0aa3"},"vehicle_type_id":"4","last_reported":1689703741,"current_range_meters":12400,"station_id":"ce4bhqp2rcd13ifvqhog","pricing_plan_id":"free"},{"bike_id":"b3e01d3b-8820-482d-8ada-4315d73ab2b2","system_id":"levelo_inurba_marseille","lat":43.32367,"lon":5.388836,"is_reserved":false,"is_disabled":false,"rental_uris":{"android":"levelo://app?vid=b3e01d3b-8820-482d-8ada-4315d73ab2b2","ios":"levelo://app?vid=b3e01d3b-8820-482d-8ada-4315d73ab2b2"},"vehicle_type_id":"4","last_reported":1689703741,"current_range_meters":4800,"station_id":"ce4bhqp2rcd13ifvqhog","pricing_plan_id":"free"},{"bike_id":"5ec41c3e-a4d7-4bef-9b5f-e4125a041933","system_id":"levelo_inurba_marseille","lat":43.32369,"lon":5.38877,"is_reserved":false,"is_disabled":false,"rental_uris":{"android":"levelo://app?vid=5ec41c3e-a4d7-4bef-9b5f-e4125a041933","ios":"levelo://app?vid=5ec41c3e-a4d7-4bef-9b5f-e4125a041933"},"vehicle_type_id":"4","last_reported":1689703741,"current_range_meters":18800,"station_id":"ce4bhqp2rcd13ifvqhog","pricing_plan_id":"free"},{"bike_id":"d78ac8b0-d359-48bd-bfc7-d5b3ee97bbc2","system_id":"levelo_inurba_marseille","lat":43.32367,"lon":5.388836,"is_reserved":false,"is_disabled":false,"rental_uris":{"android":"levelo://app?vid=d78ac8b0-d359-48bd-bfc7-d5b3ee97bbc2","ios":"levelo://app?vid=d78ac8b0-d359-48bd-bfc7-d5b3ee97bbc2"},"vehicle_type_id":"4","last_reported":1689703741,"current_range_meters":17600,"station_id":"ce4bhqp2rcd13ifvqhog","pricing_plan_id":"free"},{"bike_id":"fdf33e7e-bc6f-46fb-88e2-7a5aede71038","system_id":"levelo_inurba_marseille","lat":43.32363,"lon":5.38887,"is_reserved":false,"is_disabled":false,"rental_uris":{"android":"levelo://app?vid=fdf33e7e-bc6f-46fb-88e2-7a5aede71038","ios":"levelo://app?vid=fdf33e7e-bc6f-46fb-88e2-7a5aede71038"},"vehicle_type_id":"4","last_reported":1689703741,"current_range_meters":24000,"station_id":"ce4bhqp2rcd13ifvqhog","pricing_plan_id":"free"},{"bike_id":"4290b152-9a44-4358-9a64-332a32078433","system_id":"levelo_inurba_marseille","lat":43.32367,"lon":5.388836,"is_reserved":false,"is_disabled":false,"rental_uris":{"android":"levelo://app?vid=4290b152-9a44-4358-9a64-332a32078433","ios":"levelo://app?vid=4290b152-9a44-4358-9a64-332a32078433"},"vehicle_type_id":"4","last_reported":1689703741,"current_range_meters":17600,"station_id":"ce4bhqp2rcd13ifvqhog","pricing_plan_id":"free"},{"bike_id":"2baf5c12-896e-4857-beb1-c0b457a46e61","system_id":"levelo_inurba_marseille","lat":43.32368,"lon":5.38884,"is_reserved":false,"is_disabled":false,"rental_uris":{"android":"levelo://app?vid=2baf5c12-896e-4857-beb1-c0b457a46e61","ios":"levelo://app?vid=2baf5c12-896e-4857-beb1-c0b457a46e61"},"vehicle_type_id":"4","last_reported":1689703741,"current_range_meters":25200,"station_id":"ce4bhqp2rcd13ifvqhog","pricing_plan_id":"free"},{"bike_id":"5ff4c558-05ea-44be-8db8-c0a30bbb57d4","system_id":"levelo_inurba_marseille","lat":43.32367,"lon":5.38885,"is_reserved":false,"is_disabled":false,"rental_uris":{"android":"levelo://app?vid=5ff4c558-05ea-44be-8db8-c0a30bbb57d4","ios":"levelo://app?vid=5ff4c558-05ea-44be-8db8-c0a30bbb57d4"},"vehicle_type_id":"4","last_reported":1689703741,"current_range_meters":15200,"station_id":"ce4bhqp2rcd13ifvqhog","pricing_plan_id":"free"},{"bike_id":"bb7a846f-da04-4cb1-bfb7-d4494bf2ddb5","system_id":"levelo_inurba_marseille","lat":43.29601,"lon":5.381084,"is_reserved":false,"is_disabled":false,"rental_uris":{"android":"levelo://app?vid=bb7a846f-da04-4cb1-bfb7-d4494bf2ddb5","ios":"levelo://app?vid=bb7a846f-da04-4cb1-bfb7-d4494bf2ddb5"},"vehicle_type_id":"4","last_reported":1689703741,"current_range_meters":21200,"station_id":"ce4bgl12rcd13ifvqbo0","pricing_plan_id":"free"},{"bike_id":"dd0fd722-3489-47ff-a23e-bc793dab03b8","system_id":"levelo_inurba_marseille","lat":43.29603,"lon":5.38109,"is_reserved":false,"is_disabled":false,"rental_uris":{"android":"levelo://app?vid=dd0fd722-3489-47ff-a23e-bc793dab03b8","ios":"levelo://app?vid=dd0fd722-3489-47ff-a23e-bc793dab03b8"},"vehicle_type_id":"4","last_reported":1689703741,"current_range_meters":4400,"station_id":"ce4bgl12rcd13ifvqbo0","pricing_plan_id":"free"},{"bike_id":"ad5889f3-e71a-4e16-89de-ffdff95c95a1","system_id":"levelo_inurba_marseille","lat":43.293009,"lon":5.374584,"is_reserved":false,"is_disabled":false,"rental_uris":{"android":"levelo://app?vid=ad5889f3-e71a-4e16-89de-ffdff95c95a1","ios":"levelo://app?vid=ad5889f3-e71a-4e16-89de-ffdff95c95a1"},"vehicle_type_id":"4","last_reported":1689703741,"current_range_meters":21600,"station_id":"ce4bgi12rcd13ifvqb70","pricing_plan_id":"free"},{"bike_id":"8fc79092-8a52-48cd-a7b3-f7ba99ad02f1","system_id":"levelo_inurba_marseille","lat":43.292749,"lon":5.368398,"is_reserved":false,"is_disabled":false,"rental_uris":{"android":"levelo://app?vid=8fc79092-8a52-48cd-a7b3-f7ba99ad02f1","ios":"levelo://app?vid=8fc79092-8a52-48cd-a7b3-f7ba99ad02f1"},"vehicle_type_id":"4","last_reported":1689703741,"current_range_meters":23200,"station_id":"ce4bhbp2rcd13ifvqesg","pricing_plan_id":"free"},{"bike_id":"94484169-2d51-46e6-aede-73c21eac8a82","system_id":"levelo_inurba_marseille","lat":43.30245,"lon":5.3907,"is_reserved":false,"is_disabled":false,"rental_uris":{"android":"levelo://app?vid=94484169-2d51-46e6-aede-73c21eac8a82","ios":"levelo://app?vid=94484169-2d51-46e6-aede-73c21eac8a82"},"vehicle_type_id":"4","last_reported":1689703741,"current_range_meters":26400,"station_id":"","pricing_plan_id":"free"},{"bike_id":"ed826c79-4648-44c8-8ad4-600e3e100901","system_id":"levelo_inurba_marseille","lat":43.305994,"lon":5.393687,"is_reserved":false,"is_disabled":false,"rental_uris":{"android":"levelo://app?vid=ed826c79-4648-44c8-8ad4-600e3e100901","ios":"levelo://app?vid=ed826c79-4648-44c8-8ad4-600e3e100901"},"vehicle_type_id":"4","last_reported":1689703741,"current_range_meters":3600,"station_id":"ce4bh0p2rcd13ifvqd80","pricing_plan_id":"free"},{"bike_id":"2ef1ad07-ce64-4546-842c-9809b8726380","system_id":"levelo_inurba_marseille","lat":43.305994,"lon":5.393687,"is_reserved":false,"is_disabled":false,"rental_uris":{"android":"levelo://app?vid=2ef1ad07-ce64-4546-842c-9809b8726380","ios":"levelo://app?vid=2ef1ad07-ce64-4546-842c-9809b8726380"},"vehicle_type_id":"4","last_reported":1689703741,"current_range_meters":26000,"station_id":"ce4bh0p2rcd13ifvqd80","pricing_plan_id":"free"},{"bike_id":"4ee61d53-2b23-4773-b7fe-2efa79673493","system_id":"levelo_inurba_marseille","lat":43.29292,"lon":5.37466,"is_reserved":false,"is_disabled":false,"rental_uris":{"android":"levelo://app?vid=4ee61d53-2b23-4773-b7fe-2efa79673493","ios":"levelo://app?vid=4ee61d53-2b23-4773-b7fe-2efa79673493"},"vehicle_type_id":"4","last_reported":1689703741,"current_range_meters":10000,"station_id":"","pricing_plan_id":"free"},{"bike_id":"bc45e2f6-936f-465f-a6a8-c22a15cb8e12","system_id":"levelo_inurba_marseille","lat":43.305994,"lon":5.393687,"is_reserved":false,"is_disabled":false,"rental_uris":{"android":"levelo://app?vid=bc45e2f6-936f-465f-a6a8-c22a15cb8e12","ios":"levelo://app?vid=bc45e2f6-936f-465f-a6a8-c22a15cb8e12"},"vehicle_type_id":"4","last_reported":1689703741,"current_range_meters":7600,"station_id":"ce4bh0p2rcd13ifvqd80","pricing_plan_id":"free"},{"bike_id":"1fa86737-19ac-4bcd-9aca-3dd75cf89efd","system_id":"levelo_inurba_marseille","lat":43.302992,"lon":5.392136,"is_reserved":false,"is_disabled":false,"rental_uris":{"android":"levelo://app?vid=1fa86737-19ac-4bcd-9aca-3dd75cf89efd","ios":"levelo://app?vid=1fa86737-19ac-4bcd-9aca-3dd75cf89efd"},"vehicle_type_id":"4","last_reported":1689703741,"current_range_meters":16400,"station_id":"ce4bgkh2rcd13ifvqbk0","pricing_plan_id":"free"},{"bike_id":"ad6dc429-2cf8-4f70-a942-0ae1bbe56510","system_id":"levelo_inurba_marseille","lat":43.29229,"lon":5.36056,"is_reserved":false,"is_disabled":false,"rental_uris":{"android":"levelo://app?vid=ad6dc429-2cf8-4f70-a942-0ae1bbe56510","ios":"levelo://app?vid=ad6dc429-2cf8-4f70-a942-0ae1bbe56510"},"vehicle_type_id":"4","last_reported":1689703741,"current_range_meters":31200,"station_id":"ce4bhbh2rcd13ifvqeqg","pricing_plan_id":"free"},{"bike_id":"adc407ee-fe43-4116-955c-ea4a162838c2","system_id":"levelo_inurba_marseille","lat":43.292311,"lon":5.360731,"is_reserved":false,"is_disabled":false,"rental_uris":{"android":"levelo://app?vid=adc407ee-fe43-4116-955c-ea4a162838c2","ios":"levelo://app?vid=adc407ee-fe43-4116-955c-ea4a162838c2"},"vehicle_type_id":"4","last_reported":1689703741,"current_range_meters":30400,"station_id":"ce4bhbh2rcd13ifvqeqg","pricing_plan_id":"free"},{"bike_id":"a9a8865b-df38-4e01-b5dd-eadb171e55c7","system_id":"levelo_inurba_marseille","lat":43.29529,"lon":5.385581,"is_reserved":false,"is_disabled":false,"rental_uris":{"android":"levelo://app?vid=a9a8865b-df38-4e01-b5dd-eadb171e55c7","ios":"levelo://app?vid=a9a8865b-df38-4e01-b5dd-eadb171e55c7"},"vehicle_type_id":"4","last_reported":1689703741,"current_range_meters":10000,"station_id":"ce4bgih2rcd13ifvqba0","pricing_plan_id":"free"},{"bike_id":"cd30769a-bf30-4294-b7fd-0e2813f1cbc0","system_id":"levelo_inurba_marseille","lat":43.292663,"lon":5.376389,"is_reserved":false,"is_disabled":false,"rental_uris":{"android":"levelo://app?vid=cd30769a-bf30-4294-b7fd-0e2813f1cbc0","ios":"levelo://app?vid=cd30769a-bf30-4294-b7fd-0e2813f1cbc0"},"vehicle_type_id":"4","last_reported":1689703741,"current_range_meters":5200,"station_id":"ce4bgi12rcd13ifvqb80","pricing_plan_id":"free"},{"bike_id":"a5e8824f-242e-41a0-bd6d-e318e2b1e0d9","system_id":"levelo_inurba_marseille","lat":43.298764,"lon":5.388973,"is_reserved":false,"is_disabled":false,"rental_uris":{"android":"levelo://app?vid=a5e8824f-242e-41a0-bd6d-e318e2b1e0d9","ios":"levelo://app?vid=a5e8824f-242e-41a0-bd6d-e318e2b1e0d9"},"vehicle_type_id":"4","last_reported":1689703741,"current_range_meters":22800,"station_id":"ce4bh392rcd13ifvqdl0","pricing_plan_id":"free"},{"bike_id":"bb972dfc-a5c6-409d-a644-1460b17240f3","system_id":"levelo_inurba_marseille","lat":43.291675,"lon":5.371583,"is_reserved":false,"is_disabled":false,"rental_uris":{"android":"levelo://app?vid=bb972dfc-a5c6-409d-a644-1460b17240f3","ios":"levelo://app?vid=bb972dfc-a5c6-409d-a644-1460b17240f3"},"vehicle_type_id":"4","last_reported":1689703741,"current_range_meters":30000,"station_id":"ce4bha92rcd13ifvqeh0","pricing_plan_id":"free"},{"bike_id":"d4e628bc-599f-41d1-9361-b6c75e1b31c3","system_id":"levelo_inurba_marseille","lat":43.291675,"lon":5.371583,"is_reserved":false,"is_disabled":false,"rental_uris":{"android":"levelo://app?vid=d4e628bc-599f-41d1-9361-b6c75e1b31c3","ios":"levelo://app?vid=d4e628bc-599f-41d1-9361-b6c75e1b31c3"},"vehicle_type_id":"4","last_reported":1689703741,"current_range_meters":30400,"station_id":"ce4bha92rcd13ifvqeh0","pricing_plan_id":"free"},{"bike_id":"7d4ce6f5-f1b0-4d5d-a266-60be1c87d2b0","system_id":"levelo_inurba_marseille","lat":43.29202,"lon":5.35797,"is_reserved":false,"is_disabled":false,"rental_uris":{"android":"levelo://app?vid=7d4ce6f5-f1b0-4d5d-a266-60be1c87d2b0","ios":"levelo://app?vid=7d4ce6f5-f1b0-4d5d-a266-60be1c87d2b0"},"vehicle_type_id":"4","last_reported":1689703741,"current_range_meters":29200,"station_id":"ce4bhb12rcd13ifvqel0","pricing_plan_id":"free"},{"bike_id":"f4115c6f-00ea-4b63-b2ac-430cefa08425","system_id":"levelo_inurba_marseille","lat":43.291994,"lon":5.357886,"is_reserved":false,"is_disabled":false,"rental_uris":{"android":"levelo://app?vid=f4115c6f-00ea-4b63-b2ac-430cefa08425","ios":"levelo://app?vid=f4115c6f-00ea-4b63-b2ac-430cefa08425"},"vehicle_type_id":"4","last_reported":1689703741,"current_range_meters":25200,"station_id":"ce4bhb12rcd13ifvqel0","pricing_plan_id":"free"},{"bike_id":"4b326499-ab23-4d95-a4e8-fad841978464","system_id":"levelo_inurba_marseille","lat":43.3133,"lon":5.39686,"is_reserved":false,"is_disabled":false,"rental_uris":{"android":"levelo://app?vid=4b326499-ab23-4d95-a4e8-fad841978464","ios":"levelo://app?vid=4b326499-ab23-4d95-a4e8-fad841978464"},"vehicle_type_id":"4","last_reported":1689703741,"current_range_meters":19200,"station_id":"","pricing_plan_id":"free"},{"bike_id":"e5509d72-821e-49b1-b985-b452ec3be954","system_id":"levelo_inurba_marseille","lat":43.30885,"lon":5.39643,"is_reserved":false,"is_disabled":false,"rental_uris":{"android":"levelo://app?vid=e5509d72-821e-49b1-b985-b452ec3be954","ios":"levelo://app?vid=e5509d72-821e-49b1-b985-b452ec3be954"},"vehicle_type_id":"4","last_reported":1689703741,"current_range_meters":13600,"station_id":"","pricing_plan_id":"free"},{"bike_id":"053b46e9-a1d4-49d5-a63f-d6cc85f9b736","system_id":"levelo_inurba_marseille","lat":43.313291,"lon":5.396838,"is_reserved":false,"is_disabled":false,"rental_uris":{"android":"levelo://app?vid=053b46e9-a1d4-49d5-a63f-d6cc85f9b736","ios":"levelo://app?vid=053b46e9-a1d4-49d5-a63f-d6cc85f9b736"},"vehicle_type_id":"4","last_reported":1689703741,"current_range_meters":22000,"station_id":"ce4bgvp2rcd13ifvqcu0","pricing_plan_id":"free"},{"bike_id":"6e23cd9d-44c2-489f-ba55-76d6bdb11da0","system_id":"levelo_inurba_marseille","lat":43.309038,"lon":5.396546,"is_reserved":false,"is_disabled":false,"rental_uris":{"android":"levelo://app?vid=6e23cd9d-44c2-489f-ba55-76d6bdb11da0","ios":"levelo://app?vid=6e23cd9d-44c2-489f-ba55-76d6bdb11da0"},"vehicle_type_id":"4","last_reported":1689703741,"current_range_meters":12800,"station_id":"ce4bh012rcd13ifvqcv0","pricing_plan_id":"free"},{"bike_id":"cd60b1c2-fd73-4472-b305-cdc611f32f3d","system_id":"levelo_inurba_marseille","lat":43.309038,"lon":5.396546,"is_reserved":false,"is_disabled":false,"rental_uris":{"android":"levelo://app?vid=cd60b1c2-fd73-4472-b305-cdc611f32f3d","ios":"levelo://app?vid=cd60b1c2-fd73-4472-b305-cdc611f32f3d"},"vehicle_type_id":"4","last_reported":1689703741,"current_range_meters":14400,"station_id":"ce4bh012rcd13ifvqcv0","pricing_plan_id":"free"},{"bike_id":"959bde8f-8019-45f0-90a5-cfb866713c29","system_id":"levelo_inurba_marseille","lat":43.29193,"lon":5.35757,"is_reserved":false,"is_disabled":false,"rental_uris":{"android":"levelo://app?vid=959bde8f-8019-45f0-90a5-cfb866713c29","ios":"levelo://app?vid=959bde8f-8019-45f0-90a5-cfb866713c29"},"vehicle_type_id":"4","last_reported":1689703741,"current_range_meters":24400,"station_id":"ce4bhb12rcd13ifvqel0","pricing_plan_id":"free"},{"bike_id":"75bcb5dc-54ab-4969-9917-dec98d7d35f0","system_id":"levelo_inurba_marseille","lat":43.29237,"lon":5.35574,"is_reserved":false,"is_disabled":false,"rental_uris":{"android":"levelo://app?vid=75bcb5dc-54ab-4969-9917-dec98d7d35f0","ios":"levelo://app?vid=75bcb5dc-54ab-4969-9917-dec98d7d35f0"},"vehicle_type_id":"4","last_reported":1689703741,"current_range_meters":14000,"station_id":"","pricing_plan_id":"free"},{"bike_id":"24266456-6def-40c8-a92d-17442119f051","system_id":"levelo_inurba_marseille","lat":43.29541,"lon":5.38543,"is_reserved":false,"is_disabled":false,"rental_uris":{"android":"levelo://app?vid=24266456-6def-40c8-a92d-17442119f051","ios":"levelo://app?vid=24266456-6def-40c8-a92d-17442119f051"},"vehicle_type_id":"4","last_reported":1689703741,"current_range_meters":9200,"station_id":"ce4bgih2rcd13ifvqba0","pricing_plan_id":"free"},{"bike_id":"405923dc-b12d-4a60-a4d3-63352ee69ed1","system_id":"levelo_inurba_marseille","lat":43.29539,"lon":5.38541,"is_reserved":false,"is_disabled":false,"rental_uris":{"android":"levelo://app?vid=405923dc-b12d-4a60-a4d3-63352ee69ed1","ios":"levelo://app?vid=405923dc-b12d-4a60-a4d3-63352ee69ed1"},"vehicle_type_id":"4","last_reported":1689703741,"current_range_meters":25600,"station_id":"ce4bgih2rcd13ifvqba0","pricing_plan_id":"free"},{"bike_id":"09b54644-b187-4f78-9149-4403e19c1e45","system_id":"levelo_inurba_marseille","lat":43.29538,"lon":5.38541,"is_reserved":false,"is_disabled":false,"rental_uris":{"android":"levelo://app?vid=09b54644-b187-4f78-9149-4403e19c1e45","ios":"levelo://app?vid=09b54644-b187-4f78-9149-4403e19c1e45"},"vehicle_type_id":"4","last_reported":1689703741,"current_range_meters":18800,"station_id":"ce4bgih2rcd13ifvqba0","pricing_plan_id":"free"},{"bike_id":"36316de5-8b12-4db2-adae-03af56465260","system_id":"levelo_inurba_marseille","lat":43.2954,"lon":5.38545,"is_reserved":false,"is_disabled":false,"rental_uris":{"android":"levelo://app?vid=36316de5-8b12-4db2-adae-03af56465260","ios":"levelo://app?vid=36316de5-8b12-4db2-adae-03af56465260"},"vehicle_type_id":"4","last_reported":1689703741,"current_range_meters":800,"station_id":"ce4bgih2rcd13ifvqba0","pricing_plan_id":"free"},{"bike_id":"a93c443a-98db-4308-8e77-df3c838edbcc","system_id":"levelo_inurba_marseille","lat":43.29537,"lon":5.38541,"is_reserved":false,"is_disabled":false,"rental_uris":{"android":"levelo://app?vid=a93c443a-98db-4308-8e77-df3c838edbcc","ios":"levelo://app?vid=a93c443a-98db-4308-8e77-df3c838edbcc"},"vehicle_type_id":"4","last_reported":1689703741,"current_range_meters":9200,"station_id":"ce4bgih2rcd13ifvqba0","pricing_plan_id":"free"},{"bike_id":"e9340169-c4cf-4a70-a85c-e1a4197afb40","system_id":"levelo_inurba_marseille","lat":43.29534,"lon":5.38545,"is_reserved":false,"is_disabled":false,"rental_uris":{"android":"levelo://app?vid=e9340169-c4cf-4a70-a85c-e1a4197afb40","ios":"levelo://app?vid=e9340169-c4cf-4a70-a85c-e1a4197afb40"},"vehicle_type_id":"4","last_reported":1689703741,"current_range_meters":26400,"station_id":"ce4bgih2rcd13ifvqba0","pricing_plan_id":"free"},{"bike_id":"b69faa0e-7096-4522-acce-d15564b8da8f","system_id":"levelo_inurba_marseille","lat":43.290779,"lon":5.371482,"is_reserved":false,"is_disabled":false,"rental_uris":{"android":"levelo://app?vid=b69faa0e-7096-4522-acce-d15564b8da8f","ios":"levelo://app?vid=b69faa0e-7096-4522-acce-d15564b8da8f"},"vehicle_type_id":"4","last_reported":1689703741,"current_range_meters":31200,"station_id":"ce4bh5p2rcd13ifvqe4g","pricing_plan_id":"free"},{"bike_id":"87852e70-44b9-4369-8bc1-f99d526875fe","system_id":"levelo_inurba_marseille","lat":43.302008,"lon":5.394694,"is_reserved":false,"is_disabled":false,"rental_uris":{"android":"levelo://app?vid=87852e70-44b9-4369-8bc1-f99d526875fe","ios":"levelo://app?vid=87852e70-44b9-4369-8bc1-f99d526875fe"},"vehicle_type_id":"4","last_reported":1689703741,"current_range_meters":28400,"station_id":"ce4bh0p2rcd13ifvqd70","pricing_plan_id":"free"},{"bike_id":"ec66e687-aada-4a83-a331-b77c9e5e6893","system_id":"levelo_inurba_marseille","lat":43.290624,"lon":5.359245,"is_reserved":false,"is_disabled":false,"rental_uris":{"android":"levelo://app?vid=ec66e687-aada-4a83-a331-b77c9e5e6893","ios":"levelo://app?vid=ec66e687-aada-4a83-a331-b77c9e5e6893"},"vehicle_type_id":"4","last_reported":1689703741,"current_range_meters":20000,"station_id":"ce4bha92rcd13ifvqeg0","pricing_plan_id":"free"},{"bike_id":"0abca767-e4a3-4d97-a397-cd5e3d5f991c","system_id":"levelo_inurba_marseille","lat":43.290624,"lon":5.359245,"is_reserved":false,"is_disabled":false,"rental_uris":{"android":"levelo://app?vid=0abca767-e4a3-4d97-a397-cd5e3d5f991c","ios":"levelo://app?vid=0abca767-e4a3-4d97-a397-cd5e3d5f991c"},"vehicle_type_id":"4","last_reported":1689703741,"current_range_meters":25200,"station_id":"ce4bha92rcd13ifvqeg0","pricing_plan_id":"free"},{"bike_id":"58f58833-a8a6-475d-82e0-3ffebdcb26e6","system_id":"levelo_inurba_marseille","lat":43.290624,"lon":5.359245,"is_reserved":false,"is_disabled":false,"rental_uris":{"android":"levelo://app?vid=58f58833-a8a6-475d-82e0-3ffebdcb26e6","ios":"levelo://app?vid=58f58833-a8a6-475d-82e0-3ffebdcb26e6"},"vehicle_type_id":"4","last_reported":1689703741,"current_range_meters":16000,"station_id":"ce4bha92rcd13ifvqeg0","pricing_plan_id":"free"},{"bike_id":"f0b5bc66-4cc0-4269-adb6-f7792f47238c","system_id":"levelo_inurba_marseille","lat":43.2904,"lon":5.35923,"is_reserved":false,"is_disabled":false,"rental_uris":{"android":"levelo://app?vid=f0b5bc66-4cc0-4269-adb6-f7792f47238c","ios":"levelo://app?vid=f0b5bc66-4cc0-4269-adb6-f7792f47238c"},"vehicle_type_id":"4","last_reported":1689703741,"current_range_meters":29600,"station_id":"ce4bha92rcd13ifvqeg0","pricing_plan_id":"free"},{"bike_id":"5bfad4a8-0a95-4a76-bb71-dac5224927d0","system_id":"levelo_inurba_marseille","lat":43.29039,"lon":5.35916,"is_reserved":false,"is_disabled":false,"rental_uris":{"android":"levelo://app?vid=5bfad4a8-0a95-4a76-bb71-dac5224927d0","ios":"levelo://app?vid=5bfad4a8-0a95-4a76-bb71-dac5224927d0"},"vehicle_type_id":"4","last_reported":1689703741,"current_range_meters":23200,"station_id":"ce4bha92rcd13ifvqeg0","pricing_plan_id":"free"},{"bike_id":"4beb39f2-9be9-47e6-a9a0-532c8864c5a4","system_id":"levelo_inurba_marseille","lat":43.290624,"lon":5.359245,"is_reserved":false,"is_disabled":false,"rental_uris":{"android":"levelo://app?vid=4beb39f2-9be9-47e6-a9a0-532c8864c5a4","ios":"levelo://app?vid=4beb39f2-9be9-47e6-a9a0-532c8864c5a4"},"vehicle_type_id":"4","last_reported":1689703741,"current_range_meters":22000,"station_id":"ce4bha92rcd13ifvqeg0","pricing_plan_id":"free"},{"bike_id":"8142f7e6-0a8a-4bc6-b6b7-ef9c8e5469b4","system_id":"levelo_inurba_marseille","lat":43.29425,"lon":5.3862,"is_reserved":false,"is_disabled":false,"rental_uris":{"android":"levelo://app?vid=8142f7e6-0a8a-4bc6-b6b7-ef9c8e5469b4","ios":"levelo://app?vid=8142f7e6-0a8a-4bc6-b6b7-ef9c8e5469b4"},"vehicle_type_id":"4","last_reported":1689703741,"current_range_meters":18400,"station_id":"ce4bh2h2rcd13ifvqdh0","pricing_plan_id":"free"},{"bike_id":"dd43993a-46bd-40e6-8963-956dcd3b3445","system_id":"levelo_inurba_marseille","lat":43.29417,"lon":5.38614,"is_reserved":false,"is_disabled":false,"rental_uris":{"android":"levelo://app?vid=dd43993a-46bd-40e6-8963-956dcd3b3445","ios":"levelo://app?vid=dd43993a-46bd-40e6-8963-956dcd3b3445"},"vehicle_type_id":"4","last_reported":1689703741,"current_range_meters":31200,"station_id":"ce4bh2h2rcd13ifvqdh0","pricing_plan_id":"free"},{"bike_id":"0f265242-486a-484c-966f-95640f0a5c57","system_id":"levelo_inurba_marseille","lat":43.294162,"lon":5.386292,"is_reserved":false,"is_disabled":false,"rental_uris":{"android":"levelo://app?vid=0f265242-486a-484c-966f-95640f0a5c57","ios":"levelo://app?vid=0f265242-486a-484c-966f-95640f0a5c57"},"vehicle_type_id":"4","last_reported":1689703741,"current_range_meters":22400,"station_id":"ce4bh2h2rcd13ifvqdh0","pricing_plan_id":"free"},{"bike_id":"b2cf5865-fb1b-4d00-8a90-4fbaed6d2d99","system_id":"levelo_inurba_marseille","lat":43.294162,"lon":5.386292,"is_reserved":false,"is_disabled":false,"rental_uris":{"android":"levelo://app?vid=b2cf5865-fb1b-4d00-8a90-4fbaed6d2d99","ios":"levelo://app?vid=b2cf5865-fb1b-4d00-8a90-4fbaed6d2d99"},"vehicle_type_id":"4","last_reported":1689703741,"current_range_meters":6800,"station_id":"ce4bh2h2rcd13ifvqdh0","pricing_plan_id":"free"},{"bike_id":"cbcb4b33-a9e8-45ce-81c4-8269f226917a","system_id":"levelo_inurba_marseille","lat":43.2942,"lon":5.38623,"is_reserved":false,"is_disabled":false,"rental_uris":{"android":"levelo://app?vid=cbcb4b33-a9e8-45ce-81c4-8269f226917a","ios":"levelo://app?vid=cbcb4b33-a9e8-45ce-81c4-8269f226917a"},"vehicle_type_id":"4","last_reported":1689703741,"current_range_meters":14800,"station_id":"ce4bh2h2rcd13ifvqdh0","pricing_plan_id":"free"},{"bike_id":"ae21bfe1-4fb0-4b96-90e7-618c04a2e974","system_id":"levelo_inurba_marseille","lat":43.294162,"lon":5.386292,"is_reserved":false,"is_disabled":false,"rental_uris":{"android":"levelo://app?vid=ae21bfe1-4fb0-4b96-90e7-618c04a2e974","ios":"levelo://app?vid=ae21bfe1-4fb0-4b96-90e7-618c04a2e974"},"vehicle_type_id":"4","last_reported":1689703741,"current_range_meters":11200,"station_id":"ce4bh2h2rcd13ifvqdh0","pricing_plan_id":"free"},{"bike_id":"f4b47e1d-2f5d-4e00-a430-4697c86fca4f","system_id":"levelo_inurba_marseille","lat":43.294162,"lon":5.386292,"is_reserved":false,"is_disabled":false,"rental_uris":{"android":"levelo://app?vid=f4b47e1d-2f5d-4e00-a430-4697c86fca4f","ios":"levelo://app?vid=f4b47e1d-2f5d-4e00-a430-4697c86fca4f"},"vehicle_type_id":"4","last_reported":1689703741,"current_range_meters":24000,"station_id":"ce4bh2h2rcd13ifvqdh0","pricing_plan_id":"free"},{"bike_id":"c02e0936-7955-4fd2-be91-bf6400004d96","system_id":"levelo_inurba_marseille","lat":43.294162,"lon":5.386292,"is_reserved":false,"is_disabled":false,"rental_uris":{"android":"levelo://app?vid=c02e0936-7955-4fd2-be91-bf6400004d96","ios":"levelo://app?vid=c02e0936-7955-4fd2-be91-bf6400004d96"},"vehicle_type_id":"4","last_reported":1689703741,"current_range_meters":29200,"station_id":"ce4bh2h2rcd13ifvqdh0","pricing_plan_id":"free"},{"bike_id":"94ee896c-a65e-4271-accf-047482948161","system_id":"levelo_inurba_marseille","lat":43.294162,"lon":5.386292,"is_reserved":false,"is_disabled":false,"rental_uris":{"android":"levelo://app?vid=94ee896c-a65e-4271-accf-047482948161","ios":"levelo://app?vid=94ee896c-a65e-4271-accf-047482948161"},"vehicle_type_id":"4","last_reported":1689703741,"current_range_meters":12400,"station_id":"ce4bh2h2rcd13ifvqdh0","pricing_plan_id":"free"},{"bike_id":"99bf63c8-98d1-49a0-9530-e07a9ad4b2a8","system_id":"levelo_inurba_marseille","lat":43.2942,"lon":5.3863,"is_reserved":false,"is_disabled":false,"rental_uris":{"android":"levelo://app?vid=99bf63c8-98d1-49a0-9530-e07a9ad4b2a8","ios":"levelo://app?vid=99bf63c8-98d1-49a0-9530-e07a9ad4b2a8"},"vehicle_type_id":"4","last_reported":1689703741,"current_range_meters":18800,"station_id":"ce4bh2h2rcd13ifvqdh0","pricing_plan_id":"free"},{"bike_id":"ddc27cd7-bea4-4645-b6b9-91d7247e6762","system_id":"levelo_inurba_marseille","lat":43.290327,"lon":5.375711,"is_reserved":false,"is_disabled":false,"rental_uris":{"android":"levelo://app?vid=ddc27cd7-bea4-4645-b6b9-91d7247e6762","ios":"levelo://app?vid=ddc27cd7-bea4-4645-b6b9-91d7247e6762"},"vehicle_type_id":"4","last_reported":1689703741,"current_range_meters":15600,"station_id":"ce4bh692rcd13ifvqe90","pricing_plan_id":"free"},{"bike_id":"f571b1cb-1673-4c66-9ef5-2cc4392284eb","system_id":"levelo_inurba_marseille","lat":43.294162,"lon":5.386292,"is_reserved":false,"is_disabled":false,"rental_uris":{"android":"levelo://app?vid=f571b1cb-1673-4c66-9ef5-2cc4392284eb","ios":"levelo://app?vid=f571b1cb-1673-4c66-9ef5-2cc4392284eb"},"vehicle_type_id":"4","last_reported":1689703741,"current_range_meters":5200,"station_id":"ce4bh2h2rcd13ifvqdh0","pricing_plan_id":"free"},{"bike_id":"c925120d-a10e-4a19-a192-22c358953b81","system_id":"levelo_inurba_marseille","lat":43.289184,"lon":5.366408,"is_reserved":false,"is_disabled":false,"rental_uris":{"android":"levelo://app?vid=c925120d-a10e-4a19-a192-22c358953b81","ios":"levelo://app?vid=c925120d-a10e-4a19-a192-22c358953b81"},"vehicle_type_id":"4","last_reported":1689703741,"current_range_meters":14800,"station_id":"ce4bhap2rcd13ifvqek0","pricing_plan_id":"free"},{"bike_id":"838ae5f9-b8e6-4fbe-abf8-69d918d00fe3","system_id":"levelo_inurba_marseille","lat":43.294162,"lon":5.386292,"is_reserved":false,"is_disabled":false,"rental_uris":{"android":"levelo://app?vid=838ae5f9-b8e6-4fbe-abf8-69d918d00fe3","ios":"levelo://app?vid=838ae5f9-b8e6-4fbe-abf8-69d918d00fe3"},"vehicle_type_id":"4","last_reported":1689703741,"current_range_meters":22800,"station_id":"ce4bh2h2rcd13ifvqdh0","pricing_plan_id":"free"},{"bike_id":"c7f07f31-d9c4-47d2-82d1-2b15b22fcced","system_id":"levelo_inurba_marseille","lat":43.289184,"lon":5.366408,"is_reserved":false,"is_disabled":false,"rental_uris":{"android":"levelo://app?vid=c7f07f31-d9c4-47d2-82d1-2b15b22fcced","ios":"levelo://app?vid=c7f07f31-d9c4-47d2-82d1-2b15b22fcced"},"vehicle_type_id":"4","last_reported":1689703741,"current_range_meters":16000,"station_id":"ce4bhap2rcd13ifvqek0","pricing_plan_id":"free"},{"bike_id":"ccedf69a-0038-4fb9-a5ae-a70c92845df4","system_id":"levelo_inurba_marseille","lat":43.289184,"lon":5.366408,"is_reserved":false,"is_disabled":false,"rental_uris":{"android":"levelo://app?vid=ccedf69a-0038-4fb9-a5ae-a70c92845df4","ios":"levelo://app?vid=ccedf69a-0038-4fb9-a5ae-a70c92845df4"},"vehicle_type_id":"4","last_reported":1689703741,"current_range_meters":8800,"station_id":"ce4bhap2rcd13ifvqek0","pricing_plan_id":"free"},{"bike_id":"830963eb-d94e-4e1e-a67b-9e391603a42f","system_id":"levelo_inurba_marseille","lat":43.289184,"lon":5.366408,"is_reserved":false,"is_disabled":false,"rental_uris":{"android":"levelo://app?vid=830963eb-d94e-4e1e-a67b-9e391603a42f","ios":"levelo://app?vid=830963eb-d94e-4e1e-a67b-9e391603a42f"},"vehicle_type_id":"4","last_reported":1689703741,"current_range_meters":26000,"station_id":"ce4bhap2rcd13ifvqek0","pricing_plan_id":"free"},{"bike_id":"55c09699-7829-4946-af14-bc6afcb3db38","system_id":"levelo_inurba_marseille","lat":43.28935,"lon":5.36638,"is_reserved":false,"is_disabled":false,"rental_uris":{"android":"levelo://app?vid=55c09699-7829-4946-af14-bc6afcb3db38","ios":"levelo://app?vid=55c09699-7829-4946-af14-bc6afcb3db38"},"vehicle_type_id":"4","last_reported":1689703741,"current_range_meters":31200,"station_id":"ce4bhap2rcd13ifvqek0","pricing_plan_id":"free"},{"bike_id":"70bc1472-05bc-4855-82e7-fc27d4396648","system_id":"levelo_inurba_marseille","lat":43.289184,"lon":5.366408,"is_reserved":false,"is_disabled":false,"rental_uris":{"android":"levelo://app?vid=70bc1472-05bc-4855-82e7-fc27d4396648","ios":"levelo://app?vid=70bc1472-05bc-4855-82e7-fc27d4396648"},"vehicle_type_id":"4","last_reported":1689703741,"current_range_meters":18800,"station_id":"ce4bhap2rcd13ifvqek0","pricing_plan_id":"free"},{"bike_id":"312ecb83-8db2-49d9-b806-86ad1b415d3c","system_id":"levelo_inurba_marseille","lat":43.289184,"lon":5.366408,"is_reserved":false,"is_disabled":false,"rental_uris":{"android":"levelo://app?vid=312ecb83-8db2-49d9-b806-86ad1b415d3c","ios":"levelo://app?vid=312ecb83-8db2-49d9-b806-86ad1b415d3c"},"vehicle_type_id":"4","last_reported":1689703741,"current_range_meters":21600,"station_id":"ce4bhap2rcd13ifvqek0","pricing_plan_id":"free"},{"bike_id":"570babf1-c6ef-4a32-91d2-4cceaefe1610","system_id":"levelo_inurba_marseille","lat":43.289184,"lon":5.366408,"is_reserved":false,"is_disabled":false,"rental_uris":{"android":"levelo://app?vid=570babf1-c6ef-4a32-91d2-4cceaefe1610","ios":"levelo://app?vid=570babf1-c6ef-4a32-91d2-4cceaefe1610"},"vehicle_type_id":"4","last_reported":1689703741,"current_range_meters":14400,"station_id":"ce4bhap2rcd13ifvqek0","pricing_plan_id":"free"},{"bike_id":"92f65670-dd38-4361-be20-b42c95734cf1","system_id":"levelo_inurba_marseille","lat":43.289184,"lon":5.366408,"is_reserved":false,"is_disabled":false,"rental_uris":{"android":"levelo://app?vid=92f65670-dd38-4361-be20-b42c95734cf1","ios":"levelo://app?vid=92f65670-dd38-4361-be20-b42c95734cf1"},"vehicle_type_id":"4","last_reported":1689703741,"current_range_meters":17200,"station_id":"ce4bhap2rcd13ifvqek0","pricing_plan_id":"free"},{"bike_id":"79f9b779-3fbc-4337-8cbc-bd773ae8a992","system_id":"levelo_inurba_marseille","lat":43.289468,"lon":5.363719,"is_reserved":false,"is_disabled":false,"rental_uris":{"android":"levelo://app?vid=79f9b779-3fbc-4337-8cbc-bd773ae8a992","ios":"levelo://app?vid=79f9b779-3fbc-4337-8cbc-bd773ae8a992"},"vehicle_type_id":"4","last_reported":1689703741,"current_range_meters":9600,"station_id":"ce4bhc92rcd13ifvqetg","pricing_plan_id":"free"},{"bike_id":"8aabce08-d486-4569-95df-ad3cf10f4613","system_id":"levelo_inurba_marseille","lat":43.289184,"lon":5.366408,"is_reserved":false,"is_disabled":false,"rental_uris":{"android":"levelo://app?vid=8aabce08-d486-4569-95df-ad3cf10f4613","ios":"levelo://app?vid=8aabce08-d486-4569-95df-ad3cf10f4613"},"vehicle_type_id":"4","last_reported":1689703741,"current_range_meters":8000,"station_id":"ce4bhap2rcd13ifvqek0","pricing_plan_id":"free"},{"bike_id":"aecd2ae7-4813-4023-98a2-275063e17ecb","system_id":"levelo_inurba_marseille","lat":43.2893,"lon":5.36419,"is_reserved":false,"is_disabled":false,"rental_uris":{"android":"levelo://app?vid=aecd2ae7-4813-4023-98a2-275063e17ecb","ios":"levelo://app?vid=aecd2ae7-4813-4023-98a2-275063e17ecb"},"vehicle_type_id":"4","last_reported":1689703741,"current_range_meters":20800,"station_id":"ce4bhc92rcd13ifvqetg","pricing_plan_id":"free"},{"bike_id":"3c933dec-ff4d-4cc6-9252-759f9ceadb7d","system_id":"levelo_inurba_marseille","lat":43.292644,"lon":5.384257,"is_reserved":false,"is_disabled":false,"rental_uris":{"android":"levelo://app?vid=3c933dec-ff4d-4cc6-9252-759f9ceadb7d","ios":"levelo://app?vid=3c933dec-ff4d-4cc6-9252-759f9ceadb7d"},"vehicle_type_id":"4","last_reported":1689703741,"current_range_meters":7200,"station_id":"ce4bh692rcd13ifvqea0","pricing_plan_id":"free"},{"bike_id":"3b6d5df0-be0e-4d87-8618-905862fefd4c","system_id":"levelo_inurba_marseille","lat":43.292642,"lon":5.384254,"is_reserved":false,"is_disabled":false,"rental_uris":{"android":"levelo://app?vid=3b6d5df0-be0e-4d87-8618-905862fefd4c","ios":"levelo://app?vid=3b6d5df0-be0e-4d87-8618-905862fefd4c"},"vehicle_type_id":"4","last_reported":1689703741,"current_range_meters":15600,"station_id":"ce4bh692rcd13ifvqea0","pricing_plan_id":"free"},{"bike_id":"6452a0c7-6709-4f77-9730-83a205ea79ea","system_id":"levelo_inurba_marseille","lat":43.292642,"lon":5.384254,"is_reserved":false,"is_disabled":false,"rental_uris":{"android":"levelo://app?vid=6452a0c7-6709-4f77-9730-83a205ea79ea","ios":"levelo://app?vid=6452a0c7-6709-4f77-9730-83a205ea79ea"},"vehicle_type_id":"4","last_reported":1689703741,"current_range_meters":18400,"station_id":"ce4bh692rcd13ifvqea0","pricing_plan_id":"free"},{"bike_id":"b1b7c311-da79-4dc0-9c0b-ae46360bfc29","system_id":"levelo_inurba_marseille","lat":43.292644,"lon":5.384257,"is_reserved":false,"is_disabled":false,"rental_uris":{"android":"levelo://app?vid=b1b7c311-da79-4dc0-9c0b-ae46360bfc29","ios":"levelo://app?vid=b1b7c311-da79-4dc0-9c0b-ae46360bfc29"},"vehicle_type_id":"4","last_reported":1689703741,"current_range_meters":9200,"station_id":"ce4bh692rcd13ifvqea0","pricing_plan_id":"free"},{"bike_id":"7399bd71-7023-4c19-a480-9b732e0ce5bc","system_id":"levelo_inurba_marseille","lat":43.292642,"lon":5.384254,"is_reserved":false,"is_disabled":false,"rental_uris":{"android":"levelo://app?vid=7399bd71-7023-4c19-a480-9b732e0ce5bc","ios":"levelo://app?vid=7399bd71-7023-4c19-a480-9b732e0ce5bc"},"vehicle_type_id":"4","last_reported":1689703741,"current_range_meters":21600,"station_id":"ce4bh692rcd13ifvqea0","pricing_plan_id":"free"},{"bike_id":"6c9cb0d5-9568-4b1b-8705-90c4d105f01a","system_id":"levelo_inurba_marseille","lat":43.292644,"lon":5.384257,"is_reserved":false,"is_disabled":false,"rental_uris":{"android":"levelo://app?vid=6c9cb0d5-9568-4b1b-8705-90c4d105f01a","ios":"levelo://app?vid=6c9cb0d5-9568-4b1b-8705-90c4d105f01a"},"vehicle_type_id":"4","last_reported":1689703741,"current_range_meters":21600,"station_id":"ce4bh692rcd13ifvqea0","pricing_plan_id":"free"},{"bike_id":"ad4a6cbb-4749-497f-9207-a4ebbbe04a8a","system_id":"levelo_inurba_marseille","lat":43.292644,"lon":5.384257,"is_reserved":false,"is_disabled":false,"rental_uris":{"android":"levelo://app?vid=ad4a6cbb-4749-497f-9207-a4ebbbe04a8a","ios":"levelo://app?vid=ad4a6cbb-4749-497f-9207-a4ebbbe04a8a"},"vehicle_type_id":"4","last_reported":1689703741,"current_range_meters":18400,"station_id":"ce4bh692rcd13ifvqea0","pricing_plan_id":"free"},{"bike_id":"1b1b8c44-6b80-4044-9f6f-6b8237d6c13f","system_id":"levelo_inurba_marseille","lat":43.29014,"lon":5.35615,"is_reserved":false,"is_disabled":false,"rental_uris":{"android":"levelo://app?vid=1b1b8c44-6b80-4044-9f6f-6b8237d6c13f","ios":"levelo://app?vid=1b1b8c44-6b80-4044-9f6f-6b8237d6c13f"},"vehicle_type_id":"4","last_reported":1689703741,"current_range_meters":12000,"station_id":"ce4bhb92rcd13ifvqen0","pricing_plan_id":"free"},{"bike_id":"40a64735-aae0-40f4-951e-382c78d316e8","system_id":"levelo_inurba_marseille","lat":43.29011,"lon":5.35622,"is_reserved":false,"is_disabled":false,"rental_uris":{"android":"levelo://app?vid=40a64735-aae0-40f4-951e-382c78d316e8","ios":"levelo://app?vid=40a64735-aae0-40f4-951e-382c78d316e8"},"vehicle_type_id":"4","last_reported":1689703741,"current_range_meters":28400,"station_id":"ce4bhb92rcd13ifvqen0","pricing_plan_id":"free"},{"bike_id":"3d4137c3-794f-40b5-ae5c-f3dfade17361","system_id":"levelo_inurba_marseille","lat":43.29013,"lon":5.35614,"is_reserved":false,"is_disabled":false,"rental_uris":{"android":"levelo://app?vid=3d4137c3-794f-40b5-ae5c-f3dfade17361","ios":"levelo://app?vid=3d4137c3-794f-40b5-ae5c-f3dfade17361"},"vehicle_type_id":"4","last_reported":1689703741,"current_range_meters":26000,"station_id":"ce4bhb92rcd13ifvqen0","pricing_plan_id":"free"},{"bike_id":"c67a7c89-f9d8-41e1-b1dd-743bd3aae914","system_id":"levelo_inurba_marseille","lat":43.29009,"lon":5.35615,"is_reserved":false,"is_disabled":false,"rental_uris":{"android":"levelo://app?vid=c67a7c89-f9d8-41e1-b1dd-743bd3aae914","ios":"levelo://app?vid=c67a7c89-f9d8-41e1-b1dd-743bd3aae914"},"vehicle_type_id":"4","last_reported":1689703741,"current_range_meters":17600,"station_id":"ce4bhb92rcd13ifvqen0","pricing_plan_id":"free"},{"bike_id":"8c787075-d4f8-4b13-bc74-676770209b89","system_id":"levelo_inurba_marseille","lat":43.290048,"lon":5.356311,"is_reserved":false,"is_disabled":false,"rental_uris":{"android":"levelo://app?vid=8c787075-d4f8-4b13-bc74-676770209b89","ios":"levelo://app?vid=8c787075-d4f8-4b13-bc74-676770209b89"},"vehicle_type_id":"4","last_reported":1689703741,"current_range_meters":14400,"station_id":"ce4bhb92rcd13ifvqen0","pricing_plan_id":"free"},{"bike_id":"aede83fb-100e-4113-a3f1-ac8839c98e29","system_id":"levelo_inurba_marseille","lat":43.2901,"lon":5.3561,"is_reserved":false,"is_disabled":false,"rental_uris":{"android":"levelo://app?vid=aede83fb-100e-4113-a3f1-ac8839c98e29","ios":"levelo://app?vid=aede83fb-100e-4113-a3f1-ac8839c98e29"},"vehicle_type_id":"4","last_reported":1689703741,"current_range_meters":14800,"station_id":"ce4bhb92rcd13ifvqen0","pricing_plan_id":"free"},{"bike_id":"eff20063-3f8a-496d-9a16-48dd876f7b7d","system_id":"levelo_inurba_marseille","lat":43.29008,"lon":5.35614,"is_reserved":false,"is_disabled":false,"rental_uris":{"android":"levelo://app?vid=eff20063-3f8a-496d-9a16-48dd876f7b7d","ios":"levelo://app?vid=eff20063-3f8a-496d-9a16-48dd876f7b7d"},"vehicle_type_id":"4","last_reported":1689703741,"current_range_meters":14400,"station_id":"ce4bhb92rcd13ifvqen0","pricing_plan_id":"free"},{"bike_id":"fdccd532-1faf-458e-b655-42bff396534a","system_id":"levelo_inurba_marseille","lat":43.29008,"lon":5.35613,"is_reserved":false,"is_disabled":false,"rental_uris":{"android":"levelo://app?vid=fdccd532-1faf-458e-b655-42bff396534a","ios":"levelo://app?vid=fdccd532-1faf-458e-b655-42bff396534a"},"vehicle_type_id":"4","last_reported":1689703741,"current_range_meters":22400,"station_id":"ce4bhb92rcd13ifvqen0","pricing_plan_id":"free"},{"bike_id":"fe031bdc-0163-41e7-8ecb-78a4ab67bd31","system_id":"levelo_inurba_marseille","lat":43.29006,"lon":5.3562,"is_reserved":false,"is_disabled":false,"rental_uris":{"android":"levelo://app?vid=fe031bdc-0163-41e7-8ecb-78a4ab67bd31","ios":"levelo://app?vid=fe031bdc-0163-41e7-8ecb-78a4ab67bd31"},"vehicle_type_id":"4","last_reported":1689703741,"current_range_meters":25600,"station_id":"ce4bhb92rcd13ifvqen0","pricing_plan_id":"free"},{"bike_id":"dab5db35-3df4-4fce-8844-1c892186519b","system_id":"levelo_inurba_marseille","lat":43.29008,"lon":5.35612,"is_reserved":false,"is_disabled":false,"rental_uris":{"android":"levelo://app?vid=dab5db35-3df4-4fce-8844-1c892186519b","ios":"levelo://app?vid=dab5db35-3df4-4fce-8844-1c892186519b"},"vehicle_type_id":"4","last_reported":1689703741,"current_range_meters":4800,"station_id":"ce4bhb92rcd13ifvqen0","pricing_plan_id":"free"},{"bike_id":"c9f5967b-5f14-4367-9cd9-74bf36df351d","system_id":"levelo_inurba_marseille","lat":43.29007,"lon":5.35614,"is_reserved":false,"is_disabled":false,"rental_uris":{"android":"levelo://app?vid=c9f5967b-5f14-4367-9cd9-74bf36df351d","ios":"levelo://app?vid=c9f5967b-5f14-4367-9cd9-74bf36df351d"},"vehicle_type_id":"4","last_reported":1689703741,"current_range_meters":15600,"station_id":"ce4bhb92rcd13ifvqen0","pricing_plan_id":"free"},{"bike_id":"e22cdf6b-c601-4a13-99b1-82f9f308e063","system_id":"levelo_inurba_marseille","lat":43.29008,"lon":5.35606,"is_reserved":false,"is_disabled":false,"rental_uris":{"android":"levelo://app?vid=e22cdf6b-c601-4a13-99b1-82f9f308e063","ios":"levelo://app?vid=e22cdf6b-c601-4a13-99b1-82f9f308e063"},"vehicle_type_id":"4","last_reported":1689703741,"current_range_meters":18800,"station_id":"ce4bhb92rcd13ifvqen0","pricing_plan_id":"free"},{"bike_id":"bd012bd1-d24a-40c8-89a3-8323a67303b2","system_id":"levelo_inurba_marseille","lat":43.29007,"lon":5.35609,"is_reserved":false,"is_disabled":false,"rental_uris":{"android":"levelo://app?vid=bd012bd1-d24a-40c8-89a3-8323a67303b2","ios":"levelo://app?vid=bd012bd1-d24a-40c8-89a3-8323a67303b2"},"vehicle_type_id":"4","last_reported":1689703741,"current_range_meters":21200,"station_id":"ce4bhb92rcd13ifvqen0","pricing_plan_id":"free"},{"bike_id":"bddc8dcf-288b-40e4-83e7-373f2ab131fb","system_id":"levelo_inurba_marseille","lat":43.29007,"lon":5.35608,"is_reserved":false,"is_disabled":false,"rental_uris":{"android":"levelo://app?vid=bddc8dcf-288b-40e4-83e7-373f2ab131fb","ios":"levelo://app?vid=bddc8dcf-288b-40e4-83e7-373f2ab131fb"},"vehicle_type_id":"4","last_reported":1689703741,"current_range_meters":22800,"station_id":"ce4bhb92rcd13ifvqen0","pricing_plan_id":"free"},{"bike_id":"32836fe6-6bf4-4f5c-b28d-64f685738ff6","system_id":"levelo_inurba_marseille","lat":43.290104,"lon":5.356111,"is_reserved":false,"is_disabled":false,"rental_uris":{"android":"levelo://app?vid=32836fe6-6bf4-4f5c-b28d-64f685738ff6","ios":"levelo://app?vid=32836fe6-6bf4-4f5c-b28d-64f685738ff6"},"vehicle_type_id":"4","last_reported":1689703741,"current_range_meters":24800,"station_id":"ce4bhb92rcd13ifvqen0","pricing_plan_id":"free"},{"bike_id":"fac8e0d3-c723-4400-ad22-7ca39ed5ae10","system_id":"levelo_inurba_marseille","lat":43.29006,"lon":5.35611,"is_reserved":false,"is_disabled":false,"rental_uris":{"android":"levelo://app?vid=fac8e0d3-c723-4400-ad22-7ca39ed5ae10","ios":"levelo://app?vid=fac8e0d3-c723-4400-ad22-7ca39ed5ae10"},"vehicle_type_id":"4","last_reported":1689703741,"current_range_meters":10800,"station_id":"ce4bhb92rcd13ifvqen0","pricing_plan_id":"free"},{"bike_id":"12352bd2-ca3c-4458-9d47-53b61675337d","system_id":"levelo_inurba_marseille","lat":43.290103,"lon":5.356114,"is_reserved":false,"is_disabled":false,"rental_uris":{"android":"levelo://app?vid=12352bd2-ca3c-4458-9d47-53b61675337d","ios":"levelo://app?vid=12352bd2-ca3c-4458-9d47-53b61675337d"},"vehicle_type_id":"4","last_reported":1689703741,"current_range_meters":20400,"station_id":"ce4bhb92rcd13ifvqen0","pricing_plan_id":"free"},{"bike_id":"6a532f1d-79e6-4120-b0d5-9f6a02269f2c","system_id":"levelo_inurba_marseille","lat":43.29005,"lon":5.3561,"is_reserved":false,"is_disabled":false,"rental_uris":{"android":"levelo://app?vid=6a532f1d-79e6-4120-b0d5-9f6a02269f2c","ios":"levelo://app?vid=6a532f1d-79e6-4120-b0d5-9f6a02269f2c"},"vehicle_type_id":"4","last_reported":1689703741,"current_range_meters":18400,"station_id":"ce4bhb92rcd13ifvqen0","pricing_plan_id":"free"},{"bike_id":"454fffc0-73ae-4677-92c3-52dcd290297a","system_id":"levelo_inurba_marseille","lat":43.290103,"lon":5.356114,"is_reserved":false,"is_disabled":false,"rental_uris":{"android":"levelo://app?vid=454fffc0-73ae-4677-92c3-52dcd290297a","ios":"levelo://app?vid=454fffc0-73ae-4677-92c3-52dcd290297a"},"vehicle_type_id":"4","last_reported":1689703741,"current_range_meters":28400,"station_id":"ce4bhb92rcd13ifvqen0","pricing_plan_id":"free"},{"bike_id":"3caa5310-362b-4ad0-8e3a-0a490786f0db","system_id":"levelo_inurba_marseille","lat":43.29002,"lon":5.35617,"is_reserved":false,"is_disabled":false,"rental_uris":{"android":"levelo://app?vid=3caa5310-362b-4ad0-8e3a-0a490786f0db","ios":"levelo://app?vid=3caa5310-362b-4ad0-8e3a-0a490786f0db"},"vehicle_type_id":"4","last_reported":1689703741,"current_range_meters":24800,"station_id":"ce4bhb92rcd13ifvqen0","pricing_plan_id":"free"},{"bike_id":"8c245575-7ce2-48a5-a0e9-76eb5ec7a5c8","system_id":"levelo_inurba_marseille","lat":43.290104,"lon":5.356111,"is_reserved":false,"is_disabled":false,"rental_uris":{"android":"levelo://app?vid=8c245575-7ce2-48a5-a0e9-76eb5ec7a5c8","ios":"levelo://app?vid=8c245575-7ce2-48a5-a0e9-76eb5ec7a5c8"},"vehicle_type_id":"4","last_reported":1689703741,"current_range_meters":31200,"station_id":"ce4bhb92rcd13ifvqen0","pricing_plan_id":"free"},{"bike_id":"ad38977f-e5d0-447d-a4d6-7a1bc028dfa8","system_id":"levelo_inurba_marseille","lat":43.290995,"lon":5.381361,"is_reserved":false,"is_disabled":false,"rental_uris":{"android":"levelo://app?vid=ad38977f-e5d0-447d-a4d6-7a1bc028dfa8","ios":"levelo://app?vid=ad38977f-e5d0-447d-a4d6-7a1bc028dfa8"},"vehicle_type_id":"4","last_reported":1689703741,"current_range_meters":10400,"station_id":"ce4bh512rcd13ifvqe2g","pricing_plan_id":"free"},{"bike_id":"33ff712e-6eaa-4f2b-b9cf-41fd7d15ff17","system_id":"levelo_inurba_marseille","lat":43.29001,"lon":5.35608,"is_reserved":false,"is_disabled":false,"rental_uris":{"android":"levelo://app?vid=33ff712e-6eaa-4f2b-b9cf-41fd7d15ff17","ios":"levelo://app?vid=33ff712e-6eaa-4f2b-b9cf-41fd7d15ff17"},"vehicle_type_id":"4","last_reported":1689703741,"current_range_meters":31200,"station_id":"ce4bhb92rcd13ifvqen0","pricing_plan_id":"free"},{"bike_id":"4d649fd8-d703-4976-b8c3-77a949a29dd9","system_id":"levelo_inurba_marseille","lat":43.310785,"lon":5.424305,"is_reserved":false,"is_disabled":false,"rental_uris":{"android":"levelo://app?vid=4d649fd8-d703-4976-b8c3-77a949a29dd9","ios":"levelo://app?vid=4d649fd8-d703-4976-b8c3-77a949a29dd9"},"vehicle_type_id":"4","last_reported":1689703741,"current_range_meters":24000,"station_id":"ce4bhp92rcd13ifvqhag","pricing_plan_id":"free"},{"bike_id":"b1c1371a-8eaa-40ab-b7c9-1ff92e94021e","system_id":"levelo_inurba_marseille","lat":43.295169,"lon":5.390426,"is_reserved":false,"is_disabled":false,"rental_uris":{"android":"levelo://app?vid=b1c1371a-8eaa-40ab-b7c9-1ff92e94021e","ios":"levelo://app?vid=b1c1371a-8eaa-40ab-b7c9-1ff92e94021e"},"vehicle_type_id":"4","last_reported":1689703741,"current_range_meters":26000,"station_id":"ce4bh3p2rcd13ifvqdp0","pricing_plan_id":"free"},{"bike_id":"df614d1d-ec41-4ffc-9973-6d2c60df1c43","system_id":"levelo_inurba_marseille","lat":43.295169,"lon":5.390426,"is_reserved":false,"is_disabled":false,"rental_uris":{"android":"levelo://app?vid=df614d1d-ec41-4ffc-9973-6d2c60df1c43","ios":"levelo://app?vid=df614d1d-ec41-4ffc-9973-6d2c60df1c43"},"vehicle_type_id":"4","last_reported":1689703741,"current_range_meters":0,"station_id":"ce4bh3p2rcd13ifvqdp0","pricing_plan_id":"free"},{"bike_id":"f059f759-d306-4169-a328-72fcde3eae61","system_id":"levelo_inurba_marseille","lat":43.28915,"lon":5.35796,"is_reserved":false,"is_disabled":false,"rental_uris":{"android":"levelo://app?vid=f059f759-d306-4169-a328-72fcde3eae61","ios":"levelo://app?vid=f059f759-d306-4169-a328-72fcde3eae61"},"vehicle_type_id":"4","last_reported":1689703741,"current_range_meters":18400,"station_id":"","pricing_plan_id":"free"},{"bike_id":"e61f3db7-6b54-461f-941a-fcd0168ad8b3","system_id":"levelo_inurba_marseille","lat":43.28861,"lon":5.35847,"is_reserved":false,"is_disabled":false,"rental_uris":{"android":"levelo://app?vid=e61f3db7-6b54-461f-941a-fcd0168ad8b3","ios":"levelo://app?vid=e61f3db7-6b54-461f-941a-fcd0168ad8b3"},"vehicle_type_id":"4","last_reported":1689703741,"current_range_meters":31200,"station_id":"ce4bhb12rcd13ifvqem0","pricing_plan_id":"free"},{"bike_id":"f0b1ecd4-321d-4e2d-a08d-61aea190f7f1","system_id":"levelo_inurba_marseille","lat":43.28857,"lon":5.35846,"is_reserved":false,"is_disabled":false,"rental_uris":{"android":"levelo://app?vid=f0b1ecd4-321d-4e2d-a08d-61aea190f7f1","ios":"levelo://app?vid=f0b1ecd4-321d-4e2d-a08d-61aea190f7f1"},"vehicle_type_id":"4","last_reported":1689703741,"current_range_meters":27200,"station_id":"ce4bhb12rcd13ifvqem0","pricing_plan_id":"free"},{"bike_id":"4cfc67d5-951d-46c2-b801-df1be1695687","system_id":"levelo_inurba_marseille","lat":43.28856,"lon":5.358371,"is_reserved":false,"is_disabled":false,"rental_uris":{"android":"levelo://app?vid=4cfc67d5-951d-46c2-b801-df1be1695687","ios":"levelo://app?vid=4cfc67d5-951d-46c2-b801-df1be1695687"},"vehicle_type_id":"4","last_reported":1689703741,"current_range_meters":28400,"station_id":"ce4bhb12rcd13ifvqem0","pricing_plan_id":"free"},{"bike_id":"c0562328-aca7-429b-8ddf-3bdb1b1c3d7b","system_id":"levelo_inurba_marseille","lat":43.28856,"lon":5.358371,"is_reserved":false,"is_disabled":false,"rental_uris":{"android":"levelo://app?vid=c0562328-aca7-429b-8ddf-3bdb1b1c3d7b","ios":"levelo://app?vid=c0562328-aca7-429b-8ddf-3bdb1b1c3d7b"},"vehicle_type_id":"4","last_reported":1689703741,"current_range_meters":31200,"station_id":"ce4bhb12rcd13ifvqem0","pricing_plan_id":"free"},{"bike_id":"d66154f8-05f7-42f8-90f1-42bf6f452fc9","system_id":"levelo_inurba_marseille","lat":43.28856,"lon":5.358371,"is_reserved":false,"is_disabled":false,"rental_uris":{"android":"levelo://app?vid=d66154f8-05f7-42f8-90f1-42bf6f452fc9","ios":"levelo://app?vid=d66154f8-05f7-42f8-90f1-42bf6f452fc9"},"vehicle_type_id":"4","last_reported":1689703741,"current_range_meters":31200,"station_id":"ce4bhb12rcd13ifvqem0","pricing_plan_id":"free"},{"bike_id":"65d8432f-c4c6-41cc-8291-eeb784981208","system_id":"levelo_inurba_marseille","lat":43.28856,"lon":5.358371,"is_reserved":false,"is_disabled":false,"rental_uris":{"android":"levelo://app?vid=65d8432f-c4c6-41cc-8291-eeb784981208","ios":"levelo://app?vid=65d8432f-c4c6-41cc-8291-eeb784981208"},"vehicle_type_id":"4","last_reported":1689703741,"current_range_meters":31200,"station_id":"ce4bhb12rcd13ifvqem0","pricing_plan_id":"free"},{"bike_id":"7055b00a-c93c-4ad2-bc25-4eb866305fe5","system_id":"levelo_inurba_marseille","lat":43.28856,"lon":5.358371,"is_reserved":false,"is_disabled":false,"rental_uris":{"android":"levelo://app?vid=7055b00a-c93c-4ad2-bc25-4eb866305fe5","ios":"levelo://app?vid=7055b00a-c93c-4ad2-bc25-4eb866305fe5"},"vehicle_type_id":"4","last_reported":1689703741,"current_range_meters":23600,"station_id":"ce4bhb12rcd13ifvqem0","pricing_plan_id":"free"},{"bike_id":"52f31365-0006-4202-a433-c3611c1f0466","system_id":"levelo_inurba_marseille","lat":43.309371,"lon":5.401449,"is_reserved":false,"is_disabled":false,"rental_uris":{"android":"levelo://app?vid=52f31365-0006-4202-a433-c3611c1f0466","ios":"levelo://app?vid=52f31365-0006-4202-a433-c3611c1f0466"},"vehicle_type_id":"4","last_reported":1689703741,"current_range_meters":16000,"station_id":"ce4bgvp2rcd13ifvqct0","pricing_plan_id":"free"},{"bike_id":"f2f2dfc1-8d07-4a68-8b6c-9143e9291023","system_id":"levelo_inurba_marseille","lat":43.309371,"lon":5.401449,"is_reserved":false,"is_disabled":false,"rental_uris":{"android":"levelo://app?vid=f2f2dfc1-8d07-4a68-8b6c-9143e9291023","ios":"levelo://app?vid=f2f2dfc1-8d07-4a68-8b6c-9143e9291023"},"vehicle_type_id":"4","last_reported":1689703741,"current_range_meters":12800,"station_id":"ce4bgvp2rcd13ifvqct0","pricing_plan_id":"free"},{"bike_id":"25426ecd-8997-49d6-abca-70d7be09dfa4","system_id":"levelo_inurba_marseille","lat":43.337444,"lon":5.374475,"is_reserved":false,"is_disabled":false,"rental_uris":{"android":"levelo://app?vid=25426ecd-8997-49d6-abca-70d7be09dfa4","ios":"levelo://app?vid=25426ecd-8997-49d6-abca-70d7be09dfa4"},"vehicle_type_id":"4","last_reported":1689703741,"current_range_meters":14800,"station_id":"","pricing_plan_id":"free"},{"bike_id":"5b115e17-de40-48a9-953d-a213ad540cb3","system_id":"levelo_inurba_marseille","lat":43.337444,"lon":5.374475,"is_reserved":false,"is_disabled":false,"rental_uris":{"android":"levelo://app?vid=5b115e17-de40-48a9-953d-a213ad540cb3","ios":"levelo://app?vid=5b115e17-de40-48a9-953d-a213ad540cb3"},"vehicle_type_id":"4","last_reported":1689703741,"current_range_meters":800,"station_id":"","pricing_plan_id":"free"},{"bike_id":"c4ac535e-f867-43be-aa4b-68ee3a6ba010","system_id":"levelo_inurba_marseille","lat":43.337444,"lon":5.374475,"is_reserved":false,"is_disabled":false,"rental_uris":{"android":"levelo://app?vid=c4ac535e-f867-43be-aa4b-68ee3a6ba010","ios":"levelo://app?vid=c4ac535e-f867-43be-aa4b-68ee3a6ba010"},"vehicle_type_id":"4","last_reported":1689703741,"current_range_meters":0,"station_id":"","pricing_plan_id":"free"},{"bike_id":"5818d1d1-cd9a-42e2-aca0-66a354d88d18","system_id":"levelo_inurba_marseille","lat":43.337444,"lon":5.374475,"is_reserved":false,"is_disabled":false,"rental_uris":{"android":"levelo://app?vid=5818d1d1-cd9a-42e2-aca0-66a354d88d18","ios":"levelo://app?vid=5818d1d1-cd9a-42e2-aca0-66a354d88d18"},"vehicle_type_id":"4","last_reported":1689703741,"current_range_meters":23200,"station_id":"","pricing_plan_id":"free"},{"bike_id":"8435ff39-bd9f-48e8-9b65-37225d6a67d9","system_id":"levelo_inurba_marseille","lat":43.337444,"lon":5.374475,"is_reserved":false,"is_disabled":false,"rental_uris":{"android":"levelo://app?vid=8435ff39-bd9f-48e8-9b65-37225d6a67d9","ios":"levelo://app?vid=8435ff39-bd9f-48e8-9b65-37225d6a67d9"},"vehicle_type_id":"4","last_reported":1689703741,"current_range_meters":0,"station_id":"","pricing_plan_id":"free"},{"bike_id":"829f5559-e032-455d-9fec-638bdf7650ed","system_id":"levelo_inurba_marseille","lat":43.337444,"lon":5.374475,"is_reserved":false,"is_disabled":false,"rental_uris":{"android":"levelo://app?vid=829f5559-e032-455d-9fec-638bdf7650ed","ios":"levelo://app?vid=829f5559-e032-455d-9fec-638bdf7650ed"},"vehicle_type_id":"4","last_reported":1689703741,"current_range_meters":1600,"station_id":"","pricing_plan_id":"free"},{"bike_id":"e410a0bc-231f-497c-83d1-478c8f4562ba","system_id":"levelo_inurba_marseille","lat":43.337444,"lon":5.374475,"is_reserved":false,"is_disabled":false,"rental_uris":{"android":"levelo://app?vid=e410a0bc-231f-497c-83d1-478c8f4562ba","ios":"levelo://app?vid=e410a0bc-231f-497c-83d1-478c8f4562ba"},"vehicle_type_id":"4","last_reported":1689703741,"current_range_meters":13200,"station_id":"","pricing_plan_id":"free"},{"bike_id":"f8b4eba5-5701-4714-9c62-2009d80b2a9b","system_id":"levelo_inurba_marseille","lat":43.337444,"lon":5.374475,"is_reserved":false,"is_disabled":false,"rental_uris":{"android":"levelo://app?vid=f8b4eba5-5701-4714-9c62-2009d80b2a9b","ios":"levelo://app?vid=f8b4eba5-5701-4714-9c62-2009d80b2a9b"},"vehicle_type_id":"4","last_reported":1689703741,"current_range_meters":9200,"station_id":"","pricing_plan_id":"free"},{"bike_id":"e32228af-bf89-4918-9e06-96658a707ebf","system_id":"levelo_inurba_marseille","lat":43.337444,"lon":5.374475,"is_reserved":false,"is_disabled":false,"rental_uris":{"android":"levelo://app?vid=e32228af-bf89-4918-9e06-96658a707ebf","ios":"levelo://app?vid=e32228af-bf89-4918-9e06-96658a707ebf"},"vehicle_type_id":"4","last_reported":1689703741,"current_range_meters":24000,"station_id":"","pricing_plan_id":"free"},{"bike_id":"ce150f07-d1d0-4923-acef-db70f744cfe5","system_id":"levelo_inurba_marseille","lat":43.337444,"lon":5.374475,"is_reserved":false,"is_disabled":false,"rental_uris":{"android":"levelo://app?vid=ce150f07-d1d0-4923-acef-db70f744cfe5","ios":"levelo://app?vid=ce150f07-d1d0-4923-acef-db70f744cfe5"},"vehicle_type_id":"4","last_reported":1689703741,"current_range_meters":7600,"station_id":"","pricing_plan_id":"free"},{"bike_id":"28148bbd-d980-4bc0-8323-0ae33ac4ff61","system_id":"levelo_inurba_marseille","lat":43.337444,"lon":5.374475,"is_reserved":false,"is_disabled":false,"rental_uris":{"android":"levelo://app?vid=28148bbd-d980-4bc0-8323-0ae33ac4ff61","ios":"levelo://app?vid=28148bbd-d980-4bc0-8323-0ae33ac4ff61"},"vehicle_type_id":"4","last_reported":1689703741,"current_range_meters":5600,"station_id":"","pricing_plan_id":"free"},{"bike_id":"7535ad1c-b163-4ecd-ade5-027db04ed451","system_id":"levelo_inurba_marseille","lat":43.309371,"lon":5.401449,"is_reserved":false,"is_disabled":false,"rental_uris":{"android":"levelo://app?vid=7535ad1c-b163-4ecd-ade5-027db04ed451","ios":"levelo://app?vid=7535ad1c-b163-4ecd-ade5-027db04ed451"},"vehicle_type_id":"4","last_reported":1689703741,"current_range_meters":24400,"station_id":"ce4bgvp2rcd13ifvqct0","pricing_plan_id":"free"},{"bike_id":"fdeb2a24-b81c-4f88-b1c1-a0142bb8cb60","system_id":"levelo_inurba_marseille","lat":43.30642,"lon":5.401031,"is_reserved":false,"is_disabled":false,"rental_uris":{"android":"levelo://app?vid=fdeb2a24-b81c-4f88-b1c1-a0142bb8cb60","ios":"levelo://app?vid=fdeb2a24-b81c-4f88-b1c1-a0142bb8cb60"},"vehicle_type_id":"4","last_reported":1689703741,"current_range_meters":27600,"station_id":"ce4bh112rcd13ifvqda0","pricing_plan_id":"free"},{"bike_id":"ff41e867-5981-4713-88ae-01b7488e5c71","system_id":"levelo_inurba_marseille","lat":43.309371,"lon":5.401449,"is_reserved":false,"is_disabled":false,"rental_uris":{"android":"levelo://app?vid=ff41e867-5981-4713-88ae-01b7488e5c71","ios":"levelo://app?vid=ff41e867-5981-4713-88ae-01b7488e5c71"},"vehicle_type_id":"4","last_reported":1689703741,"current_range_meters":2800,"station_id":"ce4bgvp2rcd13ifvqct0","pricing_plan_id":"free"},{"bike_id":"49d0e46a-08ca-4467-804d-669d0788120b","system_id":"levelo_inurba_marseille","lat":43.30642,"lon":5.401031,"is_reserved":false,"is_disabled":false,"rental_uris":{"android":"levelo://app?vid=49d0e46a-08ca-4467-804d-669d0788120b","ios":"levelo://app?vid=49d0e46a-08ca-4467-804d-669d0788120b"},"vehicle_type_id":"4","last_reported":1689703741,"current_range_meters":14800,"station_id":"ce4bh112rcd13ifvqda0","pricing_plan_id":"free"},{"bike_id":"ec868f8b-3b73-445c-9d12-e6db2ccb7447","system_id":"levelo_inurba_marseille","lat":43.3376,"lon":5.37451,"is_reserved":false,"is_disabled":false,"rental_uris":{"android":"levelo://app?vid=ec868f8b-3b73-445c-9d12-e6db2ccb7447","ios":"levelo://app?vid=ec868f8b-3b73-445c-9d12-e6db2ccb7447"},"vehicle_type_id":"4","last_reported":1689703741,"current_range_meters":16800,"station_id":"","pricing_plan_id":"free"},{"bike_id":"551e2325-fbb0-4c18-973e-58e1343fc2a1","system_id":"levelo_inurba_marseille","lat":43.33762,"lon":5.37482,"is_reserved":false,"is_disabled":false,"rental_uris":{"android":"levelo://app?vid=551e2325-fbb0-4c18-973e-58e1343fc2a1","ios":"levelo://app?vid=551e2325-fbb0-4c18-973e-58e1343fc2a1"},"vehicle_type_id":"4","last_reported":1689703741,"current_range_meters":15600,"station_id":"","pricing_plan_id":"free"},{"bike_id":"260a4628-9c36-4b36-88f9-659193563ad7","system_id":"levelo_inurba_marseille","lat":43.30642,"lon":5.401031,"is_reserved":false,"is_disabled":false,"rental_uris":{"android":"levelo://app?vid=260a4628-9c36-4b36-88f9-659193563ad7","ios":"levelo://app?vid=260a4628-9c36-4b36-88f9-659193563ad7"},"vehicle_type_id":"4","last_reported":1689703741,"current_range_meters":19600,"station_id":"ce4bh112rcd13ifvqda0","pricing_plan_id":"free"},{"bike_id":"80133852-3be8-452e-95bb-bd8977db88ee","system_id":"levelo_inurba_marseille","lat":43.301117,"lon":5.398795,"is_reserved":false,"is_disabled":false,"rental_uris":{"android":"levelo://app?vid=80133852-3be8-452e-95bb-bd8977db88ee","ios":"levelo://app?vid=80133852-3be8-452e-95bb-bd8977db88ee"},"vehicle_type_id":"4","last_reported":1689703741,"current_range_meters":4400,"station_id":"ce4bh0h2rcd13ifvqd40","pricing_plan_id":"free"},{"bike_id":"6ca7f4e4-5866-4407-9765-ff06f085168b","system_id":"levelo_inurba_marseille","lat":43.337781,"lon":5.374134,"is_reserved":false,"is_disabled":false,"rental_uris":{"android":"levelo://app?vid=6ca7f4e4-5866-4407-9765-ff06f085168b","ios":"levelo://app?vid=6ca7f4e4-5866-4407-9765-ff06f085168b"},"vehicle_type_id":"4","last_reported":1689703741,"current_range_meters":28000,"station_id":"","pricing_plan_id":"free"},{"bike_id":"fc8501fb-4747-47fa-a124-f3fd2207c5fa","system_id":"levelo_inurba_marseille","lat":43.30642,"lon":5.401031,"is_reserved":false,"is_disabled":false,"rental_uris":{"android":"levelo://app?vid=fc8501fb-4747-47fa-a124-f3fd2207c5fa","ios":"levelo://app?vid=fc8501fb-4747-47fa-a124-f3fd2207c5fa"},"vehicle_type_id":"4","last_reported":1689703741,"current_range_meters":8800,"station_id":"ce4bh112rcd13ifvqda0","pricing_plan_id":"free"},{"bike_id":"53f5a8e7-0f53-45b8-945c-f55bce283327","system_id":"levelo_inurba_marseille","lat":43.30642,"lon":5.401031,"is_reserved":false,"is_disabled":false,"rental_uris":{"android":"levelo://app?vid=53f5a8e7-0f53-45b8-945c-f55bce283327","ios":"levelo://app?vid=53f5a8e7-0f53-45b8-945c-f55bce283327"},"vehicle_type_id":"4","last_reported":1689703741,"current_range_meters":30400,"station_id":"ce4bh112rcd13ifvqda0","pricing_plan_id":"free"},{"bike_id":"cc8918cc-34d7-4304-9649-24dda48d14bc","system_id":"levelo_inurba_marseille","lat":43.301117,"lon":5.398795,"is_reserved":false,"is_disabled":false,"rental_uris":{"android":"levelo://app?vid=cc8918cc-34d7-4304-9649-24dda48d14bc","ios":"levelo://app?vid=cc8918cc-34d7-4304-9649-24dda48d14bc"},"vehicle_type_id":"4","last_reported":1689703741,"current_range_meters":22000,"station_id":"ce4bh0h2rcd13ifvqd40","pricing_plan_id":"free"},{"bike_id":"4a640c97-3cbf-47f7-bdb2-0bd25984945b","system_id":"levelo_inurba_marseille","lat":43.301117,"lon":5.398795,"is_reserved":false,"is_disabled":false,"rental_uris":{"android":"levelo://app?vid=4a640c97-3cbf-47f7-bdb2-0bd25984945b","ios":"levelo://app?vid=4a640c97-3cbf-47f7-bdb2-0bd25984945b"},"vehicle_type_id":"4","last_reported":1689703741,"current_range_meters":24000,"station_id":"ce4bh0h2rcd13ifvqd40","pricing_plan_id":"free"},{"bike_id":"58664647-65ab-47d9-ad2d-9954400f792e","system_id":"levelo_inurba_marseille","lat":43.301117,"lon":5.398795,"is_reserved":false,"is_disabled":false,"rental_uris":{"android":"levelo://app?vid=58664647-65ab-47d9-ad2d-9954400f792e","ios":"levelo://app?vid=58664647-65ab-47d9-ad2d-9954400f792e"},"vehicle_type_id":"4","last_reported":1689703741,"current_range_meters":22400,"station_id":"ce4bh0h2rcd13ifvqd40","pricing_plan_id":"free"},{"bike_id":"c1c70bf9-c085-4350-8e0a-b275bc497d60","system_id":"levelo_inurba_marseille","lat":43.286961,"lon":5.373785,"is_reserved":false,"is_disabled":false,"rental_uris":{"android":"levelo://app?vid=c1c70bf9-c085-4350-8e0a-b275bc497d60","ios":"levelo://app?vid=c1c70bf9-c085-4350-8e0a-b275bc497d60"},"vehicle_type_id":"4","last_reported":1689703741,"current_range_meters":31600,"station_id":"ce4bh3p2rcd13ifvqdq0","pricing_plan_id":"free"},{"bike_id":"3e0c01ff-e634-4132-a770-d67b0101b11a","system_id":"levelo_inurba_marseille","lat":43.286961,"lon":5.373785,"is_reserved":false,"is_disabled":false,"rental_uris":{"android":"levelo://app?vid=3e0c01ff-e634-4132-a770-d67b0101b11a","ios":"levelo://app?vid=3e0c01ff-e634-4132-a770-d67b0101b11a"},"vehicle_type_id":"4","last_reported":1689703741,"current_range_meters":18800,"station_id":"ce4bh3p2rcd13ifvqdq0","pricing_plan_id":"free"},{"bike_id":"169ca774-a87f-45e3-879e-e13ccf83503b","system_id":"levelo_inurba_marseille","lat":43.298681,"lon":5.397225,"is_reserved":false,"is_disabled":false,"rental_uris":{"android":"levelo://app?vid=169ca774-a87f-45e3-879e-e13ccf83503b","ios":"levelo://app?vid=169ca774-a87f-45e3-879e-e13ccf83503b"},"vehicle_type_id":"4","last_reported":1689703741,"current_range_meters":19200,"station_id":"ce4bh0h2rcd13ifvqd50","pricing_plan_id":"free"},{"bike_id":"673a240c-af4a-4f9f-9c4e-20cbc726bd25","system_id":"levelo_inurba_marseille","lat":43.286961,"lon":5.373785,"is_reserved":false,"is_disabled":false,"rental_uris":{"android":"levelo://app?vid=673a240c-af4a-4f9f-9c4e-20cbc726bd25","ios":"levelo://app?vid=673a240c-af4a-4f9f-9c4e-20cbc726bd25"},"vehicle_type_id":"4","last_reported":1689703741,"current_range_meters":13200,"station_id":"ce4bh3p2rcd13ifvqdq0","pricing_plan_id":"free"},{"bike_id":"9ae3787b-c734-46c0-8393-9351fc1aeb18","system_id":"levelo_inurba_marseille","lat":43.298681,"lon":5.397225,"is_reserved":false,"is_disabled":false,"rental_uris":{"android":"levelo://app?vid=9ae3787b-c734-46c0-8393-9351fc1aeb18","ios":"levelo://app?vid=9ae3787b-c734-46c0-8393-9351fc1aeb18"},"vehicle_type_id":"4","last_reported":1689703741,"current_range_meters":24400,"station_id":"ce4bh0h2rcd13ifvqd50","pricing_plan_id":"free"},{"bike_id":"80897f50-9c1f-408e-9d94-9007054f7ad4","system_id":"levelo_inurba_marseille","lat":43.28659,"lon":5.36356,"is_reserved":false,"is_disabled":false,"rental_uris":{"android":"levelo://app?vid=80897f50-9c1f-408e-9d94-9007054f7ad4","ios":"levelo://app?vid=80897f50-9c1f-408e-9d94-9007054f7ad4"},"vehicle_type_id":"4","last_reported":1689703741,"current_range_meters":29600,"station_id":"ce4bhah2rcd13ifvqej0","pricing_plan_id":"free"},{"bike_id":"4df0ff3d-40c8-4413-92c9-45d01c43b9ff","system_id":"levelo_inurba_marseille","lat":43.286591,"lon":5.363346,"is_reserved":false,"is_disabled":false,"rental_uris":{"android":"levelo://app?vid=4df0ff3d-40c8-4413-92c9-45d01c43b9ff","ios":"levelo://app?vid=4df0ff3d-40c8-4413-92c9-45d01c43b9ff"},"vehicle_type_id":"4","last_reported":1689703741,"current_range_meters":12400,"station_id":"ce4bhah2rcd13ifvqej0","pricing_plan_id":"free"},{"bike_id":"63b7f6e2-44cf-4526-b43c-2729104c02c2","system_id":"levelo_inurba_marseille","lat":43.29867,"lon":5.39745,"is_reserved":false,"is_disabled":false,"rental_uris":{"android":"levelo://app?vid=63b7f6e2-44cf-4526-b43c-2729104c02c2","ios":"levelo://app?vid=63b7f6e2-44cf-4526-b43c-2729104c02c2"},"vehicle_type_id":"4","last_reported":1689703741,"current_range_meters":28400,"station_id":"ce4bh0h2rcd13ifvqd50","pricing_plan_id":"free"},{"bike_id":"9e7d22cb-64c8-40c2-9773-9afed842c414","system_id":"levelo_inurba_marseille","lat":43.29532,"lon":5.39412,"is_reserved":false,"is_disabled":false,"rental_uris":{"android":"levelo://app?vid=9e7d22cb-64c8-40c2-9773-9afed842c414","ios":"levelo://app?vid=9e7d22cb-64c8-40c2-9773-9afed842c414"},"vehicle_type_id":"4","last_reported":1689703741,"current_range_meters":28400,"station_id":"ce4bh292rcd13ifvqdf0","pricing_plan_id":"free"},{"bike_id":"cf97abf8-1177-4407-b4ef-92098e630374","system_id":"levelo_inurba_marseille","lat":43.287184,"lon":5.37937,"is_reserved":false,"is_disabled":false,"rental_uris":{"android":"levelo://app?vid=cf97abf8-1177-4407-b4ef-92098e630374","ios":"levelo://app?vid=cf97abf8-1177-4407-b4ef-92098e630374"},"vehicle_type_id":"4","last_reported":1689703741,"current_range_meters":0,"station_id":"ce4bh9p2rcd13ifvqec0","pricing_plan_id":"free"},{"bike_id":"c469ed06-5190-4652-8001-95f19aaff74a","system_id":"levelo_inurba_marseille","lat":43.29528,"lon":5.39419,"is_reserved":false,"is_disabled":false,"rental_uris":{"android":"levelo://app?vid=c469ed06-5190-4652-8001-95f19aaff74a","ios":"levelo://app?vid=c469ed06-5190-4652-8001-95f19aaff74a"},"vehicle_type_id":"4","last_reported":1689703741,"current_range_meters":20800,"station_id":"ce4bh292rcd13ifvqdf0","pricing_plan_id":"free"},{"bike_id":"bb3f4d58-63f7-4aa0-a2b8-14cfd6ba5a10","system_id":"levelo_inurba_marseille","lat":43.29026,"lon":5.38625,"is_reserved":false,"is_disabled":false,"rental_uris":{"android":"levelo://app?vid=bb3f4d58-63f7-4aa0-a2b8-14cfd6ba5a10","ios":"levelo://app?vid=bb3f4d58-63f7-4aa0-a2b8-14cfd6ba5a10"},"vehicle_type_id":"4","last_reported":1689703741,"current_range_meters":12400,"station_id":"ce4bh4p2rcd13ifvqe0g","pricing_plan_id":"free"},{"bike_id":"8f007c6e-9e41-4aba-8ffd-a63410ac80a3","system_id":"levelo_inurba_marseille","lat":43.302759,"lon":5.400793,"is_reserved":false,"is_disabled":false,"rental_uris":{"android":"levelo://app?vid=8f007c6e-9e41-4aba-8ffd-a63410ac80a3","ios":"levelo://app?vid=8f007c6e-9e41-4aba-8ffd-a63410ac80a3"},"vehicle_type_id":"4","last_reported":1689703741,"current_range_meters":4000,"station_id":"ce4bgvh2rcd13ifvqcs0","pricing_plan_id":"free"},{"bike_id":"ecdbb8dd-59f2-4b04-86fe-20d6502c269f","system_id":"levelo_inurba_marseille","lat":43.290336,"lon":5.386425,"is_reserved":false,"is_disabled":false,"rental_uris":{"android":"levelo://app?vid=ecdbb8dd-59f2-4b04-86fe-20d6502c269f","ios":"levelo://app?vid=ecdbb8dd-59f2-4b04-86fe-20d6502c269f"},"vehicle_type_id":"4","last_reported":1689703741,"current_range_meters":24000,"station_id":"ce4bh4p2rcd13ifvqe0g","pricing_plan_id":"free"},{"bike_id":"be47a47b-4f4a-44e2-823f-a00845e1f668","system_id":"levelo_inurba_marseille","lat":43.290336,"lon":5.386425,"is_reserved":false,"is_disabled":false,"rental_uris":{"android":"levelo://app?vid=be47a47b-4f4a-44e2-823f-a00845e1f668","ios":"levelo://app?vid=be47a47b-4f4a-44e2-823f-a00845e1f668"},"vehicle_type_id":"4","last_reported":1689703741,"current_range_meters":26800,"station_id":"ce4bh4p2rcd13ifvqe0g","pricing_plan_id":"free"},{"bike_id":"60bf949e-02f1-4a42-ad18-f06dda360199","system_id":"levelo_inurba_marseille","lat":43.31121,"lon":5.4034,"is_reserved":false,"is_disabled":false,"rental_uris":{"android":"levelo://app?vid=60bf949e-02f1-4a42-ad18-f06dda360199","ios":"levelo://app?vid=60bf949e-02f1-4a42-ad18-f06dda360199"},"vehicle_type_id":"4","last_reported":1689703741,"current_range_meters":26800,"station_id":"","pricing_plan_id":"free"},{"bike_id":"689919ee-1f1f-4308-a641-cfcf7978fffa","system_id":"levelo_inurba_marseille","lat":43.302759,"lon":5.400793,"is_reserved":false,"is_disabled":false,"rental_uris":{"android":"levelo://app?vid=689919ee-1f1f-4308-a641-cfcf7978fffa","ios":"levelo://app?vid=689919ee-1f1f-4308-a641-cfcf7978fffa"},"vehicle_type_id":"4","last_reported":1689703741,"current_range_meters":22000,"station_id":"ce4bgvh2rcd13ifvqcs0","pricing_plan_id":"free"},{"bike_id":"f1ff8960-de45-4b16-81ed-67e6110fd7fc","system_id":"levelo_inurba_marseille","lat":43.302759,"lon":5.400793,"is_reserved":false,"is_disabled":false,"rental_uris":{"android":"levelo://app?vid=f1ff8960-de45-4b16-81ed-67e6110fd7fc","ios":"levelo://app?vid=f1ff8960-de45-4b16-81ed-67e6110fd7fc"},"vehicle_type_id":"4","last_reported":1689703741,"current_range_meters":10400,"station_id":"ce4bgvh2rcd13ifvqcs0","pricing_plan_id":"free"},{"bike_id":"d9f18123-24b1-4f5c-8171-13edfc777137","system_id":"levelo_inurba_marseille","lat":43.302759,"lon":5.400793,"is_reserved":false,"is_disabled":false,"rental_uris":{"android":"levelo://app?vid=d9f18123-24b1-4f5c-8171-13edfc777137","ios":"levelo://app?vid=d9f18123-24b1-4f5c-8171-13edfc777137"},"vehicle_type_id":"4","last_reported":1689703741,"current_range_meters":10400,"station_id":"ce4bgvh2rcd13ifvqcs0","pricing_plan_id":"free"},{"bike_id":"5cbb6937-f9f8-46c9-9389-9487fbdebf9c","system_id":"levelo_inurba_marseille","lat":43.302759,"lon":5.400793,"is_reserved":false,"is_disabled":false,"rental_uris":{"android":"levelo://app?vid=5cbb6937-f9f8-46c9-9389-9487fbdebf9c","ios":"levelo://app?vid=5cbb6937-f9f8-46c9-9389-9487fbdebf9c"},"vehicle_type_id":"4","last_reported":1689703741,"current_range_meters":16800,"station_id":"ce4bgvh2rcd13ifvqcs0","pricing_plan_id":"free"},