{"last_updated":1739300769,"ttl":60,"version":"2.2","data":{"bikes":[{"bike_id":"5cda301b-bce8-41d3-abea-2e981f99524e","system_id":"levelo_inurba_marseille","lat":43.29867,"lon":5.36292,"is_reserved":false,"is_disabled":false,"rental_uris":{"android":"levelo://app?vid=5cda301b-bce8-41d3-abea-2e981f99524e","ios":"levelo://app?vid=5cda301b-bce8-41d3-abea-2e981f99524e"},"vehicle_type_id":"4","last_reported":1739300769,"current_range_meters":24400,"station_id":"ce4bgpp2rcd13ifvqc3g","pricing_plan_id":"cebpf4jnsgd1na2vs0mg"},{"bike_id":"24690963-879b-481e-9c9d-021e22b0aefc","system_id":"levelo_inurba_marseille","lat":43.29887,"lon":5.39774,"is_reserved":false,"is_disabled":false,"rental_uris":{"android":"levelo://app?vid=24690963-879b-481e-9c9d-021e22b0aefc","ios":"levelo://app?vid=24690963-879b-481e-9c9d-021e22b0aefc"},"vehicle_type_id":"4","last_reported":1739300769,"current_range_meters":8000,"station_id":"ce4bh0h2rcd13ifvqd50","pricing_plan_id":"cebpf4jnsgd1na2vs0mg"},{"bike_id":"af82c687-d595-4b0a-919c-198b47efbc0c","system_id":"levelo_inurba_marseille","lat":43.28614,"lon":5.351,"is_reserved":false,"is_disabled":false,"rental_uris":{"android":"levelo://app?vid=af82c687-d595-4b0a-919c-198b47efbc0c","ios":"levelo://app?vid=af82c687-d595-4b0a-919c-198b47efbc0c"},"vehicle_type_id":"4","last_reported":1739300769,"current_range_meters":23200,"station_id":"ce4bhch2rcd13ifvqeug","pricing_plan_id":"cebpf4jnsgd1na2vs0mg"},{"bike_id":"78dd9c3c-458e-42be-b4bf-1264d95e4b23","system_id":"levelo_inurba_marseille","lat":43.31069,"lon":5.38358,"is_reserved":false,"is_disabled":false,"rental_uris":{"android":"levelo://app?vid=78dd9c3c-458e-42be-b4bf-1264d95e4b23","ios":"levelo://app?vid=78dd9c3c-458e-42be-b4bf-1264d95e4b23"},"vehicle_type_id":"4","last_reported":1739300769,"current_range_meters":32000,"station_id":"ce4bgv92rcd13ifvqcr0","pricing_plan_id":"cebpf4jnsgd1na2vs0mg"},{"bike_id":"77fc8b4c-94e7-413f-ba24-49239e361f9a","system_id":"levelo_inurba_marseille","lat":43.28401,"lon":5.37517,"is_reserved":false,"is_disabled":false,"rental_uris":{"android":"levelo://app?vid=77fc8b4c-94e7-413f-ba24-49239e361f9a","ios":"levelo://app?vid=77fc8b4c-94e7-413f-ba24-49239e361f9a"},"vehicle_type_id":"4","last_reported":1739300769,"current_range_meters":29600,"station_id":"ce4bh412rcd13ifvqds0","pricing_plan_id":"cebpf4jnsgd1na2vs0mg"},{"bike_id":"66d18785-c7e3-431b-b36b-90f0b93c010c","system_id":"levelo_inurba_marseille","lat":43.28938,"lon":5.36637,"is_reserved":false,"is_disabled":false,"rental_uris":{"android":"levelo://app?vid=66d18785-c7e3-431b-b36b-90f0b93c010c","ios":"levelo://app?vid=66d18785-c7e3-431b-b36b-90f0b93c010c"},"vehicle_type_id":"4","last_reported":1739300769,"current_range_meters":38000,"station_id":"ce4bhap2rcd13ifvqek0","pricing_plan_id":"cebpf4jnsgd1na2vs0mg"},{"bike_id":"7662219c-9ef7-43ab-a72f-34becfbbe2fa","system_id":"levelo_inurba_marseille","lat":43.29976,"lon":5.37161,"is_reserved":false,"is_disabled":false,"rental_uris":{"android":"levelo://app?vid=7662219c-9ef7-43ab-a72f-34becfbbe2fa","ios":"levelo://app?vid=7662219c-9ef7-43ab-a72f-34becfbbe2fa"},"vehicle_type_id":"4","last_reported":1739300769,"current_range_meters":32400,"station_id":"ce4bgr92rcd13ifvqc7g","pricing_plan_id":"cebpf4jnsgd1na2vs0mg"},{"bike_id":"20ff866e-f247-480a-bcfa-812e984a844d","system_id":"levelo_inurba_marseille","lat":43.28727,"lon":5.36097,"is_reserved":false,"is_disabled":false,"rental_uris":{"android":"levelo://app?vid=20ff866e-f247-480a-bcfa-812e984a844d","ios":"levelo://app?vid=20ff866e-f247-480a-bcfa-812e984a844d"},"vehicle_type_id":"4","last_reported":1739300769,"current_range_meters":23200,"station_id":"cki0cbj6b192h4jlfktg","pricing_plan_id":"cebpf4jnsgd1na2vs0mg"},{"bike_id":"6ad12fed-a7c3-4ded-a0c5-213958e34b8e","system_id":"levelo_inurba_marseille","lat":43.32488,"lon":5.36558,"is_reserved":false,"is_disabled":false,"rental_uris":{"android":"levelo://app?vid=6ad12fed-a7c3-4ded-a0c5-213958e34b8e","ios":"levelo://app?vid=6ad12fed-a7c3-4ded-a0c5-213958e34b8e"},"vehicle_type_id":"4","last_reported":1739300769,"current_range_meters":38800,"station_id":"ce4bhs12rcd13ifvqhvg","pricing_plan_id":"cebpf4jnsgd1na2vs0mg"},{"bike_id":"15e34e7f-d9d2-42d1-a4f3-b8d04c42a957","system_id":"levelo_inurba_marseille","lat":43.27916,"lon":5.39591,"is_reserved":false,"is_disabled":false,"rental_uris":{"android":"levelo://app?vid=15e34e7f-d9d2-42d1-a4f3-b8d04c42a957","ios":"levelo://app?vid=15e34e7f-d9d2-42d1-a4f3-b8d04c42a957"},"vehicle_type_id":"4","last_reported":1739300769,"current_range_meters":37600,"station_id":"ce4bhf92rcd13ifvqf40","pricing_plan_id":"cebpf4jnsgd1na2vs0mg"},{"bike_id":"070ded19-db45-4133-9e69-a50aacceab14","system_id":"levelo_inurba_marseille","lat":43.268,"lon":5.40247,"is_reserved":false,"is_disabled":false,"rental_uris":{"android":"levelo://app?vid=070ded19-db45-4133-9e69-a50aacceab14","ios":"levelo://app?vid=070ded19-db45-4133-9e69-a50aacceab14"},"vehicle_type_id":"4","last_reported":1739300769,"current_range_meters":38800,"station_id":"ce501612rcd8frsf0b60","pricing_plan_id":"cebpf4jnsgd1na2vs0mg"},{"bike_id":"f759837a-69cc-4770-96c2-faf60f712aca","system_id":"levelo_inurba_marseille","lat":43.30548,"lon":5.3655,"is_reserved":false,"is_disabled":false,"rental_uris":{"android":"levelo://app?vid=f759837a-69cc-4770-96c2-faf60f712aca","ios":"levelo://app?vid=f759837a-69cc-4770-96c2-faf60f712aca"},"vehicle_type_id":"4","last_reported":1739300769,"current_range_meters":9600,"station_id":"ce4bgs12rcd13ifvqcag","pricing_plan_id":"cebpf4jnsgd1na2vs0mg"},{"bike_id":"4ae81a5f-e0ed-4206-8bd1-2a7805644fd5","system_id":"levelo_inurba_marseille","lat":43.29936,"lon":5.36552,"is_reserved":false,"is_disabled":false,"rental_uris":{"android":"levelo://app?vid=4ae81a5f-e0ed-4206-8bd1-2a7805644fd5","ios":"levelo://app?vid=4ae81a5f-e0ed-4206-8bd1-2a7805644fd5"},"vehicle_type_id":"4","last_reported":1739300769,"current_range_meters":32800,"station_id":"ce4bgm92rcd13ifvqbr0","pricing_plan_id":"cebpf4jnsgd1na2vs0mg"},{"bike_id":"0497d784-c056-45f5-a997-c997e3fb1a75","system_id":"levelo_inurba_marseille","lat":43.31748,"lon":5.40447,"is_reserved":false,"is_disabled":true,"rental_uris":{"android":"levelo://app?vid=0497d784-c056-45f5-a997-c997e3fb1a75","ios":"levelo://app?vid=0497d784-c056-45f5-a997-c997e3fb1a75"},"vehicle_type_id":"4","last_reported":1739300769,"current_range_meters":38800,"station_id":"ce4bh012rcd13ifvqd00","pricing_plan_id":"cebpf4jnsgd1na2vs0mg"},{"bike_id":"9e4564f0-0519-46c9-beea-73f529a3ce6a","system_id":"levelo_inurba_marseille","lat":43.24809,"lon":5.37448,"is_reserved":false,"is_disabled":false,"rental_uris":{"android":"levelo://app?vid=9e4564f0-0519-46c9-beea-73f529a3ce6a","ios":"levelo://app?vid=9e4564f0-0519-46c9-beea-73f529a3ce6a"},"vehicle_type_id":"4","last_reported":1739300769,"current_range_meters":31200,"station_id":"ce4bhgh2rcd13ifvqfb0","pricing_plan_id":"cebpf4jnsgd1na2vs0mg"},{"bike_id":"a94d2018-f678-4713-bf2d-5da0b28f3e59","system_id":"levelo_inurba_marseille","lat":43.29763,"lon":5.371,"is_reserved":false,"is_disabled":false,"rental_uris":{"android":"levelo://app?vid=a94d2018-f678-4713-bf2d-5da0b28f3e59","ios":"levelo://app?vid=a94d2018-f678-4713-bf2d-5da0b28f3e59"},"vehicle_type_id":"4","last_reported":1739300769,"current_range_meters":36800,"station_id":"ce4bgop2rcd13ifvqc1g","pricing_plan_id":"cebpf4jnsgd1na2vs0mg"},{"bike_id":"6e1261de-61ca-45f3-8263-50cd9c374486","system_id":"levelo_inurba_marseille","lat":43.29637,"lon":5.37722,"is_reserved":false,"is_disabled":false,"rental_uris":{"android":"levelo://app?vid=6e1261de-61ca-45f3-8263-50cd9c374486","ios":"levelo://app?vid=6e1261de-61ca-45f3-8263-50cd9c374486"},"vehicle_type_id":"4","last_reported":1739300769,"current_range_meters":35200,"station_id":"ce4bgi92rcd13ifvqb90","pricing_plan_id":"cebpf4jnsgd1na2vs0mg"},{"bike_id":"3df3041b-27b7-4def-8d60-99d6191bfdce","system_id":"levelo_inurba_marseille","lat":43.275,"lon":5.42456,"is_reserved":false,"is_disabled":false,"rental_uris":{"android":"levelo://app?vid=3df3041b-27b7-4def-8d60-99d6191bfdce","ios":"levelo://app?vid=3df3041b-27b7-4def-8d60-99d6191bfdce"},"vehicle_type_id":"4","last_reported":1739300769,"current_range_meters":38800,"station_id":"ce4bhn92rcd13ifvqgrg","pricing_plan_id":"cebpf4jnsgd1na2vs0mg"},{"bike_id":"3557e281-7344-4c56-b643-42ea2f500ef3","system_id":"levelo_inurba_marseille","lat":43.29549,"lon":5.42278,"is_reserved":false,"is_disabled":false,"rental_uris":{"android":"levelo://app?vid=3557e281-7344-4c56-b643-42ea2f500ef3","ios":"levelo://app?vid=3557e281-7344-4c56-b643-42ea2f500ef3"},"vehicle_type_id":"4","last_reported":1739300769,"current_range_meters":35200,"station_id":"ce4bhph2rcd13ifvqhdg","pricing_plan_id":"cebpf4jnsgd1na2vs0mg"},{"bike_id":"b00cd1fe-6986-4a4a-9e4b-6dd0afa33530","system_id":"levelo_inurba_marseille","lat":43.29718,"lon":5.36583,"is_reserved":false,"is_disabled":false,"rental_uris":{"android":"levelo://app?vid=b00cd1fe-6986-4a4a-9e4b-6dd0afa33530","ios":"levelo://app?vid=b00cd1fe-6986-4a4a-9e4b-6dd0afa33530"},"vehicle_type_id":"4","last_reported":1739300769,"current_range_meters":38800,"station_id":"ce4bgn12rcd13ifvqbt0","pricing_plan_id":"cebpf4jnsgd1na2vs0mg"},{"bike_id":"8258c8e4-7775-45b7-a1f1-6659658d08a6","system_id":"levelo_inurba_marseille","lat":43.26559,"lon":5.37297,"is_reserved":false,"is_disabled":false,"rental_uris":{"android":"levelo://app?vid=8258c8e4-7775-45b7-a1f1-6659658d08a6","ios":"levelo://app?vid=8258c8e4-7775-45b7-a1f1-6659658d08a6"},"vehicle_type_id":"4","last_reported":1739300769,"current_range_meters":38800,"station_id":"ce4bhg12rcd13ifvqf70","pricing_plan_id":"cebpf4jnsgd1na2vs0mg"},{"bike_id":"03e763eb-2ea5-4191-8380-138ad06f19b1","system_id":"levelo_inurba_marseille","lat":43.32489,"lon":5.36573,"is_reserved":false,"is_disabled":false,"rental_uris":{"android":"levelo://app?vid=03e763eb-2ea5-4191-8380-138ad06f19b1","ios":"levelo://app?vid=03e763eb-2ea5-4191-8380-138ad06f19b1"},"vehicle_type_id":"4","last_reported":1739300769,"current_range_meters":28800,"station_id":"ce4bhs12rcd13ifvqhvg","pricing_plan_id":"cebpf4jnsgd1na2vs0mg"},{"bike_id":"fb2b099d-60d9-470e-98ca-c297ad3f8158","system_id":"levelo_inurba_marseille","lat":43.29634,"lon":5.37692,"is_reserved":false,"is_disabled":false,"rental_uris":{"android":"levelo://app?vid=fb2b099d-60d9-470e-98ca-c297ad3f8158","ios":"levelo://app?vid=fb2b099d-60d9-470e-98ca-c297ad3f8158"},"vehicle_type_id":"4","last_reported":1739300769,"current_range_meters":10800,"station_id":"ce4bgi92rcd13ifvqb90","pricing_plan_id":"cebpf4jnsgd1na2vs0mg"},{"bike_id":"26c79ef5-6f5f-49d9-b4aa-17fb6a7df4bb","system_id":"levelo_inurba_marseille","lat":43.29859,"lon":5.36283,"is_reserved":false,"is_disabled":false,"rental_uris":{"android":"levelo://app?vid=26c79ef5-6f5f-49d9-b4aa-17fb6a7df4bb","ios":"levelo://app?vid=26c79ef5-6f5f-49d9-b4aa-17fb6a7df4bb"},"vehicle_type_id":"4","last_reported":1739300769,"current_range_meters":39200,"station_id":"ce4bgpp2rcd13ifvqc3g","pricing_plan_id":"cebpf4jnsgd1na2vs0mg"},{"bike_id":"39e55a90-fe76-4904-bf9c-9841fe168f13","system_id":"levelo_inurba_marseille","lat":43.337274,"lon":5.391813,"is_reserved":false,"is_disabled":false,"rental_uris":{"android":"levelo://app?vid=39e55a90-fe76-4904-bf9c-9841fe168f13","ios":"levelo://app?vid=39e55a90-fe76-4904-bf9c-9841fe168f13"},"vehicle_type_id":"4","last_reported":1739300769,"current_range_meters":38800,"station_id":"ce4bhr92rcd13ifvqhsg","pricing_plan_id":"cebpf4jnsgd1na2vs0mg"},{"bike_id":"1ab17f89-ff2a-4845-8f56-b593d509f0fc","system_id":"levelo_inurba_marseille","lat":43.29619,"lon":5.37712,"is_reserved":false,"is_disabled":false,"rental_uris":{"android":"levelo://app?vid=1ab17f89-ff2a-4845-8f56-b593d509f0fc","ios":"levelo://app?vid=1ab17f89-ff2a-4845-8f56-b593d509f0fc"},"vehicle_type_id":"4","last_reported":1739300769,"current_range_meters":36800,"station_id":"ce4bgi92rcd13ifvqb90","pricing_plan_id":"cebpf4jnsgd1na2vs0mg"},{"bike_id":"f798cbc4-a869-471f-bce8-f64397eebe81","system_id":"levelo_inurba_marseille","lat":43.2397,"lon":5.36631,"is_reserved":false,"is_disabled":false,"rental_uris":{"android":"levelo://app?vid=f798cbc4-a869-471f-bce8-f64397eebe81","ios":"levelo://app?vid=f798cbc4-a869-471f-bce8-f64397eebe81"},"vehicle_type_id":"4","last_reported":1739300769,"current_range_meters":20800,"station_id":"ce4bhi12rcd13ifvqfp0","pricing_plan_id":"cebpf4jnsgd1na2vs0mg"},{"bike_id":"aa12f343-72f4-483e-a293-73fd3d081759","system_id":"levelo_inurba_marseille","lat":43.29215,"lon":5.36057,"is_reserved":false,"is_disabled":false,"rental_uris":{"android":"levelo://app?vid=aa12f343-72f4-483e-a293-73fd3d081759","ios":"levelo://app?vid=aa12f343-72f4-483e-a293-73fd3d081759"},"vehicle_type_id":"4","last_reported":1739300769,"current_range_meters":35600,"station_id":"ce4bhbh2rcd13ifvqeqg","pricing_plan_id":"cebpf4jnsgd1na2vs0mg"},{"bike_id":"28413155-a714-4c6f-956c-f41cd00ef255","system_id":"levelo_inurba_marseille","lat":43.30445,"lon":5.39745,"is_reserved":false,"is_disabled":false,"rental_uris":{"android":"levelo://app?vid=28413155-a714-4c6f-956c-f41cd00ef255","ios":"levelo://app?vid=28413155-a714-4c6f-956c-f41cd00ef255"},"vehicle_type_id":"4","last_reported":1739300769,"current_range_meters":39200,"station_id":"ce4bh092rcd13ifvqd20","pricing_plan_id":"cebpf4jnsgd1na2vs0mg"},{"bike_id":"30e15755-4421-4ffd-b252-ccac53c81cda","system_id":"levelo_inurba_marseille","lat":43.27885,"lon":5.38025,"is_reserved":false,"is_disabled":false,"rental_uris":{"android":"levelo://app?vid=30e15755-4421-4ffd-b252-ccac53c81cda","ios":"levelo://app?vid=30e15755-4421-4ffd-b252-ccac53c81cda"},"vehicle_type_id":"4","last_reported":1739300769,"current_range_meters":29600,"station_id":"ce4bhf92rcd13ifvqf50","pricing_plan_id":"cebpf4jnsgd1na2vs0mg"},{"bike_id":"a0ba3445-7b99-4e73-8428-73ec9bfdccc9","system_id":"levelo_inurba_marseille","lat":43.28334,"lon":5.38087,"is_reserved":false,"is_disabled":false,"rental_uris":{"android":"levelo://app?vid=a0ba3445-7b99-4e73-8428-73ec9bfdccc9","ios":"levelo://app?vid=a0ba3445-7b99-4e73-8428-73ec9bfdccc9"},"vehicle_type_id":"4","last_reported":1739300769,"current_range_meters":19600,"station_id":"ce4bh412rcd13ifvqdr0","pricing_plan_id":"cebpf4jnsgd1na2vs0mg"},{"bike_id":"4c983eb9-0181-4f94-9f85-22e23aa30ce0","system_id":"levelo_inurba_marseille","lat":43.30429,"lon":5.39742,"is_reserved":false,"is_disabled":false,"rental_uris":{"android":"levelo://app?vid=4c983eb9-0181-4f94-9f85-22e23aa30ce0","ios":"levelo://app?vid=4c983eb9-0181-4f94-9f85-22e23aa30ce0"},"vehicle_type_id":"4","last_reported":1739300769,"current_range_meters":36800,"station_id":"ce4bh092rcd13ifvqd20","pricing_plan_id":"cebpf4jnsgd1na2vs0mg"},{"bike_id":"c2b02070-0769-4672-a982-f0e2857da1ea","system_id":"levelo_inurba_marseille","lat":43.31327,"lon":5.39697,"is_reserved":false,"is_disabled":false,"rental_uris":{"android":"levelo://app?vid=c2b02070-0769-4672-a982-f0e2857da1ea","ios":"levelo://app?vid=c2b02070-0769-4672-a982-f0e2857da1ea"},"vehicle_type_id":"4","last_reported":1739300769,"current_range_meters":36800,"station_id":"ce4bgvp2rcd13ifvqcu0","pricing_plan_id":"cebpf4jnsgd1na2vs0mg"},{"bike_id":"bf8cd02e-ccdc-4523-894a-3fce83d782e3","system_id":"levelo_inurba_marseille","lat":43.3373,"lon":5.39171,"is_reserved":false,"is_disabled":false,"rental_uris":{"android":"levelo://app?vid=bf8cd02e-ccdc-4523-894a-3fce83d782e3","ios":"levelo://app?vid=bf8cd02e-ccdc-4523-894a-3fce83d782e3"},"vehicle_type_id":"4","last_reported":1739300769,"current_range_meters":38800,"station_id":"ce4bhr92rcd13ifvqhsg","pricing_plan_id":"cebpf4jnsgd1na2vs0mg"},{"bike_id":"b737ae82-c86e-4ede-80b2-31fc6f755e14","system_id":"levelo_inurba_marseille","lat":43.29531,"lon":5.38538,"is_reserved":false,"is_disabled":true,"rental_uris":{"android":"levelo://app?vid=b737ae82-c86e-4ede-80b2-31fc6f755e14","ios":"levelo://app?vid=b737ae82-c86e-4ede-80b2-31fc6f755e14"},"vehicle_type_id":"4","last_reported":1739300769,"current_range_meters":38800,"station_id":"ce4bgih2rcd13ifvqba0","pricing_plan_id":"cebpf4jnsgd1na2vs0mg"},{"bike_id":"bf8e0073-3935-4e32-86d0-9614b299b0c3","system_id":"levelo_inurba_marseille","lat":43.30657,"lon":5.40082,"is_reserved":false,"is_disabled":false,"rental_uris":{"android":"levelo://app?vid=bf8e0073-3935-4e32-86d0-9614b299b0c3","ios":"levelo://app?vid=bf8e0073-3935-4e32-86d0-9614b299b0c3"},"vehicle_type_id":"4","last_reported":1739300769,"current_range_meters":38800,"station_id":"ce4bh112rcd13ifvqda0","pricing_plan_id":"cebpf4jnsgd1na2vs0mg"},{"bike_id":"8eff28d5-b16e-4630-bfce-0b77c4d8082d","system_id":"levelo_inurba_marseille","lat":43.29199,"lon":5.35789,"is_reserved":false,"is_disabled":false,"rental_uris":{"android":"levelo://app?vid=8eff28d5-b16e-4630-bfce-0b77c4d8082d","ios":"levelo://app?vid=8eff28d5-b16e-4630-bfce-0b77c4d8082d"},"vehicle_type_id":"4","last_reported":1739300769,"current_range_meters":38800,"station_id":"ce4bhb12rcd13ifvqel0","pricing_plan_id":"cebpf4jnsgd1na2vs0mg"},{"bike_id":"9b532fed-71ba-48b0-972e-c6f207d9a03c","system_id":"levelo_inurba_marseille","lat":43.29255,"lon":5.38417,"is_reserved":false,"is_disabled":false,"rental_uris":{"android":"levelo://app?vid=9b532fed-71ba-48b0-972e-c6f207d9a03c","ios":"levelo://app?vid=9b532fed-71ba-48b0-972e-c6f207d9a03c"},"vehicle_type_id":"4","last_reported":1739300769,"current_range_meters":20000,"station_id":"ce4bh692rcd13ifvqea0","pricing_plan_id":"cebpf4jnsgd1na2vs0mg"},{"bike_id":"7363b34c-f4e3-4a4d-a370-ef3739411451","system_id":"levelo_inurba_marseille","lat":43.26805,"lon":5.40256,"is_reserved":false,"is_disabled":false,"rental_uris":{"android":"levelo://app?vid=7363b34c-f4e3-4a4d-a370-ef3739411451","ios":"levelo://app?vid=7363b34c-f4e3-4a4d-a370-ef3739411451"},"vehicle_type_id":"4","last_reported":1739300769,"current_range_meters":38800,"station_id":"ce501612rcd8frsf0b60","pricing_plan_id":"cebpf4jnsgd1na2vs0mg"},{"bike_id":"2ab8c28d-7a84-4293-9e81-ebc14a76c0cd","system_id":"levelo_inurba_marseille","lat":43.2956,"lon":5.37504,"is_reserved":false,"is_disabled":false,"rental_uris":{"android":"levelo://app?vid=2ab8c28d-7a84-4293-9e81-ebc14a76c0cd","ios":"levelo://app?vid=2ab8c28d-7a84-4293-9e81-ebc14a76c0cd"},"vehicle_type_id":"4","last_reported":1739300769,"current_range_meters":38400,"station_id":"ce4bgh92rcd13ifvqb50","pricing_plan_id":"cebpf4jnsgd1na2vs0mg"},{"bike_id":"c179f179-1614-4d6a-9586-627695823c73","system_id":"levelo_inurba_marseille","lat":43.26806,"lon":5.40262,"is_reserved":false,"is_disabled":false,"rental_uris":{"android":"levelo://app?vid=c179f179-1614-4d6a-9586-627695823c73","ios":"levelo://app?vid=c179f179-1614-4d6a-9586-627695823c73"},"vehicle_type_id":"4","last_reported":1739300769,"current_range_meters":28800,"station_id":"ce501612rcd8frsf0b60","pricing_plan_id":"cebpf4jnsgd1na2vs0mg"},{"bike_id":"c573048d-b0bb-4a11-b456-07d3f804372d","system_id":"levelo_inurba_marseille","lat":43.28863,"lon":5.39321,"is_reserved":false,"is_disabled":false,"rental_uris":{"android":"levelo://app?vid=c573048d-b0bb-4a11-b456-07d3f804372d","ios":"levelo://app?vid=c573048d-b0bb-4a11-b456-07d3f804372d"},"vehicle_type_id":"4","last_reported":1739300769,"current_range_meters":32800,"station_id":"ce4bh2p2rcd13ifvqdi0","pricing_plan_id":"cebpf4jnsgd1na2vs0mg"},{"bike_id":"542c162a-2c01-4221-88ba-bc0cf2c81047","system_id":"levelo_inurba_marseille","lat":43.2677,"lon":5.40395,"is_reserved":false,"is_disabled":false,"rental_uris":{"android":"levelo://app?vid=542c162a-2c01-4221-88ba-bc0cf2c81047","ios":"levelo://app?vid=542c162a-2c01-4221-88ba-bc0cf2c81047"},"vehicle_type_id":"4","last_reported":1739300769,"current_range_meters":38800,"station_id":"ce501612rcd8frsf0b60","pricing_plan_id":"cebpf4jnsgd1na2vs0mg"},{"bike_id":"31f8b115-d762-421d-ac08-d5cfaad25486","system_id":"levelo_inurba_marseille","lat":43.28849,"lon":5.35851,"is_reserved":false,"is_disabled":false,"rental_uris":{"android":"levelo://app?vid=31f8b115-d762-421d-ac08-d5cfaad25486","ios":"levelo://app?vid=31f8b115-d762-421d-ac08-d5cfaad25486"},"vehicle_type_id":"4","last_reported":1739300769,"current_range_meters":31200,"station_id":"ce4bhb12rcd13ifvqem0","pricing_plan_id":"cebpf4jnsgd1na2vs0mg"},{"bike_id":"87f29faa-759a-425a-824e-ac3220e83fd2","system_id":"levelo_inurba_marseille","lat":43.30769,"lon":5.37649,"is_reserved":false,"is_disabled":false,"rental_uris":{"android":"levelo://app?vid=87f29faa-759a-425a-824e-ac3220e83fd2","ios":"levelo://app?vid=87f29faa-759a-425a-824e-ac3220e83fd2"},"vehicle_type_id":"4","last_reported":1739300769,"current_range_meters":38000,"station_id":"ce4bgv92rcd13ifvqcq0","pricing_plan_id":"cebpf4jnsgd1na2vs0mg"},{"bike_id":"5b6c5ba9-3dba-44df-9b8a-d982f4eb4bd7","system_id":"levelo_inurba_marseille","lat":43.2939,"lon":5.39504,"is_reserved":false,"is_disabled":false,"rental_uris":{"android":"levelo://app?vid=5b6c5ba9-3dba-44df-9b8a-d982f4eb4bd7","ios":"levelo://app?vid=5b6c5ba9-3dba-44df-9b8a-d982f4eb4bd7"},"vehicle_type_id":"4","last_reported":1739300769,"current_range_meters":25600,"station_id":"","pricing_plan_id":"cebpf4jnsgd1na2vs0mg"},{"bike_id":"3064df36-f96d-4330-8930-85d32b9f3083","system_id":"levelo_inurba_marseille","lat":43.29274,"lon":5.38435,"is_reserved":false,"is_disabled":false,"rental_uris":{"android":"levelo://app?vid=3064df36-f96d-4330-8930-85d32b9f3083","ios":"levelo://app?vid=3064df36-f96d-4330-8930-85d32b9f3083"},"vehicle_type_id":"4","last_reported":1739300769,"current_range_meters":12000,"station_id":"ce4bh692rcd13ifvqea0","pricing_plan_id":"cebpf4jnsgd1na2vs0mg"},{"bike_id":"1add35ea-4fc7-486b-99a6-cfb5eca5d89c","system_id":"levelo_inurba_marseille","lat":43.30193,"lon":5.39476,"is_reserved":false,"is_disabled":false,"rental_uris":{"android":"levelo://app?vid=1add35ea-4fc7-486b-99a6-cfb5eca5d89c","ios":"levelo://app?vid=1add35ea-4fc7-486b-99a6-cfb5eca5d89c"},"vehicle_type_id":"4","last_reported":1739300769,"current_range_meters":32400,"station_id":"ce4bh0p2rcd13ifvqd70","pricing_plan_id":"cebpf4jnsgd1na2vs0mg"},{"bike_id":"8dc60ba6-d690-49b8-8adf-a6261b5bfebb","system_id":"levelo_inurba_marseille","lat":43.24387,"lon":5.37045,"is_reserved":false,"is_disabled":false,"rental_uris":{"android":"levelo://app?vid=8dc60ba6-d690-49b8-8adf-a6261b5bfebb","ios":"levelo://app?vid=8dc60ba6-d690-49b8-8adf-a6261b5bfebb"},"vehicle_type_id":"4","last_reported":1739300769,"current_range_meters":32000,"station_id":"ce4bhhh2rcd13ifvqfk0","pricing_plan_id":"cebpf4jnsgd1na2vs0mg"},{"bike_id":"022bfa62-7cd3-460d-bff2-01870edd9da6","system_id":"levelo_inurba_marseille","lat":43.28739,"lon":5.36083,"is_reserved":false,"is_disabled":false,"rental_uris":{"android":"levelo://app?vid=022bfa62-7cd3-460d-bff2-01870edd9da6","ios":"levelo://app?vid=022bfa62-7cd3-460d-bff2-01870edd9da6"},"vehicle_type_id":"4","last_reported":1739300769,"current_range_meters":36800,"station_id":"cki0cbj6b192h4jlfktg","pricing_plan_id":"cebpf4jnsgd1na2vs0mg"},{"bike_id":"af834613-ca42-4c8f-ab36-217177217196","system_id":"levelo_inurba_marseille","lat":43.24989,"lon":5.38936,"is_reserved":false,"is_disabled":false,"rental_uris":{"android":"levelo://app?vid=af834613-ca42-4c8f-ab36-217177217196","ios":"levelo://app?vid=af834613-ca42-4c8f-ab36-217177217196"},"vehicle_type_id":"4","last_reported":1739300769,"current_range_meters":36800,"station_id":"ce4bhgp2rcd13ifvqfd0","pricing_plan_id":"cebpf4jnsgd1na2vs0mg"},{"bike_id":"d6e53530-3cc7-4db9-8a0d-93dc58983b28","system_id":"levelo_inurba_marseille","lat":43.2971,"lon":5.36614,"is_reserved":false,"is_disabled":false,"rental_uris":{"android":"levelo://app?vid=d6e53530-3cc7-4db9-8a0d-93dc58983b28","ios":"levelo://app?vid=d6e53530-3cc7-4db9-8a0d-93dc58983b28"},"vehicle_type_id":"4","last_reported":1739300769,"current_range_meters":39200,"station_id":"ce4bgn12rcd13ifvqbt0","pricing_plan_id":"cebpf4jnsgd1na2vs0mg"},{"bike_id":"8d9024d1-e65d-448c-be5d-fcc051bd95bc","system_id":"levelo_inurba_marseille","lat":43.301299,"lon":5.387793,"is_reserved":false,"is_disabled":false,"rental_uris":{"android":"levelo://app?vid=8d9024d1-e65d-448c-be5d-fcc051bd95bc","ios":"levelo://app?vid=8d9024d1-e65d-448c-be5d-fcc051bd95bc"},"vehicle_type_id":"4","last_reported":1739300769,"current_range_meters":38800,"station_id":"ce4bghh2rcd13ifvqb60","pricing_plan_id":"cebpf4jnsgd1na2vs0mg"},{"bike_id":"e169a236-33c1-4557-8a4d-0eca73ad1806","system_id":"levelo_inurba_marseille","lat":43.280012,"lon":5.400153,"is_reserved":false,"is_disabled":false,"rental_uris":{"android":"levelo://app?vid=e169a236-33c1-4557-8a4d-0eca73ad1806","ios":"levelo://app?vid=e169a236-33c1-4557-8a4d-0eca73ad1806"},"vehicle_type_id":"4","last_reported":1739300769,"current_range_meters":25200,"station_id":"ce4bho92rcd13ifvqh4g","pricing_plan_id":"cebpf4jnsgd1na2vs0mg"},{"bike_id":"6bef5661-98f3-427d-9fe9-ace76ea423c3","system_id":"levelo_inurba_marseille","lat":43.290051,"lon":5.356176,"is_reserved":false,"is_disabled":false,"rental_uris":{"android":"levelo://app?vid=6bef5661-98f3-427d-9fe9-ace76ea423c3","ios":"levelo://app?vid=6bef5661-98f3-427d-9fe9-ace76ea423c3"},"vehicle_type_id":"4","last_reported":1739300769,"current_range_meters":38000,"station_id":"","pricing_plan_id":"cebpf4jnsgd1na2vs0mg"},{"bike_id":"f96d9290-7566-4c01-a4f3-765d931e8a38","system_id":"levelo_inurba_marseille","lat":43.29818,"lon":5.38128,"is_reserved":false,"is_disabled":false,"rental_uris":{"android":"levelo://app?vid=f96d9290-7566-4c01-a4f3-765d931e8a38","ios":"levelo://app?vid=f96d9290-7566-4c01-a4f3-765d931e8a38"},"vehicle_type_id":"4","last_reported":1739300769,"current_range_meters":28000,"station_id":"ce4bgip2rcd13ifvqbb0","pricing_plan_id":"cebpf4jnsgd1na2vs0mg"},{"bike_id":"ab27ba9e-3fb3-41b1-a802-4cdc50ceeacd","system_id":"levelo_inurba_marseille","lat":43.32336,"lon":5.40614,"is_reserved":false,"is_disabled":false,"rental_uris":{"android":"levelo://app?vid=ab27ba9e-3fb3-41b1-a802-4cdc50ceeacd","ios":"levelo://app?vid=ab27ba9e-3fb3-41b1-a802-4cdc50ceeacd"},"vehicle_type_id":"4","last_reported":1739300769,"current_range_meters":38800,"station_id":"ce4bhq92rcd13ifvqhjg","pricing_plan_id":"cebpf4jnsgd1na2vs0mg"},{"bike_id":"76ebc75d-2fe5-45e0-9f44-dea2f5f86814","system_id":"levelo_inurba_marseille","lat":43.24395,"lon":5.37054,"is_reserved":false,"is_disabled":false,"rental_uris":{"android":"levelo://app?vid=76ebc75d-2fe5-45e0-9f44-dea2f5f86814","ios":"levelo://app?vid=76ebc75d-2fe5-45e0-9f44-dea2f5f86814"},"vehicle_type_id":"4","last_reported":1739300769,"current_range_meters":31200,"station_id":"ce4bhhh2rcd13ifvqfk0","pricing_plan_id":"cebpf4jnsgd1na2vs0mg"},{"bike_id":"c30dfd55-b891-4456-a6ce-f5e9d05e4a09","system_id":"levelo_inurba_marseille","lat":43.28608,"lon":5.35107,"is_reserved":false,"is_disabled":false,"rental_uris":{"android":"levelo://app?vid=c30dfd55-b891-4456-a6ce-f5e9d05e4a09","ios":"levelo://app?vid=c30dfd55-b891-4456-a6ce-f5e9d05e4a09"},"vehicle_type_id":"4","last_reported":1739300769,"current_range_meters":16800,"station_id":"ce4bhch2rcd13ifvqeug","pricing_plan_id":"cebpf4jnsgd1na2vs0mg"},{"bike_id":"76305925-afef-4e0d-9960-6de968abbadf","system_id":"levelo_inurba_marseille","lat":43.248096,"lon":5.374589,"is_reserved":false,"is_disabled":false,"rental_uris":{"android":"levelo://app?vid=76305925-afef-4e0d-9960-6de968abbadf","ios":"levelo://app?vid=76305925-afef-4e0d-9960-6de968abbadf"},"vehicle_type_id":"4","last_reported":1739300769,"current_range_meters":36800,"station_id":"ce4bhgh2rcd13ifvqfb0","pricing_plan_id":"cebpf4jnsgd1na2vs0mg"},{"bike_id":"1fb1a03a-258b-416a-92dc-66b98dcbe7d9","system_id":"levelo_inurba_marseille","lat":43.33735,"lon":5.39181,"is_reserved":false,"is_disabled":false,"rental_uris":{"android":"levelo://app?vid=1fb1a03a-258b-416a-92dc-66b98dcbe7d9","ios":"levelo://app?vid=1fb1a03a-258b-416a-92dc-66b98dcbe7d9"},"vehicle_type_id":"4","last_reported":1739300769,"current_range_meters":38800,"station_id":"ce4bhr92rcd13ifvqhsg","pricing_plan_id":"cebpf4jnsgd1na2vs0mg"},{"bike_id":"0dbd0d81-4da6-4a7b-a928-c122921cd867","system_id":"levelo_inurba_marseille","lat":43.28922,"lon":5.38385,"is_reserved":false,"is_disabled":false,"rental_uris":{"android":"levelo://app?vid=0dbd0d81-4da6-4a7b-a928-c122921cd867","ios":"levelo://app?vid=0dbd0d81-4da6-4a7b-a928-c122921cd867"},"vehicle_type_id":"4","last_reported":1739300769,"current_range_meters":38800,"station_id":"ce4bh612rcd13ifvqe6g","pricing_plan_id":"cebpf4jnsgd1na2vs0mg"},{"bike_id":"51ab7186-5043-4bed-baca-73708608a302","system_id":"levelo_inurba_marseille","lat":43.29584,"lon":5.37026,"is_reserved":false,"is_disabled":true,"rental_uris":{"android":"levelo://app?vid=51ab7186-5043-4bed-baca-73708608a302","ios":"levelo://app?vid=51ab7186-5043-4bed-baca-73708608a302"},"vehicle_type_id":"4","last_reported":1739300769,"current_range_meters":6000,"station_id":"","pricing_plan_id":"cebpf4jnsgd1na2vs0mg"},{"bike_id":"d721aef2-f351-4dca-9739-d34ba7ce7b2d","system_id":"levelo_inurba_marseille","lat":43.28925,"lon":5.38399,"is_reserved":false,"is_disabled":false,"rental_uris":{"android":"levelo://app?vid=d721aef2-f351-4dca-9739-d34ba7ce7b2d","ios":"levelo://app?vid=d721aef2-f351-4dca-9739-d34ba7ce7b2d"},"vehicle_type_id":"4","last_reported":1739300769,"current_range_meters":38800,"station_id":"ce4bh612rcd13ifvqe6g","pricing_plan_id":"cebpf4jnsgd1na2vs0mg"},{"bike_id":"0e044507-a48e-46b2-974e-f875ee3d4847","system_id":"levelo_inurba_marseille","lat":43.28939,"lon":5.36618,"is_reserved":false,"is_disabled":false,"rental_uris":{"android":"levelo://app?vid=0e044507-a48e-46b2-974e-f875ee3d4847","ios":"levelo://app?vid=0e044507-a48e-46b2-974e-f875ee3d4847"},"vehicle_type_id":"4","last_reported":1739300769,"current_range_meters":39200,"station_id":"ce4bhap2rcd13ifvqek0","pricing_plan_id":"cebpf4jnsgd1na2vs0mg"},{"bike_id":"2df9ea44-1468-43c2-82ec-de1fd1b84b65","system_id":"levelo_inurba_marseille","lat":43.26949,"lon":5.40256,"is_reserved":false,"is_disabled":false,"rental_uris":{"android":"levelo://app?vid=2df9ea44-1468-43c2-82ec-de1fd1b84b65","ios":"levelo://app?vid=2df9ea44-1468-43c2-82ec-de1fd1b84b65"},"vehicle_type_id":"4","last_reported":1739300769,"current_range_meters":27600,"station_id":"cjm6bp8fraef2m0cb0m0","pricing_plan_id":"cebpf4jnsgd1na2vs0mg"},{"bike_id":"20a48ecc-be84-4a19-af41-d4d79c7ee9f1","system_id":"levelo_inurba_marseille","lat":43.29527,"lon":5.3903,"is_reserved":false,"is_disabled":false,"rental_uris":{"android":"levelo://app?vid=20a48ecc-be84-4a19-af41-d4d79c7ee9f1","ios":"levelo://app?vid=20a48ecc-be84-4a19-af41-d4d79c7ee9f1"},"vehicle_type_id":"4","last_reported":1739300769,"current_range_meters":32800,"station_id":"ce4bh3p2rcd13ifvqdp0","pricing_plan_id":"cebpf4jnsgd1na2vs0mg"},{"bike_id":"c2213a38-0903-4a0b-a7ca-96e9c4c36cb3","system_id":"levelo_inurba_marseille","lat":43.26785,"lon":5.3941,"is_reserved":false,"is_disabled":false,"rental_uris":{"android":"levelo://app?vid=c2213a38-0903-4a0b-a7ca-96e9c4c36cb3","ios":"levelo://app?vid=c2213a38-0903-4a0b-a7ca-96e9c4c36cb3"},"vehicle_type_id":"4","last_reported":1739300769,"current_range_meters":38400,"station_id":"ce4bhh12rcd13ifvqfg0","pricing_plan_id":"cebpf4jnsgd1na2vs0mg"},{"bike_id":"a9b142c9-8146-4cd2-9929-de6fa12b9ff4","system_id":"levelo_inurba_marseille","lat":43.29806,"lon":5.40408,"is_reserved":false,"is_disabled":false,"rental_uris":{"android":"levelo://app?vid=a9b142c9-8146-4cd2-9929-de6fa12b9ff4","ios":"levelo://app?vid=a9b142c9-8146-4cd2-9929-de6fa12b9ff4"},"vehicle_type_id":"4","last_reported":1739300769,"current_range_meters":38800,"station_id":"ce4bh112rcd13ifvqd90","pricing_plan_id":"cebpf4jnsgd1na2vs0mg"},{"bike_id":"5aebbdd9-f28a-4312-8b76-e627c95bd200","system_id":"levelo_inurba_marseille","lat":43.28697,"lon":5.39982,"is_reserved":false,"is_disabled":false,"rental_uris":{"android":"levelo://app?vid=5aebbdd9-f28a-4312-8b76-e627c95bd200","ios":"levelo://app?vid=5aebbdd9-f28a-4312-8b76-e627c95bd200"},"vehicle_type_id":"4","last_reported":1739300769,"current_range_meters":30400,"station_id":"ce4bho92rcd13ifvqh3g","pricing_plan_id":"cebpf4jnsgd1na2vs0mg"},{"bike_id":"291fe8e6-cbc6-4c85-a250-38d0ef387efe","system_id":"levelo_inurba_marseille","lat":43.28439,"lon":5.39171,"is_reserved":false,"is_disabled":false,"rental_uris":{"android":"levelo://app?vid=291fe8e6-cbc6-4c85-a250-38d0ef387efe","ios":"levelo://app?vid=291fe8e6-cbc6-4c85-a250-38d0ef387efe"},"vehicle_type_id":"4","last_reported":1739300769,"current_range_meters":22000,"station_id":"ce4bhoh2rcd13ifvqh5g","pricing_plan_id":"cebpf4jnsgd1na2vs0mg"},{"bike_id":"f9fcd84c-9a0b-4471-a4a8-56349dc37728","system_id":"levelo_inurba_marseille","lat":43.27331,"lon":5.39132,"is_reserved":false,"is_disabled":false,"rental_uris":{"android":"levelo://app?vid=f9fcd84c-9a0b-4471-a4a8-56349dc37728","ios":"levelo://app?vid=f9fcd84c-9a0b-4471-a4a8-56349dc37728"},"vehicle_type_id":"4","last_reported":1739300769,"current_range_meters":27200,"station_id":"","pricing_plan_id":"cebpf4jnsgd1na2vs0mg"},{"bike_id":"dcd4b525-77ac-4259-8ab3-b627e3be70cc","system_id":"levelo_inurba_marseille","lat":43.27988,"lon":5.3999,"is_reserved":false,"is_disabled":false,"rental_uris":{"android":"levelo://app?vid=dcd4b525-77ac-4259-8ab3-b627e3be70cc","ios":"levelo://app?vid=dcd4b525-77ac-4259-8ab3-b627e3be70cc"},"vehicle_type_id":"4","last_reported":1739300769,"current_range_meters":38000,"station_id":"ce4bho92rcd13ifvqh4g","pricing_plan_id":"cebpf4jnsgd1na2vs0mg"},{"bike_id":"de77abfa-6f74-40e9-8131-b7884eda37eb","system_id":"levelo_inurba_marseille","lat":43.29942,"lon":5.39387,"is_reserved":false,"is_disabled":false,"rental_uris":{"android":"levelo://app?vid=de77abfa-6f74-40e9-8131-b7884eda37eb","ios":"levelo://app?vid=de77abfa-6f74-40e9-8131-b7884eda37eb"},"vehicle_type_id":"4","last_reported":1739300769,"current_range_meters":28000,"station_id":"","pricing_plan_id":"cebpf4jnsgd1na2vs0mg"},{"bike_id":"aa081435-b5f9-4834-b16c-7f35c836b33a","system_id":"levelo_inurba_marseille","lat":43.30168,"lon":5.37422,"is_reserved":false,"is_disabled":false,"rental_uris":{"android":"levelo://app?vid=aa081435-b5f9-4834-b16c-7f35c836b33a","ios":"levelo://app?vid=aa081435-b5f9-4834-b16c-7f35c836b33a"},"vehicle_type_id":"4","last_reported":1739300769,"current_range_meters":38800,"station_id":"ce4bgs92rcd13ifvqcc0","pricing_plan_id":"cebpf4jnsgd1na2vs0mg"},{"bike_id":"ee079ffa-4416-4a91-bc98-3bd665acea3b","system_id":"levelo_inurba_marseille","lat":43.33746,"lon":5.3916,"is_reserved":false,"is_disabled":false,"rental_uris":{"android":"levelo://app?vid=ee079ffa-4416-4a91-bc98-3bd665acea3b","ios":"levelo://app?vid=ee079ffa-4416-4a91-bc98-3bd665acea3b"},"vehicle_type_id":"4","last_reported":1739300769,"current_range_meters":38800,"station_id":"ce4bhr92rcd13ifvqhsg","pricing_plan_id":"cebpf4jnsgd1na2vs0mg"},{"bike_id":"1fa82dc6-47d4-4356-bbca-393bf4461726","system_id":"levelo_inurba_marseille","lat":43.23963,"lon":5.36633,"is_reserved":false,"is_disabled":false,"rental_uris":{"android":"levelo://app?vid=1fa82dc6-47d4-4356-bbca-393bf4461726","ios":"levelo://app?vid=1fa82dc6-47d4-4356-bbca-393bf4461726"},"vehicle_type_id":"4","last_reported":1739300769,"current_range_meters":18000,"station_id":"ce4bhi12rcd13ifvqfp0","pricing_plan_id":"cebpf4jnsgd1na2vs0mg"},{"bike_id":"8f27805b-e45e-482f-800b-3745204b0141","system_id":"levelo_inurba_marseille","lat":43.24683,"lon":5.38147,"is_reserved":false,"is_disabled":false,"rental_uris":{"android":"levelo://app?vid=8f27805b-e45e-482f-800b-3745204b0141","ios":"levelo://app?vid=8f27805b-e45e-482f-800b-3745204b0141"},"vehicle_type_id":"4","last_reported":1739300769,"current_range_meters":27200,"station_id":"ce4bhih2rcd13ifvqfr0","pricing_plan_id":"cebpf4jnsgd1na2vs0mg"},{"bike_id":"d5bf6350-350b-4b09-b572-0248f18304ff","system_id":"levelo_inurba_marseille","lat":43.29785,"lon":5.37102,"is_reserved":false,"is_disabled":false,"rental_uris":{"android":"levelo://app?vid=d5bf6350-350b-4b09-b572-0248f18304ff","ios":"levelo://app?vid=d5bf6350-350b-4b09-b572-0248f18304ff"},"vehicle_type_id":"4","last_reported":1739300769,"current_range_meters":32800,"station_id":"ce4bgop2rcd13ifvqc1g","pricing_plan_id":"cebpf4jnsgd1na2vs0mg"},{"bike_id":"bcb645d7-c598-4777-888d-2e2637a0a4f2","system_id":"levelo_inurba_marseille","lat":43.27854,"lon":5.38041,"is_reserved":false,"is_disabled":false,"rental_uris":{"android":"levelo://app?vid=bcb645d7-c598-4777-888d-2e2637a0a4f2","ios":"levelo://app?vid=bcb645d7-c598-4777-888d-2e2637a0a4f2"},"vehicle_type_id":"4","last_reported":1739300769,"current_range_meters":32800,"station_id":"","pricing_plan_id":"cebpf4jnsgd1na2vs0mg"},{"bike_id":"43d9c899-b698-4010-980b-b17004dc2d7c","system_id":"levelo_inurba_marseille","lat":43.29958,"lon":5.37191,"is_reserved":false,"is_disabled":false,"rental_uris":{"android":"levelo://app?vid=43d9c899-b698-4010-980b-b17004dc2d7c","ios":"levelo://app?vid=43d9c899-b698-4010-980b-b17004dc2d7c"},"vehicle_type_id":"4","last_reported":1739300769,"current_range_meters":38800,"station_id":"ce4bgr92rcd13ifvqc7g","pricing_plan_id":"cebpf4jnsgd1na2vs0mg"},{"bike_id":"b2d3a4b9-c155-49b3-9a76-7b74ba456dfa","system_id":"levelo_inurba_marseille","lat":43.26495,"lon":5.39536,"is_reserved":false,"is_disabled":false,"rental_uris":{"android":"levelo://app?vid=b2d3a4b9-c155-49b3-9a76-7b74ba456dfa","ios":"levelo://app?vid=b2d3a4b9-c155-49b3-9a76-7b74ba456dfa"},"vehicle_type_id":"4","last_reported":1739300769,"current_range_meters":38800,"station_id":"ce4bhi12rcd13ifvqfq0","pricing_plan_id":"cebpf4jnsgd1na2vs0mg"},{"bike_id":"47e0f5df-3ffc-443a-8e3a-326299068a40","system_id":"levelo_inurba_marseille","lat":43.27404,"lon":5.40039,"is_reserved":false,"is_disabled":false,"rental_uris":{"android":"levelo://app?vid=47e0f5df-3ffc-443a-8e3a-326299068a40","ios":"levelo://app?vid=47e0f5df-3ffc-443a-8e3a-326299068a40"},"vehicle_type_id":"4","last_reported":1739300769,"current_range_meters":25200,"station_id":"ce4bho92rcd13ifvqh4g","pricing_plan_id":"cebpf4jnsgd1na2vs0mg"},{"bike_id":"496fa2ad-a547-4095-b8b9-a29f1a78ab4b","system_id":"levelo_inurba_marseille","lat":43.27822,"lon":5.40743,"is_reserved":false,"is_disabled":true,"rental_uris":{"android":"levelo://app?vid=496fa2ad-a547-4095-b8b9-a29f1a78ab4b","ios":"levelo://app?vid=496fa2ad-a547-4095-b8b9-a29f1a78ab4b"},"vehicle_type_id":"4","last_reported":1739300769,"current_range_meters":36400,"station_id":"ce4bhnh2rcd13ifvqgtg","pricing_plan_id":"cebpf4jnsgd1na2vs0mg"},{"bike_id":"726ae336-bb50-4e54-8a7d-95388aae943d","system_id":"levelo_inurba_marseille","lat":43.27053,"lon":5.4228,"is_reserved":false,"is_disabled":false,"rental_uris":{"android":"levelo://app?vid=726ae336-bb50-4e54-8a7d-95388aae943d","ios":"levelo://app?vid=726ae336-bb50-4e54-8a7d-95388aae943d"},"vehicle_type_id":"4","last_reported":1739300769,"current_range_meters":38000,"station_id":"ce4bhk92rcd13ifvqgb0","pricing_plan_id":"cebpf4jnsgd1na2vs0mg"},{"bike_id":"3db29e58-0383-464f-82dd-fb2e9d4db242","system_id":"levelo_inurba_marseille","lat":43.28096,"lon":5.37847,"is_reserved":false,"is_disabled":false,"rental_uris":{"android":"levelo://app?vid=3db29e58-0383-464f-82dd-fb2e9d4db242","ios":"levelo://app?vid=3db29e58-0383-464f-82dd-fb2e9d4db242"},"vehicle_type_id":"4","last_reported":1739300769,"current_range_meters":32800,"station_id":"ce4bha12rcd13ifvqee0","pricing_plan_id":"cebpf4jnsgd1na2vs0mg"},{"bike_id":"05f6ac8f-0127-4e39-bd11-d53a74225ef8","system_id":"levelo_inurba_marseille","lat":43.27874,"lon":5.40597,"is_reserved":false,"is_disabled":true,"rental_uris":{"android":"levelo://app?vid=05f6ac8f-0127-4e39-bd11-d53a74225ef8","ios":"levelo://app?vid=05f6ac8f-0127-4e39-bd11-d53a74225ef8"},"vehicle_type_id":"4","last_reported":1739300769,"current_range_meters":0,"station_id":"","pricing_plan_id":"cebpf4jnsgd1na2vs0mg"},{"bike_id":"73dacdc3-24be-4aa0-b576-5dc86eca1f02","system_id":"levelo_inurba_marseille","lat":43.25112,"lon":5.40318,"is_reserved":false,"is_disabled":false,"rental_uris":{"android":"levelo://app?vid=73dacdc3-24be-4aa0-b576-5dc86eca1f02","ios":"levelo://app?vid=73dacdc3-24be-4aa0-b576-5dc86eca1f02"},"vehicle_type_id":"4","last_reported":1739300769,"current_range_meters":11200,"station_id":"ce4bhlh2rcd13ifvqgig","pricing_plan_id":"cebpf4jnsgd1na2vs0mg"},{"bike_id":"5e251f3a-b20d-4413-bffe-e10c72520158","system_id":"levelo_inurba_marseille","lat":43.27067,"lon":5.42277,"is_reserved":false,"is_disabled":false,"rental_uris":{"android":"levelo://app?vid=5e251f3a-b20d-4413-bffe-e10c72520158","ios":"levelo://app?vid=5e251f3a-b20d-4413-bffe-e10c72520158"},"vehicle_type_id":"4","last_reported":1739300769,"current_range_meters":36400,"station_id":"ce4bhk92rcd13ifvqgb0","pricing_plan_id":"cebpf4jnsgd1na2vs0mg"},{"bike_id":"1a977b22-108e-45ce-bfbb-a16bbbb07843","system_id":"levelo_inurba_marseille","lat":43.30547,"lon":5.3652,"is_reserved":false,"is_disabled":false,"rental_uris":{"android":"levelo://app?vid=1a977b22-108e-45ce-bfbb-a16bbbb07843","ios":"levelo://app?vid=1a977b22-108e-45ce-bfbb-a16bbbb07843"},"vehicle_type_id":"4","last_reported":1739300769,"current_range_meters":24000,"station_id":"ce4bgs12rcd13ifvqcag","pricing_plan_id":"cebpf4jnsgd1na2vs0mg"},{"bike_id":"6c6a2480-a803-49cb-9b47-64a7f702d82e","system_id":"levelo_inurba_marseille","lat":43.29873,"lon":5.3891,"is_reserved":false,"is_disabled":false,"rental_uris":{"android":"levelo://app?vid=6c6a2480-a803-49cb-9b47-64a7f702d82e","ios":"levelo://app?vid=6c6a2480-a803-49cb-9b47-64a7f702d82e"},"vehicle_type_id":"4","last_reported":1739300769,"current_range_meters":11600,"station_id":"ce4bh392rcd13ifvqdl0","pricing_plan_id":"cebpf4jnsgd1na2vs0mg"},{"bike_id":"4bc69c7f-9593-488a-a501-daee6e543a6d","system_id":"levelo_inurba_marseille","lat":43.27047,"lon":5.40253,"is_reserved":false,"is_disabled":false,"rental_uris":{"android":"levelo://app?vid=4bc69c7f-9593-488a-a501-daee6e543a6d","ios":"levelo://app?vid=4bc69c7f-9593-488a-a501-daee6e543a6d"},"vehicle_type_id":"4","last_reported":1739300769,"current_range_meters":36800,"station_id":"ce4bhk92rcd13ifvqgc0","pricing_plan_id":"cebpf4jnsgd1na2vs0mg"},{"bike_id":"3d01ee57-be5d-4165-815d-c5b06c8be331","system_id":"levelo_inurba_marseille","lat":43.25005,"lon":5.3893,"is_reserved":false,"is_disabled":false,"rental_uris":{"android":"levelo://app?vid=3d01ee57-be5d-4165-815d-c5b06c8be331","ios":"levelo://app?vid=3d01ee57-be5d-4165-815d-c5b06c8be331"},"vehicle_type_id":"4","last_reported":1739300769,"current_range_meters":39200,"station_id":"ce4bhgp2rcd13ifvqfd0","pricing_plan_id":"cebpf4jnsgd1na2vs0mg"},{"bike_id":"c9f66a3b-63cf-4ad4-8d82-46ec7c71c1e3","system_id":"levelo_inurba_marseille","lat":43.28437,"lon":5.38412,"is_reserved":false,"is_disabled":false,"rental_uris":{"android":"levelo://app?vid=c9f66a3b-63cf-4ad4-8d82-46ec7c71c1e3","ios":"levelo://app?vid=c9f66a3b-63cf-4ad4-8d82-46ec7c71c1e3"},"vehicle_type_id":"4","last_reported":1739300769,"current_range_meters":28400,"station_id":"ce4bh512rcd13ifvqe3g","pricing_plan_id":"cebpf4jnsgd1na2vs0mg"},{"bike_id":"cab431c6-6c2c-4919-a98b-f806daa706e3","system_id":"levelo_inurba_marseille","lat":43.29901,"lon":5.38142,"is_reserved":false,"is_disabled":false,"rental_uris":{"android":"levelo://app?vid=cab431c6-6c2c-4919-a98b-f806daa706e3","ios":"levelo://app?vid=cab431c6-6c2c-4919-a98b-f806daa706e3"},"vehicle_type_id":"4","last_reported":1739300769,"current_range_meters":11600,"station_id":"ce4bgj12rcd13ifvqbc0","pricing_plan_id":"cebpf4jnsgd1na2vs0mg"},{"bike_id":"721f5fb6-7349-49b7-a109-77ff84c72bdd","system_id":"levelo_inurba_marseille","lat":43.30207,"lon":5.39462,"is_reserved":false,"is_disabled":false,"rental_uris":{"android":"levelo://app?vid=721f5fb6-7349-49b7-a109-77ff84c72bdd","ios":"levelo://app?vid=721f5fb6-7349-49b7-a109-77ff84c72bdd"},"vehicle_type_id":"4","last_reported":1739300769,"current_range_meters":38800,"station_id":"ce4bh0p2rcd13ifvqd70","pricing_plan_id":"cebpf4jnsgd1na2vs0mg"},{"bike_id":"a89cb6fd-5271-408f-9ac0-f40ad210763d","system_id":"levelo_inurba_marseille","lat":43.28915,"lon":5.38392,"is_reserved":false,"is_disabled":false,"rental_uris":{"android":"levelo://app?vid=a89cb6fd-5271-408f-9ac0-f40ad210763d","ios":"levelo://app?vid=a89cb6fd-5271-408f-9ac0-f40ad210763d"},"vehicle_type_id":"4","last_reported":1739300769,"current_range_meters":38800,"station_id":"ce4bh612rcd13ifvqe6g","pricing_plan_id":"cebpf4jnsgd1na2vs0mg"},{"bike_id":"76ed4e97-7fa9-4836-bcd3-e52753ef31b4","system_id":"levelo_inurba_marseille","lat":43.29841,"lon":5.3627,"is_reserved":false,"is_disabled":false,"rental_uris":{"android":"levelo://app?vid=76ed4e97-7fa9-4836-bcd3-e52753ef31b4","ios":"levelo://app?vid=76ed4e97-7fa9-4836-bcd3-e52753ef31b4"},"vehicle_type_id":"4","last_reported":1739300769,"current_range_meters":37600,"station_id":"ce4bgpp2rcd13ifvqc3g","pricing_plan_id":"cebpf4jnsgd1na2vs0mg"},{"bike_id":"fd7cd6eb-8023-4160-9061-39fa556cf25c","system_id":"levelo_inurba_marseille","lat":43.30315,"lon":5.4043,"is_reserved":false,"is_disabled":true,"rental_uris":{"android":"levelo://app?vid=fd7cd6eb-8023-4160-9061-39fa556cf25c","ios":"levelo://app?vid=fd7cd6eb-8023-4160-9061-39fa556cf25c"},"vehicle_type_id":"4","last_reported":1739300769,"current_range_meters":28000,"station_id":"ce4bh012rcd13ifvqd10","pricing_plan_id":"cebpf4jnsgd1na2vs0mg"},{"bike_id":"926f3688-94b2-4ac0-a325-2f05a8fbe00c","system_id":"levelo_inurba_marseille","lat":43.290283,"lon":5.399871,"is_reserved":false,"is_disabled":false,"rental_uris":{"android":"levelo://app?vid=926f3688-94b2-4ac0-a325-2f05a8fbe00c","ios":"levelo://app?vid=926f3688-94b2-4ac0-a325-2f05a8fbe00c"},"vehicle_type_id":"4","last_reported":1739300769,"current_range_meters":38400,"station_id":"ce4bh392rcd13ifvqdm0","pricing_plan_id":"cebpf4jnsgd1na2vs0mg"},{"bike_id":"d32849cf-4c14-4032-9063-172d06d3f04f","system_id":"levelo_inurba_marseille","lat":43.23182,"lon":5.35562,"is_reserved":false,"is_disabled":false,"rental_uris":{"android":"levelo://app?vid=d32849cf-4c14-4032-9063-172d06d3f04f","ios":"levelo://app?vid=d32849cf-4c14-4032-9063-172d06d3f04f"},"vehicle_type_id":"4","last_reported":1739300769,"current_range_meters":34000,"station_id":"ce4bhu92rcd13ifvqi70","pricing_plan_id":"cebpf4jnsgd1na2vs0mg"},{"bike_id":"a4eaaa69-6c5f-4bbb-8db1-625e149d651e","system_id":"levelo_inurba_marseille","lat":43.29527,"lon":5.39044,"is_reserved":false,"is_disabled":false,"rental_uris":{"android":"levelo://app?vid=a4eaaa69-6c5f-4bbb-8db1-625e149d651e","ios":"levelo://app?vid=a4eaaa69-6c5f-4bbb-8db1-625e149d651e"},"vehicle_type_id":"4","last_reported":1739300769,"current_range_meters":38800,"station_id":"ce4bh3p2rcd13ifvqdp0","pricing_plan_id":"cebpf4jnsgd1na2vs0mg"},{"bike_id":"923fee55-079c-42f4-b99f-4928932f7207","system_id":"levelo_inurba_marseille","lat":43.27068,"lon":5.4228,"is_reserved":false,"is_disabled":false,"rental_uris":{"android":"levelo://app?vid=923fee55-079c-42f4-b99f-4928932f7207","ios":"levelo://app?vid=923fee55-079c-42f4-b99f-4928932f7207"},"vehicle_type_id":"4","last_reported":1739300769,"current_range_meters":38400,"station_id":"ce4bhk92rcd13ifvqgb0","pricing_plan_id":"cebpf4jnsgd1na2vs0mg"},{"bike_id":"76b13f4c-f6c9-4372-82e8-1f33170e1c5d","system_id":"levelo_inurba_marseille","lat":43.28473,"lon":5.38414,"is_reserved":false,"is_disabled":false,"rental_uris":{"android":"levelo://app?vid=76b13f4c-f6c9-4372-82e8-1f33170e1c5d","ios":"levelo://app?vid=76b13f4c-f6c9-4372-82e8-1f33170e1c5d"},"vehicle_type_id":"4","last_reported":1739300769,"current_range_meters":36400,"station_id":"ce4bh512rcd13ifvqe3g","pricing_plan_id":"cebpf4jnsgd1na2vs0mg"},{"bike_id":"09a31e22-31a3-4a8b-a8f3-c6b84a9cc357","system_id":"levelo_inurba_marseille","lat":43.27558,"lon":5.38421,"is_reserved":false,"is_disabled":false,"rental_uris":{"android":"levelo://app?vid=09a31e22-31a3-4a8b-a8f3-c6b84a9cc357","ios":"levelo://app?vid=09a31e22-31a3-4a8b-a8f3-c6b84a9cc357"},"vehicle_type_id":"4","last_reported":1739300769,"current_range_meters":26800,"station_id":"ce4bhh92rcd13ifvqfi0","pricing_plan_id":"cebpf4jnsgd1na2vs0mg"},{"bike_id":"b7cfafc0-fba3-47fa-8c3d-d96c6bee1f7a","system_id":"levelo_inurba_marseille","lat":43.2441,"lon":5.37074,"is_reserved":false,"is_disabled":false,"rental_uris":{"android":"levelo://app?vid=b7cfafc0-fba3-47fa-8c3d-d96c6bee1f7a","ios":"levelo://app?vid=b7cfafc0-fba3-47fa-8c3d-d96c6bee1f7a"},"vehicle_type_id":"4","last_reported":1739300769,"current_range_meters":32800,"station_id":"ce4bhhh2rcd13ifvqfk0","pricing_plan_id":"cebpf4jnsgd1na2vs0mg"},{"bike_id":"9ba133ba-7b58-4607-8737-7fb5bce66e58","system_id":"levelo_inurba_marseille","lat":43.24396,"lon":5.37047,"is_reserved":false,"is_disabled":false,"rental_uris":{"android":"levelo://app?vid=9ba133ba-7b58-4607-8737-7fb5bce66e58","ios":"levelo://app?vid=9ba133ba-7b58-4607-8737-7fb5bce66e58"},"vehicle_type_id":"4","last_reported":1739300769,"current_range_meters":38800,"station_id":"ce4bhhh2rcd13ifvqfk0","pricing_plan_id":"cebpf4jnsgd1na2vs0mg"},{"bike_id":"d0a2e3b7-3dff-44d4-bafe-c1b4d812c1fc","system_id":"levelo_inurba_marseille","lat":43.28074,"lon":5.3965,"is_reserved":false,"is_disabled":false,"rental_uris":{"android":"levelo://app?vid=d0a2e3b7-3dff-44d4-bafe-c1b4d812c1fc","ios":"levelo://app?vid=d0a2e3b7-3dff-44d4-bafe-c1b4d812c1fc"},"vehicle_type_id":"4","last_reported":1739300769,"current_range_meters":24400,"station_id":"ce4bho12rcd13ifvqh2g","pricing_plan_id":"cebpf4jnsgd1na2vs0mg"},{"bike_id":"f6e41f32-e235-432e-b657-0d4bc89c9b05","system_id":"levelo_inurba_marseille","lat":43.26559,"lon":5.37277,"is_reserved":false,"is_disabled":false,"rental_uris":{"android":"levelo://app?vid=f6e41f32-e235-432e-b657-0d4bc89c9b05","ios":"levelo://app?vid=f6e41f32-e235-432e-b657-0d4bc89c9b05"},"vehicle_type_id":"4","last_reported":1739300769,"current_range_meters":37600,"station_id":"ce4bhg12rcd13ifvqf70","pricing_plan_id":"cebpf4jnsgd1na2vs0mg"},{"bike_id":"13852333-758e-410b-bb6e-a82ae1bc3a77","system_id":"levelo_inurba_marseille","lat":43.28947,"lon":5.36634,"is_reserved":false,"is_disabled":false,"rental_uris":{"android":"levelo://app?vid=13852333-758e-410b-bb6e-a82ae1bc3a77","ios":"levelo://app?vid=13852333-758e-410b-bb6e-a82ae1bc3a77"},"vehicle_type_id":"4","last_reported":1739300769,"current_range_meters":38800,"station_id":"ce4bhap2rcd13ifvqek0","pricing_plan_id":"cebpf4jnsgd1na2vs0mg"},{"bike_id":"564e62ed-6a96-4af6-8451-bf74c09a94b4","system_id":"levelo_inurba_marseille","lat":43.29784,"lon":5.37101,"is_reserved":false,"is_disabled":false,"rental_uris":{"android":"levelo://app?vid=564e62ed-6a96-4af6-8451-bf74c09a94b4","ios":"levelo://app?vid=564e62ed-6a96-4af6-8451-bf74c09a94b4"},"vehicle_type_id":"4","last_reported":1739300769,"current_range_meters":11600,"station_id":"ce4bgop2rcd13ifvqc1g","pricing_plan_id":"cebpf4jnsgd1na2vs0mg"},{"bike_id":"14b2070b-6ddc-42e3-b1e8-9c0cbc081f72","system_id":"levelo_inurba_marseille","lat":43.3373,"lon":5.39179,"is_reserved":false,"is_disabled":false,"rental_uris":{"android":"levelo://app?vid=14b2070b-6ddc-42e3-b1e8-9c0cbc081f72","ios":"levelo://app?vid=14b2070b-6ddc-42e3-b1e8-9c0cbc081f72"},"vehicle_type_id":"4","last_reported":1739300769,"current_range_meters":38800,"station_id":"ce4bhr92rcd13ifvqhsg","pricing_plan_id":"cebpf4jnsgd1na2vs0mg"},{"bike_id":"a4ffd37d-e603-4662-a8c5-11a265291ed9","system_id":"levelo_inurba_marseille","lat":43.28928,"lon":5.36371,"is_reserved":false,"is_disabled":false,"rental_uris":{"android":"levelo://app?vid=a4ffd37d-e603-4662-a8c5-11a265291ed9","ios":"levelo://app?vid=a4ffd37d-e603-4662-a8c5-11a265291ed9"},"vehicle_type_id":"4","last_reported":1739300769,"current_range_meters":32800,"station_id":"ce4bhc92rcd13ifvqetg","pricing_plan_id":"cebpf4jnsgd1na2vs0mg"},{"bike_id":"3ad78980-d954-4439-b88d-56e0dcfe7b89","system_id":"levelo_inurba_marseille","lat":43.23966,"lon":5.36628,"is_reserved":false,"is_disabled":false,"rental_uris":{"android":"levelo://app?vid=3ad78980-d954-4439-b88d-56e0dcfe7b89","ios":"levelo://app?vid=3ad78980-d954-4439-b88d-56e0dcfe7b89"},"vehicle_type_id":"4","last_reported":1739300769,"current_range_meters":8800,"station_id":"ce4bhi12rcd13ifvqfp0","pricing_plan_id":"cebpf4jnsgd1na2vs0mg"},{"bike_id":"ffc948c6-4800-4369-82f3-5d6cb3d64131","system_id":"levelo_inurba_marseille","lat":43.28655,"lon":5.36357,"is_reserved":false,"is_disabled":false,"rental_uris":{"android":"levelo://app?vid=ffc948c6-4800-4369-82f3-5d6cb3d64131","ios":"levelo://app?vid=ffc948c6-4800-4369-82f3-5d6cb3d64131"},"vehicle_type_id":"4","last_reported":1739300769,"current_range_meters":28800,"station_id":"ce4bhah2rcd13ifvqej0","pricing_plan_id":"cebpf4jnsgd1na2vs0mg"},{"bike_id":"46db1648-ba2a-4dfb-a6c4-3b2d857c956e","system_id":"levelo_inurba_marseille","lat":43.29521,"lon":5.39045,"is_reserved":false,"is_disabled":false,"rental_uris":{"android":"levelo://app?vid=46db1648-ba2a-4dfb-a6c4-3b2d857c956e","ios":"levelo://app?vid=46db1648-ba2a-4dfb-a6c4-3b2d857c956e"},"vehicle_type_id":"4","last_reported":1739300769,"current_range_meters":24000,"station_id":"ce4bh3p2rcd13ifvqdp0","pricing_plan_id":"cebpf4jnsgd1na2vs0mg"},{"bike_id":"72dcdbd8-6454-45d9-a70f-b140c9e866d2","system_id":"levelo_inurba_marseille","lat":43.29895,"lon":5.43669,"is_reserved":false,"is_disabled":false,"rental_uris":{"android":"levelo://app?vid=72dcdbd8-6454-45d9-a70f-b140c9e866d2","ios":"levelo://app?vid=72dcdbd8-6454-45d9-a70f-b140c9e866d2"},"vehicle_type_id":"4","last_reported":1739300769,"current_range_meters":36400,"station_id":"ce4bhpp2rcd13ifvqhfg","pricing_plan_id":"cebpf4jnsgd1na2vs0mg"},{"bike_id":"8efd2559-7d32-42b8-a57a-099013eda913","system_id":"levelo_inurba_marseille","lat":43.28937,"lon":5.39635,"is_reserved":false,"is_disabled":false,"rental_uris":{"android":"levelo://app?vid=8efd2559-7d32-42b8-a57a-099013eda913","ios":"levelo://app?vid=8efd2559-7d32-42b8-a57a-099013eda913"},"vehicle_type_id":"4","last_reported":1739300769,"current_range_meters":29600,"station_id":"ce4bh3h2rcd13ifvqdn0","pricing_plan_id":"cebpf4jnsgd1na2vs0mg"},{"bike_id":"df261818-8029-4ed2-81a8-fa75cc5b4e7a","system_id":"levelo_inurba_marseille","lat":43.33017,"lon":5.3904,"is_reserved":false,"is_disabled":false,"rental_uris":{"android":"levelo://app?vid=df261818-8029-4ed2-81a8-fa75cc5b4e7a","ios":"levelo://app?vid=df261818-8029-4ed2-81a8-fa75cc5b4e7a"},"vehicle_type_id":"4","last_reported":1739300769,"current_range_meters":38400,"station_id":"ce4bhr92rcd13ifvqhrg","pricing_plan_id":"cebpf4jnsgd1na2vs0mg"},{"bike_id":"a59b1799-366c-4f90-b175-fea2f17ac49c","system_id":"levelo_inurba_marseille","lat":43.30547,"lon":5.36721,"is_reserved":false,"is_disabled":false,"rental_uris":{"android":"levelo://app?vid=a59b1799-366c-4f90-b175-fea2f17ac49c","ios":"levelo://app?vid=a59b1799-366c-4f90-b175-fea2f17ac49c"},"vehicle_type_id":"4","last_reported":1739300769,"current_range_meters":35600,"station_id":"ce4bgrp2rcd13ifvqc9g","pricing_plan_id":"cebpf4jnsgd1na2vs0mg"},{"bike_id":"201b14f4-65c7-45ff-8010-fe136e6675ac","system_id":"levelo_inurba_marseille","lat":43.24148,"lon":5.39711,"is_reserved":false,"is_disabled":false,"rental_uris":{"android":"levelo://app?vid=201b14f4-65c7-45ff-8010-fe136e6675ac","ios":"levelo://app?vid=201b14f4-65c7-45ff-8010-fe136e6675ac"},"vehicle_type_id":"4","last_reported":1739300769,"current_range_meters":24800,"station_id":"ce4bhn12rcd13ifvqgpg","pricing_plan_id":"cebpf4jnsgd1na2vs0mg"},{"bike_id":"3cec7d93-7a9e-4977-a3e7-c4380fcb63b0","system_id":"levelo_inurba_marseille","lat":43.30135,"lon":5.39875,"is_reserved":false,"is_disabled":false,"rental_uris":{"android":"levelo://app?vid=3cec7d93-7a9e-4977-a3e7-c4380fcb63b0","ios":"levelo://app?vid=3cec7d93-7a9e-4977-a3e7-c4380fcb63b0"},"vehicle_type_id":"4","last_reported":1739300769,"current_range_meters":38800,"station_id":"ce4bh0h2rcd13ifvqd40","pricing_plan_id":"cebpf4jnsgd1na2vs0mg"},{"bike_id":"9207b0f3-9707-4707-b4f6-b2339a5ec8ff","system_id":"levelo_inurba_marseille","lat":43.28155,"lon":5.42652,"is_reserved":false,"is_disabled":false,"rental_uris":{"android":"levelo://app?vid=9207b0f3-9707-4707-b4f6-b2339a5ec8ff","ios":"levelo://app?vid=9207b0f3-9707-4707-b4f6-b2339a5ec8ff"},"vehicle_type_id":"4","last_reported":1739300769,"current_range_meters":35600,"station_id":"ce4bhnh2rcd13ifvqgug","pricing_plan_id":"cebpf4jnsgd1na2vs0mg"},{"bike_id":"0408935a-760d-44c9-be47-7e6f5b7ada00","system_id":"levelo_inurba_marseille","lat":43.28477,"lon":5.3843,"is_reserved":false,"is_disabled":true,"rental_uris":{"android":"levelo://app?vid=0408935a-760d-44c9-be47-7e6f5b7ada00","ios":"levelo://app?vid=0408935a-760d-44c9-be47-7e6f5b7ada00"},"vehicle_type_id":"4","last_reported":1739300769,"current_range_meters":1600,"station_id":"ce4bh512rcd13ifvqe3g","pricing_plan_id":"cebpf4jnsgd1na2vs0mg"},{"bike_id":"56533ae9-01e0-4fbd-a2eb-8ec6e6269a75","system_id":"levelo_inurba_marseille","lat":43.27057,"lon":5.40271,"is_reserved":false,"is_disabled":false,"rental_uris":{"android":"levelo://app?vid=56533ae9-01e0-4fbd-a2eb-8ec6e6269a75","ios":"levelo://app?vid=56533ae9-01e0-4fbd-a2eb-8ec6e6269a75"},"vehicle_type_id":"4","last_reported":1739300769,"current_range_meters":25200,"station_id":"ce4bhk92rcd13ifvqgc0","pricing_plan_id":"cebpf4jnsgd1na2vs0mg"},{"bike_id":"7c71ad91-930b-4856-a3a6-b776fe0ad731","system_id":"levelo_inurba_marseille","lat":43.29705,"lon":5.36607,"is_reserved":false,"is_disabled":false,"rental_uris":{"android":"levelo://app?vid=7c71ad91-930b-4856-a3a6-b776fe0ad731","ios":"levelo://app?vid=7c71ad91-930b-4856-a3a6-b776fe0ad731"},"vehicle_type_id":"4","last_reported":1739300769,"current_range_meters":39200,"station_id":"ce4bgn12rcd13ifvqbt0","pricing_plan_id":"cebpf4jnsgd1na2vs0mg"},{"bike_id":"ddbfc913-16cf-4d9f-a892-35d08e1e6767","system_id":"levelo_inurba_marseille","lat":43.29593,"lon":5.36741,"is_reserved":false,"is_disabled":false,"rental_uris":{"android":"levelo://app?vid=ddbfc913-16cf-4d9f-a892-35d08e1e6767","ios":"levelo://app?vid=ddbfc913-16cf-4d9f-a892-35d08e1e6767"},"vehicle_type_id":"4","last_reported":1739300769,"current_range_meters":14800,"station_id":"ce4bgph2rcd13ifvqc2g","pricing_plan_id":"cebpf4jnsgd1na2vs0mg"},{"bike_id":"8743d68f-c109-4bec-b7f2-a8e08c57a8b4","system_id":"levelo_inurba_marseille","lat":43.29279,"lon":5.3741,"is_reserved":false,"is_disabled":false,"rental_uris":{"android":"levelo://app?vid=8743d68f-c109-4bec-b7f2-a8e08c57a8b4","ios":"levelo://app?vid=8743d68f-c109-4bec-b7f2-a8e08c57a8b4"},"vehicle_type_id":"4","last_reported":1739300769,"current_range_meters":24800,"station_id":"ce4bgi12rcd13ifvqb70","pricing_plan_id":"cebpf4jnsgd1na2vs0mg"},{"bike_id":"2f9bd2bf-a185-422b-bd75-db406051386b","system_id":"levelo_inurba_marseille","lat":43.28454,"lon":5.38437,"is_reserved":false,"is_disabled":false,"rental_uris":{"android":"levelo://app?vid=2f9bd2bf-a185-422b-bd75-db406051386b","ios":"levelo://app?vid=2f9bd2bf-a185-422b-bd75-db406051386b"},"vehicle_type_id":"4","last_reported":1739300769,"current_range_meters":38800,"station_id":"ce4bh512rcd13ifvqe3g","pricing_plan_id":"cebpf4jnsgd1na2vs0mg"},{"bike_id":"83a2a506-9d34-46d4-9534-d25047a14e5f","system_id":"levelo_inurba_marseille","lat":43.28004,"lon":5.40001,"is_reserved":false,"is_disabled":false,"rental_uris":{"android":"levelo://app?vid=83a2a506-9d34-46d4-9534-d25047a14e5f","ios":"levelo://app?vid=83a2a506-9d34-46d4-9534-d25047a14e5f"},"vehicle_type_id":"4","last_reported":1739300769,"current_range_meters":37600,"station_id":"ce4bho92rcd13ifvqh4g","pricing_plan_id":"cebpf4jnsgd1na2vs0mg"},{"bike_id":"c2250f20-2283-4e17-b7ce-382f2f740aa1","system_id":"levelo_inurba_marseille","lat":43.24808,"lon":5.37451,"is_reserved":false,"is_disabled":false,"rental_uris":{"android":"levelo://app?vid=c2250f20-2283-4e17-b7ce-382f2f740aa1","ios":"levelo://app?vid=c2250f20-2283-4e17-b7ce-382f2f740aa1"},"vehicle_type_id":"4","last_reported":1739300769,"current_range_meters":38800,"station_id":"ce4bhgh2rcd13ifvqfb0","pricing_plan_id":"cebpf4jnsgd1na2vs0mg"},{"bike_id":"2ba57bae-d489-49e7-95d5-93a9bbd24d80","system_id":"levelo_inurba_marseille","lat":43.2959,"lon":5.38112,"is_reserved":false,"is_disabled":false,"rental_uris":{"android":"levelo://app?vid=2ba57bae-d489-49e7-95d5-93a9bbd24d80","ios":"levelo://app?vid=2ba57bae-d489-49e7-95d5-93a9bbd24d80"},"vehicle_type_id":"4","last_reported":1739300769,"current_range_meters":36000,"station_id":"ce4bgl12rcd13ifvqbo0","pricing_plan_id":"cebpf4jnsgd1na2vs0mg"},{"bike_id":"a7553041-8337-41cf-859f-54b65f7556fc","system_id":"levelo_inurba_marseille","lat":43.26811,"lon":5.40256,"is_reserved":false,"is_disabled":false,"rental_uris":{"android":"levelo://app?vid=a7553041-8337-41cf-859f-54b65f7556fc","ios":"levelo://app?vid=a7553041-8337-41cf-859f-54b65f7556fc"},"vehicle_type_id":"4","last_reported":1739300769,"current_range_meters":28000,"station_id":"ce501612rcd8frsf0b60","pricing_plan_id":"cebpf4jnsgd1na2vs0mg"},{"bike_id":"262ce541-9c47-46ff-851a-2379d8e9c9cc","system_id":"levelo_inurba_marseille","lat":43.27436,"lon":5.3941,"is_reserved":false,"is_disabled":false,"rental_uris":{"android":"levelo://app?vid=262ce541-9c47-46ff-851a-2379d8e9c9cc","ios":"levelo://app?vid=262ce541-9c47-46ff-851a-2379d8e9c9cc"},"vehicle_type_id":"4","last_reported":1739300769,"current_range_meters":38800,"station_id":"ce4bhdp2rcd13ifvqf20","pricing_plan_id":"cebpf4jnsgd1na2vs0mg"},{"bike_id":"baf358ae-086d-4010-83ca-6eb774131dfe","system_id":"levelo_inurba_marseille","lat":43.29013,"lon":5.38606,"is_reserved":false,"is_disabled":false,"rental_uris":{"android":"levelo://app?vid=baf358ae-086d-4010-83ca-6eb774131dfe","ios":"levelo://app?vid=baf358ae-086d-4010-83ca-6eb774131dfe"},"vehicle_type_id":"4","last_reported":1739300769,"current_range_meters":8000,"station_id":"ce4bh4p2rcd13ifvqe0g","pricing_plan_id":"cebpf4jnsgd1na2vs0mg"},{"bike_id":"8aaacf93-7a76-463b-82dc-340e7efb76fd","system_id":"levelo_inurba_marseille","lat":43.29828,"lon":5.40386,"is_reserved":false,"is_disabled":false,"rental_uris":{"android":"levelo://app?vid=8aaacf93-7a76-463b-82dc-340e7efb76fd","ios":"levelo://app?vid=8aaacf93-7a76-463b-82dc-340e7efb76fd"},"vehicle_type_id":"4","last_reported":1739300769,"current_range_meters":38800,"station_id":"ce4bh112rcd13ifvqd90","pricing_plan_id":"cebpf4jnsgd1na2vs0mg"},{"bike_id":"f85fd452-5bde-4296-ab83-dac7111c9b77","system_id":"levelo_inurba_marseille","lat":43.32522,"lon":5.41509,"is_reserved":false,"is_disabled":false,"rental_uris":{"android":"levelo://app?vid=f85fd452-5bde-4296-ab83-dac7111c9b77","ios":"levelo://app?vid=f85fd452-5bde-4296-ab83-dac7111c9b77"},"vehicle_type_id":"4","last_reported":1739300769,"current_range_meters":38000,"station_id":"","pricing_plan_id":"cebpf4jnsgd1na2vs0mg"},{"bike_id":"feb3e2f3-9d72-4c1f-a6c4-e04f79121ad4","system_id":"levelo_inurba_marseille","lat":43.29506,"lon":5.3939,"is_reserved":false,"is_disabled":false,"rental_uris":{"android":"levelo://app?vid=feb3e2f3-9d72-4c1f-a6c4-e04f79121ad4","ios":"levelo://app?vid=feb3e2f3-9d72-4c1f-a6c4-e04f79121ad4"},"vehicle_type_id":"4","last_reported":1739300769,"current_range_meters":10000,"station_id":"ce4bh292rcd13ifvqdf0","pricing_plan_id":"cebpf4jnsgd1na2vs0mg"},{"bike_id":"319046cf-5a5f-4323-bef8-22ebe532c602","system_id":"levelo_inurba_marseille","lat":43.28845,"lon":5.39308,"is_reserved":false,"is_disabled":false,"rental_uris":{"android":"levelo://app?vid=319046cf-5a5f-4323-bef8-22ebe532c602","ios":"levelo://app?vid=319046cf-5a5f-4323-bef8-22ebe532c602"},"vehicle_type_id":"4","last_reported":1739300769,"current_range_meters":38800,"station_id":"ce4bh2p2rcd13ifvqdi0","pricing_plan_id":"cebpf4jnsgd1na2vs0mg"},{"bike_id":"40c8a688-58f2-44ef-8f91-ac265ecb16b2","system_id":"levelo_inurba_marseille","lat":43.25578,"lon":5.38244,"is_reserved":false,"is_disabled":false,"rental_uris":{"android":"levelo://app?vid=40c8a688-58f2-44ef-8f91-ac265ecb16b2","ios":"levelo://app?vid=40c8a688-58f2-44ef-8f91-ac265ecb16b2"},"vehicle_type_id":"4","last_reported":1739300769,"current_range_meters":15200,"station_id":"ce4bhih2rcd13ifvqfs0","pricing_plan_id":"cebpf4jnsgd1na2vs0mg"},{"bike_id":"9a93db9b-120b-491e-af45-3d0cb1482324","system_id":"levelo_inurba_marseille","lat":43.29706,"lon":5.37691,"is_reserved":false,"is_disabled":false,"rental_uris":{"android":"levelo://app?vid=9a93db9b-120b-491e-af45-3d0cb1482324","ios":"levelo://app?vid=9a93db9b-120b-491e-af45-3d0cb1482324"},"vehicle_type_id":"4","last_reported":1739300769,"current_range_meters":24800,"station_id":"ce4bgkh2rcd13ifvqbl0","pricing_plan_id":"cebpf4jnsgd1na2vs0mg"},{"bike_id":"c66b0c10-3fd0-4fdf-90ff-239fa926541d","system_id":"levelo_inurba_marseille","lat":43.26932,"lon":5.40245,"is_reserved":false,"is_disabled":false,"rental_uris":{"android":"levelo://app?vid=c66b0c10-3fd0-4fdf-90ff-239fa926541d","ios":"levelo://app?vid=c66b0c10-3fd0-4fdf-90ff-239fa926541d"},"vehicle_type_id":"4","last_reported":1739300769,"current_range_meters":20800,"station_id":"cjm6bp8fraef2m0cb0m0","pricing_plan_id":"cebpf4jnsgd1na2vs0mg"},{"bike_id":"64387a61-7414-453e-8131-28fa15536541","system_id":"levelo_inurba_marseille","lat":43.25866,"lon":5.39894,"is_reserved":false,"is_disabled":false,"rental_uris":{"android":"levelo://app?vid=64387a61-7414-453e-8131-28fa15536541","ios":"levelo://app?vid=64387a61-7414-453e-8131-28fa15536541"},"vehicle_type_id":"4","last_reported":1739300769,"current_range_meters":9200,"station_id":"ce4bhl92rcd13ifvqghg","pricing_plan_id":"cebpf4jnsgd1na2vs0mg"},{"bike_id":"80d8f8d9-548b-4905-909d-a96c3026f0b3","system_id":"levelo_inurba_marseille","lat":43.29536,"lon":5.394,"is_reserved":false,"is_disabled":false,"rental_uris":{"android":"levelo://app?vid=80d8f8d9-548b-4905-909d-a96c3026f0b3","ios":"levelo://app?vid=80d8f8d9-548b-4905-909d-a96c3026f0b3"},"vehicle_type_id":"4","last_reported":1739300769,"current_range_meters":34000,"station_id":"ce4bh292rcd13ifvqdf0","pricing_plan_id":"cebpf4jnsgd1na2vs0mg"},{"bike_id":"1d2000e3-6e82-4c8d-9a0a-5d8181e36eb3","system_id":"levelo_inurba_marseille","lat":43.24999,"lon":5.38912,"is_reserved":false,"is_disabled":false,"rental_uris":{"android":"levelo://app?vid=1d2000e3-6e82-4c8d-9a0a-5d8181e36eb3","ios":"levelo://app?vid=1d2000e3-6e82-4c8d-9a0a-5d8181e36eb3"},"vehicle_type_id":"4","last_reported":1739300769,"current_range_meters":38800,"station_id":"ce4bhgp2rcd13ifvqfd0","pricing_plan_id":"cebpf4jnsgd1na2vs0mg"},{"bike_id":"ad1132e5-698d-42b0-a3e6-6ac75510d87b","system_id":"levelo_inurba_marseille","lat":43.28852,"lon":5.35856,"is_reserved":false,"is_disabled":false,"rental_uris":{"android":"levelo://app?vid=ad1132e5-698d-42b0-a3e6-6ac75510d87b","ios":"levelo://app?vid=ad1132e5-698d-42b0-a3e6-6ac75510d87b"},"vehicle_type_id":"4","last_reported":1739300769,"current_range_meters":29600,"station_id":"ce4bhb12rcd13ifvqem0","pricing_plan_id":"cebpf4jnsgd1na2vs0mg"},{"bike_id":"a69e567e-3774-43da-9871-c9cd59263ec8","system_id":"levelo_inurba_marseille","lat":43.288391,"lon":5.392483,"is_reserved":false,"is_disabled":true,"rental_uris":{"android":"levelo://app?vid=a69e567e-3774-43da-9871-c9cd59263ec8","ios":"levelo://app?vid=a69e567e-3774-43da-9871-c9cd59263ec8"},"vehicle_type_id":"4","last_reported":1739300769,"current_range_meters":33600,"station_id":"","pricing_plan_id":"cebpf4jnsgd1na2vs0mg"},{"bike_id":"f9c11b44-8bf9-47f2-bed4-4a14f8aa05cc","system_id":"levelo_inurba_marseille","lat":43.29163,"lon":5.37162,"is_reserved":false,"is_disabled":false,"rental_uris":{"android":"levelo://app?vid=f9c11b44-8bf9-47f2-bed4-4a14f8aa05cc","ios":"levelo://app?vid=f9c11b44-8bf9-47f2-bed4-4a14f8aa05cc"},"vehicle_type_id":"4","last_reported":1739300769,"current_range_meters":27600,"station_id":"ce4bha92rcd13ifvqeh0","pricing_plan_id":"cebpf4jnsgd1na2vs0mg"},{"bike_id":"e673b253-bd7c-45ce-a06f-ff88a62a7e4e","system_id":"levelo_inurba_marseille","lat":43.30147,"lon":5.3808,"is_reserved":false,"is_disabled":false,"rental_uris":{"android":"levelo://app?vid=e673b253-bd7c-45ce-a06f-ff88a62a7e4e","ios":"levelo://app?vid=e673b253-bd7c-45ce-a06f-ff88a62a7e4e"},"vehicle_type_id":"4","last_reported":1739300769,"current_range_meters":38400,"station_id":"ce4bgjp2rcd13ifvqbh0","pricing_plan_id":"cebpf4jnsgd1na2vs0mg"},{"bike_id":"114230f1-fda9-4a9e-962b-4f7a3ae198a2","system_id":"levelo_inurba_marseille","lat":43.27422,"lon":5.39401,"is_reserved":false,"is_disabled":false,"rental_uris":{"android":"levelo://app?vid=114230f1-fda9-4a9e-962b-4f7a3ae198a2","ios":"levelo://app?vid=114230f1-fda9-4a9e-962b-4f7a3ae198a2"},"vehicle_type_id":"4","last_reported":1739300769,"current_range_meters":38800,"station_id":"ce4bhdp2rcd13ifvqf20","pricing_plan_id":"cebpf4jnsgd1na2vs0mg"},{"bike_id":"84aec1b6-36ec-4799-8966-edcc3507b2df","system_id":"levelo_inurba_marseille","lat":43.30207,"lon":5.39459,"is_reserved":false,"is_disabled":false,"rental_uris":{"android":"levelo://app?vid=84aec1b6-36ec-4799-8966-edcc3507b2df","ios":"levelo://app?vid=84aec1b6-36ec-4799-8966-edcc3507b2df"},"vehicle_type_id":"4","last_reported":1739300769,"current_range_meters":25600,"station_id":"ce4bh0p2rcd13ifvqd70","pricing_plan_id":"cebpf4jnsgd1na2vs0mg"},{"bike_id":"f370e622-b28e-4afc-8892-3e78caaa7e19","system_id":"levelo_inurba_marseille","lat":43.29038,"lon":5.39956,"is_reserved":false,"is_disabled":true,"rental_uris":{"android":"levelo://app?vid=f370e622-b28e-4afc-8892-3e78caaa7e19","ios":"levelo://app?vid=f370e622-b28e-4afc-8892-3e78caaa7e19"},"vehicle_type_id":"4","last_reported":1739300769,"current_range_meters":38800,"station_id":"ce4bh392rcd13ifvqdm0","pricing_plan_id":"cebpf4jnsgd1na2vs0mg"},{"bike_id":"8f958795-1d0e-4a72-96cf-46fac3cf00bf","system_id":"levelo_inurba_marseille","lat":43.25513,"lon":5.39409,"is_reserved":false,"is_disabled":false,"rental_uris":{"android":"levelo://app?vid=8f958795-1d0e-4a72-96cf-46fac3cf00bf","ios":"levelo://app?vid=8f958795-1d0e-4a72-96cf-46fac3cf00bf"},"vehicle_type_id":"4","last_reported":1739300769,"current_range_meters":27200,"station_id":"","pricing_plan_id":"cebpf4jnsgd1na2vs0mg"},{"bike_id":"e610e16a-fcef-40f5-91c1-9e10b63c48e9","system_id":"levelo_inurba_marseille","lat":43.30313,"lon":5.3921,"is_reserved":false,"is_disabled":false,"rental_uris":{"android":"levelo://app?vid=e610e16a-fcef-40f5-91c1-9e10b63c48e9","ios":"levelo://app?vid=e610e16a-fcef-40f5-91c1-9e10b63c48e9"},"vehicle_type_id":"4","last_reported":1739300769,"current_range_meters":33200,"station_id":"ce4bgkh2rcd13ifvqbk0","pricing_plan_id":"cebpf4jnsgd1na2vs0mg"},{"bike_id":"7d53cd04-03c8-428a-b4fb-0e771333a4f5","system_id":"levelo_inurba_marseille","lat":43.24805,"lon":5.3745,"is_reserved":false,"is_disabled":false,"rental_uris":{"android":"levelo://app?vid=7d53cd04-03c8-428a-b4fb-0e771333a4f5","ios":"levelo://app?vid=7d53cd04-03c8-428a-b4fb-0e771333a4f5"},"vehicle_type_id":"4","last_reported":1739300769,"current_range_meters":38800,"station_id":"ce4bhgh2rcd13ifvqfb0","pricing_plan_id":"cebpf4jnsgd1na2vs0mg"},{"bike_id":"04d4b8ab-1d4d-44ab-9d49-e10f569c0553","system_id":"levelo_inurba_marseille","lat":43.29839,"lon":5.36263,"is_reserved":false,"is_disabled":false,"rental_uris":{"android":"levelo://app?vid=04d4b8ab-1d4d-44ab-9d49-e10f569c0553","ios":"levelo://app?vid=04d4b8ab-1d4d-44ab-9d49-e10f569c0553"},"vehicle_type_id":"4","last_reported":1739300769,"current_range_meters":37600,"station_id":"ce4bgpp2rcd13ifvqc3g","pricing_plan_id":"cebpf4jnsgd1na2vs0mg"},{"bike_id":"1aa20f28-8d10-4408-8fc5-fd6e535e6f55","system_id":"levelo_inurba_marseille","lat":43.30792,"lon":5.43523,"is_reserved":false,"is_disabled":false,"rental_uris":{"android":"levelo://app?vid=1aa20f28-8d10-4408-8fc5-fd6e535e6f55","ios":"levelo://app?vid=1aa20f28-8d10-4408-8fc5-fd6e535e6f55"},"vehicle_type_id":"4","last_reported":1739300769,"current_range_meters":38800,"station_id":"ce4bhph2rcd13ifvqheg","pricing_plan_id":"cebpf4jnsgd1na2vs0mg"},{"bike_id":"31ef7217-bcfe-43ce-b994-2ac5b1fe87c2","system_id":"levelo_inurba_marseille","lat":43.25718,"lon":5.41105,"is_reserved":false,"is_disabled":true,"rental_uris":{"android":"levelo://app?vid=31ef7217-bcfe-43ce-b994-2ac5b1fe87c2","ios":"levelo://app?vid=31ef7217-bcfe-43ce-b994-2ac5b1fe87c2"},"vehicle_type_id":"4","last_reported":1739300769,"current_range_meters":38800,"station_id":"ce4bhkp2rcd13ifvqgd0","pricing_plan_id":"cebpf4jnsgd1na2vs0mg"},{"bike_id":"90037e4a-a934-46fa-8514-6ab0532a1c0b","system_id":"levelo_inurba_marseille","lat":43.27893,"lon":5.41185,"is_reserved":false,"is_disabled":false,"rental_uris":{"android":"levelo://app?vid=90037e4a-a934-46fa-8514-6ab0532a1c0b","ios":"levelo://app?vid=90037e4a-a934-46fa-8514-6ab0532a1c0b"},"vehicle_type_id":"4","last_reported":1739300769,"current_range_meters":38800,"station_id":"","pricing_plan_id":"cebpf4jnsgd1na2vs0mg"},{"bike_id":"f932d24c-81a6-4ca9-97d2-6b1cc3577a91","system_id":"levelo_inurba_marseille","lat":43.33595,"lon":5.41011,"is_reserved":false,"is_disabled":false,"rental_uris":{"android":"levelo://app?vid=f932d24c-81a6-4ca9-97d2-6b1cc3577a91","ios":"levelo://app?vid=f932d24c-81a6-4ca9-97d2-6b1cc3577a91"},"vehicle_type_id":"4","last_reported":1739300769,"current_range_meters":37600,"station_id":"ce4bhqh2rcd13ifvqhmg","pricing_plan_id":"cebpf4jnsgd1na2vs0mg"},{"bike_id":"c4813b27-4250-43ea-8be5-ccd7321d2af3","system_id":"levelo_inurba_marseille","lat":43.282284,"lon":5.369885,"is_reserved":false,"is_disabled":false,"rental_uris":{"android":"levelo://app?vid=c4813b27-4250-43ea-8be5-ccd7321d2af3","ios":"levelo://app?vid=c4813b27-4250-43ea-8be5-ccd7321d2af3"},"vehicle_type_id":"4","last_reported":1739300769,"current_range_meters":20400,"station_id":"","pricing_plan_id":"cebpf4jnsgd1na2vs0mg"},{"bike_id":"474540ea-c773-4a3c-b2e5-439d2cba2436","system_id":"levelo_inurba_marseille","lat":43.29971,"lon":5.385,"is_reserved":false,"is_disabled":false,"rental_uris":{"android":"levelo://app?vid=474540ea-c773-4a3c-b2e5-439d2cba2436","ios":"levelo://app?vid=474540ea-c773-4a3c-b2e5-439d2cba2436"},"vehicle_type_id":"4","last_reported":1739300769,"current_range_meters":32400,"station_id":"ce4bgj92rcd13ifvqbd0","pricing_plan_id":"cebpf4jnsgd1na2vs0mg"},{"bike_id":"336a8004-bc8a-4425-9029-c2c7e82e23ba","system_id":"levelo_inurba_marseille","lat":43.28698,"lon":5.373989,"is_reserved":false,"is_disabled":false,"rental_uris":{"android":"levelo://app?vid=336a8004-bc8a-4425-9029-c2c7e82e23ba","ios":"levelo://app?vid=336a8004-bc8a-4425-9029-c2c7e82e23ba"},"vehicle_type_id":"4","last_reported":1739300769,"current_range_meters":34800,"station_id":"ce4bh3p2rcd13ifvqdq0","pricing_plan_id":"cebpf4jnsgd1na2vs0mg"},{"bike_id":"42f49824-5dbd-4245-b0ef-e9b83256b3c9","system_id":"levelo_inurba_marseille","lat":43.27966,"lon":5.41035,"is_reserved":false,"is_disabled":true,"rental_uris":{"android":"levelo://app?vid=42f49824-5dbd-4245-b0ef-e9b83256b3c9","ios":"levelo://app?vid=42f49824-5dbd-4245-b0ef-e9b83256b3c9"},"vehicle_type_id":"4","last_reported":1739300769,"current_range_meters":22800,"station_id":"ce4bhnp2rcd13ifvqh0g","pricing_plan_id":"cebpf4jnsgd1na2vs0mg"},{"bike_id":"cd59f4ff-0812-4c8f-ae01-036ffad71a2a","system_id":"levelo_inurba_marseille","lat":43.28344,"lon":5.3809,"is_reserved":false,"is_disabled":false,"rental_uris":{"android":"levelo://app?vid=cd59f4ff-0812-4c8f-ae01-036ffad71a2a","ios":"levelo://app?vid=cd59f4ff-0812-4c8f-ae01-036ffad71a2a"},"vehicle_type_id":"4","last_reported":1739300769,"current_range_meters":22800,"station_id":"ce4bh412rcd13ifvqdr0","pricing_plan_id":"cebpf4jnsgd1na2vs0mg"},{"bike_id":"a05f883e-e3cb-44cd-9971-afa90a391160","system_id":"levelo_inurba_marseille","lat":43.2953,"lon":5.38547,"is_reserved":false,"is_disabled":false,"rental_uris":{"android":"levelo://app?vid=a05f883e-e3cb-44cd-9971-afa90a391160","ios":"levelo://app?vid=a05f883e-e3cb-44cd-9971-afa90a391160"},"vehicle_type_id":"4","last_reported":1739300769,"current_range_meters":10000,"station_id":"ce4bgih2rcd13ifvqba0","pricing_plan_id":"cebpf4jnsgd1na2vs0mg"},{"bike_id":"36ff92ad-ebc1-4fd8-8dd7-e924b8bea389","system_id":"levelo_inurba_marseille","lat":43.30487,"lon":5.379,"is_reserved":false,"is_disabled":true,"rental_uris":{"android":"levelo://app?vid=36ff92ad-ebc1-4fd8-8dd7-e924b8bea389","ios":"levelo://app?vid=36ff92ad-ebc1-4fd8-8dd7-e924b8bea389"},"vehicle_type_id":"4","last_reported":1739300769,"current_range_meters":22000,"station_id":"ce4bho92rcd13ifvqh3g","pricing_plan_id":"cebpf4jnsgd1na2vs0mg"},{"bike_id":"89989227-1c97-4085-ad79-5fb53c2c0083","system_id":"levelo_inurba_marseille","lat":43.2916,"lon":5.37155,"is_reserved":false,"is_disabled":false,"rental_uris":{"android":"levelo://app?vid=89989227-1c97-4085-ad79-5fb53c2c0083","ios":"levelo://app?vid=89989227-1c97-4085-ad79-5fb53c2c0083"},"vehicle_type_id":"4","last_reported":1739300769,"current_range_meters":39200,"station_id":"ce4bha92rcd13ifvqeh0","pricing_plan_id":"cebpf4jnsgd1na2vs0mg"},{"bike_id":"c6e9e330-1aab-422c-8245-ce8d62525fd3","system_id":"levelo_inurba_marseille","lat":43.28939,"lon":5.38389,"is_reserved":false,"is_disabled":false,"rental_uris":{"android":"levelo://app?vid=c6e9e330-1aab-422c-8245-ce8d62525fd3","ios":"levelo://app?vid=c6e9e330-1aab-422c-8245-ce8d62525fd3"},"vehicle_type_id":"4","last_reported":1739300769,"current_range_meters":38800,"station_id":"ce4bh612rcd13ifvqe6g","pricing_plan_id":"cebpf4jnsgd1na2vs0mg"},{"bike_id":"84d7bb12-e4ae-4f43-9da9-f0fd5e7e3cf0","system_id":"levelo_inurba_marseille","lat":43.29974,"lon":5.38498,"is_reserved":false,"is_disabled":false,"rental_uris":{"android":"levelo://app?vid=84d7bb12-e4ae-4f43-9da9-f0fd5e7e3cf0","ios":"levelo://app?vid=84d7bb12-e4ae-4f43-9da9-f0fd5e7e3cf0"},"vehicle_type_id":"4","last_reported":1739300769,"current_range_meters":16000,"station_id":"ce4bgj92rcd13ifvqbd0","pricing_plan_id":"cebpf4jnsgd1na2vs0mg"},{"bike_id":"260e9838-2399-4eb1-b0ca-e79e7c0785e4","system_id":"levelo_inurba_marseille","lat":43.29838,"lon":5.36268,"is_reserved":false,"is_disabled":false,"rental_uris":{"android":"levelo://app?vid=260e9838-2399-4eb1-b0ca-e79e7c0785e4","ios":"levelo://app?vid=260e9838-2399-4eb1-b0ca-e79e7c0785e4"},"vehicle_type_id":"4","last_reported":1739300769,"current_range_meters":12800,"station_id":"ce4bgpp2rcd13ifvqc3g","pricing_plan_id":"cebpf4jnsgd1na2vs0mg"},{"bike_id":"ec51a9f1-f61f-485d-bb7d-c6488e79e667","system_id":"levelo_inurba_marseille","lat":43.28945,"lon":5.36394,"is_reserved":false,"is_disabled":false,"rental_uris":{"android":"levelo://app?vid=ec51a9f1-f61f-485d-bb7d-c6488e79e667","ios":"levelo://app?vid=ec51a9f1-f61f-485d-bb7d-c6488e79e667"},"vehicle_type_id":"4","last_reported":1739300769,"current_range_meters":14400,"station_id":"ce4bhc92rcd13ifvqetg","pricing_plan_id":"cebpf4jnsgd1na2vs0mg"},{"bike_id":"841e0f04-b00a-44de-83b7-b9b92c40d93b","system_id":"levelo_inurba_marseille","lat":43.28159,"lon":5.42657,"is_reserved":false,"is_disabled":false,"rental_uris":{"android":"levelo://app?vid=841e0f04-b00a-44de-83b7-b9b92c40d93b","ios":"levelo://app?vid=841e0f04-b00a-44de-83b7-b9b92c40d93b"},"vehicle_type_id":"4","last_reported":1739300769,"current_range_meters":12000,"station_id":"ce4bhnh2rcd13ifvqgug","pricing_plan_id":"cebpf4jnsgd1na2vs0mg"},{"bike_id":"9cbaa20c-9d14-4164-8b2d-7af3c4e93015","system_id":"levelo_inurba_marseille","lat":43.2919,"lon":5.35803,"is_reserved":false,"is_disabled":false,"rental_uris":{"android":"levelo://app?vid=9cbaa20c-9d14-4164-8b2d-7af3c4e93015","ios":"levelo://app?vid=9cbaa20c-9d14-4164-8b2d-7af3c4e93015"},"vehicle_type_id":"4","last_reported":1739300769,"current_range_meters":38000,"station_id":"ce4bhb12rcd13ifvqel0","pricing_plan_id":"cebpf4jnsgd1na2vs0mg"},{"bike_id":"30c0885a-ee3f-424b-8753-d2f0c1a6c3c4","system_id":"levelo_inurba_marseille","lat":43.3171,"lon":5.3775,"is_reserved":false,"is_disabled":false,"rental_uris":{"android":"levelo://app?vid=30c0885a-ee3f-424b-8753-d2f0c1a6c3c4","ios":"levelo://app?vid=30c0885a-ee3f-424b-8753-d2f0c1a6c3c4"},"vehicle_type_id":"4","last_reported":1739300769,"current_range_meters":38800,"station_id":"ce4bgth2rcd13ifvqch0","pricing_plan_id":"cebpf4jnsgd1na2vs0mg"},{"bike_id":"4b6b0b16-5407-4589-8bdc-08d68497f267","system_id":"levelo_inurba_marseille","lat":43.25111,"lon":5.40326,"is_reserved":false,"is_disabled":false,"rental_uris":{"android":"levelo://app?vid=4b6b0b16-5407-4589-8bdc-08d68497f267","ios":"levelo://app?vid=4b6b0b16-5407-4589-8bdc-08d68497f267"},"vehicle_type_id":"4","last_reported":1739300769,"current_range_meters":38800,"station_id":"ce4bhlh2rcd13ifvqgig","pricing_plan_id":"cebpf4jnsgd1na2vs0mg"},{"bike_id":"d672dfd1-eb49-41bd-98e9-cf0079bce74f","system_id":"levelo_inurba_marseille","lat":43.31224,"lon":5.36875,"is_reserved":false,"is_disabled":false,"rental_uris":{"android":"levelo://app?vid=d672dfd1-eb49-41bd-98e9-cf0079bce74f","ios":"levelo://app?vid=d672dfd1-eb49-41bd-98e9-cf0079bce74f"},"vehicle_type_id":"4","last_reported":1739300769,"current_range_meters":38800,"station_id":"ce4bgl92rcd13ifvqbq0","pricing_plan_id":"cebpf4jnsgd1na2vs0mg"},{"bike_id":"bc992cde-f8bf-4786-a4be-324661e4add3","system_id":"levelo_inurba_marseille","lat":43.28106,"lon":5.37841,"is_reserved":false,"is_disabled":false,"rental_uris":{"android":"levelo://app?vid=bc992cde-f8bf-4786-a4be-324661e4add3","ios":"levelo://app?vid=bc992cde-f8bf-4786-a4be-324661e4add3"},"vehicle_type_id":"4","last_reported":1739300769,"current_range_meters":36400,"station_id":"ce4bha12rcd13ifvqee0","pricing_plan_id":"cebpf4jnsgd1na2vs0mg"},{"bike_id":"6164e2a4-a4f3-4822-a53e-f14ecefa128d","system_id":"levelo_inurba_marseille","lat":43.24664,"lon":5.38163,"is_reserved":false,"is_disabled":false,"rental_uris":{"android":"levelo://app?vid=6164e2a4-a4f3-4822-a53e-f14ecefa128d","ios":"levelo://app?vid=6164e2a4-a4f3-4822-a53e-f14ecefa128d"},"vehicle_type_id":"4","last_reported":1739300769,"current_range_meters":10800,"station_id":"ce4bhih2rcd13ifvqfr0","pricing_plan_id":"cebpf4jnsgd1na2vs0mg"},{"bike_id":"1ec14052-2d33-4aa1-9ab8-58cc71db74d1","system_id":"levelo_inurba_marseille","lat":43.24161,"lon":5.36393,"is_reserved":false,"is_disabled":false,"rental_uris":{"android":"levelo://app?vid=1ec14052-2d33-4aa1-9ab8-58cc71db74d1","ios":"levelo://app?vid=1ec14052-2d33-4aa1-9ab8-58cc71db74d1"},"vehicle_type_id":"4","last_reported":1739300769,"current_range_meters":12800,"station_id":"cpo36qri1sfpv3e86is0","pricing_plan_id":"cebpf4jnsgd1na2vs0mg"},{"bike_id":"13fd6954-4ae5-4859-ad37-025b5b090d34","system_id":"levelo_inurba_marseille","lat":43.29306,"lon":5.371652,"is_reserved":false,"is_disabled":false,"rental_uris":{"android":"levelo://app?vid=13fd6954-4ae5-4859-ad37-025b5b090d34","ios":"levelo://app?vid=13fd6954-4ae5-4859-ad37-025b5b090d34"},"vehicle_type_id":"4","last_reported":1739300769,"current_range_meters":28400,"station_id":"ce4bhnp2rcd13ifvqgvg","pricing_plan_id":"cebpf4jnsgd1na2vs0mg"},{"bike_id":"b3b45130-4456-4f49-a726-9923bcb61db7","system_id":"levelo_inurba_marseille","lat":43.26944,"lon":5.38647,"is_reserved":false,"is_disabled":false,"rental_uris":{"android":"levelo://app?vid=b3b45130-4456-4f49-a726-9923bcb61db7","ios":"levelo://app?vid=b3b45130-4456-4f49-a726-9923bcb61db7"},"vehicle_type_id":"4","last_reported":1739300769,"current_range_meters":38800,"station_id":"ce4bhh92rcd13ifvqfh0","pricing_plan_id":"cebpf4jnsgd1na2vs0mg"},{"bike_id":"ab904dd8-cfa7-4310-9e5a-d747386b9211","system_id":"levelo_inurba_marseille","lat":43.29971,"lon":5.37181,"is_reserved":false,"is_disabled":false,"rental_uris":{"android":"levelo://app?vid=ab904dd8-cfa7-4310-9e5a-d747386b9211","ios":"levelo://app?vid=ab904dd8-cfa7-4310-9e5a-d747386b9211"},"vehicle_type_id":"4","last_reported":1739300769,"current_range_meters":22800,"station_id":"ce4bgr92rcd13ifvqc7g","pricing_plan_id":"cebpf4jnsgd1na2vs0mg"},{"bike_id":"a8fc6373-236b-4c06-9d3b-2a6dce076200","system_id":"levelo_inurba_marseille","lat":43.33609,"lon":5.41032,"is_reserved":false,"is_disabled":false,"rental_uris":{"android":"levelo://app?vid=a8fc6373-236b-4c06-9d3b-2a6dce076200","ios":"levelo://app?vid=a8fc6373-236b-4c06-9d3b-2a6dce076200"},"vehicle_type_id":"4","last_reported":1739300769,"current_range_meters":14400,"station_id":"ce4bhqh2rcd13ifvqhmg","pricing_plan_id":"cebpf4jnsgd1na2vs0mg"},{"bike_id":"e859d2f4-21a5-41bf-aa12-2604d8d6afc4","system_id":"levelo_inurba_marseille","lat":43.29997,"lon":5.38491,"is_reserved":false,"is_disabled":false,"rental_uris":{"android":"levelo://app?vid=e859d2f4-21a5-41bf-aa12-2604d8d6afc4","ios":"levelo://app?vid=e859d2f4-21a5-41bf-aa12-2604d8d6afc4"},"vehicle_type_id":"4","last_reported":1739300769,"current_range_meters":28800,"station_id":"ce4bgj92rcd13ifvqbd0","pricing_plan_id":"cebpf4jnsgd1na2vs0mg"},{"bike_id":"29e90cc2-ff95-4fbf-a519-87260d0f12e5","system_id":"levelo_inurba_marseille","lat":43.31308,"lon":5.39702,"is_reserved":false,"is_disabled":true,"rental_uris":{"android":"levelo://app?vid=29e90cc2-ff95-4fbf-a519-87260d0f12e5","ios":"levelo://app?vid=29e90cc2-ff95-4fbf-a519-87260d0f12e5"},"vehicle_type_id":"4","last_reported":1739300769,"current_range_meters":0,"station_id":"ce4bgvp2rcd13ifvqcu0","pricing_plan_id":"cebpf4jnsgd1na2vs0mg"},{"bike_id":"79df8d93-a019-4f4d-ad9b-607d770a7910","system_id":"levelo_inurba_marseille","lat":43.29385,"lon":5.38897,"is_reserved":false,"is_disabled":false,"rental_uris":{"android":"levelo://app?vid=79df8d93-a019-4f4d-ad9b-607d770a7910","ios":"levelo://app?vid=79df8d93-a019-4f4d-ad9b-607d770a7910"},"vehicle_type_id":"4","last_reported":1739300769,"current_range_meters":25200,"station_id":"","pricing_plan_id":"cebpf4jnsgd1na2vs0mg"},{"bike_id":"fbb98623-bd6f-4427-9463-8f7fc3b3bd20","system_id":"levelo_inurba_marseille","lat":43.28036,"lon":5.36928,"is_reserved":false,"is_disabled":false,"rental_uris":{"android":"levelo://app?vid=fbb98623-bd6f-4427-9463-8f7fc3b3bd20","ios":"levelo://app?vid=fbb98623-bd6f-4427-9463-8f7fc3b3bd20"},"vehicle_type_id":"4","last_reported":1739300769,"current_range_meters":27600,"station_id":"ce4bha12rcd13ifvqef0","pricing_plan_id":"cebpf4jnsgd1na2vs0mg"},{"bike_id":"10a8a33b-62d6-4137-a5b2-ed208638ca88","system_id":"levelo_inurba_marseille","lat":43.29704,"lon":5.36604,"is_reserved":false,"is_disabled":false,"rental_uris":{"android":"levelo://app?vid=10a8a33b-62d6-4137-a5b2-ed208638ca88","ios":"levelo://app?vid=10a8a33b-62d6-4137-a5b2-ed208638ca88"},"vehicle_type_id":"4","last_reported":1739300769,"current_range_meters":39200,"station_id":"ce4bgn12rcd13ifvqbt0","pricing_plan_id":"cebpf4jnsgd1na2vs0mg"},{"bike_id":"c2e42187-4737-4380-bee7-dd3389d269c1","system_id":"levelo_inurba_marseille","lat":43.29532,"lon":5.39423,"is_reserved":false,"is_disabled":false,"rental_uris":{"android":"levelo://app?vid=c2e42187-4737-4380-bee7-dd3389d269c1","ios":"levelo://app?vid=c2e42187-4737-4380-bee7-dd3389d269c1"},"vehicle_type_id":"4","last_reported":1739300769,"current_range_meters":38000,"station_id":"ce4bh292rcd13ifvqdf0","pricing_plan_id":"cebpf4jnsgd1na2vs0mg"},{"bike_id":"d29e0285-811b-4779-b897-4a0f29c15d52","system_id":"levelo_inurba_marseille","lat":43.28355,"lon":5.38099,"is_reserved":false,"is_disabled":true,"rental_uris":{"android":"levelo://app?vid=d29e0285-811b-4779-b897-4a0f29c15d52","ios":"levelo://app?vid=d29e0285-811b-4779-b897-4a0f29c15d52"},"vehicle_type_id":"4","last_reported":1739300769,"current_range_meters":400,"station_id":"ce4bh412rcd13ifvqdr0","pricing_plan_id":"cebpf4jnsgd1na2vs0mg"},{"bike_id":"29c3ac46-78a2-45ae-8d8f-cdd8abdf7857","system_id":"levelo_inurba_marseille","lat":43.28458,"lon":5.35884,"is_reserved":false,"is_disabled":false,"rental_uris":{"android":"levelo://app?vid=29c3ac46-78a2-45ae-8d8f-cdd8abdf7857","ios":"levelo://app?vid=29c3ac46-78a2-45ae-8d8f-cdd8abdf7857"},"vehicle_type_id":"4","last_reported":1739300769,"current_range_meters":38800,"station_id":"ce4bhah2rcd13ifvqei0","pricing_plan_id":"cebpf4jnsgd1na2vs0mg"},{"bike_id":"3072c860-6a06-4429-8629-72daeba313c2","system_id":"levelo_inurba_marseille","lat":43.29862,"lon":5.39748,"is_reserved":false,"is_disabled":false,"rental_uris":{"android":"levelo://app?vid=3072c860-6a06-4429-8629-72daeba313c2","ios":"levelo://app?vid=3072c860-6a06-4429-8629-72daeba313c2"},"vehicle_type_id":"4","last_reported":1739300769,"current_range_meters":39200,"station_id":"ce4bh0h2rcd13ifvqd50","pricing_plan_id":"cebpf4jnsgd1na2vs0mg"},{"bike_id":"ea93fbec-e91a-412d-bc1c-7eb78a8d03fa","system_id":"levelo_inurba_marseille","lat":43.30152,"lon":5.37396,"is_reserved":false,"is_disabled":false,"rental_uris":{"android":"levelo://app?vid=ea93fbec-e91a-412d-bc1c-7eb78a8d03fa","ios":"levelo://app?vid=ea93fbec-e91a-412d-bc1c-7eb78a8d03fa"},"vehicle_type_id":"4","last_reported":1739300769,"current_range_meters":38800,"station_id":"ce4bgs92rcd13ifvqcc0","pricing_plan_id":"cebpf4jnsgd1na2vs0mg"},{"bike_id":"e74edd37-0ec7-4f56-b77f-e7249fd01314","system_id":"levelo_inurba_marseille","lat":43.30593,"lon":5.36533,"is_reserved":false,"is_disabled":false,"rental_uris":{"android":"levelo://app?vid=e74edd37-0ec7-4f56-b77f-e7249fd01314","ios":"levelo://app?vid=e74edd37-0ec7-4f56-b77f-e7249fd01314"},"vehicle_type_id":"4","last_reported":1739300769,"current_range_meters":11600,"station_id":"ce4bgs12rcd13ifvqcag","pricing_plan_id":"cebpf4jnsgd1na2vs0mg"},{"bike_id":"c8f03d07-8924-4743-9afc-1eb5bd3b2426","system_id":"levelo_inurba_marseille","lat":43.30592,"lon":5.39351,"is_reserved":false,"is_disabled":true,"rental_uris":{"android":"levelo://app?vid=c8f03d07-8924-4743-9afc-1eb5bd3b2426","ios":"levelo://app?vid=c8f03d07-8924-4743-9afc-1eb5bd3b2426"},"vehicle_type_id":"4","last_reported":1739300769,"current_range_meters":0,"station_id":"ce4bh0p2rcd13ifvqd80","pricing_plan_id":"cebpf4jnsgd1na2vs0mg"},{"bike_id":"ca63d75f-d551-49cb-bec7-e060cadddd73","system_id":"levelo_inurba_marseille","lat":43.280943,"lon":5.441747,"is_reserved":false,"is_disabled":false,"rental_uris":{"android":"levelo://app?vid=ca63d75f-d551-49cb-bec7-e060cadddd73","ios":"levelo://app?vid=ca63d75f-d551-49cb-bec7-e060cadddd73"},"vehicle_type_id":"4","last_reported":1739300769,"current_range_meters":13600,"station_id":"","pricing_plan_id":"cebpf4jnsgd1na2vs0mg"},{"bike_id":"f7ae9a97-641a-4598-bcd7-5d3ae922b145","system_id":"levelo_inurba_marseille","lat":43.30434,"lon":5.39751,"is_reserved":false,"is_disabled":false,"rental_uris":{"android":"levelo://app?vid=f7ae9a97-641a-4598-bcd7-5d3ae922b145","ios":"levelo://app?vid=f7ae9a97-641a-4598-bcd7-5d3ae922b145"},"vehicle_type_id":"4","last_reported":1739300769,"current_range_meters":38800,"station_id":"ce4bh092rcd13ifvqd20","pricing_plan_id":"cebpf4jnsgd1na2vs0mg"},{"bike_id":"2b101a62-b165-446d-b8c3-7a5ea6e1a86d","system_id":"levelo_inurba_marseille","lat":43.29187,"lon":5.39311,"is_reserved":false,"is_disabled":false,"rental_uris":{"android":"levelo://app?vid=2b101a62-b165-446d-b8c3-7a5ea6e1a86d","ios":"levelo://app?vid=2b101a62-b165-446d-b8c3-7a5ea6e1a86d"},"vehicle_type_id":"4","last_reported":1739300769,"current_range_meters":38000,"station_id":"ce4bh192rcd13ifvqdd0","pricing_plan_id":"cebpf4jnsgd1na2vs0mg"},{"bike_id":"dd7e4e2f-f2db-4c41-9b95-8e20b6da1267","system_id":"levelo_inurba_marseille","lat":43.32483,"lon":5.3656,"is_reserved":false,"is_disabled":false,"rental_uris":{"android":"levelo://app?vid=dd7e4e2f-f2db-4c41-9b95-8e20b6da1267","ios":"levelo://app?vid=dd7e4e2f-f2db-4c41-9b95-8e20b6da1267"},"vehicle_type_id":"4","last_reported":1739300769,"current_range_meters":16400,"station_id":"ce4bhs12rcd13ifvqhvg","pricing_plan_id":"cebpf4jnsgd1na2vs0mg"},{"bike_id":"d06b3b54-dc24-493e-97db-e54b37ab5416","system_id":"levelo_inurba_marseille","lat":43.30536,"lon":5.36548,"is_reserved":false,"is_disabled":false,"rental_uris":{"android":"levelo://app?vid=d06b3b54-dc24-493e-97db-e54b37ab5416","ios":"levelo://app?vid=d06b3b54-dc24-493e-97db-e54b37ab5416"},"vehicle_type_id":"4","last_reported":1739300769,"current_range_meters":29600,"station_id":"ce4bgs12rcd13ifvqcag","pricing_plan_id":"cebpf4jnsgd1na2vs0mg"},{"bike_id":"91f8274d-f215-4cef-97ab-b8259e58eb3d","system_id":"levelo_inurba_marseille","lat":43.30454,"lon":5.39746,"is_reserved":false,"is_disabled":false,"rental_uris":{"android":"levelo://app?vid=91f8274d-f215-4cef-97ab-b8259e58eb3d","ios":"levelo://app?vid=91f8274d-f215-4cef-97ab-b8259e58eb3d"},"vehicle_type_id":"4","last_reported":1739300769,"current_range_meters":38800,"station_id":"ce4bh092rcd13ifvqd20","pricing_plan_id":"cebpf4jnsgd1na2vs0mg"},{"bike_id":"df5b7297-c656-434e-b72b-f3164076974b","system_id":"levelo_inurba_marseille","lat":43.29004,"lon":5.35616,"is_reserved":false,"is_disabled":false,"rental_uris":{"android":"levelo://app?vid=df5b7297-c656-434e-b72b-f3164076974b","ios":"levelo://app?vid=df5b7297-c656-434e-b72b-f3164076974b"},"vehicle_type_id":"4","last_reported":1739300769,"current_range_meters":36000,"station_id":"ce4bhb92rcd13ifvqen0","pricing_plan_id":"cebpf4jnsgd1na2vs0mg"},{"bike_id":"cdca29be-693d-4fcb-8fb6-c2add682acdb","system_id":"levelo_inurba_marseille","lat":43.28936,"lon":5.36391,"is_reserved":false,"is_disabled":false,"rental_uris":{"android":"levelo://app?vid=cdca29be-693d-4fcb-8fb6-c2add682acdb","ios":"levelo://app?vid=cdca29be-693d-4fcb-8fb6-c2add682acdb"},"vehicle_type_id":"4","last_reported":1739300769,"current_range_meters":24000,"station_id":"ce4bhc92rcd13ifvqetg","pricing_plan_id":"cebpf4jnsgd1na2vs0mg"},{"bike_id":"118acaa8-c377-4759-a8f9-c3303973ef34","system_id":"levelo_inurba_marseille","lat":43.29863,"lon":5.38884,"is_reserved":false,"is_disabled":false,"rental_uris":{"android":"levelo://app?vid=118acaa8-c377-4759-a8f9-c3303973ef34","ios":"levelo://app?vid=118acaa8-c377-4759-a8f9-c3303973ef34"},"vehicle_type_id":"4","last_reported":1739300769,"current_range_meters":24000,"station_id":"ce4bh392rcd13ifvqdl0","pricing_plan_id":"cebpf4jnsgd1na2vs0mg"},{"bike_id":"4e18434e-3693-4449-ba4f-3b0af82e3b5c","system_id":"levelo_inurba_marseille","lat":43.29744,"lon":5.37669,"is_reserved":false,"is_disabled":false,"rental_uris":{"android":"levelo://app?vid=4e18434e-3693-4449-ba4f-3b0af82e3b5c","ios":"levelo://app?vid=4e18434e-3693-4449-ba4f-3b0af82e3b5c"},"vehicle_type_id":"4","last_reported":1739300769,"current_range_meters":15200,"station_id":"ce4bgkh2rcd13ifvqbl0","pricing_plan_id":"cebpf4jnsgd1na2vs0mg"},{"bike_id":"fe13a370-c3c1-4b94-b07d-037e05cb1b29","system_id":"levelo_inurba_marseille","lat":43.31079,"lon":5.38365,"is_reserved":false,"is_disabled":false,"rental_uris":{"android":"levelo://app?vid=fe13a370-c3c1-4b94-b07d-037e05cb1b29","ios":"levelo://app?vid=fe13a370-c3c1-4b94-b07d-037e05cb1b29"},"vehicle_type_id":"4","last_reported":1739300769,"current_range_meters":4400,"station_id":"ce4bgv92rcd13ifvqcr0","pricing_plan_id":"cebpf4jnsgd1na2vs0mg"},{"bike_id":"3244e5ed-5be3-4c40-96ce-855e65dc2bd0","system_id":"levelo_inurba_marseille","lat":43.27889,"lon":5.37987,"is_reserved":false,"is_disabled":false,"rental_uris":{"android":"levelo://app?vid=3244e5ed-5be3-4c40-96ce-855e65dc2bd0","ios":"levelo://app?vid=3244e5ed-5be3-4c40-96ce-855e65dc2bd0"},"vehicle_type_id":"4","last_reported":1739300769,"current_range_meters":23200,"station_id":"ce4bhf92rcd13ifvqf50","pricing_plan_id":"cebpf4jnsgd1na2vs0mg"},{"bike_id":"72439510-9364-4b4d-92f9-a88d26b23c0e","system_id":"levelo_inurba_marseille","lat":43.30215,"lon":5.39475,"is_reserved":false,"is_disabled":false,"rental_uris":{"android":"levelo://app?vid=72439510-9364-4b4d-92f9-a88d26b23c0e","ios":"levelo://app?vid=72439510-9364-4b4d-92f9-a88d26b23c0e"},"vehicle_type_id":"4","last_reported":1739300769,"current_range_meters":16800,"station_id":"ce4bh0p2rcd13ifvqd70","pricing_plan_id":"cebpf4jnsgd1na2vs0mg"},{"bike_id":"6c2be036-a262-4455-9b32-abb648bab260","system_id":"levelo_inurba_marseille","lat":43.32285,"lon":5.38289,"is_reserved":false,"is_disabled":false,"rental_uris":{"android":"levelo://app?vid=6c2be036-a262-4455-9b32-abb648bab260","ios":"levelo://app?vid=6c2be036-a262-4455-9b32-abb648bab260"},"vehicle_type_id":"4","last_reported":1739300769,"current_range_meters":32400,"station_id":"ce4bhr12rcd13ifvqhqg","pricing_plan_id":"cebpf4jnsgd1na2vs0mg"},{"bike_id":"54ce597b-1ca1-4d62-923d-d4b29eec04b3","system_id":"levelo_inurba_marseille","lat":43.31131,"lon":5.38261,"is_reserved":false,"is_disabled":false,"rental_uris":{"android":"levelo://app?vid=54ce597b-1ca1-4d62-923d-d4b29eec04b3","ios":"levelo://app?vid=54ce597b-1ca1-4d62-923d-d4b29eec04b3"},"vehicle_type_id":"4","last_reported":1739300769,"current_range_meters":19200,"station_id":"","pricing_plan_id":"cebpf4jnsgd1na2vs0mg"},{"bike_id":"b4765ae2-b7fb-4718-bf68-ce7ba2c817f9","system_id":"levelo_inurba_marseille","lat":43.2707,"lon":5.4228,"is_reserved":false,"is_disabled":false,"rental_uris":{"android":"levelo://app?vid=b4765ae2-b7fb-4718-bf68-ce7ba2c817f9","ios":"levelo://app?vid=b4765ae2-b7fb-4718-bf68-ce7ba2c817f9"},"vehicle_type_id":"4","last_reported":1739300769,"current_range_meters":22000,"station_id":"ce4bhk92rcd13ifvqgb0","pricing_plan_id":"cebpf4jnsgd1na2vs0mg"},{"bike_id":"ed22b738-1280-4e28-bdfe-5a8aa889b31d","system_id":"levelo_inurba_marseille","lat":43.30426,"lon":5.3889,"is_reserved":false,"is_disabled":false,"rental_uris":{"android":"levelo://app?vid=ed22b738-1280-4e28-bdfe-5a8aa889b31d","ios":"levelo://app?vid=ed22b738-1280-4e28-bdfe-5a8aa889b31d"},"vehicle_type_id":"4","last_reported":1739300769,"current_range_meters":39200,"station_id":"ce4bgk12rcd13ifvqbi0","pricing_plan_id":"cebpf4jnsgd1na2vs0mg"},{"bike_id":"6781aa85-34f7-4835-bddc-391492c4d5fe","system_id":"levelo_inurba_marseille","lat":43.24993,"lon":5.38945,"is_reserved":false,"is_disabled":false,"rental_uris":{"android":"levelo://app?vid=6781aa85-34f7-4835-bddc-391492c4d5fe","ios":"levelo://app?vid=6781aa85-34f7-4835-bddc-391492c4d5fe"},"vehicle_type_id":"4","last_reported":1739300769,"current_range_meters":38800,"station_id":"ce4bhgp2rcd13ifvqfd0","pricing_plan_id":"cebpf4jnsgd1na2vs0mg"},{"bike_id":"edaca68b-6267-4d88-b9f6-6caf88338e54","system_id":"levelo_inurba_marseille","lat":43.33025,"lon":5.39042,"is_reserved":false,"is_disabled":false,"rental_uris":{"android":"levelo://app?vid=edaca68b-6267-4d88-b9f6-6caf88338e54","ios":"levelo://app?vid=edaca68b-6267-4d88-b9f6-6caf88338e54"},"vehicle_type_id":"4","last_reported":1739300769,"current_range_meters":37600,"station_id":"ce4bhr92rcd13ifvqhrg","pricing_plan_id":"cebpf4jnsgd1na2vs0mg"},{"bike_id":"7434c5be-1787-4d49-8df0-b34b02c99ab8","system_id":"levelo_inurba_marseille","lat":43.2952,"lon":5.39406,"is_reserved":false,"is_disabled":false,"rental_uris":{"android":"levelo://app?vid=7434c5be-1787-4d49-8df0-b34b02c99ab8","ios":"levelo://app?vid=7434c5be-1787-4d49-8df0-b34b02c99ab8"},"vehicle_type_id":"4","last_reported":1739300769,"current_range_meters":28800,"station_id":"ce4bh292rcd13ifvqdf0","pricing_plan_id":"cebpf4jnsgd1na2vs0mg"},{"bike_id":"c61bb45c-e9da-4c23-867d-65a46dc07184","system_id":"levelo_inurba_marseille","lat":43.28077,"lon":5.39657,"is_reserved":false,"is_disabled":true,"rental_uris":{"android":"levelo://app?vid=c61bb45c-e9da-4c23-867d-65a46dc07184","ios":"levelo://app?vid=c61bb45c-e9da-4c23-867d-65a46dc07184"},"vehicle_type_id":"4","last_reported":1739300769,"current_range_meters":800,"station_id":"ce4bho12rcd13ifvqh2g","pricing_plan_id":"cebpf4jnsgd1na2vs0mg"},{"bike_id":"bdd89fd3-de99-4a44-9f56-790f246dc2aa","system_id":"levelo_inurba_marseille","lat":43.27423,"lon":5.39422,"is_reserved":false,"is_disabled":false,"rental_uris":{"android":"levelo://app?vid=bdd89fd3-de99-4a44-9f56-790f246dc2aa","ios":"levelo://app?vid=bdd89fd3-de99-4a44-9f56-790f246dc2aa"},"vehicle_type_id":"4","last_reported":1739300769,"current_range_meters":18000,"station_id":"ce4bhdp2rcd13ifvqf20","pricing_plan_id":"cebpf4jnsgd1na2vs0mg"},{"bike_id":"730d42d7-222e-417d-b339-bb29ca0d0c33","system_id":"levelo_inurba_marseille","lat":43.294215,"lon":5.38625,"is_reserved":false,"is_disabled":false,"rental_uris":{"android":"levelo://app?vid=730d42d7-222e-417d-b339-bb29ca0d0c33","ios":"levelo://app?vid=730d42d7-222e-417d-b339-bb29ca0d0c33"},"vehicle_type_id":"4","last_reported":1739300769,"current_range_meters":39200,"station_id":"ce4bh2h2rcd13ifvqdh0","pricing_plan_id":"cebpf4jnsgd1na2vs0mg"},