{"last_updated":1760980131,"ttl":60,"version":"2.2","data":{"bikes":[{"bike_id":"5bd9155f-156c-49c8-8b0f-833732c1c592","system_id":"levelo_inurba_marseille","lat":43.28537,"lon":5.44101,"is_reserved":false,"is_disabled":false,"rental_uris":{"android":"levelo://app?vid=5bd9155f-156c-49c8-8b0f-833732c1c592","ios":"levelo://app?vid=5bd9155f-156c-49c8-8b0f-833732c1c592"},"vehicle_type_id":"4","last_reported":1760980131,"current_range_meters":2800,"station_id":"st_d3j3df2ikq2c7380ej80","pricing_plan_id":"cebpf4jnsgd1na2vs0mg"},{"bike_id":"e7e8b93c-02d4-466b-82b5-3f4c4f15c2ae","system_id":"levelo_inurba_marseille","lat":43.28814,"lon":5.43843,"is_reserved":false,"is_disabled":false,"rental_uris":{"android":"levelo://app?vid=e7e8b93c-02d4-466b-82b5-3f4c4f15c2ae","ios":"levelo://app?vid=e7e8b93c-02d4-466b-82b5-3f4c4f15c2ae"},"vehicle_type_id":"4","last_reported":1760980131,"current_range_meters":2800,"station_id":"","pricing_plan_id":"cebpf4jnsgd1na2vs0mg"},{"bike_id":"af8ebf24-b241-4635-9dde-afed27c9289e","system_id":"levelo_inurba_marseille","lat":43.253052,"lon":5.423597,"is_reserved":false,"is_disabled":false,"rental_uris":{"android":"levelo://app?vid=af8ebf24-b241-4635-9dde-afed27c9289e","ios":"levelo://app?vid=af8ebf24-b241-4635-9dde-afed27c9289e"},"vehicle_type_id":"4","last_reported":1760980131,"current_range_meters":2800,"station_id":"ce4bh412rcd13ifvqdr0","pricing_plan_id":"cebpf4jnsgd1na2vs0mg"},{"bike_id":"f7c8f693-1cb9-4f45-a809-cd76181c6642","system_id":"levelo_inurba_marseille","lat":43.22539,"lon":5.34826,"is_reserved":false,"is_disabled":false,"rental_uris":{"android":"levelo://app?vid=f7c8f693-1cb9-4f45-a809-cd76181c6642","ios":"levelo://app?vid=f7c8f693-1cb9-4f45-a809-cd76181c6642"},"vehicle_type_id":"4","last_reported":1760980131,"current_range_meters":2800,"station_id":"ce4bhoh2rcd13ifvqh5g","pricing_plan_id":"cebpf4jnsgd1na2vs0mg"},{"bike_id":"a9b8be98-9845-4ec9-ae77-4a96bac6b213","system_id":"levelo_inurba_marseille","lat":43.2175,"lon":5.34601,"is_reserved":false,"is_disabled":false,"rental_uris":{"android":"levelo://app?vid=a9b8be98-9845-4ec9-ae77-4a96bac6b213","ios":"levelo://app?vid=a9b8be98-9845-4ec9-ae77-4a96bac6b213"},"vehicle_type_id":"4","last_reported":1760980131,"current_range_meters":3200,"station_id":"st_cvj6r9ubvosntc0bgbag","pricing_plan_id":"cebpf4jnsgd1na2vs0mg"},{"bike_id":"7ab9049e-db5a-4a76-9c92-7720cd6e0833","system_id":"levelo_inurba_marseille","lat":43.28154,"lon":5.42648,"is_reserved":false,"is_disabled":false,"rental_uris":{"android":"levelo://app?vid=7ab9049e-db5a-4a76-9c92-7720cd6e0833","ios":"levelo://app?vid=7ab9049e-db5a-4a76-9c92-7720cd6e0833"},"vehicle_type_id":"4","last_reported":1760980131,"current_range_meters":3200,"station_id":"ce4bhnh2rcd13ifvqgug","pricing_plan_id":"cebpf4jnsgd1na2vs0mg"},{"bike_id":"341025ca-ef2d-442d-80ac-78ca83dc4a7c","system_id":"levelo_inurba_marseille","lat":43.29933,"lon":5.36957,"is_reserved":false,"is_disabled":false,"rental_uris":{"android":"levelo://app?vid=341025ca-ef2d-442d-80ac-78ca83dc4a7c","ios":"levelo://app?vid=341025ca-ef2d-442d-80ac-78ca83dc4a7c"},"vehicle_type_id":"4","last_reported":1760980131,"current_range_meters":3200,"station_id":"","pricing_plan_id":"cebpf4jnsgd1na2vs0mg"},{"bike_id":"0a414463-fe1a-4833-8a11-178a3c2c879a","system_id":"levelo_inurba_marseille","lat":43.29852,"lon":5.37897,"is_reserved":false,"is_disabled":false,"rental_uris":{"android":"levelo://app?vid=0a414463-fe1a-4833-8a11-178a3c2c879a","ios":"levelo://app?vid=0a414463-fe1a-4833-8a11-178a3c2c879a"},"vehicle_type_id":"4","last_reported":1760980131,"current_range_meters":3600,"station_id":"","pricing_plan_id":"cebpf4jnsgd1na2vs0mg"},{"bike_id":"40fd53ee-e952-4329-b079-c995db6ef30d","system_id":"levelo_inurba_marseille","lat":43.28727,"lon":5.36106,"is_reserved":false,"is_disabled":false,"rental_uris":{"android":"levelo://app?vid=40fd53ee-e952-4329-b079-c995db6ef30d","ios":"levelo://app?vid=40fd53ee-e952-4329-b079-c995db6ef30d"},"vehicle_type_id":"4","last_reported":1760980131,"current_range_meters":3600,"station_id":"cki0cbj6b192h4jlfktg","pricing_plan_id":"cebpf4jnsgd1na2vs0mg"},{"bike_id":"44a2b8c8-5259-4ecf-82aa-acb121068cef","system_id":"levelo_inurba_marseille","lat":43.31325,"lon":5.39698,"is_reserved":false,"is_disabled":false,"rental_uris":{"android":"levelo://app?vid=44a2b8c8-5259-4ecf-82aa-acb121068cef","ios":"levelo://app?vid=44a2b8c8-5259-4ecf-82aa-acb121068cef"},"vehicle_type_id":"4","last_reported":1760980131,"current_range_meters":3600,"station_id":"ce4bgvp2rcd13ifvqcu0","pricing_plan_id":"cebpf4jnsgd1na2vs0mg"},{"bike_id":"88be6551-626c-458d-afa7-44432675e27a","system_id":"levelo_inurba_marseille","lat":43.2559,"lon":5.38236,"is_reserved":false,"is_disabled":false,"rental_uris":{"android":"levelo://app?vid=88be6551-626c-458d-afa7-44432675e27a","ios":"levelo://app?vid=88be6551-626c-458d-afa7-44432675e27a"},"vehicle_type_id":"4","last_reported":1760980131,"current_range_meters":4000,"station_id":"ce4bhih2rcd13ifvqfs0","pricing_plan_id":"cebpf4jnsgd1na2vs0mg"},{"bike_id":"c54df439-b449-4426-ab0f-c0d2370db0fe","system_id":"levelo_inurba_marseille","lat":43.31754,"lon":5.39017,"is_reserved":false,"is_disabled":false,"rental_uris":{"android":"levelo://app?vid=c54df439-b449-4426-ab0f-c0d2370db0fe","ios":"levelo://app?vid=c54df439-b449-4426-ab0f-c0d2370db0fe"},"vehicle_type_id":"4","last_reported":1760980131,"current_range_meters":4000,"station_id":"ce4bhqp2rcd13ifvqhng","pricing_plan_id":"cebpf4jnsgd1na2vs0mg"},{"bike_id":"ee05ab4b-b72f-453e-8914-a9150b6d1bdd","system_id":"levelo_inurba_marseille","lat":43.28612,"lon":5.35105,"is_reserved":false,"is_disabled":false,"rental_uris":{"android":"levelo://app?vid=ee05ab4b-b72f-453e-8914-a9150b6d1bdd","ios":"levelo://app?vid=ee05ab4b-b72f-453e-8914-a9150b6d1bdd"},"vehicle_type_id":"4","last_reported":1760980131,"current_range_meters":4000,"station_id":"","pricing_plan_id":"cebpf4jnsgd1na2vs0mg"},{"bike_id":"3170a251-d687-456b-9940-32507cf0a3e8","system_id":"levelo_inurba_marseille","lat":43.29613,"lon":5.37713,"is_reserved":false,"is_disabled":true,"rental_uris":{"android":"levelo://app?vid=3170a251-d687-456b-9940-32507cf0a3e8","ios":"levelo://app?vid=3170a251-d687-456b-9940-32507cf0a3e8"},"vehicle_type_id":"4","last_reported":1760980131,"current_range_meters":4400,"station_id":"ce4bgi92rcd13ifvqb90","pricing_plan_id":"cebpf4jnsgd1na2vs0mg"},{"bike_id":"ecac4919-274e-414b-94b6-d593094699c1","system_id":"levelo_inurba_marseille","lat":43.284585,"lon":5.358794,"is_reserved":false,"is_disabled":false,"rental_uris":{"android":"levelo://app?vid=ecac4919-274e-414b-94b6-d593094699c1","ios":"levelo://app?vid=ecac4919-274e-414b-94b6-d593094699c1"},"vehicle_type_id":"4","last_reported":1760980131,"current_range_meters":4400,"station_id":"ce4bhah2rcd13ifvqei0","pricing_plan_id":"cebpf4jnsgd1na2vs0mg"},{"bike_id":"6ab24d57-951b-45a3-a954-6f5c21ecde6e","system_id":"levelo_inurba_marseille","lat":43.30749,"lon":5.4244,"is_reserved":false,"is_disabled":false,"rental_uris":{"android":"levelo://app?vid=6ab24d57-951b-45a3-a954-6f5c21ecde6e","ios":"levelo://app?vid=6ab24d57-951b-45a3-a954-6f5c21ecde6e"},"vehicle_type_id":"4","last_reported":1760980131,"current_range_meters":4400,"station_id":"st_cvj6ca6bvosntc0bfgr0","pricing_plan_id":"cebpf4jnsgd1na2vs0mg"},{"bike_id":"fbb156f6-bd59-4366-ab20-f4515cfa50aa","system_id":"levelo_inurba_marseille","lat":43.30296,"lon":5.39218,"is_reserved":false,"is_disabled":false,"rental_uris":{"android":"levelo://app?vid=fbb156f6-bd59-4366-ab20-f4515cfa50aa","ios":"levelo://app?vid=fbb156f6-bd59-4366-ab20-f4515cfa50aa"},"vehicle_type_id":"4","last_reported":1760980131,"current_range_meters":4400,"station_id":"ce4bgkh2rcd13ifvqbk0","pricing_plan_id":"cebpf4jnsgd1na2vs0mg"},{"bike_id":"04119369-b1bc-4b93-b635-987a0ae54963","system_id":"levelo_inurba_marseille","lat":43.21749,"lon":5.34602,"is_reserved":false,"is_disabled":false,"rental_uris":{"android":"levelo://app?vid=04119369-b1bc-4b93-b635-987a0ae54963","ios":"levelo://app?vid=04119369-b1bc-4b93-b635-987a0ae54963"},"vehicle_type_id":"4","last_reported":1760980131,"current_range_meters":5600,"station_id":"st_cvj6r9ubvosntc0bgbag","pricing_plan_id":"cebpf4jnsgd1na2vs0mg"},{"bike_id":"321b9d5b-ce02-4780-90fa-b89bcae7b155","system_id":"levelo_inurba_marseille","lat":43.29222,"lon":5.36063,"is_reserved":false,"is_disabled":false,"rental_uris":{"android":"levelo://app?vid=321b9d5b-ce02-4780-90fa-b89bcae7b155","ios":"levelo://app?vid=321b9d5b-ce02-4780-90fa-b89bcae7b155"},"vehicle_type_id":"4","last_reported":1760980131,"current_range_meters":5600,"station_id":"ce4bhbh2rcd13ifvqeqg","pricing_plan_id":"cebpf4jnsgd1na2vs0mg"},{"bike_id":"ac6d2c4d-74a8-443d-a9f9-0d9807feacda","system_id":"levelo_inurba_marseille","lat":43.33772,"lon":5.37469,"is_reserved":false,"is_disabled":false,"rental_uris":{"android":"levelo://app?vid=ac6d2c4d-74a8-443d-a9f9-0d9807feacda","ios":"levelo://app?vid=ac6d2c4d-74a8-443d-a9f9-0d9807feacda"},"vehicle_type_id":"4","last_reported":1760980131,"current_range_meters":5600,"station_id":"","pricing_plan_id":"cebpf4jnsgd1na2vs0mg"},{"bike_id":"e978660f-731d-4a95-8df5-e0a54d8fe8be","system_id":"levelo_inurba_marseille","lat":43.211838,"lon":5.350813,"is_reserved":false,"is_disabled":false,"rental_uris":{"android":"levelo://app?vid=e978660f-731d-4a95-8df5-e0a54d8fe8be","ios":"levelo://app?vid=e978660f-731d-4a95-8df5-e0a54d8fe8be"},"vehicle_type_id":"4","last_reported":1760980131,"current_range_meters":5600,"station_id":"st_cvj6sg6p6f1abm77japg","pricing_plan_id":"cebpf4jnsgd1na2vs0mg"},{"bike_id":"61471520-41b2-41c9-8659-36d9c8d787a1","system_id":"levelo_inurba_marseille","lat":43.30085,"lon":5.39082,"is_reserved":false,"is_disabled":false,"rental_uris":{"android":"levelo://app?vid=61471520-41b2-41c9-8659-36d9c8d787a1","ios":"levelo://app?vid=61471520-41b2-41c9-8659-36d9c8d787a1"},"vehicle_type_id":"4","last_reported":1760980131,"current_range_meters":5600,"station_id":"ce4bh192rcd13ifvqdb0","pricing_plan_id":"cebpf4jnsgd1na2vs0mg"},{"bike_id":"365b1110-8604-4b2d-ad9b-3263b8a258f2","system_id":"levelo_inurba_marseille","lat":43.28655,"lon":5.3634,"is_reserved":false,"is_disabled":false,"rental_uris":{"android":"levelo://app?vid=365b1110-8604-4b2d-ad9b-3263b8a258f2","ios":"levelo://app?vid=365b1110-8604-4b2d-ad9b-3263b8a258f2"},"vehicle_type_id":"4","last_reported":1760980131,"current_range_meters":6000,"station_id":"ce4bhah2rcd13ifvqej0","pricing_plan_id":"cebpf4jnsgd1na2vs0mg"},{"bike_id":"e6caf80f-52e2-4cb8-b50c-4c7ec794b83a","system_id":"levelo_inurba_marseille","lat":43.28709,"lon":5.37402,"is_reserved":false,"is_disabled":false,"rental_uris":{"android":"levelo://app?vid=e6caf80f-52e2-4cb8-b50c-4c7ec794b83a","ios":"levelo://app?vid=e6caf80f-52e2-4cb8-b50c-4c7ec794b83a"},"vehicle_type_id":"4","last_reported":1760980131,"current_range_meters":6000,"station_id":"ce4bh3p2rcd13ifvqdq0","pricing_plan_id":"cebpf4jnsgd1na2vs0mg"},{"bike_id":"720543e7-6938-413e-9c6c-10f7542a8213","system_id":"levelo_inurba_marseille","lat":43.29539,"lon":5.38544,"is_reserved":false,"is_disabled":false,"rental_uris":{"android":"levelo://app?vid=720543e7-6938-413e-9c6c-10f7542a8213","ios":"levelo://app?vid=720543e7-6938-413e-9c6c-10f7542a8213"},"vehicle_type_id":"4","last_reported":1760980131,"current_range_meters":6000,"station_id":"ce4bgih2rcd13ifvqba0","pricing_plan_id":"cebpf4jnsgd1na2vs0mg"},{"bike_id":"63af7f75-ae37-4bd3-9613-127db36eb0c3","system_id":"levelo_inurba_marseille","lat":43.28859,"lon":5.42524,"is_reserved":false,"is_disabled":false,"rental_uris":{"android":"levelo://app?vid=63af7f75-ae37-4bd3-9613-127db36eb0c3","ios":"levelo://app?vid=63af7f75-ae37-4bd3-9613-127db36eb0c3"},"vehicle_type_id":"4","last_reported":1760980131,"current_range_meters":6000,"station_id":"st_d3b462108ojc7389ooeg","pricing_plan_id":"cebpf4jnsgd1na2vs0mg"},{"bike_id":"a63b3bbd-e2ea-4eba-b2c9-b210cf63cff9","system_id":"levelo_inurba_marseille","lat":43.28155,"lon":5.4264,"is_reserved":false,"is_disabled":false,"rental_uris":{"android":"levelo://app?vid=a63b3bbd-e2ea-4eba-b2c9-b210cf63cff9","ios":"levelo://app?vid=a63b3bbd-e2ea-4eba-b2c9-b210cf63cff9"},"vehicle_type_id":"4","last_reported":1760980131,"current_range_meters":6400,"station_id":"ce4bhnh2rcd13ifvqgug","pricing_plan_id":"cebpf4jnsgd1na2vs0mg"},{"bike_id":"b8502cde-1ec2-4341-ba4d-410a04afe60a","system_id":"levelo_inurba_marseille","lat":43.29041,"lon":5.39957,"is_reserved":false,"is_disabled":true,"rental_uris":{"android":"levelo://app?vid=b8502cde-1ec2-4341-ba4d-410a04afe60a","ios":"levelo://app?vid=b8502cde-1ec2-4341-ba4d-410a04afe60a"},"vehicle_type_id":"4","last_reported":1760980131,"current_range_meters":6400,"station_id":"ce4bh392rcd13ifvqdm0","pricing_plan_id":"cebpf4jnsgd1na2vs0mg"},{"bike_id":"ea874c5e-76fb-4000-bd39-1a31c5aeff0d","system_id":"levelo_inurba_marseille","lat":43.31333,"lon":5.39684,"is_reserved":false,"is_disabled":false,"rental_uris":{"android":"levelo://app?vid=ea874c5e-76fb-4000-bd39-1a31c5aeff0d","ios":"levelo://app?vid=ea874c5e-76fb-4000-bd39-1a31c5aeff0d"},"vehicle_type_id":"4","last_reported":1760980131,"current_range_meters":6400,"station_id":"ce4bgvp2rcd13ifvqcu0","pricing_plan_id":"cebpf4jnsgd1na2vs0mg"},{"bike_id":"823df1c9-5714-49eb-8ba9-085fc0a5509e","system_id":"levelo_inurba_marseille","lat":43.31334,"lon":5.39695,"is_reserved":false,"is_disabled":false,"rental_uris":{"android":"levelo://app?vid=823df1c9-5714-49eb-8ba9-085fc0a5509e","ios":"levelo://app?vid=823df1c9-5714-49eb-8ba9-085fc0a5509e"},"vehicle_type_id":"4","last_reported":1760980131,"current_range_meters":6400,"station_id":"ce4bgvp2rcd13ifvqcu0","pricing_plan_id":"cebpf4jnsgd1na2vs0mg"},{"bike_id":"32c58094-aa68-4d74-a885-5740dbef88f8","system_id":"levelo_inurba_marseille","lat":43.30561,"lon":5.38424,"is_reserved":false,"is_disabled":false,"rental_uris":{"android":"levelo://app?vid=32c58094-aa68-4d74-a885-5740dbef88f8","ios":"levelo://app?vid=32c58094-aa68-4d74-a885-5740dbef88f8"},"vehicle_type_id":"4","last_reported":1760980131,"current_range_meters":6400,"station_id":"ce4bgg92rcd13ifvqb30","pricing_plan_id":"cebpf4jnsgd1na2vs0mg"},{"bike_id":"4fd5cdd4-a20c-4532-84b8-01ae5e7a83b7","system_id":"levelo_inurba_marseille","lat":43.291972,"lon":5.358051,"is_reserved":false,"is_disabled":false,"rental_uris":{"android":"levelo://app?vid=4fd5cdd4-a20c-4532-84b8-01ae5e7a83b7","ios":"levelo://app?vid=4fd5cdd4-a20c-4532-84b8-01ae5e7a83b7"},"vehicle_type_id":"4","last_reported":1760980131,"current_range_meters":6400,"station_id":"ce4bhb12rcd13ifvqel0","pricing_plan_id":"cebpf4jnsgd1na2vs0mg"},{"bike_id":"1dcd2007-9a94-4bc0-bcab-451392c0c825","system_id":"levelo_inurba_marseille","lat":43.29837,"lon":5.37666,"is_reserved":false,"is_disabled":false,"rental_uris":{"android":"levelo://app?vid=1dcd2007-9a94-4bc0-bcab-451392c0c825","ios":"levelo://app?vid=1dcd2007-9a94-4bc0-bcab-451392c0c825"},"vehicle_type_id":"4","last_reported":1760980131,"current_range_meters":6400,"station_id":"","pricing_plan_id":"cebpf4jnsgd1na2vs0mg"},{"bike_id":"4b1efdd0-715f-4aa3-bee4-6f3c7ea4d383","system_id":"levelo_inurba_marseille","lat":43.248077,"lon":5.374614,"is_reserved":false,"is_disabled":false,"rental_uris":{"android":"levelo://app?vid=4b1efdd0-715f-4aa3-bee4-6f3c7ea4d383","ios":"levelo://app?vid=4b1efdd0-715f-4aa3-bee4-6f3c7ea4d383"},"vehicle_type_id":"4","last_reported":1760980131,"current_range_meters":6800,"station_id":"ce4bhgh2rcd13ifvqfb0","pricing_plan_id":"cebpf4jnsgd1na2vs0mg"},{"bike_id":"07e8bb5e-29cb-4249-8d1f-b854fd34d259","system_id":"levelo_inurba_marseille","lat":43.29136,"lon":5.36127,"is_reserved":false,"is_disabled":false,"rental_uris":{"android":"levelo://app?vid=07e8bb5e-29cb-4249-8d1f-b854fd34d259","ios":"levelo://app?vid=07e8bb5e-29cb-4249-8d1f-b854fd34d259"},"vehicle_type_id":"4","last_reported":1760980131,"current_range_meters":6800,"station_id":"","pricing_plan_id":"cebpf4jnsgd1na2vs0mg"},{"bike_id":"0fe5f988-499b-40e5-a930-cd6431a1b2ca","system_id":"levelo_inurba_marseille","lat":43.28343,"lon":5.39818,"is_reserved":false,"is_disabled":false,"rental_uris":{"android":"levelo://app?vid=0fe5f988-499b-40e5-a930-cd6431a1b2ca","ios":"levelo://app?vid=0fe5f988-499b-40e5-a930-cd6431a1b2ca"},"vehicle_type_id":"4","last_reported":1760980131,"current_range_meters":6800,"station_id":"","pricing_plan_id":"cebpf4jnsgd1na2vs0mg"},{"bike_id":"b9f4c452-f1a0-4b31-854c-2325a5b73556","system_id":"levelo_inurba_marseille","lat":43.21462,"lon":5.343174,"is_reserved":false,"is_disabled":false,"rental_uris":{"android":"levelo://app?vid=b9f4c452-f1a0-4b31-854c-2325a5b73556","ios":"levelo://app?vid=b9f4c452-f1a0-4b31-854c-2325a5b73556"},"vehicle_type_id":"4","last_reported":1760980131,"current_range_meters":6800,"station_id":"","pricing_plan_id":"cebpf4jnsgd1na2vs0mg"},{"bike_id":"175beb8f-bb6b-4c50-a18e-6bc05abb0768","system_id":"levelo_inurba_marseille","lat":43.2953,"lon":5.39034,"is_reserved":false,"is_disabled":false,"rental_uris":{"android":"levelo://app?vid=175beb8f-bb6b-4c50-a18e-6bc05abb0768","ios":"levelo://app?vid=175beb8f-bb6b-4c50-a18e-6bc05abb0768"},"vehicle_type_id":"4","last_reported":1760980131,"current_range_meters":7200,"station_id":"ce4bh3p2rcd13ifvqdp0","pricing_plan_id":"cebpf4jnsgd1na2vs0mg"},{"bike_id":"3c7ff1ce-a34c-42ea-af5e-3ae8549071d3","system_id":"levelo_inurba_marseille","lat":43.28572,"lon":5.39498,"is_reserved":false,"is_disabled":false,"rental_uris":{"android":"levelo://app?vid=3c7ff1ce-a34c-42ea-af5e-3ae8549071d3","ios":"levelo://app?vid=3c7ff1ce-a34c-42ea-af5e-3ae8549071d3"},"vehicle_type_id":"4","last_reported":1760980131,"current_range_meters":7200,"station_id":"ce4bh292rcd13ifvqdg0","pricing_plan_id":"cebpf4jnsgd1na2vs0mg"},{"bike_id":"90559609-c901-40f9-b27b-bb6a29e48804","system_id":"levelo_inurba_marseille","lat":43.30096,"lon":5.39085,"is_reserved":false,"is_disabled":false,"rental_uris":{"android":"levelo://app?vid=90559609-c901-40f9-b27b-bb6a29e48804","ios":"levelo://app?vid=90559609-c901-40f9-b27b-bb6a29e48804"},"vehicle_type_id":"4","last_reported":1760980131,"current_range_meters":7200,"station_id":"ce4bh192rcd13ifvqdb0","pricing_plan_id":"cebpf4jnsgd1na2vs0mg"},{"bike_id":"1cdd6abb-eb99-48f1-9d2a-3a66cafd78cd","system_id":"levelo_inurba_marseille","lat":43.33606,"lon":5.40979,"is_reserved":false,"is_disabled":false,"rental_uris":{"android":"levelo://app?vid=1cdd6abb-eb99-48f1-9d2a-3a66cafd78cd","ios":"levelo://app?vid=1cdd6abb-eb99-48f1-9d2a-3a66cafd78cd"},"vehicle_type_id":"4","last_reported":1760980131,"current_range_meters":7200,"station_id":"ce4bhqh2rcd13ifvqhmg","pricing_plan_id":"cebpf4jnsgd1na2vs0mg"},{"bike_id":"f08ce4d4-6b61-4dc2-aeb3-647e5900e7fb","system_id":"levelo_inurba_marseille","lat":43.24675,"lon":5.38163,"is_reserved":false,"is_disabled":false,"rental_uris":{"android":"levelo://app?vid=f08ce4d4-6b61-4dc2-aeb3-647e5900e7fb","ios":"levelo://app?vid=f08ce4d4-6b61-4dc2-aeb3-647e5900e7fb"},"vehicle_type_id":"4","last_reported":1760980131,"current_range_meters":7200,"station_id":"ce4bhih2rcd13ifvqfr0","pricing_plan_id":"cebpf4jnsgd1na2vs0mg"},{"bike_id":"4dd33d39-e5b8-489b-b588-20d9b5a34cd9","system_id":"levelo_inurba_marseille","lat":43.258386,"lon":5.394336,"is_reserved":false,"is_disabled":false,"rental_uris":{"android":"levelo://app?vid=4dd33d39-e5b8-489b-b588-20d9b5a34cd9","ios":"levelo://app?vid=4dd33d39-e5b8-489b-b588-20d9b5a34cd9"},"vehicle_type_id":"4","last_reported":1760980131,"current_range_meters":7200,"station_id":"ce4bhip2rcd13ifvqft0","pricing_plan_id":"cebpf4jnsgd1na2vs0mg"},{"bike_id":"9dd1d8fe-c2a8-4a70-a175-61f5f9fe7fd2","system_id":"levelo_inurba_marseille","lat":43.315501,"lon":5.390252,"is_reserved":false,"is_disabled":false,"rental_uris":{"android":"levelo://app?vid=9dd1d8fe-c2a8-4a70-a175-61f5f9fe7fd2","ios":"levelo://app?vid=9dd1d8fe-c2a8-4a70-a175-61f5f9fe7fd2"},"vehicle_type_id":"4","last_reported":1760980131,"current_range_meters":8000,"station_id":"","pricing_plan_id":"cebpf4jnsgd1na2vs0mg"},{"bike_id":"6768fda7-6528-402f-997c-3bda17d1110a","system_id":"levelo_inurba_marseille","lat":43.30118,"lon":5.39877,"is_reserved":false,"is_disabled":false,"rental_uris":{"android":"levelo://app?vid=6768fda7-6528-402f-997c-3bda17d1110a","ios":"levelo://app?vid=6768fda7-6528-402f-997c-3bda17d1110a"},"vehicle_type_id":"4","last_reported":1760980131,"current_range_meters":8000,"station_id":"ce4bh0h2rcd13ifvqd40","pricing_plan_id":"cebpf4jnsgd1na2vs0mg"},{"bike_id":"f7925ea3-09c9-4a2d-92ec-f2c2bfc6b55c","system_id":"levelo_inurba_marseille","lat":43.28488,"lon":5.38415,"is_reserved":false,"is_disabled":false,"rental_uris":{"android":"levelo://app?vid=f7925ea3-09c9-4a2d-92ec-f2c2bfc6b55c","ios":"levelo://app?vid=f7925ea3-09c9-4a2d-92ec-f2c2bfc6b55c"},"vehicle_type_id":"4","last_reported":1760980131,"current_range_meters":8000,"station_id":"ce4bh512rcd13ifvqe3g","pricing_plan_id":"cebpf4jnsgd1na2vs0mg"},{"bike_id":"8cd818e3-a9e2-4f48-92b2-26306f507696","system_id":"levelo_inurba_marseille","lat":43.31349,"lon":5.37913,"is_reserved":false,"is_disabled":false,"rental_uris":{"android":"levelo://app?vid=8cd818e3-a9e2-4f48-92b2-26306f507696","ios":"levelo://app?vid=8cd818e3-a9e2-4f48-92b2-26306f507696"},"vehicle_type_id":"4","last_reported":1760980131,"current_range_meters":8000,"station_id":"","pricing_plan_id":"cebpf4jnsgd1na2vs0mg"},{"bike_id":"13b9bdf3-23f4-4d19-aee4-9e6364f3b79c","system_id":"levelo_inurba_marseille","lat":43.29585,"lon":5.37507,"is_reserved":false,"is_disabled":false,"rental_uris":{"android":"levelo://app?vid=13b9bdf3-23f4-4d19-aee4-9e6364f3b79c","ios":"levelo://app?vid=13b9bdf3-23f4-4d19-aee4-9e6364f3b79c"},"vehicle_type_id":"4","last_reported":1760980131,"current_range_meters":8000,"station_id":"ce4bgh92rcd13ifvqb50","pricing_plan_id":"cebpf4jnsgd1na2vs0mg"},{"bike_id":"379bc86e-f7ef-4a27-931e-6b7c52618796","system_id":"levelo_inurba_marseille","lat":43.29264,"lon":5.38438,"is_reserved":false,"is_disabled":false,"rental_uris":{"android":"levelo://app?vid=379bc86e-f7ef-4a27-931e-6b7c52618796","ios":"levelo://app?vid=379bc86e-f7ef-4a27-931e-6b7c52618796"},"vehicle_type_id":"4","last_reported":1760980131,"current_range_meters":8000,"station_id":"ce4bh692rcd13ifvqea0","pricing_plan_id":"cebpf4jnsgd1na2vs0mg"},{"bike_id":"648933ef-9aed-4286-892a-42f0c6c8057c","system_id":"levelo_inurba_marseille","lat":43.29264,"lon":5.36858,"is_reserved":false,"is_disabled":false,"rental_uris":{"android":"levelo://app?vid=648933ef-9aed-4286-892a-42f0c6c8057c","ios":"levelo://app?vid=648933ef-9aed-4286-892a-42f0c6c8057c"},"vehicle_type_id":"4","last_reported":1760980131,"current_range_meters":8400,"station_id":"ce4bhbp2rcd13ifvqesg","pricing_plan_id":"cebpf4jnsgd1na2vs0mg"},{"bike_id":"0a950a0d-01ce-40b2-be0e-ad7894fd72f2","system_id":"levelo_inurba_marseille","lat":43.320991,"lon":5.367731,"is_reserved":false,"is_disabled":true,"rental_uris":{"android":"levelo://app?vid=0a950a0d-01ce-40b2-be0e-ad7894fd72f2","ios":"levelo://app?vid=0a950a0d-01ce-40b2-be0e-ad7894fd72f2"},"vehicle_type_id":"4","last_reported":1760980131,"current_range_meters":8400,"station_id":"ce4bhrh2rcd13ifvqhug","pricing_plan_id":"cebpf4jnsgd1na2vs0mg"},{"bike_id":"86ce52f8-f590-4694-90e1-216ddc477b29","system_id":"levelo_inurba_marseille","lat":43.30968,"lon":5.3812,"is_reserved":false,"is_disabled":false,"rental_uris":{"android":"levelo://app?vid=86ce52f8-f590-4694-90e1-216ddc477b29","ios":"levelo://app?vid=86ce52f8-f590-4694-90e1-216ddc477b29"},"vehicle_type_id":"4","last_reported":1760980131,"current_range_meters":8400,"station_id":"","pricing_plan_id":"cebpf4jnsgd1na2vs0mg"},{"bike_id":"af35879d-4b9c-47a6-b266-ac0c1d9e1da6","system_id":"levelo_inurba_marseille","lat":43.24751,"lon":5.40068,"is_reserved":false,"is_disabled":false,"rental_uris":{"android":"levelo://app?vid=af35879d-4b9c-47a6-b266-ac0c1d9e1da6","ios":"levelo://app?vid=af35879d-4b9c-47a6-b266-ac0c1d9e1da6"},"vehicle_type_id":"4","last_reported":1760980131,"current_range_meters":8400,"station_id":"","pricing_plan_id":"cebpf4jnsgd1na2vs0mg"},{"bike_id":"47cd5fdf-8db3-4993-8f46-2de3dce8da6b","system_id":"levelo_inurba_marseille","lat":43.295414,"lon":5.385422,"is_reserved":false,"is_disabled":false,"rental_uris":{"android":"levelo://app?vid=47cd5fdf-8db3-4993-8f46-2de3dce8da6b","ios":"levelo://app?vid=47cd5fdf-8db3-4993-8f46-2de3dce8da6b"},"vehicle_type_id":"4","last_reported":1760980131,"current_range_meters":8400,"station_id":"ce4bgih2rcd13ifvqba0","pricing_plan_id":"cebpf4jnsgd1na2vs0mg"},{"bike_id":"69cd22cd-b8c8-4965-82b3-701f71d59c16","system_id":"levelo_inurba_marseille","lat":43.28944,"lon":5.36637,"is_reserved":false,"is_disabled":false,"rental_uris":{"android":"levelo://app?vid=69cd22cd-b8c8-4965-82b3-701f71d59c16","ios":"levelo://app?vid=69cd22cd-b8c8-4965-82b3-701f71d59c16"},"vehicle_type_id":"4","last_reported":1760980131,"current_range_meters":8400,"station_id":"ce4bhap2rcd13ifvqek0","pricing_plan_id":"cebpf4jnsgd1na2vs0mg"},{"bike_id":"7ee1207e-6eef-4cca-98b0-903997d04c67","system_id":"levelo_inurba_marseille","lat":43.246872,"lon":5.3892,"is_reserved":false,"is_disabled":false,"rental_uris":{"android":"levelo://app?vid=7ee1207e-6eef-4cca-98b0-903997d04c67","ios":"levelo://app?vid=7ee1207e-6eef-4cca-98b0-903997d04c67"},"vehicle_type_id":"4","last_reported":1760980131,"current_range_meters":8400,"station_id":"ce4bhg12rcd13ifvqf60","pricing_plan_id":"cebpf4jnsgd1na2vs0mg"},{"bike_id":"8a5cbce3-b6a7-4f66-9dfe-ce8eef38b849","system_id":"levelo_inurba_marseille","lat":43.29538,"lon":5.39033,"is_reserved":false,"is_disabled":false,"rental_uris":{"android":"levelo://app?vid=8a5cbce3-b6a7-4f66-9dfe-ce8eef38b849","ios":"levelo://app?vid=8a5cbce3-b6a7-4f66-9dfe-ce8eef38b849"},"vehicle_type_id":"4","last_reported":1760980131,"current_range_meters":8400,"station_id":"ce4bh3p2rcd13ifvqdp0","pricing_plan_id":"cebpf4jnsgd1na2vs0mg"},{"bike_id":"2a6a1f98-404e-443d-8df5-a3061660be3d","system_id":"levelo_inurba_marseille","lat":43.2866,"lon":5.38679,"is_reserved":false,"is_disabled":false,"rental_uris":{"android":"levelo://app?vid=2a6a1f98-404e-443d-8df5-a3061660be3d","ios":"levelo://app?vid=2a6a1f98-404e-443d-8df5-a3061660be3d"},"vehicle_type_id":"4","last_reported":1760980131,"current_range_meters":8400,"station_id":"ce4bh492rcd13ifvqdug","pricing_plan_id":"cebpf4jnsgd1na2vs0mg"},{"bike_id":"2c59cc86-a348-4735-8f6f-75bf0e4aac2c","system_id":"levelo_inurba_marseille","lat":43.33157,"lon":5.39136,"is_reserved":false,"is_disabled":false,"rental_uris":{"android":"levelo://app?vid=2c59cc86-a348-4735-8f6f-75bf0e4aac2c","ios":"levelo://app?vid=2c59cc86-a348-4735-8f6f-75bf0e4aac2c"},"vehicle_type_id":"4","last_reported":1760980131,"current_range_meters":8400,"station_id":"","pricing_plan_id":"cebpf4jnsgd1na2vs0mg"},{"bike_id":"0e635fef-e41d-49e5-b899-5ffc6bbccb76","system_id":"levelo_inurba_marseille","lat":43.324805,"lon":5.365855,"is_reserved":false,"is_disabled":false,"rental_uris":{"android":"levelo://app?vid=0e635fef-e41d-49e5-b899-5ffc6bbccb76","ios":"levelo://app?vid=0e635fef-e41d-49e5-b899-5ffc6bbccb76"},"vehicle_type_id":"4","last_reported":1760980131,"current_range_meters":8800,"station_id":"ce4bhs12rcd13ifvqhvg","pricing_plan_id":"cebpf4jnsgd1na2vs0mg"},{"bike_id":"676d88a8-f06e-4192-886d-e52926318b91","system_id":"levelo_inurba_marseille","lat":43.211979,"lon":5.350795,"is_reserved":false,"is_disabled":false,"rental_uris":{"android":"levelo://app?vid=676d88a8-f06e-4192-886d-e52926318b91","ios":"levelo://app?vid=676d88a8-f06e-4192-886d-e52926318b91"},"vehicle_type_id":"4","last_reported":1760980131,"current_range_meters":8800,"station_id":"st_cvj6sg6p6f1abm77japg","pricing_plan_id":"cebpf4jnsgd1na2vs0mg"},{"bike_id":"7fd36eea-805d-4dce-89b5-46f277eaf158","system_id":"levelo_inurba_marseille","lat":43.305097,"lon":5.366695,"is_reserved":false,"is_disabled":false,"rental_uris":{"android":"levelo://app?vid=7fd36eea-805d-4dce-89b5-46f277eaf158","ios":"levelo://app?vid=7fd36eea-805d-4dce-89b5-46f277eaf158"},"vehicle_type_id":"4","last_reported":1760980131,"current_range_meters":8800,"station_id":"","pricing_plan_id":"cebpf4jnsgd1na2vs0mg"},{"bike_id":"679c3c1f-72e8-4456-b0d9-4c2ad9c70dd9","system_id":"levelo_inurba_marseille","lat":43.21183,"lon":5.35091,"is_reserved":false,"is_disabled":false,"rental_uris":{"android":"levelo://app?vid=679c3c1f-72e8-4456-b0d9-4c2ad9c70dd9","ios":"levelo://app?vid=679c3c1f-72e8-4456-b0d9-4c2ad9c70dd9"},"vehicle_type_id":"4","last_reported":1760980131,"current_range_meters":8800,"station_id":"st_cvj6sg6p6f1abm77japg","pricing_plan_id":"cebpf4jnsgd1na2vs0mg"},{"bike_id":"1450981b-104c-4212-9b96-94e78687f823","system_id":"levelo_inurba_marseille","lat":43.27923,"lon":5.41069,"is_reserved":false,"is_disabled":false,"rental_uris":{"android":"levelo://app?vid=1450981b-104c-4212-9b96-94e78687f823","ios":"levelo://app?vid=1450981b-104c-4212-9b96-94e78687f823"},"vehicle_type_id":"4","last_reported":1760980131,"current_range_meters":8800,"station_id":"ce4bhnp2rcd13ifvqh0g","pricing_plan_id":"cebpf4jnsgd1na2vs0mg"},{"bike_id":"aefce28c-f610-476f-bf59-5cdc15d2e57f","system_id":"levelo_inurba_marseille","lat":43.28267,"lon":5.35073,"is_reserved":false,"is_disabled":false,"rental_uris":{"android":"levelo://app?vid=aefce28c-f610-476f-bf59-5cdc15d2e57f","ios":"levelo://app?vid=aefce28c-f610-476f-bf59-5cdc15d2e57f"},"vehicle_type_id":"4","last_reported":1760980131,"current_range_meters":8800,"station_id":"ce4bhbp2rcd13ifvqerg","pricing_plan_id":"cebpf4jnsgd1na2vs0mg"},{"bike_id":"b6c96865-3542-4e09-a1b0-283e97502d96","system_id":"levelo_inurba_marseille","lat":43.293039,"lon":5.374623,"is_reserved":false,"is_disabled":false,"rental_uris":{"android":"levelo://app?vid=b6c96865-3542-4e09-a1b0-283e97502d96","ios":"levelo://app?vid=b6c96865-3542-4e09-a1b0-283e97502d96"},"vehicle_type_id":"4","last_reported":1760980131,"current_range_meters":8800,"station_id":"ce4bgh92rcd13ifvqb50","pricing_plan_id":"cebpf4jnsgd1na2vs0mg"},{"bike_id":"e917c6fa-cf51-46bb-9636-c9e80079121a","system_id":"levelo_inurba_marseille","lat":43.29869,"lon":5.39728,"is_reserved":false,"is_disabled":false,"rental_uris":{"android":"levelo://app?vid=e917c6fa-cf51-46bb-9636-c9e80079121a","ios":"levelo://app?vid=e917c6fa-cf51-46bb-9636-c9e80079121a"},"vehicle_type_id":"4","last_reported":1760980131,"current_range_meters":8800,"station_id":"ce4bh0h2rcd13ifvqd50","pricing_plan_id":"cebpf4jnsgd1na2vs0mg"},{"bike_id":"06763d6d-60fd-4139-ac5a-e925ed6df649","system_id":"levelo_inurba_marseille","lat":43.23783,"lon":5.36633,"is_reserved":false,"is_disabled":false,"rental_uris":{"android":"levelo://app?vid=06763d6d-60fd-4139-ac5a-e925ed6df649","ios":"levelo://app?vid=06763d6d-60fd-4139-ac5a-e925ed6df649"},"vehicle_type_id":"4","last_reported":1760980131,"current_range_meters":9200,"station_id":"st_d3nk18o9ro0c73en2l3g","pricing_plan_id":"cebpf4jnsgd1na2vs0mg"},{"bike_id":"7a8ac50b-c3a4-490a-8f96-9c005f89ed5d","system_id":"levelo_inurba_marseille","lat":43.26521,"lon":5.39049,"is_reserved":false,"is_disabled":false,"rental_uris":{"android":"levelo://app?vid=7a8ac50b-c3a4-490a-8f96-9c005f89ed5d","ios":"levelo://app?vid=7a8ac50b-c3a4-490a-8f96-9c005f89ed5d"},"vehicle_type_id":"4","last_reported":1760980131,"current_range_meters":9200,"station_id":"","pricing_plan_id":"cebpf4jnsgd1na2vs0mg"},{"bike_id":"e015a312-f4e2-4fa5-962c-4dc7593461dd","system_id":"levelo_inurba_marseille","lat":43.27377,"lon":5.36251,"is_reserved":false,"is_disabled":false,"rental_uris":{"android":"levelo://app?vid=e015a312-f4e2-4fa5-962c-4dc7593461dd","ios":"levelo://app?vid=e015a312-f4e2-4fa5-962c-4dc7593461dd"},"vehicle_type_id":"4","last_reported":1760980131,"current_range_meters":9200,"station_id":"","pricing_plan_id":"cebpf4jnsgd1na2vs0mg"},{"bike_id":"4bbd6801-e86f-4670-a08c-5a08e1dabb92","system_id":"levelo_inurba_marseille","lat":43.292083,"lon":5.380898,"is_reserved":false,"is_disabled":false,"rental_uris":{"android":"levelo://app?vid=4bbd6801-e86f-4670-a08c-5a08e1dabb92","ios":"levelo://app?vid=4bbd6801-e86f-4670-a08c-5a08e1dabb92"},"vehicle_type_id":"4","last_reported":1760980131,"current_range_meters":9200,"station_id":"","pricing_plan_id":"cebpf4jnsgd1na2vs0mg"},{"bike_id":"9652283e-21f4-4490-ac9e-ffa9429f0005","system_id":"levelo_inurba_marseille","lat":43.29033,"lon":5.40511,"is_reserved":false,"is_disabled":false,"rental_uris":{"android":"levelo://app?vid=9652283e-21f4-4490-ac9e-ffa9429f0005","ios":"levelo://app?vid=9652283e-21f4-4490-ac9e-ffa9429f0005"},"vehicle_type_id":"4","last_reported":1760980131,"current_range_meters":9200,"station_id":"","pricing_plan_id":"cebpf4jnsgd1na2vs0mg"},{"bike_id":"486fdc60-6474-4ddf-ab7c-3d68e10cdc63","system_id":"levelo_inurba_marseille","lat":43.287532,"lon":5.384178,"is_reserved":false,"is_disabled":false,"rental_uris":{"android":"levelo://app?vid=486fdc60-6474-4ddf-ab7c-3d68e10cdc63","ios":"levelo://app?vid=486fdc60-6474-4ddf-ab7c-3d68e10cdc63"},"vehicle_type_id":"4","last_reported":1760980131,"current_range_meters":9200,"station_id":"","pricing_plan_id":"cebpf4jnsgd1na2vs0mg"},{"bike_id":"d1668fd5-d05d-42a9-b5d1-4388db8ac6a3","system_id":"levelo_inurba_marseille","lat":43.31764,"lon":5.39029,"is_reserved":false,"is_disabled":false,"rental_uris":{"android":"levelo://app?vid=d1668fd5-d05d-42a9-b5d1-4388db8ac6a3","ios":"levelo://app?vid=d1668fd5-d05d-42a9-b5d1-4388db8ac6a3"},"vehicle_type_id":"4","last_reported":1760980131,"current_range_meters":9200,"station_id":"ce4bhqp2rcd13ifvqhng","pricing_plan_id":"cebpf4jnsgd1na2vs0mg"},{"bike_id":"0f787efd-37ca-4060-a03d-15d3c3ce389f","system_id":"levelo_inurba_marseille","lat":43.29985,"lon":5.37396,"is_reserved":false,"is_disabled":false,"rental_uris":{"android":"levelo://app?vid=0f787efd-37ca-4060-a03d-15d3c3ce389f","ios":"levelo://app?vid=0f787efd-37ca-4060-a03d-15d3c3ce389f"},"vehicle_type_id":"4","last_reported":1760980131,"current_range_meters":9200,"station_id":"","pricing_plan_id":"cebpf4jnsgd1na2vs0mg"},{"bike_id":"f372cebe-43c0-4ee7-baa4-09c5e5c6d2a1","system_id":"levelo_inurba_marseille","lat":43.244225,"lon":5.37135,"is_reserved":false,"is_disabled":false,"rental_uris":{"android":"levelo://app?vid=f372cebe-43c0-4ee7-baa4-09c5e5c6d2a1","ios":"levelo://app?vid=f372cebe-43c0-4ee7-baa4-09c5e5c6d2a1"},"vehicle_type_id":"4","last_reported":1760980131,"current_range_meters":9600,"station_id":"ce4bhhh2rcd13ifvqfk0","pricing_plan_id":"cebpf4jnsgd1na2vs0mg"},{"bike_id":"a463e313-a49e-4913-86e0-55372fde2260","system_id":"levelo_inurba_marseille","lat":43.33245,"lon":5.44188,"is_reserved":false,"is_disabled":true,"rental_uris":{"android":"levelo://app?vid=a463e313-a49e-4913-86e0-55372fde2260","ios":"levelo://app?vid=a463e313-a49e-4913-86e0-55372fde2260"},"vehicle_type_id":"4","last_reported":1760980131,"current_range_meters":9600,"station_id":"","pricing_plan_id":"cebpf4jnsgd1na2vs0mg"},{"bike_id":"da6b7e48-fa16-41a7-871c-63a357da74c2","system_id":"levelo_inurba_marseille","lat":43.27076,"lon":5.42276,"is_reserved":false,"is_disabled":false,"rental_uris":{"android":"levelo://app?vid=da6b7e48-fa16-41a7-871c-63a357da74c2","ios":"levelo://app?vid=da6b7e48-fa16-41a7-871c-63a357da74c2"},"vehicle_type_id":"4","last_reported":1760980131,"current_range_meters":9600,"station_id":"ce4bhk92rcd13ifvqgb0","pricing_plan_id":"cebpf4jnsgd1na2vs0mg"},{"bike_id":"3cab6837-9492-4b2f-9f11-6d7fb4de0695","system_id":"levelo_inurba_marseille","lat":43.2958,"lon":5.36748,"is_reserved":false,"is_disabled":true,"rental_uris":{"android":"levelo://app?vid=3cab6837-9492-4b2f-9f11-6d7fb4de0695","ios":"levelo://app?vid=3cab6837-9492-4b2f-9f11-6d7fb4de0695"},"vehicle_type_id":"4","last_reported":1760980131,"current_range_meters":9600,"station_id":"ce4bgph2rcd13ifvqc2g","pricing_plan_id":"cebpf4jnsgd1na2vs0mg"},{"bike_id":"245a030c-0c43-41f8-a4cc-088d55252b06","system_id":"levelo_inurba_marseille","lat":43.24467,"lon":5.3694,"is_reserved":false,"is_disabled":false,"rental_uris":{"android":"levelo://app?vid=245a030c-0c43-41f8-a4cc-088d55252b06","ios":"levelo://app?vid=245a030c-0c43-41f8-a4cc-088d55252b06"},"vehicle_type_id":"4","last_reported":1760980131,"current_range_meters":9600,"station_id":"","pricing_plan_id":"cebpf4jnsgd1na2vs0mg"},{"bike_id":"c19289aa-c358-437c-b7b2-ed4e4efe66f9","system_id":"levelo_inurba_marseille","lat":43.30073,"lon":5.38716,"is_reserved":false,"is_disabled":false,"rental_uris":{"android":"levelo://app?vid=c19289aa-c358-437c-b7b2-ed4e4efe66f9","ios":"levelo://app?vid=c19289aa-c358-437c-b7b2-ed4e4efe66f9"},"vehicle_type_id":"4","last_reported":1760980131,"current_range_meters":9600,"station_id":"","pricing_plan_id":"cebpf4jnsgd1na2vs0mg"},{"bike_id":"a7f997d3-a4f9-4f30-bdce-2ddde27a7b05","system_id":"levelo_inurba_marseille","lat":43.28166,"lon":5.37693,"is_reserved":false,"is_disabled":false,"rental_uris":{"android":"levelo://app?vid=a7f997d3-a4f9-4f30-bdce-2ddde27a7b05","ios":"levelo://app?vid=a7f997d3-a4f9-4f30-bdce-2ddde27a7b05"},"vehicle_type_id":"4","last_reported":1760980131,"current_range_meters":9600,"station_id":"","pricing_plan_id":"cebpf4jnsgd1na2vs0mg"},{"bike_id":"8c2b079a-bae4-4f2e-b3c8-e46f90b10d4b","system_id":"levelo_inurba_marseille","lat":43.26506,"lon":5.39551,"is_reserved":false,"is_disabled":false,"rental_uris":{"android":"levelo://app?vid=8c2b079a-bae4-4f2e-b3c8-e46f90b10d4b","ios":"levelo://app?vid=8c2b079a-bae4-4f2e-b3c8-e46f90b10d4b"},"vehicle_type_id":"4","last_reported":1760980131,"current_range_meters":9600,"station_id":"ce4bhi12rcd13ifvqfq0","pricing_plan_id":"cebpf4jnsgd1na2vs0mg"},{"bike_id":"0c33e458-37ad-417e-89af-c9e7a875104a","system_id":"levelo_inurba_marseille","lat":43.29533,"lon":5.38549,"is_reserved":false,"is_disabled":false,"rental_uris":{"android":"levelo://app?vid=0c33e458-37ad-417e-89af-c9e7a875104a","ios":"levelo://app?vid=0c33e458-37ad-417e-89af-c9e7a875104a"},"vehicle_type_id":"4","last_reported":1760980131,"current_range_meters":10000,"station_id":"ce4bgih2rcd13ifvqba0","pricing_plan_id":"cebpf4jnsgd1na2vs0mg"},{"bike_id":"da22a6bb-ece8-4168-87fa-39fdca8adc0a","system_id":"levelo_inurba_marseille","lat":43.248064,"lon":5.374574,"is_reserved":false,"is_disabled":false,"rental_uris":{"android":"levelo://app?vid=da22a6bb-ece8-4168-87fa-39fdca8adc0a","ios":"levelo://app?vid=da22a6bb-ece8-4168-87fa-39fdca8adc0a"},"vehicle_type_id":"4","last_reported":1760980131,"current_range_meters":10000,"station_id":"ce4bhgh2rcd13ifvqfb0","pricing_plan_id":"cebpf4jnsgd1na2vs0mg"},{"bike_id":"59aed43f-13a8-4014-b2c4-38bf40a4080c","system_id":"levelo_inurba_marseille","lat":43.268033,"lon":5.402667,"is_reserved":false,"is_disabled":true,"rental_uris":{"android":"levelo://app?vid=59aed43f-13a8-4014-b2c4-38bf40a4080c","ios":"levelo://app?vid=59aed43f-13a8-4014-b2c4-38bf40a4080c"},"vehicle_type_id":"4","last_reported":1760980131,"current_range_meters":10800,"station_id":"ce501612rcd8frsf0b60","pricing_plan_id":"cebpf4jnsgd1na2vs0mg"},{"bike_id":"b64f5a90-0c5f-4ae5-b1e4-8d412cb049d3","system_id":"levelo_inurba_marseille","lat":43.27354,"lon":5.41506,"is_reserved":false,"is_disabled":false,"rental_uris":{"android":"levelo://app?vid=b64f5a90-0c5f-4ae5-b1e4-8d412cb049d3","ios":"levelo://app?vid=b64f5a90-0c5f-4ae5-b1e4-8d412cb049d3"},"vehicle_type_id":"4","last_reported":1760980131,"current_range_meters":10800,"station_id":"","pricing_plan_id":"cebpf4jnsgd1na2vs0mg"},{"bike_id":"9d449aff-01f0-4b92-9983-749d954577ea","system_id":"levelo_inurba_marseille","lat":43.27258,"lon":5.40076,"is_reserved":false,"is_disabled":false,"rental_uris":{"android":"levelo://app?vid=9d449aff-01f0-4b92-9983-749d954577ea","ios":"levelo://app?vid=9d449aff-01f0-4b92-9983-749d954577ea"},"vehicle_type_id":"4","last_reported":1760980131,"current_range_meters":10800,"station_id":"","pricing_plan_id":"cebpf4jnsgd1na2vs0mg"},{"bike_id":"8f5b4e3f-d0c8-438b-955e-3fd6c08bc9d3","system_id":"levelo_inurba_marseille","lat":43.24168,"lon":5.36401,"is_reserved":false,"is_disabled":false,"rental_uris":{"android":"levelo://app?vid=8f5b4e3f-d0c8-438b-955e-3fd6c08bc9d3","ios":"levelo://app?vid=8f5b4e3f-d0c8-438b-955e-3fd6c08bc9d3"},"vehicle_type_id":"4","last_reported":1760980131,"current_range_meters":10800,"station_id":"cpo36qri1sfpv3e86is0","pricing_plan_id":"cebpf4jnsgd1na2vs0mg"},{"bike_id":"599c01b3-22df-4a9a-9d4e-358da650153e","system_id":"levelo_inurba_marseille","lat":43.337444,"lon":5.374475,"is_reserved":false,"is_disabled":false,"rental_uris":{"android":"levelo://app?vid=599c01b3-22df-4a9a-9d4e-358da650153e","ios":"levelo://app?vid=599c01b3-22df-4a9a-9d4e-358da650153e"},"vehicle_type_id":"4","last_reported":1760980131,"current_range_meters":10800,"station_id":"","pricing_plan_id":"cebpf4jnsgd1na2vs0mg"},{"bike_id":"e9024623-81f3-4e78-af91-5d196f8f38af","system_id":"levelo_inurba_marseille","lat":43.30207,"lon":5.39466,"is_reserved":false,"is_disabled":false,"rental_uris":{"android":"levelo://app?vid=e9024623-81f3-4e78-af91-5d196f8f38af","ios":"levelo://app?vid=e9024623-81f3-4e78-af91-5d196f8f38af"},"vehicle_type_id":"4","last_reported":1760980131,"current_range_meters":10800,"station_id":"ce4bh0p2rcd13ifvqd70","pricing_plan_id":"cebpf4jnsgd1na2vs0mg"},{"bike_id":"9472f312-b262-42fc-ac26-2d3e64ca53c3","system_id":"levelo_inurba_marseille","lat":43.25503,"lon":5.37649,"is_reserved":false,"is_disabled":false,"rental_uris":{"android":"levelo://app?vid=9472f312-b262-42fc-ac26-2d3e64ca53c3","ios":"levelo://app?vid=9472f312-b262-42fc-ac26-2d3e64ca53c3"},"vehicle_type_id":"4","last_reported":1760980131,"current_range_meters":10800,"station_id":"ce4bhh12rcd13ifvqff0","pricing_plan_id":"cebpf4jnsgd1na2vs0mg"},{"bike_id":"793bd619-12af-4bc1-a674-b70d86b415bd","system_id":"levelo_inurba_marseille","lat":43.33135,"lon":5.39129,"is_reserved":false,"is_disabled":false,"rental_uris":{"android":"levelo://app?vid=793bd619-12af-4bc1-a674-b70d86b415bd","ios":"levelo://app?vid=793bd619-12af-4bc1-a674-b70d86b415bd"},"vehicle_type_id":"4","last_reported":1760980131,"current_range_meters":10800,"station_id":"","pricing_plan_id":"cebpf4jnsgd1na2vs0mg"},{"bike_id":"11af2c33-7571-4194-9fd5-89fa69cb43b5","system_id":"levelo_inurba_marseille","lat":43.24676,"lon":5.38169,"is_reserved":false,"is_disabled":false,"rental_uris":{"android":"levelo://app?vid=11af2c33-7571-4194-9fd5-89fa69cb43b5","ios":"levelo://app?vid=11af2c33-7571-4194-9fd5-89fa69cb43b5"},"vehicle_type_id":"4","last_reported":1760980131,"current_range_meters":11200,"station_id":"ce4bhih2rcd13ifvqfr0","pricing_plan_id":"cebpf4jnsgd1na2vs0mg"},{"bike_id":"78fe83c7-5376-41e5-afa1-483e220954a6","system_id":"levelo_inurba_marseille","lat":43.29233,"lon":5.37136,"is_reserved":false,"is_disabled":false,"rental_uris":{"android":"levelo://app?vid=78fe83c7-5376-41e5-afa1-483e220954a6","ios":"levelo://app?vid=78fe83c7-5376-41e5-afa1-483e220954a6"},"vehicle_type_id":"4","last_reported":1760980131,"current_range_meters":11200,"station_id":"","pricing_plan_id":"cebpf4jnsgd1na2vs0mg"},{"bike_id":"2010d1c0-54eb-4cf9-b5e7-d1f1f50ca71a","system_id":"levelo_inurba_marseille","lat":43.25326,"lon":5.42175,"is_reserved":false,"is_disabled":false,"rental_uris":{"android":"levelo://app?vid=2010d1c0-54eb-4cf9-b5e7-d1f1f50ca71a","ios":"levelo://app?vid=2010d1c0-54eb-4cf9-b5e7-d1f1f50ca71a"},"vehicle_type_id":"4","last_reported":1760980131,"current_range_meters":11200,"station_id":"st_d2m65c5bi1j21697t3ng","pricing_plan_id":"cebpf4jnsgd1na2vs0mg"},{"bike_id":"fbf45233-5b2e-47b2-8f6d-b078fe72be0d","system_id":"levelo_inurba_marseille","lat":43.298121,"lon":5.440671,"is_reserved":false,"is_disabled":false,"rental_uris":{"android":"levelo://app?vid=fbf45233-5b2e-47b2-8f6d-b078fe72be0d","ios":"levelo://app?vid=fbf45233-5b2e-47b2-8f6d-b078fe72be0d"},"vehicle_type_id":"4","last_reported":1760980131,"current_range_meters":11200,"station_id":"","pricing_plan_id":"cebpf4jnsgd1na2vs0mg"},{"bike_id":"135834a7-c5c7-40c1-92bf-1ee19a049c7a","system_id":"levelo_inurba_marseille","lat":43.23186,"lon":5.39998,"is_reserved":false,"is_disabled":false,"rental_uris":{"android":"levelo://app?vid=135834a7-c5c7-40c1-92bf-1ee19a049c7a","ios":"levelo://app?vid=135834a7-c5c7-40c1-92bf-1ee19a049c7a"},"vehicle_type_id":"4","last_reported":1760980131,"current_range_meters":11200,"station_id":"ce4bhn12rcd13ifvqgqg","pricing_plan_id":"cebpf4jnsgd1na2vs0mg"},{"bike_id":"d6318f9e-0184-4ff6-931a-ee0c5a28c2b7","system_id":"levelo_inurba_marseille","lat":43.23191,"lon":5.35555,"is_reserved":false,"is_disabled":false,"rental_uris":{"android":"levelo://app?vid=d6318f9e-0184-4ff6-931a-ee0c5a28c2b7","ios":"levelo://app?vid=d6318f9e-0184-4ff6-931a-ee0c5a28c2b7"},"vehicle_type_id":"4","last_reported":1760980131,"current_range_meters":11200,"station_id":"ce4bhu92rcd13ifvqi70","pricing_plan_id":"cebpf4jnsgd1na2vs0mg"},{"bike_id":"042bfc20-d841-45f0-85fb-795c09ef965b","system_id":"levelo_inurba_marseille","lat":43.29261,"lon":5.40918,"is_reserved":false,"is_disabled":false,"rental_uris":{"android":"levelo://app?vid=042bfc20-d841-45f0-85fb-795c09ef965b","ios":"levelo://app?vid=042bfc20-d841-45f0-85fb-795c09ef965b"},"vehicle_type_id":"4","last_reported":1760980131,"current_range_meters":11200,"station_id":"ce4bh192rcd13ifvqdc0","pricing_plan_id":"cebpf4jnsgd1na2vs0mg"},{"bike_id":"3cef5c66-b2e9-4295-b392-2eb2885cc4bb","system_id":"levelo_inurba_marseille","lat":43.28615,"lon":5.37057,"is_reserved":false,"is_disabled":false,"rental_uris":{"android":"levelo://app?vid=3cef5c66-b2e9-4295-b392-2eb2885cc4bb","ios":"levelo://app?vid=3cef5c66-b2e9-4295-b392-2eb2885cc4bb"},"vehicle_type_id":"4","last_reported":1760980131,"current_range_meters":11200,"station_id":"ce4bht12rcd13ifvqi60","pricing_plan_id":"cebpf4jnsgd1na2vs0mg"},{"bike_id":"dde75b88-ae6b-435b-a57e-449367fe22d5","system_id":"levelo_inurba_marseille","lat":43.24649,"lon":5.38181,"is_reserved":false,"is_disabled":true,"rental_uris":{"android":"levelo://app?vid=dde75b88-ae6b-435b-a57e-449367fe22d5","ios":"levelo://app?vid=dde75b88-ae6b-435b-a57e-449367fe22d5"},"vehicle_type_id":"4","last_reported":1760980131,"current_range_meters":11200,"station_id":"ce4bhih2rcd13ifvqfr0","pricing_plan_id":"cebpf4jnsgd1na2vs0mg"},{"bike_id":"92a4c54e-1924-4e71-bd6c-6e63ea351fc2","system_id":"levelo_inurba_marseille","lat":43.28408,"lon":5.37528,"is_reserved":false,"is_disabled":false,"rental_uris":{"android":"levelo://app?vid=92a4c54e-1924-4e71-bd6c-6e63ea351fc2","ios":"levelo://app?vid=92a4c54e-1924-4e71-bd6c-6e63ea351fc2"},"vehicle_type_id":"4","last_reported":1760980131,"current_range_meters":11200,"station_id":"ce4bh412rcd13ifvqds0","pricing_plan_id":"cebpf4jnsgd1na2vs0mg"},{"bike_id":"b795dcee-745f-4569-9cc0-ecc3631ffb10","system_id":"levelo_inurba_marseille","lat":43.30154,"lon":5.37205,"is_reserved":false,"is_disabled":false,"rental_uris":{"android":"levelo://app?vid=b795dcee-745f-4569-9cc0-ecc3631ffb10","ios":"levelo://app?vid=b795dcee-745f-4569-9cc0-ecc3631ffb10"},"vehicle_type_id":"4","last_reported":1760980131,"current_range_meters":11600,"station_id":"","pricing_plan_id":"cebpf4jnsgd1na2vs0mg"},{"bike_id":"c0255f97-06bd-4bf0-814b-86941045a7a7","system_id":"levelo_inurba_marseille","lat":43.29534,"lon":5.39029,"is_reserved":false,"is_disabled":false,"rental_uris":{"android":"levelo://app?vid=c0255f97-06bd-4bf0-814b-86941045a7a7","ios":"levelo://app?vid=c0255f97-06bd-4bf0-814b-86941045a7a7"},"vehicle_type_id":"4","last_reported":1760980131,"current_range_meters":11600,"station_id":"ce4bh3p2rcd13ifvqdp0","pricing_plan_id":"cebpf4jnsgd1na2vs0mg"},{"bike_id":"c530e950-50a8-4b2f-81e6-a5f7e6f752e8","system_id":"levelo_inurba_marseille","lat":43.33759,"lon":5.37473,"is_reserved":false,"is_disabled":false,"rental_uris":{"android":"levelo://app?vid=c530e950-50a8-4b2f-81e6-a5f7e6f752e8","ios":"levelo://app?vid=c530e950-50a8-4b2f-81e6-a5f7e6f752e8"},"vehicle_type_id":"4","last_reported":1760980131,"current_range_meters":11600,"station_id":"","pricing_plan_id":"cebpf4jnsgd1na2vs0mg"},{"bike_id":"3e9f1bf7-e529-4049-991a-2535aa0af807","system_id":"levelo_inurba_marseille","lat":43.28418,"lon":5.37512,"is_reserved":false,"is_disabled":false,"rental_uris":{"android":"levelo://app?vid=3e9f1bf7-e529-4049-991a-2535aa0af807","ios":"levelo://app?vid=3e9f1bf7-e529-4049-991a-2535aa0af807"},"vehicle_type_id":"4","last_reported":1760980131,"current_range_meters":11600,"station_id":"ce4bh412rcd13ifvqds0","pricing_plan_id":"cebpf4jnsgd1na2vs0mg"},{"bike_id":"b84f5d5c-4af3-41b9-bd23-a606402416d4","system_id":"levelo_inurba_marseille","lat":43.32041,"lon":5.41543,"is_reserved":false,"is_disabled":false,"rental_uris":{"android":"levelo://app?vid=b84f5d5c-4af3-41b9-bd23-a606402416d4","ios":"levelo://app?vid=b84f5d5c-4af3-41b9-bd23-a606402416d4"},"vehicle_type_id":"4","last_reported":1760980131,"current_range_meters":11600,"station_id":"","pricing_plan_id":"cebpf4jnsgd1na2vs0mg"},{"bike_id":"58d1caef-d63c-4f59-87dc-39e9f370e557","system_id":"levelo_inurba_marseille","lat":43.29576,"lon":5.39983,"is_reserved":false,"is_disabled":false,"rental_uris":{"android":"levelo://app?vid=58d1caef-d63c-4f59-87dc-39e9f370e557","ios":"levelo://app?vid=58d1caef-d63c-4f59-87dc-39e9f370e557"},"vehicle_type_id":"4","last_reported":1760980131,"current_range_meters":11600,"station_id":"ce4bh312rcd13ifvqdj0","pricing_plan_id":"cebpf4jnsgd1na2vs0mg"},{"bike_id":"19e12642-bec1-4542-be51-03af5f7687f4","system_id":"levelo_inurba_marseille","lat":43.26567,"lon":5.4033,"is_reserved":false,"is_disabled":false,"rental_uris":{"android":"levelo://app?vid=19e12642-bec1-4542-be51-03af5f7687f4","ios":"levelo://app?vid=19e12642-bec1-4542-be51-03af5f7687f4"},"vehicle_type_id":"4","last_reported":1760980131,"current_range_meters":11600,"station_id":"ce4bhmp2rcd13ifvqgng","pricing_plan_id":"cebpf4jnsgd1na2vs0mg"},{"bike_id":"8f64d89a-f39c-4694-a714-8b55e9562bbe","system_id":"levelo_inurba_marseille","lat":43.2954,"lon":5.38546,"is_reserved":false,"is_disabled":false,"rental_uris":{"android":"levelo://app?vid=8f64d89a-f39c-4694-a714-8b55e9562bbe","ios":"levelo://app?vid=8f64d89a-f39c-4694-a714-8b55e9562bbe"},"vehicle_type_id":"4","last_reported":1760980131,"current_range_meters":12000,"station_id":"ce4bgih2rcd13ifvqba0","pricing_plan_id":"cebpf4jnsgd1na2vs0mg"},{"bike_id":"1c850236-6bb0-4c24-8b3e-ad59e55b0baf","system_id":"levelo_inurba_marseille","lat":43.28416,"lon":5.37502,"is_reserved":false,"is_disabled":false,"rental_uris":{"android":"levelo://app?vid=1c850236-6bb0-4c24-8b3e-ad59e55b0baf","ios":"levelo://app?vid=1c850236-6bb0-4c24-8b3e-ad59e55b0baf"},"vehicle_type_id":"4","last_reported":1760980131,"current_range_meters":12000,"station_id":"ce4bh412rcd13ifvqds0","pricing_plan_id":"cebpf4jnsgd1na2vs0mg"},{"bike_id":"15420d38-a7a6-4ef1-a6fb-d9427abf4333","system_id":"levelo_inurba_marseille","lat":43.30482,"lon":5.40078,"is_reserved":false,"is_disabled":false,"rental_uris":{"android":"levelo://app?vid=15420d38-a7a6-4ef1-a6fb-d9427abf4333","ios":"levelo://app?vid=15420d38-a7a6-4ef1-a6fb-d9427abf4333"},"vehicle_type_id":"4","last_reported":1760980131,"current_range_meters":12000,"station_id":"","pricing_plan_id":"cebpf4jnsgd1na2vs0mg"},{"bike_id":"35d8b230-e487-439a-9c56-35e9d4b94c5e","system_id":"levelo_inurba_marseille","lat":43.24383,"lon":5.37048,"is_reserved":false,"is_disabled":false,"rental_uris":{"android":"levelo://app?vid=35d8b230-e487-439a-9c56-35e9d4b94c5e","ios":"levelo://app?vid=35d8b230-e487-439a-9c56-35e9d4b94c5e"},"vehicle_type_id":"4","last_reported":1760980131,"current_range_meters":12000,"station_id":"ce4bhhh2rcd13ifvqfk0","pricing_plan_id":"cebpf4jnsgd1na2vs0mg"},{"bike_id":"faa3e668-6719-4125-8206-72a0a37494c0","system_id":"levelo_inurba_marseille","lat":43.26935,"lon":5.40266,"is_reserved":false,"is_disabled":true,"rental_uris":{"android":"levelo://app?vid=faa3e668-6719-4125-8206-72a0a37494c0","ios":"levelo://app?vid=faa3e668-6719-4125-8206-72a0a37494c0"},"vehicle_type_id":"4","last_reported":1760980131,"current_range_meters":12000,"station_id":"cjm6bp8fraef2m0cb0m0","pricing_plan_id":"cebpf4jnsgd1na2vs0mg"},{"bike_id":"25692812-6513-48cc-878b-b86b30ea2e1e","system_id":"levelo_inurba_marseille","lat":43.27614,"lon":5.3611,"is_reserved":false,"is_disabled":false,"rental_uris":{"android":"levelo://app?vid=25692812-6513-48cc-878b-b86b30ea2e1e","ios":"levelo://app?vid=25692812-6513-48cc-878b-b86b30ea2e1e"},"vehicle_type_id":"4","last_reported":1760980131,"current_range_meters":12400,"station_id":"ce4bgj92rcd13ifvqbe0","pricing_plan_id":"cebpf4jnsgd1na2vs0mg"},{"bike_id":"d9e4381f-efa9-489c-8212-064480e20ecb","system_id":"levelo_inurba_marseille","lat":43.24811,"lon":5.37459,"is_reserved":false,"is_disabled":false,"rental_uris":{"android":"levelo://app?vid=d9e4381f-efa9-489c-8212-064480e20ecb","ios":"levelo://app?vid=d9e4381f-efa9-489c-8212-064480e20ecb"},"vehicle_type_id":"4","last_reported":1760980131,"current_range_meters":12400,"station_id":"ce4bhgh2rcd13ifvqfb0","pricing_plan_id":"cebpf4jnsgd1na2vs0mg"},{"bike_id":"6e8ed827-a6f7-46f1-ad28-2f0468b71691","system_id":"levelo_inurba_marseille","lat":43.32111,"lon":5.36757,"is_reserved":false,"is_disabled":true,"rental_uris":{"android":"levelo://app?vid=6e8ed827-a6f7-46f1-ad28-2f0468b71691","ios":"levelo://app?vid=6e8ed827-a6f7-46f1-ad28-2f0468b71691"},"vehicle_type_id":"4","last_reported":1760980131,"current_range_meters":12400,"station_id":"ce4bhrh2rcd13ifvqhug","pricing_plan_id":"cebpf4jnsgd1na2vs0mg"},{"bike_id":"c38d4779-18e1-43c4-a71d-5d81c3a33a62","system_id":"levelo_inurba_marseille","lat":43.297944,"lon":5.380952,"is_reserved":false,"is_disabled":true,"rental_uris":{"android":"levelo://app?vid=c38d4779-18e1-43c4-a71d-5d81c3a33a62","ios":"levelo://app?vid=c38d4779-18e1-43c4-a71d-5d81c3a33a62"},"vehicle_type_id":"4","last_reported":1760980131,"current_range_meters":12400,"station_id":"ce4bgip2rcd13ifvqbb0","pricing_plan_id":"cebpf4jnsgd1na2vs0mg"},{"bike_id":"48171ff7-2fa5-4271-b28f-3e4dfa75eb46","system_id":"levelo_inurba_marseille","lat":43.25704,"lon":5.41045,"is_reserved":false,"is_disabled":false,"rental_uris":{"android":"levelo://app?vid=48171ff7-2fa5-4271-b28f-3e4dfa75eb46","ios":"levelo://app?vid=48171ff7-2fa5-4271-b28f-3e4dfa75eb46"},"vehicle_type_id":"4","last_reported":1760980131,"current_range_meters":12400,"station_id":"ce4bhkp2rcd13ifvqgd0","pricing_plan_id":"cebpf4jnsgd1na2vs0mg"},{"bike_id":"071e898f-8a31-4dba-959b-b2095e68eb23","system_id":"levelo_inurba_marseille","lat":43.26597,"lon":5.38983,"is_reserved":false,"is_disabled":false,"rental_uris":{"android":"levelo://app?vid=071e898f-8a31-4dba-959b-b2095e68eb23","ios":"levelo://app?vid=071e898f-8a31-4dba-959b-b2095e68eb23"},"vehicle_type_id":"4","last_reported":1760980131,"current_range_meters":12400,"station_id":"ce4bhe12rcd13ifvqf30","pricing_plan_id":"cebpf4jnsgd1na2vs0mg"},{"bike_id":"c2c126fe-6c84-4d4a-aabc-eea88bb59579","system_id":"levelo_inurba_marseille","lat":43.28669,"lon":5.38699,"is_reserved":false,"is_disabled":true,"rental_uris":{"android":"levelo://app?vid=c2c126fe-6c84-4d4a-aabc-eea88bb59579","ios":"levelo://app?vid=c2c126fe-6c84-4d4a-aabc-eea88bb59579"},"vehicle_type_id":"4","last_reported":1760980131,"current_range_meters":12800,"station_id":"ce4bh492rcd13ifvqdug","pricing_plan_id":"cebpf4jnsgd1na2vs0mg"},{"bike_id":"b23c20f1-8966-4de1-9032-c72a586c25c7","system_id":"levelo_inurba_marseille","lat":43.28569,"lon":5.39501,"is_reserved":false,"is_disabled":false,"rental_uris":{"android":"levelo://app?vid=b23c20f1-8966-4de1-9032-c72a586c25c7","ios":"levelo://app?vid=b23c20f1-8966-4de1-9032-c72a586c25c7"},"vehicle_type_id":"4","last_reported":1760980131,"current_range_meters":12800,"station_id":"ce4bh292rcd13ifvqdg0","pricing_plan_id":"cebpf4jnsgd1na2vs0mg"},{"bike_id":"3cbb0706-a5db-4392-8d23-c1d91599db83","system_id":"levelo_inurba_marseille","lat":43.27062,"lon":5.40266,"is_reserved":false,"is_disabled":false,"rental_uris":{"android":"levelo://app?vid=3cbb0706-a5db-4392-8d23-c1d91599db83","ios":"levelo://app?vid=3cbb0706-a5db-4392-8d23-c1d91599db83"},"vehicle_type_id":"4","last_reported":1760980131,"current_range_meters":12800,"station_id":"ce4bhk92rcd13ifvqgc0","pricing_plan_id":"cebpf4jnsgd1na2vs0mg"},{"bike_id":"85423737-f746-46de-bbee-93cf6572bce7","system_id":"levelo_inurba_marseille","lat":43.28671,"lon":5.38663,"is_reserved":false,"is_disabled":false,"rental_uris":{"android":"levelo://app?vid=85423737-f746-46de-bbee-93cf6572bce7","ios":"levelo://app?vid=85423737-f746-46de-bbee-93cf6572bce7"},"vehicle_type_id":"4","last_reported":1760980131,"current_range_meters":12800,"station_id":"ce4bh492rcd13ifvqdug","pricing_plan_id":"cebpf4jnsgd1na2vs0mg"},{"bike_id":"ead60bf8-7a6e-4d38-890a-7c0c2e042668","system_id":"levelo_inurba_marseille","lat":43.28464,"lon":5.35897,"is_reserved":false,"is_disabled":false,"rental_uris":{"android":"levelo://app?vid=ead60bf8-7a6e-4d38-890a-7c0c2e042668","ios":"levelo://app?vid=ead60bf8-7a6e-4d38-890a-7c0c2e042668"},"vehicle_type_id":"4","last_reported":1760980131,"current_range_meters":12800,"station_id":"ce4bhah2rcd13ifvqei0","pricing_plan_id":"cebpf4jnsgd1na2vs0mg"},{"bike_id":"61da2458-70a9-42a1-8ec8-8c8bac515284","system_id":"levelo_inurba_marseille","lat":43.290039,"lon":5.356241,"is_reserved":false,"is_disabled":false,"rental_uris":{"android":"levelo://app?vid=61da2458-70a9-42a1-8ec8-8c8bac515284","ios":"levelo://app?vid=61da2458-70a9-42a1-8ec8-8c8bac515284"},"vehicle_type_id":"4","last_reported":1760980131,"current_range_meters":12800,"station_id":"ce4bhb92rcd13ifvqen0","pricing_plan_id":"cebpf4jnsgd1na2vs0mg"},{"bike_id":"fff916b7-74d1-4acd-b164-fa6e44d4f92c","system_id":"levelo_inurba_marseille","lat":43.23188,"lon":5.39997,"is_reserved":false,"is_disabled":false,"rental_uris":{"android":"levelo://app?vid=fff916b7-74d1-4acd-b164-fa6e44d4f92c","ios":"levelo://app?vid=fff916b7-74d1-4acd-b164-fa6e44d4f92c"},"vehicle_type_id":"4","last_reported":1760980131,"current_range_meters":12800,"station_id":"ce4bhn12rcd13ifvqgqg","pricing_plan_id":"cebpf4jnsgd1na2vs0mg"},{"bike_id":"06c84d1b-6e81-4ab2-ab43-e166647822bc","system_id":"levelo_inurba_marseille","lat":43.289212,"lon":5.36852,"is_reserved":false,"is_disabled":false,"rental_uris":{"android":"levelo://app?vid=06c84d1b-6e81-4ab2-ab43-e166647822bc","ios":"levelo://app?vid=06c84d1b-6e81-4ab2-ab43-e166647822bc"},"vehicle_type_id":"4","last_reported":1760980131,"current_range_meters":13600,"station_id":"","pricing_plan_id":"cebpf4jnsgd1na2vs0mg"},{"bike_id":"88112480-f544-41d9-b526-5b9766c7b969","system_id":"levelo_inurba_marseille","lat":43.28564,"lon":5.39495,"is_reserved":false,"is_disabled":false,"rental_uris":{"android":"levelo://app?vid=88112480-f544-41d9-b526-5b9766c7b969","ios":"levelo://app?vid=88112480-f544-41d9-b526-5b9766c7b969"},"vehicle_type_id":"4","last_reported":1760980131,"current_range_meters":13600,"station_id":"ce4bh292rcd13ifvqdg0","pricing_plan_id":"cebpf4jnsgd1na2vs0mg"},{"bike_id":"2ab235ce-ce1c-4e5a-b8f7-e903ac97becc","system_id":"levelo_inurba_marseille","lat":43.33476,"lon":5.39993,"is_reserved":false,"is_disabled":false,"rental_uris":{"android":"levelo://app?vid=2ab235ce-ce1c-4e5a-b8f7-e903ac97becc","ios":"levelo://app?vid=2ab235ce-ce1c-4e5a-b8f7-e903ac97becc"},"vehicle_type_id":"4","last_reported":1760980131,"current_range_meters":13600,"station_id":"","pricing_plan_id":"cebpf4jnsgd1na2vs0mg"},{"bike_id":"5aaea66b-e942-4743-b06d-3132f5b3e7f9","system_id":"levelo_inurba_marseille","lat":43.30312,"lon":5.36895,"is_reserved":false,"is_disabled":false,"rental_uris":{"android":"levelo://app?vid=5aaea66b-e942-4743-b06d-3132f5b3e7f9","ios":"levelo://app?vid=5aaea66b-e942-4743-b06d-3132f5b3e7f9"},"vehicle_type_id":"4","last_reported":1760980131,"current_range_meters":13600,"station_id":"ce4bgqh2rcd13ifvqc5g","pricing_plan_id":"cebpf4jnsgd1na2vs0mg"},{"bike_id":"5a9990bb-1182-401d-bfab-25ec2ecfb185","system_id":"levelo_inurba_marseille","lat":43.282715,"lon":5.350612,"is_reserved":false,"is_disabled":false,"rental_uris":{"android":"levelo://app?vid=5a9990bb-1182-401d-bfab-25ec2ecfb185","ios":"levelo://app?vid=5a9990bb-1182-401d-bfab-25ec2ecfb185"},"vehicle_type_id":"4","last_reported":1760980131,"current_range_meters":13600,"station_id":"ce4bhbp2rcd13ifvqerg","pricing_plan_id":"cebpf4jnsgd1na2vs0mg"},{"bike_id":"0b28870f-c485-47c4-8e10-faf5e5778815","system_id":"levelo_inurba_marseille","lat":43.31318,"lon":5.39688,"is_reserved":false,"is_disabled":false,"rental_uris":{"android":"levelo://app?vid=0b28870f-c485-47c4-8e10-faf5e5778815","ios":"levelo://app?vid=0b28870f-c485-47c4-8e10-faf5e5778815"},"vehicle_type_id":"4","last_reported":1760980131,"current_range_meters":13600,"station_id":"ce4bgvp2rcd13ifvqcu0","pricing_plan_id":"cebpf4jnsgd1na2vs0mg"},{"bike_id":"50256437-f563-4e18-83ab-119789c51b86","system_id":"levelo_inurba_marseille","lat":43.31648,"lon":5.37601,"is_reserved":false,"is_disabled":false,"rental_uris":{"android":"levelo://app?vid=50256437-f563-4e18-83ab-119789c51b86","ios":"levelo://app?vid=50256437-f563-4e18-83ab-119789c51b86"},"vehicle_type_id":"4","last_reported":1760980131,"current_range_meters":14000,"station_id":"","pricing_plan_id":"cebpf4jnsgd1na2vs0mg"},{"bike_id":"6d8515aa-6a6c-449b-98bb-b95b60c254f4","system_id":"levelo_inurba_marseille","lat":43.29267,"lon":5.38435,"is_reserved":false,"is_disabled":false,"rental_uris":{"android":"levelo://app?vid=6d8515aa-6a6c-449b-98bb-b95b60c254f4","ios":"levelo://app?vid=6d8515aa-6a6c-449b-98bb-b95b60c254f4"},"vehicle_type_id":"4","last_reported":1760980131,"current_range_meters":14000,"station_id":"ce4bh692rcd13ifvqea0","pricing_plan_id":"cebpf4jnsgd1na2vs0mg"},{"bike_id":"ddf70c9b-0ef2-4a26-af60-f6cb11d7323b","system_id":"levelo_inurba_marseille","lat":43.23181,"lon":5.39985,"is_reserved":false,"is_disabled":false,"rental_uris":{"android":"levelo://app?vid=ddf70c9b-0ef2-4a26-af60-f6cb11d7323b","ios":"levelo://app?vid=ddf70c9b-0ef2-4a26-af60-f6cb11d7323b"},"vehicle_type_id":"4","last_reported":1760980131,"current_range_meters":14000,"station_id":"ce4bhn12rcd13ifvqgqg","pricing_plan_id":"cebpf4jnsgd1na2vs0mg"},{"bike_id":"89b45076-5928-4374-8934-8ac6d6b094a2","system_id":"levelo_inurba_marseille","lat":43.28619,"lon":5.3511,"is_reserved":false,"is_disabled":false,"rental_uris":{"android":"levelo://app?vid=89b45076-5928-4374-8934-8ac6d6b094a2","ios":"levelo://app?vid=89b45076-5928-4374-8934-8ac6d6b094a2"},"vehicle_type_id":"4","last_reported":1760980131,"current_range_meters":14000,"station_id":"ce4bhch2rcd13ifvqeug","pricing_plan_id":"cebpf4jnsgd1na2vs0mg"},{"bike_id":"44def8bb-fc22-46bb-a308-b8e670ec5dfd","system_id":"levelo_inurba_marseille","lat":43.30131,"lon":5.37428,"is_reserved":false,"is_disabled":true,"rental_uris":{"android":"levelo://app?vid=44def8bb-fc22-46bb-a308-b8e670ec5dfd","ios":"levelo://app?vid=44def8bb-fc22-46bb-a308-b8e670ec5dfd"},"vehicle_type_id":"4","last_reported":1760980131,"current_range_meters":14000,"station_id":"ce4bgs92rcd13ifvqcc0","pricing_plan_id":"cebpf4jnsgd1na2vs0mg"},{"bike_id":"32dbdba0-e039-4c71-9c95-70d7b309a29d","system_id":"levelo_inurba_marseille","lat":43.282108,"lon":5.349931,"is_reserved":false,"is_disabled":false,"rental_uris":{"android":"levelo://app?vid=32dbdba0-e039-4c71-9c95-70d7b309a29d","ios":"levelo://app?vid=32dbdba0-e039-4c71-9c95-70d7b309a29d"},"vehicle_type_id":"4","last_reported":1760980131,"current_range_meters":14000,"station_id":"","pricing_plan_id":"cebpf4jnsgd1na2vs0mg"},{"bike_id":"5a35347d-1dbb-434c-8651-0148cd77cd1e","system_id":"levelo_inurba_marseille","lat":43.3175,"lon":5.38585,"is_reserved":false,"is_disabled":false,"rental_uris":{"android":"levelo://app?vid=5a35347d-1dbb-434c-8651-0148cd77cd1e","ios":"levelo://app?vid=5a35347d-1dbb-434c-8651-0148cd77cd1e"},"vehicle_type_id":"4","last_reported":1760980131,"current_range_meters":14000,"station_id":"","pricing_plan_id":"cebpf4jnsgd1na2vs0mg"},{"bike_id":"9953bb32-6d68-488a-9e42-24a31e2ab81f","system_id":"levelo_inurba_marseille","lat":43.31525,"lon":5.38034,"is_reserved":false,"is_disabled":false,"rental_uris":{"android":"levelo://app?vid=9953bb32-6d68-488a-9e42-24a31e2ab81f","ios":"levelo://app?vid=9953bb32-6d68-488a-9e42-24a31e2ab81f"},"vehicle_type_id":"4","last_reported":1760980131,"current_range_meters":14400,"station_id":"ce4bhsp2rcd13ifvqi50","pricing_plan_id":"cebpf4jnsgd1na2vs0mg"},{"bike_id":"af2b1227-7d32-4713-bc16-dd0378a8632d","system_id":"levelo_inurba_marseille","lat":43.30421,"lon":5.3975,"is_reserved":false,"is_disabled":false,"rental_uris":{"android":"levelo://app?vid=af2b1227-7d32-4713-bc16-dd0378a8632d","ios":"levelo://app?vid=af2b1227-7d32-4713-bc16-dd0378a8632d"},"vehicle_type_id":"4","last_reported":1760980131,"current_range_meters":14400,"station_id":"ce4bh092rcd13ifvqd20","pricing_plan_id":"cebpf4jnsgd1na2vs0mg"},{"bike_id":"cf930612-65e9-47fe-8076-998136cdc343","system_id":"levelo_inurba_marseille","lat":43.292938,"lon":5.374659,"is_reserved":false,"is_disabled":false,"rental_uris":{"android":"levelo://app?vid=cf930612-65e9-47fe-8076-998136cdc343","ios":"levelo://app?vid=cf930612-65e9-47fe-8076-998136cdc343"},"vehicle_type_id":"4","last_reported":1760980131,"current_range_meters":14400,"station_id":"ce4bgi12rcd13ifvqb70","pricing_plan_id":"cebpf4jnsgd1na2vs0mg"},{"bike_id":"8758806c-a775-4e20-b8bd-1fb9bd76f1c5","system_id":"levelo_inurba_marseille","lat":43.296666,"lon":5.387036,"is_reserved":false,"is_disabled":false,"rental_uris":{"android":"levelo://app?vid=8758806c-a775-4e20-b8bd-1fb9bd76f1c5","ios":"levelo://app?vid=8758806c-a775-4e20-b8bd-1fb9bd76f1c5"},"vehicle_type_id":"4","last_reported":1760980131,"current_range_meters":14400,"station_id":"","pricing_plan_id":"cebpf4jnsgd1na2vs0mg"},{"bike_id":"aff26c85-5d18-4d6c-aefe-ab50409dc055","system_id":"levelo_inurba_marseille","lat":43.28861,"lon":5.42526,"is_reserved":false,"is_disabled":false,"rental_uris":{"android":"levelo://app?vid=aff26c85-5d18-4d6c-aefe-ab50409dc055","ios":"levelo://app?vid=aff26c85-5d18-4d6c-aefe-ab50409dc055"},"vehicle_type_id":"4","last_reported":1760980131,"current_range_meters":14400,"station_id":"st_d3b462108ojc7389ooeg","pricing_plan_id":"cebpf4jnsgd1na2vs0mg"},{"bike_id":"ea6f0fe7-a336-4ef0-a24e-71dbf5d49189","system_id":"levelo_inurba_marseille","lat":43.29819,"lon":5.44064,"is_reserved":false,"is_disabled":false,"rental_uris":{"android":"levelo://app?vid=ea6f0fe7-a336-4ef0-a24e-71dbf5d49189","ios":"levelo://app?vid=ea6f0fe7-a336-4ef0-a24e-71dbf5d49189"},"vehicle_type_id":"4","last_reported":1760980131,"current_range_meters":14400,"station_id":"st_d3jp68qikq2c7381ktn0","pricing_plan_id":"cebpf4jnsgd1na2vs0mg"},{"bike_id":"241f4278-8126-4dad-bdde-bbda289230ee","system_id":"levelo_inurba_marseille","lat":43.32001,"lon":5.3815,"is_reserved":false,"is_disabled":false,"rental_uris":{"android":"levelo://app?vid=241f4278-8126-4dad-bdde-bbda289230ee","ios":"levelo://app?vid=241f4278-8126-4dad-bdde-bbda289230ee"},"vehicle_type_id":"4","last_reported":1760980131,"current_range_meters":14400,"station_id":"ce4bhr12rcd13ifvqhpg","pricing_plan_id":"cebpf4jnsgd1na2vs0mg"},{"bike_id":"91db78d1-96b0-4f1f-a842-b51673a4c38a","system_id":"levelo_inurba_marseille","lat":43.28356,"lon":5.38101,"is_reserved":false,"is_disabled":false,"rental_uris":{"android":"levelo://app?vid=91db78d1-96b0-4f1f-a842-b51673a4c38a","ios":"levelo://app?vid=91db78d1-96b0-4f1f-a842-b51673a4c38a"},"vehicle_type_id":"4","last_reported":1760980131,"current_range_meters":14800,"station_id":"ce4bh412rcd13ifvqdr0","pricing_plan_id":"cebpf4jnsgd1na2vs0mg"},{"bike_id":"b2d51191-c88b-4387-ac7e-a4da283c0cc4","system_id":"levelo_inurba_marseille","lat":43.24667,"lon":5.38167,"is_reserved":false,"is_disabled":false,"rental_uris":{"android":"levelo://app?vid=b2d51191-c88b-4387-ac7e-a4da283c0cc4","ios":"levelo://app?vid=b2d51191-c88b-4387-ac7e-a4da283c0cc4"},"vehicle_type_id":"4","last_reported":1760980131,"current_range_meters":14800,"station_id":"ce4bhih2rcd13ifvqfr0","pricing_plan_id":"cebpf4jnsgd1na2vs0mg"},{"bike_id":"13b36aba-6a26-4497-9586-d83eb3576ff2","system_id":"levelo_inurba_marseille","lat":43.24666,"lon":5.3817,"is_reserved":false,"is_disabled":false,"rental_uris":{"android":"levelo://app?vid=13b36aba-6a26-4497-9586-d83eb3576ff2","ios":"levelo://app?vid=13b36aba-6a26-4497-9586-d83eb3576ff2"},"vehicle_type_id":"4","last_reported":1760980131,"current_range_meters":14800,"station_id":"ce4bhih2rcd13ifvqfr0","pricing_plan_id":"cebpf4jnsgd1na2vs0mg"},{"bike_id":"5f1015a4-e527-423a-8450-0f79576a99ad","system_id":"levelo_inurba_marseille","lat":43.30296,"lon":5.4351,"is_reserved":false,"is_disabled":false,"rental_uris":{"android":"levelo://app?vid=5f1015a4-e527-423a-8450-0f79576a99ad","ios":"levelo://app?vid=5f1015a4-e527-423a-8450-0f79576a99ad"},"vehicle_type_id":"4","last_reported":1760980131,"current_range_meters":14800,"station_id":"","pricing_plan_id":"cebpf4jnsgd1na2vs0mg"},{"bike_id":"fefc0cbf-878f-4b7e-bc59-a72ad466ef0b","system_id":"levelo_inurba_marseille","lat":43.28074,"lon":5.39664,"is_reserved":false,"is_disabled":false,"rental_uris":{"android":"levelo://app?vid=fefc0cbf-878f-4b7e-bc59-a72ad466ef0b","ios":"levelo://app?vid=fefc0cbf-878f-4b7e-bc59-a72ad466ef0b"},"vehicle_type_id":"4","last_reported":1760980131,"current_range_meters":14800,"station_id":"ce4bho12rcd13ifvqh2g","pricing_plan_id":"cebpf4jnsgd1na2vs0mg"},{"bike_id":"ee9beae4-6f59-471b-a04d-ba5935f77d42","system_id":"levelo_inurba_marseille","lat":43.30145,"lon":5.38761,"is_reserved":false,"is_disabled":false,"rental_uris":{"android":"levelo://app?vid=ee9beae4-6f59-471b-a04d-ba5935f77d42","ios":"levelo://app?vid=ee9beae4-6f59-471b-a04d-ba5935f77d42"},"vehicle_type_id":"4","last_reported":1760980131,"current_range_meters":14800,"station_id":"ce4bghh2rcd13ifvqb60","pricing_plan_id":"cebpf4jnsgd1na2vs0mg"},{"bike_id":"d024a5dc-047d-4c62-9be8-05dec29917f1","system_id":"levelo_inurba_marseille","lat":43.28511,"lon":5.38425,"is_reserved":false,"is_disabled":true,"rental_uris":{"android":"levelo://app?vid=d024a5dc-047d-4c62-9be8-05dec29917f1","ios":"levelo://app?vid=d024a5dc-047d-4c62-9be8-05dec29917f1"},"vehicle_type_id":"4","last_reported":1760980131,"current_range_meters":15200,"station_id":"ce4bh512rcd13ifvqe3g","pricing_plan_id":"cebpf4jnsgd1na2vs0mg"},{"bike_id":"4515bc92-7735-427c-a2ae-8d3771aa37a9","system_id":"levelo_inurba_marseille","lat":43.23185,"lon":5.3999,"is_reserved":false,"is_disabled":false,"rental_uris":{"android":"levelo://app?vid=4515bc92-7735-427c-a2ae-8d3771aa37a9","ios":"levelo://app?vid=4515bc92-7735-427c-a2ae-8d3771aa37a9"},"vehicle_type_id":"4","last_reported":1760980131,"current_range_meters":15200,"station_id":"ce4bhn12rcd13ifvqgqg","pricing_plan_id":"cebpf4jnsgd1na2vs0mg"},{"bike_id":"a27423e0-ceb0-4a8f-86e7-7b89077ab2b5","system_id":"levelo_inurba_marseille","lat":43.281677,"lon":5.361151,"is_reserved":false,"is_disabled":false,"rental_uris":{"android":"levelo://app?vid=a27423e0-ceb0-4a8f-86e7-7b89077ab2b5","ios":"levelo://app?vid=a27423e0-ceb0-4a8f-86e7-7b89077ab2b5"},"vehicle_type_id":"4","last_reported":1760980131,"current_range_meters":15200,"station_id":"","pricing_plan_id":"cebpf4jnsgd1na2vs0mg"},{"bike_id":"a7ba6a6a-8dda-4e76-8a63-3f1cbbb0d6aa","system_id":"levelo_inurba_marseille","lat":43.34133,"lon":5.40907,"is_reserved":false,"is_disabled":false,"rental_uris":{"android":"levelo://app?vid=a7ba6a6a-8dda-4e76-8a63-3f1cbbb0d6aa","ios":"levelo://app?vid=a7ba6a6a-8dda-4e76-8a63-3f1cbbb0d6aa"},"vehicle_type_id":"4","last_reported":1760980131,"current_range_meters":15200,"station_id":"ce4bhqh2rcd13ifvqhlg","pricing_plan_id":"cebpf4jnsgd1na2vs0mg"},{"bike_id":"b52685f1-5782-4f11-87c7-1dc9cebce4f0","system_id":"levelo_inurba_marseille","lat":43.27816,"lon":5.40714,"is_reserved":false,"is_disabled":false,"rental_uris":{"android":"levelo://app?vid=b52685f1-5782-4f11-87c7-1dc9cebce4f0","ios":"levelo://app?vid=b52685f1-5782-4f11-87c7-1dc9cebce4f0"},"vehicle_type_id":"4","last_reported":1760980131,"current_range_meters":15200,"station_id":"ce4bhnh2rcd13ifvqgtg","pricing_plan_id":"cebpf4jnsgd1na2vs0mg"},{"bike_id":"e1111928-964d-472e-8125-ffc33aa7592a","system_id":"levelo_inurba_marseille","lat":43.302969,"lon":5.392173,"is_reserved":false,"is_disabled":false,"rental_uris":{"android":"levelo://app?vid=e1111928-964d-472e-8125-ffc33aa7592a","ios":"levelo://app?vid=e1111928-964d-472e-8125-ffc33aa7592a"},"vehicle_type_id":"4","last_reported":1760980131,"current_range_meters":15200,"station_id":"ce4bgkh2rcd13ifvqbk0","pricing_plan_id":"cebpf4jnsgd1na2vs0mg"},{"bike_id":"2e67643b-d341-4102-ab0e-b8ecc435eb92","system_id":"levelo_inurba_marseille","lat":43.31529,"lon":5.38748,"is_reserved":false,"is_disabled":false,"rental_uris":{"android":"levelo://app?vid=2e67643b-d341-4102-ab0e-b8ecc435eb92","ios":"levelo://app?vid=2e67643b-d341-4102-ab0e-b8ecc435eb92"},"vehicle_type_id":"4","last_reported":1760980131,"current_range_meters":15200,"station_id":"","pricing_plan_id":"cebpf4jnsgd1na2vs0mg"},{"bike_id":"2f7ccc39-aed5-4324-b34b-aee9d75d0677","system_id":"levelo_inurba_marseille","lat":43.30438,"lon":5.38885,"is_reserved":false,"is_disabled":false,"rental_uris":{"android":"levelo://app?vid=2f7ccc39-aed5-4324-b34b-aee9d75d0677","ios":"levelo://app?vid=2f7ccc39-aed5-4324-b34b-aee9d75d0677"},"vehicle_type_id":"4","last_reported":1760980131,"current_range_meters":15200,"station_id":"ce4bgk12rcd13ifvqbi0","pricing_plan_id":"cebpf4jnsgd1na2vs0mg"},{"bike_id":"e97088dd-f8fa-44c9-ad55-719bfc0ab1a7","system_id":"levelo_inurba_marseille","lat":43.28952,"lon":5.36635,"is_reserved":false,"is_disabled":false,"rental_uris":{"android":"levelo://app?vid=e97088dd-f8fa-44c9-ad55-719bfc0ab1a7","ios":"levelo://app?vid=e97088dd-f8fa-44c9-ad55-719bfc0ab1a7"},"vehicle_type_id":"4","last_reported":1760980131,"current_range_meters":15200,"station_id":"ce4bhap2rcd13ifvqek0","pricing_plan_id":"cebpf4jnsgd1na2vs0mg"},{"bike_id":"f2e3612b-9bb9-4933-937e-3ddeb5371bd5","system_id":"levelo_inurba_marseille","lat":43.30135,"lon":5.38777,"is_reserved":false,"is_disabled":false,"rental_uris":{"android":"levelo://app?vid=f2e3612b-9bb9-4933-937e-3ddeb5371bd5","ios":"levelo://app?vid=f2e3612b-9bb9-4933-937e-3ddeb5371bd5"},"vehicle_type_id":"4","last_reported":1760980131,"current_range_meters":15200,"station_id":"ce4bghh2rcd13ifvqb60","pricing_plan_id":"cebpf4jnsgd1na2vs0mg"},{"bike_id":"9d3ae994-9f8f-4684-818a-9e47b87560ff","system_id":"levelo_inurba_marseille","lat":43.25765,"lon":5.41094,"is_reserved":false,"is_disabled":false,"rental_uris":{"android":"levelo://app?vid=9d3ae994-9f8f-4684-818a-9e47b87560ff","ios":"levelo://app?vid=9d3ae994-9f8f-4684-818a-9e47b87560ff"},"vehicle_type_id":"4","last_reported":1760980131,"current_range_meters":16000,"station_id":"","pricing_plan_id":"cebpf4jnsgd1na2vs0mg"},{"bike_id":"0556e768-f024-45b5-af11-e15f24f3c5b3","system_id":"levelo_inurba_marseille","lat":43.29571,"lon":5.39972,"is_reserved":false,"is_disabled":true,"rental_uris":{"android":"levelo://app?vid=0556e768-f024-45b5-af11-e15f24f3c5b3","ios":"levelo://app?vid=0556e768-f024-45b5-af11-e15f24f3c5b3"},"vehicle_type_id":"4","last_reported":1760980131,"current_range_meters":16000,"station_id":"ce4bh312rcd13ifvqdj0","pricing_plan_id":"cebpf4jnsgd1na2vs0mg"},{"bike_id":"1c3a62d6-9dc5-4b1d-b145-ff75c0ccb3b4","system_id":"levelo_inurba_marseille","lat":43.2827,"lon":5.35058,"is_reserved":false,"is_disabled":false,"rental_uris":{"android":"levelo://app?vid=1c3a62d6-9dc5-4b1d-b145-ff75c0ccb3b4","ios":"levelo://app?vid=1c3a62d6-9dc5-4b1d-b145-ff75c0ccb3b4"},"vehicle_type_id":"4","last_reported":1760980131,"current_range_meters":16000,"station_id":"","pricing_plan_id":"cebpf4jnsgd1na2vs0mg"},{"bike_id":"e49469b6-ff8d-46ec-81c4-e023849e7cd4","system_id":"levelo_inurba_marseille","lat":43.290517,"lon":5.379896,"is_reserved":false,"is_disabled":false,"rental_uris":{"android":"levelo://app?vid=e49469b6-ff8d-46ec-81c4-e023849e7cd4","ios":"levelo://app?vid=e49469b6-ff8d-46ec-81c4-e023849e7cd4"},"vehicle_type_id":"4","last_reported":1760980131,"current_range_meters":16000,"station_id":"ce4bh512rcd13ifvqe2g","pricing_plan_id":"cebpf4jnsgd1na2vs0mg"},{"bike_id":"d5f2a456-681d-42c5-a2d0-9f6d77b767ea","system_id":"levelo_inurba_marseille","lat":43.29874,"lon":5.39733,"is_reserved":false,"is_disabled":false,"rental_uris":{"android":"levelo://app?vid=d5f2a456-681d-42c5-a2d0-9f6d77b767ea","ios":"levelo://app?vid=d5f2a456-681d-42c5-a2d0-9f6d77b767ea"},"vehicle_type_id":"4","last_reported":1760980131,"current_range_meters":16400,"station_id":"ce4bh0h2rcd13ifvqd50","pricing_plan_id":"cebpf4jnsgd1na2vs0mg"},{"bike_id":"b14fa3f8-aae1-46e3-b682-dad93ba86e32","system_id":"levelo_inurba_marseille","lat":43.25088,"lon":5.39513,"is_reserved":false,"is_disabled":false,"rental_uris":{"android":"levelo://app?vid=b14fa3f8-aae1-46e3-b682-dad93ba86e32","ios":"levelo://app?vid=b14fa3f8-aae1-46e3-b682-dad93ba86e32"},"vehicle_type_id":"4","last_reported":1760980131,"current_range_meters":16400,"station_id":"ce4bhm12rcd13ifvqgkg","pricing_plan_id":"cebpf4jnsgd1na2vs0mg"},{"bike_id":"d950ada0-7546-479b-b1de-6e0c92ac2fca","system_id":"levelo_inurba_marseille","lat":43.290291,"lon":5.386497,"is_reserved":false,"is_disabled":true,"rental_uris":{"android":"levelo://app?vid=d950ada0-7546-479b-b1de-6e0c92ac2fca","ios":"levelo://app?vid=d950ada0-7546-479b-b1de-6e0c92ac2fca"},"vehicle_type_id":"4","last_reported":1760980131,"current_range_meters":16400,"station_id":"ce4bh4p2rcd13ifvqe0g","pricing_plan_id":"cebpf4jnsgd1na2vs0mg"},{"bike_id":"cce0e4f7-c09a-4145-9e62-14f6ddd3238c","system_id":"levelo_inurba_marseille","lat":43.31266,"lon":5.40176,"is_reserved":false,"is_disabled":false,"rental_uris":{"android":"levelo://app?vid=cce0e4f7-c09a-4145-9e62-14f6ddd3238c","ios":"levelo://app?vid=cce0e4f7-c09a-4145-9e62-14f6ddd3238c"},"vehicle_type_id":"4","last_reported":1760980131,"current_range_meters":16400,"station_id":"ce4bh092rcd13ifvqd30","pricing_plan_id":"cebpf4jnsgd1na2vs0mg"},{"bike_id":"40617a59-a4c2-4066-ac53-b4f37168ac6f","system_id":"levelo_inurba_marseille","lat":43.337736,"lon":5.374688,"is_reserved":false,"is_disabled":false,"rental_uris":{"android":"levelo://app?vid=40617a59-a4c2-4066-ac53-b4f37168ac6f","ios":"levelo://app?vid=40617a59-a4c2-4066-ac53-b4f37168ac6f"},"vehicle_type_id":"4","last_reported":1760980131,"current_range_meters":16400,"station_id":"","pricing_plan_id":"cebpf4jnsgd1na2vs0mg"},{"bike_id":"2f09c9be-359a-414b-9339-b6dbcd93427c","system_id":"levelo_inurba_marseille","lat":43.29595,"lon":5.38117,"is_reserved":false,"is_disabled":true,"rental_uris":{"android":"levelo://app?vid=2f09c9be-359a-414b-9339-b6dbcd93427c","ios":"levelo://app?vid=2f09c9be-359a-414b-9339-b6dbcd93427c"},"vehicle_type_id":"4","last_reported":1760980131,"current_range_meters":16400,"station_id":"ce4bgl12rcd13ifvqbo0","pricing_plan_id":"cebpf4jnsgd1na2vs0mg"},{"bike_id":"f7bc1b94-a8e8-42b5-9694-5993a69ba238","system_id":"levelo_inurba_marseille","lat":43.25118,"lon":5.4033,"is_reserved":false,"is_disabled":true,"rental_uris":{"android":"levelo://app?vid=f7bc1b94-a8e8-42b5-9694-5993a69ba238","ios":"levelo://app?vid=f7bc1b94-a8e8-42b5-9694-5993a69ba238"},"vehicle_type_id":"4","last_reported":1760980131,"current_range_meters":16400,"station_id":"ce4bhlh2rcd13ifvqgig","pricing_plan_id":"cebpf4jnsgd1na2vs0mg"},{"bike_id":"b63f4144-84f6-4ba1-b6df-f6ebabe9ef26","system_id":"levelo_inurba_marseille","lat":43.27919,"lon":5.40424,"is_reserved":false,"is_disabled":false,"rental_uris":{"android":"levelo://app?vid=b63f4144-84f6-4ba1-b6df-f6ebabe9ef26","ios":"levelo://app?vid=b63f4144-84f6-4ba1-b6df-f6ebabe9ef26"},"vehicle_type_id":"4","last_reported":1760980131,"current_range_meters":16400,"station_id":"","pricing_plan_id":"cebpf4jnsgd1na2vs0mg"},{"bike_id":"c0c57b3b-e1ff-4b45-b0e0-43688764981a","system_id":"levelo_inurba_marseille","lat":43.23782,"lon":5.36634,"is_reserved":false,"is_disabled":false,"rental_uris":{"android":"levelo://app?vid=c0c57b3b-e1ff-4b45-b0e0-43688764981a","ios":"levelo://app?vid=c0c57b3b-e1ff-4b45-b0e0-43688764981a"},"vehicle_type_id":"4","last_reported":1760980131,"current_range_meters":16400,"station_id":"st_d3nk18o9ro0c73en2l3g","pricing_plan_id":"cebpf4jnsgd1na2vs0mg"},{"bike_id":"0db9ab5d-e4b9-4e8d-8841-4099a10de2ae","system_id":"levelo_inurba_marseille","lat":43.28483,"lon":5.48401,"is_reserved":false,"is_disabled":false,"rental_uris":{"android":"levelo://app?vid=0db9ab5d-e4b9-4e8d-8841-4099a10de2ae","ios":"levelo://app?vid=0db9ab5d-e4b9-4e8d-8841-4099a10de2ae"},"vehicle_type_id":"4","last_reported":1760980131,"current_range_meters":16800,"station_id":"st_d3jp68qikq2c7381ktn0","pricing_plan_id":"cebpf4jnsgd1na2vs0mg"},{"bike_id":"b4dd57b5-fcf3-46d4-8f00-44cd689898c9","system_id":"levelo_inurba_marseille","lat":43.25342,"lon":5.42173,"is_reserved":false,"is_disabled":false,"rental_uris":{"android":"levelo://app?vid=b4dd57b5-fcf3-46d4-8f00-44cd689898c9","ios":"levelo://app?vid=b4dd57b5-fcf3-46d4-8f00-44cd689898c9"},"vehicle_type_id":"4","last_reported":1760980131,"current_range_meters":16800,"station_id":"st_d2m65c5bi1j21697t3ng","pricing_plan_id":"cebpf4jnsgd1na2vs0mg"},{"bike_id":"20d9d3c4-a46a-4dac-bafb-410f46cebfba","system_id":"levelo_inurba_marseille","lat":43.25857,"lon":5.39356,"is_reserved":false,"is_disabled":false,"rental_uris":{"android":"levelo://app?vid=20d9d3c4-a46a-4dac-bafb-410f46cebfba","ios":"levelo://app?vid=20d9d3c4-a46a-4dac-bafb-410f46cebfba"},"vehicle_type_id":"4","last_reported":1760980131,"current_range_meters":16800,"station_id":"","pricing_plan_id":"cebpf4jnsgd1na2vs0mg"},{"bike_id":"3500c908-297e-4054-9aba-70ee2962e831","system_id":"levelo_inurba_marseille","lat":43.31798,"lon":5.39059,"is_reserved":false,"is_disabled":false,"rental_uris":{"android":"levelo://app?vid=3500c908-297e-4054-9aba-70ee2962e831","ios":"levelo://app?vid=3500c908-297e-4054-9aba-70ee2962e831"},"vehicle_type_id":"4","last_reported":1760980131,"current_range_meters":16800,"station_id":"","pricing_plan_id":"cebpf4jnsgd1na2vs0mg"},{"bike_id":"737796b0-9eed-4879-8123-81b53466978c","system_id":"levelo_inurba_marseille","lat":43.27994,"lon":5.4168,"is_reserved":false,"is_disabled":false,"rental_uris":{"android":"levelo://app?vid=737796b0-9eed-4879-8123-81b53466978c","ios":"levelo://app?vid=737796b0-9eed-4879-8123-81b53466978c"},"vehicle_type_id":"4","last_reported":1760980131,"current_range_meters":16800,"station_id":"ce4bho12rcd13ifvqh1g","pricing_plan_id":"cebpf4jnsgd1na2vs0mg"},{"bike_id":"ee541b89-16c0-411b-94f7-b1b83718973b","system_id":"levelo_inurba_marseille","lat":43.27992,"lon":5.416772,"is_reserved":false,"is_disabled":false,"rental_uris":{"android":"levelo://app?vid=ee541b89-16c0-411b-94f7-b1b83718973b","ios":"levelo://app?vid=ee541b89-16c0-411b-94f7-b1b83718973b"},"vehicle_type_id":"4","last_reported":1760980131,"current_range_meters":16800,"station_id":"ce4bho12rcd13ifvqh1g","pricing_plan_id":"cebpf4jnsgd1na2vs0mg"},{"bike_id":"69f2ff05-158e-4f85-b7f4-0118c12e1cbb","system_id":"levelo_inurba_marseille","lat":43.30419,"lon":5.39751,"is_reserved":false,"is_disabled":false,"rental_uris":{"android":"levelo://app?vid=69f2ff05-158e-4f85-b7f4-0118c12e1cbb","ios":"levelo://app?vid=69f2ff05-158e-4f85-b7f4-0118c12e1cbb"},"vehicle_type_id":"4","last_reported":1760980131,"current_range_meters":16800,"station_id":"ce4bh092rcd13ifvqd20","pricing_plan_id":"cebpf4jnsgd1na2vs0mg"},{"bike_id":"ca0edf65-5bba-4163-bfdb-9c037a96a6cb","system_id":"levelo_inurba_marseille","lat":43.29267,"lon":5.3844,"is_reserved":false,"is_disabled":false,"rental_uris":{"android":"levelo://app?vid=ca0edf65-5bba-4163-bfdb-9c037a96a6cb","ios":"levelo://app?vid=ca0edf65-5bba-4163-bfdb-9c037a96a6cb"},"vehicle_type_id":"4","last_reported":1760980131,"current_range_meters":16800,"station_id":"ce4bh692rcd13ifvqea0","pricing_plan_id":"cebpf4jnsgd1na2vs0mg"},{"bike_id":"d8ce8491-25e7-4f84-8373-cc25897ada4d","system_id":"levelo_inurba_marseille","lat":43.22556,"lon":5.41625,"is_reserved":false,"is_disabled":false,"rental_uris":{"android":"levelo://app?vid=d8ce8491-25e7-4f84-8373-cc25897ada4d","ios":"levelo://app?vid=d8ce8491-25e7-4f84-8373-cc25897ada4d"},"vehicle_type_id":"4","last_reported":1760980131,"current_range_meters":16800,"station_id":"st_d2o4gvlbi1j2169b742g","pricing_plan_id":"cebpf4jnsgd1na2vs0mg"},{"bike_id":"77434eef-942d-45ae-b433-77c1e7d412dc","system_id":"levelo_inurba_marseille","lat":43.30033,"lon":5.40396,"is_reserved":false,"is_disabled":false,"rental_uris":{"android":"levelo://app?vid=77434eef-942d-45ae-b433-77c1e7d412dc","ios":"levelo://app?vid=77434eef-942d-45ae-b433-77c1e7d412dc"},"vehicle_type_id":"4","last_reported":1760980131,"current_range_meters":16800,"station_id":"","pricing_plan_id":"cebpf4jnsgd1na2vs0mg"},{"bike_id":"0902f8f5-2693-425a-bff3-5d901bf02c48","system_id":"levelo_inurba_marseille","lat":43.243863,"lon":5.370553,"is_reserved":false,"is_disabled":false,"rental_uris":{"android":"levelo://app?vid=0902f8f5-2693-425a-bff3-5d901bf02c48","ios":"levelo://app?vid=0902f8f5-2693-425a-bff3-5d901bf02c48"},"vehicle_type_id":"4","last_reported":1760980131,"current_range_meters":17200,"station_id":"","pricing_plan_id":"cebpf4jnsgd1na2vs0mg"},{"bike_id":"ecc71f2f-a8c8-48f2-a3d5-7917b274cd85","system_id":"levelo_inurba_marseille","lat":43.28286,"lon":5.39656,"is_reserved":false,"is_disabled":false,"rental_uris":{"android":"levelo://app?vid=ecc71f2f-a8c8-48f2-a3d5-7917b274cd85","ios":"levelo://app?vid=ecc71f2f-a8c8-48f2-a3d5-7917b274cd85"},"vehicle_type_id":"4","last_reported":1760980131,"current_range_meters":17200,"station_id":"","pricing_plan_id":"cebpf4jnsgd1na2vs0mg"},{"bike_id":"5ffc841b-57b4-486c-b04c-40b145c83ce9","system_id":"levelo_inurba_marseille","lat":43.24659,"lon":5.38163,"is_reserved":false,"is_disabled":false,"rental_uris":{"android":"levelo://app?vid=5ffc841b-57b4-486c-b04c-40b145c83ce9","ios":"levelo://app?vid=5ffc841b-57b4-486c-b04c-40b145c83ce9"},"vehicle_type_id":"4","last_reported":1760980131,"current_range_meters":17200,"station_id":"ce4bhih2rcd13ifvqfr0","pricing_plan_id":"cebpf4jnsgd1na2vs0mg"},{"bike_id":"d7d77088-f5a9-496b-9f01-98c80fd008c5","system_id":"levelo_inurba_marseille","lat":43.27817,"lon":5.40716,"is_reserved":false,"is_disabled":false,"rental_uris":{"android":"levelo://app?vid=d7d77088-f5a9-496b-9f01-98c80fd008c5","ios":"levelo://app?vid=d7d77088-f5a9-496b-9f01-98c80fd008c5"},"vehicle_type_id":"4","last_reported":1760980131,"current_range_meters":17200,"station_id":"ce4bhnh2rcd13ifvqgtg","pricing_plan_id":"cebpf4jnsgd1na2vs0mg"},{"bike_id":"650bb74a-57ef-4e4a-8406-528f721d7e7f","system_id":"levelo_inurba_marseille","lat":43.28708,"lon":5.37374,"is_reserved":false,"is_disabled":false,"rental_uris":{"android":"levelo://app?vid=650bb74a-57ef-4e4a-8406-528f721d7e7f","ios":"levelo://app?vid=650bb74a-57ef-4e4a-8406-528f721d7e7f"},"vehicle_type_id":"4","last_reported":1760980131,"current_range_meters":17200,"station_id":"ce4bh3p2rcd13ifvqdq0","pricing_plan_id":"cebpf4jnsgd1na2vs0mg"},{"bike_id":"9c882443-49a2-480d-8caf-b6fafbd1ba97","system_id":"levelo_inurba_marseille","lat":43.27537,"lon":5.42777,"is_reserved":false,"is_disabled":false,"rental_uris":{"android":"levelo://app?vid=9c882443-49a2-480d-8caf-b6fafbd1ba97","ios":"levelo://app?vid=9c882443-49a2-480d-8caf-b6fafbd1ba97"},"vehicle_type_id":"4","last_reported":1760980131,"current_range_meters":17200,"station_id":"","pricing_plan_id":"cebpf4jnsgd1na2vs0mg"},{"bike_id":"e7611cfa-682f-4ccd-96c5-464cc6f40597","system_id":"levelo_inurba_marseille","lat":43.2257,"lon":5.41624,"is_reserved":false,"is_disabled":false,"rental_uris":{"android":"levelo://app?vid=e7611cfa-682f-4ccd-96c5-464cc6f40597","ios":"levelo://app?vid=e7611cfa-682f-4ccd-96c5-464cc6f40597"},"vehicle_type_id":"4","last_reported":1760980131,"current_range_meters":17200,"station_id":"st_d2o4gvlbi1j2169b742g","pricing_plan_id":"cebpf4jnsgd1na2vs0mg"},{"bike_id":"fffebab3-11c1-4f52-8efc-3753b1ae8560","system_id":"levelo_inurba_marseille","lat":43.29517,"lon":5.39399,"is_reserved":false,"is_disabled":false,"rental_uris":{"android":"levelo://app?vid=fffebab3-11c1-4f52-8efc-3753b1ae8560","ios":"levelo://app?vid=fffebab3-11c1-4f52-8efc-3753b1ae8560"},"vehicle_type_id":"4","last_reported":1760980131,"current_range_meters":17200,"station_id":"ce4bh292rcd13ifvqdf0","pricing_plan_id":"cebpf4jnsgd1na2vs0mg"},{"bike_id":"26a47936-248a-4509-9172-73bff6c9fadc","system_id":"levelo_inurba_marseille","lat":43.309998,"lon":5.389321,"is_reserved":false,"is_disabled":false,"rental_uris":{"android":"levelo://app?vid=26a47936-248a-4509-9172-73bff6c9fadc","ios":"levelo://app?vid=26a47936-248a-4509-9172-73bff6c9fadc"},"vehicle_type_id":"4","last_reported":1760980131,"current_range_meters":17600,"station_id":"ce4bgup2rcd13ifvqco0","pricing_plan_id":"cebpf4jnsgd1na2vs0mg"},{"bike_id":"e1f4e2e7-e979-4bb5-8ac3-370c17ac4622","system_id":"levelo_inurba_marseille","lat":43.288607,"lon":5.425182,"is_reserved":false,"is_disabled":false,"rental_uris":{"android":"levelo://app?vid=e1f4e2e7-e979-4bb5-8ac3-370c17ac4622","ios":"levelo://app?vid=e1f4e2e7-e979-4bb5-8ac3-370c17ac4622"},"vehicle_type_id":"4","last_reported":1760980131,"current_range_meters":17600,"station_id":"st_d3b462108ojc7389ooeg","pricing_plan_id":"cebpf4jnsgd1na2vs0mg"},{"bike_id":"9e9aea91-5eea-465b-90f4-60d05896b842","system_id":"levelo_inurba_marseille","lat":43.32107,"lon":5.36765,"is_reserved":false,"is_disabled":false,"rental_uris":{"android":"levelo://app?vid=9e9aea91-5eea-465b-90f4-60d05896b842","ios":"levelo://app?vid=9e9aea91-5eea-465b-90f4-60d05896b842"},"vehicle_type_id":"4","last_reported":1760980131,"current_range_meters":17600,"station_id":"ce4bhrh2rcd13ifvqhug","pricing_plan_id":"cebpf4jnsgd1na2vs0mg"},{"bike_id":"1642d419-8dfd-438c-9e90-66e192673ba7","system_id":"levelo_inurba_marseille","lat":43.28495,"lon":5.38419,"is_reserved":false,"is_disabled":false,"rental_uris":{"android":"levelo://app?vid=1642d419-8dfd-438c-9e90-66e192673ba7","ios":"levelo://app?vid=1642d419-8dfd-438c-9e90-66e192673ba7"},"vehicle_type_id":"4","last_reported":1760980131,"current_range_meters":17600,"station_id":"ce4bh512rcd13ifvqe3g","pricing_plan_id":"cebpf4jnsgd1na2vs0mg"},{"bike_id":"fa344610-9bdf-47a1-9d9d-a659d006d2c1","system_id":"levelo_inurba_marseille","lat":43.27611,"lon":5.36123,"is_reserved":false,"is_disabled":true,"rental_uris":{"android":"levelo://app?vid=fa344610-9bdf-47a1-9d9d-a659d006d2c1","ios":"levelo://app?vid=fa344610-9bdf-47a1-9d9d-a659d006d2c1"},"vehicle_type_id":"4","last_reported":1760980131,"current_range_meters":17600,"station_id":"ce4bgj92rcd13ifvqbe0","pricing_plan_id":"cebpf4jnsgd1na2vs0mg"},{"bike_id":"9685b534-3028-459a-908a-5c3c4b067a77","system_id":"levelo_inurba_marseille","lat":43.2795,"lon":5.38741,"is_reserved":false,"is_disabled":false,"rental_uris":{"android":"levelo://app?vid=9685b534-3028-459a-908a-5c3c4b067a77","ios":"levelo://app?vid=9685b534-3028-459a-908a-5c3c4b067a77"},"vehicle_type_id":"4","last_reported":1760980131,"current_range_meters":17600,"station_id":"ce4bhg12rcd13ifvqf80","pricing_plan_id":"cebpf4jnsgd1na2vs0mg"},{"bike_id":"a4290879-1390-4bf0-b4a3-8ca16fb92c81","system_id":"levelo_inurba_marseille","lat":43.28105,"lon":5.3784,"is_reserved":false,"is_disabled":false,"rental_uris":{"android":"levelo://app?vid=a4290879-1390-4bf0-b4a3-8ca16fb92c81","ios":"levelo://app?vid=a4290879-1390-4bf0-b4a3-8ca16fb92c81"},"vehicle_type_id":"4","last_reported":1760980131,"current_range_meters":17600,"station_id":"ce4bha12rcd13ifvqee0","pricing_plan_id":"cebpf4jnsgd1na2vs0mg"},{"bike_id":"2401dc5f-3463-4414-bcf4-9d4bf596974c","system_id":"levelo_inurba_marseille","lat":43.236721,"lon":5.362775,"is_reserved":false,"is_disabled":false,"rental_uris":{"android":"levelo://app?vid=2401dc5f-3463-4414-bcf4-9d4bf596974c","ios":"levelo://app?vid=2401dc5f-3463-4414-bcf4-9d4bf596974c"},"vehicle_type_id":"4","last_reported":1760980131,"current_range_meters":17600,"station_id":"st_d3nk18o9ro0c73en2l3g","pricing_plan_id":"cebpf4jnsgd1na2vs0mg"},{"bike_id":"f573a537-7025-46a2-8db1-6e9d7d5f1ee2","system_id":"levelo_inurba_marseille","lat":43.30132,"lon":5.38777,"is_reserved":false,"is_disabled":true,"rental_uris":{"android":"levelo://app?vid=f573a537-7025-46a2-8db1-6e9d7d5f1ee2","ios":"levelo://app?vid=f573a537-7025-46a2-8db1-6e9d7d5f1ee2"},"vehicle_type_id":"4","last_reported":1760980131,"current_range_meters":17600,"station_id":"ce4bghh2rcd13ifvqb60","pricing_plan_id":"cebpf4jnsgd1na2vs0mg"},{"bike_id":"211a5c14-b4dc-44a5-8c10-eef13742328b","system_id":"levelo_inurba_marseille","lat":43.33027,"lon":5.39046,"is_reserved":false,"is_disabled":false,"rental_uris":{"android":"levelo://app?vid=211a5c14-b4dc-44a5-8c10-eef13742328b","ios":"levelo://app?vid=211a5c14-b4dc-44a5-8c10-eef13742328b"},"vehicle_type_id":"4","last_reported":1760980131,"current_range_meters":17600,"station_id":"ce4bhr92rcd13ifvqhrg","pricing_plan_id":"cebpf4jnsgd1na2vs0mg"},{"bike_id":"d7c871da-327a-4c2e-a445-e974b1ea0dea","system_id":"levelo_inurba_marseille","lat":43.283539,"lon":5.380978,"is_reserved":false,"is_disabled":false,"rental_uris":{"android":"levelo://app?vid=d7c871da-327a-4c2e-a445-e974b1ea0dea","ios":"levelo://app?vid=d7c871da-327a-4c2e-a445-e974b1ea0dea"},"vehicle_type_id":"4","last_reported":1760980131,"current_range_meters":18000,"station_id":"ce4bh412rcd13ifvqdr0","pricing_plan_id":"cebpf4jnsgd1na2vs0mg"},{"bike_id":"326efe0c-d68a-41d8-9299-2582ccef39c8","system_id":"levelo_inurba_marseille","lat":43.2987,"lon":5.39745,"is_reserved":false,"is_disabled":false,"rental_uris":{"android":"levelo://app?vid=326efe0c-d68a-41d8-9299-2582ccef39c8","ios":"levelo://app?vid=326efe0c-d68a-41d8-9299-2582ccef39c8"},"vehicle_type_id":"4","last_reported":1760980131,"current_range_meters":18000,"station_id":"ce4bh0h2rcd13ifvqd50","pricing_plan_id":"cebpf4jnsgd1na2vs0mg"},{"bike_id":"c9c1af49-9e6d-4de6-adde-aea85d12b1bb","system_id":"levelo_inurba_marseille","lat":43.325706,"lon":5.424265,"is_reserved":false,"is_disabled":false,"rental_uris":{"android":"levelo://app?vid=c9c1af49-9e6d-4de6-adde-aea85d12b1bb","ios":"levelo://app?vid=c9c1af49-9e6d-4de6-adde-aea85d12b1bb"},"vehicle_type_id":"4","last_reported":1760980131,"current_range_meters":18000,"station_id":"","pricing_plan_id":"cebpf4jnsgd1na2vs0mg"},{"bike_id":"ca0e9690-c91b-4e83-aff8-c930708ad606","system_id":"levelo_inurba_marseille","lat":43.28615,"lon":5.3707,"is_reserved":false,"is_disabled":false,"rental_uris":{"android":"levelo://app?vid=ca0e9690-c91b-4e83-aff8-c930708ad606","ios":"levelo://app?vid=ca0e9690-c91b-4e83-aff8-c930708ad606"},"vehicle_type_id":"4","last_reported":1760980131,"current_range_meters":18000,"station_id":"ce4bht12rcd13ifvqi60","pricing_plan_id":"cebpf4jnsgd1na2vs0mg"},{"bike_id":"cf97b9d3-d15c-4289-8c95-9d7c43273331","system_id":"levelo_inurba_marseille","lat":43.300842,"lon":5.390671,"is_reserved":false,"is_disabled":false,"rental_uris":{"android":"levelo://app?vid=cf97b9d3-d15c-4289-8c95-9d7c43273331","ios":"levelo://app?vid=cf97b9d3-d15c-4289-8c95-9d7c43273331"},"vehicle_type_id":"4","last_reported":1760980131,"current_range_meters":18000,"station_id":"ce4bh192rcd13ifvqdb0","pricing_plan_id":"cebpf4jnsgd1na2vs0mg"},{"bike_id":"cf8062ff-66fa-49bf-bc2d-f047219c91ce","system_id":"levelo_inurba_marseille","lat":43.27197,"lon":5.4099,"is_reserved":false,"is_disabled":false,"rental_uris":{"android":"levelo://app?vid=cf8062ff-66fa-49bf-bc2d-f047219c91ce","ios":"levelo://app?vid=cf8062ff-66fa-49bf-bc2d-f047219c91ce"},"vehicle_type_id":"4","last_reported":1760980131,"current_range_meters":18000,"station_id":"ce4bhl12rcd13ifvqgf0","pricing_plan_id":"cebpf4jnsgd1na2vs0mg"},{"bike_id":"88ff938a-57a3-4ad6-a449-406677d9496d","system_id":"levelo_inurba_marseille","lat":43.30147,"lon":5.38782,"is_reserved":false,"is_disabled":false,"rental_uris":{"android":"levelo://app?vid=88ff938a-57a3-4ad6-a449-406677d9496d","ios":"levelo://app?vid=88ff938a-57a3-4ad6-a449-406677d9496d"},"vehicle_type_id":"4","last_reported":1760980131,"current_range_meters":18800,"station_id":"ce4bghh2rcd13ifvqb60","pricing_plan_id":"cebpf4jnsgd1na2vs0mg"},{"bike_id":"1de6ebd8-d371-4192-8a8a-740773cc8f40","system_id":"levelo_inurba_marseille","lat":43.28643,"lon":5.38558,"is_reserved":false,"is_disabled":false,"rental_uris":{"android":"levelo://app?vid=1de6ebd8-d371-4192-8a8a-740773cc8f40","ios":"levelo://app?vid=1de6ebd8-d371-4192-8a8a-740773cc8f40"},"vehicle_type_id":"4","last_reported":1760980131,"current_range_meters":18800,"station_id":"","pricing_plan_id":"cebpf4jnsgd1na2vs0mg"},{"bike_id":"a77de412-e190-4d35-be8f-0156d17353bf","system_id":"levelo_inurba_marseille","lat":43.29546,"lon":5.37504,"is_reserved":false,"is_disabled":false,"rental_uris":{"android":"levelo://app?vid=a77de412-e190-4d35-be8f-0156d17353bf","ios":"levelo://app?vid=a77de412-e190-4d35-be8f-0156d17353bf"},"vehicle_type_id":"4","last_reported":1760980131,"current_range_meters":18800,"station_id":"ce4bgkp2rcd13ifvqbmg","pricing_plan_id":"cebpf4jnsgd1na2vs0mg"},{"bike_id":"74d4c845-b3fc-423c-b1cb-c0637059eeb7","system_id":"levelo_inurba_marseille","lat":43.2885,"lon":5.3587,"is_reserved":false,"is_disabled":false,"rental_uris":{"android":"levelo://app?vid=74d4c845-b3fc-423c-b1cb-c0637059eeb7","ios":"levelo://app?vid=74d4c845-b3fc-423c-b1cb-c0637059eeb7"},"vehicle_type_id":"4","last_reported":1760980131,"current_range_meters":18800,"station_id":"ce4bhb12rcd13ifvqem0","pricing_plan_id":"cebpf4jnsgd1na2vs0mg"},{"bike_id":"393cb4aa-a852-46d8-91f6-053fce75cf93","system_id":"levelo_inurba_marseille","lat":43.27487,"lon":5.42459,"is_reserved":false,"is_disabled":true,"rental_uris":{"android":"levelo://app?vid=393cb4aa-a852-46d8-91f6-053fce75cf93","ios":"levelo://app?vid=393cb4aa-a852-46d8-91f6-053fce75cf93"},"vehicle_type_id":"4","last_reported":1760980131,"current_range_meters":18800,"station_id":"ce4bhn92rcd13ifvqgrg","pricing_plan_id":"cebpf4jnsgd1na2vs0mg"},{"bike_id":"d21d91e8-7a75-4548-82c3-1b3109a71ef6","system_id":"levelo_inurba_marseille","lat":43.33163,"lon":5.355,"is_reserved":false,"is_disabled":false,"rental_uris":{"android":"levelo://app?vid=d21d91e8-7a75-4548-82c3-1b3109a71ef6","ios":"levelo://app?vid=d21d91e8-7a75-4548-82c3-1b3109a71ef6"},"vehicle_type_id":"4","last_reported":1760980131,"current_range_meters":18800,"station_id":"","pricing_plan_id":"cebpf4jnsgd1na2vs0mg"},{"bike_id":"59947e2e-c0db-4291-82cf-554d77d5e41c","system_id":"levelo_inurba_marseille","lat":43.301362,"lon":5.398653,"is_reserved":false,"is_disabled":false,"rental_uris":{"android":"levelo://app?vid=59947e2e-c0db-4291-82cf-554d77d5e41c","ios":"levelo://app?vid=59947e2e-c0db-4291-82cf-554d77d5e41c"},"vehicle_type_id":"4","last_reported":1760980131,"current_range_meters":18800,"station_id":"ce4bh0h2rcd13ifvqd40","pricing_plan_id":"cebpf4jnsgd1na2vs0mg"},{"bike_id":"f42df464-b58b-4da0-ad5c-db4f071da08c","system_id":"levelo_inurba_marseille","lat":43.30475,"lon":5.37904,"is_reserved":false,"is_disabled":false,"rental_uris":{"android":"levelo://app?vid=f42df464-b58b-4da0-ad5c-db4f071da08c","ios":"levelo://app?vid=f42df464-b58b-4da0-ad5c-db4f071da08c"},"vehicle_type_id":"4","last_reported":1760980131,"current_range_meters":18800,"station_id":"ce4bgup2rcd13ifvqcn0","pricing_plan_id":"cebpf4jnsgd1na2vs0mg"},{"bike_id":"f1b8e04f-457e-461e-a0a7-0d512845fe50","system_id":"levelo_inurba_marseille","lat":43.34085,"lon":5.40405,"is_reserved":false,"is_disabled":false,"rental_uris":{"android":"levelo://app?vid=f1b8e04f-457e-461e-a0a7-0d512845fe50","ios":"levelo://app?vid=f1b8e04f-457e-461e-a0a7-0d512845fe50"},"vehicle_type_id":"4","last_reported":1760980131,"current_range_meters":18800,"station_id":"","pricing_plan_id":"cebpf4jnsgd1na2vs0mg"},{"bike_id":"308eafac-132d-4c2f-9cfb-05d979946593","system_id":"levelo_inurba_marseille","lat":43.28493,"lon":5.38413,"is_reserved":false,"is_disabled":false,"rental_uris":{"android":"levelo://app?vid=308eafac-132d-4c2f-9cfb-05d979946593","ios":"levelo://app?vid=308eafac-132d-4c2f-9cfb-05d979946593"},"vehicle_type_id":"4","last_reported":1760980131,"current_range_meters":18800,"station_id":"ce4bh512rcd13ifvqe3g","pricing_plan_id":"cebpf4jnsgd1na2vs0mg"},