{"last_updated":1743221542,"ttl":60,"version":"2.2","data":{"bikes":[{"bike_id":"bf6d3711-68f5-4721-8ea8-2d0601182f38","system_id":"levelo_inurba_marseille","lat":43.33746,"lon":5.3745,"is_reserved":false,"is_disabled":true,"rental_uris":{"android":"levelo://app?vid=bf6d3711-68f5-4721-8ea8-2d0601182f38","ios":"levelo://app?vid=bf6d3711-68f5-4721-8ea8-2d0601182f38"},"vehicle_type_id":"4","last_reported":1743221542,"current_range_meters":0,"station_id":"","pricing_plan_id":"cebpf4jnsgd1na2vs0mg"},{"bike_id":"fc8e8371-f4e9-4721-bc19-563801e389dc","system_id":"levelo_inurba_marseille","lat":43.337444,"lon":5.374475,"is_reserved":false,"is_disabled":false,"rental_uris":{"android":"levelo://app?vid=fc8e8371-f4e9-4721-bc19-563801e389dc","ios":"levelo://app?vid=fc8e8371-f4e9-4721-bc19-563801e389dc"},"vehicle_type_id":"4","last_reported":1743221542,"current_range_meters":4000,"station_id":"","pricing_plan_id":"cebpf4jnsgd1na2vs0mg"},{"bike_id":"be6725c0-5c09-4663-99b8-0b7371d27e21","system_id":"levelo_inurba_marseille","lat":43.25484,"lon":5.37526,"is_reserved":false,"is_disabled":true,"rental_uris":{"android":"levelo://app?vid=be6725c0-5c09-4663-99b8-0b7371d27e21","ios":"levelo://app?vid=be6725c0-5c09-4663-99b8-0b7371d27e21"},"vehicle_type_id":"4","last_reported":1743221542,"current_range_meters":0,"station_id":"","pricing_plan_id":"cebpf4jnsgd1na2vs0mg"},{"bike_id":"efb462a8-0c6c-4b02-8e1c-515bf9a5d7f5","system_id":"levelo_inurba_marseille","lat":43.3432,"lon":5.34855,"is_reserved":false,"is_disabled":true,"rental_uris":{"android":"levelo://app?vid=efb462a8-0c6c-4b02-8e1c-515bf9a5d7f5","ios":"levelo://app?vid=efb462a8-0c6c-4b02-8e1c-515bf9a5d7f5"},"vehicle_type_id":"4","last_reported":1743221542,"current_range_meters":0,"station_id":"","pricing_plan_id":"cebpf4jnsgd1na2vs0mg"},{"bike_id":"1a5f9db6-d475-4baf-98d5-e001a4649ec4","system_id":"levelo_inurba_marseille","lat":43.32587,"lon":5.42955,"is_reserved":false,"is_disabled":true,"rental_uris":{"android":"levelo://app?vid=1a5f9db6-d475-4baf-98d5-e001a4649ec4","ios":"levelo://app?vid=1a5f9db6-d475-4baf-98d5-e001a4649ec4"},"vehicle_type_id":"4","last_reported":1743221542,"current_range_meters":0,"station_id":"","pricing_plan_id":"cebpf4jnsgd1na2vs0mg"},{"bike_id":"fec9673e-f08c-4313-b85c-7929e7e83ca5","system_id":"levelo_inurba_marseille","lat":43.314468,"lon":5.37073,"is_reserved":false,"is_disabled":true,"rental_uris":{"android":"levelo://app?vid=fec9673e-f08c-4313-b85c-7929e7e83ca5","ios":"levelo://app?vid=fec9673e-f08c-4313-b85c-7929e7e83ca5"},"vehicle_type_id":"4","last_reported":1743221542,"current_range_meters":0,"station_id":"","pricing_plan_id":"cebpf4jnsgd1na2vs0mg"},{"bike_id":"72e5db2b-9562-475e-acb8-d0f54f5a254a","system_id":"levelo_inurba_marseille","lat":43.260669,"lon":5.415701,"is_reserved":false,"is_disabled":true,"rental_uris":{"android":"levelo://app?vid=72e5db2b-9562-475e-acb8-d0f54f5a254a","ios":"levelo://app?vid=72e5db2b-9562-475e-acb8-d0f54f5a254a"},"vehicle_type_id":"4","last_reported":1743221542,"current_range_meters":0,"station_id":"","pricing_plan_id":"cebpf4jnsgd1na2vs0mg"},{"bike_id":"3b6642fb-9a62-434c-9a78-b0bd182fc628","system_id":"levelo_inurba_marseille","lat":43.2789,"lon":5.41241,"is_reserved":false,"is_disabled":true,"rental_uris":{"android":"levelo://app?vid=3b6642fb-9a62-434c-9a78-b0bd182fc628","ios":"levelo://app?vid=3b6642fb-9a62-434c-9a78-b0bd182fc628"},"vehicle_type_id":"4","last_reported":1743221542,"current_range_meters":0,"station_id":"","pricing_plan_id":"cebpf4jnsgd1na2vs0mg"},{"bike_id":"6671e489-a811-41a6-9fb9-08aafb887727","system_id":"levelo_inurba_marseille","lat":43.31942,"lon":5.39404,"is_reserved":false,"is_disabled":true,"rental_uris":{"android":"levelo://app?vid=6671e489-a811-41a6-9fb9-08aafb887727","ios":"levelo://app?vid=6671e489-a811-41a6-9fb9-08aafb887727"},"vehicle_type_id":"4","last_reported":1743221542,"current_range_meters":0,"station_id":"","pricing_plan_id":"cebpf4jnsgd1na2vs0mg"},{"bike_id":"3706a9b4-b24a-4596-aa2d-e8b8de94e7f7","system_id":"levelo_inurba_marseille","lat":43.30642,"lon":5.40069,"is_reserved":false,"is_disabled":true,"rental_uris":{"android":"levelo://app?vid=3706a9b4-b24a-4596-aa2d-e8b8de94e7f7","ios":"levelo://app?vid=3706a9b4-b24a-4596-aa2d-e8b8de94e7f7"},"vehicle_type_id":"4","last_reported":1743221542,"current_range_meters":0,"station_id":"ce4bh112rcd13ifvqda0","pricing_plan_id":"cebpf4jnsgd1na2vs0mg"},{"bike_id":"7b48857d-944b-48da-831b-b4b6c5000cba","system_id":"levelo_inurba_marseille","lat":43.28351,"lon":5.38106,"is_reserved":false,"is_disabled":true,"rental_uris":{"android":"levelo://app?vid=7b48857d-944b-48da-831b-b4b6c5000cba","ios":"levelo://app?vid=7b48857d-944b-48da-831b-b4b6c5000cba"},"vehicle_type_id":"4","last_reported":1743221542,"current_range_meters":0,"station_id":"ce4bh412rcd13ifvqdr0","pricing_plan_id":"cebpf4jnsgd1na2vs0mg"},{"bike_id":"191714f4-d9c6-4e10-986b-db5c420b15ee","system_id":"levelo_inurba_marseille","lat":43.28622,"lon":5.35088,"is_reserved":false,"is_disabled":true,"rental_uris":{"android":"levelo://app?vid=191714f4-d9c6-4e10-986b-db5c420b15ee","ios":"levelo://app?vid=191714f4-d9c6-4e10-986b-db5c420b15ee"},"vehicle_type_id":"4","last_reported":1743221542,"current_range_meters":0,"station_id":"ce4bhch2rcd13ifvqeug","pricing_plan_id":"cebpf4jnsgd1na2vs0mg"},{"bike_id":"515faa86-fa39-46ff-930a-2fe51eead6f6","system_id":"levelo_inurba_marseille","lat":43.26604,"lon":5.39352,"is_reserved":false,"is_disabled":true,"rental_uris":{"android":"levelo://app?vid=515faa86-fa39-46ff-930a-2fe51eead6f6","ios":"levelo://app?vid=515faa86-fa39-46ff-930a-2fe51eead6f6"},"vehicle_type_id":"4","last_reported":1743221542,"current_range_meters":400,"station_id":"","pricing_plan_id":"cebpf4jnsgd1na2vs0mg"},{"bike_id":"cd14bf6a-3ed6-4607-939b-0b1c91857157","system_id":"levelo_inurba_marseille","lat":43.24887,"lon":5.40557,"is_reserved":false,"is_disabled":true,"rental_uris":{"android":"levelo://app?vid=cd14bf6a-3ed6-4607-939b-0b1c91857157","ios":"levelo://app?vid=cd14bf6a-3ed6-4607-939b-0b1c91857157"},"vehicle_type_id":"4","last_reported":1743221542,"current_range_meters":800,"station_id":"","pricing_plan_id":"cebpf4jnsgd1na2vs0mg"},{"bike_id":"a3237d0d-0d82-4ae3-b11c-5f29c03b78b2","system_id":"levelo_inurba_marseille","lat":43.269046,"lon":5.393096,"is_reserved":false,"is_disabled":true,"rental_uris":{"android":"levelo://app?vid=a3237d0d-0d82-4ae3-b11c-5f29c03b78b2","ios":"levelo://app?vid=a3237d0d-0d82-4ae3-b11c-5f29c03b78b2"},"vehicle_type_id":"4","last_reported":1743221542,"current_range_meters":800,"station_id":"","pricing_plan_id":"cebpf4jnsgd1na2vs0mg"},{"bike_id":"34aa4008-2239-4b26-8789-d5f0593f98b5","system_id":"levelo_inurba_marseille","lat":43.331941,"lon":5.397554,"is_reserved":false,"is_disabled":true,"rental_uris":{"android":"levelo://app?vid=34aa4008-2239-4b26-8789-d5f0593f98b5","ios":"levelo://app?vid=34aa4008-2239-4b26-8789-d5f0593f98b5"},"vehicle_type_id":"4","last_reported":1743221542,"current_range_meters":800,"station_id":"","pricing_plan_id":"cebpf4jnsgd1na2vs0mg"},{"bike_id":"c307f765-39fa-4142-b29d-030c5986b816","system_id":"levelo_inurba_marseille","lat":43.27839,"lon":5.39218,"is_reserved":false,"is_disabled":true,"rental_uris":{"android":"levelo://app?vid=c307f765-39fa-4142-b29d-030c5986b816","ios":"levelo://app?vid=c307f765-39fa-4142-b29d-030c5986b816"},"vehicle_type_id":"4","last_reported":1743221542,"current_range_meters":1200,"station_id":"ce4bhjp2rcd13ifvqga0","pricing_plan_id":"cebpf4jnsgd1na2vs0mg"},{"bike_id":"5e722444-0918-434d-ae8e-3fa95ef9a0a9","system_id":"levelo_inurba_marseille","lat":43.27939,"lon":5.41426,"is_reserved":false,"is_disabled":true,"rental_uris":{"android":"levelo://app?vid=5e722444-0918-434d-ae8e-3fa95ef9a0a9","ios":"levelo://app?vid=5e722444-0918-434d-ae8e-3fa95ef9a0a9"},"vehicle_type_id":"4","last_reported":1743221542,"current_range_meters":1600,"station_id":"","pricing_plan_id":"cebpf4jnsgd1na2vs0mg"},{"bike_id":"fc73b961-d175-4242-baa0-45156294c8b3","system_id":"levelo_inurba_marseille","lat":43.280006,"lon":5.442497,"is_reserved":false,"is_disabled":true,"rental_uris":{"android":"levelo://app?vid=fc73b961-d175-4242-baa0-45156294c8b3","ios":"levelo://app?vid=fc73b961-d175-4242-baa0-45156294c8b3"},"vehicle_type_id":"4","last_reported":1743221542,"current_range_meters":1600,"station_id":"","pricing_plan_id":"cebpf4jnsgd1na2vs0mg"},{"bike_id":"e0bd8552-eaef-4342-bdcd-1df755c00099","system_id":"levelo_inurba_marseille","lat":43.261894,"lon":5.420712,"is_reserved":false,"is_disabled":false,"rental_uris":{"android":"levelo://app?vid=e0bd8552-eaef-4342-bdcd-1df755c00099","ios":"levelo://app?vid=e0bd8552-eaef-4342-bdcd-1df755c00099"},"vehicle_type_id":"4","last_reported":1743221542,"current_range_meters":2800,"station_id":"","pricing_plan_id":"cebpf4jnsgd1na2vs0mg"},{"bike_id":"4035b94c-cde3-45e1-a2f2-dddbc5286c43","system_id":"levelo_inurba_marseille","lat":43.27168,"lon":5.39242,"is_reserved":false,"is_disabled":false,"rental_uris":{"android":"levelo://app?vid=4035b94c-cde3-45e1-a2f2-dddbc5286c43","ios":"levelo://app?vid=4035b94c-cde3-45e1-a2f2-dddbc5286c43"},"vehicle_type_id":"4","last_reported":1743221542,"current_range_meters":2800,"station_id":"","pricing_plan_id":"cebpf4jnsgd1na2vs0mg"},{"bike_id":"8610c0a7-54e0-46b6-b97c-eb43fd27f9ca","system_id":"levelo_inurba_marseille","lat":43.29629,"lon":5.38047,"is_reserved":false,"is_disabled":false,"rental_uris":{"android":"levelo://app?vid=8610c0a7-54e0-46b6-b97c-eb43fd27f9ca","ios":"levelo://app?vid=8610c0a7-54e0-46b6-b97c-eb43fd27f9ca"},"vehicle_type_id":"4","last_reported":1743221542,"current_range_meters":2800,"station_id":"","pricing_plan_id":"cebpf4jnsgd1na2vs0mg"},{"bike_id":"f46eea1f-108d-4507-b3e2-89b39c0d15e7","system_id":"levelo_inurba_marseille","lat":43.32339,"lon":5.40632,"is_reserved":false,"is_disabled":false,"rental_uris":{"android":"levelo://app?vid=f46eea1f-108d-4507-b3e2-89b39c0d15e7","ios":"levelo://app?vid=f46eea1f-108d-4507-b3e2-89b39c0d15e7"},"vehicle_type_id":"4","last_reported":1743221542,"current_range_meters":2800,"station_id":"ce4bhq92rcd13ifvqhjg","pricing_plan_id":"cebpf4jnsgd1na2vs0mg"},{"bike_id":"562d152b-de7c-40bf-84ea-a8d455a931c4","system_id":"levelo_inurba_marseille","lat":43.305995,"lon":5.372172,"is_reserved":false,"is_disabled":false,"rental_uris":{"android":"levelo://app?vid=562d152b-de7c-40bf-84ea-a8d455a931c4","ios":"levelo://app?vid=562d152b-de7c-40bf-84ea-a8d455a931c4"},"vehicle_type_id":"4","last_reported":1743221542,"current_range_meters":3200,"station_id":"ce4bgqh2rcd13ifvqc4g","pricing_plan_id":"cebpf4jnsgd1na2vs0mg"},{"bike_id":"980ff761-ef4f-469b-8661-624f949ac9ec","system_id":"levelo_inurba_marseille","lat":43.25825,"lon":5.39439,"is_reserved":false,"is_disabled":false,"rental_uris":{"android":"levelo://app?vid=980ff761-ef4f-469b-8661-624f949ac9ec","ios":"levelo://app?vid=980ff761-ef4f-469b-8661-624f949ac9ec"},"vehicle_type_id":"4","last_reported":1743221542,"current_range_meters":3200,"station_id":"ce4bhip2rcd13ifvqft0","pricing_plan_id":"cebpf4jnsgd1na2vs0mg"},{"bike_id":"f264c0e3-93c9-4f1d-9365-cc6236e6ec76","system_id":"levelo_inurba_marseille","lat":43.28726,"lon":5.361,"is_reserved":false,"is_disabled":false,"rental_uris":{"android":"levelo://app?vid=f264c0e3-93c9-4f1d-9365-cc6236e6ec76","ios":"levelo://app?vid=f264c0e3-93c9-4f1d-9365-cc6236e6ec76"},"vehicle_type_id":"4","last_reported":1743221542,"current_range_meters":3200,"station_id":"cki0cbj6b192h4jlfktg","pricing_plan_id":"cebpf4jnsgd1na2vs0mg"},{"bike_id":"b53201dc-9476-4608-b029-c9ae750a5c5b","system_id":"levelo_inurba_marseille","lat":43.31385,"lon":5.38515,"is_reserved":false,"is_disabled":false,"rental_uris":{"android":"levelo://app?vid=b53201dc-9476-4608-b029-c9ae750a5c5b","ios":"levelo://app?vid=b53201dc-9476-4608-b029-c9ae750a5c5b"},"vehicle_type_id":"4","last_reported":1743221542,"current_range_meters":3600,"station_id":"ce4bgt92rcd13ifvqcf0","pricing_plan_id":"cebpf4jnsgd1na2vs0mg"},{"bike_id":"364d8473-fd43-489e-b696-eaa17658eaac","system_id":"levelo_inurba_marseille","lat":43.308673,"lon":5.396437,"is_reserved":false,"is_disabled":false,"rental_uris":{"android":"levelo://app?vid=364d8473-fd43-489e-b696-eaa17658eaac","ios":"levelo://app?vid=364d8473-fd43-489e-b696-eaa17658eaac"},"vehicle_type_id":"4","last_reported":1743221542,"current_range_meters":3600,"station_id":"ce4bh012rcd13ifvqcv0","pricing_plan_id":"cebpf4jnsgd1na2vs0mg"},{"bike_id":"4683a830-0b2b-444f-82b4-5dbb8534e1a5","system_id":"levelo_inurba_marseille","lat":43.31359,"lon":5.38517,"is_reserved":false,"is_disabled":false,"rental_uris":{"android":"levelo://app?vid=4683a830-0b2b-444f-82b4-5dbb8534e1a5","ios":"levelo://app?vid=4683a830-0b2b-444f-82b4-5dbb8534e1a5"},"vehicle_type_id":"4","last_reported":1743221542,"current_range_meters":4400,"station_id":"ce4bgt92rcd13ifvqcf0","pricing_plan_id":"cebpf4jnsgd1na2vs0mg"},{"bike_id":"dcdfd9e0-c7f1-448b-8be0-772c5b33f307","system_id":"levelo_inurba_marseille","lat":43.31705,"lon":5.40472,"is_reserved":false,"is_disabled":false,"rental_uris":{"android":"levelo://app?vid=dcdfd9e0-c7f1-448b-8be0-772c5b33f307","ios":"levelo://app?vid=dcdfd9e0-c7f1-448b-8be0-772c5b33f307"},"vehicle_type_id":"4","last_reported":1743221542,"current_range_meters":4400,"station_id":"ce4bh012rcd13ifvqd00","pricing_plan_id":"cebpf4jnsgd1na2vs0mg"},{"bike_id":"9723871a-41c9-44d6-be94-c7c675b78492","system_id":"levelo_inurba_marseille","lat":43.28936,"lon":5.3842,"is_reserved":false,"is_disabled":false,"rental_uris":{"android":"levelo://app?vid=9723871a-41c9-44d6-be94-c7c675b78492","ios":"levelo://app?vid=9723871a-41c9-44d6-be94-c7c675b78492"},"vehicle_type_id":"4","last_reported":1743221542,"current_range_meters":4400,"station_id":"ce4bh612rcd13ifvqe6g","pricing_plan_id":"cebpf4jnsgd1na2vs0mg"},{"bike_id":"67a1a2f2-eb76-40dd-b124-62581646fa46","system_id":"levelo_inurba_marseille","lat":43.28026,"lon":5.36964,"is_reserved":false,"is_disabled":false,"rental_uris":{"android":"levelo://app?vid=67a1a2f2-eb76-40dd-b124-62581646fa46","ios":"levelo://app?vid=67a1a2f2-eb76-40dd-b124-62581646fa46"},"vehicle_type_id":"4","last_reported":1743221542,"current_range_meters":4400,"station_id":"ce4bha12rcd13ifvqef0","pricing_plan_id":"cebpf4jnsgd1na2vs0mg"},{"bike_id":"ddb3e057-8a1c-4f4a-8056-17b5b845e0b9","system_id":"levelo_inurba_marseille","lat":43.280926,"lon":5.39875,"is_reserved":false,"is_disabled":false,"rental_uris":{"android":"levelo://app?vid=ddb3e057-8a1c-4f4a-8056-17b5b845e0b9","ios":"levelo://app?vid=ddb3e057-8a1c-4f4a-8056-17b5b845e0b9"},"vehicle_type_id":"4","last_reported":1743221542,"current_range_meters":4800,"station_id":"","pricing_plan_id":"cebpf4jnsgd1na2vs0mg"},{"bike_id":"fd3421f3-9336-4d90-b616-c4936932ff9c","system_id":"levelo_inurba_marseille","lat":43.33005,"lon":5.39192,"is_reserved":false,"is_disabled":false,"rental_uris":{"android":"levelo://app?vid=fd3421f3-9336-4d90-b616-c4936932ff9c","ios":"levelo://app?vid=fd3421f3-9336-4d90-b616-c4936932ff9c"},"vehicle_type_id":"4","last_reported":1743221542,"current_range_meters":4800,"station_id":"","pricing_plan_id":"cebpf4jnsgd1na2vs0mg"},{"bike_id":"e8fe3ebb-2f5c-4c4e-9de9-c1912783f48b","system_id":"levelo_inurba_marseille","lat":43.29246,"lon":5.40115,"is_reserved":false,"is_disabled":false,"rental_uris":{"android":"levelo://app?vid=e8fe3ebb-2f5c-4c4e-9de9-c1912783f48b","ios":"levelo://app?vid=e8fe3ebb-2f5c-4c4e-9de9-c1912783f48b"},"vehicle_type_id":"4","last_reported":1743221542,"current_range_meters":4800,"station_id":"ce4bh312rcd13ifvqdk0","pricing_plan_id":"cebpf4jnsgd1na2vs0mg"},{"bike_id":"a8378dcb-c63c-4ffe-9fb7-885a8f569a7a","system_id":"levelo_inurba_marseille","lat":43.23177,"lon":5.39981,"is_reserved":false,"is_disabled":false,"rental_uris":{"android":"levelo://app?vid=a8378dcb-c63c-4ffe-9fb7-885a8f569a7a","ios":"levelo://app?vid=a8378dcb-c63c-4ffe-9fb7-885a8f569a7a"},"vehicle_type_id":"4","last_reported":1743221542,"current_range_meters":4800,"station_id":"ce4bhn12rcd13ifvqgqg","pricing_plan_id":"cebpf4jnsgd1na2vs0mg"},{"bike_id":"ec940620-2a09-4eae-aace-1a0a72b62180","system_id":"levelo_inurba_marseille","lat":43.30294,"lon":5.40091,"is_reserved":false,"is_disabled":false,"rental_uris":{"android":"levelo://app?vid=ec940620-2a09-4eae-aace-1a0a72b62180","ios":"levelo://app?vid=ec940620-2a09-4eae-aace-1a0a72b62180"},"vehicle_type_id":"4","last_reported":1743221542,"current_range_meters":5600,"station_id":"ce4bgvh2rcd13ifvqcs0","pricing_plan_id":"cebpf4jnsgd1na2vs0mg"},{"bike_id":"0ac88cdf-dd3a-494f-aaa5-2b24d1ce393f","system_id":"levelo_inurba_marseille","lat":43.23189,"lon":5.35548,"is_reserved":false,"is_disabled":false,"rental_uris":{"android":"levelo://app?vid=0ac88cdf-dd3a-494f-aaa5-2b24d1ce393f","ios":"levelo://app?vid=0ac88cdf-dd3a-494f-aaa5-2b24d1ce393f"},"vehicle_type_id":"4","last_reported":1743221542,"current_range_meters":5600,"station_id":"ce4bhu92rcd13ifvqi70","pricing_plan_id":"cebpf4jnsgd1na2vs0mg"},{"bike_id":"961245ca-8d90-4d71-b735-61afea929100","system_id":"levelo_inurba_marseille","lat":43.241536,"lon":5.364059,"is_reserved":false,"is_disabled":false,"rental_uris":{"android":"levelo://app?vid=961245ca-8d90-4d71-b735-61afea929100","ios":"levelo://app?vid=961245ca-8d90-4d71-b735-61afea929100"},"vehicle_type_id":"4","last_reported":1743221542,"current_range_meters":5600,"station_id":"cpo36qri1sfpv3e86is0","pricing_plan_id":"cebpf4jnsgd1na2vs0mg"},{"bike_id":"df02a453-94b4-4aa9-bf3d-9e6faffee098","system_id":"levelo_inurba_marseille","lat":43.28988,"lon":5.42584,"is_reserved":false,"is_disabled":false,"rental_uris":{"android":"levelo://app?vid=df02a453-94b4-4aa9-bf3d-9e6faffee098","ios":"levelo://app?vid=df02a453-94b4-4aa9-bf3d-9e6faffee098"},"vehicle_type_id":"4","last_reported":1743221542,"current_range_meters":6000,"station_id":"","pricing_plan_id":"cebpf4jnsgd1na2vs0mg"},{"bike_id":"c76117a5-9c66-4bf3-8abd-eb75019fc03e","system_id":"levelo_inurba_marseille","lat":43.309565,"lon":5.390309,"is_reserved":false,"is_disabled":false,"rental_uris":{"android":"levelo://app?vid=c76117a5-9c66-4bf3-8abd-eb75019fc03e","ios":"levelo://app?vid=c76117a5-9c66-4bf3-8abd-eb75019fc03e"},"vehicle_type_id":"4","last_reported":1743221542,"current_range_meters":6000,"station_id":"ce4bgup2rcd13ifvqco0","pricing_plan_id":"cebpf4jnsgd1na2vs0mg"},{"bike_id":"4deb4783-8cfd-4878-9232-6f4ec00fece7","system_id":"levelo_inurba_marseille","lat":43.309268,"lon":5.40146,"is_reserved":false,"is_disabled":false,"rental_uris":{"android":"levelo://app?vid=4deb4783-8cfd-4878-9232-6f4ec00fece7","ios":"levelo://app?vid=4deb4783-8cfd-4878-9232-6f4ec00fece7"},"vehicle_type_id":"4","last_reported":1743221542,"current_range_meters":6000,"station_id":"ce4bgvp2rcd13ifvqct0","pricing_plan_id":"cebpf4jnsgd1na2vs0mg"},{"bike_id":"d0c2ba62-325f-42ee-b4c5-fe6707aa69d7","system_id":"levelo_inurba_marseille","lat":43.24787,"lon":5.37472,"is_reserved":false,"is_disabled":false,"rental_uris":{"android":"levelo://app?vid=d0c2ba62-325f-42ee-b4c5-fe6707aa69d7","ios":"levelo://app?vid=d0c2ba62-325f-42ee-b4c5-fe6707aa69d7"},"vehicle_type_id":"4","last_reported":1743221542,"current_range_meters":6000,"station_id":"ce4bhgh2rcd13ifvqfb0","pricing_plan_id":"cebpf4jnsgd1na2vs0mg"},{"bike_id":"69d4a96e-aebb-48d7-9d81-4070f7503e98","system_id":"levelo_inurba_marseille","lat":43.30832,"lon":5.37385,"is_reserved":false,"is_disabled":false,"rental_uris":{"android":"levelo://app?vid=69d4a96e-aebb-48d7-9d81-4070f7503e98","ios":"levelo://app?vid=69d4a96e-aebb-48d7-9d81-4070f7503e98"},"vehicle_type_id":"4","last_reported":1743221542,"current_range_meters":6400,"station_id":"","pricing_plan_id":"cebpf4jnsgd1na2vs0mg"},{"bike_id":"6ed81b6d-3cb1-4986-bdfe-a63705d9298a","system_id":"levelo_inurba_marseille","lat":43.30265,"lon":5.40139,"is_reserved":false,"is_disabled":false,"rental_uris":{"android":"levelo://app?vid=6ed81b6d-3cb1-4986-bdfe-a63705d9298a","ios":"levelo://app?vid=6ed81b6d-3cb1-4986-bdfe-a63705d9298a"},"vehicle_type_id":"4","last_reported":1743221542,"current_range_meters":6400,"station_id":"ce4bgvh2rcd13ifvqcs0","pricing_plan_id":"cebpf4jnsgd1na2vs0mg"},{"bike_id":"5ce256d8-df5a-49ec-a9d7-d012197f7db8","system_id":"levelo_inurba_marseille","lat":43.29225,"lon":5.36057,"is_reserved":false,"is_disabled":false,"rental_uris":{"android":"levelo://app?vid=5ce256d8-df5a-49ec-a9d7-d012197f7db8","ios":"levelo://app?vid=5ce256d8-df5a-49ec-a9d7-d012197f7db8"},"vehicle_type_id":"4","last_reported":1743221542,"current_range_meters":6400,"station_id":"ce4bhbh2rcd13ifvqeqg","pricing_plan_id":"cebpf4jnsgd1na2vs0mg"},{"bike_id":"d8995671-8d10-4595-a48d-c072afc16bcb","system_id":"levelo_inurba_marseille","lat":43.286122,"lon":5.351032,"is_reserved":false,"is_disabled":false,"rental_uris":{"android":"levelo://app?vid=d8995671-8d10-4595-a48d-c072afc16bcb","ios":"levelo://app?vid=d8995671-8d10-4595-a48d-c072afc16bcb"},"vehicle_type_id":"4","last_reported":1743221542,"current_range_meters":6400,"station_id":"ce4bhch2rcd13ifvqeug","pricing_plan_id":"cebpf4jnsgd1na2vs0mg"},{"bike_id":"4eaa6cd8-7808-4f78-9aaf-097dc658bd4b","system_id":"levelo_inurba_marseille","lat":43.24996,"lon":5.38929,"is_reserved":false,"is_disabled":false,"rental_uris":{"android":"levelo://app?vid=4eaa6cd8-7808-4f78-9aaf-097dc658bd4b","ios":"levelo://app?vid=4eaa6cd8-7808-4f78-9aaf-097dc658bd4b"},"vehicle_type_id":"4","last_reported":1743221542,"current_range_meters":6400,"station_id":"ce4bhgp2rcd13ifvqfd0","pricing_plan_id":"cebpf4jnsgd1na2vs0mg"},{"bike_id":"6026f9b7-25ae-4d64-8648-76338e9b1c4c","system_id":"levelo_inurba_marseille","lat":43.323647,"lon":5.388756,"is_reserved":false,"is_disabled":false,"rental_uris":{"android":"levelo://app?vid=6026f9b7-25ae-4d64-8648-76338e9b1c4c","ios":"levelo://app?vid=6026f9b7-25ae-4d64-8648-76338e9b1c4c"},"vehicle_type_id":"4","last_reported":1743221542,"current_range_meters":6400,"station_id":"ce4bhqp2rcd13ifvqhog","pricing_plan_id":"cebpf4jnsgd1na2vs0mg"},{"bike_id":"422a75c2-467f-4b23-9c54-3e84a1bf2eb6","system_id":"levelo_inurba_marseille","lat":43.330204,"lon":5.390492,"is_reserved":false,"is_disabled":false,"rental_uris":{"android":"levelo://app?vid=422a75c2-467f-4b23-9c54-3e84a1bf2eb6","ios":"levelo://app?vid=422a75c2-467f-4b23-9c54-3e84a1bf2eb6"},"vehicle_type_id":"4","last_reported":1743221542,"current_range_meters":6400,"station_id":"ce4bhr92rcd13ifvqhrg","pricing_plan_id":"cebpf4jnsgd1na2vs0mg"},{"bike_id":"ee2588a0-8a3d-4c56-88e3-6823a90de92d","system_id":"levelo_inurba_marseille","lat":43.280991,"lon":5.385652,"is_reserved":false,"is_disabled":false,"rental_uris":{"android":"levelo://app?vid=ee2588a0-8a3d-4c56-88e3-6823a90de92d","ios":"levelo://app?vid=ee2588a0-8a3d-4c56-88e3-6823a90de92d"},"vehicle_type_id":"4","last_reported":1743221542,"current_range_meters":6800,"station_id":"","pricing_plan_id":"cebpf4jnsgd1na2vs0mg"},{"bike_id":"0480ed99-bc5e-4d69-a9da-0c15e31de3a0","system_id":"levelo_inurba_marseille","lat":43.317016,"lon":5.377342,"is_reserved":false,"is_disabled":false,"rental_uris":{"android":"levelo://app?vid=0480ed99-bc5e-4d69-a9da-0c15e31de3a0","ios":"levelo://app?vid=0480ed99-bc5e-4d69-a9da-0c15e31de3a0"},"vehicle_type_id":"4","last_reported":1743221542,"current_range_meters":6800,"station_id":"ce4bgth2rcd13ifvqch0","pricing_plan_id":"cebpf4jnsgd1na2vs0mg"},{"bike_id":"582b4121-ab0e-461b-a4b3-ac8e2e27ca5a","system_id":"levelo_inurba_marseille","lat":43.30642,"lon":5.40063,"is_reserved":false,"is_disabled":false,"rental_uris":{"android":"levelo://app?vid=582b4121-ab0e-461b-a4b3-ac8e2e27ca5a","ios":"levelo://app?vid=582b4121-ab0e-461b-a4b3-ac8e2e27ca5a"},"vehicle_type_id":"4","last_reported":1743221542,"current_range_meters":6800,"station_id":"ce4bh112rcd13ifvqda0","pricing_plan_id":"cebpf4jnsgd1na2vs0mg"},{"bike_id":"764341b8-8221-4862-8b96-eab0b8aa2d10","system_id":"levelo_inurba_marseille","lat":43.284246,"lon":5.375116,"is_reserved":false,"is_disabled":false,"rental_uris":{"android":"levelo://app?vid=764341b8-8221-4862-8b96-eab0b8aa2d10","ios":"levelo://app?vid=764341b8-8221-4862-8b96-eab0b8aa2d10"},"vehicle_type_id":"4","last_reported":1743221542,"current_range_meters":6800,"station_id":"ce4bh412rcd13ifvqds0","pricing_plan_id":"cebpf4jnsgd1na2vs0mg"},{"bike_id":"92fb722b-55da-4f6e-9ecf-5551bd89806c","system_id":"levelo_inurba_marseille","lat":43.27903,"lon":5.3959,"is_reserved":false,"is_disabled":false,"rental_uris":{"android":"levelo://app?vid=92fb722b-55da-4f6e-9ecf-5551bd89806c","ios":"levelo://app?vid=92fb722b-55da-4f6e-9ecf-5551bd89806c"},"vehicle_type_id":"4","last_reported":1743221542,"current_range_meters":6800,"station_id":"ce4bhf92rcd13ifvqf40","pricing_plan_id":"cebpf4jnsgd1na2vs0mg"},{"bike_id":"bf5aeddd-6ef7-4913-8e72-99d69bbe3c55","system_id":"levelo_inurba_marseille","lat":43.27956,"lon":5.38709,"is_reserved":false,"is_disabled":false,"rental_uris":{"android":"levelo://app?vid=bf5aeddd-6ef7-4913-8e72-99d69bbe3c55","ios":"levelo://app?vid=bf5aeddd-6ef7-4913-8e72-99d69bbe3c55"},"vehicle_type_id":"4","last_reported":1743221542,"current_range_meters":6800,"station_id":"ce4bhg12rcd13ifvqf80","pricing_plan_id":"cebpf4jnsgd1na2vs0mg"},{"bike_id":"fd134268-1499-401e-bb83-137ea2b7a695","system_id":"levelo_inurba_marseille","lat":43.239614,"lon":5.366426,"is_reserved":false,"is_disabled":false,"rental_uris":{"android":"levelo://app?vid=fd134268-1499-401e-bb83-137ea2b7a695","ios":"levelo://app?vid=fd134268-1499-401e-bb83-137ea2b7a695"},"vehicle_type_id":"4","last_reported":1743221542,"current_range_meters":6800,"station_id":"ce4bhi12rcd13ifvqfp0","pricing_plan_id":"cebpf4jnsgd1na2vs0mg"},{"bike_id":"57f8c7cb-17ce-46c9-b07d-dc98d28c951d","system_id":"levelo_inurba_marseille","lat":43.25825,"lon":5.3943,"is_reserved":false,"is_disabled":false,"rental_uris":{"android":"levelo://app?vid=57f8c7cb-17ce-46c9-b07d-dc98d28c951d","ios":"levelo://app?vid=57f8c7cb-17ce-46c9-b07d-dc98d28c951d"},"vehicle_type_id":"4","last_reported":1743221542,"current_range_meters":6800,"station_id":"ce4bhip2rcd13ifvqft0","pricing_plan_id":"cebpf4jnsgd1na2vs0mg"},{"bike_id":"6a5faf51-2bec-4782-8a8f-e039ed407c9b","system_id":"levelo_inurba_marseille","lat":43.25088,"lon":5.39537,"is_reserved":false,"is_disabled":false,"rental_uris":{"android":"levelo://app?vid=6a5faf51-2bec-4782-8a8f-e039ed407c9b","ios":"levelo://app?vid=6a5faf51-2bec-4782-8a8f-e039ed407c9b"},"vehicle_type_id":"4","last_reported":1743221542,"current_range_meters":6800,"station_id":"ce4bhm12rcd13ifvqgkg","pricing_plan_id":"cebpf4jnsgd1na2vs0mg"},{"bike_id":"9faffa80-67d4-4e2a-9130-9db11f86ce81","system_id":"levelo_inurba_marseille","lat":43.287035,"lon":5.399667,"is_reserved":false,"is_disabled":false,"rental_uris":{"android":"levelo://app?vid=9faffa80-67d4-4e2a-9130-9db11f86ce81","ios":"levelo://app?vid=9faffa80-67d4-4e2a-9130-9db11f86ce81"},"vehicle_type_id":"4","last_reported":1743221542,"current_range_meters":6800,"station_id":"ce4bho92rcd13ifvqh3g","pricing_plan_id":"cebpf4jnsgd1na2vs0mg"},{"bike_id":"bf486d29-80ae-43fc-9394-756ed3e2b73e","system_id":"levelo_inurba_marseille","lat":43.28005,"lon":5.40019,"is_reserved":false,"is_disabled":false,"rental_uris":{"android":"levelo://app?vid=bf486d29-80ae-43fc-9394-756ed3e2b73e","ios":"levelo://app?vid=bf486d29-80ae-43fc-9394-756ed3e2b73e"},"vehicle_type_id":"4","last_reported":1743221542,"current_range_meters":6800,"station_id":"ce4bho92rcd13ifvqh4g","pricing_plan_id":"cebpf4jnsgd1na2vs0mg"},{"bike_id":"a3514274-c949-4c91-b768-3857fda27d00","system_id":"levelo_inurba_marseille","lat":43.286079,"lon":5.370635,"is_reserved":false,"is_disabled":false,"rental_uris":{"android":"levelo://app?vid=a3514274-c949-4c91-b768-3857fda27d00","ios":"levelo://app?vid=a3514274-c949-4c91-b768-3857fda27d00"},"vehicle_type_id":"4","last_reported":1743221542,"current_range_meters":6800,"station_id":"ce4bht12rcd13ifvqi60","pricing_plan_id":"cebpf4jnsgd1na2vs0mg"},{"bike_id":"ef5311bd-b007-4991-a444-371f4153c946","system_id":"levelo_inurba_marseille","lat":43.30249,"lon":5.4005,"is_reserved":false,"is_disabled":false,"rental_uris":{"android":"levelo://app?vid=ef5311bd-b007-4991-a444-371f4153c946","ios":"levelo://app?vid=ef5311bd-b007-4991-a444-371f4153c946"},"vehicle_type_id":"4","last_reported":1743221542,"current_range_meters":7200,"station_id":"ce4bgvh2rcd13ifvqcs0","pricing_plan_id":"cebpf4jnsgd1na2vs0mg"},{"bike_id":"7201e83f-6b3c-4d50-905a-46d5815f0094","system_id":"levelo_inurba_marseille","lat":43.30252,"lon":5.4008,"is_reserved":false,"is_disabled":false,"rental_uris":{"android":"levelo://app?vid=7201e83f-6b3c-4d50-905a-46d5815f0094","ios":"levelo://app?vid=7201e83f-6b3c-4d50-905a-46d5815f0094"},"vehicle_type_id":"4","last_reported":1743221542,"current_range_meters":7200,"station_id":"ce4bgvh2rcd13ifvqcs0","pricing_plan_id":"cebpf4jnsgd1na2vs0mg"},{"bike_id":"dbfb5b97-a020-41a5-b0fb-749087cd6b4f","system_id":"levelo_inurba_marseille","lat":43.30916,"lon":5.40165,"is_reserved":false,"is_disabled":false,"rental_uris":{"android":"levelo://app?vid=dbfb5b97-a020-41a5-b0fb-749087cd6b4f","ios":"levelo://app?vid=dbfb5b97-a020-41a5-b0fb-749087cd6b4f"},"vehicle_type_id":"4","last_reported":1743221542,"current_range_meters":7200,"station_id":"ce4bgvp2rcd13ifvqct0","pricing_plan_id":"cebpf4jnsgd1na2vs0mg"},{"bike_id":"891cbfc1-a699-4dab-81c0-4ef39d49821a","system_id":"levelo_inurba_marseille","lat":43.30323,"lon":5.40416,"is_reserved":false,"is_disabled":false,"rental_uris":{"android":"levelo://app?vid=891cbfc1-a699-4dab-81c0-4ef39d49821a","ios":"levelo://app?vid=891cbfc1-a699-4dab-81c0-4ef39d49821a"},"vehicle_type_id":"4","last_reported":1743221542,"current_range_meters":7200,"station_id":"ce4bh012rcd13ifvqd10","pricing_plan_id":"cebpf4jnsgd1na2vs0mg"},{"bike_id":"029036df-ffc9-4479-8c1c-8fe8abd77a39","system_id":"levelo_inurba_marseille","lat":43.28404,"lon":5.37497,"is_reserved":false,"is_disabled":false,"rental_uris":{"android":"levelo://app?vid=029036df-ffc9-4479-8c1c-8fe8abd77a39","ios":"levelo://app?vid=029036df-ffc9-4479-8c1c-8fe8abd77a39"},"vehicle_type_id":"4","last_reported":1743221542,"current_range_meters":7200,"station_id":"ce4bh412rcd13ifvqds0","pricing_plan_id":"cebpf4jnsgd1na2vs0mg"},{"bike_id":"e7131f47-a14e-4565-8067-49e50ef436e3","system_id":"levelo_inurba_marseille","lat":43.29554,"lon":5.42296,"is_reserved":false,"is_disabled":false,"rental_uris":{"android":"levelo://app?vid=e7131f47-a14e-4565-8067-49e50ef436e3","ios":"levelo://app?vid=e7131f47-a14e-4565-8067-49e50ef436e3"},"vehicle_type_id":"4","last_reported":1743221542,"current_range_meters":7200,"station_id":"ce4bhph2rcd13ifvqhdg","pricing_plan_id":"cebpf4jnsgd1na2vs0mg"},{"bike_id":"f88af228-74b6-45dc-9cb8-b95e972f8ab2","system_id":"levelo_inurba_marseille","lat":43.30065,"lon":5.3884,"is_reserved":false,"is_disabled":false,"rental_uris":{"android":"levelo://app?vid=f88af228-74b6-45dc-9cb8-b95e972f8ab2","ios":"levelo://app?vid=f88af228-74b6-45dc-9cb8-b95e972f8ab2"},"vehicle_type_id":"4","last_reported":1743221542,"current_range_meters":7200,"station_id":"ce4bhpp2rcd13ifvqhgg","pricing_plan_id":"cebpf4jnsgd1na2vs0mg"},{"bike_id":"04f4a73b-cd58-4830-9242-a5bbcf7947cf","system_id":"levelo_inurba_marseille","lat":43.31881,"lon":5.40737,"is_reserved":false,"is_disabled":false,"rental_uris":{"android":"levelo://app?vid=04f4a73b-cd58-4830-9242-a5bbcf7947cf","ios":"levelo://app?vid=04f4a73b-cd58-4830-9242-a5bbcf7947cf"},"vehicle_type_id":"4","last_reported":1743221542,"current_range_meters":7200,"station_id":"ce4bhq12rcd13ifvqhig","pricing_plan_id":"cebpf4jnsgd1na2vs0mg"},{"bike_id":"b2fd8e70-5b37-4865-bf49-d30da2481695","system_id":"levelo_inurba_marseille","lat":43.23202,"lon":5.3555,"is_reserved":false,"is_disabled":false,"rental_uris":{"android":"levelo://app?vid=b2fd8e70-5b37-4865-bf49-d30da2481695","ios":"levelo://app?vid=b2fd8e70-5b37-4865-bf49-d30da2481695"},"vehicle_type_id":"4","last_reported":1743221542,"current_range_meters":7200,"station_id":"ce4bhu92rcd13ifvqi70","pricing_plan_id":"cebpf4jnsgd1na2vs0mg"},{"bike_id":"861ae205-c318-4688-ac53-947993e1b65f","system_id":"levelo_inurba_marseille","lat":43.241639,"lon":5.363932,"is_reserved":false,"is_disabled":false,"rental_uris":{"android":"levelo://app?vid=861ae205-c318-4688-ac53-947993e1b65f","ios":"levelo://app?vid=861ae205-c318-4688-ac53-947993e1b65f"},"vehicle_type_id":"4","last_reported":1743221542,"current_range_meters":7200,"station_id":"cpo36qri1sfpv3e86is0","pricing_plan_id":"cebpf4jnsgd1na2vs0mg"},{"bike_id":"8f475bc8-a624-4e43-b14d-85deacbce954","system_id":"levelo_inurba_marseille","lat":43.31228,"lon":5.36864,"is_reserved":false,"is_disabled":false,"rental_uris":{"android":"levelo://app?vid=8f475bc8-a624-4e43-b14d-85deacbce954","ios":"levelo://app?vid=8f475bc8-a624-4e43-b14d-85deacbce954"},"vehicle_type_id":"4","last_reported":1743221542,"current_range_meters":8000,"station_id":"ce4bgl92rcd13ifvqbq0","pricing_plan_id":"cebpf4jnsgd1na2vs0mg"},{"bike_id":"9706b643-c205-41ac-9b92-80d747a14eed","system_id":"levelo_inurba_marseille","lat":43.31129,"lon":5.37765,"is_reserved":false,"is_disabled":false,"rental_uris":{"android":"levelo://app?vid=9706b643-c205-41ac-9b92-80d747a14eed","ios":"levelo://app?vid=9706b643-c205-41ac-9b92-80d747a14eed"},"vehicle_type_id":"4","last_reported":1743221542,"current_range_meters":8000,"station_id":"ce4bgt92rcd13ifvqcg0","pricing_plan_id":"cebpf4jnsgd1na2vs0mg"},{"bike_id":"5e88e231-5600-4ca8-aa39-f6cc64e0a9b2","system_id":"levelo_inurba_marseille","lat":43.2803,"lon":5.36935,"is_reserved":false,"is_disabled":false,"rental_uris":{"android":"levelo://app?vid=5e88e231-5600-4ca8-aa39-f6cc64e0a9b2","ios":"levelo://app?vid=5e88e231-5600-4ca8-aa39-f6cc64e0a9b2"},"vehicle_type_id":"4","last_reported":1743221542,"current_range_meters":8000,"station_id":"ce4bha12rcd13ifvqef0","pricing_plan_id":"cebpf4jnsgd1na2vs0mg"},{"bike_id":"94b5bcc7-6238-4eda-85ba-005d36893295","system_id":"levelo_inurba_marseille","lat":43.29066,"lon":5.35921,"is_reserved":false,"is_disabled":false,"rental_uris":{"android":"levelo://app?vid=94b5bcc7-6238-4eda-85ba-005d36893295","ios":"levelo://app?vid=94b5bcc7-6238-4eda-85ba-005d36893295"},"vehicle_type_id":"4","last_reported":1743221542,"current_range_meters":8000,"station_id":"ce4bha92rcd13ifvqeg0","pricing_plan_id":"cebpf4jnsgd1na2vs0mg"},{"bike_id":"9ee402e7-1a17-4a4f-8096-bc833bafbd6b","system_id":"levelo_inurba_marseille","lat":43.28937,"lon":5.36642,"is_reserved":false,"is_disabled":false,"rental_uris":{"android":"levelo://app?vid=9ee402e7-1a17-4a4f-8096-bc833bafbd6b","ios":"levelo://app?vid=9ee402e7-1a17-4a4f-8096-bc833bafbd6b"},"vehicle_type_id":"4","last_reported":1743221542,"current_range_meters":8000,"station_id":"ce4bhap2rcd13ifvqek0","pricing_plan_id":"cebpf4jnsgd1na2vs0mg"},{"bike_id":"c6b682a7-e903-4363-967f-d69957e8f7ed","system_id":"levelo_inurba_marseille","lat":43.28612,"lon":5.35113,"is_reserved":false,"is_disabled":false,"rental_uris":{"android":"levelo://app?vid=c6b682a7-e903-4363-967f-d69957e8f7ed","ios":"levelo://app?vid=c6b682a7-e903-4363-967f-d69957e8f7ed"},"vehicle_type_id":"4","last_reported":1743221542,"current_range_meters":8000,"station_id":"ce4bhch2rcd13ifvqeug","pricing_plan_id":"cebpf4jnsgd1na2vs0mg"},{"bike_id":"653f4403-c5cd-4032-b5a8-482768e38f5f","system_id":"levelo_inurba_marseille","lat":43.239601,"lon":5.366324,"is_reserved":false,"is_disabled":false,"rental_uris":{"android":"levelo://app?vid=653f4403-c5cd-4032-b5a8-482768e38f5f","ios":"levelo://app?vid=653f4403-c5cd-4032-b5a8-482768e38f5f"},"vehicle_type_id":"4","last_reported":1743221542,"current_range_meters":8000,"station_id":"ce4bhi12rcd13ifvqfp0","pricing_plan_id":"cebpf4jnsgd1na2vs0mg"},{"bike_id":"f439faaa-ce2d-437b-bd83-3a4e6c6ea628","system_id":"levelo_inurba_marseille","lat":43.24166,"lon":5.39755,"is_reserved":false,"is_disabled":false,"rental_uris":{"android":"levelo://app?vid=f439faaa-ce2d-437b-bd83-3a4e6c6ea628","ios":"levelo://app?vid=f439faaa-ce2d-437b-bd83-3a4e6c6ea628"},"vehicle_type_id":"4","last_reported":1743221542,"current_range_meters":8000,"station_id":"ce4bhn12rcd13ifvqgpg","pricing_plan_id":"cebpf4jnsgd1na2vs0mg"},{"bike_id":"1c14bf9c-ada4-4a36-8853-740a1a2c000a","system_id":"levelo_inurba_marseille","lat":43.231917,"lon":5.355535,"is_reserved":false,"is_disabled":false,"rental_uris":{"android":"levelo://app?vid=1c14bf9c-ada4-4a36-8853-740a1a2c000a","ios":"levelo://app?vid=1c14bf9c-ada4-4a36-8853-740a1a2c000a"},"vehicle_type_id":"4","last_reported":1743221542,"current_range_meters":8000,"station_id":"ce4bhu92rcd13ifvqi70","pricing_plan_id":"cebpf4jnsgd1na2vs0mg"},{"bike_id":"4bc0dbb3-90de-4eb9-aa21-74c63a07a4eb","system_id":"levelo_inurba_marseille","lat":43.31123,"lon":5.37758,"is_reserved":false,"is_disabled":false,"rental_uris":{"android":"levelo://app?vid=4bc0dbb3-90de-4eb9-aa21-74c63a07a4eb","ios":"levelo://app?vid=4bc0dbb3-90de-4eb9-aa21-74c63a07a4eb"},"vehicle_type_id":"4","last_reported":1743221542,"current_range_meters":8400,"station_id":"ce4bgt92rcd13ifvqcg0","pricing_plan_id":"cebpf4jnsgd1na2vs0mg"},{"bike_id":"3c724e4a-ec93-4dd4-87a9-608ce3fa202a","system_id":"levelo_inurba_marseille","lat":43.310703,"lon":5.383425,"is_reserved":false,"is_disabled":false,"rental_uris":{"android":"levelo://app?vid=3c724e4a-ec93-4dd4-87a9-608ce3fa202a","ios":"levelo://app?vid=3c724e4a-ec93-4dd4-87a9-608ce3fa202a"},"vehicle_type_id":"4","last_reported":1743221542,"current_range_meters":8400,"station_id":"ce4bgv92rcd13ifvqcr0","pricing_plan_id":"cebpf4jnsgd1na2vs0mg"},{"bike_id":"164dbc3e-622a-4e3f-b578-4aea6c85f2de","system_id":"levelo_inurba_marseille","lat":43.3089,"lon":5.39603,"is_reserved":false,"is_disabled":false,"rental_uris":{"android":"levelo://app?vid=164dbc3e-622a-4e3f-b578-4aea6c85f2de","ios":"levelo://app?vid=164dbc3e-622a-4e3f-b578-4aea6c85f2de"},"vehicle_type_id":"4","last_reported":1743221542,"current_range_meters":8400,"station_id":"ce4bh012rcd13ifvqcv0","pricing_plan_id":"cebpf4jnsgd1na2vs0mg"},{"bike_id":"90df0f14-f996-423e-b605-53c2c708242e","system_id":"levelo_inurba_marseille","lat":43.31657,"lon":5.40499,"is_reserved":false,"is_disabled":false,"rental_uris":{"android":"levelo://app?vid=90df0f14-f996-423e-b605-53c2c708242e","ios":"levelo://app?vid=90df0f14-f996-423e-b605-53c2c708242e"},"vehicle_type_id":"4","last_reported":1743221542,"current_range_meters":8400,"station_id":"ce4bh012rcd13ifvqd00","pricing_plan_id":"cebpf4jnsgd1na2vs0mg"},{"bike_id":"61e546bf-3d6b-4eef-9361-f0012ae57a92","system_id":"levelo_inurba_marseille","lat":43.28695,"lon":5.37369,"is_reserved":false,"is_disabled":false,"rental_uris":{"android":"levelo://app?vid=61e546bf-3d6b-4eef-9361-f0012ae57a92","ios":"levelo://app?vid=61e546bf-3d6b-4eef-9361-f0012ae57a92"},"vehicle_type_id":"4","last_reported":1743221542,"current_range_meters":8400,"station_id":"ce4bh3p2rcd13ifvqdq0","pricing_plan_id":"cebpf4jnsgd1na2vs0mg"},{"bike_id":"2dd07609-0435-4017-a0ce-576c9e34e300","system_id":"levelo_inurba_marseille","lat":43.28678,"lon":5.36362,"is_reserved":false,"is_disabled":false,"rental_uris":{"android":"levelo://app?vid=2dd07609-0435-4017-a0ce-576c9e34e300","ios":"levelo://app?vid=2dd07609-0435-4017-a0ce-576c9e34e300"},"vehicle_type_id":"4","last_reported":1743221542,"current_range_meters":8400,"station_id":"ce4bhah2rcd13ifvqej0","pricing_plan_id":"cebpf4jnsgd1na2vs0mg"},{"bike_id":"eb39cc52-b853-4f7d-af9d-27e23913b64c","system_id":"levelo_inurba_marseille","lat":43.27974,"lon":5.38732,"is_reserved":false,"is_disabled":false,"rental_uris":{"android":"levelo://app?vid=eb39cc52-b853-4f7d-af9d-27e23913b64c","ios":"levelo://app?vid=eb39cc52-b853-4f7d-af9d-27e23913b64c"},"vehicle_type_id":"4","last_reported":1743221542,"current_range_meters":8400,"station_id":"ce4bhg12rcd13ifvqf80","pricing_plan_id":"cebpf4jnsgd1na2vs0mg"},{"bike_id":"87ce5af9-2c3f-4b34-8106-a0bd98c8708b","system_id":"levelo_inurba_marseille","lat":43.27995,"lon":5.40022,"is_reserved":false,"is_disabled":false,"rental_uris":{"android":"levelo://app?vid=87ce5af9-2c3f-4b34-8106-a0bd98c8708b","ios":"levelo://app?vid=87ce5af9-2c3f-4b34-8106-a0bd98c8708b"},"vehicle_type_id":"4","last_reported":1743221542,"current_range_meters":8400,"station_id":"ce4bho92rcd13ifvqh4g","pricing_plan_id":"cebpf4jnsgd1na2vs0mg"},{"bike_id":"092faada-6bf5-456d-afc5-5020968531d2","system_id":"levelo_inurba_marseille","lat":43.32365,"lon":5.38884,"is_reserved":false,"is_disabled":false,"rental_uris":{"android":"levelo://app?vid=092faada-6bf5-456d-afc5-5020968531d2","ios":"levelo://app?vid=092faada-6bf5-456d-afc5-5020968531d2"},"vehicle_type_id":"4","last_reported":1743221542,"current_range_meters":8400,"station_id":"ce4bhqp2rcd13ifvqhog","pricing_plan_id":"cebpf4jnsgd1na2vs0mg"},{"bike_id":"cbe177f9-7359-4495-b99f-8a1700a0286f","system_id":"levelo_inurba_marseille","lat":43.287275,"lon":5.360914,"is_reserved":false,"is_disabled":false,"rental_uris":{"android":"levelo://app?vid=cbe177f9-7359-4495-b99f-8a1700a0286f","ios":"levelo://app?vid=cbe177f9-7359-4495-b99f-8a1700a0286f"},"vehicle_type_id":"4","last_reported":1743221542,"current_range_meters":8400,"station_id":"cki0cbj6b192h4jlfktg","pricing_plan_id":"cebpf4jnsgd1na2vs0mg"},{"bike_id":"571e43af-e4f5-404b-9dd8-9e11760bfa4c","system_id":"levelo_inurba_marseille","lat":43.28733,"lon":5.36113,"is_reserved":false,"is_disabled":false,"rental_uris":{"android":"levelo://app?vid=571e43af-e4f5-404b-9dd8-9e11760bfa4c","ios":"levelo://app?vid=571e43af-e4f5-404b-9dd8-9e11760bfa4c"},"vehicle_type_id":"4","last_reported":1743221542,"current_range_meters":8400,"station_id":"cki0cbj6b192h4jlfktg","pricing_plan_id":"cebpf4jnsgd1na2vs0mg"},{"bike_id":"7a24a423-2986-4e0d-8a6a-b7b9c3149165","system_id":"levelo_inurba_marseille","lat":43.28907,"lon":5.42871,"is_reserved":false,"is_disabled":false,"rental_uris":{"android":"levelo://app?vid=7a24a423-2986-4e0d-8a6a-b7b9c3149165","ios":"levelo://app?vid=7a24a423-2986-4e0d-8a6a-b7b9c3149165"},"vehicle_type_id":"4","last_reported":1743221542,"current_range_meters":8800,"station_id":"","pricing_plan_id":"cebpf4jnsgd1na2vs0mg"},{"bike_id":"de69b711-10c8-44e3-b5a7-d0d7f511c5db","system_id":"levelo_inurba_marseille","lat":43.30547,"lon":5.38427,"is_reserved":false,"is_disabled":false,"rental_uris":{"android":"levelo://app?vid=de69b711-10c8-44e3-b5a7-d0d7f511c5db","ios":"levelo://app?vid=de69b711-10c8-44e3-b5a7-d0d7f511c5db"},"vehicle_type_id":"4","last_reported":1743221542,"current_range_meters":8800,"station_id":"ce4bgg92rcd13ifvqb30","pricing_plan_id":"cebpf4jnsgd1na2vs0mg"},{"bike_id":"1e399c71-356e-429c-81a2-1c9ac6ffd8e3","system_id":"levelo_inurba_marseille","lat":43.30552,"lon":5.38432,"is_reserved":false,"is_disabled":false,"rental_uris":{"android":"levelo://app?vid=1e399c71-356e-429c-81a2-1c9ac6ffd8e3","ios":"levelo://app?vid=1e399c71-356e-429c-81a2-1c9ac6ffd8e3"},"vehicle_type_id":"4","last_reported":1743221542,"current_range_meters":8800,"station_id":"ce4bgg92rcd13ifvqb30","pricing_plan_id":"cebpf4jnsgd1na2vs0mg"},{"bike_id":"47ad7ef3-58ae-45f0-9b6e-4619eae20d58","system_id":"levelo_inurba_marseille","lat":43.292515,"lon":5.409106,"is_reserved":false,"is_disabled":false,"rental_uris":{"android":"levelo://app?vid=47ad7ef3-58ae-45f0-9b6e-4619eae20d58","ios":"levelo://app?vid=47ad7ef3-58ae-45f0-9b6e-4619eae20d58"},"vehicle_type_id":"4","last_reported":1743221542,"current_range_meters":8800,"station_id":"ce4bh192rcd13ifvqdc0","pricing_plan_id":"cebpf4jnsgd1na2vs0mg"},{"bike_id":"ca9239ff-1555-45c8-bede-666791ae6f49","system_id":"levelo_inurba_marseille","lat":43.29896,"lon":5.38901,"is_reserved":false,"is_disabled":false,"rental_uris":{"android":"levelo://app?vid=ca9239ff-1555-45c8-bede-666791ae6f49","ios":"levelo://app?vid=ca9239ff-1555-45c8-bede-666791ae6f49"},"vehicle_type_id":"4","last_reported":1743221542,"current_range_meters":8800,"station_id":"ce4bh392rcd13ifvqdl0","pricing_plan_id":"cebpf4jnsgd1na2vs0mg"},{"bike_id":"c34b7d4e-dedf-42dd-b25e-d003527cd79f","system_id":"levelo_inurba_marseille","lat":43.2846,"lon":5.38441,"is_reserved":false,"is_disabled":false,"rental_uris":{"android":"levelo://app?vid=c34b7d4e-dedf-42dd-b25e-d003527cd79f","ios":"levelo://app?vid=c34b7d4e-dedf-42dd-b25e-d003527cd79f"},"vehicle_type_id":"4","last_reported":1743221542,"current_range_meters":8800,"station_id":"ce4bh512rcd13ifvqe3g","pricing_plan_id":"cebpf4jnsgd1na2vs0mg"},{"bike_id":"17d2c56a-04b7-4565-828e-4e8647a3dd59","system_id":"levelo_inurba_marseille","lat":43.23198,"lon":5.35565,"is_reserved":false,"is_disabled":false,"rental_uris":{"android":"levelo://app?vid=17d2c56a-04b7-4565-828e-4e8647a3dd59","ios":"levelo://app?vid=17d2c56a-04b7-4565-828e-4e8647a3dd59"},"vehicle_type_id":"4","last_reported":1743221542,"current_range_meters":8800,"station_id":"ce4bhu92rcd13ifvqi70","pricing_plan_id":"cebpf4jnsgd1na2vs0mg"},{"bike_id":"d5ffff0a-47db-470d-a1ce-99a37bfcd090","system_id":"levelo_inurba_marseille","lat":43.28622,"lon":5.35088,"is_reserved":false,"is_disabled":false,"rental_uris":{"android":"levelo://app?vid=d5ffff0a-47db-470d-a1ce-99a37bfcd090","ios":"levelo://app?vid=d5ffff0a-47db-470d-a1ce-99a37bfcd090"},"vehicle_type_id":"4","last_reported":1743221542,"current_range_meters":9200,"station_id":"ce4bhch2rcd13ifvqeug","pricing_plan_id":"cebpf4jnsgd1na2vs0mg"},{"bike_id":"d2be6ce3-8e79-4804-b0d3-008c875e7b9d","system_id":"levelo_inurba_marseille","lat":43.262089,"lon":5.379199,"is_reserved":false,"is_disabled":false,"rental_uris":{"android":"levelo://app?vid=d2be6ce3-8e79-4804-b0d3-008c875e7b9d","ios":"levelo://app?vid=d2be6ce3-8e79-4804-b0d3-008c875e7b9d"},"vehicle_type_id":"4","last_reported":1743221542,"current_range_meters":9200,"station_id":"ce4bhjp2rcd13ifvqg90","pricing_plan_id":"cebpf4jnsgd1na2vs0mg"},{"bike_id":"49d82921-8e45-4d36-a579-bbe4c6b4b32a","system_id":"levelo_inurba_marseille","lat":43.28717,"lon":5.39998,"is_reserved":false,"is_disabled":false,"rental_uris":{"android":"levelo://app?vid=49d82921-8e45-4d36-a579-bbe4c6b4b32a","ios":"levelo://app?vid=49d82921-8e45-4d36-a579-bbe4c6b4b32a"},"vehicle_type_id":"4","last_reported":1743221542,"current_range_meters":9200,"station_id":"ce4bho92rcd13ifvqh3g","pricing_plan_id":"cebpf4jnsgd1na2vs0mg"},{"bike_id":"bb238aab-ecce-4d51-ba90-677f93725c94","system_id":"levelo_inurba_marseille","lat":43.341491,"lon":5.409129,"is_reserved":false,"is_disabled":false,"rental_uris":{"android":"levelo://app?vid=bb238aab-ecce-4d51-ba90-677f93725c94","ios":"levelo://app?vid=bb238aab-ecce-4d51-ba90-677f93725c94"},"vehicle_type_id":"4","last_reported":1743221542,"current_range_meters":9200,"station_id":"ce4bhqh2rcd13ifvqhlg","pricing_plan_id":"cebpf4jnsgd1na2vs0mg"},{"bike_id":"af254d97-a043-44da-9e0b-050315514acc","system_id":"levelo_inurba_marseille","lat":43.235991,"lon":5.403423,"is_reserved":false,"is_disabled":false,"rental_uris":{"android":"levelo://app?vid=af254d97-a043-44da-9e0b-050315514acc","ios":"levelo://app?vid=af254d97-a043-44da-9e0b-050315514acc"},"vehicle_type_id":"4","last_reported":1743221542,"current_range_meters":9600,"station_id":"","pricing_plan_id":"cebpf4jnsgd1na2vs0mg"},{"bike_id":"d174d6ab-b837-458b-9239-eae7b56f708b","system_id":"levelo_inurba_marseille","lat":43.31244,"lon":5.36897,"is_reserved":false,"is_disabled":false,"rental_uris":{"android":"levelo://app?vid=d174d6ab-b837-458b-9239-eae7b56f708b","ios":"levelo://app?vid=d174d6ab-b837-458b-9239-eae7b56f708b"},"vehicle_type_id":"4","last_reported":1743221542,"current_range_meters":9600,"station_id":"ce4bgl92rcd13ifvqbq0","pricing_plan_id":"cebpf4jnsgd1na2vs0mg"},{"bike_id":"779df052-2e91-4c4c-b7c7-c99a5f967063","system_id":"levelo_inurba_marseille","lat":43.288541,"lon":5.393217,"is_reserved":false,"is_disabled":false,"rental_uris":{"android":"levelo://app?vid=779df052-2e91-4c4c-b7c7-c99a5f967063","ios":"levelo://app?vid=779df052-2e91-4c4c-b7c7-c99a5f967063"},"vehicle_type_id":"4","last_reported":1743221542,"current_range_meters":9600,"station_id":"ce4bh2p2rcd13ifvqdi0","pricing_plan_id":"cebpf4jnsgd1na2vs0mg"},{"bike_id":"62ec7208-1c23-48c9-a058-897ce6565ea4","system_id":"levelo_inurba_marseille","lat":43.28075,"lon":5.396561,"is_reserved":false,"is_disabled":false,"rental_uris":{"android":"levelo://app?vid=62ec7208-1c23-48c9-a058-897ce6565ea4","ios":"levelo://app?vid=62ec7208-1c23-48c9-a058-897ce6565ea4"},"vehicle_type_id":"4","last_reported":1743221542,"current_range_meters":9600,"station_id":"ce4bho12rcd13ifvqh2g","pricing_plan_id":"cebpf4jnsgd1na2vs0mg"},{"bike_id":"78879d72-d868-43c9-a743-a6ab48dd9b11","system_id":"levelo_inurba_marseille","lat":43.28729,"lon":5.3609,"is_reserved":false,"is_disabled":false,"rental_uris":{"android":"levelo://app?vid=78879d72-d868-43c9-a743-a6ab48dd9b11","ios":"levelo://app?vid=78879d72-d868-43c9-a743-a6ab48dd9b11"},"vehicle_type_id":"4","last_reported":1743221542,"current_range_meters":9600,"station_id":"cki0cbj6b192h4jlfktg","pricing_plan_id":"cebpf4jnsgd1na2vs0mg"},{"bike_id":"0d9c4684-935b-4b13-8459-955ddf0befd8","system_id":"levelo_inurba_marseille","lat":43.30243,"lon":5.40054,"is_reserved":false,"is_disabled":false,"rental_uris":{"android":"levelo://app?vid=0d9c4684-935b-4b13-8459-955ddf0befd8","ios":"levelo://app?vid=0d9c4684-935b-4b13-8459-955ddf0befd8"},"vehicle_type_id":"4","last_reported":1743221542,"current_range_meters":10000,"station_id":"ce4bgvh2rcd13ifvqcs0","pricing_plan_id":"cebpf4jnsgd1na2vs0mg"},{"bike_id":"2cd13ff0-e8ea-4b67-910d-1fd384c021d2","system_id":"levelo_inurba_marseille","lat":43.28108,"lon":5.37849,"is_reserved":false,"is_disabled":false,"rental_uris":{"android":"levelo://app?vid=2cd13ff0-e8ea-4b67-910d-1fd384c021d2","ios":"levelo://app?vid=2cd13ff0-e8ea-4b67-910d-1fd384c021d2"},"vehicle_type_id":"4","last_reported":1743221542,"current_range_meters":10000,"station_id":"ce4bha12rcd13ifvqee0","pricing_plan_id":"cebpf4jnsgd1na2vs0mg"},{"bike_id":"d110ea9c-afe8-47f1-b008-e66bc6e44a55","system_id":"levelo_inurba_marseille","lat":43.28424,"lon":5.34993,"is_reserved":false,"is_disabled":false,"rental_uris":{"android":"levelo://app?vid=d110ea9c-afe8-47f1-b008-e66bc6e44a55","ios":"levelo://app?vid=d110ea9c-afe8-47f1-b008-e66bc6e44a55"},"vehicle_type_id":"4","last_reported":1743221542,"current_range_meters":10000,"station_id":"ce4bhbh2rcd13ifvqepg","pricing_plan_id":"cebpf4jnsgd1na2vs0mg"},{"bike_id":"d14cdd1e-f0b3-48a5-be5e-77128af69a2d","system_id":"levelo_inurba_marseille","lat":43.28608,"lon":5.35132,"is_reserved":false,"is_disabled":false,"rental_uris":{"android":"levelo://app?vid=d14cdd1e-f0b3-48a5-be5e-77128af69a2d","ios":"levelo://app?vid=d14cdd1e-f0b3-48a5-be5e-77128af69a2d"},"vehicle_type_id":"4","last_reported":1743221542,"current_range_meters":10000,"station_id":"ce4bhch2rcd13ifvqeug","pricing_plan_id":"cebpf4jnsgd1na2vs0mg"},{"bike_id":"1a8ec8fe-cd0f-44f4-9a76-dfc354a60ccc","system_id":"levelo_inurba_marseille","lat":43.23961,"lon":5.36633,"is_reserved":false,"is_disabled":false,"rental_uris":{"android":"levelo://app?vid=1a8ec8fe-cd0f-44f4-9a76-dfc354a60ccc","ios":"levelo://app?vid=1a8ec8fe-cd0f-44f4-9a76-dfc354a60ccc"},"vehicle_type_id":"4","last_reported":1743221542,"current_range_meters":10000,"station_id":"ce4bhi12rcd13ifvqfp0","pricing_plan_id":"cebpf4jnsgd1na2vs0mg"},{"bike_id":"676aa410-285a-48fa-832f-41d35fee7288","system_id":"levelo_inurba_marseille","lat":43.28599,"lon":5.37083,"is_reserved":false,"is_disabled":false,"rental_uris":{"android":"levelo://app?vid=676aa410-285a-48fa-832f-41d35fee7288","ios":"levelo://app?vid=676aa410-285a-48fa-832f-41d35fee7288"},"vehicle_type_id":"4","last_reported":1743221542,"current_range_meters":10000,"station_id":"ce4bht12rcd13ifvqi60","pricing_plan_id":"cebpf4jnsgd1na2vs0mg"},{"bike_id":"983c4c9f-ee1a-4d13-8ce7-bfd36c479f46","system_id":"levelo_inurba_marseille","lat":43.24173,"lon":5.36389,"is_reserved":false,"is_disabled":false,"rental_uris":{"android":"levelo://app?vid=983c4c9f-ee1a-4d13-8ce7-bfd36c479f46","ios":"levelo://app?vid=983c4c9f-ee1a-4d13-8ce7-bfd36c479f46"},"vehicle_type_id":"4","last_reported":1743221542,"current_range_meters":10000,"station_id":"cpo36qri1sfpv3e86is0","pricing_plan_id":"cebpf4jnsgd1na2vs0mg"},{"bike_id":"b1ecd358-38ec-4753-8af1-9b87454b444a","system_id":"levelo_inurba_marseille","lat":43.28617,"lon":5.35112,"is_reserved":false,"is_disabled":false,"rental_uris":{"android":"levelo://app?vid=b1ecd358-38ec-4753-8af1-9b87454b444a","ios":"levelo://app?vid=b1ecd358-38ec-4753-8af1-9b87454b444a"},"vehicle_type_id":"4","last_reported":1743221542,"current_range_meters":10800,"station_id":"ce4bhch2rcd13ifvqeug","pricing_plan_id":"cebpf4jnsgd1na2vs0mg"},{"bike_id":"980b1b8d-c114-4f00-88f8-a0ddccb8fb71","system_id":"levelo_inurba_marseille","lat":43.28605,"lon":5.35065,"is_reserved":false,"is_disabled":false,"rental_uris":{"android":"levelo://app?vid=980b1b8d-c114-4f00-88f8-a0ddccb8fb71","ios":"levelo://app?vid=980b1b8d-c114-4f00-88f8-a0ddccb8fb71"},"vehicle_type_id":"4","last_reported":1743221542,"current_range_meters":10800,"station_id":"ce4bhch2rcd13ifvqeug","pricing_plan_id":"cebpf4jnsgd1na2vs0mg"},{"bike_id":"4d33bc5b-fded-4b79-abc4-d8ca2a4f7165","system_id":"levelo_inurba_marseille","lat":43.25728,"lon":5.4112,"is_reserved":false,"is_disabled":false,"rental_uris":{"android":"levelo://app?vid=4d33bc5b-fded-4b79-abc4-d8ca2a4f7165","ios":"levelo://app?vid=4d33bc5b-fded-4b79-abc4-d8ca2a4f7165"},"vehicle_type_id":"4","last_reported":1743221542,"current_range_meters":10800,"station_id":"ce4bhkp2rcd13ifvqgd0","pricing_plan_id":"cebpf4jnsgd1na2vs0mg"},{"bike_id":"8b6540df-f0de-4fe4-a1a8-c73d8d908f05","system_id":"levelo_inurba_marseille","lat":43.3236,"lon":5.38885,"is_reserved":false,"is_disabled":false,"rental_uris":{"android":"levelo://app?vid=8b6540df-f0de-4fe4-a1a8-c73d8d908f05","ios":"levelo://app?vid=8b6540df-f0de-4fe4-a1a8-c73d8d908f05"},"vehicle_type_id":"4","last_reported":1743221542,"current_range_meters":10800,"station_id":"ce4bhqp2rcd13ifvqhog","pricing_plan_id":"cebpf4jnsgd1na2vs0mg"},{"bike_id":"96fa1290-e699-40b9-9109-379d3b77c6fb","system_id":"levelo_inurba_marseille","lat":43.337329,"lon":5.391902,"is_reserved":false,"is_disabled":false,"rental_uris":{"android":"levelo://app?vid=96fa1290-e699-40b9-9109-379d3b77c6fb","ios":"levelo://app?vid=96fa1290-e699-40b9-9109-379d3b77c6fb"},"vehicle_type_id":"4","last_reported":1743221542,"current_range_meters":10800,"station_id":"ce4bhr92rcd13ifvqhsg","pricing_plan_id":"cebpf4jnsgd1na2vs0mg"},{"bike_id":"3a2e35ff-67f7-42a4-b09b-1fe3ef6e95d8","system_id":"levelo_inurba_marseille","lat":43.2293,"lon":5.35396,"is_reserved":false,"is_disabled":false,"rental_uris":{"android":"levelo://app?vid=3a2e35ff-67f7-42a4-b09b-1fe3ef6e95d8","ios":"levelo://app?vid=3a2e35ff-67f7-42a4-b09b-1fe3ef6e95d8"},"vehicle_type_id":"4","last_reported":1743221542,"current_range_meters":10800,"station_id":"cpo3532slgdg3j2ikp40","pricing_plan_id":"cebpf4jnsgd1na2vs0mg"},{"bike_id":"ad095ff6-2192-4acf-9d3b-75082cfc78be","system_id":"levelo_inurba_marseille","lat":43.292545,"lon":5.377308,"is_reserved":false,"is_disabled":false,"rental_uris":{"android":"levelo://app?vid=ad095ff6-2192-4acf-9d3b-75082cfc78be","ios":"levelo://app?vid=ad095ff6-2192-4acf-9d3b-75082cfc78be"},"vehicle_type_id":"4","last_reported":1743221542,"current_range_meters":11200,"station_id":"","pricing_plan_id":"cebpf4jnsgd1na2vs0mg"},{"bike_id":"a9514da0-9b96-41a0-93b8-9bfdb43fee23","system_id":"levelo_inurba_marseille","lat":43.313645,"lon":5.384891,"is_reserved":false,"is_disabled":false,"rental_uris":{"android":"levelo://app?vid=a9514da0-9b96-41a0-93b8-9bfdb43fee23","ios":"levelo://app?vid=a9514da0-9b96-41a0-93b8-9bfdb43fee23"},"vehicle_type_id":"4","last_reported":1743221542,"current_range_meters":11200,"station_id":"ce4bgt92rcd13ifvqcf0","pricing_plan_id":"cebpf4jnsgd1na2vs0mg"},{"bike_id":"9e5fa43f-5df4-463b-a6f7-56802c1b39d6","system_id":"levelo_inurba_marseille","lat":43.28849,"lon":5.39326,"is_reserved":false,"is_disabled":false,"rental_uris":{"android":"levelo://app?vid=9e5fa43f-5df4-463b-a6f7-56802c1b39d6","ios":"levelo://app?vid=9e5fa43f-5df4-463b-a6f7-56802c1b39d6"},"vehicle_type_id":"4","last_reported":1743221542,"current_range_meters":11200,"station_id":"ce4bh2p2rcd13ifvqdi0","pricing_plan_id":"cebpf4jnsgd1na2vs0mg"},{"bike_id":"258cd958-e46f-4e56-879b-fac508681c9b","system_id":"levelo_inurba_marseille","lat":43.28955,"lon":5.36393,"is_reserved":false,"is_disabled":false,"rental_uris":{"android":"levelo://app?vid=258cd958-e46f-4e56-879b-fac508681c9b","ios":"levelo://app?vid=258cd958-e46f-4e56-879b-fac508681c9b"},"vehicle_type_id":"4","last_reported":1743221542,"current_range_meters":11200,"station_id":"ce4bhc92rcd13ifvqetg","pricing_plan_id":"cebpf4jnsgd1na2vs0mg"},{"bike_id":"161d8420-1bd4-4c54-8885-cf257d3ec950","system_id":"levelo_inurba_marseille","lat":43.24984,"lon":5.38942,"is_reserved":false,"is_disabled":false,"rental_uris":{"android":"levelo://app?vid=161d8420-1bd4-4c54-8885-cf257d3ec950","ios":"levelo://app?vid=161d8420-1bd4-4c54-8885-cf257d3ec950"},"vehicle_type_id":"4","last_reported":1743221542,"current_range_meters":11200,"station_id":"ce4bhgp2rcd13ifvqfd0","pricing_plan_id":"cebpf4jnsgd1na2vs0mg"},{"bike_id":"bc13ce4b-80c3-434c-be50-109c6ccb0031","system_id":"levelo_inurba_marseille","lat":43.29257,"lon":5.40932,"is_reserved":false,"is_disabled":false,"rental_uris":{"android":"levelo://app?vid=bc13ce4b-80c3-434c-be50-109c6ccb0031","ios":"levelo://app?vid=bc13ce4b-80c3-434c-be50-109c6ccb0031"},"vehicle_type_id":"4","last_reported":1743221542,"current_range_meters":11600,"station_id":"ce4bh192rcd13ifvqdc0","pricing_plan_id":"cebpf4jnsgd1na2vs0mg"},{"bike_id":"4586e23a-2d77-446c-8e8c-a15b6ae5de02","system_id":"levelo_inurba_marseille","lat":43.28606,"lon":5.3813,"is_reserved":false,"is_disabled":false,"rental_uris":{"android":"levelo://app?vid=4586e23a-2d77-446c-8e8c-a15b6ae5de02","ios":"levelo://app?vid=4586e23a-2d77-446c-8e8c-a15b6ae5de02"},"vehicle_type_id":"4","last_reported":1743221542,"current_range_meters":12000,"station_id":"","pricing_plan_id":"cebpf4jnsgd1na2vs0mg"},{"bike_id":"b590f89d-8143-4d33-b2c8-aec684e9f18f","system_id":"levelo_inurba_marseille","lat":43.30316,"lon":5.4045,"is_reserved":false,"is_disabled":false,"rental_uris":{"android":"levelo://app?vid=b590f89d-8143-4d33-b2c8-aec684e9f18f","ios":"levelo://app?vid=b590f89d-8143-4d33-b2c8-aec684e9f18f"},"vehicle_type_id":"4","last_reported":1743221542,"current_range_meters":12000,"station_id":"ce4bh012rcd13ifvqd10","pricing_plan_id":"cebpf4jnsgd1na2vs0mg"},{"bike_id":"f9de63e8-e5f0-486f-88e4-96470d4381e2","system_id":"levelo_inurba_marseille","lat":43.29278,"lon":5.40171,"is_reserved":false,"is_disabled":false,"rental_uris":{"android":"levelo://app?vid=f9de63e8-e5f0-486f-88e4-96470d4381e2","ios":"levelo://app?vid=f9de63e8-e5f0-486f-88e4-96470d4381e2"},"vehicle_type_id":"4","last_reported":1743221542,"current_range_meters":12000,"station_id":"ce4bh312rcd13ifvqdk0","pricing_plan_id":"cebpf4jnsgd1na2vs0mg"},{"bike_id":"dd675bb2-a081-4011-89b2-4cc48d567f8c","system_id":"levelo_inurba_marseille","lat":43.28359,"lon":5.38107,"is_reserved":false,"is_disabled":false,"rental_uris":{"android":"levelo://app?vid=dd675bb2-a081-4011-89b2-4cc48d567f8c","ios":"levelo://app?vid=dd675bb2-a081-4011-89b2-4cc48d567f8c"},"vehicle_type_id":"4","last_reported":1743221542,"current_range_meters":12000,"station_id":"ce4bh412rcd13ifvqdr0","pricing_plan_id":"cebpf4jnsgd1na2vs0mg"},{"bike_id":"d82c4c77-dd71-4aee-b863-66f4ff3733a4","system_id":"levelo_inurba_marseille","lat":43.24715,"lon":5.38212,"is_reserved":false,"is_disabled":false,"rental_uris":{"android":"levelo://app?vid=d82c4c77-dd71-4aee-b863-66f4ff3733a4","ios":"levelo://app?vid=d82c4c77-dd71-4aee-b863-66f4ff3733a4"},"vehicle_type_id":"4","last_reported":1743221542,"current_range_meters":12000,"station_id":"ce4bhih2rcd13ifvqfr0","pricing_plan_id":"cebpf4jnsgd1na2vs0mg"},{"bike_id":"3d6f77a5-38af-4abc-b9f0-4b0dedd9675c","system_id":"levelo_inurba_marseille","lat":43.24896,"lon":5.39418,"is_reserved":false,"is_disabled":false,"rental_uris":{"android":"levelo://app?vid=3d6f77a5-38af-4abc-b9f0-4b0dedd9675c","ios":"levelo://app?vid=3d6f77a5-38af-4abc-b9f0-4b0dedd9675c"},"vehicle_type_id":"4","last_reported":1743221542,"current_range_meters":12400,"station_id":"","pricing_plan_id":"cebpf4jnsgd1na2vs0mg"},{"bike_id":"2acfa73f-a641-41f1-89a3-4a76bd75321b","system_id":"levelo_inurba_marseille","lat":43.30268,"lon":5.40066,"is_reserved":false,"is_disabled":false,"rental_uris":{"android":"levelo://app?vid=2acfa73f-a641-41f1-89a3-4a76bd75321b","ios":"levelo://app?vid=2acfa73f-a641-41f1-89a3-4a76bd75321b"},"vehicle_type_id":"4","last_reported":1743221542,"current_range_meters":12400,"station_id":"ce4bgvh2rcd13ifvqcs0","pricing_plan_id":"cebpf4jnsgd1na2vs0mg"},{"bike_id":"c573c046-f36a-4bd3-af73-5fc85d05e776","system_id":"levelo_inurba_marseille","lat":43.28461,"lon":5.35912,"is_reserved":false,"is_disabled":false,"rental_uris":{"android":"levelo://app?vid=c573c046-f36a-4bd3-af73-5fc85d05e776","ios":"levelo://app?vid=c573c046-f36a-4bd3-af73-5fc85d05e776"},"vehicle_type_id":"4","last_reported":1743221542,"current_range_meters":12400,"station_id":"ce4bhah2rcd13ifvqei0","pricing_plan_id":"cebpf4jnsgd1na2vs0mg"},{"bike_id":"18a7459a-9de6-4413-bb5e-bd445e06b1f8","system_id":"levelo_inurba_marseille","lat":43.291923,"lon":5.357999,"is_reserved":false,"is_disabled":false,"rental_uris":{"android":"levelo://app?vid=18a7459a-9de6-4413-bb5e-bd445e06b1f8","ios":"levelo://app?vid=18a7459a-9de6-4413-bb5e-bd445e06b1f8"},"vehicle_type_id":"4","last_reported":1743221542,"current_range_meters":12400,"station_id":"ce4bhb12rcd13ifvqel0","pricing_plan_id":"cebpf4jnsgd1na2vs0mg"},{"bike_id":"641885b6-01f6-4f7c-968c-d865dd0636d6","system_id":"levelo_inurba_marseille","lat":43.24812,"lon":5.37452,"is_reserved":false,"is_disabled":false,"rental_uris":{"android":"levelo://app?vid=641885b6-01f6-4f7c-968c-d865dd0636d6","ios":"levelo://app?vid=641885b6-01f6-4f7c-968c-d865dd0636d6"},"vehicle_type_id":"4","last_reported":1743221542,"current_range_meters":12400,"station_id":"ce4bhgh2rcd13ifvqfb0","pricing_plan_id":"cebpf4jnsgd1na2vs0mg"},{"bike_id":"6938d0ce-f954-4fff-b95b-2d698d38a5d7","system_id":"levelo_inurba_marseille","lat":43.27923,"lon":5.41044,"is_reserved":false,"is_disabled":false,"rental_uris":{"android":"levelo://app?vid=6938d0ce-f954-4fff-b95b-2d698d38a5d7","ios":"levelo://app?vid=6938d0ce-f954-4fff-b95b-2d698d38a5d7"},"vehicle_type_id":"4","last_reported":1743221542,"current_range_meters":12400,"station_id":"ce4bhnp2rcd13ifvqh0g","pricing_plan_id":"cebpf4jnsgd1na2vs0mg"},{"bike_id":"6923d6a9-7a78-46cf-a22b-73ed15f379bc","system_id":"levelo_inurba_marseille","lat":43.28079,"lon":5.39688,"is_reserved":false,"is_disabled":false,"rental_uris":{"android":"levelo://app?vid=6923d6a9-7a78-46cf-a22b-73ed15f379bc","ios":"levelo://app?vid=6923d6a9-7a78-46cf-a22b-73ed15f379bc"},"vehicle_type_id":"4","last_reported":1743221542,"current_range_meters":12400,"station_id":"ce4bho12rcd13ifvqh2g","pricing_plan_id":"cebpf4jnsgd1na2vs0mg"},{"bike_id":"9f2583cf-461d-4d57-8c37-99ef1e89cade","system_id":"levelo_inurba_marseille","lat":43.23193,"lon":5.35541,"is_reserved":false,"is_disabled":false,"rental_uris":{"android":"levelo://app?vid=9f2583cf-461d-4d57-8c37-99ef1e89cade","ios":"levelo://app?vid=9f2583cf-461d-4d57-8c37-99ef1e89cade"},"vehicle_type_id":"4","last_reported":1743221542,"current_range_meters":12400,"station_id":"ce4bhu92rcd13ifvqi70","pricing_plan_id":"cebpf4jnsgd1na2vs0mg"},{"bike_id":"96ac20e8-5840-4579-b371-184ec6253952","system_id":"levelo_inurba_marseille","lat":43.27499,"lon":5.411444,"is_reserved":false,"is_disabled":false,"rental_uris":{"android":"levelo://app?vid=96ac20e8-5840-4579-b371-184ec6253952","ios":"levelo://app?vid=96ac20e8-5840-4579-b371-184ec6253952"},"vehicle_type_id":"4","last_reported":1743221542,"current_range_meters":12800,"station_id":"","pricing_plan_id":"cebpf4jnsgd1na2vs0mg"},{"bike_id":"7fdcd55f-1c78-4ded-99ed-725169c92149","system_id":"levelo_inurba_marseille","lat":43.27384,"lon":5.3828,"is_reserved":false,"is_disabled":false,"rental_uris":{"android":"levelo://app?vid=7fdcd55f-1c78-4ded-99ed-725169c92149","ios":"levelo://app?vid=7fdcd55f-1c78-4ded-99ed-725169c92149"},"vehicle_type_id":"4","last_reported":1743221542,"current_range_meters":12800,"station_id":"","pricing_plan_id":"cebpf4jnsgd1na2vs0mg"},{"bike_id":"d3ecc912-dd45-41e9-9931-0b8cba10b689","system_id":"levelo_inurba_marseille","lat":43.279078,"lon":5.395928,"is_reserved":false,"is_disabled":false,"rental_uris":{"android":"levelo://app?vid=d3ecc912-dd45-41e9-9931-0b8cba10b689","ios":"levelo://app?vid=d3ecc912-dd45-41e9-9931-0b8cba10b689"},"vehicle_type_id":"4","last_reported":1743221542,"current_range_meters":12800,"station_id":"ce4bhf92rcd13ifvqf40","pricing_plan_id":"cebpf4jnsgd1na2vs0mg"},{"bike_id":"11da41dd-4c10-4616-aa51-cbff19929686","system_id":"levelo_inurba_marseille","lat":43.312315,"lon":5.368545,"is_reserved":false,"is_disabled":false,"rental_uris":{"android":"levelo://app?vid=11da41dd-4c10-4616-aa51-cbff19929686","ios":"levelo://app?vid=11da41dd-4c10-4616-aa51-cbff19929686"},"vehicle_type_id":"4","last_reported":1743221542,"current_range_meters":13600,"station_id":"","pricing_plan_id":"cebpf4jnsgd1na2vs0mg"},{"bike_id":"acf1e1c3-a629-4c7b-a838-cba3f3b54603","system_id":"levelo_inurba_marseille","lat":43.31856,"lon":5.37641,"is_reserved":false,"is_disabled":false,"rental_uris":{"android":"levelo://app?vid=acf1e1c3-a629-4c7b-a838-cba3f3b54603","ios":"levelo://app?vid=acf1e1c3-a629-4c7b-a838-cba3f3b54603"},"vehicle_type_id":"4","last_reported":1743221542,"current_range_meters":13600,"station_id":"","pricing_plan_id":"cebpf4jnsgd1na2vs0mg"},{"bike_id":"a87a4f3d-aefc-4b8f-a7df-bf0a94f9093e","system_id":"levelo_inurba_marseille","lat":43.28351,"lon":5.38106,"is_reserved":false,"is_disabled":false,"rental_uris":{"android":"levelo://app?vid=a87a4f3d-aefc-4b8f-a7df-bf0a94f9093e","ios":"levelo://app?vid=a87a4f3d-aefc-4b8f-a7df-bf0a94f9093e"},"vehicle_type_id":"4","last_reported":1743221542,"current_range_meters":13600,"station_id":"ce4bh412rcd13ifvqdr0","pricing_plan_id":"cebpf4jnsgd1na2vs0mg"},{"bike_id":"fbcf3d94-57c6-42fa-b3a1-9492f2c69319","system_id":"levelo_inurba_marseille","lat":43.28851,"lon":5.35876,"is_reserved":false,"is_disabled":false,"rental_uris":{"android":"levelo://app?vid=fbcf3d94-57c6-42fa-b3a1-9492f2c69319","ios":"levelo://app?vid=fbcf3d94-57c6-42fa-b3a1-9492f2c69319"},"vehicle_type_id":"4","last_reported":1743221542,"current_range_meters":13600,"station_id":"ce4bhb12rcd13ifvqem0","pricing_plan_id":"cebpf4jnsgd1na2vs0mg"},{"bike_id":"305331cb-357f-4edf-9298-1db4902c1df4","system_id":"levelo_inurba_marseille","lat":43.29212,"lon":5.39357,"is_reserved":false,"is_disabled":false,"rental_uris":{"android":"levelo://app?vid=305331cb-357f-4edf-9298-1db4902c1df4","ios":"levelo://app?vid=305331cb-357f-4edf-9298-1db4902c1df4"},"vehicle_type_id":"4","last_reported":1743221542,"current_range_meters":14000,"station_id":"ce4bh192rcd13ifvqdd0","pricing_plan_id":"cebpf4jnsgd1na2vs0mg"},{"bike_id":"6b4cfcd1-08df-48e0-9d17-53a80535687a","system_id":"levelo_inurba_marseille","lat":43.281,"lon":5.37832,"is_reserved":false,"is_disabled":false,"rental_uris":{"android":"levelo://app?vid=6b4cfcd1-08df-48e0-9d17-53a80535687a","ios":"levelo://app?vid=6b4cfcd1-08df-48e0-9d17-53a80535687a"},"vehicle_type_id":"4","last_reported":1743221542,"current_range_meters":14000,"station_id":"ce4bha12rcd13ifvqee0","pricing_plan_id":"cebpf4jnsgd1na2vs0mg"},{"bike_id":"699cb6a9-80bb-4d7b-8f84-b25847471872","system_id":"levelo_inurba_marseille","lat":43.289435,"lon":5.364091,"is_reserved":false,"is_disabled":false,"rental_uris":{"android":"levelo://app?vid=699cb6a9-80bb-4d7b-8f84-b25847471872","ios":"levelo://app?vid=699cb6a9-80bb-4d7b-8f84-b25847471872"},"vehicle_type_id":"4","last_reported":1743221542,"current_range_meters":14000,"station_id":"ce4bhc92rcd13ifvqetg","pricing_plan_id":"cebpf4jnsgd1na2vs0mg"},{"bike_id":"d42b0697-0001-445f-a5ab-e97cd50bb993","system_id":"levelo_inurba_marseille","lat":43.24795,"lon":5.37487,"is_reserved":false,"is_disabled":false,"rental_uris":{"android":"levelo://app?vid=d42b0697-0001-445f-a5ab-e97cd50bb993","ios":"levelo://app?vid=d42b0697-0001-445f-a5ab-e97cd50bb993"},"vehicle_type_id":"4","last_reported":1743221542,"current_range_meters":14000,"station_id":"ce4bhgh2rcd13ifvqfb0","pricing_plan_id":"cebpf4jnsgd1na2vs0mg"},{"bike_id":"7f9e733c-fa89-49ab-8010-8acb21ac5585","system_id":"levelo_inurba_marseille","lat":43.23153,"lon":5.43725,"is_reserved":false,"is_disabled":false,"rental_uris":{"android":"levelo://app?vid=7f9e733c-fa89-49ab-8010-8acb21ac5585","ios":"levelo://app?vid=7f9e733c-fa89-49ab-8010-8acb21ac5585"},"vehicle_type_id":"4","last_reported":1743221542,"current_range_meters":14000,"station_id":"ce4bhmp2rcd13ifvqgog","pricing_plan_id":"cebpf4jnsgd1na2vs0mg"},{"bike_id":"43e30df2-3ea2-4192-ac27-17ac9e6bf6ec","system_id":"levelo_inurba_marseille","lat":43.323715,"lon":5.388609,"is_reserved":false,"is_disabled":false,"rental_uris":{"android":"levelo://app?vid=43e30df2-3ea2-4192-ac27-17ac9e6bf6ec","ios":"levelo://app?vid=43e30df2-3ea2-4192-ac27-17ac9e6bf6ec"},"vehicle_type_id":"4","last_reported":1743221542,"current_range_meters":14000,"station_id":"ce4bhqp2rcd13ifvqhog","pricing_plan_id":"cebpf4jnsgd1na2vs0mg"},{"bike_id":"f7702038-5b05-4ea4-b3dd-53d00e3ca8f0","system_id":"levelo_inurba_marseille","lat":43.235858,"lon":5.403488,"is_reserved":false,"is_disabled":false,"rental_uris":{"android":"levelo://app?vid=f7702038-5b05-4ea4-b3dd-53d00e3ca8f0","ios":"levelo://app?vid=f7702038-5b05-4ea4-b3dd-53d00e3ca8f0"},"vehicle_type_id":"4","last_reported":1743221542,"current_range_meters":14400,"station_id":"","pricing_plan_id":"cebpf4jnsgd1na2vs0mg"},{"bike_id":"3f2bcfca-c616-4059-a95b-b1ee7948eb41","system_id":"levelo_inurba_marseille","lat":43.298782,"lon":5.397372,"is_reserved":false,"is_disabled":false,"rental_uris":{"android":"levelo://app?vid=3f2bcfca-c616-4059-a95b-b1ee7948eb41","ios":"levelo://app?vid=3f2bcfca-c616-4059-a95b-b1ee7948eb41"},"vehicle_type_id":"4","last_reported":1743221542,"current_range_meters":14400,"station_id":"ce4bh0h2rcd13ifvqd50","pricing_plan_id":"cebpf4jnsgd1na2vs0mg"},{"bike_id":"abd3241e-325c-4afb-bdb7-08c1b88e1658","system_id":"levelo_inurba_marseille","lat":43.28856,"lon":5.35898,"is_reserved":false,"is_disabled":false,"rental_uris":{"android":"levelo://app?vid=abd3241e-325c-4afb-bdb7-08c1b88e1658","ios":"levelo://app?vid=abd3241e-325c-4afb-bdb7-08c1b88e1658"},"vehicle_type_id":"4","last_reported":1743221542,"current_range_meters":14400,"station_id":"ce4bhb12rcd13ifvqem0","pricing_plan_id":"cebpf4jnsgd1na2vs0mg"},{"bike_id":"25bb5fbc-8229-4010-b703-31f5ee6ac141","system_id":"levelo_inurba_marseille","lat":43.306079,"lon":5.365772,"is_reserved":false,"is_disabled":false,"rental_uris":{"android":"levelo://app?vid=25bb5fbc-8229-4010-b703-31f5ee6ac141","ios":"levelo://app?vid=25bb5fbc-8229-4010-b703-31f5ee6ac141"},"vehicle_type_id":"4","last_reported":1743221542,"current_range_meters":14800,"station_id":"","pricing_plan_id":"cebpf4jnsgd1na2vs0mg"},{"bike_id":"12240523-da62-4476-97ff-2c3e5dcabff3","system_id":"levelo_inurba_marseille","lat":43.31118,"lon":5.37765,"is_reserved":false,"is_disabled":false,"rental_uris":{"android":"levelo://app?vid=12240523-da62-4476-97ff-2c3e5dcabff3","ios":"levelo://app?vid=12240523-da62-4476-97ff-2c3e5dcabff3"},"vehicle_type_id":"4","last_reported":1743221542,"current_range_meters":14800,"station_id":"ce4bgt92rcd13ifvqcg0","pricing_plan_id":"cebpf4jnsgd1na2vs0mg"},{"bike_id":"dde8d8bd-fe2f-4aaf-9640-d99ddd8e2d34","system_id":"levelo_inurba_marseille","lat":43.28106,"lon":5.37848,"is_reserved":false,"is_disabled":false,"rental_uris":{"android":"levelo://app?vid=dde8d8bd-fe2f-4aaf-9640-d99ddd8e2d34","ios":"levelo://app?vid=dde8d8bd-fe2f-4aaf-9640-d99ddd8e2d34"},"vehicle_type_id":"4","last_reported":1743221542,"current_range_meters":14800,"station_id":"ce4bha12rcd13ifvqee0","pricing_plan_id":"cebpf4jnsgd1na2vs0mg"},{"bike_id":"0509fd5a-cd70-40f1-b26e-3f3e3192484f","system_id":"levelo_inurba_marseille","lat":43.28947,"lon":5.36395,"is_reserved":false,"is_disabled":false,"rental_uris":{"android":"levelo://app?vid=0509fd5a-cd70-40f1-b26e-3f3e3192484f","ios":"levelo://app?vid=0509fd5a-cd70-40f1-b26e-3f3e3192484f"},"vehicle_type_id":"4","last_reported":1743221542,"current_range_meters":14800,"station_id":"ce4bhc92rcd13ifvqetg","pricing_plan_id":"cebpf4jnsgd1na2vs0mg"},{"bike_id":"2509a5ab-f054-473a-ab79-d4f7660e6b59","system_id":"levelo_inurba_marseille","lat":43.30364,"lon":5.42517,"is_reserved":false,"is_disabled":false,"rental_uris":{"android":"levelo://app?vid=2509a5ab-f054-473a-ab79-d4f7660e6b59","ios":"levelo://app?vid=2509a5ab-f054-473a-ab79-d4f7660e6b59"},"vehicle_type_id":"4","last_reported":1743221542,"current_range_meters":14800,"station_id":"ce4bhoh2rcd13ifvqh6g","pricing_plan_id":"cebpf4jnsgd1na2vs0mg"},{"bike_id":"906b540e-e920-417f-92b5-0ef35349f644","system_id":"levelo_inurba_marseille","lat":43.31529,"lon":5.39711,"is_reserved":false,"is_disabled":false,"rental_uris":{"android":"levelo://app?vid=906b540e-e920-417f-92b5-0ef35349f644","ios":"levelo://app?vid=906b540e-e920-417f-92b5-0ef35349f644"},"vehicle_type_id":"4","last_reported":1743221542,"current_range_meters":15200,"station_id":"","pricing_plan_id":"cebpf4jnsgd1na2vs0mg"},{"bike_id":"4e7a2723-44eb-4736-9b9c-c9ef593428c7","system_id":"levelo_inurba_marseille","lat":43.30251,"lon":5.40082,"is_reserved":false,"is_disabled":false,"rental_uris":{"android":"levelo://app?vid=4e7a2723-44eb-4736-9b9c-c9ef593428c7","ios":"levelo://app?vid=4e7a2723-44eb-4736-9b9c-c9ef593428c7"},"vehicle_type_id":"4","last_reported":1743221542,"current_range_meters":15200,"station_id":"ce4bgvh2rcd13ifvqcs0","pricing_plan_id":"cebpf4jnsgd1na2vs0mg"},{"bike_id":"55c46d49-9363-40b2-8dbf-638f8433b356","system_id":"levelo_inurba_marseille","lat":43.248156,"lon":5.37449,"is_reserved":false,"is_disabled":false,"rental_uris":{"android":"levelo://app?vid=55c46d49-9363-40b2-8dbf-638f8433b356","ios":"levelo://app?vid=55c46d49-9363-40b2-8dbf-638f8433b356"},"vehicle_type_id":"4","last_reported":1743221542,"current_range_meters":15200,"station_id":"ce4bhgh2rcd13ifvqfb0","pricing_plan_id":"cebpf4jnsgd1na2vs0mg"},{"bike_id":"9f50066e-01fa-4519-9f61-8109fe65f5d9","system_id":"levelo_inurba_marseille","lat":43.28605,"lon":5.3707,"is_reserved":false,"is_disabled":false,"rental_uris":{"android":"levelo://app?vid=9f50066e-01fa-4519-9f61-8109fe65f5d9","ios":"levelo://app?vid=9f50066e-01fa-4519-9f61-8109fe65f5d9"},"vehicle_type_id":"4","last_reported":1743221542,"current_range_meters":15200,"station_id":"ce4bht12rcd13ifvqi60","pricing_plan_id":"cebpf4jnsgd1na2vs0mg"},{"bike_id":"1acda585-d447-4281-a8db-c2526c493d59","system_id":"levelo_inurba_marseille","lat":43.31359,"lon":5.38508,"is_reserved":false,"is_disabled":false,"rental_uris":{"android":"levelo://app?vid=1acda585-d447-4281-a8db-c2526c493d59","ios":"levelo://app?vid=1acda585-d447-4281-a8db-c2526c493d59"},"vehicle_type_id":"4","last_reported":1743221542,"current_range_meters":16000,"station_id":"ce4bgt92rcd13ifvqcf0","pricing_plan_id":"cebpf4jnsgd1na2vs0mg"},{"bike_id":"4da9df19-93d6-49a8-aff9-f018a44c4b7c","system_id":"levelo_inurba_marseille","lat":43.30256,"lon":5.40077,"is_reserved":false,"is_disabled":false,"rental_uris":{"android":"levelo://app?vid=4da9df19-93d6-49a8-aff9-f018a44c4b7c","ios":"levelo://app?vid=4da9df19-93d6-49a8-aff9-f018a44c4b7c"},"vehicle_type_id":"4","last_reported":1743221542,"current_range_meters":16000,"station_id":"ce4bgvh2rcd13ifvqcs0","pricing_plan_id":"cebpf4jnsgd1na2vs0mg"},{"bike_id":"5a53d0ae-485c-4888-8827-1e6d992be149","system_id":"levelo_inurba_marseille","lat":43.30652,"lon":5.40081,"is_reserved":false,"is_disabled":false,"rental_uris":{"android":"levelo://app?vid=5a53d0ae-485c-4888-8827-1e6d992be149","ios":"levelo://app?vid=5a53d0ae-485c-4888-8827-1e6d992be149"},"vehicle_type_id":"4","last_reported":1743221542,"current_range_meters":16000,"station_id":"ce4bh112rcd13ifvqda0","pricing_plan_id":"cebpf4jnsgd1na2vs0mg"},{"bike_id":"33befbb3-fc41-4dc7-8009-b485eeca5c8a","system_id":"levelo_inurba_marseille","lat":43.29579,"lon":5.39965,"is_reserved":false,"is_disabled":false,"rental_uris":{"android":"levelo://app?vid=33befbb3-fc41-4dc7-8009-b485eeca5c8a","ios":"levelo://app?vid=33befbb3-fc41-4dc7-8009-b485eeca5c8a"},"vehicle_type_id":"4","last_reported":1743221542,"current_range_meters":16000,"station_id":"ce4bh312rcd13ifvqdj0","pricing_plan_id":"cebpf4jnsgd1na2vs0mg"},{"bike_id":"653ea6de-a177-4007-9cfa-5f3f77e975f6","system_id":"levelo_inurba_marseille","lat":43.24803,"lon":5.37487,"is_reserved":false,"is_disabled":false,"rental_uris":{"android":"levelo://app?vid=653ea6de-a177-4007-9cfa-5f3f77e975f6","ios":"levelo://app?vid=653ea6de-a177-4007-9cfa-5f3f77e975f6"},"vehicle_type_id":"4","last_reported":1743221542,"current_range_meters":16000,"station_id":"ce4bhgh2rcd13ifvqfb0","pricing_plan_id":"cebpf4jnsgd1na2vs0mg"},{"bike_id":"939fef5b-bbd4-4de2-b4fc-b103e449f9b5","system_id":"levelo_inurba_marseille","lat":43.25388,"lon":5.41854,"is_reserved":false,"is_disabled":false,"rental_uris":{"android":"levelo://app?vid=939fef5b-bbd4-4de2-b4fc-b103e449f9b5","ios":"levelo://app?vid=939fef5b-bbd4-4de2-b4fc-b103e449f9b5"},"vehicle_type_id":"4","last_reported":1743221542,"current_range_meters":16400,"station_id":"","pricing_plan_id":"cebpf4jnsgd1na2vs0mg"},{"bike_id":"161e8476-bc12-45df-a03e-58d6efea0c8e","system_id":"levelo_inurba_marseille","lat":43.30471,"lon":5.379,"is_reserved":false,"is_disabled":false,"rental_uris":{"android":"levelo://app?vid=161e8476-bc12-45df-a03e-58d6efea0c8e","ios":"levelo://app?vid=161e8476-bc12-45df-a03e-58d6efea0c8e"},"vehicle_type_id":"4","last_reported":1743221542,"current_range_meters":16400,"station_id":"ce4bgup2rcd13ifvqcn0","pricing_plan_id":"cebpf4jnsgd1na2vs0mg"},{"bike_id":"2eb3277d-f745-4182-b2e6-edda04e512c4","system_id":"levelo_inurba_marseille","lat":43.2927,"lon":5.4095,"is_reserved":false,"is_disabled":false,"rental_uris":{"android":"levelo://app?vid=2eb3277d-f745-4182-b2e6-edda04e512c4","ios":"levelo://app?vid=2eb3277d-f745-4182-b2e6-edda04e512c4"},"vehicle_type_id":"4","last_reported":1743221542,"current_range_meters":16400,"station_id":"ce4bh192rcd13ifvqdc0","pricing_plan_id":"cebpf4jnsgd1na2vs0mg"},{"bike_id":"63666357-7235-4981-bbcc-deef1233350a","system_id":"levelo_inurba_marseille","lat":43.265582,"lon":5.39004,"is_reserved":false,"is_disabled":false,"rental_uris":{"android":"levelo://app?vid=63666357-7235-4981-bbcc-deef1233350a","ios":"levelo://app?vid=63666357-7235-4981-bbcc-deef1233350a"},"vehicle_type_id":"4","last_reported":1743221542,"current_range_meters":16400,"station_id":"ce4bhe12rcd13ifvqf30","pricing_plan_id":"cebpf4jnsgd1na2vs0mg"},{"bike_id":"6f1cabef-c2f0-42e6-98ee-463597090745","system_id":"levelo_inurba_marseille","lat":43.279443,"lon":5.410457,"is_reserved":false,"is_disabled":false,"rental_uris":{"android":"levelo://app?vid=6f1cabef-c2f0-42e6-98ee-463597090745","ios":"levelo://app?vid=6f1cabef-c2f0-42e6-98ee-463597090745"},"vehicle_type_id":"4","last_reported":1743221542,"current_range_meters":16400,"station_id":"ce4bhnp2rcd13ifvqh0g","pricing_plan_id":"cebpf4jnsgd1na2vs0mg"},{"bike_id":"1194d893-debc-41d7-b347-816267570776","system_id":"levelo_inurba_marseille","lat":43.337395,"lon":5.391949,"is_reserved":false,"is_disabled":false,"rental_uris":{"android":"levelo://app?vid=1194d893-debc-41d7-b347-816267570776","ios":"levelo://app?vid=1194d893-debc-41d7-b347-816267570776"},"vehicle_type_id":"4","last_reported":1743221542,"current_range_meters":16400,"station_id":"ce4bhr92rcd13ifvqhsg","pricing_plan_id":"cebpf4jnsgd1na2vs0mg"},{"bike_id":"5a92a956-d3a6-4e4d-8122-e43495629b3b","system_id":"levelo_inurba_marseille","lat":43.337263,"lon":5.391798,"is_reserved":false,"is_disabled":false,"rental_uris":{"android":"levelo://app?vid=5a92a956-d3a6-4e4d-8122-e43495629b3b","ios":"levelo://app?vid=5a92a956-d3a6-4e4d-8122-e43495629b3b"},"vehicle_type_id":"4","last_reported":1743221542,"current_range_meters":16400,"station_id":"ce4bhr92rcd13ifvqhsg","pricing_plan_id":"cebpf4jnsgd1na2vs0mg"},{"bike_id":"75fbceef-6297-435a-a1a2-4107090f33f5","system_id":"levelo_inurba_marseille","lat":43.30802,"lon":5.38149,"is_reserved":false,"is_disabled":false,"rental_uris":{"android":"levelo://app?vid=75fbceef-6297-435a-a1a2-4107090f33f5","ios":"levelo://app?vid=75fbceef-6297-435a-a1a2-4107090f33f5"},"vehicle_type_id":"4","last_reported":1743221542,"current_range_meters":16800,"station_id":"ce4bgt12rcd13ifvqce0","pricing_plan_id":"cebpf4jnsgd1na2vs0mg"},{"bike_id":"70674541-ea03-4b1b-bb78-2e712e4bd292","system_id":"levelo_inurba_marseille","lat":43.30805,"lon":5.38165,"is_reserved":false,"is_disabled":false,"rental_uris":{"android":"levelo://app?vid=70674541-ea03-4b1b-bb78-2e712e4bd292","ios":"levelo://app?vid=70674541-ea03-4b1b-bb78-2e712e4bd292"},"vehicle_type_id":"4","last_reported":1743221542,"current_range_meters":16800,"station_id":"ce4bgt12rcd13ifvqce0","pricing_plan_id":"cebpf4jnsgd1na2vs0mg"},{"bike_id":"bd90bf75-9c99-4619-93c2-7a5fd83388b5","system_id":"levelo_inurba_marseille","lat":43.313603,"lon":5.388284,"is_reserved":false,"is_disabled":false,"rental_uris":{"android":"levelo://app?vid=bd90bf75-9c99-4619-93c2-7a5fd83388b5","ios":"levelo://app?vid=bd90bf75-9c99-4619-93c2-7a5fd83388b5"},"vehicle_type_id":"4","last_reported":1743221542,"current_range_meters":16800,"station_id":"ce4bgt92rcd13ifvqcf0","pricing_plan_id":"cebpf4jnsgd1na2vs0mg"},{"bike_id":"c98c7c9b-819a-4506-af4d-19b0d04490d6","system_id":"levelo_inurba_marseille","lat":43.30261,"lon":5.4004,"is_reserved":false,"is_disabled":false,"rental_uris":{"android":"levelo://app?vid=c98c7c9b-819a-4506-af4d-19b0d04490d6","ios":"levelo://app?vid=c98c7c9b-819a-4506-af4d-19b0d04490d6"},"vehicle_type_id":"4","last_reported":1743221542,"current_range_meters":16800,"station_id":"ce4bgvh2rcd13ifvqcs0","pricing_plan_id":"cebpf4jnsgd1na2vs0mg"},{"bike_id":"0a02f317-4a33-47d2-b3ca-5453c4b931b4","system_id":"levelo_inurba_marseille","lat":43.306383,"lon":5.400787,"is_reserved":false,"is_disabled":false,"rental_uris":{"android":"levelo://app?vid=0a02f317-4a33-47d2-b3ca-5453c4b931b4","ios":"levelo://app?vid=0a02f317-4a33-47d2-b3ca-5453c4b931b4"},"vehicle_type_id":"4","last_reported":1743221542,"current_range_meters":16800,"station_id":"ce4bh112rcd13ifvqda0","pricing_plan_id":"cebpf4jnsgd1na2vs0mg"},{"bike_id":"056b1b3f-3384-4ec4-9ac4-e6702c4b19c6","system_id":"levelo_inurba_marseille","lat":43.284031,"lon":5.37517,"is_reserved":false,"is_disabled":false,"rental_uris":{"android":"levelo://app?vid=056b1b3f-3384-4ec4-9ac4-e6702c4b19c6","ios":"levelo://app?vid=056b1b3f-3384-4ec4-9ac4-e6702c4b19c6"},"vehicle_type_id":"4","last_reported":1743221542,"current_range_meters":16800,"station_id":"ce4bh412rcd13ifvqds0","pricing_plan_id":"cebpf4jnsgd1na2vs0mg"},{"bike_id":"71fe3d8c-48d0-4358-901d-55546353d839","system_id":"levelo_inurba_marseille","lat":43.32356,"lon":5.38882,"is_reserved":false,"is_disabled":false,"rental_uris":{"android":"levelo://app?vid=71fe3d8c-48d0-4358-901d-55546353d839","ios":"levelo://app?vid=71fe3d8c-48d0-4358-901d-55546353d839"},"vehicle_type_id":"4","last_reported":1743221542,"current_range_meters":16800,"station_id":"ce4bhqp2rcd13ifvqhog","pricing_plan_id":"cebpf4jnsgd1na2vs0mg"},{"bike_id":"ac1005b0-08b8-45c9-9895-7f639bf5e17f","system_id":"levelo_inurba_marseille","lat":43.23186,"lon":5.35566,"is_reserved":false,"is_disabled":false,"rental_uris":{"android":"levelo://app?vid=ac1005b0-08b8-45c9-9895-7f639bf5e17f","ios":"levelo://app?vid=ac1005b0-08b8-45c9-9895-7f639bf5e17f"},"vehicle_type_id":"4","last_reported":1743221542,"current_range_meters":16800,"station_id":"ce4bhu92rcd13ifvqi70","pricing_plan_id":"cebpf4jnsgd1na2vs0mg"},{"bike_id":"0a9ec2eb-1e79-43a5-ae4d-326ab3ba938e","system_id":"levelo_inurba_marseille","lat":43.28599,"lon":5.3513,"is_reserved":false,"is_disabled":false,"rental_uris":{"android":"levelo://app?vid=0a9ec2eb-1e79-43a5-ae4d-326ab3ba938e","ios":"levelo://app?vid=0a9ec2eb-1e79-43a5-ae4d-326ab3ba938e"},"vehicle_type_id":"4","last_reported":1743221542,"current_range_meters":17200,"station_id":"ce4bhch2rcd13ifvqeug","pricing_plan_id":"cebpf4jnsgd1na2vs0mg"},{"bike_id":"8289ed12-207c-4527-9aa9-26999cc35458","system_id":"levelo_inurba_marseille","lat":43.23193,"lon":5.35463,"is_reserved":false,"is_disabled":false,"rental_uris":{"android":"levelo://app?vid=8289ed12-207c-4527-9aa9-26999cc35458","ios":"levelo://app?vid=8289ed12-207c-4527-9aa9-26999cc35458"},"vehicle_type_id":"4","last_reported":1743221542,"current_range_meters":17200,"station_id":"ce4bhu92rcd13ifvqi70","pricing_plan_id":"cebpf4jnsgd1na2vs0mg"},{"bike_id":"8bcc045e-f28b-442a-a0af-38457b26197c","system_id":"levelo_inurba_marseille","lat":43.241687,"lon":5.363974,"is_reserved":false,"is_disabled":false,"rental_uris":{"android":"levelo://app?vid=8bcc045e-f28b-442a-a0af-38457b26197c","ios":"levelo://app?vid=8bcc045e-f28b-442a-a0af-38457b26197c"},"vehicle_type_id":"4","last_reported":1743221542,"current_range_meters":17200,"station_id":"cpo36qri1sfpv3e86is0","pricing_plan_id":"cebpf4jnsgd1na2vs0mg"},{"bike_id":"ea212a2c-ebda-4fd3-87a5-afdf194e9b39","system_id":"levelo_inurba_marseille","lat":43.31584,"lon":5.38946,"is_reserved":false,"is_disabled":false,"rental_uris":{"android":"levelo://app?vid=ea212a2c-ebda-4fd3-87a5-afdf194e9b39","ios":"levelo://app?vid=ea212a2c-ebda-4fd3-87a5-afdf194e9b39"},"vehicle_type_id":"4","last_reported":1743221542,"current_range_meters":17600,"station_id":"","pricing_plan_id":"cebpf4jnsgd1na2vs0mg"},{"bike_id":"f00c41d5-3001-4204-9e53-b380623ac516","system_id":"levelo_inurba_marseille","lat":43.34356,"lon":5.41755,"is_reserved":false,"is_disabled":false,"rental_uris":{"android":"levelo://app?vid=f00c41d5-3001-4204-9e53-b380623ac516","ios":"levelo://app?vid=f00c41d5-3001-4204-9e53-b380623ac516"},"vehicle_type_id":"4","last_reported":1743221542,"current_range_meters":17600,"station_id":"","pricing_plan_id":"cebpf4jnsgd1na2vs0mg"},{"bike_id":"5b0d0482-3e3f-45fa-87f4-a089f054b17e","system_id":"levelo_inurba_marseille","lat":43.28402,"lon":5.37525,"is_reserved":false,"is_disabled":false,"rental_uris":{"android":"levelo://app?vid=5b0d0482-3e3f-45fa-87f4-a089f054b17e","ios":"levelo://app?vid=5b0d0482-3e3f-45fa-87f4-a089f054b17e"},"vehicle_type_id":"4","last_reported":1743221542,"current_range_meters":17600,"station_id":"ce4bh412rcd13ifvqds0","pricing_plan_id":"cebpf4jnsgd1na2vs0mg"},{"bike_id":"814bcd46-c952-459d-9b1a-a086ddd81ea1","system_id":"levelo_inurba_marseille","lat":43.28413,"lon":5.37513,"is_reserved":false,"is_disabled":false,"rental_uris":{"android":"levelo://app?vid=814bcd46-c952-459d-9b1a-a086ddd81ea1","ios":"levelo://app?vid=814bcd46-c952-459d-9b1a-a086ddd81ea1"},"vehicle_type_id":"4","last_reported":1743221542,"current_range_meters":17600,"station_id":"ce4bh412rcd13ifvqds0","pricing_plan_id":"cebpf4jnsgd1na2vs0mg"},{"bike_id":"e6967797-29d0-4947-88e5-61bc42de65df","system_id":"levelo_inurba_marseille","lat":43.28613,"lon":5.35106,"is_reserved":false,"is_disabled":false,"rental_uris":{"android":"levelo://app?vid=e6967797-29d0-4947-88e5-61bc42de65df","ios":"levelo://app?vid=e6967797-29d0-4947-88e5-61bc42de65df"},"vehicle_type_id":"4","last_reported":1743221542,"current_range_meters":17600,"station_id":"ce4bhch2rcd13ifvqeug","pricing_plan_id":"cebpf4jnsgd1na2vs0mg"},{"bike_id":"f8feeb6c-4c74-49d7-9bbd-fe1d815b652b","system_id":"levelo_inurba_marseille","lat":43.323583,"lon":5.388795,"is_reserved":false,"is_disabled":false,"rental_uris":{"android":"levelo://app?vid=f8feeb6c-4c74-49d7-9bbd-fe1d815b652b","ios":"levelo://app?vid=f8feeb6c-4c74-49d7-9bbd-fe1d815b652b"},"vehicle_type_id":"4","last_reported":1743221542,"current_range_meters":17600,"station_id":"ce4bhqp2rcd13ifvqhog","pricing_plan_id":"cebpf4jnsgd1na2vs0mg"},{"bike_id":"cc5989b6-ed0c-42d9-bbc0-55661d6fced2","system_id":"levelo_inurba_marseille","lat":43.30316,"lon":5.36907,"is_reserved":false,"is_disabled":false,"rental_uris":{"android":"levelo://app?vid=cc5989b6-ed0c-42d9-bbc0-55661d6fced2","ios":"levelo://app?vid=cc5989b6-ed0c-42d9-bbc0-55661d6fced2"},"vehicle_type_id":"4","last_reported":1743221542,"current_range_meters":18000,"station_id":"ce4bgqh2rcd13ifvqc5g","pricing_plan_id":"cebpf4jnsgd1na2vs0mg"},{"bike_id":"df376b44-aeed-40e8-a359-f6813b414d30","system_id":"levelo_inurba_marseille","lat":43.302519,"lon":5.400637,"is_reserved":false,"is_disabled":false,"rental_uris":{"android":"levelo://app?vid=df376b44-aeed-40e8-a359-f6813b414d30","ios":"levelo://app?vid=df376b44-aeed-40e8-a359-f6813b414d30"},"vehicle_type_id":"4","last_reported":1743221542,"current_range_meters":18000,"station_id":"ce4bgvh2rcd13ifvqcs0","pricing_plan_id":"cebpf4jnsgd1na2vs0mg"},{"bike_id":"667c27e3-ee21-4f6b-8b1a-9d118a97dfcb","system_id":"levelo_inurba_marseille","lat":43.29574,"lon":5.39977,"is_reserved":false,"is_disabled":false,"rental_uris":{"android":"levelo://app?vid=667c27e3-ee21-4f6b-8b1a-9d118a97dfcb","ios":"levelo://app?vid=667c27e3-ee21-4f6b-8b1a-9d118a97dfcb"},"vehicle_type_id":"4","last_reported":1743221542,"current_range_meters":18000,"station_id":"ce4bh312rcd13ifvqdj0","pricing_plan_id":"cebpf4jnsgd1na2vs0mg"},{"bike_id":"d6333e62-d80b-42e1-9217-662e86360f1e","system_id":"levelo_inurba_marseille","lat":43.288564,"lon":5.358499,"is_reserved":false,"is_disabled":false,"rental_uris":{"android":"levelo://app?vid=d6333e62-d80b-42e1-9217-662e86360f1e","ios":"levelo://app?vid=d6333e62-d80b-42e1-9217-662e86360f1e"},"vehicle_type_id":"4","last_reported":1743221542,"current_range_meters":18000,"station_id":"ce4bhb12rcd13ifvqem0","pricing_plan_id":"cebpf4jnsgd1na2vs0mg"},{"bike_id":"59359988-faf5-47a1-b5f8-d319a6e1abfa","system_id":"levelo_inurba_marseille","lat":43.28418,"lon":5.35002,"is_reserved":false,"is_disabled":false,"rental_uris":{"android":"levelo://app?vid=59359988-faf5-47a1-b5f8-d319a6e1abfa","ios":"levelo://app?vid=59359988-faf5-47a1-b5f8-d319a6e1abfa"},"vehicle_type_id":"4","last_reported":1743221542,"current_range_meters":18000,"station_id":"ce4bhbh2rcd13ifvqepg","pricing_plan_id":"cebpf4jnsgd1na2vs0mg"},{"bike_id":"52481f77-661e-4248-8d5a-0b010b1b4270","system_id":"levelo_inurba_marseille","lat":43.28079,"lon":5.39659,"is_reserved":false,"is_disabled":false,"rental_uris":{"android":"levelo://app?vid=52481f77-661e-4248-8d5a-0b010b1b4270","ios":"levelo://app?vid=52481f77-661e-4248-8d5a-0b010b1b4270"},"vehicle_type_id":"4","last_reported":1743221542,"current_range_meters":18000,"station_id":"ce4bho12rcd13ifvqh2g","pricing_plan_id":"cebpf4jnsgd1na2vs0mg"},{"bike_id":"d885ab09-6943-41e2-94cd-fde5cc1605e4","system_id":"levelo_inurba_marseille","lat":43.286972,"lon":5.399753,"is_reserved":false,"is_disabled":false,"rental_uris":{"android":"levelo://app?vid=d885ab09-6943-41e2-94cd-fde5cc1605e4","ios":"levelo://app?vid=d885ab09-6943-41e2-94cd-fde5cc1605e4"},"vehicle_type_id":"4","last_reported":1743221542,"current_range_meters":18000,"station_id":"ce4bho92rcd13ifvqh3g","pricing_plan_id":"cebpf4jnsgd1na2vs0mg"},{"bike_id":"6ef18dd7-1cb9-4ef6-bfdd-052cde57f183","system_id":"levelo_inurba_marseille","lat":43.321,"lon":5.36782,"is_reserved":false,"is_disabled":false,"rental_uris":{"android":"levelo://app?vid=6ef18dd7-1cb9-4ef6-bfdd-052cde57f183","ios":"levelo://app?vid=6ef18dd7-1cb9-4ef6-bfdd-052cde57f183"},"vehicle_type_id":"4","last_reported":1743221542,"current_range_meters":18000,"station_id":"ce4bhrh2rcd13ifvqhug","pricing_plan_id":"cebpf4jnsgd1na2vs0mg"},{"bike_id":"0a054900-ac8c-4b77-a7f1-aac9c1d65319","system_id":"levelo_inurba_marseille","lat":43.229321,"lon":5.353845,"is_reserved":false,"is_disabled":false,"rental_uris":{"android":"levelo://app?vid=0a054900-ac8c-4b77-a7f1-aac9c1d65319","ios":"levelo://app?vid=0a054900-ac8c-4b77-a7f1-aac9c1d65319"},"vehicle_type_id":"4","last_reported":1743221542,"current_range_meters":18000,"station_id":"cpo3532slgdg3j2ikp40","pricing_plan_id":"cebpf4jnsgd1na2vs0mg"},{"bike_id":"275bc6b6-1772-4183-a522-de0f246b39c2","system_id":"levelo_inurba_marseille","lat":43.31545,"lon":5.38778,"is_reserved":false,"is_disabled":false,"rental_uris":{"android":"levelo://app?vid=275bc6b6-1772-4183-a522-de0f246b39c2","ios":"levelo://app?vid=275bc6b6-1772-4183-a522-de0f246b39c2"},"vehicle_type_id":"4","last_reported":1743221542,"current_range_meters":18800,"station_id":"","pricing_plan_id":"cebpf4jnsgd1na2vs0mg"},{"bike_id":"b5c43db5-cfdc-4aed-94ed-98b74e9e589a","system_id":"levelo_inurba_marseille","lat":43.29339,"lon":5.42801,"is_reserved":false,"is_disabled":false,"rental_uris":{"android":"levelo://app?vid=b5c43db5-cfdc-4aed-94ed-98b74e9e589a","ios":"levelo://app?vid=b5c43db5-cfdc-4aed-94ed-98b74e9e589a"},"vehicle_type_id":"4","last_reported":1743221542,"current_range_meters":18800,"station_id":"","pricing_plan_id":"cebpf4jnsgd1na2vs0mg"},{"bike_id":"bcace7b4-1154-45a2-a944-6bdf95fe9126","system_id":"levelo_inurba_marseille","lat":43.30929,"lon":5.401444,"is_reserved":false,"is_disabled":false,"rental_uris":{"android":"levelo://app?vid=bcace7b4-1154-45a2-a944-6bdf95fe9126","ios":"levelo://app?vid=bcace7b4-1154-45a2-a944-6bdf95fe9126"},"vehicle_type_id":"4","last_reported":1743221542,"current_range_meters":18800,"station_id":"ce4bgvp2rcd13ifvqct0","pricing_plan_id":"cebpf4jnsgd1na2vs0mg"},{"bike_id":"46a5b241-4335-495e-ad2f-2e93d943935f","system_id":"levelo_inurba_marseille","lat":43.28848,"lon":5.35852,"is_reserved":false,"is_disabled":false,"rental_uris":{"android":"levelo://app?vid=46a5b241-4335-495e-ad2f-2e93d943935f","ios":"levelo://app?vid=46a5b241-4335-495e-ad2f-2e93d943935f"},"vehicle_type_id":"4","last_reported":1743221542,"current_range_meters":18800,"station_id":"ce4bhb12rcd13ifvqem0","pricing_plan_id":"cebpf4jnsgd1na2vs0mg"},{"bike_id":"04195a2d-2df5-40fe-8f74-eac85b1b7680","system_id":"levelo_inurba_marseille","lat":43.28722,"lon":5.39977,"is_reserved":false,"is_disabled":false,"rental_uris":{"android":"levelo://app?vid=04195a2d-2df5-40fe-8f74-eac85b1b7680","ios":"levelo://app?vid=04195a2d-2df5-40fe-8f74-eac85b1b7680"},"vehicle_type_id":"4","last_reported":1743221542,"current_range_meters":18800,"station_id":"ce4bho92rcd13ifvqh3g","pricing_plan_id":"cebpf4jnsgd1na2vs0mg"},{"bike_id":"de42b707-97b6-4810-98cb-fe7822215ca8","system_id":"levelo_inurba_marseille","lat":43.307927,"lon":5.43534,"is_reserved":false,"is_disabled":false,"rental_uris":{"android":"levelo://app?vid=de42b707-97b6-4810-98cb-fe7822215ca8","ios":"levelo://app?vid=de42b707-97b6-4810-98cb-fe7822215ca8"},"vehicle_type_id":"4","last_reported":1743221542,"current_range_meters":18800,"station_id":"ce4bhph2rcd13ifvqheg","pricing_plan_id":"cebpf4jnsgd1na2vs0mg"},{"bike_id":"b521b8f0-425b-400b-8f7c-8b9e4af4a52f","system_id":"levelo_inurba_marseille","lat":43.32329,"lon":5.40635,"is_reserved":false,"is_disabled":false,"rental_uris":{"android":"levelo://app?vid=b521b8f0-425b-400b-8f7c-8b9e4af4a52f","ios":"levelo://app?vid=b521b8f0-425b-400b-8f7c-8b9e4af4a52f"},"vehicle_type_id":"4","last_reported":1743221542,"current_range_meters":18800,"station_id":"ce4bhq92rcd13ifvqhjg","pricing_plan_id":"cebpf4jnsgd1na2vs0mg"},{"bike_id":"c7faca24-1528-4bad-aaf2-62888ad8aaed","system_id":"levelo_inurba_marseille","lat":43.311669,"lon":5.387151,"is_reserved":false,"is_disabled":false,"rental_uris":{"android":"levelo://app?vid=c7faca24-1528-4bad-aaf2-62888ad8aaed","ios":"levelo://app?vid=c7faca24-1528-4bad-aaf2-62888ad8aaed"},"vehicle_type_id":"4","last_reported":1743221542,"current_range_meters":19200,"station_id":"ce4bgv12rcd13ifvqcp0","pricing_plan_id":"cebpf4jnsgd1na2vs0mg"},{"bike_id":"39112a49-bdc9-4652-b433-5e74b3d5331b","system_id":"levelo_inurba_marseille","lat":43.28674,"lon":5.36338,"is_reserved":false,"is_disabled":false,"rental_uris":{"android":"levelo://app?vid=39112a49-bdc9-4652-b433-5e74b3d5331b","ios":"levelo://app?vid=39112a49-bdc9-4652-b433-5e74b3d5331b"},"vehicle_type_id":"4","last_reported":1743221542,"current_range_meters":19200,"station_id":"ce4bhah2rcd13ifvqej0","pricing_plan_id":"cebpf4jnsgd1na2vs0mg"},{"bike_id":"99eea32e-af3a-4b35-b526-bd722f859f86","system_id":"levelo_inurba_marseille","lat":43.27987,"lon":5.4165,"is_reserved":false,"is_disabled":false,"rental_uris":{"android":"levelo://app?vid=99eea32e-af3a-4b35-b526-bd722f859f86","ios":"levelo://app?vid=99eea32e-af3a-4b35-b526-bd722f859f86"},"vehicle_type_id":"4","last_reported":1743221542,"current_range_meters":19200,"station_id":"ce4bho12rcd13ifvqh1g","pricing_plan_id":"cebpf4jnsgd1na2vs0mg"},{"bike_id":"8800990b-0588-4701-9f9b-d00ff201f1bf","system_id":"levelo_inurba_marseille","lat":43.317549,"lon":5.390154,"is_reserved":false,"is_disabled":false,"rental_uris":{"android":"levelo://app?vid=8800990b-0588-4701-9f9b-d00ff201f1bf","ios":"levelo://app?vid=8800990b-0588-4701-9f9b-d00ff201f1bf"},"vehicle_type_id":"4","last_reported":1743221542,"current_range_meters":19200,"station_id":"ce4bhqp2rcd13ifvqhng","pricing_plan_id":"cebpf4jnsgd1na2vs0mg"},{"bike_id":"76859129-4009-4843-90a4-dc4d2b65271a","system_id":"levelo_inurba_marseille","lat":43.241691,"lon":5.363942,"is_reserved":false,"is_disabled":false,"rental_uris":{"android":"levelo://app?vid=76859129-4009-4843-90a4-dc4d2b65271a","ios":"levelo://app?vid=76859129-4009-4843-90a4-dc4d2b65271a"},"vehicle_type_id":"4","last_reported":1743221542,"current_range_meters":19200,"station_id":"cpo36qri1sfpv3e86is0","pricing_plan_id":"cebpf4jnsgd1na2vs0mg"},{"bike_id":"ef1a3588-bb7b-4182-b095-967f24bb064f","system_id":"levelo_inurba_marseille","lat":43.29928,"lon":5.3655,"is_reserved":false,"is_disabled":false,"rental_uris":{"android":"levelo://app?vid=ef1a3588-bb7b-4182-b095-967f24bb064f","ios":"levelo://app?vid=ef1a3588-bb7b-4182-b095-967f24bb064f"},"vehicle_type_id":"4","last_reported":1743221542,"current_range_meters":19600,"station_id":"ce4bgm92rcd13ifvqbr0","pricing_plan_id":"cebpf4jnsgd1na2vs0mg"},{"bike_id":"ed976c24-8232-427d-a9b7-2f1bd37e9362","system_id":"levelo_inurba_marseille","lat":43.2841,"lon":5.37513,"is_reserved":false,"is_disabled":false,"rental_uris":{"android":"levelo://app?vid=ed976c24-8232-427d-a9b7-2f1bd37e9362","ios":"levelo://app?vid=ed976c24-8232-427d-a9b7-2f1bd37e9362"},"vehicle_type_id":"4","last_reported":1743221542,"current_range_meters":19600,"station_id":"ce4bh412rcd13ifvqds0","pricing_plan_id":"cebpf4jnsgd1na2vs0mg"},{"bike_id":"0de0fbfe-d6d7-4b81-a478-80ea3cf63236","system_id":"levelo_inurba_marseille","lat":43.24808,"lon":5.37453,"is_reserved":false,"is_disabled":false,"rental_uris":{"android":"levelo://app?vid=0de0fbfe-d6d7-4b81-a478-80ea3cf63236","ios":"levelo://app?vid=0de0fbfe-d6d7-4b81-a478-80ea3cf63236"},"vehicle_type_id":"4","last_reported":1743221542,"current_range_meters":19600,"station_id":"ce4bhgh2rcd13ifvqfb0","pricing_plan_id":"cebpf4jnsgd1na2vs0mg"},{"bike_id":"6426fec2-138a-48ec-866d-e0db76c07dcd","system_id":"levelo_inurba_marseille","lat":43.24735,"lon":5.37552,"is_reserved":false,"is_disabled":false,"rental_uris":{"android":"levelo://app?vid=6426fec2-138a-48ec-866d-e0db76c07dcd","ios":"levelo://app?vid=6426fec2-138a-48ec-866d-e0db76c07dcd"},"vehicle_type_id":"4","last_reported":1743221542,"current_range_meters":20000,"station_id":"","pricing_plan_id":"cebpf4jnsgd1na2vs0mg"},{"bike_id":"5c4e81fb-8831-4de7-8818-3e559730274f","system_id":"levelo_inurba_marseille","lat":43.3082,"lon":5.38233,"is_reserved":false,"is_disabled":false,"rental_uris":{"android":"levelo://app?vid=5c4e81fb-8831-4de7-8818-3e559730274f","ios":"levelo://app?vid=5c4e81fb-8831-4de7-8818-3e559730274f"},"vehicle_type_id":"4","last_reported":1743221542,"current_range_meters":20000,"station_id":"","pricing_plan_id":"cebpf4jnsgd1na2vs0mg"},{"bike_id":"97c1220e-f5ad-4c82-bf88-230bc2ad41f8","system_id":"levelo_inurba_marseille","lat":43.2885,"lon":5.35875,"is_reserved":false,"is_disabled":false,"rental_uris":{"android":"levelo://app?vid=97c1220e-f5ad-4c82-bf88-230bc2ad41f8","ios":"levelo://app?vid=97c1220e-f5ad-4c82-bf88-230bc2ad41f8"},