{"last_updated":1739970970,"ttl":60,"version":"2.2","data":{"bikes":[{"bike_id":"b43167f2-2fa8-4366-a489-098460043924","system_id":"levelo_inurba_marseille","lat":43.2815,"lon":5.42645,"is_reserved":false,"is_disabled":false,"rental_uris":{"android":"levelo://app?vid=b43167f2-2fa8-4366-a489-098460043924","ios":"levelo://app?vid=b43167f2-2fa8-4366-a489-098460043924"},"vehicle_type_id":"4","last_reported":1739970970,"current_range_meters":2800,"station_id":"ce4bhnh2rcd13ifvqgug","pricing_plan_id":"cebpf4jnsgd1na2vs0mg"},{"bike_id":"4032403b-4165-47fa-8540-9917a6300031","system_id":"levelo_inurba_marseille","lat":43.28346,"lon":5.38102,"is_reserved":false,"is_disabled":false,"rental_uris":{"android":"levelo://app?vid=4032403b-4165-47fa-8540-9917a6300031","ios":"levelo://app?vid=4032403b-4165-47fa-8540-9917a6300031"},"vehicle_type_id":"4","last_reported":1739970970,"current_range_meters":2800,"station_id":"ce4bh412rcd13ifvqdr0","pricing_plan_id":"cebpf4jnsgd1na2vs0mg"},{"bike_id":"cd00433f-b43a-4614-9048-bebadbdefbf6","system_id":"levelo_inurba_marseille","lat":43.29871,"lon":5.39736,"is_reserved":false,"is_disabled":false,"rental_uris":{"android":"levelo://app?vid=cd00433f-b43a-4614-9048-bebadbdefbf6","ios":"levelo://app?vid=cd00433f-b43a-4614-9048-bebadbdefbf6"},"vehicle_type_id":"4","last_reported":1739970970,"current_range_meters":2800,"station_id":"ce4bh0h2rcd13ifvqd50","pricing_plan_id":"cebpf4jnsgd1na2vs0mg"},{"bike_id":"e35d5b3c-cdb1-48dc-b99e-b6cb86586537","system_id":"levelo_inurba_marseille","lat":43.26556,"lon":5.37283,"is_reserved":false,"is_disabled":false,"rental_uris":{"android":"levelo://app?vid=e35d5b3c-cdb1-48dc-b99e-b6cb86586537","ios":"levelo://app?vid=e35d5b3c-cdb1-48dc-b99e-b6cb86586537"},"vehicle_type_id":"4","last_reported":1739970970,"current_range_meters":2800,"station_id":"","pricing_plan_id":"cebpf4jnsgd1na2vs0mg"},{"bike_id":"9431827b-0982-493f-ba98-3b032292d3a7","system_id":"levelo_inurba_marseille","lat":43.32088,"lon":5.36781,"is_reserved":false,"is_disabled":false,"rental_uris":{"android":"levelo://app?vid=9431827b-0982-493f-ba98-3b032292d3a7","ios":"levelo://app?vid=9431827b-0982-493f-ba98-3b032292d3a7"},"vehicle_type_id":"4","last_reported":1739970970,"current_range_meters":3200,"station_id":"ce4bhrh2rcd13ifvqhug","pricing_plan_id":"cebpf4jnsgd1na2vs0mg"},{"bike_id":"4aebea14-4cfb-4d7d-8d65-9d2647cce87e","system_id":"levelo_inurba_marseille","lat":43.272,"lon":5.39173,"is_reserved":false,"is_disabled":false,"rental_uris":{"android":"levelo://app?vid=4aebea14-4cfb-4d7d-8d65-9d2647cce87e","ios":"levelo://app?vid=4aebea14-4cfb-4d7d-8d65-9d2647cce87e"},"vehicle_type_id":"4","last_reported":1739970970,"current_range_meters":3200,"station_id":"ce4bhhp2rcd13ifvqfm0","pricing_plan_id":"cebpf4jnsgd1na2vs0mg"},{"bike_id":"d81cdf20-5d27-4b0d-956f-21321db5e2a7","system_id":"levelo_inurba_marseille","lat":43.2732,"lon":5.39132,"is_reserved":false,"is_disabled":false,"rental_uris":{"android":"levelo://app?vid=d81cdf20-5d27-4b0d-956f-21321db5e2a7","ios":"levelo://app?vid=d81cdf20-5d27-4b0d-956f-21321db5e2a7"},"vehicle_type_id":"4","last_reported":1739970970,"current_range_meters":3200,"station_id":"ce4bhgp2rcd13ifvqfe0","pricing_plan_id":"cebpf4jnsgd1na2vs0mg"},{"bike_id":"5fc8b936-a5a0-4001-88b0-c71c8adbdb7c","system_id":"levelo_inurba_marseille","lat":43.25106,"lon":5.40327,"is_reserved":false,"is_disabled":false,"rental_uris":{"android":"levelo://app?vid=5fc8b936-a5a0-4001-88b0-c71c8adbdb7c","ios":"levelo://app?vid=5fc8b936-a5a0-4001-88b0-c71c8adbdb7c"},"vehicle_type_id":"4","last_reported":1739970970,"current_range_meters":3200,"station_id":"ce4bhlh2rcd13ifvqgig","pricing_plan_id":"cebpf4jnsgd1na2vs0mg"},{"bike_id":"020f9db3-6048-4a83-8c59-4acc533112c8","system_id":"levelo_inurba_marseille","lat":43.28149,"lon":5.42643,"is_reserved":false,"is_disabled":false,"rental_uris":{"android":"levelo://app?vid=020f9db3-6048-4a83-8c59-4acc533112c8","ios":"levelo://app?vid=020f9db3-6048-4a83-8c59-4acc533112c8"},"vehicle_type_id":"4","last_reported":1739970970,"current_range_meters":3600,"station_id":"ce4bhnh2rcd13ifvqgug","pricing_plan_id":"cebpf4jnsgd1na2vs0mg"},{"bike_id":"811901b7-6a39-4b98-9209-f363e05c2482","system_id":"levelo_inurba_marseille","lat":43.2815,"lon":5.42642,"is_reserved":false,"is_disabled":false,"rental_uris":{"android":"levelo://app?vid=811901b7-6a39-4b98-9209-f363e05c2482","ios":"levelo://app?vid=811901b7-6a39-4b98-9209-f363e05c2482"},"vehicle_type_id":"4","last_reported":1739970970,"current_range_meters":4400,"station_id":"ce4bhnh2rcd13ifvqgug","pricing_plan_id":"cebpf4jnsgd1na2vs0mg"},{"bike_id":"ec8e9db6-6a2b-4d11-a4a8-4ff52ca5ab41","system_id":"levelo_inurba_marseille","lat":43.29626,"lon":5.3772,"is_reserved":false,"is_disabled":false,"rental_uris":{"android":"levelo://app?vid=ec8e9db6-6a2b-4d11-a4a8-4ff52ca5ab41","ios":"levelo://app?vid=ec8e9db6-6a2b-4d11-a4a8-4ff52ca5ab41"},"vehicle_type_id":"4","last_reported":1739970970,"current_range_meters":4400,"station_id":"ce4bgi92rcd13ifvqb90","pricing_plan_id":"cebpf4jnsgd1na2vs0mg"},{"bike_id":"10588449-5ffa-45fc-887c-8523965fc0a8","system_id":"levelo_inurba_marseille","lat":43.25509,"lon":5.37671,"is_reserved":false,"is_disabled":false,"rental_uris":{"android":"levelo://app?vid=10588449-5ffa-45fc-887c-8523965fc0a8","ios":"levelo://app?vid=10588449-5ffa-45fc-887c-8523965fc0a8"},"vehicle_type_id":"4","last_reported":1739970970,"current_range_meters":4800,"station_id":"ce4bhh12rcd13ifvqff0","pricing_plan_id":"cebpf4jnsgd1na2vs0mg"},{"bike_id":"6528e792-6c2b-41ab-b102-37d30001a0e7","system_id":"levelo_inurba_marseille","lat":43.27228,"lon":5.40082,"is_reserved":false,"is_disabled":false,"rental_uris":{"android":"levelo://app?vid=6528e792-6c2b-41ab-b102-37d30001a0e7","ios":"levelo://app?vid=6528e792-6c2b-41ab-b102-37d30001a0e7"},"vehicle_type_id":"4","last_reported":1739970970,"current_range_meters":5600,"station_id":"","pricing_plan_id":"cebpf4jnsgd1na2vs0mg"},{"bike_id":"dcaa5d09-ad4d-4077-9a1e-bfb165ed7859","system_id":"levelo_inurba_marseille","lat":43.31216,"lon":5.36853,"is_reserved":false,"is_disabled":false,"rental_uris":{"android":"levelo://app?vid=dcaa5d09-ad4d-4077-9a1e-bfb165ed7859","ios":"levelo://app?vid=dcaa5d09-ad4d-4077-9a1e-bfb165ed7859"},"vehicle_type_id":"4","last_reported":1739970970,"current_range_meters":5600,"station_id":"ce4bgl92rcd13ifvqbq0","pricing_plan_id":"cebpf4jnsgd1na2vs0mg"},{"bike_id":"707c3d0a-4bda-4f65-a3e7-41cc614e8fdd","system_id":"levelo_inurba_marseille","lat":43.315,"lon":5.37317,"is_reserved":false,"is_disabled":false,"rental_uris":{"android":"levelo://app?vid=707c3d0a-4bda-4f65-a3e7-41cc614e8fdd","ios":"levelo://app?vid=707c3d0a-4bda-4f65-a3e7-41cc614e8fdd"},"vehicle_type_id":"4","last_reported":1739970970,"current_range_meters":5600,"station_id":"ce4bgt12rcd13ifvqcd0","pricing_plan_id":"cebpf4jnsgd1na2vs0mg"},{"bike_id":"bf051dc9-2681-48c2-8baa-5f57ed385bf5","system_id":"levelo_inurba_marseille","lat":43.31485,"lon":5.37307,"is_reserved":false,"is_disabled":false,"rental_uris":{"android":"levelo://app?vid=bf051dc9-2681-48c2-8baa-5f57ed385bf5","ios":"levelo://app?vid=bf051dc9-2681-48c2-8baa-5f57ed385bf5"},"vehicle_type_id":"4","last_reported":1739970970,"current_range_meters":3600,"station_id":"ce4bgt12rcd13ifvqcd0","pricing_plan_id":"cebpf4jnsgd1na2vs0mg"},{"bike_id":"0e9ae8c5-7a7e-467d-afe2-bb8df6bfeefc","system_id":"levelo_inurba_marseille","lat":43.23356,"lon":5.40322,"is_reserved":false,"is_disabled":false,"rental_uris":{"android":"levelo://app?vid=0e9ae8c5-7a7e-467d-afe2-bb8df6bfeefc","ios":"levelo://app?vid=0e9ae8c5-7a7e-467d-afe2-bb8df6bfeefc"},"vehicle_type_id":"4","last_reported":1739970970,"current_range_meters":6000,"station_id":"","pricing_plan_id":"cebpf4jnsgd1na2vs0mg"},{"bike_id":"c109a327-37a9-4436-a7bc-7706e6f9fcb3","system_id":"levelo_inurba_marseille","lat":43.23169,"lon":5.43705,"is_reserved":false,"is_disabled":false,"rental_uris":{"android":"levelo://app?vid=c109a327-37a9-4436-a7bc-7706e6f9fcb3","ios":"levelo://app?vid=c109a327-37a9-4436-a7bc-7706e6f9fcb3"},"vehicle_type_id":"4","last_reported":1739970970,"current_range_meters":6000,"station_id":"ce4bhmp2rcd13ifvqgog","pricing_plan_id":"cebpf4jnsgd1na2vs0mg"},{"bike_id":"7174b859-40d2-4d93-8784-578ab557e269","system_id":"levelo_inurba_marseille","lat":43.30971,"lon":5.39055,"is_reserved":false,"is_disabled":false,"rental_uris":{"android":"levelo://app?vid=7174b859-40d2-4d93-8784-578ab557e269","ios":"levelo://app?vid=7174b859-40d2-4d93-8784-578ab557e269"},"vehicle_type_id":"4","last_reported":1739970970,"current_range_meters":6000,"station_id":"ce4bgup2rcd13ifvqco0","pricing_plan_id":"cebpf4jnsgd1na2vs0mg"},{"bike_id":"dddfad59-027b-4d56-8689-d0f5246c8af6","system_id":"levelo_inurba_marseille","lat":43.29848,"lon":5.3628,"is_reserved":false,"is_disabled":false,"rental_uris":{"android":"levelo://app?vid=dddfad59-027b-4d56-8689-d0f5246c8af6","ios":"levelo://app?vid=dddfad59-027b-4d56-8689-d0f5246c8af6"},"vehicle_type_id":"4","last_reported":1739970970,"current_range_meters":6400,"station_id":"","pricing_plan_id":"cebpf4jnsgd1na2vs0mg"},{"bike_id":"fa9cab39-4843-4c57-ae5f-5fc8d0e7c3e8","system_id":"levelo_inurba_marseille","lat":43.23197,"lon":5.35557,"is_reserved":false,"is_disabled":false,"rental_uris":{"android":"levelo://app?vid=fa9cab39-4843-4c57-ae5f-5fc8d0e7c3e8","ios":"levelo://app?vid=fa9cab39-4843-4c57-ae5f-5fc8d0e7c3e8"},"vehicle_type_id":"4","last_reported":1739970970,"current_range_meters":6400,"station_id":"ce4bhu92rcd13ifvqi70","pricing_plan_id":"cebpf4jnsgd1na2vs0mg"},{"bike_id":"f6887ea5-0bff-4a48-aee3-eb33c7a27b0c","system_id":"levelo_inurba_marseille","lat":43.267837,"lon":5.394145,"is_reserved":false,"is_disabled":false,"rental_uris":{"android":"levelo://app?vid=f6887ea5-0bff-4a48-aee3-eb33c7a27b0c","ios":"levelo://app?vid=f6887ea5-0bff-4a48-aee3-eb33c7a27b0c"},"vehicle_type_id":"4","last_reported":1739970970,"current_range_meters":6400,"station_id":"ce4bhh12rcd13ifvqfg0","pricing_plan_id":"cebpf4jnsgd1na2vs0mg"},{"bike_id":"989a1c05-c74a-4632-af21-81b3f55f7909","system_id":"levelo_inurba_marseille","lat":43.29219,"lon":5.36074,"is_reserved":false,"is_disabled":true,"rental_uris":{"android":"levelo://app?vid=989a1c05-c74a-4632-af21-81b3f55f7909","ios":"levelo://app?vid=989a1c05-c74a-4632-af21-81b3f55f7909"},"vehicle_type_id":"4","last_reported":1739970970,"current_range_meters":6400,"station_id":"","pricing_plan_id":"cebpf4jnsgd1na2vs0mg"},{"bike_id":"8d83a7d1-3ac4-4eba-a3f4-2d261013d9bc","system_id":"levelo_inurba_marseille","lat":43.31229,"lon":5.36859,"is_reserved":false,"is_disabled":false,"rental_uris":{"android":"levelo://app?vid=8d83a7d1-3ac4-4eba-a3f4-2d261013d9bc","ios":"levelo://app?vid=8d83a7d1-3ac4-4eba-a3f4-2d261013d9bc"},"vehicle_type_id":"4","last_reported":1739970970,"current_range_meters":6400,"station_id":"ce4bgl92rcd13ifvqbq0","pricing_plan_id":"cebpf4jnsgd1na2vs0mg"},{"bike_id":"aa54e528-1e1c-4ed3-a185-a1c4c7499f27","system_id":"levelo_inurba_marseille","lat":43.293,"lon":5.37453,"is_reserved":false,"is_disabled":false,"rental_uris":{"android":"levelo://app?vid=aa54e528-1e1c-4ed3-a185-a1c4c7499f27","ios":"levelo://app?vid=aa54e528-1e1c-4ed3-a185-a1c4c7499f27"},"vehicle_type_id":"4","last_reported":1739970970,"current_range_meters":6800,"station_id":"ce4bgi12rcd13ifvqb70","pricing_plan_id":"cebpf4jnsgd1na2vs0mg"},{"bike_id":"19a82d90-5fb5-475e-9359-653b37581c65","system_id":"levelo_inurba_marseille","lat":43.24188,"lon":5.39715,"is_reserved":false,"is_disabled":false,"rental_uris":{"android":"levelo://app?vid=19a82d90-5fb5-475e-9359-653b37581c65","ios":"levelo://app?vid=19a82d90-5fb5-475e-9359-653b37581c65"},"vehicle_type_id":"4","last_reported":1739970970,"current_range_meters":7200,"station_id":"ce4bhn12rcd13ifvqgpg","pricing_plan_id":"cebpf4jnsgd1na2vs0mg"},{"bike_id":"3f4434fb-908c-42f5-bf65-d81de3299319","system_id":"levelo_inurba_marseille","lat":43.25823,"lon":5.39439,"is_reserved":false,"is_disabled":false,"rental_uris":{"android":"levelo://app?vid=3f4434fb-908c-42f5-bf65-d81de3299319","ios":"levelo://app?vid=3f4434fb-908c-42f5-bf65-d81de3299319"},"vehicle_type_id":"4","last_reported":1739970970,"current_range_meters":7200,"station_id":"ce4bhip2rcd13ifvqft0","pricing_plan_id":"cebpf4jnsgd1na2vs0mg"},{"bike_id":"ba585d35-5c02-4e3b-b000-b2f1dcca5b41","system_id":"levelo_inurba_marseille","lat":43.26069,"lon":5.40661,"is_reserved":false,"is_disabled":false,"rental_uris":{"android":"levelo://app?vid=ba585d35-5c02-4e3b-b000-b2f1dcca5b41","ios":"levelo://app?vid=ba585d35-5c02-4e3b-b000-b2f1dcca5b41"},"vehicle_type_id":"4","last_reported":1739970970,"current_range_meters":7200,"station_id":"","pricing_plan_id":"cebpf4jnsgd1na2vs0mg"},{"bike_id":"0471ef9b-e05b-4c07-ad26-cbfbd92bd5b9","system_id":"levelo_inurba_marseille","lat":43.32474,"lon":5.36585,"is_reserved":false,"is_disabled":false,"rental_uris":{"android":"levelo://app?vid=0471ef9b-e05b-4c07-ad26-cbfbd92bd5b9","ios":"levelo://app?vid=0471ef9b-e05b-4c07-ad26-cbfbd92bd5b9"},"vehicle_type_id":"4","last_reported":1739970970,"current_range_meters":7200,"station_id":"ce4bhs12rcd13ifvqhvg","pricing_plan_id":"cebpf4jnsgd1na2vs0mg"},{"bike_id":"efa949a9-2c2a-4784-8058-8309cdaeb617","system_id":"levelo_inurba_marseille","lat":43.30553,"lon":5.3654,"is_reserved":false,"is_disabled":false,"rental_uris":{"android":"levelo://app?vid=efa949a9-2c2a-4784-8058-8309cdaeb617","ios":"levelo://app?vid=efa949a9-2c2a-4784-8058-8309cdaeb617"},"vehicle_type_id":"4","last_reported":1739970970,"current_range_meters":7200,"station_id":"","pricing_plan_id":"cebpf4jnsgd1na2vs0mg"},{"bike_id":"fa286c73-093b-4853-acc4-ffdf976eab49","system_id":"levelo_inurba_marseille","lat":43.2315,"lon":5.43712,"is_reserved":false,"is_disabled":false,"rental_uris":{"android":"levelo://app?vid=fa286c73-093b-4853-acc4-ffdf976eab49","ios":"levelo://app?vid=fa286c73-093b-4853-acc4-ffdf976eab49"},"vehicle_type_id":"4","last_reported":1739970970,"current_range_meters":7200,"station_id":"","pricing_plan_id":"cebpf4jnsgd1na2vs0mg"},{"bike_id":"88d6fc07-4d86-4bfd-ba4b-adb101c3209b","system_id":"levelo_inurba_marseille","lat":43.26934,"lon":5.38924,"is_reserved":false,"is_disabled":false,"rental_uris":{"android":"levelo://app?vid=88d6fc07-4d86-4bfd-ba4b-adb101c3209b","ios":"levelo://app?vid=88d6fc07-4d86-4bfd-ba4b-adb101c3209b"},"vehicle_type_id":"4","last_reported":1739970970,"current_range_meters":7200,"station_id":"ce4bhhh2rcd13ifvqfl0","pricing_plan_id":"cebpf4jnsgd1na2vs0mg"},{"bike_id":"4407be18-d439-4288-9b2d-a2eae824f889","system_id":"levelo_inurba_marseille","lat":43.29092,"lon":5.35718,"is_reserved":false,"is_disabled":false,"rental_uris":{"android":"levelo://app?vid=4407be18-d439-4288-9b2d-a2eae824f889","ios":"levelo://app?vid=4407be18-d439-4288-9b2d-a2eae824f889"},"vehicle_type_id":"4","last_reported":1739970970,"current_range_meters":7200,"station_id":"","pricing_plan_id":"cebpf4jnsgd1na2vs0mg"},{"bike_id":"88fdf34a-83cc-4078-8b68-bd35fc7e306c","system_id":"levelo_inurba_marseille","lat":43.29258,"lon":5.40906,"is_reserved":false,"is_disabled":false,"rental_uris":{"android":"levelo://app?vid=88fdf34a-83cc-4078-8b68-bd35fc7e306c","ios":"levelo://app?vid=88fdf34a-83cc-4078-8b68-bd35fc7e306c"},"vehicle_type_id":"4","last_reported":1739970970,"current_range_meters":16400,"station_id":"ce4bh192rcd13ifvqdc0","pricing_plan_id":"cebpf4jnsgd1na2vs0mg"},{"bike_id":"56834599-2949-4368-8c7c-ea0cffd718b2","system_id":"levelo_inurba_marseille","lat":43.270715,"lon":5.422755,"is_reserved":false,"is_disabled":false,"rental_uris":{"android":"levelo://app?vid=56834599-2949-4368-8c7c-ea0cffd718b2","ios":"levelo://app?vid=56834599-2949-4368-8c7c-ea0cffd718b2"},"vehicle_type_id":"4","last_reported":1739970970,"current_range_meters":8000,"station_id":"ce4bhk92rcd13ifvqgb0","pricing_plan_id":"cebpf4jnsgd1na2vs0mg"},{"bike_id":"a6bd11e2-53ed-49d6-81df-0f14d03660dc","system_id":"levelo_inurba_marseille","lat":43.30553,"lon":5.36524,"is_reserved":false,"is_disabled":false,"rental_uris":{"android":"levelo://app?vid=a6bd11e2-53ed-49d6-81df-0f14d03660dc","ios":"levelo://app?vid=a6bd11e2-53ed-49d6-81df-0f14d03660dc"},"vehicle_type_id":"4","last_reported":1739970970,"current_range_meters":8000,"station_id":"ce4bgs12rcd13ifvqcag","pricing_plan_id":"cebpf4jnsgd1na2vs0mg"},{"bike_id":"5ae0012d-6179-440f-a02a-a607c9208eb9","system_id":"levelo_inurba_marseille","lat":43.24664,"lon":5.38154,"is_reserved":false,"is_disabled":false,"rental_uris":{"android":"levelo://app?vid=5ae0012d-6179-440f-a02a-a607c9208eb9","ios":"levelo://app?vid=5ae0012d-6179-440f-a02a-a607c9208eb9"},"vehicle_type_id":"4","last_reported":1739970970,"current_range_meters":8000,"station_id":"ce4bhih2rcd13ifvqfr0","pricing_plan_id":"cebpf4jnsgd1na2vs0mg"},{"bike_id":"6b425ee7-6445-4dcc-9ef4-8999693e2d8e","system_id":"levelo_inurba_marseille","lat":43.28422,"lon":5.34975,"is_reserved":false,"is_disabled":false,"rental_uris":{"android":"levelo://app?vid=6b425ee7-6445-4dcc-9ef4-8999693e2d8e","ios":"levelo://app?vid=6b425ee7-6445-4dcc-9ef4-8999693e2d8e"},"vehicle_type_id":"4","last_reported":1739970970,"current_range_meters":8400,"station_id":"","pricing_plan_id":"cebpf4jnsgd1na2vs0mg"},{"bike_id":"1ae843e9-d44c-4297-a0fa-6450a999f369","system_id":"levelo_inurba_marseille","lat":43.30283,"lon":5.37697,"is_reserved":false,"is_disabled":false,"rental_uris":{"android":"levelo://app?vid=1ae843e9-d44c-4297-a0fa-6450a999f369","ios":"levelo://app?vid=1ae843e9-d44c-4297-a0fa-6450a999f369"},"vehicle_type_id":"4","last_reported":1739970970,"current_range_meters":8400,"station_id":"ce4bguh2rcd13ifvqcj0","pricing_plan_id":"cebpf4jnsgd1na2vs0mg"},{"bike_id":"3ea0b1ad-f3ea-4211-8e3b-d3f0c9a0f631","system_id":"levelo_inurba_marseille","lat":43.30965,"lon":5.39051,"is_reserved":false,"is_disabled":false,"rental_uris":{"android":"levelo://app?vid=3ea0b1ad-f3ea-4211-8e3b-d3f0c9a0f631","ios":"levelo://app?vid=3ea0b1ad-f3ea-4211-8e3b-d3f0c9a0f631"},"vehicle_type_id":"4","last_reported":1739970970,"current_range_meters":8400,"station_id":"","pricing_plan_id":"cebpf4jnsgd1na2vs0mg"},{"bike_id":"c7265b9c-676a-4fe7-938c-9ef6c1b3347f","system_id":"levelo_inurba_marseille","lat":43.27994,"lon":5.41664,"is_reserved":false,"is_disabled":false,"rental_uris":{"android":"levelo://app?vid=c7265b9c-676a-4fe7-938c-9ef6c1b3347f","ios":"levelo://app?vid=c7265b9c-676a-4fe7-938c-9ef6c1b3347f"},"vehicle_type_id":"4","last_reported":1739970970,"current_range_meters":8400,"station_id":"","pricing_plan_id":"cebpf4jnsgd1na2vs0mg"},{"bike_id":"4089f1a0-cd12-42d3-a6c3-01d445970a86","system_id":"levelo_inurba_marseille","lat":43.31289,"lon":5.37422,"is_reserved":false,"is_disabled":false,"rental_uris":{"android":"levelo://app?vid=4089f1a0-cd12-42d3-a6c3-01d445970a86","ios":"levelo://app?vid=4089f1a0-cd12-42d3-a6c3-01d445970a86"},"vehicle_type_id":"4","last_reported":1739970970,"current_range_meters":8400,"station_id":"","pricing_plan_id":"cebpf4jnsgd1na2vs0mg"},{"bike_id":"bb852df7-dd74-43f4-8582-0650a376dfcb","system_id":"levelo_inurba_marseille","lat":43.27501,"lon":5.42465,"is_reserved":false,"is_disabled":false,"rental_uris":{"android":"levelo://app?vid=bb852df7-dd74-43f4-8582-0650a376dfcb","ios":"levelo://app?vid=bb852df7-dd74-43f4-8582-0650a376dfcb"},"vehicle_type_id":"4","last_reported":1739970970,"current_range_meters":8400,"station_id":"ce4bhn92rcd13ifvqgrg","pricing_plan_id":"cebpf4jnsgd1na2vs0mg"},{"bike_id":"9ac2671b-b398-418e-b292-3a883ee5c1ce","system_id":"levelo_inurba_marseille","lat":43.30913,"lon":5.36835,"is_reserved":false,"is_disabled":false,"rental_uris":{"android":"levelo://app?vid=9ac2671b-b398-418e-b292-3a883ee5c1ce","ios":"levelo://app?vid=9ac2671b-b398-418e-b292-3a883ee5c1ce"},"vehicle_type_id":"4","last_reported":1739970970,"current_range_meters":8400,"station_id":"ce4bgn92rcd13ifvqbvg","pricing_plan_id":"cebpf4jnsgd1na2vs0mg"},{"bike_id":"02f16661-2484-4fbc-96bc-e816eeb0ee34","system_id":"levelo_inurba_marseille","lat":43.28461,"lon":5.35885,"is_reserved":false,"is_disabled":false,"rental_uris":{"android":"levelo://app?vid=02f16661-2484-4fbc-96bc-e816eeb0ee34","ios":"levelo://app?vid=02f16661-2484-4fbc-96bc-e816eeb0ee34"},"vehicle_type_id":"4","last_reported":1739970970,"current_range_meters":8400,"station_id":"ce4bhah2rcd13ifvqei0","pricing_plan_id":"cebpf4jnsgd1na2vs0mg"},{"bike_id":"211d2290-ec76-4021-9634-dc5e3b22ed98","system_id":"levelo_inurba_marseille","lat":43.30124,"lon":5.39862,"is_reserved":false,"is_disabled":false,"rental_uris":{"android":"levelo://app?vid=211d2290-ec76-4021-9634-dc5e3b22ed98","ios":"levelo://app?vid=211d2290-ec76-4021-9634-dc5e3b22ed98"},"vehicle_type_id":"4","last_reported":1739970970,"current_range_meters":8400,"station_id":"ce4bh0h2rcd13ifvqd40","pricing_plan_id":"cebpf4jnsgd1na2vs0mg"},{"bike_id":"e79d1c03-ea93-4ee5-8cb2-ecdeca48b0aa","system_id":"levelo_inurba_marseille","lat":43.23154,"lon":5.43694,"is_reserved":false,"is_disabled":true,"rental_uris":{"android":"levelo://app?vid=e79d1c03-ea93-4ee5-8cb2-ecdeca48b0aa","ios":"levelo://app?vid=e79d1c03-ea93-4ee5-8cb2-ecdeca48b0aa"},"vehicle_type_id":"4","last_reported":1739970970,"current_range_meters":8400,"station_id":"ce4bhmp2rcd13ifvqgog","pricing_plan_id":"cebpf4jnsgd1na2vs0mg"},{"bike_id":"891f1c37-f2d6-4057-8f9d-b073b76e19eb","system_id":"levelo_inurba_marseille","lat":43.2669,"lon":5.38262,"is_reserved":false,"is_disabled":false,"rental_uris":{"android":"levelo://app?vid=891f1c37-f2d6-4057-8f9d-b073b76e19eb","ios":"levelo://app?vid=891f1c37-f2d6-4057-8f9d-b073b76e19eb"},"vehicle_type_id":"4","last_reported":1739970970,"current_range_meters":8800,"station_id":"ce4bhg92rcd13ifvqf90","pricing_plan_id":"cebpf4jnsgd1na2vs0mg"},{"bike_id":"10c134e7-7862-45ed-8103-0b6221fb4b66","system_id":"levelo_inurba_marseille","lat":43.25004,"lon":5.38944,"is_reserved":false,"is_disabled":false,"rental_uris":{"android":"levelo://app?vid=10c134e7-7862-45ed-8103-0b6221fb4b66","ios":"levelo://app?vid=10c134e7-7862-45ed-8103-0b6221fb4b66"},"vehicle_type_id":"4","last_reported":1739970970,"current_range_meters":8800,"station_id":"","pricing_plan_id":"cebpf4jnsgd1na2vs0mg"},{"bike_id":"af3d0f2d-08fa-41db-bc0f-f51de43a9c0e","system_id":"levelo_inurba_marseille","lat":43.25939,"lon":5.4087,"is_reserved":false,"is_disabled":false,"rental_uris":{"android":"levelo://app?vid=af3d0f2d-08fa-41db-bc0f-f51de43a9c0e","ios":"levelo://app?vid=af3d0f2d-08fa-41db-bc0f-f51de43a9c0e"},"vehicle_type_id":"4","last_reported":1739970970,"current_range_meters":8800,"station_id":"ce4bhm92rcd13ifvqglg","pricing_plan_id":"cebpf4jnsgd1na2vs0mg"},{"bike_id":"9b03b96d-2041-4d92-a949-290d7b50f943","system_id":"levelo_inurba_marseille","lat":43.27174,"lon":5.40986,"is_reserved":false,"is_disabled":false,"rental_uris":{"android":"levelo://app?vid=9b03b96d-2041-4d92-a949-290d7b50f943","ios":"levelo://app?vid=9b03b96d-2041-4d92-a949-290d7b50f943"},"vehicle_type_id":"4","last_reported":1739970970,"current_range_meters":8800,"station_id":"","pricing_plan_id":"cebpf4jnsgd1na2vs0mg"},{"bike_id":"2c2e1a20-24c5-4f64-a93b-dd10cdd392f1","system_id":"levelo_inurba_marseille","lat":43.29718,"lon":5.36581,"is_reserved":false,"is_disabled":false,"rental_uris":{"android":"levelo://app?vid=2c2e1a20-24c5-4f64-a93b-dd10cdd392f1","ios":"levelo://app?vid=2c2e1a20-24c5-4f64-a93b-dd10cdd392f1"},"vehicle_type_id":"4","last_reported":1739970970,"current_range_meters":8800,"station_id":"ce4bgn12rcd13ifvqbt0","pricing_plan_id":"cebpf4jnsgd1na2vs0mg"},{"bike_id":"33f5fb29-add9-47d1-9a08-3d8099d46608","system_id":"levelo_inurba_marseille","lat":43.29002,"lon":5.35607,"is_reserved":false,"is_disabled":false,"rental_uris":{"android":"levelo://app?vid=33f5fb29-add9-47d1-9a08-3d8099d46608","ios":"levelo://app?vid=33f5fb29-add9-47d1-9a08-3d8099d46608"},"vehicle_type_id":"4","last_reported":1739970970,"current_range_meters":9200,"station_id":"ce4bhb92rcd13ifvqen0","pricing_plan_id":"cebpf4jnsgd1na2vs0mg"},{"bike_id":"9198c6ef-bd5b-45d9-bd7b-e058d791d44b","system_id":"levelo_inurba_marseille","lat":43.24805,"lon":5.37453,"is_reserved":false,"is_disabled":false,"rental_uris":{"android":"levelo://app?vid=9198c6ef-bd5b-45d9-bd7b-e058d791d44b","ios":"levelo://app?vid=9198c6ef-bd5b-45d9-bd7b-e058d791d44b"},"vehicle_type_id":"4","last_reported":1739970970,"current_range_meters":9200,"station_id":"ce4bhgh2rcd13ifvqfb0","pricing_plan_id":"cebpf4jnsgd1na2vs0mg"},{"bike_id":"f0f61fdf-e262-479f-a259-1997ef9b3f40","system_id":"levelo_inurba_marseille","lat":43.28153,"lon":5.42659,"is_reserved":false,"is_disabled":false,"rental_uris":{"android":"levelo://app?vid=f0f61fdf-e262-479f-a259-1997ef9b3f40","ios":"levelo://app?vid=f0f61fdf-e262-479f-a259-1997ef9b3f40"},"vehicle_type_id":"4","last_reported":1739970970,"current_range_meters":9200,"station_id":"","pricing_plan_id":"cebpf4jnsgd1na2vs0mg"},{"bike_id":"ea4597ac-56c8-488f-9958-e5d4800c56f7","system_id":"levelo_inurba_marseille","lat":43.30301,"lon":5.36904,"is_reserved":false,"is_disabled":false,"rental_uris":{"android":"levelo://app?vid=ea4597ac-56c8-488f-9958-e5d4800c56f7","ios":"levelo://app?vid=ea4597ac-56c8-488f-9958-e5d4800c56f7"},"vehicle_type_id":"4","last_reported":1739970970,"current_range_meters":9200,"station_id":"ce4bgqh2rcd13ifvqc5g","pricing_plan_id":"cebpf4jnsgd1na2vs0mg"},{"bike_id":"f21e4eab-4010-4ae5-a6f3-5e2bfdd054ad","system_id":"levelo_inurba_marseille","lat":43.243475,"lon":5.370276,"is_reserved":false,"is_disabled":false,"rental_uris":{"android":"levelo://app?vid=f21e4eab-4010-4ae5-a6f3-5e2bfdd054ad","ios":"levelo://app?vid=f21e4eab-4010-4ae5-a6f3-5e2bfdd054ad"},"vehicle_type_id":"4","last_reported":1739970970,"current_range_meters":9600,"station_id":"ce4bhhh2rcd13ifvqfk0","pricing_plan_id":"cebpf4jnsgd1na2vs0mg"},{"bike_id":"7c910262-867e-4df0-9a86-b66da29e05e7","system_id":"levelo_inurba_marseille","lat":43.30307,"lon":5.39206,"is_reserved":false,"is_disabled":false,"rental_uris":{"android":"levelo://app?vid=7c910262-867e-4df0-9a86-b66da29e05e7","ios":"levelo://app?vid=7c910262-867e-4df0-9a86-b66da29e05e7"},"vehicle_type_id":"4","last_reported":1739970970,"current_range_meters":9600,"station_id":"ce4bgkh2rcd13ifvqbk0","pricing_plan_id":"cebpf4jnsgd1na2vs0mg"},{"bike_id":"db7f2d58-492d-4297-aa78-ce0ad99a0a74","system_id":"levelo_inurba_marseille","lat":43.27461,"lon":5.41046,"is_reserved":false,"is_disabled":false,"rental_uris":{"android":"levelo://app?vid=db7f2d58-492d-4297-aa78-ce0ad99a0a74","ios":"levelo://app?vid=db7f2d58-492d-4297-aa78-ce0ad99a0a74"},"vehicle_type_id":"4","last_reported":1739970970,"current_range_meters":9600,"station_id":"ce4bhb92rcd13ifvqen0","pricing_plan_id":"cebpf4jnsgd1na2vs0mg"},{"bike_id":"ea1519e7-b5fe-42ac-aa41-a04f66c121d4","system_id":"levelo_inurba_marseille","lat":43.24078,"lon":5.37743,"is_reserved":false,"is_disabled":false,"rental_uris":{"android":"levelo://app?vid=ea1519e7-b5fe-42ac-aa41-a04f66c121d4","ios":"levelo://app?vid=ea1519e7-b5fe-42ac-aa41-a04f66c121d4"},"vehicle_type_id":"4","last_reported":1739970970,"current_range_meters":9600,"station_id":"ce4bhnp2rcd13ifvqgvg","pricing_plan_id":"cebpf4jnsgd1na2vs0mg"},{"bike_id":"f06e9da7-55e1-4f7c-af34-7a7971579920","system_id":"levelo_inurba_marseille","lat":43.26563,"lon":5.37292,"is_reserved":false,"is_disabled":false,"rental_uris":{"android":"levelo://app?vid=f06e9da7-55e1-4f7c-af34-7a7971579920","ios":"levelo://app?vid=f06e9da7-55e1-4f7c-af34-7a7971579920"},"vehicle_type_id":"4","last_reported":1739970970,"current_range_meters":10000,"station_id":"ce4bhg12rcd13ifvqf70","pricing_plan_id":"cebpf4jnsgd1na2vs0mg"},{"bike_id":"03436235-6585-4104-859e-07d2648d3f25","system_id":"levelo_inurba_marseille","lat":43.29304,"lon":5.37188,"is_reserved":false,"is_disabled":false,"rental_uris":{"android":"levelo://app?vid=03436235-6585-4104-859e-07d2648d3f25","ios":"levelo://app?vid=03436235-6585-4104-859e-07d2648d3f25"},"vehicle_type_id":"4","last_reported":1739970970,"current_range_meters":10800,"station_id":"ce4bgh92rcd13ifvqb40","pricing_plan_id":"cebpf4jnsgd1na2vs0mg"},{"bike_id":"6defbe51-bc6f-4430-b5ab-60dc5cf67e7b","system_id":"levelo_inurba_marseille","lat":43.24179,"lon":5.39716,"is_reserved":false,"is_disabled":false,"rental_uris":{"android":"levelo://app?vid=6defbe51-bc6f-4430-b5ab-60dc5cf67e7b","ios":"levelo://app?vid=6defbe51-bc6f-4430-b5ab-60dc5cf67e7b"},"vehicle_type_id":"4","last_reported":1739970970,"current_range_meters":10800,"station_id":"ce4bhn12rcd13ifvqgpg","pricing_plan_id":"cebpf4jnsgd1na2vs0mg"},{"bike_id":"6f6b5944-b39f-4efa-a218-d5c844451d6c","system_id":"levelo_inurba_marseille","lat":43.27994,"lon":5.40011,"is_reserved":false,"is_disabled":false,"rental_uris":{"android":"levelo://app?vid=6f6b5944-b39f-4efa-a218-d5c844451d6c","ios":"levelo://app?vid=6f6b5944-b39f-4efa-a218-d5c844451d6c"},"vehicle_type_id":"4","last_reported":1739970970,"current_range_meters":11200,"station_id":"ce4bho92rcd13ifvqh4g","pricing_plan_id":"cebpf4jnsgd1na2vs0mg"},{"bike_id":"95c8b410-ce60-495e-b64d-6dd8c311d5cc","system_id":"levelo_inurba_marseille","lat":43.28475,"lon":5.38414,"is_reserved":false,"is_disabled":false,"rental_uris":{"android":"levelo://app?vid=95c8b410-ce60-495e-b64d-6dd8c311d5cc","ios":"levelo://app?vid=95c8b410-ce60-495e-b64d-6dd8c311d5cc"},"vehicle_type_id":"4","last_reported":1739970970,"current_range_meters":11200,"station_id":"ce4bh512rcd13ifvqe3g","pricing_plan_id":"cebpf4jnsgd1na2vs0mg"},{"bike_id":"f027fe38-3f5d-42fa-b16a-68ca60104c09","system_id":"levelo_inurba_marseille","lat":43.24173,"lon":5.36401,"is_reserved":false,"is_disabled":false,"rental_uris":{"android":"levelo://app?vid=f027fe38-3f5d-42fa-b16a-68ca60104c09","ios":"levelo://app?vid=f027fe38-3f5d-42fa-b16a-68ca60104c09"},"vehicle_type_id":"4","last_reported":1739970970,"current_range_meters":11200,"station_id":"","pricing_plan_id":"cebpf4jnsgd1na2vs0mg"},{"bike_id":"2b80f493-50a9-418d-8cac-facf363b4ea8","system_id":"levelo_inurba_marseille","lat":43.3302,"lon":5.39036,"is_reserved":false,"is_disabled":false,"rental_uris":{"android":"levelo://app?vid=2b80f493-50a9-418d-8cac-facf363b4ea8","ios":"levelo://app?vid=2b80f493-50a9-418d-8cac-facf363b4ea8"},"vehicle_type_id":"4","last_reported":1739970970,"current_range_meters":11200,"station_id":"ce4bhr92rcd13ifvqhrg","pricing_plan_id":"cebpf4jnsgd1na2vs0mg"},{"bike_id":"bd354dd3-6006-4e9f-90f1-63f0410f8583","system_id":"levelo_inurba_marseille","lat":43.27375,"lon":5.36256,"is_reserved":false,"is_disabled":false,"rental_uris":{"android":"levelo://app?vid=bd354dd3-6006-4e9f-90f1-63f0410f8583","ios":"levelo://app?vid=bd354dd3-6006-4e9f-90f1-63f0410f8583"},"vehicle_type_id":"4","last_reported":1739970970,"current_range_meters":11200,"station_id":"ce4bhbh2rcd13ifvqeo0","pricing_plan_id":"cebpf4jnsgd1na2vs0mg"},{"bike_id":"c186b769-21b0-4010-925d-7e3b55aba84a","system_id":"levelo_inurba_marseille","lat":43.30153,"lon":5.38085,"is_reserved":false,"is_disabled":false,"rental_uris":{"android":"levelo://app?vid=c186b769-21b0-4010-925d-7e3b55aba84a","ios":"levelo://app?vid=c186b769-21b0-4010-925d-7e3b55aba84a"},"vehicle_type_id":"4","last_reported":1739970970,"current_range_meters":11600,"station_id":"ce4bgjp2rcd13ifvqbh0","pricing_plan_id":"cebpf4jnsgd1na2vs0mg"},{"bike_id":"63c4cf47-dbff-4d5e-a88a-080b99df99de","system_id":"levelo_inurba_marseille","lat":43.2953,"lon":5.38889,"is_reserved":false,"is_disabled":true,"rental_uris":{"android":"levelo://app?vid=63c4cf47-dbff-4d5e-a88a-080b99df99de","ios":"levelo://app?vid=63c4cf47-dbff-4d5e-a88a-080b99df99de"},"vehicle_type_id":"4","last_reported":1739970970,"current_range_meters":11600,"station_id":"","pricing_plan_id":"cebpf4jnsgd1na2vs0mg"},{"bike_id":"d1dec037-ee4c-4db9-a655-1087d8ee1f4f","system_id":"levelo_inurba_marseille","lat":43.28444,"lon":5.39175,"is_reserved":false,"is_disabled":true,"rental_uris":{"android":"levelo://app?vid=d1dec037-ee4c-4db9-a655-1087d8ee1f4f","ios":"levelo://app?vid=d1dec037-ee4c-4db9-a655-1087d8ee1f4f"},"vehicle_type_id":"4","last_reported":1739970970,"current_range_meters":11600,"station_id":"","pricing_plan_id":"cebpf4jnsgd1na2vs0mg"},{"bike_id":"1d63a175-89ef-49ff-9ead-dfe9ed6c22cf","system_id":"levelo_inurba_marseille","lat":43.24693,"lon":5.39437,"is_reserved":false,"is_disabled":false,"rental_uris":{"android":"levelo://app?vid=1d63a175-89ef-49ff-9ead-dfe9ed6c22cf","ios":"levelo://app?vid=1d63a175-89ef-49ff-9ead-dfe9ed6c22cf"},"vehicle_type_id":"4","last_reported":1739970970,"current_range_meters":11600,"station_id":"","pricing_plan_id":"cebpf4jnsgd1na2vs0mg"},{"bike_id":"f274f312-68ca-45d0-8230-632bc1110b1a","system_id":"levelo_inurba_marseille","lat":43.30152,"lon":5.38086,"is_reserved":false,"is_disabled":false,"rental_uris":{"android":"levelo://app?vid=f274f312-68ca-45d0-8230-632bc1110b1a","ios":"levelo://app?vid=f274f312-68ca-45d0-8230-632bc1110b1a"},"vehicle_type_id":"4","last_reported":1739970970,"current_range_meters":12000,"station_id":"ce4bgjp2rcd13ifvqbh0","pricing_plan_id":"cebpf4jnsgd1na2vs0mg"},{"bike_id":"87a627da-e4b0-4a18-8633-fd19bb219ca1","system_id":"levelo_inurba_marseille","lat":43.25037,"lon":5.38935,"is_reserved":false,"is_disabled":false,"rental_uris":{"android":"levelo://app?vid=87a627da-e4b0-4a18-8633-fd19bb219ca1","ios":"levelo://app?vid=87a627da-e4b0-4a18-8633-fd19bb219ca1"},"vehicle_type_id":"4","last_reported":1739970970,"current_range_meters":12000,"station_id":"ce4bhgp2rcd13ifvqfd0","pricing_plan_id":"cebpf4jnsgd1na2vs0mg"},{"bike_id":"f1ef0f2b-aceb-4fe1-8e45-90f1104684ec","system_id":"levelo_inurba_marseille","lat":43.30969,"lon":5.39055,"is_reserved":false,"is_disabled":false,"rental_uris":{"android":"levelo://app?vid=f1ef0f2b-aceb-4fe1-8e45-90f1104684ec","ios":"levelo://app?vid=f1ef0f2b-aceb-4fe1-8e45-90f1104684ec"},"vehicle_type_id":"4","last_reported":1739970970,"current_range_meters":12000,"station_id":"ce4bgup2rcd13ifvqco0","pricing_plan_id":"cebpf4jnsgd1na2vs0mg"},{"bike_id":"fe761bfe-7253-4fed-b1e6-8d3266db2a8a","system_id":"levelo_inurba_marseille","lat":43.29893,"lon":5.43659,"is_reserved":false,"is_disabled":false,"rental_uris":{"android":"levelo://app?vid=fe761bfe-7253-4fed-b1e6-8d3266db2a8a","ios":"levelo://app?vid=fe761bfe-7253-4fed-b1e6-8d3266db2a8a"},"vehicle_type_id":"4","last_reported":1739970970,"current_range_meters":12000,"station_id":"ce4bhpp2rcd13ifvqhfg","pricing_plan_id":"cebpf4jnsgd1na2vs0mg"},{"bike_id":"a00fb5cd-e0d2-4f96-befb-5275c0df0c87","system_id":"levelo_inurba_marseille","lat":43.28015,"lon":5.41667,"is_reserved":false,"is_disabled":false,"rental_uris":{"android":"levelo://app?vid=a00fb5cd-e0d2-4f96-befb-5275c0df0c87","ios":"levelo://app?vid=a00fb5cd-e0d2-4f96-befb-5275c0df0c87"},"vehicle_type_id":"4","last_reported":1739970970,"current_range_meters":12400,"station_id":"ce4bho12rcd13ifvqh1g","pricing_plan_id":"cebpf4jnsgd1na2vs0mg"},{"bike_id":"c67fb496-8441-458a-af2d-8f07c087bdd0","system_id":"levelo_inurba_marseille","lat":43.24183,"lon":5.36386,"is_reserved":false,"is_disabled":true,"rental_uris":{"android":"levelo://app?vid=c67fb496-8441-458a-af2d-8f07c087bdd0","ios":"levelo://app?vid=c67fb496-8441-458a-af2d-8f07c087bdd0"},"vehicle_type_id":"4","last_reported":1739970970,"current_range_meters":12400,"station_id":"","pricing_plan_id":"cebpf4jnsgd1na2vs0mg"},{"bike_id":"24dd12c1-4d8a-40c0-b521-a98d2d462c41","system_id":"levelo_inurba_marseille","lat":43.24156,"lon":5.36415,"is_reserved":false,"is_disabled":false,"rental_uris":{"android":"levelo://app?vid=24dd12c1-4d8a-40c0-b521-a98d2d462c41","ios":"levelo://app?vid=24dd12c1-4d8a-40c0-b521-a98d2d462c41"},"vehicle_type_id":"4","last_reported":1739970970,"current_range_meters":12400,"station_id":"","pricing_plan_id":"cebpf4jnsgd1na2vs0mg"},{"bike_id":"62613826-4aec-4f29-8a06-e60f5f637ded","system_id":"levelo_inurba_marseille","lat":43.30545,"lon":5.36536,"is_reserved":false,"is_disabled":false,"rental_uris":{"android":"levelo://app?vid=62613826-4aec-4f29-8a06-e60f5f637ded","ios":"levelo://app?vid=62613826-4aec-4f29-8a06-e60f5f637ded"},"vehicle_type_id":"4","last_reported":1739970970,"current_range_meters":12400,"station_id":"ce4bgs12rcd13ifvqcag","pricing_plan_id":"cebpf4jnsgd1na2vs0mg"},{"bike_id":"0215c6b1-a53b-4c3f-ad8e-4cbaa59c5dcf","system_id":"levelo_inurba_marseille","lat":43.24167,"lon":5.36401,"is_reserved":false,"is_disabled":false,"rental_uris":{"android":"levelo://app?vid=0215c6b1-a53b-4c3f-ad8e-4cbaa59c5dcf","ios":"levelo://app?vid=0215c6b1-a53b-4c3f-ad8e-4cbaa59c5dcf"},"vehicle_type_id":"4","last_reported":1739970970,"current_range_meters":12400,"station_id":"","pricing_plan_id":"cebpf4jnsgd1na2vs0mg"},{"bike_id":"34d14ec0-9a1d-4d07-8158-52ff5d0c0371","system_id":"levelo_inurba_marseille","lat":43.29421,"lon":5.38043,"is_reserved":false,"is_disabled":false,"rental_uris":{"android":"levelo://app?vid=34d14ec0-9a1d-4d07-8158-52ff5d0c0371","ios":"levelo://app?vid=34d14ec0-9a1d-4d07-8158-52ff5d0c0371"},"vehicle_type_id":"4","last_reported":1739970970,"current_range_meters":12800,"station_id":"","pricing_plan_id":"cebpf4jnsgd1na2vs0mg"},{"bike_id":"3afb0743-af39-4578-b6cd-9f7582cf96b6","system_id":"levelo_inurba_marseille","lat":43.25116,"lon":5.4032,"is_reserved":false,"is_disabled":false,"rental_uris":{"android":"levelo://app?vid=3afb0743-af39-4578-b6cd-9f7582cf96b6","ios":"levelo://app?vid=3afb0743-af39-4578-b6cd-9f7582cf96b6"},"vehicle_type_id":"4","last_reported":1739970970,"current_range_meters":12800,"station_id":"","pricing_plan_id":"cebpf4jnsgd1na2vs0mg"},{"bike_id":"e16eef91-01c9-4632-8731-59a4191e36bd","system_id":"levelo_inurba_marseille","lat":43.28981,"lon":5.40072,"is_reserved":false,"is_disabled":false,"rental_uris":{"android":"levelo://app?vid=e16eef91-01c9-4632-8731-59a4191e36bd","ios":"levelo://app?vid=e16eef91-01c9-4632-8731-59a4191e36bd"},"vehicle_type_id":"4","last_reported":1739970970,"current_range_meters":12800,"station_id":"ce4bh392rcd13ifvqdm0","pricing_plan_id":"cebpf4jnsgd1na2vs0mg"},{"bike_id":"0b1a3b32-459a-4ff9-a388-d16482304482","system_id":"levelo_inurba_marseille","lat":43.27998,"lon":5.40014,"is_reserved":false,"is_disabled":false,"rental_uris":{"android":"levelo://app?vid=0b1a3b32-459a-4ff9-a388-d16482304482","ios":"levelo://app?vid=0b1a3b32-459a-4ff9-a388-d16482304482"},"vehicle_type_id":"4","last_reported":1739970970,"current_range_meters":13600,"station_id":"","pricing_plan_id":"cebpf4jnsgd1na2vs0mg"},{"bike_id":"437bb01f-bd3c-49cd-9e3b-6cb22839a2bb","system_id":"levelo_inurba_marseille","lat":43.30528,"lon":5.36516,"is_reserved":false,"is_disabled":false,"rental_uris":{"android":"levelo://app?vid=437bb01f-bd3c-49cd-9e3b-6cb22839a2bb","ios":"levelo://app?vid=437bb01f-bd3c-49cd-9e3b-6cb22839a2bb"},"vehicle_type_id":"4","last_reported":1739970970,"current_range_meters":13600,"station_id":"ce4bgs12rcd13ifvqcag","pricing_plan_id":"cebpf4jnsgd1na2vs0mg"},{"bike_id":"aac5a3cb-3cbf-4693-aa81-76e5166c6bf6","system_id":"levelo_inurba_marseille","lat":43.26199,"lon":5.37914,"is_reserved":false,"is_disabled":false,"rental_uris":{"android":"levelo://app?vid=aac5a3cb-3cbf-4693-aa81-76e5166c6bf6","ios":"levelo://app?vid=aac5a3cb-3cbf-4693-aa81-76e5166c6bf6"},"vehicle_type_id":"4","last_reported":1739970970,"current_range_meters":13600,"station_id":"ce4bhjp2rcd13ifvqg90","pricing_plan_id":"cebpf4jnsgd1na2vs0mg"},{"bike_id":"e3422978-e3d1-4168-a7a6-5ae7ec99e03f","system_id":"levelo_inurba_marseille","lat":43.271761,"lon":5.409879,"is_reserved":false,"is_disabled":false,"rental_uris":{"android":"levelo://app?vid=e3422978-e3d1-4168-a7a6-5ae7ec99e03f","ios":"levelo://app?vid=e3422978-e3d1-4168-a7a6-5ae7ec99e03f"},"vehicle_type_id":"4","last_reported":1739970970,"current_range_meters":13600,"station_id":"","pricing_plan_id":"cebpf4jnsgd1na2vs0mg"},{"bike_id":"fc971b16-bef3-4b6d-813c-ffc8ffa48842","system_id":"levelo_inurba_marseille","lat":43.2841,"lon":5.34986,"is_reserved":false,"is_disabled":true,"rental_uris":{"android":"levelo://app?vid=fc971b16-bef3-4b6d-813c-ffc8ffa48842","ios":"levelo://app?vid=fc971b16-bef3-4b6d-813c-ffc8ffa48842"},"vehicle_type_id":"4","last_reported":1739970970,"current_range_meters":13600,"station_id":"","pricing_plan_id":"cebpf4jnsgd1na2vs0mg"},{"bike_id":"b64778c2-2434-4409-b125-e965a1fd469a","system_id":"levelo_inurba_marseille","lat":43.30305,"lon":5.36683,"is_reserved":false,"is_disabled":false,"rental_uris":{"android":"levelo://app?vid=b64778c2-2434-4409-b125-e965a1fd469a","ios":"levelo://app?vid=b64778c2-2434-4409-b125-e965a1fd469a"},"vehicle_type_id":"4","last_reported":1739970970,"current_range_meters":13600,"station_id":"ce4bgs12rcd13ifvqcag","pricing_plan_id":"cebpf4jnsgd1na2vs0mg"},{"bike_id":"5180f318-4948-4085-aaf1-5f3160b57dbe","system_id":"levelo_inurba_marseille","lat":43.27619,"lon":5.36109,"is_reserved":false,"is_disabled":true,"rental_uris":{"android":"levelo://app?vid=5180f318-4948-4085-aaf1-5f3160b57dbe","ios":"levelo://app?vid=5180f318-4948-4085-aaf1-5f3160b57dbe"},"vehicle_type_id":"4","last_reported":1739970970,"current_range_meters":13600,"station_id":"","pricing_plan_id":"cebpf4jnsgd1na2vs0mg"},{"bike_id":"e2596add-e568-49b6-a063-b6868f5c61f8","system_id":"levelo_inurba_marseille","lat":43.24799,"lon":5.37456,"is_reserved":false,"is_disabled":false,"rental_uris":{"android":"levelo://app?vid=e2596add-e568-49b6-a063-b6868f5c61f8","ios":"levelo://app?vid=e2596add-e568-49b6-a063-b6868f5c61f8"},"vehicle_type_id":"4","last_reported":1739970970,"current_range_meters":14000,"station_id":"ce4bhgh2rcd13ifvqfb0","pricing_plan_id":"cebpf4jnsgd1na2vs0mg"},{"bike_id":"79a8de8e-6448-4651-a4fc-e7e896fb3b6a","system_id":"levelo_inurba_marseille","lat":43.25574,"lon":5.38266,"is_reserved":false,"is_disabled":false,"rental_uris":{"android":"levelo://app?vid=79a8de8e-6448-4651-a4fc-e7e896fb3b6a","ios":"levelo://app?vid=79a8de8e-6448-4651-a4fc-e7e896fb3b6a"},"vehicle_type_id":"4","last_reported":1739970970,"current_range_meters":14000,"station_id":"ce4bhih2rcd13ifvqfs0","pricing_plan_id":"cebpf4jnsgd1na2vs0mg"},{"bike_id":"9a20bf4a-2838-4260-9d28-debd745460c0","system_id":"levelo_inurba_marseille","lat":43.3087,"lon":5.37797,"is_reserved":false,"is_disabled":false,"rental_uris":{"android":"levelo://app?vid=9a20bf4a-2838-4260-9d28-debd745460c0","ios":"levelo://app?vid=9a20bf4a-2838-4260-9d28-debd745460c0"},"vehicle_type_id":"4","last_reported":1739970970,"current_range_meters":14000,"station_id":"ce4bgv92rcd13ifvqcq0","pricing_plan_id":"cebpf4jnsgd1na2vs0mg"},{"bike_id":"2f72faba-42ab-4540-969c-9b66f81ea0d9","system_id":"levelo_inurba_marseille","lat":43.30541,"lon":5.36547,"is_reserved":false,"is_disabled":false,"rental_uris":{"android":"levelo://app?vid=2f72faba-42ab-4540-969c-9b66f81ea0d9","ios":"levelo://app?vid=2f72faba-42ab-4540-969c-9b66f81ea0d9"},"vehicle_type_id":"4","last_reported":1739970970,"current_range_meters":14000,"station_id":"ce4bgs12rcd13ifvqcag","pricing_plan_id":"cebpf4jnsgd1na2vs0mg"},{"bike_id":"5b80abf9-df02-44a7-b61b-dd0a85631c27","system_id":"levelo_inurba_marseille","lat":43.23973,"lon":5.36622,"is_reserved":false,"is_disabled":false,"rental_uris":{"android":"levelo://app?vid=5b80abf9-df02-44a7-b61b-dd0a85631c27","ios":"levelo://app?vid=5b80abf9-df02-44a7-b61b-dd0a85631c27"},"vehicle_type_id":"4","last_reported":1739970970,"current_range_meters":14000,"station_id":"","pricing_plan_id":"cebpf4jnsgd1na2vs0mg"},{"bike_id":"ee9a4e26-5e1e-47f6-885a-dc2bf64491e2","system_id":"levelo_inurba_marseille","lat":43.29312,"lon":5.37181,"is_reserved":false,"is_disabled":false,"rental_uris":{"android":"levelo://app?vid=ee9a4e26-5e1e-47f6-885a-dc2bf64491e2","ios":"levelo://app?vid=ee9a4e26-5e1e-47f6-885a-dc2bf64491e2"},"vehicle_type_id":"4","last_reported":1739970970,"current_range_meters":14400,"station_id":"ce4bgh92rcd13ifvqb40","pricing_plan_id":"cebpf4jnsgd1na2vs0mg"},{"bike_id":"5089bb88-a0cd-4434-a1a9-f3d5b67361c6","system_id":"levelo_inurba_marseille","lat":43.24369,"lon":5.38745,"is_reserved":false,"is_disabled":false,"rental_uris":{"android":"levelo://app?vid=5089bb88-a0cd-4434-a1a9-f3d5b67361c6","ios":"levelo://app?vid=5089bb88-a0cd-4434-a1a9-f3d5b67361c6"},"vehicle_type_id":"4","last_reported":1739970970,"current_range_meters":14400,"station_id":"","pricing_plan_id":"cebpf4jnsgd1na2vs0mg"},{"bike_id":"009b5ee7-f82a-48e3-9da6-2f2a84e38b27","system_id":"levelo_inurba_marseille","lat":43.28706,"lon":5.39985,"is_reserved":false,"is_disabled":false,"rental_uris":{"android":"levelo://app?vid=009b5ee7-f82a-48e3-9da6-2f2a84e38b27","ios":"levelo://app?vid=009b5ee7-f82a-48e3-9da6-2f2a84e38b27"},"vehicle_type_id":"4","last_reported":1739970970,"current_range_meters":14400,"station_id":"","pricing_plan_id":"cebpf4jnsgd1na2vs0mg"},{"bike_id":"ba0a4dbe-d370-492e-a789-44c6ef69c02b","system_id":"levelo_inurba_marseille","lat":43.28616,"lon":5.35095,"is_reserved":false,"is_disabled":false,"rental_uris":{"android":"levelo://app?vid=ba0a4dbe-d370-492e-a789-44c6ef69c02b","ios":"levelo://app?vid=ba0a4dbe-d370-492e-a789-44c6ef69c02b"},"vehicle_type_id":"4","last_reported":1739970970,"current_range_meters":14400,"station_id":"ce4bhch2rcd13ifvqeug","pricing_plan_id":"cebpf4jnsgd1na2vs0mg"},{"bike_id":"144f09ab-8746-4a13-8bb3-732ceb21be28","system_id":"levelo_inurba_marseille","lat":43.2972,"lon":5.36608,"is_reserved":false,"is_disabled":false,"rental_uris":{"android":"levelo://app?vid=144f09ab-8746-4a13-8bb3-732ceb21be28","ios":"levelo://app?vid=144f09ab-8746-4a13-8bb3-732ceb21be28"},"vehicle_type_id":"4","last_reported":1739970970,"current_range_meters":14000,"station_id":"ce4bgn12rcd13ifvqbt0","pricing_plan_id":"cebpf4jnsgd1na2vs0mg"},{"bike_id":"5f9ede52-c720-4107-a864-980fb2608395","system_id":"levelo_inurba_marseille","lat":43.24101,"lon":5.3868,"is_reserved":false,"is_disabled":false,"rental_uris":{"android":"levelo://app?vid=5f9ede52-c720-4107-a864-980fb2608395","ios":"levelo://app?vid=5f9ede52-c720-4107-a864-980fb2608395"},"vehicle_type_id":"4","last_reported":1739970970,"current_range_meters":14800,"station_id":"","pricing_plan_id":"cebpf4jnsgd1na2vs0mg"},{"bike_id":"516bafe0-5ae1-4584-8a28-800d99267cec","system_id":"levelo_inurba_marseille","lat":43.27947,"lon":5.41033,"is_reserved":false,"is_disabled":false,"rental_uris":{"android":"levelo://app?vid=516bafe0-5ae1-4584-8a28-800d99267cec","ios":"levelo://app?vid=516bafe0-5ae1-4584-8a28-800d99267cec"},"vehicle_type_id":"4","last_reported":1739970970,"current_range_meters":14800,"station_id":"ce4bhnp2rcd13ifvqh0g","pricing_plan_id":"cebpf4jnsgd1na2vs0mg"},{"bike_id":"c835c6b7-91aa-4f5c-95c8-b13cffbebdef","system_id":"levelo_inurba_marseille","lat":43.27176,"lon":5.40988,"is_reserved":false,"is_disabled":false,"rental_uris":{"android":"levelo://app?vid=c835c6b7-91aa-4f5c-95c8-b13cffbebdef","ios":"levelo://app?vid=c835c6b7-91aa-4f5c-95c8-b13cffbebdef"},"vehicle_type_id":"4","last_reported":1739970970,"current_range_meters":14800,"station_id":"","pricing_plan_id":"cebpf4jnsgd1na2vs0mg"},{"bike_id":"12cc9c97-9da8-4064-8695-437209cc6b5a","system_id":"levelo_inurba_marseille","lat":43.30548,"lon":5.367,"is_reserved":false,"is_disabled":false,"rental_uris":{"android":"levelo://app?vid=12cc9c97-9da8-4064-8695-437209cc6b5a","ios":"levelo://app?vid=12cc9c97-9da8-4064-8695-437209cc6b5a"},"vehicle_type_id":"4","last_reported":1739970970,"current_range_meters":14800,"station_id":"ce4bgrp2rcd13ifvqc9g","pricing_plan_id":"cebpf4jnsgd1na2vs0mg"},{"bike_id":"a9d4cb41-95b0-41f6-a51f-c06b2c214edf","system_id":"levelo_inurba_marseille","lat":43.29048,"lon":5.3996,"is_reserved":false,"is_disabled":false,"rental_uris":{"android":"levelo://app?vid=a9d4cb41-95b0-41f6-a51f-c06b2c214edf","ios":"levelo://app?vid=a9d4cb41-95b0-41f6-a51f-c06b2c214edf"},"vehicle_type_id":"4","last_reported":1739970970,"current_range_meters":14800,"station_id":"ce4bh392rcd13ifvqdm0","pricing_plan_id":"cebpf4jnsgd1na2vs0mg"},{"bike_id":"a0af3547-0f5a-4ee7-a39d-23ed992db956","system_id":"levelo_inurba_marseille","lat":43.23418,"lon":5.40452,"is_reserved":false,"is_disabled":false,"rental_uris":{"android":"levelo://app?vid=a0af3547-0f5a-4ee7-a39d-23ed992db956","ios":"levelo://app?vid=a0af3547-0f5a-4ee7-a39d-23ed992db956"},"vehicle_type_id":"4","last_reported":1739970970,"current_range_meters":15200,"station_id":"","pricing_plan_id":"cebpf4jnsgd1na2vs0mg"},{"bike_id":"af246186-84c5-47ac-9840-acf8926725e0","system_id":"levelo_inurba_marseille","lat":43.23945,"lon":5.36638,"is_reserved":false,"is_disabled":false,"rental_uris":{"android":"levelo://app?vid=af246186-84c5-47ac-9840-acf8926725e0","ios":"levelo://app?vid=af246186-84c5-47ac-9840-acf8926725e0"},"vehicle_type_id":"4","last_reported":1739970970,"current_range_meters":15200,"station_id":"","pricing_plan_id":"cebpf4jnsgd1na2vs0mg"},{"bike_id":"cfeac4a1-bbff-44c4-b097-d2eda5ac70f8","system_id":"levelo_inurba_marseille","lat":43.31223,"lon":5.36873,"is_reserved":false,"is_disabled":false,"rental_uris":{"android":"levelo://app?vid=cfeac4a1-bbff-44c4-b097-d2eda5ac70f8","ios":"levelo://app?vid=cfeac4a1-bbff-44c4-b097-d2eda5ac70f8"},"vehicle_type_id":"4","last_reported":1739970970,"current_range_meters":15200,"station_id":"ce4bgl92rcd13ifvqbq0","pricing_plan_id":"cebpf4jnsgd1na2vs0mg"},{"bike_id":"b919bd2e-ad4d-4728-82d1-a2685a4f967b","system_id":"levelo_inurba_marseille","lat":43.28979,"lon":5.37837,"is_reserved":false,"is_disabled":false,"rental_uris":{"android":"levelo://app?vid=b919bd2e-ad4d-4728-82d1-a2685a4f967b","ios":"levelo://app?vid=b919bd2e-ad4d-4728-82d1-a2685a4f967b"},"vehicle_type_id":"4","last_reported":1739970970,"current_range_meters":15200,"station_id":"ce4bh9p2rcd13ifvqed0","pricing_plan_id":"cebpf4jnsgd1na2vs0mg"},{"bike_id":"ba6293f6-c5a3-4b1d-b111-439b722346cc","system_id":"levelo_inurba_marseille","lat":43.26574,"lon":5.37296,"is_reserved":false,"is_disabled":false,"rental_uris":{"android":"levelo://app?vid=ba6293f6-c5a3-4b1d-b111-439b722346cc","ios":"levelo://app?vid=ba6293f6-c5a3-4b1d-b111-439b722346cc"},"vehicle_type_id":"4","last_reported":1739970970,"current_range_meters":16000,"station_id":"ce4bhg12rcd13ifvqf70","pricing_plan_id":"cebpf4jnsgd1na2vs0mg"},{"bike_id":"b85644ed-f65a-4039-a397-da921e97276e","system_id":"levelo_inurba_marseille","lat":43.23967,"lon":5.36626,"is_reserved":false,"is_disabled":false,"rental_uris":{"android":"levelo://app?vid=b85644ed-f65a-4039-a397-da921e97276e","ios":"levelo://app?vid=b85644ed-f65a-4039-a397-da921e97276e"},"vehicle_type_id":"4","last_reported":1739970970,"current_range_meters":16000,"station_id":"ce4bhi12rcd13ifvqfp0","pricing_plan_id":"cebpf4jnsgd1na2vs0mg"},{"bike_id":"f3b534ab-b8bc-4fae-80f5-bda2991a7e07","system_id":"levelo_inurba_marseille","lat":43.30633,"lon":5.4009,"is_reserved":false,"is_disabled":false,"rental_uris":{"android":"levelo://app?vid=f3b534ab-b8bc-4fae-80f5-bda2991a7e07","ios":"levelo://app?vid=f3b534ab-b8bc-4fae-80f5-bda2991a7e07"},"vehicle_type_id":"4","last_reported":1739970970,"current_range_meters":9600,"station_id":"ce4bh112rcd13ifvqda0","pricing_plan_id":"cebpf4jnsgd1na2vs0mg"},{"bike_id":"259617e0-e7e9-4a4d-aee7-15927e833679","system_id":"levelo_inurba_marseille","lat":43.26556,"lon":5.39002,"is_reserved":false,"is_disabled":false,"rental_uris":{"android":"levelo://app?vid=259617e0-e7e9-4a4d-aee7-15927e833679","ios":"levelo://app?vid=259617e0-e7e9-4a4d-aee7-15927e833679"},"vehicle_type_id":"4","last_reported":1739970970,"current_range_meters":16000,"station_id":"","pricing_plan_id":"cebpf4jnsgd1na2vs0mg"},{"bike_id":"b6c19897-8357-4e26-ab4b-d747ed6fe9e9","system_id":"levelo_inurba_marseille","lat":43.27569,"lon":5.38422,"is_reserved":false,"is_disabled":false,"rental_uris":{"android":"levelo://app?vid=b6c19897-8357-4e26-ab4b-d747ed6fe9e9","ios":"levelo://app?vid=b6c19897-8357-4e26-ab4b-d747ed6fe9e9"},"vehicle_type_id":"4","last_reported":1739970970,"current_range_meters":16000,"station_id":"ce4bhh92rcd13ifvqfi0","pricing_plan_id":"cebpf4jnsgd1na2vs0mg"},{"bike_id":"bea52ef0-c8a0-4690-a230-4954bd8469e5","system_id":"levelo_inurba_marseille","lat":43.29859,"lon":5.36282,"is_reserved":false,"is_disabled":false,"rental_uris":{"android":"levelo://app?vid=bea52ef0-c8a0-4690-a230-4954bd8469e5","ios":"levelo://app?vid=bea52ef0-c8a0-4690-a230-4954bd8469e5"},"vehicle_type_id":"4","last_reported":1739970970,"current_range_meters":16000,"station_id":"ce4bgpp2rcd13ifvqc3g","pricing_plan_id":"cebpf4jnsgd1na2vs0mg"},{"bike_id":"82de7fdf-fb6e-4296-bdd1-ecdfb5778c65","system_id":"levelo_inurba_marseille","lat":43.23156,"lon":5.43716,"is_reserved":false,"is_disabled":false,"rental_uris":{"android":"levelo://app?vid=82de7fdf-fb6e-4296-bdd1-ecdfb5778c65","ios":"levelo://app?vid=82de7fdf-fb6e-4296-bdd1-ecdfb5778c65"},"vehicle_type_id":"4","last_reported":1739970970,"current_range_meters":16000,"station_id":"ce4bhmp2rcd13ifvqgog","pricing_plan_id":"cebpf4jnsgd1na2vs0mg"},{"bike_id":"4df47e88-41bc-4b68-b0d1-97f3b41c726a","system_id":"levelo_inurba_marseille","lat":43.30143,"lon":5.39852,"is_reserved":false,"is_disabled":false,"rental_uris":{"android":"levelo://app?vid=4df47e88-41bc-4b68-b0d1-97f3b41c726a","ios":"levelo://app?vid=4df47e88-41bc-4b68-b0d1-97f3b41c726a"},"vehicle_type_id":"4","last_reported":1739970970,"current_range_meters":16000,"station_id":"ce4bh0h2rcd13ifvqd40","pricing_plan_id":"cebpf4jnsgd1na2vs0mg"},{"bike_id":"f165ded4-0b1f-4a47-b998-22beb8a2e7b2","system_id":"levelo_inurba_marseille","lat":43.28276,"lon":5.35077,"is_reserved":false,"is_disabled":false,"rental_uris":{"android":"levelo://app?vid=f165ded4-0b1f-4a47-b998-22beb8a2e7b2","ios":"levelo://app?vid=f165ded4-0b1f-4a47-b998-22beb8a2e7b2"},"vehicle_type_id":"4","last_reported":1739970970,"current_range_meters":16000,"station_id":"ce4bhbp2rcd13ifvqerg","pricing_plan_id":"cebpf4jnsgd1na2vs0mg"},{"bike_id":"6ff4323b-2b44-42c8-8509-a0cabceabaef","system_id":"levelo_inurba_marseille","lat":43.29266,"lon":5.38455,"is_reserved":false,"is_disabled":false,"rental_uris":{"android":"levelo://app?vid=6ff4323b-2b44-42c8-8509-a0cabceabaef","ios":"levelo://app?vid=6ff4323b-2b44-42c8-8509-a0cabceabaef"},"vehicle_type_id":"4","last_reported":1739970970,"current_range_meters":16000,"station_id":"ce4bh692rcd13ifvqea0","pricing_plan_id":"cebpf4jnsgd1na2vs0mg"},{"bike_id":"68ba16ce-a5d9-458a-afcb-e2e285ce3166","system_id":"levelo_inurba_marseille","lat":43.284705,"lon":5.384232,"is_reserved":false,"is_disabled":false,"rental_uris":{"android":"levelo://app?vid=68ba16ce-a5d9-458a-afcb-e2e285ce3166","ios":"levelo://app?vid=68ba16ce-a5d9-458a-afcb-e2e285ce3166"},"vehicle_type_id":"4","last_reported":1739970970,"current_range_meters":16000,"station_id":"ce4bh512rcd13ifvqe3g","pricing_plan_id":"cebpf4jnsgd1na2vs0mg"},{"bike_id":"91017304-ea90-4c44-ab32-3a7b91ebe951","system_id":"levelo_inurba_marseille","lat":43.30469,"lon":5.37899,"is_reserved":false,"is_disabled":false,"rental_uris":{"android":"levelo://app?vid=91017304-ea90-4c44-ab32-3a7b91ebe951","ios":"levelo://app?vid=91017304-ea90-4c44-ab32-3a7b91ebe951"},"vehicle_type_id":"4","last_reported":1739970970,"current_range_meters":16000,"station_id":"","pricing_plan_id":"cebpf4jnsgd1na2vs0mg"},{"bike_id":"eb75e2ac-b61e-4c90-95cb-c16878504d94","system_id":"levelo_inurba_marseille","lat":43.26563,"lon":5.39004,"is_reserved":false,"is_disabled":false,"rental_uris":{"android":"levelo://app?vid=eb75e2ac-b61e-4c90-95cb-c16878504d94","ios":"levelo://app?vid=eb75e2ac-b61e-4c90-95cb-c16878504d94"},"vehicle_type_id":"4","last_reported":1739970970,"current_range_meters":16000,"station_id":"ce4bhe12rcd13ifvqf30","pricing_plan_id":"cebpf4jnsgd1na2vs0mg"},{"bike_id":"5428c4a6-2268-45c5-aff9-a5f8e308d92b","system_id":"levelo_inurba_marseille","lat":43.30917,"lon":5.37256,"is_reserved":false,"is_disabled":false,"rental_uris":{"android":"levelo://app?vid=5428c4a6-2268-45c5-aff9-a5f8e308d92b","ios":"levelo://app?vid=5428c4a6-2268-45c5-aff9-a5f8e308d92b"},"vehicle_type_id":"4","last_reported":1739970970,"current_range_meters":16400,"station_id":"ce4bguh2rcd13ifvqckg","pricing_plan_id":"cebpf4jnsgd1na2vs0mg"},{"bike_id":"eea53ece-49bb-4ab5-9642-ef74284e4e2b","system_id":"levelo_inurba_marseille","lat":43.27065,"lon":5.40271,"is_reserved":false,"is_disabled":false,"rental_uris":{"android":"levelo://app?vid=eea53ece-49bb-4ab5-9642-ef74284e4e2b","ios":"levelo://app?vid=eea53ece-49bb-4ab5-9642-ef74284e4e2b"},"vehicle_type_id":"4","last_reported":1739970970,"current_range_meters":16400,"station_id":"ce4bhk92rcd13ifvqgc0","pricing_plan_id":"cebpf4jnsgd1na2vs0mg"},{"bike_id":"c7cd0f4d-e049-4efa-9fba-d2b6f0a2a591","system_id":"levelo_inurba_marseille","lat":43.3009,"lon":5.39095,"is_reserved":false,"is_disabled":false,"rental_uris":{"android":"levelo://app?vid=c7cd0f4d-e049-4efa-9fba-d2b6f0a2a591","ios":"levelo://app?vid=c7cd0f4d-e049-4efa-9fba-d2b6f0a2a591"},"vehicle_type_id":"4","last_reported":1739970970,"current_range_meters":16400,"station_id":"","pricing_plan_id":"cebpf4jnsgd1na2vs0mg"},{"bike_id":"e5e2ed65-0a50-46fd-af77-1264dac67336","system_id":"levelo_inurba_marseille","lat":43.24171,"lon":5.36404,"is_reserved":false,"is_disabled":false,"rental_uris":{"android":"levelo://app?vid=e5e2ed65-0a50-46fd-af77-1264dac67336","ios":"levelo://app?vid=e5e2ed65-0a50-46fd-af77-1264dac67336"},"vehicle_type_id":"4","last_reported":1739970970,"current_range_meters":16400,"station_id":"","pricing_plan_id":"cebpf4jnsgd1na2vs0mg"},{"bike_id":"6c695163-13d1-4682-b513-311ea8d75027","system_id":"levelo_inurba_marseille","lat":43.31215,"lon":5.36852,"is_reserved":false,"is_disabled":false,"rental_uris":{"android":"levelo://app?vid=6c695163-13d1-4682-b513-311ea8d75027","ios":"levelo://app?vid=6c695163-13d1-4682-b513-311ea8d75027"},"vehicle_type_id":"4","last_reported":1739970970,"current_range_meters":16400,"station_id":"ce4bgl92rcd13ifvqbq0","pricing_plan_id":"cebpf4jnsgd1na2vs0mg"},{"bike_id":"130dbd14-95cd-4cf6-87be-f089146125df","system_id":"levelo_inurba_marseille","lat":43.29613,"lon":5.37724,"is_reserved":false,"is_disabled":false,"rental_uris":{"android":"levelo://app?vid=130dbd14-95cd-4cf6-87be-f089146125df","ios":"levelo://app?vid=130dbd14-95cd-4cf6-87be-f089146125df"},"vehicle_type_id":"4","last_reported":1739970970,"current_range_meters":16400,"station_id":"ce4bgi92rcd13ifvqb90","pricing_plan_id":"cebpf4jnsgd1na2vs0mg"},{"bike_id":"521c07ee-8f56-418c-9167-93791e255dc4","system_id":"levelo_inurba_marseille","lat":43.28719,"lon":5.37926,"is_reserved":false,"is_disabled":false,"rental_uris":{"android":"levelo://app?vid=521c07ee-8f56-418c-9167-93791e255dc4","ios":"levelo://app?vid=521c07ee-8f56-418c-9167-93791e255dc4"},"vehicle_type_id":"4","last_reported":1739970970,"current_range_meters":16400,"station_id":"ce4bh9p2rcd13ifvqec0","pricing_plan_id":"cebpf4jnsgd1na2vs0mg"},{"bike_id":"e438f04d-52d0-4276-8792-dfe1d546a476","system_id":"levelo_inurba_marseille","lat":43.28476,"lon":5.38429,"is_reserved":false,"is_disabled":false,"rental_uris":{"android":"levelo://app?vid=e438f04d-52d0-4276-8792-dfe1d546a476","ios":"levelo://app?vid=e438f04d-52d0-4276-8792-dfe1d546a476"},"vehicle_type_id":"4","last_reported":1739970970,"current_range_meters":16800,"station_id":"ce4bh512rcd13ifvqe3g","pricing_plan_id":"cebpf4jnsgd1na2vs0mg"},{"bike_id":"ba379239-9216-4e46-a96c-a73988d910ff","system_id":"levelo_inurba_marseille","lat":43.26489,"lon":5.37146,"is_reserved":false,"is_disabled":false,"rental_uris":{"android":"levelo://app?vid=ba379239-9216-4e46-a96c-a73988d910ff","ios":"levelo://app?vid=ba379239-9216-4e46-a96c-a73988d910ff"},"vehicle_type_id":"4","last_reported":1739970970,"current_range_meters":16800,"station_id":"","pricing_plan_id":"cebpf4jnsgd1na2vs0mg"},{"bike_id":"94ce4c1f-b676-43e1-9e28-ed9f6f6c8e2b","system_id":"levelo_inurba_marseille","lat":43.23628,"lon":5.39161,"is_reserved":false,"is_disabled":false,"rental_uris":{"android":"levelo://app?vid=94ce4c1f-b676-43e1-9e28-ed9f6f6c8e2b","ios":"levelo://app?vid=94ce4c1f-b676-43e1-9e28-ed9f6f6c8e2b"},"vehicle_type_id":"4","last_reported":1739970970,"current_range_meters":16800,"station_id":"","pricing_plan_id":"cebpf4jnsgd1na2vs0mg"},{"bike_id":"50255b81-f556-41bf-82d2-0b207904bf36","system_id":"levelo_inurba_marseille","lat":43.26063,"lon":5.3941,"is_reserved":false,"is_disabled":false,"rental_uris":{"android":"levelo://app?vid=50255b81-f556-41bf-82d2-0b207904bf36","ios":"levelo://app?vid=50255b81-f556-41bf-82d2-0b207904bf36"},"vehicle_type_id":"4","last_reported":1739970970,"current_range_meters":16800,"station_id":"ce4bhh92rcd13ifvqfj0","pricing_plan_id":"cebpf4jnsgd1na2vs0mg"},{"bike_id":"3a8878f9-a6e8-4746-94ba-c5fa09f96d63","system_id":"levelo_inurba_marseille","lat":43.26567,"lon":5.38988,"is_reserved":false,"is_disabled":false,"rental_uris":{"android":"levelo://app?vid=3a8878f9-a6e8-4746-94ba-c5fa09f96d63","ios":"levelo://app?vid=3a8878f9-a6e8-4746-94ba-c5fa09f96d63"},"vehicle_type_id":"4","last_reported":1739970970,"current_range_meters":16800,"station_id":"ce4bhe12rcd13ifvqf30","pricing_plan_id":"cebpf4jnsgd1na2vs0mg"},{"bike_id":"3cf409db-ea1f-40ef-9a60-ba2f1f323925","system_id":"levelo_inurba_marseille","lat":43.2417,"lon":5.39727,"is_reserved":false,"is_disabled":false,"rental_uris":{"android":"levelo://app?vid=3cf409db-ea1f-40ef-9a60-ba2f1f323925","ios":"levelo://app?vid=3cf409db-ea1f-40ef-9a60-ba2f1f323925"},"vehicle_type_id":"4","last_reported":1739970970,"current_range_meters":16800,"station_id":"ce4bhn12rcd13ifvqgpg","pricing_plan_id":"cebpf4jnsgd1na2vs0mg"},{"bike_id":"c7ee424a-1f6e-41a9-88df-fa558c2092c3","system_id":"levelo_inurba_marseille","lat":43.29811,"lon":5.38098,"is_reserved":false,"is_disabled":false,"rental_uris":{"android":"levelo://app?vid=c7ee424a-1f6e-41a9-88df-fa558c2092c3","ios":"levelo://app?vid=c7ee424a-1f6e-41a9-88df-fa558c2092c3"},"vehicle_type_id":"4","last_reported":1739970970,"current_range_meters":16400,"station_id":"ce4bgip2rcd13ifvqbb0","pricing_plan_id":"cebpf4jnsgd1na2vs0mg"},{"bike_id":"de2ead57-8716-416e-912e-e8907dd9a8bc","system_id":"levelo_inurba_marseille","lat":43.30468,"lon":5.379,"is_reserved":false,"is_disabled":false,"rental_uris":{"android":"levelo://app?vid=de2ead57-8716-416e-912e-e8907dd9a8bc","ios":"levelo://app?vid=de2ead57-8716-416e-912e-e8907dd9a8bc"},"vehicle_type_id":"4","last_reported":1739970970,"current_range_meters":16800,"station_id":"ce4bgup2rcd13ifvqcn0","pricing_plan_id":"cebpf4jnsgd1na2vs0mg"},{"bike_id":"5f3d59fe-f484-434a-b30c-fb9f9124213e","system_id":"levelo_inurba_marseille","lat":43.30553,"lon":5.36534,"is_reserved":false,"is_disabled":false,"rental_uris":{"android":"levelo://app?vid=5f3d59fe-f484-434a-b30c-fb9f9124213e","ios":"levelo://app?vid=5f3d59fe-f484-434a-b30c-fb9f9124213e"},"vehicle_type_id":"4","last_reported":1739970970,"current_range_meters":16800,"station_id":"ce4bgs12rcd13ifvqcag","pricing_plan_id":"cebpf4jnsgd1na2vs0mg"},{"bike_id":"e645b05d-0c39-4cb8-bea8-ed8cefac4a7d","system_id":"levelo_inurba_marseille","lat":43.26565,"lon":5.39001,"is_reserved":false,"is_disabled":false,"rental_uris":{"android":"levelo://app?vid=e645b05d-0c39-4cb8-bea8-ed8cefac4a7d","ios":"levelo://app?vid=e645b05d-0c39-4cb8-bea8-ed8cefac4a7d"},"vehicle_type_id":"4","last_reported":1739970970,"current_range_meters":16800,"station_id":"ce4bhe12rcd13ifvqf30","pricing_plan_id":"cebpf4jnsgd1na2vs0mg"},{"bike_id":"10b0cf0a-8e41-4b4c-b8c4-e78c91fe87e7","system_id":"levelo_inurba_marseille","lat":43.29266,"lon":5.37613,"is_reserved":false,"is_disabled":false,"rental_uris":{"android":"levelo://app?vid=10b0cf0a-8e41-4b4c-b8c4-e78c91fe87e7","ios":"levelo://app?vid=10b0cf0a-8e41-4b4c-b8c4-e78c91fe87e7"},"vehicle_type_id":"4","last_reported":1739970970,"current_range_meters":17200,"station_id":"ce4bgi12rcd13ifvqb80","pricing_plan_id":"cebpf4jnsgd1na2vs0mg"},{"bike_id":"f5da6bc4-7230-44a1-a042-48958309073f","system_id":"levelo_inurba_marseille","lat":43.26929,"lon":5.40254,"is_reserved":false,"is_disabled":false,"rental_uris":{"android":"levelo://app?vid=f5da6bc4-7230-44a1-a042-48958309073f","ios":"levelo://app?vid=f5da6bc4-7230-44a1-a042-48958309073f"},"vehicle_type_id":"4","last_reported":1739970970,"current_range_meters":17200,"station_id":"cjm6bp8fraef2m0cb0m0","pricing_plan_id":"cebpf4jnsgd1na2vs0mg"},{"bike_id":"6c9c8bd6-ad0f-4b8d-a2bc-9a73d0c24657","system_id":"levelo_inurba_marseille","lat":43.31374,"lon":5.36696,"is_reserved":false,"is_disabled":false,"rental_uris":{"android":"levelo://app?vid=6c9c8bd6-ad0f-4b8d-a2bc-9a73d0c24657","ios":"levelo://app?vid=6c9c8bd6-ad0f-4b8d-a2bc-9a73d0c24657"},"vehicle_type_id":"4","last_reported":1739970970,"current_range_meters":17200,"station_id":"ce4bgt92rcd13ifvqcf0","pricing_plan_id":"cebpf4jnsgd1na2vs0mg"},{"bike_id":"4b0def63-34a8-44bf-a4b2-a9e4e6186839","system_id":"levelo_inurba_marseille","lat":43.31481,"lon":5.37267,"is_reserved":false,"is_disabled":false,"rental_uris":{"android":"levelo://app?vid=4b0def63-34a8-44bf-a4b2-a9e4e6186839","ios":"levelo://app?vid=4b0def63-34a8-44bf-a4b2-a9e4e6186839"},"vehicle_type_id":"4","last_reported":1739970970,"current_range_meters":17200,"station_id":"ce4bgt12rcd13ifvqcd0","pricing_plan_id":"cebpf4jnsgd1na2vs0mg"},{"bike_id":"477ac2db-8f8c-4cbc-8427-0ab644b57a7a","system_id":"levelo_inurba_marseille","lat":43.25007,"lon":5.38925,"is_reserved":false,"is_disabled":false,"rental_uris":{"android":"levelo://app?vid=477ac2db-8f8c-4cbc-8427-0ab644b57a7a","ios":"levelo://app?vid=477ac2db-8f8c-4cbc-8427-0ab644b57a7a"},"vehicle_type_id":"4","last_reported":1739970970,"current_range_meters":17200,"station_id":"ce4bhgp2rcd13ifvqfd0","pricing_plan_id":"cebpf4jnsgd1na2vs0mg"},{"bike_id":"749511d9-4ffb-4693-b9cb-f6a866337302","system_id":"levelo_inurba_marseille","lat":43.30949,"lon":5.39054,"is_reserved":false,"is_disabled":false,"rental_uris":{"android":"levelo://app?vid=749511d9-4ffb-4693-b9cb-f6a866337302","ios":"levelo://app?vid=749511d9-4ffb-4693-b9cb-f6a866337302"},"vehicle_type_id":"4","last_reported":1739970970,"current_range_meters":17200,"station_id":"","pricing_plan_id":"cebpf4jnsgd1na2vs0mg"},{"bike_id":"24422274-89fa-4a71-8136-2471e2d9789a","system_id":"levelo_inurba_marseille","lat":43.30465,"lon":5.37911,"is_reserved":false,"is_disabled":false,"rental_uris":{"android":"levelo://app?vid=24422274-89fa-4a71-8136-2471e2d9789a","ios":"levelo://app?vid=24422274-89fa-4a71-8136-2471e2d9789a"},"vehicle_type_id":"4","last_reported":1739970970,"current_range_meters":17200,"station_id":"ce4bgup2rcd13ifvqcn0","pricing_plan_id":"cebpf4jnsgd1na2vs0mg"},{"bike_id":"d9102e21-6294-472e-8da2-16dfb746ec2b","system_id":"levelo_inurba_marseille","lat":43.28138,"lon":5.4457,"is_reserved":false,"is_disabled":false,"rental_uris":{"android":"levelo://app?vid=d9102e21-6294-472e-8da2-16dfb746ec2b","ios":"levelo://app?vid=d9102e21-6294-472e-8da2-16dfb746ec2b"},"vehicle_type_id":"4","last_reported":1739970970,"current_range_meters":17200,"station_id":"ce4bhnh2rcd13ifvqgtg","pricing_plan_id":"cebpf4jnsgd1na2vs0mg"},{"bike_id":"29ae1802-9d76-4286-a2d6-f211c81954fd","system_id":"levelo_inurba_marseille","lat":43.23149,"lon":5.43718,"is_reserved":false,"is_disabled":false,"rental_uris":{"android":"levelo://app?vid=29ae1802-9d76-4286-a2d6-f211c81954fd","ios":"levelo://app?vid=29ae1802-9d76-4286-a2d6-f211c81954fd"},"vehicle_type_id":"4","last_reported":1739970970,"current_range_meters":17200,"station_id":"ce4bhmp2rcd13ifvqgog","pricing_plan_id":"cebpf4jnsgd1na2vs0mg"},{"bike_id":"003c44c1-3cd5-48e6-afbd-3e395aa9e710","system_id":"levelo_inurba_marseille","lat":43.29913,"lon":5.43657,"is_reserved":false,"is_disabled":false,"rental_uris":{"android":"levelo://app?vid=003c44c1-3cd5-48e6-afbd-3e395aa9e710","ios":"levelo://app?vid=003c44c1-3cd5-48e6-afbd-3e395aa9e710"},"vehicle_type_id":"4","last_reported":1739970970,"current_range_meters":17600,"station_id":"ce4bhpp2rcd13ifvqhfg","pricing_plan_id":"cebpf4jnsgd1na2vs0mg"},{"bike_id":"bdc412a8-ab57-4942-907d-94e7ad50b3fa","system_id":"levelo_inurba_marseille","lat":43.25939,"lon":5.40908,"is_reserved":false,"is_disabled":false,"rental_uris":{"android":"levelo://app?vid=bdc412a8-ab57-4942-907d-94e7ad50b3fa","ios":"levelo://app?vid=bdc412a8-ab57-4942-907d-94e7ad50b3fa"},"vehicle_type_id":"4","last_reported":1739970970,"current_range_meters":17600,"station_id":"ce4bhm92rcd13ifvqglg","pricing_plan_id":"cebpf4jnsgd1na2vs0mg"},{"bike_id":"2df2d949-7a2e-41a5-a394-a99f9ddb37a8","system_id":"levelo_inurba_marseille","lat":43.29531,"lon":5.3855,"is_reserved":false,"is_disabled":false,"rental_uris":{"android":"levelo://app?vid=2df2d949-7a2e-41a5-a394-a99f9ddb37a8","ios":"levelo://app?vid=2df2d949-7a2e-41a5-a394-a99f9ddb37a8"},"vehicle_type_id":"4","last_reported":1739970970,"current_range_meters":17200,"station_id":"ce4bgih2rcd13ifvqba0","pricing_plan_id":"cebpf4jnsgd1na2vs0mg"},{"bike_id":"abe17697-a6c2-4a90-b3c2-460c96d118e2","system_id":"levelo_inurba_marseille","lat":43.28621,"lon":5.3511,"is_reserved":false,"is_disabled":false,"rental_uris":{"android":"levelo://app?vid=abe17697-a6c2-4a90-b3c2-460c96d118e2","ios":"levelo://app?vid=abe17697-a6c2-4a90-b3c2-460c96d118e2"},"vehicle_type_id":"4","last_reported":1739970970,"current_range_meters":17600,"station_id":"ce4bhch2rcd13ifvqeug","pricing_plan_id":"cebpf4jnsgd1na2vs0mg"},{"bike_id":"0ebe3bbe-3312-4854-8c5c-e41de3dd3614","system_id":"levelo_inurba_marseille","lat":43.27926,"lon":5.38707,"is_reserved":false,"is_disabled":false,"rental_uris":{"android":"levelo://app?vid=0ebe3bbe-3312-4854-8c5c-e41de3dd3614","ios":"levelo://app?vid=0ebe3bbe-3312-4854-8c5c-e41de3dd3614"},"vehicle_type_id":"4","last_reported":1739970970,"current_range_meters":17600,"station_id":"","pricing_plan_id":"cebpf4jnsgd1na2vs0mg"},{"bike_id":"ac8a8ce7-eb08-411b-8b45-46ae1db488fb","system_id":"levelo_inurba_marseille","lat":43.309,"lon":5.36846,"is_reserved":false,"is_disabled":false,"rental_uris":{"android":"levelo://app?vid=ac8a8ce7-eb08-411b-8b45-46ae1db488fb","ios":"levelo://app?vid=ac8a8ce7-eb08-411b-8b45-46ae1db488fb"},"vehicle_type_id":"4","last_reported":1739970970,"current_range_meters":17600,"station_id":"ce4bgn92rcd13ifvqbvg","pricing_plan_id":"cebpf4jnsgd1na2vs0mg"},{"bike_id":"efb58bf1-4403-4b9f-b67d-a8970e8c3a7f","system_id":"levelo_inurba_marseille","lat":43.25014,"lon":5.38922,"is_reserved":false,"is_disabled":false,"rental_uris":{"android":"levelo://app?vid=efb58bf1-4403-4b9f-b67d-a8970e8c3a7f","ios":"levelo://app?vid=efb58bf1-4403-4b9f-b67d-a8970e8c3a7f"},"vehicle_type_id":"4","last_reported":1739970970,"current_range_meters":17600,"station_id":"ce4bhgp2rcd13ifvqfd0","pricing_plan_id":"cebpf4jnsgd1na2vs0mg"},{"bike_id":"a0e7bb5e-0820-4bf5-8e20-c488c9c1de96","system_id":"levelo_inurba_marseille","lat":43.29306,"lon":5.37442,"is_reserved":false,"is_disabled":false,"rental_uris":{"android":"levelo://app?vid=a0e7bb5e-0820-4bf5-8e20-c488c9c1de96","ios":"levelo://app?vid=a0e7bb5e-0820-4bf5-8e20-c488c9c1de96"},"vehicle_type_id":"4","last_reported":1739970970,"current_range_meters":17600,"station_id":"ce4bgi12rcd13ifvqb70","pricing_plan_id":"cebpf4jnsgd1na2vs0mg"},{"bike_id":"8becd64c-893d-4a08-8876-b1598e031c70","system_id":"levelo_inurba_marseille","lat":43.27961,"lon":5.387,"is_reserved":false,"is_disabled":true,"rental_uris":{"android":"levelo://app?vid=8becd64c-893d-4a08-8876-b1598e031c70","ios":"levelo://app?vid=8becd64c-893d-4a08-8876-b1598e031c70"},"vehicle_type_id":"4","last_reported":1739970970,"current_range_meters":18000,"station_id":"","pricing_plan_id":"cebpf4jnsgd1na2vs0mg"},{"bike_id":"c747950e-5d79-40c0-9056-cda9779cf0f5","system_id":"levelo_inurba_marseille","lat":43.337444,"lon":5.374475,"is_reserved":false,"is_disabled":false,"rental_uris":{"android":"levelo://app?vid=c747950e-5d79-40c0-9056-cda9779cf0f5","ios":"levelo://app?vid=c747950e-5d79-40c0-9056-cda9779cf0f5"},"vehicle_type_id":"4","last_reported":1739970970,"current_range_meters":18000,"station_id":"","pricing_plan_id":"cebpf4jnsgd1na2vs0mg"},{"bike_id":"40c86382-19bb-4f26-9b30-91200bf8d2d3","system_id":"levelo_inurba_marseille","lat":43.2797,"lon":5.38721,"is_reserved":false,"is_disabled":false,"rental_uris":{"android":"levelo://app?vid=40c86382-19bb-4f26-9b30-91200bf8d2d3","ios":"levelo://app?vid=40c86382-19bb-4f26-9b30-91200bf8d2d3"},"vehicle_type_id":"4","last_reported":1739970970,"current_range_meters":18000,"station_id":"ce4bhg12rcd13ifvqf80","pricing_plan_id":"cebpf4jnsgd1na2vs0mg"},{"bike_id":"ab0bd155-b4f1-4556-a3d4-729494315635","system_id":"levelo_inurba_marseille","lat":43.27209,"lon":5.39183,"is_reserved":false,"is_disabled":false,"rental_uris":{"android":"levelo://app?vid=ab0bd155-b4f1-4556-a3d4-729494315635","ios":"levelo://app?vid=ab0bd155-b4f1-4556-a3d4-729494315635"},"vehicle_type_id":"4","last_reported":1739970970,"current_range_meters":18000,"station_id":"ce4bhhp2rcd13ifvqfm0","pricing_plan_id":"cebpf4jnsgd1na2vs0mg"},{"bike_id":"6dce2158-50fc-4310-a030-753414e65f3d","system_id":"levelo_inurba_marseille","lat":43.27997,"lon":5.41662,"is_reserved":false,"is_disabled":false,"rental_uris":{"android":"levelo://app?vid=6dce2158-50fc-4310-a030-753414e65f3d","ios":"levelo://app?vid=6dce2158-50fc-4310-a030-753414e65f3d"},"vehicle_type_id":"4","last_reported":1739970970,"current_range_meters":18000,"station_id":"","pricing_plan_id":"cebpf4jnsgd1na2vs0mg"},{"bike_id":"66b5a43e-2798-4c72-8acc-33d23152963b","system_id":"levelo_inurba_marseille","lat":43.2718,"lon":5.40998,"is_reserved":false,"is_disabled":false,"rental_uris":{"android":"levelo://app?vid=66b5a43e-2798-4c72-8acc-33d23152963b","ios":"levelo://app?vid=66b5a43e-2798-4c72-8acc-33d23152963b"},"vehicle_type_id":"4","last_reported":1739970970,"current_range_meters":18000,"station_id":"ce4bhl12rcd13ifvqgf0","pricing_plan_id":"cebpf4jnsgd1na2vs0mg"},{"bike_id":"ac70d028-a87b-49ed-8316-9e96e140ed43","system_id":"levelo_inurba_marseille","lat":43.29284,"lon":5.37633,"is_reserved":false,"is_disabled":false,"rental_uris":{"android":"levelo://app?vid=ac70d028-a87b-49ed-8316-9e96e140ed43","ios":"levelo://app?vid=ac70d028-a87b-49ed-8316-9e96e140ed43"},"vehicle_type_id":"4","last_reported":1739970970,"current_range_meters":18000,"station_id":"ce4bgi12rcd13ifvqb80","pricing_plan_id":"cebpf4jnsgd1na2vs0mg"},{"bike_id":"652633da-dab2-42fe-b91e-4ad849c67798","system_id":"levelo_inurba_marseille","lat":43.33024,"lon":5.39041,"is_reserved":false,"is_disabled":false,"rental_uris":{"android":"levelo://app?vid=652633da-dab2-42fe-b91e-4ad849c67798","ios":"levelo://app?vid=652633da-dab2-42fe-b91e-4ad849c67798"},"vehicle_type_id":"4","last_reported":1739970970,"current_range_meters":18000,"station_id":"ce4bhr92rcd13ifvqhrg","pricing_plan_id":"cebpf4jnsgd1na2vs0mg"},{"bike_id":"b3a013f7-dc34-4955-b4ab-7904906a7997","system_id":"levelo_inurba_marseille","lat":43.28159,"lon":5.42646,"is_reserved":false,"is_disabled":false,"rental_uris":{"android":"levelo://app?vid=b3a013f7-dc34-4955-b4ab-7904906a7997","ios":"levelo://app?vid=b3a013f7-dc34-4955-b4ab-7904906a7997"},"vehicle_type_id":"4","last_reported":1739970970,"current_range_meters":18000,"station_id":"ce4bhnh2rcd13ifvqgug","pricing_plan_id":"cebpf4jnsgd1na2vs0mg"},{"bike_id":"1d2ebd22-a535-4938-8088-12d4f916450d","system_id":"levelo_inurba_marseille","lat":43.29618,"lon":5.37719,"is_reserved":false,"is_disabled":false,"rental_uris":{"android":"levelo://app?vid=1d2ebd22-a535-4938-8088-12d4f916450d","ios":"levelo://app?vid=1d2ebd22-a535-4938-8088-12d4f916450d"},"vehicle_type_id":"4","last_reported":1739970970,"current_range_meters":18000,"station_id":"ce4bgi92rcd13ifvqb90","pricing_plan_id":"cebpf4jnsgd1na2vs0mg"},{"bike_id":"2fdc0de3-0b6f-443f-8905-d00ab28583fa","system_id":"levelo_inurba_marseille","lat":43.25937,"lon":5.40905,"is_reserved":false,"is_disabled":false,"rental_uris":{"android":"levelo://app?vid=2fdc0de3-0b6f-443f-8905-d00ab28583fa","ios":"levelo://app?vid=2fdc0de3-0b6f-443f-8905-d00ab28583fa"},"vehicle_type_id":"4","last_reported":1739970970,"current_range_meters":18000,"station_id":"ce4bhm92rcd13ifvqglg","pricing_plan_id":"cebpf4jnsgd1na2vs0mg"},{"bike_id":"31238e0c-fc05-4759-82bc-b502d4691a55","system_id":"levelo_inurba_marseille","lat":43.27898,"lon":5.38026,"is_reserved":false,"is_disabled":false,"rental_uris":{"android":"levelo://app?vid=31238e0c-fc05-4759-82bc-b502d4691a55","ios":"levelo://app?vid=31238e0c-fc05-4759-82bc-b502d4691a55"},"vehicle_type_id":"4","last_reported":1739970970,"current_range_meters":18000,"station_id":"ce4bhf92rcd13ifvqf50","pricing_plan_id":"cebpf4jnsgd1na2vs0mg"},{"bike_id":"75673006-1fda-46a1-a573-0e1cfeae28aa","system_id":"levelo_inurba_marseille","lat":43.29497,"lon":5.38284,"is_reserved":false,"is_disabled":false,"rental_uris":{"android":"levelo://app?vid=75673006-1fda-46a1-a573-0e1cfeae28aa","ios":"levelo://app?vid=75673006-1fda-46a1-a573-0e1cfeae28aa"},"vehicle_type_id":"4","last_reported":1739970970,"current_range_meters":18800,"station_id":"","pricing_plan_id":"cebpf4jnsgd1na2vs0mg"},{"bike_id":"95c8539b-a854-4309-b42b-a99522f01585","system_id":"levelo_inurba_marseille","lat":43.3013,"lon":5.39858,"is_reserved":false,"is_disabled":false,"rental_uris":{"android":"levelo://app?vid=95c8539b-a854-4309-b42b-a99522f01585","ios":"levelo://app?vid=95c8539b-a854-4309-b42b-a99522f01585"},"vehicle_type_id":"4","last_reported":1739970970,"current_range_meters":18800,"station_id":"ce4bh0h2rcd13ifvqd40","pricing_plan_id":"cebpf4jnsgd1na2vs0mg"},{"bike_id":"3addd8d2-327f-4e60-8639-267e28d7c956","system_id":"levelo_inurba_marseille","lat":43.28669,"lon":5.38655,"is_reserved":false,"is_disabled":false,"rental_uris":{"android":"levelo://app?vid=3addd8d2-327f-4e60-8639-267e28d7c956","ios":"levelo://app?vid=3addd8d2-327f-4e60-8639-267e28d7c956"},"vehicle_type_id":"4","last_reported":1739970970,"current_range_meters":18800,"station_id":"","pricing_plan_id":"cebpf4jnsgd1na2vs0mg"},{"bike_id":"25807155-c9ed-4982-bca9-234ce7de3ee1","system_id":"levelo_inurba_marseille","lat":43.315,"lon":5.37312,"is_reserved":false,"is_disabled":false,"rental_uris":{"android":"levelo://app?vid=25807155-c9ed-4982-bca9-234ce7de3ee1","ios":"levelo://app?vid=25807155-c9ed-4982-bca9-234ce7de3ee1"},"vehicle_type_id":"4","last_reported":1739970970,"current_range_meters":17200,"station_id":"ce4bgt12rcd13ifvqcd0","pricing_plan_id":"cebpf4jnsgd1na2vs0mg"},{"bike_id":"4eaeefa8-f306-4f43-bebc-760c83cc8aff","system_id":"levelo_inurba_marseille","lat":43.29915,"lon":5.38144,"is_reserved":false,"is_disabled":false,"rental_uris":{"android":"levelo://app?vid=4eaeefa8-f306-4f43-bebc-760c83cc8aff","ios":"levelo://app?vid=4eaeefa8-f306-4f43-bebc-760c83cc8aff"},"vehicle_type_id":"4","last_reported":1739970970,"current_range_meters":18800,"station_id":"ce4bgj12rcd13ifvqbc0","pricing_plan_id":"cebpf4jnsgd1na2vs0mg"},{"bike_id":"01f0b83d-e91e-48f8-aab5-e43548efbbbd","system_id":"levelo_inurba_marseille","lat":43.25582,"lon":5.3824,"is_reserved":false,"is_disabled":false,"rental_uris":{"android":"levelo://app?vid=01f0b83d-e91e-48f8-aab5-e43548efbbbd","ios":"levelo://app?vid=01f0b83d-e91e-48f8-aab5-e43548efbbbd"},"vehicle_type_id":"4","last_reported":1739970970,"current_range_meters":18800,"station_id":"ce4bhih2rcd13ifvqfs0","pricing_plan_id":"cebpf4jnsgd1na2vs0mg"},{"bike_id":"27fad4a5-9f96-49c9-8338-2a714ea8638c","system_id":"levelo_inurba_marseille","lat":43.29071,"lon":5.37171,"is_reserved":false,"is_disabled":false,"rental_uris":{"android":"levelo://app?vid=27fad4a5-9f96-49c9-8338-2a714ea8638c","ios":"levelo://app?vid=27fad4a5-9f96-49c9-8338-2a714ea8638c"},"vehicle_type_id":"4","last_reported":1739970970,"current_range_meters":18800,"station_id":"ce4bh5p2rcd13ifvqe4g","pricing_plan_id":"cebpf4jnsgd1na2vs0mg"},{"bike_id":"0f119bb9-42f5-484d-a273-90a601312646","system_id":"levelo_inurba_marseille","lat":43.27072,"lon":5.42302,"is_reserved":false,"is_disabled":false,"rental_uris":{"android":"levelo://app?vid=0f119bb9-42f5-484d-a273-90a601312646","ios":"levelo://app?vid=0f119bb9-42f5-484d-a273-90a601312646"},"vehicle_type_id":"4","last_reported":1739970970,"current_range_meters":18800,"station_id":"ce4bhk92rcd13ifvqgb0","pricing_plan_id":"cebpf4jnsgd1na2vs0mg"},{"bike_id":"84f34643-8421-4dd5-bb15-5d78168d5783","system_id":"levelo_inurba_marseille","lat":43.28152,"lon":5.42637,"is_reserved":false,"is_disabled":false,"rental_uris":{"android":"levelo://app?vid=84f34643-8421-4dd5-bb15-5d78168d5783","ios":"levelo://app?vid=84f34643-8421-4dd5-bb15-5d78168d5783"},"vehicle_type_id":"4","last_reported":1739970970,"current_range_meters":19200,"station_id":"","pricing_plan_id":"cebpf4jnsgd1na2vs0mg"},{"bike_id":"f122faaa-86a7-4ecc-b19f-51ab698ab758","system_id":"levelo_inurba_marseille","lat":43.28156,"lon":5.42643,"is_reserved":false,"is_disabled":false,"rental_uris":{"android":"levelo://app?vid=f122faaa-86a7-4ecc-b19f-51ab698ab758","ios":"levelo://app?vid=f122faaa-86a7-4ecc-b19f-51ab698ab758"},"vehicle_type_id":"4","last_reported":1739970970,"current_range_meters":19200,"station_id":"","pricing_plan_id":"cebpf4jnsgd1na2vs0mg"},{"bike_id":"7bd64cbe-f1f0-42c8-817a-bbf046d4904b","system_id":"levelo_inurba_marseille","lat":43.30908,"lon":5.36852,"is_reserved":false,"is_disabled":false,"rental_uris":{"android":"levelo://app?vid=7bd64cbe-f1f0-42c8-817a-bbf046d4904b","ios":"levelo://app?vid=7bd64cbe-f1f0-42c8-817a-bbf046d4904b"},"vehicle_type_id":"4","last_reported":1739970970,"current_range_meters":19200,"station_id":"ce4bgn92rcd13ifvqbvg","pricing_plan_id":"cebpf4jnsgd1na2vs0mg"},{"bike_id":"03bb80d2-2d58-477e-8d77-d8a9b94a8f21","system_id":"levelo_inurba_marseille","lat":43.23819,"lon":5.4036,"is_reserved":false,"is_disabled":false,"rental_uris":{"android":"levelo://app?vid=03bb80d2-2d58-477e-8d77-d8a9b94a8f21","ios":"levelo://app?vid=03bb80d2-2d58-477e-8d77-d8a9b94a8f21"},"vehicle_type_id":"4","last_reported":1739970970,"current_range_meters":19200,"station_id":"","pricing_plan_id":"cebpf4jnsgd1na2vs0mg"},{"bike_id":"24b034ae-81d8-4b0e-9d7b-9309f18a47ae","system_id":"levelo_inurba_marseille","lat":43.29134,"lon":5.37186,"is_reserved":false,"is_disabled":false,"rental_uris":{"android":"levelo://app?vid=24b034ae-81d8-4b0e-9d7b-9309f18a47ae","ios":"levelo://app?vid=24b034ae-81d8-4b0e-9d7b-9309f18a47ae"},"vehicle_type_id":"4","last_reported":1739970970,"current_range_meters":19600,"station_id":"","pricing_plan_id":"cebpf4jnsgd1na2vs0mg"},{"bike_id":"63d3fd56-a06f-4866-837b-543be86ed15c","system_id":"levelo_inurba_marseille","lat":43.30812,"lon":5.3686,"is_reserved":false,"is_disabled":false,"rental_uris":{"android":"levelo://app?vid=63d3fd56-a06f-4866-837b-543be86ed15c","ios":"levelo://app?vid=63d3fd56-a06f-4866-837b-543be86ed15c"},"vehicle_type_id":"4","last_reported":1739970970,"current_range_meters":19600,"station_id":"ce4bgl92rcd13ifvqbq0","pricing_plan_id":"cebpf4jnsgd1na2vs0mg"},{"bike_id":"7e5b4ca2-9332-48bf-ba26-dcef69efd827","system_id":"levelo_inurba_marseille","lat":43.29074,"lon":5.37169,"is_reserved":false,"is_disabled":false,"rental_uris":{"android":"levelo://app?vid=7e5b4ca2-9332-48bf-ba26-dcef69efd827","ios":"levelo://app?vid=7e5b4ca2-9332-48bf-ba26-dcef69efd827"},"vehicle_type_id":"4","last_reported":1739970970,"current_range_meters":19600,"station_id":"ce4bh5p2rcd13ifvqe4g","pricing_plan_id":"cebpf4jnsgd1na2vs0mg"},{"bike_id":"cdf1e431-388c-40e0-9e90-83ee2a3ebac3","system_id":"levelo_inurba_marseille","lat":43.25909,"lon":5.40872,"is_reserved":false,"is_disabled":false,"rental_uris":{"android":"levelo://app?vid=cdf1e431-388c-40e0-9e90-83ee2a3ebac3","ios":"levelo://app?vid=cdf1e431-388c-40e0-9e90-83ee2a3ebac3"},"vehicle_type_id":"4","last_reported":1739970970,"current_range_meters":19600,"station_id":"ce4bhm92rcd13ifvqglg","pricing_plan_id":"cebpf4jnsgd1na2vs0mg"},{"bike_id":"703b5108-d63e-4946-880b-60aeb8904b8d","system_id":"levelo_inurba_marseille","lat":43.29614,"lon":5.37732,"is_reserved":false,"is_disabled":false,"rental_uris":{"android":"levelo://app?vid=703b5108-d63e-4946-880b-60aeb8904b8d","ios":"levelo://app?vid=703b5108-d63e-4946-880b-60aeb8904b8d"},"vehicle_type_id":"4","last_reported":1739970970,"current_range_meters":19600,"station_id":"ce4bgi92rcd13ifvqb90","pricing_plan_id":"cebpf4jnsgd1na2vs0mg"},{"bike_id":"fce2ab8d-5466-4b1f-ad8c-e0c089a471c1","system_id":"levelo_inurba_marseille","lat":43.31167,"lon":5.38721,"is_reserved":false,"is_disabled":false,"rental_uris":{"android":"levelo://app?vid=fce2ab8d-5466-4b1f-ad8c-e0c089a471c1","ios":"levelo://app?vid=fce2ab8d-5466-4b1f-ad8c-e0c089a471c1"},"vehicle_type_id":"4","last_reported":1739970970,"current_range_meters":19600,"station_id":"ce4bgv12rcd13ifvqcp0","pricing_plan_id":"cebpf4jnsgd1na2vs0mg"},{"bike_id":"53324156-0b5f-4ee4-beb8-65d71f0308f4","system_id":"levelo_inurba_marseille","lat":43.26548,"lon":5.39073,"is_reserved":false,"is_disabled":true,"rental_uris":{"android":"levelo://app?vid=53324156-0b5f-4ee4-beb8-65d71f0308f4","ios":"levelo://app?vid=53324156-0b5f-4ee4-beb8-65d71f0308f4"},"vehicle_type_id":"4","last_reported":1739970970,"current_range_meters":19600,"station_id":"","pricing_plan_id":"cebpf4jnsgd1na2vs0mg"},{"bike_id":"cef0ea3d-3620-4613-8a98-512ceddb2769","system_id":"levelo_inurba_marseille","lat":43.27191,"lon":5.40991,"is_reserved":false,"is_disabled":false,"rental_uris":{"android":"levelo://app?vid=cef0ea3d-3620-4613-8a98-512ceddb2769","ios":"levelo://app?vid=cef0ea3d-3620-4613-8a98-512ceddb2769"},"vehicle_type_id":"4","last_reported":1739970970,"current_range_meters":19600,"station_id":"ce4bhl12rcd13ifvqgf0","pricing_plan_id":"cebpf4jnsgd1na2vs0mg"},{"bike_id":"751d2cf4-fa99-4a3f-9556-3ff54793f80a","system_id":"levelo_inurba_marseille","lat":43.25844,"lon":5.394,"is_reserved":false,"is_disabled":false,"rental_uris":{"android":"levelo://app?vid=751d2cf4-fa99-4a3f-9556-3ff54793f80a","ios":"levelo://app?vid=751d2cf4-fa99-4a3f-9556-3ff54793f80a"},"vehicle_type_id":"4","last_reported":1739970970,"current_range_meters":19600,"station_id":"ce4bhip2rcd13ifvqft0","pricing_plan_id":"cebpf4jnsgd1na2vs0mg"},{"bike_id":"cbb3da08-825d-463d-ab61-bbb2cc636bff","system_id":"levelo_inurba_marseille","lat":43.30913,"lon":5.36841,"is_reserved":false,"is_disabled":false,"rental_uris":{"android":"levelo://app?vid=cbb3da08-825d-463d-ab61-bbb2cc636bff","ios":"levelo://app?vid=cbb3da08-825d-463d-ab61-bbb2cc636bff"},"vehicle_type_id":"4","last_reported":1739970970,"current_range_meters":19600,"station_id":"ce4bgn92rcd13ifvqbvg","pricing_plan_id":"cebpf4jnsgd1na2vs0mg"},{"bike_id":"31fa70e2-85fa-4825-a761-e36c728812ec","system_id":"levelo_inurba_marseille","lat":43.28115,"lon":5.37824,"is_reserved":false,"is_disabled":false,"rental_uris":{"android":"levelo://app?vid=31fa70e2-85fa-4825-a761-e36c728812ec","ios":"levelo://app?vid=31fa70e2-85fa-4825-a761-e36c728812ec"},"vehicle_type_id":"4","last_reported":1739970970,"current_range_meters":19200,"station_id":"ce4bha12rcd13ifvqee0","pricing_plan_id":"cebpf4jnsgd1na2vs0mg"},{"bike_id":"c29eda3a-8490-47c3-aefa-55b194634623","system_id":"levelo_inurba_marseille","lat":43.29365,"lon":5.37856,"is_reserved":false,"is_disabled":true,"rental_uris":{"android":"levelo://app?vid=c29eda3a-8490-47c3-aefa-55b194634623","ios":"levelo://app?vid=c29eda3a-8490-47c3-aefa-55b194634623"},"vehicle_type_id":"4","last_reported":1739970970,"current_range_meters":20000,"station_id":"ce4bgjh2rcd13ifvqbf0","pricing_plan_id":"cebpf4jnsgd1na2vs0mg"},{"bike_id":"c8fce874-e1fd-48ec-919a-e18c45ffcf65","system_id":"levelo_inurba_marseille","lat":43.28612,"lon":5.3511,"is_reserved":false,"is_disabled":false,"rental_uris":{"android":"levelo://app?vid=c8fce874-e1fd-48ec-919a-e18c45ffcf65","ios":"levelo://app?vid=c8fce874-e1fd-48ec-919a-e18c45ffcf65"},"vehicle_type_id":"4","last_reported":1739970970,"current_range_meters":20000,"station_id":"ce4bhch2rcd13ifvqeug","pricing_plan_id":"cebpf4jnsgd1na2vs0mg"},{"bike_id":"cd5f889a-944d-4054-ad52-27c98e35b53e","system_id":"levelo_inurba_marseille","lat":43.31212,"lon":5.3685,"is_reserved":false,"is_disabled":false,"rental_uris":{"android":"levelo://app?vid=cd5f889a-944d-4054-ad52-27c98e35b53e","ios":"levelo://app?vid=cd5f889a-944d-4054-ad52-27c98e35b53e"},"vehicle_type_id":"4","last_reported":1739970970,"current_range_meters":20000,"station_id":"ce4bgl92rcd13ifvqbq0","pricing_plan_id":"cebpf4jnsgd1na2vs0mg"},{"bike_id":"834704e8-34ed-4ba2-a886-e9cfe5836af3","system_id":"levelo_inurba_marseille","lat":43.28425,"lon":5.34991,"is_reserved":false,"is_disabled":false,"rental_uris":{"android":"levelo://app?vid=834704e8-34ed-4ba2-a886-e9cfe5836af3","ios":"levelo://app?vid=834704e8-34ed-4ba2-a886-e9cfe5836af3"},"vehicle_type_id":"4","last_reported":1739970970,"current_range_meters":20000,"station_id":"ce4bhbh2rcd13ifvqepg","pricing_plan_id":"cebpf4jnsgd1na2vs0mg"},{"bike_id":"7d538134-1a3e-4c6e-ab5b-4d985c54776c","system_id":"levelo_inurba_marseille","lat":43.26064,"lon":5.39398,"is_reserved":false,"is_disabled":false,"rental_uris":{"android":"levelo://app?vid=7d538134-1a3e-4c6e-ab5b-4d985c54776c","ios":"levelo://app?vid=7d538134-1a3e-4c6e-ab5b-4d985c54776c"},"vehicle_type_id":"4","last_reported":1739970970,"current_range_meters":20000,"station_id":"ce4bhh92rcd13ifvqfj0","pricing_plan_id":"cebpf4jnsgd1na2vs0mg"},{"bike_id":"0e264fa6-28bd-4e4f-8cac-e65b56c3bac1","system_id":"levelo_inurba_marseille","lat":43.30107,"lon":5.37786,"is_reserved":false,"is_disabled":false,"rental_uris":{"android":"levelo://app?vid=0e264fa6-28bd-4e4f-8cac-e65b56c3bac1","ios":"levelo://app?vid=0e264fa6-28bd-4e4f-8cac-e65b56c3bac1"},"vehicle_type_id":"4","last_reported":1739970970,"current_range_meters":20000,"station_id":"","pricing_plan_id":"cebpf4jnsgd1na2vs0mg"},{"bike_id":"4f222047-c3da-4032-a47e-83e0ba94d9e1","system_id":"levelo_inurba_marseille","lat":43.32523,"lon":5.42357,"is_reserved":false,"is_disabled":false,"rental_uris":{"android":"levelo://app?vid=4f222047-c3da-4032-a47e-83e0ba94d9e1","ios":"levelo://app?vid=4f222047-c3da-4032-a47e-83e0ba94d9e1"},"vehicle_type_id":"4","last_reported":1739970970,"current_range_meters":20000,"station_id":"ce4bhq92rcd13ifvqhkg","pricing_plan_id":"cebpf4jnsgd1na2vs0mg"},{"bike_id":"0509ea3e-1bf4-4654-9dd6-cd76c0a0db2c","system_id":"levelo_inurba_marseille","lat":43.31205,"lon":5.36837,"is_reserved":false,"is_disabled":false,"rental_uris":{"android":"levelo://app?vid=0509ea3e-1bf4-4654-9dd6-cd76c0a0db2c","ios":"levelo://app?vid=0509ea3e-1bf4-4654-9dd6-cd76c0a0db2c"},"vehicle_type_id":"4","last_reported":1739970970,"current_range_meters":20000,"station_id":"ce4bgl92rcd13ifvqbq0","pricing_plan_id":"cebpf4jnsgd1na2vs0mg"},{"bike_id":"64170527-eac7-4440-b996-522cbb93c139","system_id":"levelo_inurba_marseille","lat":43.25944,"lon":5.40875,"is_reserved":false,"is_disabled":false,"rental_uris":{"android":"levelo://app?vid=64170527-eac7-4440-b996-522cbb93c139","ios":"levelo://app?vid=64170527-eac7-4440-b996-522cbb93c139"},"vehicle_type_id":"4","last_reported":1739970970,"current_range_meters":20000,"station_id":"ce4bhm92rcd13ifvqglg","pricing_plan_id":"cebpf4jnsgd1na2vs0mg"},{"bike_id":"68415620-c6cd-428e-9605-97cabc943686","system_id":"levelo_inurba_marseille","lat":43.24182,"lon":5.39725,"is_reserved":false,"is_disabled":false,"rental_uris":{"android":"levelo://app?vid=68415620-c6cd-428e-9605-97cabc943686","ios":"levelo://app?vid=68415620-c6cd-428e-9605-97cabc943686"},"vehicle_type_id":"4","last_reported":1739970970,"current_range_meters":20000,"station_id":"ce4bhn12rcd13ifvqgpg","pricing_plan_id":"cebpf4jnsgd1na2vs0mg"},{"bike_id":"dea6125e-5dc1-43f0-a77c-244f328a373a","system_id":"levelo_inurba_marseille","lat":43.27067,"lon":5.42278,"is_reserved":false,"is_disabled":false,"rental_uris":{"android":"levelo://app?vid=dea6125e-5dc1-43f0-a77c-244f328a373a","ios":"levelo://app?vid=dea6125e-5dc1-43f0-a77c-244f328a373a"},"vehicle_type_id":"4","last_reported":1739970970,"current_range_meters":20000,"station_id":"ce4bhk92rcd13ifvqgb0","pricing_plan_id":"cebpf4jnsgd1na2vs0mg"},{"bike_id":"d51f5e3e-5f60-4df2-94ae-60b240d1edf3","system_id":"levelo_inurba_marseille","lat":43.2318,"lon":5.40004,"is_reserved":false,"is_disabled":false,"rental_uris":{"android":"levelo://app?vid=d51f5e3e-5f60-4df2-94ae-60b240d1edf3","ios":"levelo://app?vid=d51f5e3e-5f60-4df2-94ae-60b240d1edf3"},"vehicle_type_id":"4","last_reported":1739970970,"current_range_meters":20000,"station_id":"ce4bhn12rcd13ifvqgqg","pricing_plan_id":"cebpf4jnsgd1na2vs0mg"},{"bike_id":"e6fb0c0c-a5e7-472e-9c10-0f53c4ae61b1","system_id":"levelo_inurba_marseille","lat":43.28847,"lon":5.35864,"is_reserved":false,"is_disabled":false,"rental_uris":{"android":"levelo://app?vid=e6fb0c0c-a5e7-472e-9c10-0f53c4ae61b1","ios":"levelo://app?vid=e6fb0c0c-a5e7-472e-9c10-0f53c4ae61b1"},"vehicle_type_id":"4","last_reported":1739970970,"current_range_meters":20400,"station_id":"ce4bhb12rcd13ifvqem0","pricing_plan_id":"cebpf4jnsgd1na2vs0mg"},{"bike_id":"652108ad-08df-4ea7-ad2a-d828607404d1","system_id":"levelo_inurba_marseille","lat":43.24181,"lon":5.3972,"is_reserved":false,"is_disabled":false,"rental_uris":{"android":"levelo://app?vid=652108ad-08df-4ea7-ad2a-d828607404d1","ios":"levelo://app?vid=652108ad-08df-4ea7-ad2a-d828607404d1"},"vehicle_type_id":"4","last_reported":1739970970,"current_range_meters":20400,"station_id":"ce4bhn12rcd13ifvqgpg","pricing_plan_id":"cebpf4jnsgd1na2vs0mg"},{"bike_id":"3b3a22d8-5515-40fb-b1f4-31660d36939c","system_id":"levelo_inurba_marseille","lat":43.29609,"lon":5.38104,"is_reserved":false,"is_disabled":false,"rental_uris":{"android":"levelo://app?vid=3b3a22d8-5515-40fb-b1f4-31660d36939c","ios":"levelo://app?vid=3b3a22d8-5515-40fb-b1f4-31660d36939c"},"vehicle_type_id":"4","last_reported":1739970970,"current_range_meters":20400,"station_id":"ce4bgl12rcd13ifvqbo0","pricing_plan_id":"cebpf4jnsgd1na2vs0mg"},{"bike_id":"96d550f5-f982-4617-b49b-305a0adb41f1","system_id":"levelo_inurba_marseille","lat":43.30128,"lon":5.3744,"is_reserved":false,"is_disabled":false,"rental_uris":{"android":"levelo://app?vid=96d550f5-f982-4617-b49b-305a0adb41f1","ios":"levelo://app?vid=96d550f5-f982-4617-b49b-305a0adb41f1"},"vehicle_type_id":"4","last_reported":1739970970,"current_range_meters":20400,"station_id":"ce4bgs92rcd13ifvqcc0","pricing_plan_id":"cebpf4jnsgd1na2vs0mg"},{"bike_id":"d5203534-e7df-4d29-8bbd-6538a56df1d8","system_id":"levelo_inurba_marseille","lat":43.25923,"lon":5.40899,"is_reserved":false,"is_disabled":false,"rental_uris":{"android":"levelo://app?vid=d5203534-e7df-4d29-8bbd-6538a56df1d8","ios":"levelo://app?vid=d5203534-e7df-4d29-8bbd-6538a56df1d8"},"vehicle_type_id":"4","last_reported":1739970970,"current_range_meters":20400,"station_id":"ce4bhm92rcd13ifvqglg","pricing_plan_id":"cebpf4jnsgd1na2vs0mg"},{"bike_id":"7fcc640f-f794-4c69-9b59-41103ed837cd","system_id":"levelo_inurba_marseille","lat":43.23961,"lon":5.36631,"is_reserved":false,"is_disabled":false,"rental_uris":{"android":"levelo://app?vid=7fcc640f-f794-4c69-9b59-41103ed837cd","ios":"levelo://app?vid=7fcc640f-f794-4c69-9b59-41103ed837cd"},"vehicle_type_id":"4","last_reported":1739970970,"current_range_meters":20400,"station_id":"ce4bhi12rcd13ifvqfp0","pricing_plan_id":"cebpf4jnsgd1na2vs0mg"},{"bike_id":"b06d6e07-ee5b-4c34-968e-cafc36687c95","system_id":"levelo_inurba_marseille","lat":43.30479,"lon":5.37894,"is_reserved":false,"is_disabled":false,"rental_uris":{"android":"levelo://app?vid=b06d6e07-ee5b-4c34-968e-cafc36687c95","ios":"levelo://app?vid=b06d6e07-ee5b-4c34-968e-cafc36687c95"},"vehicle_type_id":"4","last_reported":1739970970,"current_range_meters":20400,"station_id":"ce4bgup2rcd13ifvqcn0","pricing_plan_id":"cebpf4jnsgd1na2vs0mg"},{"bike_id":"361b090b-1a5d-4cf4-bce3-e52bbcbed803","system_id":"levelo_inurba_marseille","lat":43.25557,"lon":5.37669,"is_reserved":false,"is_disabled":false,"rental_uris":{"android":"levelo://app?vid=361b090b-1a5d-4cf4-bce3-e52bbcbed803","ios":"levelo://app?vid=361b090b-1a5d-4cf4-bce3-e52bbcbed803"},"vehicle_type_id":"4","last_reported":1739970970,"current_range_meters":20400,"station_id":"ce4bhh12rcd13ifvqff0","pricing_plan_id":"cebpf4jnsgd1na2vs0mg"},{"bike_id":"036dc598-412a-4274-92eb-a19b3ca1744a","system_id":"levelo_inurba_marseille","lat":43.301379,"lon":5.387783,"is_reserved":false,"is_disabled":false,"rental_uris":{"android":"levelo://app?vid=036dc598-412a-4274-92eb-a19b3ca1744a","ios":"levelo://app?vid=036dc598-412a-4274-92eb-a19b3ca1744a"},"vehicle_type_id":"4","last_reported":1739970970,"current_range_meters":20400,"station_id":"ce4bhh92rcd13ifvqfi0","pricing_plan_id":"cebpf4jnsgd1na2vs0mg"},{"bike_id":"98d2871f-b9f3-4d90-8727-7d9ed16a978a","system_id":"levelo_inurba_marseille","lat":43.30021,"lon":5.38263,"is_reserved":false,"is_disabled":true,"rental_uris":{"android":"levelo://app?vid=98d2871f-b9f3-4d90-8727-7d9ed16a978a","ios":"levelo://app?vid=98d2871f-b9f3-4d90-8727-7d9ed16a978a"},"vehicle_type_id":"4","last_reported":1739970970,"current_range_meters":20400,"station_id":"","pricing_plan_id":"cebpf4jnsgd1na2vs0mg"},{"bike_id":"e29afacf-8408-429d-b5d5-432c1a30bb0d","system_id":"levelo_inurba_marseille","lat":43.33725,"lon":5.39182,"is_reserved":false,"is_disabled":false,"rental_uris":{"android":"levelo://app?vid=e29afacf-8408-429d-b5d5-432c1a30bb0d","ios":"levelo://app?vid=e29afacf-8408-429d-b5d5-432c1a30bb0d"},"vehicle_type_id":"4","last_reported":1739970970,"current_range_meters":20800,"station_id":"ce4bhr92rcd13ifvqhsg","pricing_plan_id":"cebpf4jnsgd1na2vs0mg"},{"bike_id":"275e7574-6569-483b-a438-9fec359435f8","system_id":"levelo_inurba_marseille","lat":43.26496,"lon":5.39564,"is_reserved":false,"is_disabled":true,"rental_uris":{"android":"levelo://app?vid=275e7574-6569-483b-a438-9fec359435f8","ios":"levelo://app?vid=275e7574-6569-483b-a438-9fec359435f8"},"vehicle_type_id":"4","last_reported":1739970970,"current_range_meters":20800,"station_id":"","pricing_plan_id":"cebpf4jnsgd1na2vs0mg"},{"bike_id":"fc83fbbe-ea5e-48b9-afd4-fb70b86b578b","system_id":"levelo_inurba_marseille","lat":43.3054,"lon":5.38437,"is_reserved":false,"is_disabled":false,"rental_uris":{"android":"levelo://app?vid=fc83fbbe-ea5e-48b9-afd4-fb70b86b578b","ios":"levelo://app?vid=fc83fbbe-ea5e-48b9-afd4-fb70b86b578b"},"vehicle_type_id":"4","last_reported":1739970970,"current_range_meters":20800,"station_id":"","pricing_plan_id":"cebpf4jnsgd1na2vs0mg"},{"bike_id":"6fdd5a77-acfc-414c-a1fb-e435d1e85e59","system_id":"levelo_inurba_marseille","lat":43.26789,"lon":5.39412,"is_reserved":false,"is_disabled":false,"rental_uris":{"android":"levelo://app?vid=6fdd5a77-acfc-414c-a1fb-e435d1e85e59","ios":"levelo://app?vid=6fdd5a77-acfc-414c-a1fb-e435d1e85e59"},"vehicle_type_id":"4","last_reported":1739970970,"current_range_meters":20400,"station_id":"ce4bhh12rcd13ifvqfg0","pricing_plan_id":"cebpf4jnsgd1na2vs0mg"},{"bike_id":"30985064-a24c-463d-ad50-f76a4f9120e3","system_id":"levelo_inurba_marseille","lat":43.292238,"lon":5.360637,"is_reserved":false,"is_disabled":false,"rental_uris":{"android":"levelo://app?vid=30985064-a24c-463d-ad50-f76a4f9120e3","ios":"levelo://app?vid=30985064-a24c-463d-ad50-f76a4f9120e3"},"vehicle_type_id":"4","last_reported":1739970970,"current_range_meters":20800,"station_id":"","pricing_plan_id":"cebpf4jnsgd1na2vs0mg"},{"bike_id":"1736bdf7-065e-458a-8be8-137efe82e48a","system_id":"levelo_inurba_marseille","lat":43.33097,"lon":5.39055,"is_reserved":false,"is_disabled":false,"rental_uris":{"android":"levelo://app?vid=1736bdf7-065e-458a-8be8-137efe82e48a","ios":"levelo://app?vid=1736bdf7-065e-458a-8be8-137efe82e48a"},"vehicle_type_id":"4","last_reported":1739970970,"current_range_meters":21600,"station_id":"ce4bhqp2rcd13ifvqhog","pricing_plan_id":"cebpf4jnsgd1na2vs0mg"},{"bike_id":"7ec482cb-5120-4c7c-82a2-8356a33cc908","system_id":"levelo_inurba_marseille","lat":43.24188,"lon":5.39719,"is_reserved":false,"is_disabled":false,"rental_uris":{"android":"levelo://app?vid=7ec482cb-5120-4c7c-82a2-8356a33cc908","ios":"levelo://app?vid=7ec482cb-5120-4c7c-82a2-8356a33cc908"},"vehicle_type_id":"4","last_reported":1739970970,"current_range_meters":21600,"station_id":"ce4bhn12rcd13ifvqgpg","pricing_plan_id":"cebpf4jnsgd1na2vs0mg"},