{"last_updated":1730628616,"ttl":60,"version":"2.2","data":{"bikes":[{"bike_id":"daa5500f-6039-4d77-bf02-00710b3acec6","system_id":"levelo_inurba_marseille","lat":43.25931,"lon":5.40907,"is_reserved":false,"is_disabled":false,"rental_uris":{"android":"levelo://app?vid=daa5500f-6039-4d77-bf02-00710b3acec6","ios":"levelo://app?vid=daa5500f-6039-4d77-bf02-00710b3acec6"},"vehicle_type_id":"4","last_reported":1730628616,"current_range_meters":6000,"station_id":"ce4bhm92rcd13ifvqglg","pricing_plan_id":"cebpf4jnsgd1na2vs0mg"},{"bike_id":"2acfc2b2-8dbb-4e8e-88cd-56d90f75bbc8","system_id":"levelo_inurba_marseille","lat":43.27804,"lon":5.40733,"is_reserved":false,"is_disabled":false,"rental_uris":{"android":"levelo://app?vid=2acfc2b2-8dbb-4e8e-88cd-56d90f75bbc8","ios":"levelo://app?vid=2acfc2b2-8dbb-4e8e-88cd-56d90f75bbc8"},"vehicle_type_id":"4","last_reported":1730628616,"current_range_meters":38400,"station_id":"ce4bhnh2rcd13ifvqgtg","pricing_plan_id":"cebpf4jnsgd1na2vs0mg"},{"bike_id":"af8766f4-9bff-4236-b466-a0028672d5f8","system_id":"levelo_inurba_marseille","lat":43.25109,"lon":5.40321,"is_reserved":false,"is_disabled":false,"rental_uris":{"android":"levelo://app?vid=af8766f4-9bff-4236-b466-a0028672d5f8","ios":"levelo://app?vid=af8766f4-9bff-4236-b466-a0028672d5f8"},"vehicle_type_id":"4","last_reported":1730628616,"current_range_meters":25200,"station_id":"ce4bhlh2rcd13ifvqgig","pricing_plan_id":"cebpf4jnsgd1na2vs0mg"},{"bike_id":"5662c3ec-16ac-4646-ad92-7b800105b64d","system_id":"levelo_inurba_marseille","lat":43.2511,"lon":5.40325,"is_reserved":false,"is_disabled":false,"rental_uris":{"android":"levelo://app?vid=5662c3ec-16ac-4646-ad92-7b800105b64d","ios":"levelo://app?vid=5662c3ec-16ac-4646-ad92-7b800105b64d"},"vehicle_type_id":"4","last_reported":1730628616,"current_range_meters":7200,"station_id":"ce4bhlh2rcd13ifvqgig","pricing_plan_id":"cebpf4jnsgd1na2vs0mg"},{"bike_id":"8c2cc48d-9ab8-4fc0-82ef-7cafd31d7aa7","system_id":"levelo_inurba_marseille","lat":43.32485,"lon":5.36555,"is_reserved":false,"is_disabled":false,"rental_uris":{"android":"levelo://app?vid=8c2cc48d-9ab8-4fc0-82ef-7cafd31d7aa7","ios":"levelo://app?vid=8c2cc48d-9ab8-4fc0-82ef-7cafd31d7aa7"},"vehicle_type_id":"4","last_reported":1730628616,"current_range_meters":19200,"station_id":"ce4bhs12rcd13ifvqhvg","pricing_plan_id":"cebpf4jnsgd1na2vs0mg"},{"bike_id":"d1ceb612-ba24-4487-9581-f17481a0506c","system_id":"levelo_inurba_marseille","lat":43.291931,"lon":5.359001,"is_reserved":false,"is_disabled":false,"rental_uris":{"android":"levelo://app?vid=d1ceb612-ba24-4487-9581-f17481a0506c","ios":"levelo://app?vid=d1ceb612-ba24-4487-9581-f17481a0506c"},"vehicle_type_id":"4","last_reported":1730628616,"current_range_meters":38000,"station_id":"ce4bhb12rcd13ifvqel0","pricing_plan_id":"cebpf4jnsgd1na2vs0mg"},{"bike_id":"d449de13-e15c-4888-b0d3-a81f06e1647a","system_id":"levelo_inurba_marseille","lat":43.29436,"lon":5.39765,"is_reserved":false,"is_disabled":false,"rental_uris":{"android":"levelo://app?vid=d449de13-e15c-4888-b0d3-a81f06e1647a","ios":"levelo://app?vid=d449de13-e15c-4888-b0d3-a81f06e1647a"},"vehicle_type_id":"4","last_reported":1730628616,"current_range_meters":34000,"station_id":"ce4bh3h2rcd13ifvqdo0","pricing_plan_id":"cebpf4jnsgd1na2vs0mg"},{"bike_id":"f09a2e3e-a687-4ccb-9ce7-accc19389448","system_id":"levelo_inurba_marseille","lat":43.23963,"lon":5.36624,"is_reserved":false,"is_disabled":false,"rental_uris":{"android":"levelo://app?vid=f09a2e3e-a687-4ccb-9ce7-accc19389448","ios":"levelo://app?vid=f09a2e3e-a687-4ccb-9ce7-accc19389448"},"vehicle_type_id":"4","last_reported":1730628616,"current_range_meters":38800,"station_id":"ce4bhi12rcd13ifvqfp0","pricing_plan_id":"cebpf4jnsgd1na2vs0mg"},{"bike_id":"463a5fa2-247f-46f7-a9ca-b55d6029c4c8","system_id":"levelo_inurba_marseille","lat":43.275,"lon":5.42449,"is_reserved":false,"is_disabled":false,"rental_uris":{"android":"levelo://app?vid=463a5fa2-247f-46f7-a9ca-b55d6029c4c8","ios":"levelo://app?vid=463a5fa2-247f-46f7-a9ca-b55d6029c4c8"},"vehicle_type_id":"4","last_reported":1730628616,"current_range_meters":38800,"station_id":"ce4bhn92rcd13ifvqgrg","pricing_plan_id":"cebpf4jnsgd1na2vs0mg"},{"bike_id":"70d0eb74-7e1e-429b-809a-299b75aad810","system_id":"levelo_inurba_marseille","lat":43.27562,"lon":5.38422,"is_reserved":false,"is_disabled":false,"rental_uris":{"android":"levelo://app?vid=70d0eb74-7e1e-429b-809a-299b75aad810","ios":"levelo://app?vid=70d0eb74-7e1e-429b-809a-299b75aad810"},"vehicle_type_id":"4","last_reported":1730628616,"current_range_meters":33200,"station_id":"ce4bhh92rcd13ifvqfi0","pricing_plan_id":"cebpf4jnsgd1na2vs0mg"},{"bike_id":"349640ab-a259-4535-8677-fa1a5c63992f","system_id":"levelo_inurba_marseille","lat":43.31061,"lon":5.38341,"is_reserved":false,"is_disabled":false,"rental_uris":{"android":"levelo://app?vid=349640ab-a259-4535-8677-fa1a5c63992f","ios":"levelo://app?vid=349640ab-a259-4535-8677-fa1a5c63992f"},"vehicle_type_id":"4","last_reported":1730628616,"current_range_meters":22000,"station_id":"ce4bgv92rcd13ifvqcr0","pricing_plan_id":"cebpf4jnsgd1na2vs0mg"},{"bike_id":"5029497c-79fd-488e-8e2b-b364b73ed35f","system_id":"levelo_inurba_marseille","lat":43.27213,"lon":5.3918,"is_reserved":false,"is_disabled":false,"rental_uris":{"android":"levelo://app?vid=5029497c-79fd-488e-8e2b-b364b73ed35f","ios":"levelo://app?vid=5029497c-79fd-488e-8e2b-b364b73ed35f"},"vehicle_type_id":"4","last_reported":1730628616,"current_range_meters":25200,"station_id":"ce4bhhp2rcd13ifvqfm0","pricing_plan_id":"cebpf4jnsgd1na2vs0mg"},{"bike_id":"4a7fc2b8-1796-4c4e-a92c-ac60a62e7d7a","system_id":"levelo_inurba_marseille","lat":43.28613,"lon":5.35104,"is_reserved":false,"is_disabled":false,"rental_uris":{"android":"levelo://app?vid=4a7fc2b8-1796-4c4e-a92c-ac60a62e7d7a","ios":"levelo://app?vid=4a7fc2b8-1796-4c4e-a92c-ac60a62e7d7a"},"vehicle_type_id":"4","last_reported":1730628616,"current_range_meters":36800,"station_id":"ce4bhch2rcd13ifvqeug","pricing_plan_id":"cebpf4jnsgd1na2vs0mg"},{"bike_id":"16869cb2-a83c-40e2-9d7b-80e1114c2015","system_id":"levelo_inurba_marseille","lat":43.22923,"lon":5.35367,"is_reserved":false,"is_disabled":false,"rental_uris":{"android":"levelo://app?vid=16869cb2-a83c-40e2-9d7b-80e1114c2015","ios":"levelo://app?vid=16869cb2-a83c-40e2-9d7b-80e1114c2015"},"vehicle_type_id":"4","last_reported":1730628616,"current_range_meters":38000,"station_id":"cpo3532slgdg3j2ikp40","pricing_plan_id":"cebpf4jnsgd1na2vs0mg"},{"bike_id":"5818a6ac-2d40-4bf0-a920-aefa2e8a89fa","system_id":"levelo_inurba_marseille","lat":43.26489,"lon":5.39551,"is_reserved":false,"is_disabled":false,"rental_uris":{"android":"levelo://app?vid=5818a6ac-2d40-4bf0-a920-aefa2e8a89fa","ios":"levelo://app?vid=5818a6ac-2d40-4bf0-a920-aefa2e8a89fa"},"vehicle_type_id":"4","last_reported":1730628616,"current_range_meters":24800,"station_id":"ce4bhi12rcd13ifvqfq0","pricing_plan_id":"cebpf4jnsgd1na2vs0mg"},{"bike_id":"dd15442a-4ff6-4999-8091-ec3a847f779a","system_id":"levelo_inurba_marseille","lat":43.25002,"lon":5.38923,"is_reserved":false,"is_disabled":false,"rental_uris":{"android":"levelo://app?vid=dd15442a-4ff6-4999-8091-ec3a847f779a","ios":"levelo://app?vid=dd15442a-4ff6-4999-8091-ec3a847f779a"},"vehicle_type_id":"4","last_reported":1730628616,"current_range_meters":35600,"station_id":"ce4bhgp2rcd13ifvqfd0","pricing_plan_id":"cebpf4jnsgd1na2vs0mg"},{"bike_id":"3aae935e-f19b-4b82-860a-9e86c4796487","system_id":"levelo_inurba_marseille","lat":43.25863,"lon":5.39898,"is_reserved":false,"is_disabled":false,"rental_uris":{"android":"levelo://app?vid=3aae935e-f19b-4b82-860a-9e86c4796487","ios":"levelo://app?vid=3aae935e-f19b-4b82-860a-9e86c4796487"},"vehicle_type_id":"4","last_reported":1730628616,"current_range_meters":4800,"station_id":"ce4bhl92rcd13ifvqghg","pricing_plan_id":"cebpf4jnsgd1na2vs0mg"},{"bike_id":"09cd329c-1fa7-4b20-a274-2cdef2d8cd4f","system_id":"levelo_inurba_marseille","lat":43.24073,"lon":5.37756,"is_reserved":false,"is_disabled":false,"rental_uris":{"android":"levelo://app?vid=09cd329c-1fa7-4b20-a274-2cdef2d8cd4f","ios":"levelo://app?vid=09cd329c-1fa7-4b20-a274-2cdef2d8cd4f"},"vehicle_type_id":"4","last_reported":1730628616,"current_range_meters":38000,"station_id":"ce4bhnp2rcd13ifvqgvg","pricing_plan_id":"cebpf4jnsgd1na2vs0mg"},{"bike_id":"750ef8cf-4e1b-4907-b457-aebbb2bb1456","system_id":"levelo_inurba_marseille","lat":43.26939,"lon":5.40247,"is_reserved":false,"is_disabled":false,"rental_uris":{"android":"levelo://app?vid=750ef8cf-4e1b-4907-b457-aebbb2bb1456","ios":"levelo://app?vid=750ef8cf-4e1b-4907-b457-aebbb2bb1456"},"vehicle_type_id":"4","last_reported":1730628616,"current_range_meters":30400,"station_id":"cjm6bp8fraef2m0cb0m0","pricing_plan_id":"cebpf4jnsgd1na2vs0mg"},{"bike_id":"3c330f08-508b-4866-b688-f0374209e3dc","system_id":"levelo_inurba_marseille","lat":43.25119,"lon":5.40313,"is_reserved":false,"is_disabled":false,"rental_uris":{"android":"levelo://app?vid=3c330f08-508b-4866-b688-f0374209e3dc","ios":"levelo://app?vid=3c330f08-508b-4866-b688-f0374209e3dc"},"vehicle_type_id":"4","last_reported":1730628616,"current_range_meters":15200,"station_id":"ce4bhlh2rcd13ifvqgig","pricing_plan_id":"cebpf4jnsgd1na2vs0mg"},{"bike_id":"4147bbfb-4b14-4aca-b782-8ec6c0473609","system_id":"levelo_inurba_marseille","lat":43.23587,"lon":5.40341,"is_reserved":false,"is_disabled":false,"rental_uris":{"android":"levelo://app?vid=4147bbfb-4b14-4aca-b782-8ec6c0473609","ios":"levelo://app?vid=4147bbfb-4b14-4aca-b782-8ec6c0473609"},"vehicle_type_id":"4","last_reported":1730628616,"current_range_meters":22400,"station_id":"","pricing_plan_id":"cebpf4jnsgd1na2vs0mg"},{"bike_id":"bb92c81b-2e92-47dc-af6e-50ad7bcac2f7","system_id":"levelo_inurba_marseille","lat":43.26197,"lon":5.3793,"is_reserved":false,"is_disabled":false,"rental_uris":{"android":"levelo://app?vid=bb92c81b-2e92-47dc-af6e-50ad7bcac2f7","ios":"levelo://app?vid=bb92c81b-2e92-47dc-af6e-50ad7bcac2f7"},"vehicle_type_id":"4","last_reported":1730628616,"current_range_meters":30000,"station_id":"ce4bhjp2rcd13ifvqg90","pricing_plan_id":"cebpf4jnsgd1na2vs0mg"},{"bike_id":"768ab267-68c0-4d75-ab7e-f70793be3c63","system_id":"levelo_inurba_marseille","lat":43.28615,"lon":5.35097,"is_reserved":false,"is_disabled":false,"rental_uris":{"android":"levelo://app?vid=768ab267-68c0-4d75-ab7e-f70793be3c63","ios":"levelo://app?vid=768ab267-68c0-4d75-ab7e-f70793be3c63"},"vehicle_type_id":"4","last_reported":1730628616,"current_range_meters":38000,"station_id":"ce4bhch2rcd13ifvqeug","pricing_plan_id":"cebpf4jnsgd1na2vs0mg"},{"bike_id":"cd380209-fccd-4e21-b743-ee64cd299be0","system_id":"levelo_inurba_marseille","lat":43.29577,"lon":5.36745,"is_reserved":false,"is_disabled":false,"rental_uris":{"android":"levelo://app?vid=cd380209-fccd-4e21-b743-ee64cd299be0","ios":"levelo://app?vid=cd380209-fccd-4e21-b743-ee64cd299be0"},"vehicle_type_id":"4","last_reported":1730628616,"current_range_meters":38800,"station_id":"ce4bgph2rcd13ifvqc2g","pricing_plan_id":"cebpf4jnsgd1na2vs0mg"},{"bike_id":"d8f2173b-ec68-4f2e-833c-ab5854303f84","system_id":"levelo_inurba_marseille","lat":43.29793,"lon":5.38102,"is_reserved":false,"is_disabled":false,"rental_uris":{"android":"levelo://app?vid=d8f2173b-ec68-4f2e-833c-ab5854303f84","ios":"levelo://app?vid=d8f2173b-ec68-4f2e-833c-ab5854303f84"},"vehicle_type_id":"4","last_reported":1730628616,"current_range_meters":33200,"station_id":"ce4bgip2rcd13ifvqbb0","pricing_plan_id":"cebpf4jnsgd1na2vs0mg"},{"bike_id":"f3644f25-acbb-49ac-ab9c-e91b11f01fa4","system_id":"levelo_inurba_marseille","lat":43.25867,"lon":5.39898,"is_reserved":false,"is_disabled":false,"rental_uris":{"android":"levelo://app?vid=f3644f25-acbb-49ac-ab9c-e91b11f01fa4","ios":"levelo://app?vid=f3644f25-acbb-49ac-ab9c-e91b11f01fa4"},"vehicle_type_id":"4","last_reported":1730628616,"current_range_meters":26000,"station_id":"ce4bhl92rcd13ifvqghg","pricing_plan_id":"cebpf4jnsgd1na2vs0mg"},{"bike_id":"eeda0a49-c95e-447a-b118-263faeb6a58f","system_id":"levelo_inurba_marseille","lat":43.31453,"lon":5.37384,"is_reserved":false,"is_disabled":false,"rental_uris":{"android":"levelo://app?vid=eeda0a49-c95e-447a-b118-263faeb6a58f","ios":"levelo://app?vid=eeda0a49-c95e-447a-b118-263faeb6a58f"},"vehicle_type_id":"4","last_reported":1730628616,"current_range_meters":16000,"station_id":"","pricing_plan_id":"cebpf4jnsgd1na2vs0mg"},{"bike_id":"cee75a96-7530-46a2-9721-da9f4e595708","system_id":"levelo_inurba_marseille","lat":43.27207,"lon":5.39181,"is_reserved":false,"is_disabled":false,"rental_uris":{"android":"levelo://app?vid=cee75a96-7530-46a2-9721-da9f4e595708","ios":"levelo://app?vid=cee75a96-7530-46a2-9721-da9f4e595708"},"vehicle_type_id":"4","last_reported":1730628616,"current_range_meters":28000,"station_id":"ce4bhhp2rcd13ifvqfm0","pricing_plan_id":"cebpf4jnsgd1na2vs0mg"},{"bike_id":"1c491c83-6d95-4733-bcd3-d913645851d2","system_id":"levelo_inurba_marseille","lat":43.28411,"lon":5.37519,"is_reserved":false,"is_disabled":false,"rental_uris":{"android":"levelo://app?vid=1c491c83-6d95-4733-bcd3-d913645851d2","ios":"levelo://app?vid=1c491c83-6d95-4733-bcd3-d913645851d2"},"vehicle_type_id":"4","last_reported":1730628616,"current_range_meters":39200,"station_id":"ce4bh412rcd13ifvqds0","pricing_plan_id":"cebpf4jnsgd1na2vs0mg"},{"bike_id":"19a6d47e-53d7-42cf-9934-34fc3fd9053c","system_id":"levelo_inurba_marseille","lat":43.32289,"lon":5.38257,"is_reserved":false,"is_disabled":false,"rental_uris":{"android":"levelo://app?vid=19a6d47e-53d7-42cf-9934-34fc3fd9053c","ios":"levelo://app?vid=19a6d47e-53d7-42cf-9934-34fc3fd9053c"},"vehicle_type_id":"4","last_reported":1730628616,"current_range_meters":36000,"station_id":"ce4bhr12rcd13ifvqhqg","pricing_plan_id":"cebpf4jnsgd1na2vs0mg"},{"bike_id":"6e2c93b7-ebb4-422a-b427-e48707211c9b","system_id":"levelo_inurba_marseille","lat":43.30412,"lon":5.41277,"is_reserved":false,"is_disabled":false,"rental_uris":{"android":"levelo://app?vid=6e2c93b7-ebb4-422a-b427-e48707211c9b","ios":"levelo://app?vid=6e2c93b7-ebb4-422a-b427-e48707211c9b"},"vehicle_type_id":"4","last_reported":1730628616,"current_range_meters":39200,"station_id":"ce4bhop2rcd13ifvqh8g","pricing_plan_id":"cebpf4jnsgd1na2vs0mg"},{"bike_id":"9261d8fd-2b22-40f2-b50d-5da3e250e66c","system_id":"levelo_inurba_marseille","lat":43.27617,"lon":5.36108,"is_reserved":false,"is_disabled":false,"rental_uris":{"android":"levelo://app?vid=9261d8fd-2b22-40f2-b50d-5da3e250e66c","ios":"levelo://app?vid=9261d8fd-2b22-40f2-b50d-5da3e250e66c"},"vehicle_type_id":"4","last_reported":1730628616,"current_range_meters":6400,"station_id":"ce4bgj92rcd13ifvqbe0","pricing_plan_id":"cebpf4jnsgd1na2vs0mg"},{"bike_id":"3ff434e7-d97e-42fe-864b-d72cec550722","system_id":"levelo_inurba_marseille","lat":43.25108,"lon":5.40323,"is_reserved":false,"is_disabled":false,"rental_uris":{"android":"levelo://app?vid=3ff434e7-d97e-42fe-864b-d72cec550722","ios":"levelo://app?vid=3ff434e7-d97e-42fe-864b-d72cec550722"},"vehicle_type_id":"4","last_reported":1730628616,"current_range_meters":27200,"station_id":"ce4bhlh2rcd13ifvqgig","pricing_plan_id":"cebpf4jnsgd1na2vs0mg"},{"bike_id":"06741669-8c11-46c4-8177-e58c62b1b191","system_id":"levelo_inurba_marseille","lat":43.28865,"lon":5.35838,"is_reserved":false,"is_disabled":false,"rental_uris":{"android":"levelo://app?vid=06741669-8c11-46c4-8177-e58c62b1b191","ios":"levelo://app?vid=06741669-8c11-46c4-8177-e58c62b1b191"},"vehicle_type_id":"4","last_reported":1730628616,"current_range_meters":38800,"station_id":"ce4bhb12rcd13ifvqem0","pricing_plan_id":"cebpf4jnsgd1na2vs0mg"},{"bike_id":"a3ff93bb-1257-42af-aa61-6a8dc0551888","system_id":"levelo_inurba_marseille","lat":43.3172,"lon":5.42402,"is_reserved":false,"is_disabled":false,"rental_uris":{"android":"levelo://app?vid=a3ff93bb-1257-42af-aa61-6a8dc0551888","ios":"levelo://app?vid=a3ff93bb-1257-42af-aa61-6a8dc0551888"},"vehicle_type_id":"4","last_reported":1730628616,"current_range_meters":13600,"station_id":"ce4bhp92rcd13ifvqhbg","pricing_plan_id":"cebpf4jnsgd1na2vs0mg"},{"bike_id":"dba3c29b-3433-4dd1-a290-c8b09348f9fc","system_id":"levelo_inurba_marseille","lat":43.26058,"lon":5.39397,"is_reserved":false,"is_disabled":false,"rental_uris":{"android":"levelo://app?vid=dba3c29b-3433-4dd1-a290-c8b09348f9fc","ios":"levelo://app?vid=dba3c29b-3433-4dd1-a290-c8b09348f9fc"},"vehicle_type_id":"4","last_reported":1730628616,"current_range_meters":39200,"station_id":"ce4bhh92rcd13ifvqfj0","pricing_plan_id":"cebpf4jnsgd1na2vs0mg"},{"bike_id":"598535da-1e32-42e0-bd65-4ba25549dd70","system_id":"levelo_inurba_marseille","lat":43.31439,"lon":5.37378,"is_reserved":false,"is_disabled":false,"rental_uris":{"android":"levelo://app?vid=598535da-1e32-42e0-bd65-4ba25549dd70","ios":"levelo://app?vid=598535da-1e32-42e0-bd65-4ba25549dd70"},"vehicle_type_id":"4","last_reported":1730628616,"current_range_meters":30800,"station_id":"","pricing_plan_id":"cebpf4jnsgd1na2vs0mg"},{"bike_id":"2378f453-72a7-4eb2-ab3b-946285d406fd","system_id":"levelo_inurba_marseille","lat":43.29217,"lon":5.377395,"is_reserved":false,"is_disabled":false,"rental_uris":{"android":"levelo://app?vid=2378f453-72a7-4eb2-ab3b-946285d406fd","ios":"levelo://app?vid=2378f453-72a7-4eb2-ab3b-946285d406fd"},"vehicle_type_id":"4","last_reported":1730628616,"current_range_meters":14400,"station_id":"ce4bgi12rcd13ifvqb70","pricing_plan_id":"cebpf4jnsgd1na2vs0mg"},{"bike_id":"2fecd123-2276-416f-a249-18b8dca5a399","system_id":"levelo_inurba_marseille","lat":43.32366,"lon":5.38893,"is_reserved":false,"is_disabled":false,"rental_uris":{"android":"levelo://app?vid=2fecd123-2276-416f-a249-18b8dca5a399","ios":"levelo://app?vid=2fecd123-2276-416f-a249-18b8dca5a399"},"vehicle_type_id":"4","last_reported":1730628616,"current_range_meters":12400,"station_id":"ce4bhqp2rcd13ifvqhog","pricing_plan_id":"cebpf4jnsgd1na2vs0mg"},{"bike_id":"110be657-2529-410d-919f-cfff01886332","system_id":"levelo_inurba_marseille","lat":43.291203,"lon":5.39988,"is_reserved":false,"is_disabled":false,"rental_uris":{"android":"levelo://app?vid=110be657-2529-410d-919f-cfff01886332","ios":"levelo://app?vid=110be657-2529-410d-919f-cfff01886332"},"vehicle_type_id":"4","last_reported":1730628616,"current_range_meters":37600,"station_id":"ce4bh112rcd13ifvqd90","pricing_plan_id":"cebpf4jnsgd1na2vs0mg"},{"bike_id":"ea6eac24-7b51-434a-8f51-d28eece06440","system_id":"levelo_inurba_marseille","lat":43.287985,"lon":5.361043,"is_reserved":false,"is_disabled":false,"rental_uris":{"android":"levelo://app?vid=ea6eac24-7b51-434a-8f51-d28eece06440","ios":"levelo://app?vid=ea6eac24-7b51-434a-8f51-d28eece06440"},"vehicle_type_id":"4","last_reported":1730628616,"current_range_meters":9200,"station_id":"","pricing_plan_id":"cebpf4jnsgd1na2vs0mg"},{"bike_id":"8e5edb7a-a997-42d5-bd05-d7595ed6f4b8","system_id":"levelo_inurba_marseille","lat":43.29161,"lon":5.37165,"is_reserved":false,"is_disabled":false,"rental_uris":{"android":"levelo://app?vid=8e5edb7a-a997-42d5-bd05-d7595ed6f4b8","ios":"levelo://app?vid=8e5edb7a-a997-42d5-bd05-d7595ed6f4b8"},"vehicle_type_id":"4","last_reported":1730628616,"current_range_meters":38800,"station_id":"ce4bha92rcd13ifvqeh0","pricing_plan_id":"cebpf4jnsgd1na2vs0mg"},{"bike_id":"88bc7c59-ad9c-448a-9b4a-619aaa55841c","system_id":"levelo_inurba_marseille","lat":43.27324,"lon":5.39078,"is_reserved":false,"is_disabled":false,"rental_uris":{"android":"levelo://app?vid=88bc7c59-ad9c-448a-9b4a-619aaa55841c","ios":"levelo://app?vid=88bc7c59-ad9c-448a-9b4a-619aaa55841c"},"vehicle_type_id":"4","last_reported":1730628616,"current_range_meters":39200,"station_id":"ce4bhgp2rcd13ifvqfe0","pricing_plan_id":"cebpf4jnsgd1na2vs0mg"},{"bike_id":"76ba84d0-dc5b-448d-ad77-dd1f6b9fbaa7","system_id":"levelo_inurba_marseille","lat":43.26953,"lon":5.38615,"is_reserved":false,"is_disabled":false,"rental_uris":{"android":"levelo://app?vid=76ba84d0-dc5b-448d-ad77-dd1f6b9fbaa7","ios":"levelo://app?vid=76ba84d0-dc5b-448d-ad77-dd1f6b9fbaa7"},"vehicle_type_id":"4","last_reported":1730628616,"current_range_meters":38400,"station_id":"ce4bhh92rcd13ifvqfh0","pricing_plan_id":"cebpf4jnsgd1na2vs0mg"},{"bike_id":"fb60f436-07fe-4450-a0d1-374a6c3171e4","system_id":"levelo_inurba_marseille","lat":43.29006,"lon":5.35611,"is_reserved":false,"is_disabled":false,"rental_uris":{"android":"levelo://app?vid=fb60f436-07fe-4450-a0d1-374a6c3171e4","ios":"levelo://app?vid=fb60f436-07fe-4450-a0d1-374a6c3171e4"},"vehicle_type_id":"4","last_reported":1730628616,"current_range_meters":33600,"station_id":"ce4bhb92rcd13ifvqen0","pricing_plan_id":"cebpf4jnsgd1na2vs0mg"},{"bike_id":"45128a6c-7b99-4871-a606-b7ebfd083c59","system_id":"levelo_inurba_marseille","lat":43.30407,"lon":5.40096,"is_reserved":false,"is_disabled":false,"rental_uris":{"android":"levelo://app?vid=45128a6c-7b99-4871-a606-b7ebfd083c59","ios":"levelo://app?vid=45128a6c-7b99-4871-a606-b7ebfd083c59"},"vehicle_type_id":"4","last_reported":1730628616,"current_range_meters":8800,"station_id":"","pricing_plan_id":"cebpf4jnsgd1na2vs0mg"},{"bike_id":"c8893d8e-f81f-4744-85fb-448d69741653","system_id":"levelo_inurba_marseille","lat":43.2761,"lon":5.3611,"is_reserved":false,"is_disabled":false,"rental_uris":{"android":"levelo://app?vid=c8893d8e-f81f-4744-85fb-448d69741653","ios":"levelo://app?vid=c8893d8e-f81f-4744-85fb-448d69741653"},"vehicle_type_id":"4","last_reported":1730628616,"current_range_meters":7200,"station_id":"ce4bgj92rcd13ifvqbe0","pricing_plan_id":"cebpf4jnsgd1na2vs0mg"},{"bike_id":"91c2fc9b-f4a8-48d8-8406-b54bc4bec169","system_id":"levelo_inurba_marseille","lat":43.29192,"lon":5.35798,"is_reserved":false,"is_disabled":false,"rental_uris":{"android":"levelo://app?vid=91c2fc9b-f4a8-48d8-8406-b54bc4bec169","ios":"levelo://app?vid=91c2fc9b-f4a8-48d8-8406-b54bc4bec169"},"vehicle_type_id":"4","last_reported":1730628616,"current_range_meters":38800,"station_id":"ce4bhb12rcd13ifvqel0","pricing_plan_id":"cebpf4jnsgd1na2vs0mg"},{"bike_id":"ad7b0dfe-800c-4688-a585-6b31ca278446","system_id":"levelo_inurba_marseille","lat":43.26061,"lon":5.39394,"is_reserved":false,"is_disabled":false,"rental_uris":{"android":"levelo://app?vid=ad7b0dfe-800c-4688-a585-6b31ca278446","ios":"levelo://app?vid=ad7b0dfe-800c-4688-a585-6b31ca278446"},"vehicle_type_id":"4","last_reported":1730628616,"current_range_meters":32400,"station_id":"ce4bhh92rcd13ifvqfj0","pricing_plan_id":"cebpf4jnsgd1na2vs0mg"},{"bike_id":"24db8c51-baa9-4979-9d0a-73d572bb7750","system_id":"levelo_inurba_marseille","lat":43.29592,"lon":5.36734,"is_reserved":false,"is_disabled":false,"rental_uris":{"android":"levelo://app?vid=24db8c51-baa9-4979-9d0a-73d572bb7750","ios":"levelo://app?vid=24db8c51-baa9-4979-9d0a-73d572bb7750"},"vehicle_type_id":"4","last_reported":1730628616,"current_range_meters":38000,"station_id":"ce4bgph2rcd13ifvqc2g","pricing_plan_id":"cebpf4jnsgd1na2vs0mg"},{"bike_id":"60b2fd11-3cbf-4232-bd92-7ecebd78b656","system_id":"levelo_inurba_marseille","lat":43.28339,"lon":5.38101,"is_reserved":false,"is_disabled":false,"rental_uris":{"android":"levelo://app?vid=60b2fd11-3cbf-4232-bd92-7ecebd78b656","ios":"levelo://app?vid=60b2fd11-3cbf-4232-bd92-7ecebd78b656"},"vehicle_type_id":"4","last_reported":1730628616,"current_range_meters":38000,"station_id":"ce4bh412rcd13ifvqdr0","pricing_plan_id":"cebpf4jnsgd1na2vs0mg"},{"bike_id":"b963daba-d742-49ef-b2eb-233261ca3817","system_id":"levelo_inurba_marseille","lat":43.2781,"lon":5.40708,"is_reserved":false,"is_disabled":false,"rental_uris":{"android":"levelo://app?vid=b963daba-d742-49ef-b2eb-233261ca3817","ios":"levelo://app?vid=b963daba-d742-49ef-b2eb-233261ca3817"},"vehicle_type_id":"4","last_reported":1730628616,"current_range_meters":36800,"station_id":"ce4bhnh2rcd13ifvqgtg","pricing_plan_id":"cebpf4jnsgd1na2vs0mg"},{"bike_id":"ad492aba-e544-4f29-8a6b-408af1b7b230","system_id":"levelo_inurba_marseille","lat":43.27205,"lon":5.39182,"is_reserved":false,"is_disabled":false,"rental_uris":{"android":"levelo://app?vid=ad492aba-e544-4f29-8a6b-408af1b7b230","ios":"levelo://app?vid=ad492aba-e544-4f29-8a6b-408af1b7b230"},"vehicle_type_id":"4","last_reported":1730628616,"current_range_meters":28000,"station_id":"ce4bhhp2rcd13ifvqfm0","pricing_plan_id":"cebpf4jnsgd1na2vs0mg"},{"bike_id":"75576e24-6890-4288-9aa5-db2804891d6f","system_id":"levelo_inurba_marseille","lat":43.26947,"lon":5.4024,"is_reserved":false,"is_disabled":false,"rental_uris":{"android":"levelo://app?vid=75576e24-6890-4288-9aa5-db2804891d6f","ios":"levelo://app?vid=75576e24-6890-4288-9aa5-db2804891d6f"},"vehicle_type_id":"4","last_reported":1730628616,"current_range_meters":38400,"station_id":"cjm6bp8fraef2m0cb0m0","pricing_plan_id":"cebpf4jnsgd1na2vs0mg"},{"bike_id":"54337fac-085e-4782-bad6-db9a84abd2e2","system_id":"levelo_inurba_marseille","lat":43.3171,"lon":5.37753,"is_reserved":false,"is_disabled":false,"rental_uris":{"android":"levelo://app?vid=54337fac-085e-4782-bad6-db9a84abd2e2","ios":"levelo://app?vid=54337fac-085e-4782-bad6-db9a84abd2e2"},"vehicle_type_id":"4","last_reported":1730628616,"current_range_meters":38000,"station_id":"ce4bgth2rcd13ifvqch0","pricing_plan_id":"cebpf4jnsgd1na2vs0mg"},{"bike_id":"cd63f975-9bb0-44f7-998a-c21a699d8a27","system_id":"levelo_inurba_marseille","lat":43.30457,"lon":5.37897,"is_reserved":false,"is_disabled":false,"rental_uris":{"android":"levelo://app?vid=cd63f975-9bb0-44f7-998a-c21a699d8a27","ios":"levelo://app?vid=cd63f975-9bb0-44f7-998a-c21a699d8a27"},"vehicle_type_id":"4","last_reported":1730628616,"current_range_meters":39200,"station_id":"ce4bgup2rcd13ifvqcn0","pricing_plan_id":"cebpf4jnsgd1na2vs0mg"},{"bike_id":"42e36fda-61f0-4d80-993e-4207ff764740","system_id":"levelo_inurba_marseille","lat":43.24548,"lon":5.3952,"is_reserved":false,"is_disabled":false,"rental_uris":{"android":"levelo://app?vid=42e36fda-61f0-4d80-993e-4207ff764740","ios":"levelo://app?vid=42e36fda-61f0-4d80-993e-4207ff764740"},"vehicle_type_id":"4","last_reported":1730628616,"current_range_meters":38800,"station_id":"ce4bhlp2rcd13ifvqgjg","pricing_plan_id":"cebpf4jnsgd1na2vs0mg"},{"bike_id":"551b2b3f-bd56-485c-8f32-235c28833653","system_id":"levelo_inurba_marseille","lat":43.28002,"lon":5.41661,"is_reserved":false,"is_disabled":false,"rental_uris":{"android":"levelo://app?vid=551b2b3f-bd56-485c-8f32-235c28833653","ios":"levelo://app?vid=551b2b3f-bd56-485c-8f32-235c28833653"},"vehicle_type_id":"4","last_reported":1730628616,"current_range_meters":36400,"station_id":"ce4bho12rcd13ifvqh1g","pricing_plan_id":"cebpf4jnsgd1na2vs0mg"},{"bike_id":"242a0022-7ff2-4146-b8c8-168460a54332","system_id":"levelo_inurba_marseille","lat":43.28701,"lon":5.37383,"is_reserved":false,"is_disabled":false,"rental_uris":{"android":"levelo://app?vid=242a0022-7ff2-4146-b8c8-168460a54332","ios":"levelo://app?vid=242a0022-7ff2-4146-b8c8-168460a54332"},"vehicle_type_id":"4","last_reported":1730628616,"current_range_meters":38000,"station_id":"ce4bh3p2rcd13ifvqdq0","pricing_plan_id":"cebpf4jnsgd1na2vs0mg"},{"bike_id":"a9e32352-0ca8-4535-87fc-d3cfff86084b","system_id":"levelo_inurba_marseille","lat":43.32485,"lon":5.36556,"is_reserved":false,"is_disabled":false,"rental_uris":{"android":"levelo://app?vid=a9e32352-0ca8-4535-87fc-d3cfff86084b","ios":"levelo://app?vid=a9e32352-0ca8-4535-87fc-d3cfff86084b"},"vehicle_type_id":"4","last_reported":1730628616,"current_range_meters":32400,"station_id":"ce4bhs12rcd13ifvqhvg","pricing_plan_id":"cebpf4jnsgd1na2vs0mg"},{"bike_id":"933e88ac-d979-43a7-a64b-221565f81a6f","system_id":"levelo_inurba_marseille","lat":43.23961,"lon":5.36615,"is_reserved":false,"is_disabled":false,"rental_uris":{"android":"levelo://app?vid=933e88ac-d979-43a7-a64b-221565f81a6f","ios":"levelo://app?vid=933e88ac-d979-43a7-a64b-221565f81a6f"},"vehicle_type_id":"4","last_reported":1730628616,"current_range_meters":38000,"station_id":"ce4bhi12rcd13ifvqfp0","pricing_plan_id":"cebpf4jnsgd1na2vs0mg"},{"bike_id":"0de993bb-b64a-4032-abce-b87c2b2ec7e9","system_id":"levelo_inurba_marseille","lat":43.28155,"lon":5.42644,"is_reserved":false,"is_disabled":false,"rental_uris":{"android":"levelo://app?vid=0de993bb-b64a-4032-abce-b87c2b2ec7e9","ios":"levelo://app?vid=0de993bb-b64a-4032-abce-b87c2b2ec7e9"},"vehicle_type_id":"4","last_reported":1730628616,"current_range_meters":38000,"station_id":"ce4bhnh2rcd13ifvqgug","pricing_plan_id":"cebpf4jnsgd1na2vs0mg"},{"bike_id":"05ce730c-be4d-41f9-bdc3-24a9557532bc","system_id":"levelo_inurba_marseille","lat":43.28424,"lon":5.34982,"is_reserved":false,"is_disabled":false,"rental_uris":{"android":"levelo://app?vid=05ce730c-be4d-41f9-bdc3-24a9557532bc","ios":"levelo://app?vid=05ce730c-be4d-41f9-bdc3-24a9557532bc"},"vehicle_type_id":"4","last_reported":1730628616,"current_range_meters":8800,"station_id":"ce4bhbh2rcd13ifvqepg","pricing_plan_id":"cebpf4jnsgd1na2vs0mg"},{"bike_id":"65e17e59-ae4d-48d0-9406-a4f2ed496e4c","system_id":"levelo_inurba_marseille","lat":43.29001,"lon":5.35609,"is_reserved":false,"is_disabled":false,"rental_uris":{"android":"levelo://app?vid=65e17e59-ae4d-48d0-9406-a4f2ed496e4c","ios":"levelo://app?vid=65e17e59-ae4d-48d0-9406-a4f2ed496e4c"},"vehicle_type_id":"4","last_reported":1730628616,"current_range_meters":36400,"station_id":"ce4bhb92rcd13ifvqen0","pricing_plan_id":"cebpf4jnsgd1na2vs0mg"},{"bike_id":"fdff8735-72fc-4ffa-b6b5-42111f7f3973","system_id":"levelo_inurba_marseille","lat":43.27972,"lon":5.38729,"is_reserved":false,"is_disabled":false,"rental_uris":{"android":"levelo://app?vid=fdff8735-72fc-4ffa-b6b5-42111f7f3973","ios":"levelo://app?vid=fdff8735-72fc-4ffa-b6b5-42111f7f3973"},"vehicle_type_id":"4","last_reported":1730628616,"current_range_meters":19200,"station_id":"ce4bhg12rcd13ifvqf80","pricing_plan_id":"cebpf4jnsgd1na2vs0mg"},{"bike_id":"bb9b565f-2eb1-4d10-ba15-9ef6218a6f53","system_id":"levelo_inurba_marseille","lat":43.29844,"lon":5.36266,"is_reserved":false,"is_disabled":false,"rental_uris":{"android":"levelo://app?vid=bb9b565f-2eb1-4d10-ba15-9ef6218a6f53","ios":"levelo://app?vid=bb9b565f-2eb1-4d10-ba15-9ef6218a6f53"},"vehicle_type_id":"4","last_reported":1730628616,"current_range_meters":38800,"station_id":"ce4bgpp2rcd13ifvqc3g","pricing_plan_id":"cebpf4jnsgd1na2vs0mg"},{"bike_id":"dfbeb4ca-f4c3-4a31-8e01-8734c9cc8ae5","system_id":"levelo_inurba_marseille","lat":43.31759,"lon":5.39018,"is_reserved":false,"is_disabled":false,"rental_uris":{"android":"levelo://app?vid=dfbeb4ca-f4c3-4a31-8e01-8734c9cc8ae5","ios":"levelo://app?vid=dfbeb4ca-f4c3-4a31-8e01-8734c9cc8ae5"},"vehicle_type_id":"4","last_reported":1730628616,"current_range_meters":24400,"station_id":"ce4bhqp2rcd13ifvqhng","pricing_plan_id":"cebpf4jnsgd1na2vs0mg"},{"bike_id":"3ef581bf-7e2d-4fdd-830c-1a581a18c02f","system_id":"levelo_inurba_marseille","lat":43.3013,"lon":5.398607,"is_reserved":false,"is_disabled":false,"rental_uris":{"android":"levelo://app?vid=3ef581bf-7e2d-4fdd-830c-1a581a18c02f","ios":"levelo://app?vid=3ef581bf-7e2d-4fdd-830c-1a581a18c02f"},"vehicle_type_id":"4","last_reported":1730628616,"current_range_meters":37600,"station_id":"ce4bhgp2rcd13ifvqfe0","pricing_plan_id":"cebpf4jnsgd1na2vs0mg"},{"bike_id":"50d87cb6-1e41-45f8-bd32-acbaaff42d44","system_id":"levelo_inurba_marseille","lat":43.28469,"lon":5.3843,"is_reserved":false,"is_disabled":false,"rental_uris":{"android":"levelo://app?vid=50d87cb6-1e41-45f8-bd32-acbaaff42d44","ios":"levelo://app?vid=50d87cb6-1e41-45f8-bd32-acbaaff42d44"},"vehicle_type_id":"4","last_reported":1730628616,"current_range_meters":31200,"station_id":"ce4bh512rcd13ifvqe3g","pricing_plan_id":"cebpf4jnsgd1na2vs0mg"},{"bike_id":"b414591f-cb8f-45fa-9605-b29190c69881","system_id":"levelo_inurba_marseille","lat":43.24181,"lon":5.3973,"is_reserved":false,"is_disabled":false,"rental_uris":{"android":"levelo://app?vid=b414591f-cb8f-45fa-9605-b29190c69881","ios":"levelo://app?vid=b414591f-cb8f-45fa-9605-b29190c69881"},"vehicle_type_id":"4","last_reported":1730628616,"current_range_meters":37600,"station_id":"ce4bhn12rcd13ifvqgpg","pricing_plan_id":"cebpf4jnsgd1na2vs0mg"},{"bike_id":"2006c763-5d5d-4a90-b0eb-2cbd7baf8745","system_id":"levelo_inurba_marseille","lat":43.29694,"lon":5.39123,"is_reserved":false,"is_disabled":false,"rental_uris":{"android":"levelo://app?vid=2006c763-5d5d-4a90-b0eb-2cbd7baf8745","ios":"levelo://app?vid=2006c763-5d5d-4a90-b0eb-2cbd7baf8745"},"vehicle_type_id":"4","last_reported":1730628616,"current_range_meters":20400,"station_id":"","pricing_plan_id":"cebpf4jnsgd1na2vs0mg"},{"bike_id":"255ea6d3-7ac6-4345-8335-502748145960","system_id":"levelo_inurba_marseille","lat":43.24184,"lon":5.39722,"is_reserved":false,"is_disabled":false,"rental_uris":{"android":"levelo://app?vid=255ea6d3-7ac6-4345-8335-502748145960","ios":"levelo://app?vid=255ea6d3-7ac6-4345-8335-502748145960"},"vehicle_type_id":"4","last_reported":1730628616,"current_range_meters":33200,"station_id":"ce4bhn12rcd13ifvqgpg","pricing_plan_id":"cebpf4jnsgd1na2vs0mg"},{"bike_id":"b71aec61-79a9-4056-9e3a-b2a2b46e4408","system_id":"levelo_inurba_marseille","lat":43.28158,"lon":5.42649,"is_reserved":false,"is_disabled":false,"rental_uris":{"android":"levelo://app?vid=b71aec61-79a9-4056-9e3a-b2a2b46e4408","ios":"levelo://app?vid=b71aec61-79a9-4056-9e3a-b2a2b46e4408"},"vehicle_type_id":"4","last_reported":1730628616,"current_range_meters":17200,"station_id":"ce4bhnh2rcd13ifvqgug","pricing_plan_id":"cebpf4jnsgd1na2vs0mg"},{"bike_id":"a5e5686b-78b3-4a90-88b3-8326b4aff7e8","system_id":"levelo_inurba_marseille","lat":43.310687,"lon":5.383447,"is_reserved":false,"is_disabled":false,"rental_uris":{"android":"levelo://app?vid=a5e5686b-78b3-4a90-88b3-8326b4aff7e8","ios":"levelo://app?vid=a5e5686b-78b3-4a90-88b3-8326b4aff7e8"},"vehicle_type_id":"4","last_reported":1730628616,"current_range_meters":33200,"station_id":"ce4bgv92rcd13ifvqcr0","pricing_plan_id":"cebpf4jnsgd1na2vs0mg"},{"bike_id":"1891da9e-84eb-4db0-8985-88dfff9d5a7d","system_id":"levelo_inurba_marseille","lat":43.30417,"lon":5.41284,"is_reserved":false,"is_disabled":false,"rental_uris":{"android":"levelo://app?vid=1891da9e-84eb-4db0-8985-88dfff9d5a7d","ios":"levelo://app?vid=1891da9e-84eb-4db0-8985-88dfff9d5a7d"},"vehicle_type_id":"4","last_reported":1730628616,"current_range_meters":39200,"station_id":"ce4bhop2rcd13ifvqh8g","pricing_plan_id":"cebpf4jnsgd1na2vs0mg"},{"bike_id":"b6053268-2bff-4d9d-a017-b33d6fdf3062","system_id":"levelo_inurba_marseille","lat":43.297974,"lon":5.404196,"is_reserved":false,"is_disabled":false,"rental_uris":{"android":"levelo://app?vid=b6053268-2bff-4d9d-a017-b33d6fdf3062","ios":"levelo://app?vid=b6053268-2bff-4d9d-a017-b33d6fdf3062"},"vehicle_type_id":"4","last_reported":1730628616,"current_range_meters":27200,"station_id":"ce4bhbp2rcd13ifvqerg","pricing_plan_id":"cebpf4jnsgd1na2vs0mg"},{"bike_id":"24d5f42a-f93b-46c6-9128-dd6972a867b7","system_id":"levelo_inurba_marseille","lat":43.29038,"lon":5.35914,"is_reserved":false,"is_disabled":false,"rental_uris":{"android":"levelo://app?vid=24d5f42a-f93b-46c6-9128-dd6972a867b7","ios":"levelo://app?vid=24d5f42a-f93b-46c6-9128-dd6972a867b7"},"vehicle_type_id":"4","last_reported":1730628616,"current_range_meters":38800,"station_id":"ce4bha92rcd13ifvqeg0","pricing_plan_id":"cebpf4jnsgd1na2vs0mg"},{"bike_id":"1b760ddd-e34d-491f-9c82-3266310982c8","system_id":"levelo_inurba_marseille","lat":43.26555,"lon":5.37281,"is_reserved":false,"is_disabled":false,"rental_uris":{"android":"levelo://app?vid=1b760ddd-e34d-491f-9c82-3266310982c8","ios":"levelo://app?vid=1b760ddd-e34d-491f-9c82-3266310982c8"},"vehicle_type_id":"4","last_reported":1730628616,"current_range_meters":3600,"station_id":"ce4bhg12rcd13ifvqf70","pricing_plan_id":"cebpf4jnsgd1na2vs0mg"},{"bike_id":"f23be71f-f673-44e6-b886-5c52a18cc4aa","system_id":"levelo_inurba_marseille","lat":43.28408,"lon":5.37512,"is_reserved":false,"is_disabled":false,"rental_uris":{"android":"levelo://app?vid=f23be71f-f673-44e6-b886-5c52a18cc4aa","ios":"levelo://app?vid=f23be71f-f673-44e6-b886-5c52a18cc4aa"},"vehicle_type_id":"4","last_reported":1730628616,"current_range_meters":38400,"station_id":"ce4bh412rcd13ifvqds0","pricing_plan_id":"cebpf4jnsgd1na2vs0mg"},{"bike_id":"dbceb6c1-3ed6-47b3-9775-e6b41eb5e8de","system_id":"levelo_inurba_marseille","lat":43.27207,"lon":5.39177,"is_reserved":false,"is_disabled":false,"rental_uris":{"android":"levelo://app?vid=dbceb6c1-3ed6-47b3-9775-e6b41eb5e8de","ios":"levelo://app?vid=dbceb6c1-3ed6-47b3-9775-e6b41eb5e8de"},"vehicle_type_id":"4","last_reported":1730628616,"current_range_meters":10800,"station_id":"ce4bhhp2rcd13ifvqfm0","pricing_plan_id":"cebpf4jnsgd1na2vs0mg"},{"bike_id":"9e3a49e4-250c-4ac6-b1c4-cf1702ad648f","system_id":"levelo_inurba_marseille","lat":43.29584,"lon":5.36743,"is_reserved":false,"is_disabled":false,"rental_uris":{"android":"levelo://app?vid=9e3a49e4-250c-4ac6-b1c4-cf1702ad648f","ios":"levelo://app?vid=9e3a49e4-250c-4ac6-b1c4-cf1702ad648f"},"vehicle_type_id":"4","last_reported":1730628616,"current_range_meters":39200,"station_id":"ce4bgph2rcd13ifvqc2g","pricing_plan_id":"cebpf4jnsgd1na2vs0mg"},{"bike_id":"d3ae8054-535d-4288-b44c-84c3071021e3","system_id":"levelo_inurba_marseille","lat":43.25117,"lon":5.40313,"is_reserved":false,"is_disabled":false,"rental_uris":{"android":"levelo://app?vid=d3ae8054-535d-4288-b44c-84c3071021e3","ios":"levelo://app?vid=d3ae8054-535d-4288-b44c-84c3071021e3"},"vehicle_type_id":"4","last_reported":1730628616,"current_range_meters":14800,"station_id":"ce4bhlh2rcd13ifvqgig","pricing_plan_id":"cebpf4jnsgd1na2vs0mg"},{"bike_id":"a809d410-ab99-4a63-97d1-d85c4b6a4e1b","system_id":"levelo_inurba_marseille","lat":43.2418,"lon":5.39719,"is_reserved":false,"is_disabled":false,"rental_uris":{"android":"levelo://app?vid=a809d410-ab99-4a63-97d1-d85c4b6a4e1b","ios":"levelo://app?vid=a809d410-ab99-4a63-97d1-d85c4b6a4e1b"},"vehicle_type_id":"4","last_reported":1730628616,"current_range_meters":2000,"station_id":"ce4bhn12rcd13ifvqgpg","pricing_plan_id":"cebpf4jnsgd1na2vs0mg"},{"bike_id":"61497ec0-6b91-4085-893e-2dc4cbab5392","system_id":"levelo_inurba_marseille","lat":43.32369,"lon":5.38898,"is_reserved":false,"is_disabled":false,"rental_uris":{"android":"levelo://app?vid=61497ec0-6b91-4085-893e-2dc4cbab5392","ios":"levelo://app?vid=61497ec0-6b91-4085-893e-2dc4cbab5392"},"vehicle_type_id":"4","last_reported":1730628616,"current_range_meters":23200,"station_id":"ce4bhqp2rcd13ifvqhog","pricing_plan_id":"cebpf4jnsgd1na2vs0mg"},{"bike_id":"12c01ad3-d36b-4f7d-9a12-40c749067096","system_id":"levelo_inurba_marseille","lat":43.28364,"lon":5.3863,"is_reserved":false,"is_disabled":false,"rental_uris":{"android":"levelo://app?vid=12c01ad3-d36b-4f7d-9a12-40c749067096","ios":"levelo://app?vid=12c01ad3-d36b-4f7d-9a12-40c749067096"},"vehicle_type_id":"4","last_reported":1730628616,"current_range_meters":38000,"station_id":"ce4bh492rcd13ifvqdvg","pricing_plan_id":"cebpf4jnsgd1na2vs0mg"},{"bike_id":"f419597f-1325-4c17-b18e-cdffcedc6d80","system_id":"levelo_inurba_marseille","lat":43.292633,"lon":5.401221,"is_reserved":false,"is_disabled":false,"rental_uris":{"android":"levelo://app?vid=f419597f-1325-4c17-b18e-cdffcedc6d80","ios":"levelo://app?vid=f419597f-1325-4c17-b18e-cdffcedc6d80"},"vehicle_type_id":"4","last_reported":1730628616,"current_range_meters":24800,"station_id":"ce4bhu92rcd13ifvqi70","pricing_plan_id":"cebpf4jnsgd1na2vs0mg"},{"bike_id":"ad149d7f-8d40-4e4f-849c-a4189b540b4f","system_id":"levelo_inurba_marseille","lat":43.28423,"lon":5.37515,"is_reserved":false,"is_disabled":false,"rental_uris":{"android":"levelo://app?vid=ad149d7f-8d40-4e4f-849c-a4189b540b4f","ios":"levelo://app?vid=ad149d7f-8d40-4e4f-849c-a4189b540b4f"},"vehicle_type_id":"4","last_reported":1730628616,"current_range_meters":10000,"station_id":"ce4bh412rcd13ifvqds0","pricing_plan_id":"cebpf4jnsgd1na2vs0mg"},{"bike_id":"e55d8d6f-7394-4584-af8a-c65aaa7989ef","system_id":"levelo_inurba_marseille","lat":43.26068,"lon":5.39393,"is_reserved":false,"is_disabled":false,"rental_uris":{"android":"levelo://app?vid=e55d8d6f-7394-4584-af8a-c65aaa7989ef","ios":"levelo://app?vid=e55d8d6f-7394-4584-af8a-c65aaa7989ef"},"vehicle_type_id":"4","last_reported":1730628616,"current_range_meters":6400,"station_id":"ce4bhh92rcd13ifvqfj0","pricing_plan_id":"cebpf4jnsgd1na2vs0mg"},{"bike_id":"0e5a98e6-0a0f-47df-918f-3717980ac188","system_id":"levelo_inurba_marseille","lat":43.25574,"lon":5.38244,"is_reserved":false,"is_disabled":false,"rental_uris":{"android":"levelo://app?vid=0e5a98e6-0a0f-47df-918f-3717980ac188","ios":"levelo://app?vid=0e5a98e6-0a0f-47df-918f-3717980ac188"},"vehicle_type_id":"4","last_reported":1730628616,"current_range_meters":3600,"station_id":"ce4bhih2rcd13ifvqfs0","pricing_plan_id":"cebpf4jnsgd1na2vs0mg"},{"bike_id":"c9836de4-dae6-4bfc-aef6-8b7c0c537e63","system_id":"levelo_inurba_marseille","lat":43.25868,"lon":5.39895,"is_reserved":false,"is_disabled":false,"rental_uris":{"android":"levelo://app?vid=c9836de4-dae6-4bfc-aef6-8b7c0c537e63","ios":"levelo://app?vid=c9836de4-dae6-4bfc-aef6-8b7c0c537e63"},"vehicle_type_id":"4","last_reported":1730628616,"current_range_meters":39200,"station_id":"ce4bhl92rcd13ifvqghg","pricing_plan_id":"cebpf4jnsgd1na2vs0mg"},{"bike_id":"aa2413e3-0694-414f-bec7-60c658a97b0c","system_id":"levelo_inurba_marseille","lat":43.248016,"lon":5.374597,"is_reserved":false,"is_disabled":false,"rental_uris":{"android":"levelo://app?vid=aa2413e3-0694-414f-bec7-60c658a97b0c","ios":"levelo://app?vid=aa2413e3-0694-414f-bec7-60c658a97b0c"},"vehicle_type_id":"4","last_reported":1730628616,"current_range_meters":33600,"station_id":"ce4bhbh2rcd13ifvqeo0","pricing_plan_id":"cebpf4jnsgd1na2vs0mg"},{"bike_id":"76867c33-2a30-4764-ab43-24e998b967a2","system_id":"levelo_inurba_marseille","lat":43.25,"lon":5.38931,"is_reserved":false,"is_disabled":false,"rental_uris":{"android":"levelo://app?vid=76867c33-2a30-4764-ab43-24e998b967a2","ios":"levelo://app?vid=76867c33-2a30-4764-ab43-24e998b967a2"},"vehicle_type_id":"4","last_reported":1730628616,"current_range_meters":38400,"station_id":"ce4bhgp2rcd13ifvqfd0","pricing_plan_id":"cebpf4jnsgd1na2vs0mg"},{"bike_id":"affdda59-ce41-4672-8668-fcad20410671","system_id":"levelo_inurba_marseille","lat":43.24662,"lon":5.38165,"is_reserved":false,"is_disabled":false,"rental_uris":{"android":"levelo://app?vid=affdda59-ce41-4672-8668-fcad20410671","ios":"levelo://app?vid=affdda59-ce41-4672-8668-fcad20410671"},"vehicle_type_id":"4","last_reported":1730628616,"current_range_meters":34000,"station_id":"ce4bhih2rcd13ifvqfr0","pricing_plan_id":"cebpf4jnsgd1na2vs0mg"},{"bike_id":"49f0f2d2-d3bb-4098-8c41-801a52b040be","system_id":"levelo_inurba_marseille","lat":43.28339,"lon":5.38098,"is_reserved":false,"is_disabled":false,"rental_uris":{"android":"levelo://app?vid=49f0f2d2-d3bb-4098-8c41-801a52b040be","ios":"levelo://app?vid=49f0f2d2-d3bb-4098-8c41-801a52b040be"},"vehicle_type_id":"4","last_reported":1730628616,"current_range_meters":37600,"station_id":"ce4bh412rcd13ifvqdr0","pricing_plan_id":"cebpf4jnsgd1na2vs0mg"},{"bike_id":"d4472d20-9c4b-4c70-ad00-3a005519a429","system_id":"levelo_inurba_marseille","lat":43.35419,"lon":5.35711,"is_reserved":false,"is_disabled":false,"rental_uris":{"android":"levelo://app?vid=d4472d20-9c4b-4c70-ad00-3a005519a429","ios":"levelo://app?vid=d4472d20-9c4b-4c70-ad00-3a005519a429"},"vehicle_type_id":"4","last_reported":1730628616,"current_range_meters":16000,"station_id":"","pricing_plan_id":"cebpf4jnsgd1na2vs0mg"},{"bike_id":"6338020e-474a-4c99-b365-eea26fe54739","system_id":"levelo_inurba_marseille","lat":43.322879,"lon":5.382833,"is_reserved":false,"is_disabled":false,"rental_uris":{"android":"levelo://app?vid=6338020e-474a-4c99-b365-eea26fe54739","ios":"levelo://app?vid=6338020e-474a-4c99-b365-eea26fe54739"},"vehicle_type_id":"4","last_reported":1730628616,"current_range_meters":38800,"station_id":"ce4bhr12rcd13ifvqhqg","pricing_plan_id":"cebpf4jnsgd1na2vs0mg"},{"bike_id":"7dc33034-781d-4ebf-9295-58711817662e","system_id":"levelo_inurba_marseille","lat":43.28701,"lon":5.39991,"is_reserved":false,"is_disabled":false,"rental_uris":{"android":"levelo://app?vid=7dc33034-781d-4ebf-9295-58711817662e","ios":"levelo://app?vid=7dc33034-781d-4ebf-9295-58711817662e"},"vehicle_type_id":"4","last_reported":1730628616,"current_range_meters":17600,"station_id":"ce4bho92rcd13ifvqh3g","pricing_plan_id":"cebpf4jnsgd1na2vs0mg"},{"bike_id":"4b222da4-8442-4555-b643-ea7c217414d0","system_id":"levelo_inurba_marseille","lat":43.27569,"lon":5.3842,"is_reserved":false,"is_disabled":false,"rental_uris":{"android":"levelo://app?vid=4b222da4-8442-4555-b643-ea7c217414d0","ios":"levelo://app?vid=4b222da4-8442-4555-b643-ea7c217414d0"},"vehicle_type_id":"4","last_reported":1730628616,"current_range_meters":6400,"station_id":"ce4bhh92rcd13ifvqfi0","pricing_plan_id":"cebpf4jnsgd1na2vs0mg"},{"bike_id":"667575a2-3850-4551-b15d-3c68401d7b71","system_id":"levelo_inurba_marseille","lat":43.30551,"lon":5.36552,"is_reserved":false,"is_disabled":false,"rental_uris":{"android":"levelo://app?vid=667575a2-3850-4551-b15d-3c68401d7b71","ios":"levelo://app?vid=667575a2-3850-4551-b15d-3c68401d7b71"},"vehicle_type_id":"4","last_reported":1730628616,"current_range_meters":36400,"station_id":"ce4bgs12rcd13ifvqcag","pricing_plan_id":"cebpf4jnsgd1na2vs0mg"},{"bike_id":"99081d31-0c8e-498b-8e95-c319e84336b8","system_id":"levelo_inurba_marseille","lat":43.29004,"lon":5.35599,"is_reserved":false,"is_disabled":false,"rental_uris":{"android":"levelo://app?vid=99081d31-0c8e-498b-8e95-c319e84336b8","ios":"levelo://app?vid=99081d31-0c8e-498b-8e95-c319e84336b8"},"vehicle_type_id":"4","last_reported":1730628616,"current_range_meters":39200,"station_id":"ce4bhb92rcd13ifvqen0","pricing_plan_id":"cebpf4jnsgd1na2vs0mg"},{"bike_id":"e0624165-2dad-4331-bf4d-d984a7de7861","system_id":"levelo_inurba_marseille","lat":43.24075,"lon":5.37755,"is_reserved":false,"is_disabled":false,"rental_uris":{"android":"levelo://app?vid=e0624165-2dad-4331-bf4d-d984a7de7861","ios":"levelo://app?vid=e0624165-2dad-4331-bf4d-d984a7de7861"},"vehicle_type_id":"4","last_reported":1730628616,"current_range_meters":32400,"station_id":"ce4bhnp2rcd13ifvqgvg","pricing_plan_id":"cebpf4jnsgd1na2vs0mg"},{"bike_id":"4d838921-ecf0-47e9-891e-f3ee5c37121f","system_id":"levelo_inurba_marseille","lat":43.28269,"lon":5.35065,"is_reserved":false,"is_disabled":false,"rental_uris":{"android":"levelo://app?vid=4d838921-ecf0-47e9-891e-f3ee5c37121f","ios":"levelo://app?vid=4d838921-ecf0-47e9-891e-f3ee5c37121f"},"vehicle_type_id":"4","last_reported":1730628616,"current_range_meters":35600,"station_id":"ce4bhbp2rcd13ifvqerg","pricing_plan_id":"cebpf4jnsgd1na2vs0mg"},{"bike_id":"f8833f7b-49c8-440c-b671-beb72799bdec","system_id":"levelo_inurba_marseille","lat":43.24976,"lon":5.37504,"is_reserved":false,"is_disabled":false,"rental_uris":{"android":"levelo://app?vid=f8833f7b-49c8-440c-b671-beb72799bdec","ios":"levelo://app?vid=f8833f7b-49c8-440c-b671-beb72799bdec"},"vehicle_type_id":"4","last_reported":1730628616,"current_range_meters":32000,"station_id":"","pricing_plan_id":"cebpf4jnsgd1na2vs0mg"},{"bike_id":"7d1d8b3c-0803-4bf6-9721-d7161499653f","system_id":"levelo_inurba_marseille","lat":43.24074,"lon":5.37757,"is_reserved":false,"is_disabled":false,"rental_uris":{"android":"levelo://app?vid=7d1d8b3c-0803-4bf6-9721-d7161499653f","ios":"levelo://app?vid=7d1d8b3c-0803-4bf6-9721-d7161499653f"},"vehicle_type_id":"4","last_reported":1730628616,"current_range_meters":20400,"station_id":"ce4bhnp2rcd13ifvqgvg","pricing_plan_id":"cebpf4jnsgd1na2vs0mg"},{"bike_id":"f35cd096-8317-409a-9875-97da0ea574d4","system_id":"levelo_inurba_marseille","lat":43.32532,"lon":5.41452,"is_reserved":false,"is_disabled":false,"rental_uris":{"android":"levelo://app?vid=f35cd096-8317-409a-9875-97da0ea574d4","ios":"levelo://app?vid=f35cd096-8317-409a-9875-97da0ea574d4"},"vehicle_type_id":"4","last_reported":1730628616,"current_range_meters":37600,"station_id":"ce4bhq12rcd13ifvqhhg","pricing_plan_id":"cebpf4jnsgd1na2vs0mg"},{"bike_id":"75dcde3b-e30e-49c9-94a8-71caa44482f1","system_id":"levelo_inurba_marseille","lat":43.31536,"lon":5.38029,"is_reserved":false,"is_disabled":false,"rental_uris":{"android":"levelo://app?vid=75dcde3b-e30e-49c9-94a8-71caa44482f1","ios":"levelo://app?vid=75dcde3b-e30e-49c9-94a8-71caa44482f1"},"vehicle_type_id":"4","last_reported":1730628616,"current_range_meters":38800,"station_id":"ce4bhsp2rcd13ifvqi50","pricing_plan_id":"cebpf4jnsgd1na2vs0mg"},{"bike_id":"5ec9569d-01b1-4aba-bf03-e3eddfda84e3","system_id":"levelo_inurba_marseille","lat":43.2678,"lon":5.39412,"is_reserved":false,"is_disabled":false,"rental_uris":{"android":"levelo://app?vid=5ec9569d-01b1-4aba-bf03-e3eddfda84e3","ios":"levelo://app?vid=5ec9569d-01b1-4aba-bf03-e3eddfda84e3"},"vehicle_type_id":"4","last_reported":1730628616,"current_range_meters":38800,"station_id":"ce4bhh12rcd13ifvqfg0","pricing_plan_id":"cebpf4jnsgd1na2vs0mg"},{"bike_id":"1ddde7ff-3953-4942-bfab-1d2712b93546","system_id":"levelo_inurba_marseille","lat":43.31716,"lon":5.37748,"is_reserved":false,"is_disabled":false,"rental_uris":{"android":"levelo://app?vid=1ddde7ff-3953-4942-bfab-1d2712b93546","ios":"levelo://app?vid=1ddde7ff-3953-4942-bfab-1d2712b93546"},"vehicle_type_id":"4","last_reported":1730628616,"current_range_meters":39200,"station_id":"ce4bgth2rcd13ifvqch0","pricing_plan_id":"cebpf4jnsgd1na2vs0mg"},{"bike_id":"7261abbc-bef1-40b4-8225-29e060af6a97","system_id":"levelo_inurba_marseille","lat":43.28001,"lon":5.41658,"is_reserved":false,"is_disabled":false,"rental_uris":{"android":"levelo://app?vid=7261abbc-bef1-40b4-8225-29e060af6a97","ios":"levelo://app?vid=7261abbc-bef1-40b4-8225-29e060af6a97"},"vehicle_type_id":"4","last_reported":1730628616,"current_range_meters":38000,"station_id":"ce4bho12rcd13ifvqh1g","pricing_plan_id":"cebpf4jnsgd1na2vs0mg"},{"bike_id":"b9268432-1c25-45bb-9e9c-a1d1b35c0a3a","system_id":"levelo_inurba_marseille","lat":43.24802,"lon":5.37447,"is_reserved":false,"is_disabled":false,"rental_uris":{"android":"levelo://app?vid=b9268432-1c25-45bb-9e9c-a1d1b35c0a3a","ios":"levelo://app?vid=b9268432-1c25-45bb-9e9c-a1d1b35c0a3a"},"vehicle_type_id":"4","last_reported":1730628616,"current_range_meters":35600,"station_id":"ce4bhgh2rcd13ifvqfb0","pricing_plan_id":"cebpf4jnsgd1na2vs0mg"},{"bike_id":"18402065-9e87-476b-95ad-30853de181a0","system_id":"levelo_inurba_marseille","lat":43.32455,"lon":5.45543,"is_reserved":false,"is_disabled":false,"rental_uris":{"android":"levelo://app?vid=18402065-9e87-476b-95ad-30853de181a0","ios":"levelo://app?vid=18402065-9e87-476b-95ad-30853de181a0"},"vehicle_type_id":"4","last_reported":1730628616,"current_range_meters":4000,"station_id":"","pricing_plan_id":"cebpf4jnsgd1na2vs0mg"},{"bike_id":"0795f4cf-259d-417a-8820-3a6b012ae7cb","system_id":"levelo_inurba_marseille","lat":43.23194,"lon":5.35552,"is_reserved":false,"is_disabled":false,"rental_uris":{"android":"levelo://app?vid=0795f4cf-259d-417a-8820-3a6b012ae7cb","ios":"levelo://app?vid=0795f4cf-259d-417a-8820-3a6b012ae7cb"},"vehicle_type_id":"4","last_reported":1730628616,"current_range_meters":29600,"station_id":"ce4bhu92rcd13ifvqi70","pricing_plan_id":"cebpf4jnsgd1na2vs0mg"},{"bike_id":"f980706a-61cc-48af-afe9-e1350ad6864f","system_id":"levelo_inurba_marseille","lat":43.2958,"lon":5.36742,"is_reserved":false,"is_disabled":false,"rental_uris":{"android":"levelo://app?vid=f980706a-61cc-48af-afe9-e1350ad6864f","ios":"levelo://app?vid=f980706a-61cc-48af-afe9-e1350ad6864f"},"vehicle_type_id":"4","last_reported":1730628616,"current_range_meters":27600,"station_id":"ce4bgph2rcd13ifvqc2g","pricing_plan_id":"cebpf4jnsgd1na2vs0mg"},{"bike_id":"4eb01b0d-49fc-48ee-b782-54d621657f1b","system_id":"levelo_inurba_marseille","lat":43.31888,"lon":5.40748,"is_reserved":false,"is_disabled":false,"rental_uris":{"android":"levelo://app?vid=4eb01b0d-49fc-48ee-b782-54d621657f1b","ios":"levelo://app?vid=4eb01b0d-49fc-48ee-b782-54d621657f1b"},"vehicle_type_id":"4","last_reported":1730628616,"current_range_meters":31200,"station_id":"ce4bhq12rcd13ifvqhig","pricing_plan_id":"cebpf4jnsgd1na2vs0mg"},{"bike_id":"f90730aa-8241-4aad-86b2-c4b4611fa5ea","system_id":"levelo_inurba_marseille","lat":43.25929,"lon":5.40904,"is_reserved":false,"is_disabled":false,"rental_uris":{"android":"levelo://app?vid=f90730aa-8241-4aad-86b2-c4b4611fa5ea","ios":"levelo://app?vid=f90730aa-8241-4aad-86b2-c4b4611fa5ea"},"vehicle_type_id":"4","last_reported":1730628616,"current_range_meters":16400,"station_id":"ce4bhm92rcd13ifvqglg","pricing_plan_id":"cebpf4jnsgd1na2vs0mg"},{"bike_id":"d85910d8-d412-4b12-a122-3b51215851f8","system_id":"levelo_inurba_marseille","lat":43.31069,"lon":5.38338,"is_reserved":false,"is_disabled":false,"rental_uris":{"android":"levelo://app?vid=d85910d8-d412-4b12-a122-3b51215851f8","ios":"levelo://app?vid=d85910d8-d412-4b12-a122-3b51215851f8"},"vehicle_type_id":"4","last_reported":1730628616,"current_range_meters":30400,"station_id":"ce4bgv92rcd13ifvqcr0","pricing_plan_id":"cebpf4jnsgd1na2vs0mg"},{"bike_id":"61f26f1a-3012-4bcc-bbf3-435c78ebab81","system_id":"levelo_inurba_marseille","lat":43.27926,"lon":5.39572,"is_reserved":false,"is_disabled":false,"rental_uris":{"android":"levelo://app?vid=61f26f1a-3012-4bcc-bbf3-435c78ebab81","ios":"levelo://app?vid=61f26f1a-3012-4bcc-bbf3-435c78ebab81"},"vehicle_type_id":"4","last_reported":1730628616,"current_range_meters":27200,"station_id":"ce4bhf92rcd13ifvqf40","pricing_plan_id":"cebpf4jnsgd1na2vs0mg"},{"bike_id":"69e8e244-7afd-48f7-87cc-a6062d557c47","system_id":"levelo_inurba_marseille","lat":43.28001,"lon":5.41659,"is_reserved":false,"is_disabled":false,"rental_uris":{"android":"levelo://app?vid=69e8e244-7afd-48f7-87cc-a6062d557c47","ios":"levelo://app?vid=69e8e244-7afd-48f7-87cc-a6062d557c47"},"vehicle_type_id":"4","last_reported":1730628616,"current_range_meters":19600,"station_id":"ce4bho12rcd13ifvqh1g","pricing_plan_id":"cebpf4jnsgd1na2vs0mg"},{"bike_id":"751eec01-23b0-49aa-a2a3-e2d658155f8b","system_id":"levelo_inurba_marseille","lat":43.2717,"lon":5.40984,"is_reserved":false,"is_disabled":false,"rental_uris":{"android":"levelo://app?vid=751eec01-23b0-49aa-a2a3-e2d658155f8b","ios":"levelo://app?vid=751eec01-23b0-49aa-a2a3-e2d658155f8b"},"vehicle_type_id":"4","last_reported":1730628616,"current_range_meters":38800,"station_id":"ce4bhl12rcd13ifvqgf0","pricing_plan_id":"cebpf4jnsgd1na2vs0mg"},{"bike_id":"c7a6a60a-ebc3-43dc-847c-5817f23f3b49","system_id":"levelo_inurba_marseille","lat":43.25723,"lon":5.41105,"is_reserved":false,"is_disabled":false,"rental_uris":{"android":"levelo://app?vid=c7a6a60a-ebc3-43dc-847c-5817f23f3b49","ios":"levelo://app?vid=c7a6a60a-ebc3-43dc-847c-5817f23f3b49"},"vehicle_type_id":"4","last_reported":1730628616,"current_range_meters":6800,"station_id":"ce4bhkp2rcd13ifvqgd0","pricing_plan_id":"cebpf4jnsgd1na2vs0mg"},{"bike_id":"d5541a12-439a-4845-841b-6ce96c9850ba","system_id":"levelo_inurba_marseille","lat":43.24805,"lon":5.37452,"is_reserved":false,"is_disabled":false,"rental_uris":{"android":"levelo://app?vid=d5541a12-439a-4845-841b-6ce96c9850ba","ios":"levelo://app?vid=d5541a12-439a-4845-841b-6ce96c9850ba"},"vehicle_type_id":"4","last_reported":1730628616,"current_range_meters":17200,"station_id":"ce4bhgh2rcd13ifvqfb0","pricing_plan_id":"cebpf4jnsgd1na2vs0mg"},{"bike_id":"0bbdb248-f4da-4d2c-bd87-5a0fa0739dd4","system_id":"levelo_inurba_marseille","lat":43.24068,"lon":5.3776,"is_reserved":false,"is_disabled":false,"rental_uris":{"android":"levelo://app?vid=0bbdb248-f4da-4d2c-bd87-5a0fa0739dd4","ios":"levelo://app?vid=0bbdb248-f4da-4d2c-bd87-5a0fa0739dd4"},"vehicle_type_id":"4","last_reported":1730628616,"current_range_meters":10000,"station_id":"ce4bhnp2rcd13ifvqgvg","pricing_plan_id":"cebpf4jnsgd1na2vs0mg"},{"bike_id":"c1e3f1fb-a976-4c88-946a-c0964acf9cad","system_id":"levelo_inurba_marseille","lat":43.27566,"lon":5.38418,"is_reserved":false,"is_disabled":false,"rental_uris":{"android":"levelo://app?vid=c1e3f1fb-a976-4c88-946a-c0964acf9cad","ios":"levelo://app?vid=c1e3f1fb-a976-4c88-946a-c0964acf9cad"},"vehicle_type_id":"4","last_reported":1730628616,"current_range_meters":39200,"station_id":"ce4bhh92rcd13ifvqfi0","pricing_plan_id":"cebpf4jnsgd1na2vs0mg"},{"bike_id":"b71dc31e-9c6b-4f42-ade0-fcb7f4c2167e","system_id":"levelo_inurba_marseille","lat":43.32482,"lon":5.36567,"is_reserved":false,"is_disabled":false,"rental_uris":{"android":"levelo://app?vid=b71dc31e-9c6b-4f42-ade0-fcb7f4c2167e","ios":"levelo://app?vid=b71dc31e-9c6b-4f42-ade0-fcb7f4c2167e"},"vehicle_type_id":"4","last_reported":1730628616,"current_range_meters":19200,"station_id":"ce4bhs12rcd13ifvqhvg","pricing_plan_id":"cebpf4jnsgd1na2vs0mg"},{"bike_id":"d231bcea-67b5-493f-a2b9-558b845646fa","system_id":"levelo_inurba_marseille","lat":43.26025,"lon":5.37545,"is_reserved":false,"is_disabled":false,"rental_uris":{"android":"levelo://app?vid=d231bcea-67b5-493f-a2b9-558b845646fa","ios":"levelo://app?vid=d231bcea-67b5-493f-a2b9-558b845646fa"},"vehicle_type_id":"4","last_reported":1730628616,"current_range_meters":36000,"station_id":"ce4bhgh2rcd13ifvqfa0","pricing_plan_id":"cebpf4jnsgd1na2vs0mg"},{"bike_id":"67f27790-369c-496e-9dda-769f0bfe7cd4","system_id":"levelo_inurba_marseille","lat":43.25497,"lon":5.37646,"is_reserved":false,"is_disabled":false,"rental_uris":{"android":"levelo://app?vid=67f27790-369c-496e-9dda-769f0bfe7cd4","ios":"levelo://app?vid=67f27790-369c-496e-9dda-769f0bfe7cd4"},"vehicle_type_id":"4","last_reported":1730628616,"current_range_meters":40000,"station_id":"ce4bhh12rcd13ifvqff0","pricing_plan_id":"cebpf4jnsgd1na2vs0mg"},{"bike_id":"e4076913-25a7-4304-83b4-9b1933c6ed9b","system_id":"levelo_inurba_marseille","lat":43.27992,"lon":5.40014,"is_reserved":false,"is_disabled":false,"rental_uris":{"android":"levelo://app?vid=e4076913-25a7-4304-83b4-9b1933c6ed9b","ios":"levelo://app?vid=e4076913-25a7-4304-83b4-9b1933c6ed9b"},"vehicle_type_id":"4","last_reported":1730628616,"current_range_meters":38000,"station_id":"ce4bho92rcd13ifvqh4g","pricing_plan_id":"cebpf4jnsgd1na2vs0mg"},{"bike_id":"24ffd7c5-6473-484d-9c6b-b6420825c8ed","system_id":"levelo_inurba_marseille","lat":43.29894,"lon":5.43654,"is_reserved":false,"is_disabled":false,"rental_uris":{"android":"levelo://app?vid=24ffd7c5-6473-484d-9c6b-b6420825c8ed","ios":"levelo://app?vid=24ffd7c5-6473-484d-9c6b-b6420825c8ed"},"vehicle_type_id":"4","last_reported":1730628616,"current_range_meters":38400,"station_id":"ce4bhpp2rcd13ifvqhfg","pricing_plan_id":"cebpf4jnsgd1na2vs0mg"},{"bike_id":"977219da-76a7-4d8f-a196-6e4f2d9787c4","system_id":"levelo_inurba_marseille","lat":43.26782,"lon":5.3942,"is_reserved":false,"is_disabled":false,"rental_uris":{"android":"levelo://app?vid=977219da-76a7-4d8f-a196-6e4f2d9787c4","ios":"levelo://app?vid=977219da-76a7-4d8f-a196-6e4f2d9787c4"},"vehicle_type_id":"4","last_reported":1730628616,"current_range_meters":38800,"station_id":"ce4bhh12rcd13ifvqfg0","pricing_plan_id":"cebpf4jnsgd1na2vs0mg"},{"bike_id":"85a63d61-293f-4adc-846f-079a8da5970c","system_id":"levelo_inurba_marseille","lat":43.28341,"lon":5.38112,"is_reserved":false,"is_disabled":false,"rental_uris":{"android":"levelo://app?vid=85a63d61-293f-4adc-846f-079a8da5970c","ios":"levelo://app?vid=85a63d61-293f-4adc-846f-079a8da5970c"},"vehicle_type_id":"4","last_reported":1730628616,"current_range_meters":16000,"station_id":"ce4bh412rcd13ifvqdr0","pricing_plan_id":"cebpf4jnsgd1na2vs0mg"},{"bike_id":"6e6c1416-464f-4f03-9742-bebcc8a06f1e","system_id":"levelo_inurba_marseille","lat":43.31758,"lon":5.39015,"is_reserved":false,"is_disabled":false,"rental_uris":{"android":"levelo://app?vid=6e6c1416-464f-4f03-9742-bebcc8a06f1e","ios":"levelo://app?vid=6e6c1416-464f-4f03-9742-bebcc8a06f1e"},"vehicle_type_id":"4","last_reported":1730628616,"current_range_meters":38800,"station_id":"ce4bhqp2rcd13ifvqhng","pricing_plan_id":"cebpf4jnsgd1na2vs0mg"},{"bike_id":"68ee4823-8219-4e40-934b-3c46becc94f7","system_id":"levelo_inurba_marseille","lat":43.31071,"lon":5.38351,"is_reserved":false,"is_disabled":false,"rental_uris":{"android":"levelo://app?vid=68ee4823-8219-4e40-934b-3c46becc94f7","ios":"levelo://app?vid=68ee4823-8219-4e40-934b-3c46becc94f7"},"vehicle_type_id":"4","last_reported":1730628616,"current_range_meters":30000,"station_id":"ce4bgv92rcd13ifvqcr0","pricing_plan_id":"cebpf4jnsgd1na2vs0mg"},{"bike_id":"4b775463-cf5a-40b4-8149-f6b055abd79c","system_id":"levelo_inurba_marseille","lat":43.26487,"lon":5.39552,"is_reserved":false,"is_disabled":false,"rental_uris":{"android":"levelo://app?vid=4b775463-cf5a-40b4-8149-f6b055abd79c","ios":"levelo://app?vid=4b775463-cf5a-40b4-8149-f6b055abd79c"},"vehicle_type_id":"4","last_reported":1730628616,"current_range_meters":38000,"station_id":"ce4bhi12rcd13ifvqfq0","pricing_plan_id":"cebpf4jnsgd1na2vs0mg"},{"bike_id":"f6d5c7b1-e3f8-403a-8f8a-e5ed4af79c68","system_id":"levelo_inurba_marseille","lat":43.29629,"lon":5.40598,"is_reserved":false,"is_disabled":false,"rental_uris":{"android":"levelo://app?vid=f6d5c7b1-e3f8-403a-8f8a-e5ed4af79c68","ios":"levelo://app?vid=f6d5c7b1-e3f8-403a-8f8a-e5ed4af79c68"},"vehicle_type_id":"4","last_reported":1730628616,"current_range_meters":3200,"station_id":"ce4bh0h2rcd13ifvqd60","pricing_plan_id":"cebpf4jnsgd1na2vs0mg"},{"bike_id":"71019fb4-3e0a-4ccb-b140-9df5582bba4c","system_id":"levelo_inurba_marseille","lat":43.29483,"lon":5.392828,"is_reserved":false,"is_disabled":false,"rental_uris":{"android":"levelo://app?vid=71019fb4-3e0a-4ccb-b140-9df5582bba4c","ios":"levelo://app?vid=71019fb4-3e0a-4ccb-b140-9df5582bba4c"},"vehicle_type_id":"4","last_reported":1730628616,"current_range_meters":28000,"station_id":"ce4bgjh2rcd13ifvqbg0","pricing_plan_id":"cebpf4jnsgd1na2vs0mg"},{"bike_id":"5bed4c60-b912-42f6-b099-933c6ebb8aca","system_id":"levelo_inurba_marseille","lat":43.2583,"lon":5.3943,"is_reserved":false,"is_disabled":false,"rental_uris":{"android":"levelo://app?vid=5bed4c60-b912-42f6-b099-933c6ebb8aca","ios":"levelo://app?vid=5bed4c60-b912-42f6-b099-933c6ebb8aca"},"vehicle_type_id":"4","last_reported":1730628616,"current_range_meters":36400,"station_id":"ce4bhip2rcd13ifvqft0","pricing_plan_id":"cebpf4jnsgd1na2vs0mg"},{"bike_id":"7c52dca3-7bef-4bad-9fba-b9cb071437ae","system_id":"levelo_inurba_marseille","lat":43.30805,"lon":5.38146,"is_reserved":false,"is_disabled":false,"rental_uris":{"android":"levelo://app?vid=7c52dca3-7bef-4bad-9fba-b9cb071437ae","ios":"levelo://app?vid=7c52dca3-7bef-4bad-9fba-b9cb071437ae"},"vehicle_type_id":"4","last_reported":1730628616,"current_range_meters":28800,"station_id":"ce4bgt12rcd13ifvqce0","pricing_plan_id":"cebpf4jnsgd1na2vs0mg"},{"bike_id":"e4c327ef-91e6-45d8-acea-b018f56189b1","system_id":"levelo_inurba_marseille","lat":43.287186,"lon":5.399939,"is_reserved":false,"is_disabled":false,"rental_uris":{"android":"levelo://app?vid=e4c327ef-91e6-45d8-acea-b018f56189b1","ios":"levelo://app?vid=e4c327ef-91e6-45d8-acea-b018f56189b1"},"vehicle_type_id":"4","last_reported":1730628616,"current_range_meters":36800,"station_id":"ce4bho92rcd13ifvqh3g","pricing_plan_id":"cebpf4jnsgd1na2vs0mg"},{"bike_id":"44062d9d-68c9-40e6-abbd-6934a4ae966d","system_id":"levelo_inurba_marseille","lat":43.28934,"lon":5.36619,"is_reserved":false,"is_disabled":false,"rental_uris":{"android":"levelo://app?vid=44062d9d-68c9-40e6-abbd-6934a4ae966d","ios":"levelo://app?vid=44062d9d-68c9-40e6-abbd-6934a4ae966d"},"vehicle_type_id":"4","last_reported":1730628616,"current_range_meters":35600,"station_id":"ce4bhap2rcd13ifvqek0","pricing_plan_id":"cebpf4jnsgd1na2vs0mg"},{"bike_id":"581392ef-bf00-4538-9de0-6e66c216240f","system_id":"levelo_inurba_marseille","lat":43.24653,"lon":5.38883,"is_reserved":false,"is_disabled":false,"rental_uris":{"android":"levelo://app?vid=581392ef-bf00-4538-9de0-6e66c216240f","ios":"levelo://app?vid=581392ef-bf00-4538-9de0-6e66c216240f"},"vehicle_type_id":"4","last_reported":1730628616,"current_range_meters":22800,"station_id":"ce4bhg12rcd13ifvqf60","pricing_plan_id":"cebpf4jnsgd1na2vs0mg"},{"bike_id":"8c67d340-801d-46e5-b910-2f8aff3ff078","system_id":"levelo_inurba_marseille","lat":43.33315,"lon":5.37056,"is_reserved":false,"is_disabled":false,"rental_uris":{"android":"levelo://app?vid=8c67d340-801d-46e5-b910-2f8aff3ff078","ios":"levelo://app?vid=8c67d340-801d-46e5-b910-2f8aff3ff078"},"vehicle_type_id":"4","last_reported":1730628616,"current_range_meters":6800,"station_id":"","pricing_plan_id":"cebpf4jnsgd1na2vs0mg"},{"bike_id":"4a54db5d-2977-47eb-bcae-c8880baddda0","system_id":"levelo_inurba_marseille","lat":43.24996,"lon":5.38934,"is_reserved":false,"is_disabled":false,"rental_uris":{"android":"levelo://app?vid=4a54db5d-2977-47eb-bcae-c8880baddda0","ios":"levelo://app?vid=4a54db5d-2977-47eb-bcae-c8880baddda0"},"vehicle_type_id":"4","last_reported":1730628616,"current_range_meters":30400,"station_id":"ce4bhgp2rcd13ifvqfd0","pricing_plan_id":"cebpf4jnsgd1na2vs0mg"},{"bike_id":"f326d985-6193-4e35-a243-5b52e51d95fb","system_id":"levelo_inurba_marseille","lat":43.26782,"lon":5.39414,"is_reserved":false,"is_disabled":false,"rental_uris":{"android":"levelo://app?vid=f326d985-6193-4e35-a243-5b52e51d95fb","ios":"levelo://app?vid=f326d985-6193-4e35-a243-5b52e51d95fb"},"vehicle_type_id":"4","last_reported":1730628616,"current_range_meters":27600,"station_id":"ce4bhh12rcd13ifvqfg0","pricing_plan_id":"cebpf4jnsgd1na2vs0mg"},{"bike_id":"921069e2-e506-477e-8730-9e0ff76dae61","system_id":"levelo_inurba_marseille","lat":43.2407,"lon":5.37758,"is_reserved":false,"is_disabled":false,"rental_uris":{"android":"levelo://app?vid=921069e2-e506-477e-8730-9e0ff76dae61","ios":"levelo://app?vid=921069e2-e506-477e-8730-9e0ff76dae61"},"vehicle_type_id":"4","last_reported":1730628616,"current_range_meters":36800,"station_id":"ce4bhnp2rcd13ifvqgvg","pricing_plan_id":"cebpf4jnsgd1na2vs0mg"},{"bike_id":"c846251d-5832-46ba-929a-116520f96d03","system_id":"levelo_inurba_marseille","lat":43.32292,"lon":5.38271,"is_reserved":false,"is_disabled":false,"rental_uris":{"android":"levelo://app?vid=c846251d-5832-46ba-929a-116520f96d03","ios":"levelo://app?vid=c846251d-5832-46ba-929a-116520f96d03"},"vehicle_type_id":"4","last_reported":1730628616,"current_range_meters":10800,"station_id":"ce4bhr12rcd13ifvqhqg","pricing_plan_id":"cebpf4jnsgd1na2vs0mg"},{"bike_id":"704eba55-73fe-495c-8b3d-68b1d87c8902","system_id":"levelo_inurba_marseille","lat":43.29792,"lon":5.40415,"is_reserved":false,"is_disabled":false,"rental_uris":{"android":"levelo://app?vid=704eba55-73fe-495c-8b3d-68b1d87c8902","ios":"levelo://app?vid=704eba55-73fe-495c-8b3d-68b1d87c8902"},"vehicle_type_id":"4","last_reported":1730628616,"current_range_meters":22400,"station_id":"ce4bh112rcd13ifvqd90","pricing_plan_id":"cebpf4jnsgd1na2vs0mg"},{"bike_id":"ee3fe7cd-40fe-4ac9-b6d2-0db99396449b","system_id":"levelo_inurba_marseille","lat":43.25721,"lon":5.41111,"is_reserved":false,"is_disabled":false,"rental_uris":{"android":"levelo://app?vid=ee3fe7cd-40fe-4ac9-b6d2-0db99396449b","ios":"levelo://app?vid=ee3fe7cd-40fe-4ac9-b6d2-0db99396449b"},"vehicle_type_id":"4","last_reported":1730628616,"current_range_meters":38800,"station_id":"ce4bhkp2rcd13ifvqgd0","pricing_plan_id":"cebpf4jnsgd1na2vs0mg"},{"bike_id":"d16597ad-1553-4bf6-a420-22d1707e70d3","system_id":"levelo_inurba_marseille","lat":43.32653,"lon":5.4099,"is_reserved":false,"is_disabled":false,"rental_uris":{"android":"levelo://app?vid=d16597ad-1553-4bf6-a420-22d1707e70d3","ios":"levelo://app?vid=d16597ad-1553-4bf6-a420-22d1707e70d3"},"vehicle_type_id":"4","last_reported":1730628616,"current_range_meters":38800,"station_id":"ce4bhpp2rcd13ifvqhgg","pricing_plan_id":"cebpf4jnsgd1na2vs0mg"},{"bike_id":"1b76da04-24af-4551-be92-5b5e0e7c5288","system_id":"levelo_inurba_marseille","lat":43.27495,"lon":5.42449,"is_reserved":false,"is_disabled":false,"rental_uris":{"android":"levelo://app?vid=1b76da04-24af-4551-be92-5b5e0e7c5288","ios":"levelo://app?vid=1b76da04-24af-4551-be92-5b5e0e7c5288"},"vehicle_type_id":"4","last_reported":1730628616,"current_range_meters":38800,"station_id":"ce4bhn92rcd13ifvqgrg","pricing_plan_id":"cebpf4jnsgd1na2vs0mg"},{"bike_id":"2ddc10a5-ae2a-4108-9119-d38e7d38daee","system_id":"levelo_inurba_marseille","lat":43.28459,"lon":5.35877,"is_reserved":false,"is_disabled":false,"rental_uris":{"android":"levelo://app?vid=2ddc10a5-ae2a-4108-9119-d38e7d38daee","ios":"levelo://app?vid=2ddc10a5-ae2a-4108-9119-d38e7d38daee"},"vehicle_type_id":"4","last_reported":1730628616,"current_range_meters":35600,"station_id":"ce4bhah2rcd13ifvqei0","pricing_plan_id":"cebpf4jnsgd1na2vs0mg"},{"bike_id":"03523498-bdf2-43d9-aa27-669f03c4fc00","system_id":"levelo_inurba_marseille","lat":43.28953,"lon":5.36394,"is_reserved":false,"is_disabled":false,"rental_uris":{"android":"levelo://app?vid=03523498-bdf2-43d9-aa27-669f03c4fc00","ios":"levelo://app?vid=03523498-bdf2-43d9-aa27-669f03c4fc00"},"vehicle_type_id":"4","last_reported":1730628616,"current_range_meters":14400,"station_id":"ce4bhc92rcd13ifvqetg","pricing_plan_id":"cebpf4jnsgd1na2vs0mg"},{"bike_id":"e0632ef3-3557-4961-b785-ed73076680c9","system_id":"levelo_inurba_marseille","lat":43.29843,"lon":5.36273,"is_reserved":false,"is_disabled":false,"rental_uris":{"android":"levelo://app?vid=e0632ef3-3557-4961-b785-ed73076680c9","ios":"levelo://app?vid=e0632ef3-3557-4961-b785-ed73076680c9"},"vehicle_type_id":"4","last_reported":1730628616,"current_range_meters":38800,"station_id":"ce4bgpp2rcd13ifvqc3g","pricing_plan_id":"cebpf4jnsgd1na2vs0mg"},{"bike_id":"0a77bc0f-5716-4821-ace7-8ac0cbefeb12","system_id":"levelo_inurba_marseille","lat":43.28857,"lon":5.35847,"is_reserved":false,"is_disabled":false,"rental_uris":{"android":"levelo://app?vid=0a77bc0f-5716-4821-ace7-8ac0cbefeb12","ios":"levelo://app?vid=0a77bc0f-5716-4821-ace7-8ac0cbefeb12"},"vehicle_type_id":"4","last_reported":1730628616,"current_range_meters":24000,"station_id":"ce4bhb12rcd13ifvqem0","pricing_plan_id":"cebpf4jnsgd1na2vs0mg"},{"bike_id":"d5324ca5-5a3a-4892-bb8c-7dbf331e6ea6","system_id":"levelo_inurba_marseille","lat":43.32479,"lon":5.36567,"is_reserved":false,"is_disabled":false,"rental_uris":{"android":"levelo://app?vid=d5324ca5-5a3a-4892-bb8c-7dbf331e6ea6","ios":"levelo://app?vid=d5324ca5-5a3a-4892-bb8c-7dbf331e6ea6"},"vehicle_type_id":"4","last_reported":1730628616,"current_range_meters":39200,"station_id":"ce4bhs12rcd13ifvqhvg","pricing_plan_id":"cebpf4jnsgd1na2vs0mg"},{"bike_id":"3e5789a9-8473-4354-a555-f09907fe1728","system_id":"levelo_inurba_marseille","lat":43.28268,"lon":5.35069,"is_reserved":false,"is_disabled":false,"rental_uris":{"android":"levelo://app?vid=3e5789a9-8473-4354-a555-f09907fe1728","ios":"levelo://app?vid=3e5789a9-8473-4354-a555-f09907fe1728"},"vehicle_type_id":"4","last_reported":1730628616,"current_range_meters":38800,"station_id":"ce4bhbp2rcd13ifvqerg","pricing_plan_id":"cebpf4jnsgd1na2vs0mg"},{"bike_id":"dfcb9461-c6d0-4c24-a33c-16bd314908ae","system_id":"levelo_inurba_marseille","lat":43.28725,"lon":5.39988,"is_reserved":false,"is_disabled":false,"rental_uris":{"android":"levelo://app?vid=dfcb9461-c6d0-4c24-a33c-16bd314908ae","ios":"levelo://app?vid=dfcb9461-c6d0-4c24-a33c-16bd314908ae"},"vehicle_type_id":"4","last_reported":1730628616,"current_range_meters":36000,"station_id":"ce4bho92rcd13ifvqh3g","pricing_plan_id":"cebpf4jnsgd1na2vs0mg"},{"bike_id":"5c74527c-010a-411f-8275-f8d2754af41e","system_id":"levelo_inurba_marseille","lat":43.28155,"lon":5.42641,"is_reserved":false,"is_disabled":false,"rental_uris":{"android":"levelo://app?vid=5c74527c-010a-411f-8275-f8d2754af41e","ios":"levelo://app?vid=5c74527c-010a-411f-8275-f8d2754af41e"},"vehicle_type_id":"4","last_reported":1730628616,"current_range_meters":38000,"station_id":"ce4bhnh2rcd13ifvqgug","pricing_plan_id":"cebpf4jnsgd1na2vs0mg"},{"bike_id":"3a179b56-77d5-4b59-92ba-5b4c95fb8e6c","system_id":"levelo_inurba_marseille","lat":43.26789,"lon":5.39413,"is_reserved":false,"is_disabled":false,"rental_uris":{"android":"levelo://app?vid=3a179b56-77d5-4b59-92ba-5b4c95fb8e6c","ios":"levelo://app?vid=3a179b56-77d5-4b59-92ba-5b4c95fb8e6c"},"vehicle_type_id":"4","last_reported":1730628616,"current_range_meters":38000,"station_id":"ce4bhh12rcd13ifvqfg0","pricing_plan_id":"cebpf4jnsgd1na2vs0mg"},{"bike_id":"92ce6d4a-e55a-47e8-9fd5-0286331b069e","system_id":"levelo_inurba_marseille","lat":43.2573,"lon":5.41109,"is_reserved":false,"is_disabled":false,"rental_uris":{"android":"levelo://app?vid=92ce6d4a-e55a-47e8-9fd5-0286331b069e","ios":"levelo://app?vid=92ce6d4a-e55a-47e8-9fd5-0286331b069e"},"vehicle_type_id":"4","last_reported":1730628616,"current_range_meters":37600,"station_id":"ce4bhkp2rcd13ifvqgd0","pricing_plan_id":"cebpf4jnsgd1na2vs0mg"},{"bike_id":"04b55f9a-b28b-4505-a7ac-dbe57ec6aab8","system_id":"levelo_inurba_marseille","lat":43.23064,"lon":5.35488,"is_reserved":false,"is_disabled":false,"rental_uris":{"android":"levelo://app?vid=04b55f9a-b28b-4505-a7ac-dbe57ec6aab8","ios":"levelo://app?vid=04b55f9a-b28b-4505-a7ac-dbe57ec6aab8"},"vehicle_type_id":"4","last_reported":1730628616,"current_range_meters":31200,"station_id":"cpo3342slgdg3j2ifvpg","pricing_plan_id":"cebpf4jnsgd1na2vs0mg"},{"bike_id":"c36500d8-3c1b-40b4-b412-de69c457b9cb","system_id":"levelo_inurba_marseille","lat":43.27619,"lon":5.41737,"is_reserved":false,"is_disabled":false,"rental_uris":{"android":"levelo://app?vid=c36500d8-3c1b-40b4-b412-de69c457b9cb","ios":"levelo://app?vid=c36500d8-3c1b-40b4-b412-de69c457b9cb"},"vehicle_type_id":"4","last_reported":1730628616,"current_range_meters":8000,"station_id":"","pricing_plan_id":"cebpf4jnsgd1na2vs0mg"},{"bike_id":"477d9759-9655-4541-82c7-c27c886d0ee2","system_id":"levelo_inurba_marseille","lat":43.27812,"lon":5.40721,"is_reserved":false,"is_disabled":false,"rental_uris":{"android":"levelo://app?vid=477d9759-9655-4541-82c7-c27c886d0ee2","ios":"levelo://app?vid=477d9759-9655-4541-82c7-c27c886d0ee2"},"vehicle_type_id":"4","last_reported":1730628616,"current_range_meters":36800,"station_id":"ce4bhnh2rcd13ifvqgtg","pricing_plan_id":"cebpf4jnsgd1na2vs0mg"},{"bike_id":"944fddd6-b40e-4821-9ea8-a89df4cf3005","system_id":"levelo_inurba_marseille","lat":43.28695,"lon":5.3737,"is_reserved":false,"is_disabled":false,"rental_uris":{"android":"levelo://app?vid=944fddd6-b40e-4821-9ea8-a89df4cf3005","ios":"levelo://app?vid=944fddd6-b40e-4821-9ea8-a89df4cf3005"},"vehicle_type_id":"4","last_reported":1730628616,"current_range_meters":26000,"station_id":"ce4bh3p2rcd13ifvqdq0","pricing_plan_id":"cebpf4jnsgd1na2vs0mg"},{"bike_id":"23bcf8eb-27f0-4fea-b35b-7ca93c51b09e","system_id":"levelo_inurba_marseille","lat":43.28416,"lon":5.37486,"is_reserved":false,"is_disabled":false,"rental_uris":{"android":"levelo://app?vid=23bcf8eb-27f0-4fea-b35b-7ca93c51b09e","ios":"levelo://app?vid=23bcf8eb-27f0-4fea-b35b-7ca93c51b09e"},"vehicle_type_id":"4","last_reported":1730628616,"current_range_meters":28000,"station_id":"ce4bh412rcd13ifvqds0","pricing_plan_id":"cebpf4jnsgd1na2vs0mg"},{"bike_id":"ab9cb399-eeb7-4811-b418-db73fb440597","system_id":"levelo_inurba_marseille","lat":43.26201,"lon":5.37932,"is_reserved":false,"is_disabled":false,"rental_uris":{"android":"levelo://app?vid=ab9cb399-eeb7-4811-b418-db73fb440597","ios":"levelo://app?vid=ab9cb399-eeb7-4811-b418-db73fb440597"},"vehicle_type_id":"4","last_reported":1730628616,"current_range_meters":38800,"station_id":"ce4bhjp2rcd13ifvqg90","pricing_plan_id":"cebpf4jnsgd1na2vs0mg"},{"bike_id":"ec91de42-403b-417b-944a-55c6337e7051","system_id":"levelo_inurba_marseille","lat":43.28361,"lon":5.38631,"is_reserved":false,"is_disabled":false,"rental_uris":{"android":"levelo://app?vid=ec91de42-403b-417b-944a-55c6337e7051","ios":"levelo://app?vid=ec91de42-403b-417b-944a-55c6337e7051"},"vehicle_type_id":"4","last_reported":1730628616,"current_range_meters":37600,"station_id":"ce4bh492rcd13ifvqdvg","pricing_plan_id":"cebpf4jnsgd1na2vs0mg"},{"bike_id":"c2ec8967-051a-4d57-8f04-e04b5b88eeb5","system_id":"levelo_inurba_marseille","lat":43.231332,"lon":5.436547,"is_reserved":false,"is_disabled":false,"rental_uris":{"android":"levelo://app?vid=c2ec8967-051a-4d57-8f04-e04b5b88eeb5","ios":"levelo://app?vid=c2ec8967-051a-4d57-8f04-e04b5b88eeb5"},"vehicle_type_id":"4","last_reported":1730628616,"current_range_meters":28000,"station_id":"ce4bhmp2rcd13ifvqgog","pricing_plan_id":"cebpf4jnsgd1na2vs0mg"},{"bike_id":"c03e0cf3-1592-4421-9855-9a4574673c45","system_id":"levelo_inurba_marseille","lat":43.26063,"lon":5.39394,"is_reserved":false,"is_disabled":false,"rental_uris":{"android":"levelo://app?vid=c03e0cf3-1592-4421-9855-9a4574673c45","ios":"levelo://app?vid=c03e0cf3-1592-4421-9855-9a4574673c45"},"vehicle_type_id":"4","last_reported":1730628616,"current_range_meters":37600,"station_id":"ce4bhh92rcd13ifvqfj0","pricing_plan_id":"cebpf4jnsgd1na2vs0mg"},{"bike_id":"f2f9ef3e-4b55-45e3-afa3-4f3d55a22f74","system_id":"levelo_inurba_marseille","lat":43.26933,"lon":5.38907,"is_reserved":false,"is_disabled":false,"rental_uris":{"android":"levelo://app?vid=f2f9ef3e-4b55-45e3-afa3-4f3d55a22f74","ios":"levelo://app?vid=f2f9ef3e-4b55-45e3-afa3-4f3d55a22f74"},"vehicle_type_id":"4","last_reported":1730628616,"current_range_meters":39200,"station_id":"ce4bhhh2rcd13ifvqfl0","pricing_plan_id":"cebpf4jnsgd1na2vs0mg"},{"bike_id":"638eff34-bb0f-474e-915a-230b21dabca4","system_id":"levelo_inurba_marseille","lat":43.27368,"lon":5.36236,"is_reserved":false,"is_disabled":false,"rental_uris":{"android":"levelo://app?vid=638eff34-bb0f-474e-915a-230b21dabca4","ios":"levelo://app?vid=638eff34-bb0f-474e-915a-230b21dabca4"},"vehicle_type_id":"4","last_reported":1730628616,"current_range_meters":20800,"station_id":"ce4bhbh2rcd13ifvqeo0","pricing_plan_id":"cebpf4jnsgd1na2vs0mg"},{"bike_id":"e00640ae-541b-4c5c-8874-ec585b782b26","system_id":"levelo_inurba_marseille","lat":43.31264,"lon":5.40162,"is_reserved":false,"is_disabled":false,"rental_uris":{"android":"levelo://app?vid=e00640ae-541b-4c5c-8874-ec585b782b26","ios":"levelo://app?vid=e00640ae-541b-4c5c-8874-ec585b782b26"},"vehicle_type_id":"4","last_reported":1730628616,"current_range_meters":9200,"station_id":"ce4bh092rcd13ifvqd30","pricing_plan_id":"cebpf4jnsgd1na2vs0mg"},{"bike_id":"c731265b-0806-4bc3-af5f-ec1faeabe2cd","system_id":"levelo_inurba_marseille","lat":43.30588,"lon":5.37207,"is_reserved":false,"is_disabled":false,"rental_uris":{"android":"levelo://app?vid=c731265b-0806-4bc3-af5f-ec1faeabe2cd","ios":"levelo://app?vid=c731265b-0806-4bc3-af5f-ec1faeabe2cd"},"vehicle_type_id":"4","last_reported":1730628616,"current_range_meters":35200,"station_id":"ce4bgqh2rcd13ifvqc4g","pricing_plan_id":"cebpf4jnsgd1na2vs0mg"},{"bike_id":"03335dd2-34ff-4af2-aeb1-4f22c5fa6d64","system_id":"levelo_inurba_marseille","lat":43.284571,"lon":5.358915,"is_reserved":false,"is_disabled":false,"rental_uris":{"android":"levelo://app?vid=03335dd2-34ff-4af2-aeb1-4f22c5fa6d64","ios":"levelo://app?vid=03335dd2-34ff-4af2-aeb1-4f22c5fa6d64"},"vehicle_type_id":"4","last_reported":1730628616,"current_range_meters":27200,"station_id":"ce4bhah2rcd13ifvqei0","pricing_plan_id":"cebpf4jnsgd1na2vs0mg"},{"bike_id":"0ef112d8-a539-4651-bdce-19f00e9b8704","system_id":"levelo_inurba_marseille","lat":43.30245,"lon":5.40061,"is_reserved":false,"is_disabled":false,"rental_uris":{"android":"levelo://app?vid=0ef112d8-a539-4651-bdce-19f00e9b8704","ios":"levelo://app?vid=0ef112d8-a539-4651-bdce-19f00e9b8704"},"vehicle_type_id":"4","last_reported":1730628616,"current_range_meters":24800,"station_id":"","pricing_plan_id":"cebpf4jnsgd1na2vs0mg"},{"bike_id":"5e7aef04-5f8f-4931-b686-969187b73c69","system_id":"levelo_inurba_marseille","lat":43.27374,"lon":5.3626,"is_reserved":false,"is_disabled":false,"rental_uris":{"android":"levelo://app?vid=5e7aef04-5f8f-4931-b686-969187b73c69","ios":"levelo://app?vid=5e7aef04-5f8f-4931-b686-969187b73c69"},"vehicle_type_id":"4","last_reported":1730628616,"current_range_meters":38800,"station_id":"ce4bhbh2rcd13ifvqeo0","pricing_plan_id":"cebpf4jnsgd1na2vs0mg"},{"bike_id":"b27b6b18-d801-4b0b-a4e3-bc55bc4a9aed","system_id":"levelo_inurba_marseille","lat":43.25719,"lon":5.41104,"is_reserved":false,"is_disabled":false,"rental_uris":{"android":"levelo://app?vid=b27b6b18-d801-4b0b-a4e3-bc55bc4a9aed","ios":"levelo://app?vid=b27b6b18-d801-4b0b-a4e3-bc55bc4a9aed"},"vehicle_type_id":"4","last_reported":1730628616,"current_range_meters":34000,"station_id":"ce4bhkp2rcd13ifvqgd0","pricing_plan_id":"cebpf4jnsgd1na2vs0mg"},{"bike_id":"bd149b95-4070-41ee-b91d-2374c5494005","system_id":"levelo_inurba_marseille","lat":43.30414,"lon":5.41279,"is_reserved":false,"is_disabled":false,"rental_uris":{"android":"levelo://app?vid=bd149b95-4070-41ee-b91d-2374c5494005","ios":"levelo://app?vid=bd149b95-4070-41ee-b91d-2374c5494005"},"vehicle_type_id":"4","last_reported":1730628616,"current_range_meters":35600,"station_id":"ce4bhop2rcd13ifvqh8g","pricing_plan_id":"cebpf4jnsgd1na2vs0mg"},{"bike_id":"2921df27-5f4d-405e-8967-ba024d0dbdcf","system_id":"levelo_inurba_marseille","lat":43.30427,"lon":5.38886,"is_reserved":false,"is_disabled":false,"rental_uris":{"android":"levelo://app?vid=2921df27-5f4d-405e-8967-ba024d0dbdcf","ios":"levelo://app?vid=2921df27-5f4d-405e-8967-ba024d0dbdcf"},"vehicle_type_id":"4","last_reported":1730628616,"current_range_meters":38800,"station_id":"ce4bgk12rcd13ifvqbi0","pricing_plan_id":"cebpf4jnsgd1na2vs0mg"},{"bike_id":"10ec81a4-3e02-4959-bbb7-e8fc6aa65779","system_id":"levelo_inurba_marseille","lat":43.2706,"lon":5.40261,"is_reserved":false,"is_disabled":false,"rental_uris":{"android":"levelo://app?vid=10ec81a4-3e02-4959-bbb7-e8fc6aa65779","ios":"levelo://app?vid=10ec81a4-3e02-4959-bbb7-e8fc6aa65779"},"vehicle_type_id":"4","last_reported":1730628616,"current_range_meters":20400,"station_id":"ce4bhk92rcd13ifvqgc0","pricing_plan_id":"cebpf4jnsgd1na2vs0mg"},{"bike_id":"1a303e70-d1b0-4563-b13a-3d40fa7c1ccd","system_id":"levelo_inurba_marseille","lat":43.3229,"lon":5.38278,"is_reserved":false,"is_disabled":false,"rental_uris":{"android":"levelo://app?vid=1a303e70-d1b0-4563-b13a-3d40fa7c1ccd","ios":"levelo://app?vid=1a303e70-d1b0-4563-b13a-3d40fa7c1ccd"},"vehicle_type_id":"4","last_reported":1730628616,"current_range_meters":38800,"station_id":"ce4bhr12rcd13ifvqhqg","pricing_plan_id":"cebpf4jnsgd1na2vs0mg"},{"bike_id":"93ead257-7be9-4d01-a5e2-e6937636f755","system_id":"levelo_inurba_marseille","lat":43.27318,"lon":5.391,"is_reserved":false,"is_disabled":false,"rental_uris":{"android":"levelo://app?vid=93ead257-7be9-4d01-a5e2-e6937636f755","ios":"levelo://app?vid=93ead257-7be9-4d01-a5e2-e6937636f755"},"vehicle_type_id":"4","last_reported":1730628616,"current_range_meters":35600,"station_id":"ce4bhgp2rcd13ifvqfe0","pricing_plan_id":"cebpf4jnsgd1na2vs0mg"},{"bike_id":"45a9d9a7-83a5-4e18-b464-0249954955c8","system_id":"levelo_inurba_marseille","lat":43.23151,"lon":5.43698,"is_reserved":false,"is_disabled":false,"rental_uris":{"android":"levelo://app?vid=45a9d9a7-83a5-4e18-b464-0249954955c8","ios":"levelo://app?vid=45a9d9a7-83a5-4e18-b464-0249954955c8"},"vehicle_type_id":"4","last_reported":1730628616,"current_range_meters":37600,"station_id":"ce4bhmp2rcd13ifvqgog","pricing_plan_id":"cebpf4jnsgd1na2vs0mg"},{"bike_id":"a13a6f27-c8b2-42b7-996f-8e1c0665131f","system_id":"levelo_inurba_marseille","lat":43.25108,"lon":5.40324,"is_reserved":false,"is_disabled":false,"rental_uris":{"android":"levelo://app?vid=a13a6f27-c8b2-42b7-996f-8e1c0665131f","ios":"levelo://app?vid=a13a6f27-c8b2-42b7-996f-8e1c0665131f"},"vehicle_type_id":"4","last_reported":1730628616,"current_range_meters":25600,"station_id":"ce4bhlh2rcd13ifvqgig","pricing_plan_id":"cebpf4jnsgd1na2vs0mg"},{"bike_id":"87d02c11-da85-418b-bd83-e38accdc20fd","system_id":"levelo_inurba_marseille","lat":43.312796,"lon":5.40173,"is_reserved":false,"is_disabled":false,"rental_uris":{"android":"levelo://app?vid=87d02c11-da85-418b-bd83-e38accdc20fd","ios":"levelo://app?vid=87d02c11-da85-418b-bd83-e38accdc20fd"},"vehicle_type_id":"4","last_reported":1730628616,"current_range_meters":37600,"station_id":"ce4bh092rcd13ifvqd30","pricing_plan_id":"cebpf4jnsgd1na2vs0mg"},{"bike_id":"d7f4aa50-cdd2-4733-ae0c-18cd5aa4b206","system_id":"levelo_inurba_marseille","lat":43.31708,"lon":5.3776,"is_reserved":false,"is_disabled":false,"rental_uris":{"android":"levelo://app?vid=d7f4aa50-cdd2-4733-ae0c-18cd5aa4b206","ios":"levelo://app?vid=d7f4aa50-cdd2-4733-ae0c-18cd5aa4b206"},"vehicle_type_id":"4","last_reported":1730628616,"current_range_meters":35200,"station_id":"ce4bgth2rcd13ifvqch0","pricing_plan_id":"cebpf4jnsgd1na2vs0mg"},{"bike_id":"7c8e2182-8d5d-442a-9864-1cd9e1711753","system_id":"levelo_inurba_marseille","lat":43.3127,"lon":5.40155,"is_reserved":false,"is_disabled":false,"rental_uris":{"android":"levelo://app?vid=7c8e2182-8d5d-442a-9864-1cd9e1711753","ios":"levelo://app?vid=7c8e2182-8d5d-442a-9864-1cd9e1711753"},"vehicle_type_id":"4","last_reported":1730628616,"current_range_meters":19200,"station_id":"ce4bh092rcd13ifvqd30","pricing_plan_id":"cebpf4jnsgd1na2vs0mg"},{"bike_id":"e89fcef0-0a65-4cd8-a020-f18e3f1e75b5","system_id":"levelo_inurba_marseille","lat":43.30883,"lon":5.39624,"is_reserved":false,"is_disabled":false,"rental_uris":{"android":"levelo://app?vid=e89fcef0-0a65-4cd8-a020-f18e3f1e75b5","ios":"levelo://app?vid=e89fcef0-0a65-4cd8-a020-f18e3f1e75b5"},"vehicle_type_id":"4","last_reported":1730628616,"current_range_meters":38400,"station_id":"ce4bh012rcd13ifvqcv0","pricing_plan_id":"cebpf4jnsgd1na2vs0mg"},{"bike_id":"a2b0390e-7b17-466f-b94b-346c14e0cad3","system_id":"levelo_inurba_marseille","lat":43.29231,"lon":5.36065,"is_reserved":false,"is_disabled":false,"rental_uris":{"android":"levelo://app?vid=a2b0390e-7b17-466f-b94b-346c14e0cad3","ios":"levelo://app?vid=a2b0390e-7b17-466f-b94b-346c14e0cad3"},"vehicle_type_id":"4","last_reported":1730628616,"current_range_meters":12400,"station_id":"ce4bhbh2rcd13ifvqeqg","pricing_plan_id":"cebpf4jnsgd1na2vs0mg"},{"bike_id":"c14e8d2c-fcb2-453b-a58f-90eb9cead853","system_id":"levelo_inurba_marseille","lat":43.27999,"lon":5.40009,"is_reserved":false,"is_disabled":false,"rental_uris":{"android":"levelo://app?vid=c14e8d2c-fcb2-453b-a58f-90eb9cead853","ios":"levelo://app?vid=c14e8d2c-fcb2-453b-a58f-90eb9cead853"},"vehicle_type_id":"4","last_reported":1730628616,"current_range_meters":30400,"station_id":"ce4bho92rcd13ifvqh4g","pricing_plan_id":"cebpf4jnsgd1na2vs0mg"},{"bike_id":"cfa65c61-d814-46e3-a366-236ca4b88ef7","system_id":"levelo_inurba_marseille","lat":43.29776,"lon":5.3914,"is_reserved":false,"is_disabled":false,"rental_uris":{"android":"levelo://app?vid=cfa65c61-d814-46e3-a366-236ca4b88ef7","ios":"levelo://app?vid=cfa65c61-d814-46e3-a366-236ca4b88ef7"},"vehicle_type_id":"4","last_reported":1730628616,"current_range_meters":30800,"station_id":"","pricing_plan_id":"cebpf4jnsgd1na2vs0mg"},{"bike_id":"4b5f801f-a59f-40d3-ba08-b9578844c1e4","system_id":"levelo_inurba_marseille","lat":43.26561,"lon":5.39001,"is_reserved":false,"is_disabled":false,"rental_uris":{"android":"levelo://app?vid=4b5f801f-a59f-40d3-ba08-b9578844c1e4","ios":"levelo://app?vid=4b5f801f-a59f-40d3-ba08-b9578844c1e4"},"vehicle_type_id":"4","last_reported":1730628616,"current_range_meters":38800,"station_id":"ce4bhe12rcd13ifvqf30","pricing_plan_id":"cebpf4jnsgd1na2vs0mg"},{"bike_id":"5b9f88ec-7d7a-4c29-94f5-1f6168492399","system_id":"levelo_inurba_marseille","lat":43.304669,"lon":5.379107,"is_reserved":false,"is_disabled":false,"rental_uris":{"android":"levelo://app?vid=5b9f88ec-7d7a-4c29-94f5-1f6168492399","ios":"levelo://app?vid=5b9f88ec-7d7a-4c29-94f5-1f6168492399"},"vehicle_type_id":"4","last_reported":1730628616,"current_range_meters":38400,"station_id":"ce4bgup2rcd13ifvqcn0","pricing_plan_id":"cebpf4jnsgd1na2vs0mg"},{"bike_id":"ac6e4d7c-4cf4-4233-aca4-0f9953ecb824","system_id":"levelo_inurba_marseille","lat":43.31996,"lon":5.38145,"is_reserved":false,"is_disabled":false,"rental_uris":{"android":"levelo://app?vid=ac6e4d7c-4cf4-4233-aca4-0f9953ecb824","ios":"levelo://app?vid=ac6e4d7c-4cf4-4233-aca4-0f9953ecb824"},"vehicle_type_id":"4","last_reported":1730628616,"current_range_meters":38800,"station_id":"ce4bhr12rcd13ifvqhpg","pricing_plan_id":"cebpf4jnsgd1na2vs0mg"},{"bike_id":"addf2f83-4208-4130-bd37-d3cf23df67f0","system_id":"levelo_inurba_marseille","lat":43.26492,"lon":5.39545,"is_reserved":false,"is_disabled":false,"rental_uris":{"android":"levelo://app?vid=addf2f83-4208-4130-bd37-d3cf23df67f0","ios":"levelo://app?vid=addf2f83-4208-4130-bd37-d3cf23df67f0"},"vehicle_type_id":"4","last_reported":1730628616,"current_range_meters":36000,"station_id":"ce4bhi12rcd13ifvqfq0","pricing_plan_id":"cebpf4jnsgd1na2vs0mg"},{"bike_id":"396152cf-ba26-4565-95c8-291492b57098","system_id":"levelo_inurba_marseille","lat":43.34146,"lon":5.40898,"is_reserved":false,"is_disabled":false,"rental_uris":{"android":"levelo://app?vid=396152cf-ba26-4565-95c8-291492b57098","ios":"levelo://app?vid=396152cf-ba26-4565-95c8-291492b57098"},"vehicle_type_id":"4","last_reported":1730628616,"current_range_meters":20800,"station_id":"ce4bhqh2rcd13ifvqhlg","pricing_plan_id":"cebpf4jnsgd1na2vs0mg"},{"bike_id":"381a043a-18db-41cc-8193-fcd7aa35e13c","system_id":"levelo_inurba_marseille","lat":43.28416,"lon":5.37513,"is_reserved":false,"is_disabled":false,"rental_uris":{"android":"levelo://app?vid=381a043a-18db-41cc-8193-fcd7aa35e13c","ios":"levelo://app?vid=381a043a-18db-41cc-8193-fcd7aa35e13c"},"vehicle_type_id":"4","last_reported":1730628616,"current_range_meters":36800,"station_id":"ce4bh412rcd13ifvqds0","pricing_plan_id":"cebpf4jnsgd1na2vs0mg"},{"bike_id":"c3ee5e4e-cc2a-4120-b238-dacc4c1d2847","system_id":"levelo_inurba_marseille","lat":43.2984,"lon":5.36255,"is_reserved":false,"is_disabled":false,"rental_uris":{"android":"levelo://app?vid=c3ee5e4e-cc2a-4120-b238-dacc4c1d2847","ios":"levelo://app?vid=c3ee5e4e-cc2a-4120-b238-dacc4c1d2847"},"vehicle_type_id":"4","last_reported":1730628616,"current_range_meters":18000,"station_id":"ce4bgpp2rcd13ifvqc3g","pricing_plan_id":"cebpf4jnsgd1na2vs0mg"},{"bike_id":"442566d4-88f4-468c-9da7-df4ee126d9e9","system_id":"levelo_inurba_marseille","lat":43.295715,"lon":5.375281,"is_reserved":false,"is_disabled":false,"rental_uris":{"android":"levelo://app?vid=442566d4-88f4-468c-9da7-df4ee126d9e9","ios":"levelo://app?vid=442566d4-88f4-468c-9da7-df4ee126d9e9"},"vehicle_type_id":"4","last_reported":1730628616,"current_range_meters":17600,"station_id":"ce4bgh92rcd13ifvqb50","pricing_plan_id":"cebpf4jnsgd1na2vs0mg"},{"bike_id":"56e2778f-d6a6-422e-9d2b-7eda3a6a6407","system_id":"levelo_inurba_marseille","lat":43.30801,"lon":5.38143,"is_reserved":false,"is_disabled":false,"rental_uris":{"android":"levelo://app?vid=56e2778f-d6a6-422e-9d2b-7eda3a6a6407","ios":"levelo://app?vid=56e2778f-d6a6-422e-9d2b-7eda3a6a6407"},"vehicle_type_id":"4","last_reported":1730628616,"current_range_meters":10000,"station_id":"ce4bgt12rcd13ifvqce0","pricing_plan_id":"cebpf4jnsgd1na2vs0mg"},{"bike_id":"0c3c0abe-a768-470b-b74d-2d16b191336c","system_id":"levelo_inurba_marseille","lat":43.28449,"lon":5.35877,"is_reserved":false,"is_disabled":false,"rental_uris":{"android":"levelo://app?vid=0c3c0abe-a768-470b-b74d-2d16b191336c","ios":"levelo://app?vid=0c3c0abe-a768-470b-b74d-2d16b191336c"},"vehicle_type_id":"4","last_reported":1730628616,"current_range_meters":9600,"station_id":"ce4bhah2rcd13ifvqei0","pricing_plan_id":"cebpf4jnsgd1na2vs0mg"},{"bike_id":"b8177324-f117-47e5-88e2-c6b350040b19","system_id":"levelo_inurba_marseille","lat":43.26785,"lon":5.39416,"is_reserved":false,"is_disabled":false,"rental_uris":{"android":"levelo://app?vid=b8177324-f117-47e5-88e2-c6b350040b19","ios":"levelo://app?vid=b8177324-f117-47e5-88e2-c6b350040b19"},"vehicle_type_id":"4","last_reported":1730628616,"current_range_meters":38800,"station_id":"ce4bhh12rcd13ifvqfg0","pricing_plan_id":"cebpf4jnsgd1na2vs0mg"},{"bike_id":"ab6ac678-f1d3-47b0-9e49-163c040f6daa","system_id":"levelo_inurba_marseille","lat":43.283905,"lon":5.386329,"is_reserved":false,"is_disabled":false,"rental_uris":{"android":"levelo://app?vid=ab6ac678-f1d3-47b0-9e49-163c040f6daa","ios":"levelo://app?vid=ab6ac678-f1d3-47b0-9e49-163c040f6daa"},"vehicle_type_id":"4","last_reported":1730628616,"current_range_meters":36400,"station_id":"ce4bgpp2rcd13ifvqc3g","pricing_plan_id":"cebpf4jnsgd1na2vs0mg"},{"bike_id":"17ebbbcb-2cf9-4746-aa3c-b67cb03f093d","system_id":"levelo_inurba_marseille","lat":43.34144,"lon":5.40897,"is_reserved":false,"is_disabled":false,"rental_uris":{"android":"levelo://app?vid=17ebbbcb-2cf9-4746-aa3c-b67cb03f093d","ios":"levelo://app?vid=17ebbbcb-2cf9-4746-aa3c-b67cb03f093d"},"vehicle_type_id":"4","last_reported":1730628616,"current_range_meters":39200,"station_id":"ce4bhqh2rcd13ifvqhlg","pricing_plan_id":"cebpf4jnsgd1na2vs0mg"},{"bike_id":"5063b31e-668f-4f17-acf1-d5b4ff4b9c3c","system_id":"levelo_inurba_marseille","lat":43.23066,"lon":5.35488,"is_reserved":false,"is_disabled":false,"rental_uris":{"android":"levelo://app?vid=5063b31e-668f-4f17-acf1-d5b4ff4b9c3c","ios":"levelo://app?vid=5063b31e-668f-4f17-acf1-d5b4ff4b9c3c"},"vehicle_type_id":"4","last_reported":1730628616,"current_range_meters":23200,"station_id":"cpo3342slgdg3j2ifvpg","pricing_plan_id":"cebpf4jnsgd1na2vs0mg"},{"bike_id":"ec7f11ba-9864-4a83-a6bc-1ae039a99a80","system_id":"levelo_inurba_marseille","lat":43.3013,"lon":5.39842,"is_reserved":false,"is_disabled":false,"rental_uris":{"android":"levelo://app?vid=ec7f11ba-9864-4a83-a6bc-1ae039a99a80","ios":"levelo://app?vid=ec7f11ba-9864-4a83-a6bc-1ae039a99a80"},"vehicle_type_id":"4","last_reported":1730628616,"current_range_meters":21600,"station_id":"ce4bh0h2rcd13ifvqd40","pricing_plan_id":"cebpf4jnsgd1na2vs0mg"},{"bike_id":"a9956eaa-982c-42bf-b512-003f56cf0876","system_id":"levelo_inurba_marseille","lat":43.30947,"lon":5.39037,"is_reserved":false,"is_disabled":false,"rental_uris":{"android":"levelo://app?vid=a9956eaa-982c-42bf-b512-003f56cf0876","ios":"levelo://app?vid=a9956eaa-982c-42bf-b512-003f56cf0876"},"vehicle_type_id":"4","last_reported":1730628616,"current_range_meters":17600,"station_id":"ce4bgup2rcd13ifvqco0","pricing_plan_id":"cebpf4jnsgd1na2vs0mg"},{"bike_id":"3e9b85d7-96fb-4b65-9acd-5723483a3709","system_id":"levelo_inurba_marseille","lat":43.31709,"lon":5.37751,"is_reserved":false,"is_disabled":false,"rental_uris":{"android":"levelo://app?vid=3e9b85d7-96fb-4b65-9acd-5723483a3709","ios":"levelo://app?vid=3e9b85d7-96fb-4b65-9acd-5723483a3709"},"vehicle_type_id":"4","last_reported":1730628616,"current_range_meters":39200,"station_id":"ce4bgth2rcd13ifvqch0","pricing_plan_id":"cebpf4jnsgd1na2vs0mg"},{"bike_id":"edac5ab3-9edf-4428-a865-c87d8f134ec0","system_id":"levelo_inurba_marseille","lat":43.29527,"lon":5.37487,"is_reserved":false,"is_disabled":false,"rental_uris":{"android":"levelo://app?vid=edac5ab3-9edf-4428-a865-c87d8f134ec0","ios":"levelo://app?vid=edac5ab3-9edf-4428-a865-c87d8f134ec0"},"vehicle_type_id":"4","last_reported":1730628616,"current_range_meters":38800,"station_id":"ce4bgkp2rcd13ifvqbmg","pricing_plan_id":"cebpf4jnsgd1na2vs0mg"},{"bike_id":"ee0f3795-6004-4e3b-8e4c-1307bf3d91cf","system_id":"levelo_inurba_marseille","lat":43.28085,"lon":5.3965,"is_reserved":false,"is_disabled":false,"rental_uris":{"android":"levelo://app?vid=ee0f3795-6004-4e3b-8e4c-1307bf3d91cf","ios":"levelo://app?vid=ee0f3795-6004-4e3b-8e4c-1307bf3d91cf"},"vehicle_type_id":"4","last_reported":1730628616,"current_range_meters":29600,"station_id":"ce4bho12rcd13ifvqh2g","pricing_plan_id":"cebpf4jnsgd1na2vs0mg"},{"bike_id":"ad6b9979-2833-497c-ae59-5afeb88a87ce","system_id":"levelo_inurba_marseille","lat":43.32366,"lon":5.36765,"is_reserved":false,"is_disabled":false,"rental_uris":{"android":"levelo://app?vid=ad6b9979-2833-497c-ae59-5afeb88a87ce","ios":"levelo://app?vid=ad6b9979-2833-497c-ae59-5afeb88a87ce"},"vehicle_type_id":"4","last_reported":1730628616,"current_range_meters":6800,"station_id":"ce4bhsh2rcd13ifvqi2g","pricing_plan_id":"cebpf4jnsgd1na2vs0mg"},{"bike_id":"cf6c87fe-4317-4345-8644-e6463309e703","system_id":"levelo_inurba_marseille","lat":43.29796,"lon":5.40409,"is_reserved":false,"is_disabled":false,"rental_uris":{"android":"levelo://app?vid=cf6c87fe-4317-4345-8644-e6463309e703","ios":"levelo://app?vid=cf6c87fe-4317-4345-8644-e6463309e703"},"vehicle_type_id":"4","last_reported":1730628616,"current_range_meters":38800,"station_id":"ce4bh112rcd13ifvqd90","pricing_plan_id":"cebpf4jnsgd1na2vs0mg"},{"bike_id":"3a1760da-f02d-4c17-9bf2-12c0f8628645","system_id":"levelo_inurba_marseille","lat":43.31078,"lon":5.38348,"is_reserved":false,"is_disabled":false,"rental_uris":{"android":"levelo://app?vid=3a1760da-f02d-4c17-9bf2-12c0f8628645","ios":"levelo://app?vid=3a1760da-f02d-4c17-9bf2-12c0f8628645"},"vehicle_type_id":"4","last_reported":1730628616,"current_range_meters":4400,"station_id":"ce4bgv92rcd13ifvqcr0","pricing_plan_id":"cebpf4jnsgd1na2vs0mg"},{"bike_id":"0d15d7b7-391b-49cb-a918-613310545608","system_id":"levelo_inurba_marseille","lat":43.2815,"lon":5.42641,"is_reserved":false,"is_disabled":false,"rental_uris":{"android":"levelo://app?vid=0d15d7b7-391b-49cb-a918-613310545608","ios":"levelo://app?vid=0d15d7b7-391b-49cb-a918-613310545608"},"vehicle_type_id":"4","last_reported":1730628616,"current_range_meters":20800,"station_id":"ce4bhnh2rcd13ifvqgug","pricing_plan_id":"cebpf4jnsgd1na2vs0mg"},{"bike_id":"a7661224-a10e-48a0-a41b-007710435ab4","system_id":"levelo_inurba_marseille","lat":43.23056,"lon":5.35491,"is_reserved":false,"is_disabled":false,"rental_uris":{"android":"levelo://app?vid=a7661224-a10e-48a0-a41b-007710435ab4","ios":"levelo://app?vid=a7661224-a10e-48a0-a41b-007710435ab4"},"vehicle_type_id":"4","last_reported":1730628616,"current_range_meters":8400,"station_id":"cpo3342slgdg3j2ifvpg","pricing_plan_id":"cebpf4jnsgd1na2vs0mg"},{"bike_id":"520a3731-9808-44f6-8a71-10362a9d34fc","system_id":"levelo_inurba_marseille","lat":43.27997,"lon":5.40023,"is_reserved":false,"is_disabled":false,"rental_uris":{"android":"levelo://app?vid=520a3731-9808-44f6-8a71-10362a9d34fc","ios":"levelo://app?vid=520a3731-9808-44f6-8a71-10362a9d34fc"},"vehicle_type_id":"4","last_reported":1730628616,"current_range_meters":31200,"station_id":"ce4bho92rcd13ifvqh4g","pricing_plan_id":"cebpf4jnsgd1na2vs0mg"},{"bike_id":"d29fbaaf-bcc3-42f2-a3dd-4c202c4a9a06","system_id":"levelo_inurba_marseille","lat":43.26059,"lon":5.39396,"is_reserved":false,"is_disabled":false,"rental_uris":{"android":"levelo://app?vid=d29fbaaf-bcc3-42f2-a3dd-4c202c4a9a06","ios":"levelo://app?vid=d29fbaaf-bcc3-42f2-a3dd-4c202c4a9a06"},"vehicle_type_id":"4","last_reported":1730628616,"current_range_meters":38800,"station_id":"ce4bhh92rcd13ifvqfj0","pricing_plan_id":"cebpf4jnsgd1na2vs0mg"},{"bike_id":"116fbec0-fbb6-46cb-8fca-a5a99b617bcd","system_id":"levelo_inurba_marseille","lat":43.33023,"lon":5.39041,"is_reserved":false,"is_disabled":false,"rental_uris":{"android":"levelo://app?vid=116fbec0-fbb6-46cb-8fca-a5a99b617bcd","ios":"levelo://app?vid=116fbec0-fbb6-46cb-8fca-a5a99b617bcd"},"vehicle_type_id":"4","last_reported":1730628616,"current_range_meters":18800,"station_id":"ce4bhr92rcd13ifvqhrg","pricing_plan_id":"cebpf4jnsgd1na2vs0mg"},{"bike_id":"f74df92c-a0ed-4b11-9a3c-ba9c645703ac","system_id":"levelo_inurba_marseille","lat":43.3127,"lon":5.40157,"is_reserved":false,"is_disabled":false,"rental_uris":{"android":"levelo://app?vid=f74df92c-a0ed-4b11-9a3c-ba9c645703ac","ios":"levelo://app?vid=f74df92c-a0ed-4b11-9a3c-ba9c645703ac"},"vehicle_type_id":"4","last_reported":1730628616,"current_range_meters":38800,"station_id":"ce4bh092rcd13ifvqd30","pricing_plan_id":"cebpf4jnsgd1na2vs0mg"},{"bike_id":"b85bb96d-e41d-44ef-90fd-8547ed0dd1d9","system_id":"levelo_inurba_marseille","lat":43.27316,"lon":5.39081,"is_reserved":false,"is_disabled":false,"rental_uris":{"android":"levelo://app?vid=b85bb96d-e41d-44ef-90fd-8547ed0dd1d9","ios":"levelo://app?vid=b85bb96d-e41d-44ef-90fd-8547ed0dd1d9"},"vehicle_type_id":"4","last_reported":1730628616,"current_range_meters":37600,"station_id":"ce4bhgp2rcd13ifvqfe0","pricing_plan_id":"cebpf4jnsgd1na2vs0mg"},