{"last_updated":1722028067,"ttl":30,"version":"2.2","data":{"bikes":[{"bike_id":"d878a139-71bf-4bfc-bb77-5a3807492d4b","system_id":"levelo_inurba_marseille","lat":43.312239,"lon":5.368562,"is_reserved":false,"is_disabled":false,"rental_uris":{"android":"levelo://app?vid=d878a139-71bf-4bfc-bb77-5a3807492d4b","ios":"levelo://app?vid=d878a139-71bf-4bfc-bb77-5a3807492d4b"},"vehicle_type_id":"4","last_reported":1722028067,"current_range_meters":0,"station_id":"ce4bgl92rcd13ifvqbq0","pricing_plan_id":"cebpf4jnsgd1na2vs0mg"},{"bike_id":"092e4668-ae04-4088-a3eb-ad414df2fc78","system_id":"levelo_inurba_marseille","lat":43.31392,"lon":5.36885,"is_reserved":false,"is_disabled":false,"rental_uris":{"android":"levelo://app?vid=092e4668-ae04-4088-a3eb-ad414df2fc78","ios":"levelo://app?vid=092e4668-ae04-4088-a3eb-ad414df2fc78"},"vehicle_type_id":"4","last_reported":1722028067,"current_range_meters":25600,"station_id":"","pricing_plan_id":"cebpf4jnsgd1na2vs0mg"},{"bike_id":"5080d7d5-9eea-4209-80ea-9bc915ca1c06","system_id":"levelo_inurba_marseille","lat":43.30915,"lon":5.36847,"is_reserved":false,"is_disabled":false,"rental_uris":{"android":"levelo://app?vid=5080d7d5-9eea-4209-80ea-9bc915ca1c06","ios":"levelo://app?vid=5080d7d5-9eea-4209-80ea-9bc915ca1c06"},"vehicle_type_id":"4","last_reported":1722028067,"current_range_meters":4000,"station_id":"ce4bgn92rcd13ifvqbvg","pricing_plan_id":"cebpf4jnsgd1na2vs0mg"},{"bike_id":"130fb1ba-fe41-4fea-978d-e23315e5e35a","system_id":"levelo_inurba_marseille","lat":43.309076,"lon":5.368465,"is_reserved":false,"is_disabled":false,"rental_uris":{"android":"levelo://app?vid=130fb1ba-fe41-4fea-978d-e23315e5e35a","ios":"levelo://app?vid=130fb1ba-fe41-4fea-978d-e23315e5e35a"},"vehicle_type_id":"4","last_reported":1722028067,"current_range_meters":25600,"station_id":"ce4bgn92rcd13ifvqbvg","pricing_plan_id":"cebpf4jnsgd1na2vs0mg"},{"bike_id":"f16ccba0-696a-45b1-9caa-febd2a1bf99c","system_id":"levelo_inurba_marseille","lat":43.309034,"lon":5.371783,"is_reserved":false,"is_disabled":false,"rental_uris":{"android":"levelo://app?vid=f16ccba0-696a-45b1-9caa-febd2a1bf99c","ios":"levelo://app?vid=f16ccba0-696a-45b1-9caa-febd2a1bf99c"},"vehicle_type_id":"4","last_reported":1722028067,"current_range_meters":0,"station_id":"ce4bguh2rcd13ifvqckg","pricing_plan_id":"cebpf4jnsgd1na2vs0mg"},{"bike_id":"626cdb3d-1dcb-4a92-b6d4-e9b8ab4aa945","system_id":"levelo_inurba_marseille","lat":43.309039,"lon":5.371797,"is_reserved":false,"is_disabled":false,"rental_uris":{"android":"levelo://app?vid=626cdb3d-1dcb-4a92-b6d4-e9b8ab4aa945","ios":"levelo://app?vid=626cdb3d-1dcb-4a92-b6d4-e9b8ab4aa945"},"vehicle_type_id":"4","last_reported":1722028067,"current_range_meters":26800,"station_id":"ce4bguh2rcd13ifvqckg","pricing_plan_id":"cebpf4jnsgd1na2vs0mg"},{"bike_id":"8a80da68-4a9e-4a46-aa1f-a8d3c7f81451","system_id":"levelo_inurba_marseille","lat":43.31355,"lon":5.374748,"is_reserved":false,"is_disabled":false,"rental_uris":{"android":"levelo://app?vid=8a80da68-4a9e-4a46-aa1f-a8d3c7f81451","ios":"levelo://app?vid=8a80da68-4a9e-4a46-aa1f-a8d3c7f81451"},"vehicle_type_id":"4","last_reported":1722028067,"current_range_meters":0,"station_id":"","pricing_plan_id":"cebpf4jnsgd1na2vs0mg"},{"bike_id":"22c5cabb-658c-4f8d-9d74-455790a7d9e1","system_id":"levelo_inurba_marseille","lat":43.30748,"lon":5.37216,"is_reserved":false,"is_disabled":false,"rental_uris":{"android":"levelo://app?vid=22c5cabb-658c-4f8d-9d74-455790a7d9e1","ios":"levelo://app?vid=22c5cabb-658c-4f8d-9d74-455790a7d9e1"},"vehicle_type_id":"4","last_reported":1722028067,"current_range_meters":14800,"station_id":"","pricing_plan_id":"cebpf4jnsgd1na2vs0mg"},{"bike_id":"1ef70904-19f5-42a7-a1bd-fa2d73cdcab5","system_id":"levelo_inurba_marseille","lat":43.31664,"lon":5.37525,"is_reserved":false,"is_disabled":false,"rental_uris":{"android":"levelo://app?vid=1ef70904-19f5-42a7-a1bd-fa2d73cdcab5","ios":"levelo://app?vid=1ef70904-19f5-42a7-a1bd-fa2d73cdcab5"},"vehicle_type_id":"4","last_reported":1722028067,"current_range_meters":3200,"station_id":"","pricing_plan_id":"cebpf4jnsgd1na2vs0mg"},{"bike_id":"bdc12b36-c00c-4153-808f-f420505de403","system_id":"levelo_inurba_marseille","lat":43.305504,"lon":5.365484,"is_reserved":false,"is_disabled":false,"rental_uris":{"android":"levelo://app?vid=bdc12b36-c00c-4153-808f-f420505de403","ios":"levelo://app?vid=bdc12b36-c00c-4153-808f-f420505de403"},"vehicle_type_id":"4","last_reported":1722028067,"current_range_meters":0,"station_id":"","pricing_plan_id":"cebpf4jnsgd1na2vs0mg"},{"bike_id":"9fcba19e-f716-4bbe-b141-d8a7c7804f6a","system_id":"levelo_inurba_marseille","lat":43.305989,"lon":5.37225,"is_reserved":false,"is_disabled":false,"rental_uris":{"android":"levelo://app?vid=9fcba19e-f716-4bbe-b141-d8a7c7804f6a","ios":"levelo://app?vid=9fcba19e-f716-4bbe-b141-d8a7c7804f6a"},"vehicle_type_id":"4","last_reported":1722028067,"current_range_meters":22400,"station_id":"ce4bgqh2rcd13ifvqc4g","pricing_plan_id":"cebpf4jnsgd1na2vs0mg"},{"bike_id":"2ad426f8-afcc-4211-802f-de76d6a9216c","system_id":"levelo_inurba_marseille","lat":43.305989,"lon":5.37225,"is_reserved":false,"is_disabled":false,"rental_uris":{"android":"levelo://app?vid=2ad426f8-afcc-4211-802f-de76d6a9216c","ios":"levelo://app?vid=2ad426f8-afcc-4211-802f-de76d6a9216c"},"vehicle_type_id":"4","last_reported":1722028067,"current_range_meters":10800,"station_id":"ce4bgqh2rcd13ifvqc4g","pricing_plan_id":"cebpf4jnsgd1na2vs0mg"},{"bike_id":"ce09b162-188b-4687-aa83-ad63b754641b","system_id":"levelo_inurba_marseille","lat":43.311125,"lon":5.377624,"is_reserved":false,"is_disabled":false,"rental_uris":{"android":"levelo://app?vid=ce09b162-188b-4687-aa83-ad63b754641b","ios":"levelo://app?vid=ce09b162-188b-4687-aa83-ad63b754641b"},"vehicle_type_id":"4","last_reported":1722028067,"current_range_meters":15600,"station_id":"ce4bgt92rcd13ifvqcg0","pricing_plan_id":"cebpf4jnsgd1na2vs0mg"},{"bike_id":"d7b6b277-c648-49c7-a452-4bee12a675f6","system_id":"levelo_inurba_marseille","lat":43.305989,"lon":5.37225,"is_reserved":false,"is_disabled":false,"rental_uris":{"android":"levelo://app?vid=d7b6b277-c648-49c7-a452-4bee12a675f6","ios":"levelo://app?vid=d7b6b277-c648-49c7-a452-4bee12a675f6"},"vehicle_type_id":"4","last_reported":1722028067,"current_range_meters":16400,"station_id":"ce4bgqh2rcd13ifvqc4g","pricing_plan_id":"cebpf4jnsgd1na2vs0mg"},{"bike_id":"7138ea66-5e2e-4877-b3bd-72592146bf06","system_id":"levelo_inurba_marseille","lat":43.311131,"lon":5.377651,"is_reserved":false,"is_disabled":false,"rental_uris":{"android":"levelo://app?vid=7138ea66-5e2e-4877-b3bd-72592146bf06","ios":"levelo://app?vid=7138ea66-5e2e-4877-b3bd-72592146bf06"},"vehicle_type_id":"4","last_reported":1722028067,"current_range_meters":20000,"station_id":"ce4bgt92rcd13ifvqcg0","pricing_plan_id":"cebpf4jnsgd1na2vs0mg"},{"bike_id":"047c57dd-fa8b-4e37-aab3-ea498a210c35","system_id":"levelo_inurba_marseille","lat":43.311131,"lon":5.377651,"is_reserved":false,"is_disabled":false,"rental_uris":{"android":"levelo://app?vid=047c57dd-fa8b-4e37-aab3-ea498a210c35","ios":"levelo://app?vid=047c57dd-fa8b-4e37-aab3-ea498a210c35"},"vehicle_type_id":"4","last_reported":1722028067,"current_range_meters":3600,"station_id":"ce4bgt92rcd13ifvqcg0","pricing_plan_id":"cebpf4jnsgd1na2vs0mg"},{"bike_id":"921c978d-8531-4802-aae6-9a0708336f63","system_id":"levelo_inurba_marseille","lat":43.311131,"lon":5.377651,"is_reserved":false,"is_disabled":false,"rental_uris":{"android":"levelo://app?vid=921c978d-8531-4802-aae6-9a0708336f63","ios":"levelo://app?vid=921c978d-8531-4802-aae6-9a0708336f63"},"vehicle_type_id":"4","last_reported":1722028067,"current_range_meters":11600,"station_id":"ce4bgt92rcd13ifvqcg0","pricing_plan_id":"cebpf4jnsgd1na2vs0mg"},{"bike_id":"92a30f59-11c9-49a0-aa59-df0256bf845b","system_id":"levelo_inurba_marseille","lat":43.31115,"lon":5.37779,"is_reserved":false,"is_disabled":false,"rental_uris":{"android":"levelo://app?vid=92a30f59-11c9-49a0-aa59-df0256bf845b","ios":"levelo://app?vid=92a30f59-11c9-49a0-aa59-df0256bf845b"},"vehicle_type_id":"4","last_reported":1722028067,"current_range_meters":9600,"station_id":"ce4bgt92rcd13ifvqcg0","pricing_plan_id":"cebpf4jnsgd1na2vs0mg"},{"bike_id":"a553f986-9890-4da8-bf2f-1c0084dc0e49","system_id":"levelo_inurba_marseille","lat":43.307945,"lon":5.376487,"is_reserved":false,"is_disabled":false,"rental_uris":{"android":"levelo://app?vid=a553f986-9890-4da8-bf2f-1c0084dc0e49","ios":"levelo://app?vid=a553f986-9890-4da8-bf2f-1c0084dc0e49"},"vehicle_type_id":"4","last_reported":1722028067,"current_range_meters":11600,"station_id":"ce4bgv92rcd13ifvqcq0","pricing_plan_id":"cebpf4jnsgd1na2vs0mg"},{"bike_id":"ac9d2b44-767a-4997-94ca-95d858716d2a","system_id":"levelo_inurba_marseille","lat":43.307945,"lon":5.376487,"is_reserved":false,"is_disabled":false,"rental_uris":{"android":"levelo://app?vid=ac9d2b44-767a-4997-94ca-95d858716d2a","ios":"levelo://app?vid=ac9d2b44-767a-4997-94ca-95d858716d2a"},"vehicle_type_id":"4","last_reported":1722028067,"current_range_meters":16400,"station_id":"ce4bgv92rcd13ifvqcq0","pricing_plan_id":"cebpf4jnsgd1na2vs0mg"},{"bike_id":"ef338818-9aa6-4fdd-844d-f01f9d851c4e","system_id":"levelo_inurba_marseille","lat":43.317075,"lon":5.377367,"is_reserved":false,"is_disabled":false,"rental_uris":{"android":"levelo://app?vid=ef338818-9aa6-4fdd-844d-f01f9d851c4e","ios":"levelo://app?vid=ef338818-9aa6-4fdd-844d-f01f9d851c4e"},"vehicle_type_id":"4","last_reported":1722028067,"current_range_meters":6800,"station_id":"ce4bgth2rcd13ifvqch0","pricing_plan_id":"cebpf4jnsgd1na2vs0mg"},{"bike_id":"065d0955-471d-42b1-a26c-138008307373","system_id":"levelo_inurba_marseille","lat":43.317193,"lon":5.37762,"is_reserved":false,"is_disabled":false,"rental_uris":{"android":"levelo://app?vid=065d0955-471d-42b1-a26c-138008307373","ios":"levelo://app?vid=065d0955-471d-42b1-a26c-138008307373"},"vehicle_type_id":"4","last_reported":1722028067,"current_range_meters":9600,"station_id":"ce4bgth2rcd13ifvqch0","pricing_plan_id":"cebpf4jnsgd1na2vs0mg"},{"bike_id":"4f0ef266-e9a1-46b2-8690-7588e509622a","system_id":"levelo_inurba_marseille","lat":43.30304,"lon":5.368987,"is_reserved":false,"is_disabled":false,"rental_uris":{"android":"levelo://app?vid=4f0ef266-e9a1-46b2-8690-7588e509622a","ios":"levelo://app?vid=4f0ef266-e9a1-46b2-8690-7588e509622a"},"vehicle_type_id":"4","last_reported":1722028067,"current_range_meters":1600,"station_id":"ce4bgqh2rcd13ifvqc5g","pricing_plan_id":"cebpf4jnsgd1na2vs0mg"},{"bike_id":"5e14da06-0229-4efe-bb4a-173497436057","system_id":"levelo_inurba_marseille","lat":43.301939,"lon":5.366286,"is_reserved":false,"is_disabled":false,"rental_uris":{"android":"levelo://app?vid=5e14da06-0229-4efe-bb4a-173497436057","ios":"levelo://app?vid=5e14da06-0229-4efe-bb4a-173497436057"},"vehicle_type_id":"4","last_reported":1722028067,"current_range_meters":7600,"station_id":"ce4bgrh2rcd13ifvqc8g","pricing_plan_id":"cebpf4jnsgd1na2vs0mg"},{"bike_id":"cda798b3-6c92-4158-9eb2-ffe565d25b74","system_id":"levelo_inurba_marseille","lat":43.308012,"lon":5.381511,"is_reserved":false,"is_disabled":false,"rental_uris":{"android":"levelo://app?vid=cda798b3-6c92-4158-9eb2-ffe565d25b74","ios":"levelo://app?vid=cda798b3-6c92-4158-9eb2-ffe565d25b74"},"vehicle_type_id":"4","last_reported":1722028067,"current_range_meters":26000,"station_id":"ce4bgt12rcd13ifvqce0","pricing_plan_id":"cebpf4jnsgd1na2vs0mg"},{"bike_id":"4a2071a6-7f37-481f-ba88-0a33df37fc5b","system_id":"levelo_inurba_marseille","lat":43.308012,"lon":5.381511,"is_reserved":false,"is_disabled":false,"rental_uris":{"android":"levelo://app?vid=4a2071a6-7f37-481f-ba88-0a33df37fc5b","ios":"levelo://app?vid=4a2071a6-7f37-481f-ba88-0a33df37fc5b"},"vehicle_type_id":"4","last_reported":1722028067,"current_range_meters":6000,"station_id":"ce4bgt12rcd13ifvqce0","pricing_plan_id":"cebpf4jnsgd1na2vs0mg"},{"bike_id":"bf769750-578b-4666-892d-9af25f752fbc","system_id":"levelo_inurba_marseille","lat":43.308012,"lon":5.381511,"is_reserved":false,"is_disabled":false,"rental_uris":{"android":"levelo://app?vid=bf769750-578b-4666-892d-9af25f752fbc","ios":"levelo://app?vid=bf769750-578b-4666-892d-9af25f752fbc"},"vehicle_type_id":"4","last_reported":1722028067,"current_range_meters":13600,"station_id":"ce4bgt12rcd13ifvqce0","pricing_plan_id":"cebpf4jnsgd1na2vs0mg"},{"bike_id":"4bfabb57-d35d-4b61-a4fb-f04c6a3d5244","system_id":"levelo_inurba_marseille","lat":43.308012,"lon":5.381511,"is_reserved":false,"is_disabled":false,"rental_uris":{"android":"levelo://app?vid=4bfabb57-d35d-4b61-a4fb-f04c6a3d5244","ios":"levelo://app?vid=4bfabb57-d35d-4b61-a4fb-f04c6a3d5244"},"vehicle_type_id":"4","last_reported":1722028067,"current_range_meters":14400,"station_id":"ce4bgt12rcd13ifvqce0","pricing_plan_id":"cebpf4jnsgd1na2vs0mg"},{"bike_id":"bc3c1927-3e97-4e0e-a603-c7129e5e45d3","system_id":"levelo_inurba_marseille","lat":43.308012,"lon":5.381511,"is_reserved":false,"is_disabled":false,"rental_uris":{"android":"levelo://app?vid=bc3c1927-3e97-4e0e-a603-c7129e5e45d3","ios":"levelo://app?vid=bc3c1927-3e97-4e0e-a603-c7129e5e45d3"},"vehicle_type_id":"4","last_reported":1722028067,"current_range_meters":12000,"station_id":"ce4bgt12rcd13ifvqce0","pricing_plan_id":"cebpf4jnsgd1na2vs0mg"},{"bike_id":"44c6ef44-2511-4fda-8c37-79e99ad6dc16","system_id":"levelo_inurba_marseille","lat":43.308012,"lon":5.381511,"is_reserved":false,"is_disabled":false,"rental_uris":{"android":"levelo://app?vid=44c6ef44-2511-4fda-8c37-79e99ad6dc16","ios":"levelo://app?vid=44c6ef44-2511-4fda-8c37-79e99ad6dc16"},"vehicle_type_id":"4","last_reported":1722028067,"current_range_meters":4000,"station_id":"ce4bgt12rcd13ifvqce0","pricing_plan_id":"cebpf4jnsgd1na2vs0mg"},{"bike_id":"a3bf0a68-c391-44cb-b55c-83569f43e30e","system_id":"levelo_inurba_marseille","lat":43.324771,"lon":5.36557,"is_reserved":false,"is_disabled":false,"rental_uris":{"android":"levelo://app?vid=a3bf0a68-c391-44cb-b55c-83569f43e30e","ios":"levelo://app?vid=a3bf0a68-c391-44cb-b55c-83569f43e30e"},"vehicle_type_id":"4","last_reported":1722028067,"current_range_meters":26800,"station_id":"ce4bhs12rcd13ifvqhvg","pricing_plan_id":"cebpf4jnsgd1na2vs0mg"},{"bike_id":"410a3048-f68c-402b-9517-993e855ff60b","system_id":"levelo_inurba_marseille","lat":43.3046,"lon":5.37904,"is_reserved":false,"is_disabled":false,"rental_uris":{"android":"levelo://app?vid=410a3048-f68c-402b-9517-993e855ff60b","ios":"levelo://app?vid=410a3048-f68c-402b-9517-993e855ff60b"},"vehicle_type_id":"4","last_reported":1722028067,"current_range_meters":31200,"station_id":"ce4bgup2rcd13ifvqcn0","pricing_plan_id":"cebpf4jnsgd1na2vs0mg"},{"bike_id":"48109395-8558-41fe-9fbe-8632985816e9","system_id":"levelo_inurba_marseille","lat":43.304606,"lon":5.379026,"is_reserved":false,"is_disabled":false,"rental_uris":{"android":"levelo://app?vid=48109395-8558-41fe-9fbe-8632985816e9","ios":"levelo://app?vid=48109395-8558-41fe-9fbe-8632985816e9"},"vehicle_type_id":"4","last_reported":1722028067,"current_range_meters":25600,"station_id":"ce4bgup2rcd13ifvqcn0","pricing_plan_id":"cebpf4jnsgd1na2vs0mg"},{"bike_id":"2fb79667-ea02-4953-87fa-e97ab647561d","system_id":"levelo_inurba_marseille","lat":43.324771,"lon":5.36557,"is_reserved":false,"is_disabled":false,"rental_uris":{"android":"levelo://app?vid=2fb79667-ea02-4953-87fa-e97ab647561d","ios":"levelo://app?vid=2fb79667-ea02-4953-87fa-e97ab647561d"},"vehicle_type_id":"4","last_reported":1722028067,"current_range_meters":31200,"station_id":"ce4bhs12rcd13ifvqhvg","pricing_plan_id":"cebpf4jnsgd1na2vs0mg"},{"bike_id":"794b6e71-f75d-4c28-aa5d-745c16ead56f","system_id":"levelo_inurba_marseille","lat":43.310804,"lon":5.38359,"is_reserved":false,"is_disabled":false,"rental_uris":{"android":"levelo://app?vid=794b6e71-f75d-4c28-aa5d-745c16ead56f","ios":"levelo://app?vid=794b6e71-f75d-4c28-aa5d-745c16ead56f"},"vehicle_type_id":"4","last_reported":1722028067,"current_range_meters":0,"station_id":"ce4bgv92rcd13ifvqcr0","pricing_plan_id":"cebpf4jnsgd1na2vs0mg"},{"bike_id":"14448b4b-1763-4c02-8113-34b8cdea69d6","system_id":"levelo_inurba_marseille","lat":43.310733,"lon":5.38363,"is_reserved":false,"is_disabled":false,"rental_uris":{"android":"levelo://app?vid=14448b4b-1763-4c02-8113-34b8cdea69d6","ios":"levelo://app?vid=14448b4b-1763-4c02-8113-34b8cdea69d6"},"vehicle_type_id":"4","last_reported":1722028067,"current_range_meters":6000,"station_id":"ce4bgv92rcd13ifvqcr0","pricing_plan_id":"cebpf4jnsgd1na2vs0mg"},{"bike_id":"a3b494b8-cb13-4248-a477-14d7968352de","system_id":"levelo_inurba_marseille","lat":43.310804,"lon":5.38359,"is_reserved":false,"is_disabled":false,"rental_uris":{"android":"levelo://app?vid=a3b494b8-cb13-4248-a477-14d7968352de","ios":"levelo://app?vid=a3b494b8-cb13-4248-a477-14d7968352de"},"vehicle_type_id":"4","last_reported":1722028067,"current_range_meters":8400,"station_id":"ce4bgv92rcd13ifvqcr0","pricing_plan_id":"cebpf4jnsgd1na2vs0mg"},{"bike_id":"4068bbec-f0e2-4171-8d51-5cbc13fb8ed9","system_id":"levelo_inurba_marseille","lat":43.30639,"lon":5.38221,"is_reserved":false,"is_disabled":false,"rental_uris":{"android":"levelo://app?vid=4068bbec-f0e2-4171-8d51-5cbc13fb8ed9","ios":"levelo://app?vid=4068bbec-f0e2-4171-8d51-5cbc13fb8ed9"},"vehicle_type_id":"4","last_reported":1722028067,"current_range_meters":3600,"station_id":"","pricing_plan_id":"cebpf4jnsgd1na2vs0mg"},{"bike_id":"1edb175a-1ec6-4be6-ae24-d8cd91677e9e","system_id":"levelo_inurba_marseille","lat":43.319935,"lon":5.381699,"is_reserved":false,"is_disabled":false,"rental_uris":{"android":"levelo://app?vid=1edb175a-1ec6-4be6-ae24-d8cd91677e9e","ios":"levelo://app?vid=1edb175a-1ec6-4be6-ae24-d8cd91677e9e"},"vehicle_type_id":"4","last_reported":1722028067,"current_range_meters":15600,"station_id":"ce4bhr12rcd13ifvqhpg","pricing_plan_id":"cebpf4jnsgd1na2vs0mg"},{"bike_id":"07be9774-724e-4e11-b7cd-217a27466a1b","system_id":"levelo_inurba_marseille","lat":43.319935,"lon":5.381699,"is_reserved":false,"is_disabled":false,"rental_uris":{"android":"levelo://app?vid=07be9774-724e-4e11-b7cd-217a27466a1b","ios":"levelo://app?vid=07be9774-724e-4e11-b7cd-217a27466a1b"},"vehicle_type_id":"4","last_reported":1722028067,"current_range_meters":16400,"station_id":"ce4bhr12rcd13ifvqhpg","pricing_plan_id":"cebpf4jnsgd1na2vs0mg"},{"bike_id":"e3d8e463-97fd-49f7-81d2-b5d953ff04f3","system_id":"levelo_inurba_marseille","lat":43.313571,"lon":5.384829,"is_reserved":false,"is_disabled":false,"rental_uris":{"android":"levelo://app?vid=e3d8e463-97fd-49f7-81d2-b5d953ff04f3","ios":"levelo://app?vid=e3d8e463-97fd-49f7-81d2-b5d953ff04f3"},"vehicle_type_id":"4","last_reported":1722028067,"current_range_meters":11600,"station_id":"ce4bgt92rcd13ifvqcf0","pricing_plan_id":"cebpf4jnsgd1na2vs0mg"},{"bike_id":"95207cf3-6a78-4510-a5ea-3f04840551ab","system_id":"levelo_inurba_marseille","lat":43.300148,"lon":5.372044,"is_reserved":false,"is_disabled":false,"rental_uris":{"android":"levelo://app?vid=95207cf3-6a78-4510-a5ea-3f04840551ab","ios":"levelo://app?vid=95207cf3-6a78-4510-a5ea-3f04840551ab"},"vehicle_type_id":"4","last_reported":1722028067,"current_range_meters":1600,"station_id":"ce4bgr92rcd13ifvqc7g","pricing_plan_id":"cebpf4jnsgd1na2vs0mg"},{"bike_id":"8e19a7d6-ffe6-4683-a7a0-30fa5444e6a6","system_id":"levelo_inurba_marseille","lat":43.299222,"lon":5.365554,"is_reserved":false,"is_disabled":false,"rental_uris":{"android":"levelo://app?vid=8e19a7d6-ffe6-4683-a7a0-30fa5444e6a6","ios":"levelo://app?vid=8e19a7d6-ffe6-4683-a7a0-30fa5444e6a6"},"vehicle_type_id":"4","last_reported":1722028067,"current_range_meters":4400,"station_id":"ce4bgm92rcd13ifvqbr0","pricing_plan_id":"cebpf4jnsgd1na2vs0mg"},{"bike_id":"f6a2dc17-1ab6-497f-8a1e-ee708be9471b","system_id":"levelo_inurba_marseille","lat":43.299222,"lon":5.365554,"is_reserved":false,"is_disabled":false,"rental_uris":{"android":"levelo://app?vid=f6a2dc17-1ab6-497f-8a1e-ee708be9471b","ios":"levelo://app?vid=f6a2dc17-1ab6-497f-8a1e-ee708be9471b"},"vehicle_type_id":"4","last_reported":1722028067,"current_range_meters":26000,"station_id":"ce4bgm92rcd13ifvqbr0","pricing_plan_id":"cebpf4jnsgd1na2vs0mg"},{"bike_id":"9df41fec-4549-43f8-8c75-7517744cbb33","system_id":"levelo_inurba_marseille","lat":43.320321,"lon":5.382684,"is_reserved":false,"is_disabled":false,"rental_uris":{"android":"levelo://app?vid=9df41fec-4549-43f8-8c75-7517744cbb33","ios":"levelo://app?vid=9df41fec-4549-43f8-8c75-7517744cbb33"},"vehicle_type_id":"4","last_reported":1722028067,"current_range_meters":30400,"station_id":"","pricing_plan_id":"cebpf4jnsgd1na2vs0mg"},{"bike_id":"0c5febae-f207-49ba-aa11-f1a70636c637","system_id":"levelo_inurba_marseille","lat":43.298485,"lon":5.36289,"is_reserved":false,"is_disabled":false,"rental_uris":{"android":"levelo://app?vid=0c5febae-f207-49ba-aa11-f1a70636c637","ios":"levelo://app?vid=0c5febae-f207-49ba-aa11-f1a70636c637"},"vehicle_type_id":"4","last_reported":1722028067,"current_range_meters":31200,"station_id":"ce4bgpp2rcd13ifvqc3g","pricing_plan_id":"cebpf4jnsgd1na2vs0mg"},{"bike_id":"80082907-7792-48a6-b9ac-3c41febf7123","system_id":"levelo_inurba_marseille","lat":43.305364,"lon":5.384119,"is_reserved":false,"is_disabled":false,"rental_uris":{"android":"levelo://app?vid=80082907-7792-48a6-b9ac-3c41febf7123","ios":"levelo://app?vid=80082907-7792-48a6-b9ac-3c41febf7123"},"vehicle_type_id":"4","last_reported":1722028067,"current_range_meters":26400,"station_id":"ce4bgg92rcd13ifvqb30","pricing_plan_id":"cebpf4jnsgd1na2vs0mg"},{"bike_id":"c95ddb40-4a5c-43c0-9240-d93d3d912709","system_id":"levelo_inurba_marseille","lat":43.305364,"lon":5.384119,"is_reserved":false,"is_disabled":false,"rental_uris":{"android":"levelo://app?vid=c95ddb40-4a5c-43c0-9240-d93d3d912709","ios":"levelo://app?vid=c95ddb40-4a5c-43c0-9240-d93d3d912709"},"vehicle_type_id":"4","last_reported":1722028067,"current_range_meters":27200,"station_id":"ce4bgg92rcd13ifvqb30","pricing_plan_id":"cebpf4jnsgd1na2vs0mg"},{"bike_id":"41214de6-3cc8-45fc-aae8-06e476209560","system_id":"levelo_inurba_marseille","lat":43.299243,"lon":5.374807,"is_reserved":false,"is_disabled":false,"rental_uris":{"android":"levelo://app?vid=41214de6-3cc8-45fc-aae8-06e476209560","ios":"levelo://app?vid=41214de6-3cc8-45fc-aae8-06e476209560"},"vehicle_type_id":"4","last_reported":1722028067,"current_range_meters":30800,"station_id":"ce4bgjh2rcd13ifvqbg0","pricing_plan_id":"cebpf4jnsgd1na2vs0mg"},{"bike_id":"5baae494-bfce-46fb-89d7-e740d2524eeb","system_id":"levelo_inurba_marseille","lat":43.305364,"lon":5.384119,"is_reserved":false,"is_disabled":false,"rental_uris":{"android":"levelo://app?vid=5baae494-bfce-46fb-89d7-e740d2524eeb","ios":"levelo://app?vid=5baae494-bfce-46fb-89d7-e740d2524eeb"},"vehicle_type_id":"4","last_reported":1722028067,"current_range_meters":31200,"station_id":"ce4bgg92rcd13ifvqb30","pricing_plan_id":"cebpf4jnsgd1na2vs0mg"},{"bike_id":"178f424b-0656-4528-a300-bf2655e1f68d","system_id":"levelo_inurba_marseille","lat":43.305364,"lon":5.384119,"is_reserved":false,"is_disabled":false,"rental_uris":{"android":"levelo://app?vid=178f424b-0656-4528-a300-bf2655e1f68d","ios":"levelo://app?vid=178f424b-0656-4528-a300-bf2655e1f68d"},"vehicle_type_id":"4","last_reported":1722028067,"current_range_meters":29600,"station_id":"ce4bgg92rcd13ifvqb30","pricing_plan_id":"cebpf4jnsgd1na2vs0mg"},{"bike_id":"d3950bbc-c7ac-42e7-b6ed-c9c642b34936","system_id":"levelo_inurba_marseille","lat":43.30545,"lon":5.38443,"is_reserved":false,"is_disabled":false,"rental_uris":{"android":"levelo://app?vid=d3950bbc-c7ac-42e7-b6ed-c9c642b34936","ios":"levelo://app?vid=d3950bbc-c7ac-42e7-b6ed-c9c642b34936"},"vehicle_type_id":"4","last_reported":1722028067,"current_range_meters":31200,"station_id":"ce4bgg92rcd13ifvqb30","pricing_plan_id":"cebpf4jnsgd1na2vs0mg"},{"bike_id":"02a31e65-10d9-4770-9fb6-06bcdda37810","system_id":"levelo_inurba_marseille","lat":43.299243,"lon":5.37481,"is_reserved":false,"is_disabled":false,"rental_uris":{"android":"levelo://app?vid=02a31e65-10d9-4770-9fb6-06bcdda37810","ios":"levelo://app?vid=02a31e65-10d9-4770-9fb6-06bcdda37810"},"vehicle_type_id":"4","last_reported":1722028067,"current_range_meters":31200,"station_id":"ce4bgjh2rcd13ifvqbg0","pricing_plan_id":"cebpf4jnsgd1na2vs0mg"},{"bike_id":"adb17209-0e6a-4607-839c-42a15bb976a7","system_id":"levelo_inurba_marseille","lat":43.299243,"lon":5.374807,"is_reserved":false,"is_disabled":false,"rental_uris":{"android":"levelo://app?vid=adb17209-0e6a-4607-839c-42a15bb976a7","ios":"levelo://app?vid=adb17209-0e6a-4607-839c-42a15bb976a7"},"vehicle_type_id":"4","last_reported":1722028067,"current_range_meters":31200,"station_id":"ce4bgjh2rcd13ifvqbg0","pricing_plan_id":"cebpf4jnsgd1na2vs0mg"},{"bike_id":"9985081d-8c76-4b61-bc48-56063b73c752","system_id":"levelo_inurba_marseille","lat":43.299243,"lon":5.37481,"is_reserved":false,"is_disabled":false,"rental_uris":{"android":"levelo://app?vid=9985081d-8c76-4b61-bc48-56063b73c752","ios":"levelo://app?vid=9985081d-8c76-4b61-bc48-56063b73c752"},"vehicle_type_id":"4","last_reported":1722028067,"current_range_meters":31200,"station_id":"ce4bgjh2rcd13ifvqbg0","pricing_plan_id":"cebpf4jnsgd1na2vs0mg"},{"bike_id":"6d823c78-4b8e-43e0-bdba-4f8584cba9d1","system_id":"levelo_inurba_marseille","lat":43.299243,"lon":5.374807,"is_reserved":false,"is_disabled":false,"rental_uris":{"android":"levelo://app?vid=6d823c78-4b8e-43e0-bdba-4f8584cba9d1","ios":"levelo://app?vid=6d823c78-4b8e-43e0-bdba-4f8584cba9d1"},"vehicle_type_id":"4","last_reported":1722028067,"current_range_meters":27600,"station_id":"ce4bgjh2rcd13ifvqbg0","pricing_plan_id":"cebpf4jnsgd1na2vs0mg"},{"bike_id":"bcc0b8ed-f6de-4735-8fa6-6642881ee364","system_id":"levelo_inurba_marseille","lat":43.299243,"lon":5.374807,"is_reserved":false,"is_disabled":false,"rental_uris":{"android":"levelo://app?vid=bcc0b8ed-f6de-4735-8fa6-6642881ee364","ios":"levelo://app?vid=bcc0b8ed-f6de-4735-8fa6-6642881ee364"},"vehicle_type_id":"4","last_reported":1722028067,"current_range_meters":30800,"station_id":"ce4bgjh2rcd13ifvqbg0","pricing_plan_id":"cebpf4jnsgd1na2vs0mg"},{"bike_id":"4e801938-dfc3-4393-a127-abaa1cd9a159","system_id":"levelo_inurba_marseille","lat":43.311722,"lon":5.387247,"is_reserved":false,"is_disabled":false,"rental_uris":{"android":"levelo://app?vid=4e801938-dfc3-4393-a127-abaa1cd9a159","ios":"levelo://app?vid=4e801938-dfc3-4393-a127-abaa1cd9a159"},"vehicle_type_id":"4","last_reported":1722028067,"current_range_meters":20000,"station_id":"ce4bgv12rcd13ifvqcp0","pricing_plan_id":"cebpf4jnsgd1na2vs0mg"},{"bike_id":"cf0621f2-0431-49e4-bb88-7c42334ba18d","system_id":"levelo_inurba_marseille","lat":43.29908,"lon":5.37478,"is_reserved":false,"is_disabled":false,"rental_uris":{"android":"levelo://app?vid=cf0621f2-0431-49e4-bb88-7c42334ba18d","ios":"levelo://app?vid=cf0621f2-0431-49e4-bb88-7c42334ba18d"},"vehicle_type_id":"4","last_reported":1722028067,"current_range_meters":4400,"station_id":"ce4bgjh2rcd13ifvqbg0","pricing_plan_id":"cebpf4jnsgd1na2vs0mg"},{"bike_id":"ec7f815d-bdf2-4343-965d-5979cbe82ea1","system_id":"levelo_inurba_marseille","lat":43.311722,"lon":5.387247,"is_reserved":false,"is_disabled":false,"rental_uris":{"android":"levelo://app?vid=ec7f815d-bdf2-4343-965d-5979cbe82ea1","ios":"levelo://app?vid=ec7f815d-bdf2-4343-965d-5979cbe82ea1"},"vehicle_type_id":"4","last_reported":1722028067,"current_range_meters":22800,"station_id":"ce4bgv12rcd13ifvqcp0","pricing_plan_id":"cebpf4jnsgd1na2vs0mg"},{"bike_id":"a2ee3895-ba3e-4e3b-a5de-02224caa1f38","system_id":"levelo_inurba_marseille","lat":43.311722,"lon":5.387247,"is_reserved":false,"is_disabled":false,"rental_uris":{"android":"levelo://app?vid=a2ee3895-ba3e-4e3b-a5de-02224caa1f38","ios":"levelo://app?vid=a2ee3895-ba3e-4e3b-a5de-02224caa1f38"},"vehicle_type_id":"4","last_reported":1722028067,"current_range_meters":29600,"station_id":"ce4bgv12rcd13ifvqcp0","pricing_plan_id":"cebpf4jnsgd1na2vs0mg"},{"bike_id":"8ff0121b-665a-48ee-8370-bb9f837ef8a5","system_id":"levelo_inurba_marseille","lat":43.311722,"lon":5.387247,"is_reserved":false,"is_disabled":false,"rental_uris":{"android":"levelo://app?vid=8ff0121b-665a-48ee-8370-bb9f837ef8a5","ios":"levelo://app?vid=8ff0121b-665a-48ee-8370-bb9f837ef8a5"},"vehicle_type_id":"4","last_reported":1722028067,"current_range_meters":6000,"station_id":"ce4bgv12rcd13ifvqcp0","pricing_plan_id":"cebpf4jnsgd1na2vs0mg"},{"bike_id":"65003777-d3a9-4de4-86a0-42e7b585d58f","system_id":"levelo_inurba_marseille","lat":43.297794,"lon":5.370888,"is_reserved":false,"is_disabled":false,"rental_uris":{"android":"levelo://app?vid=65003777-d3a9-4de4-86a0-42e7b585d58f","ios":"levelo://app?vid=65003777-d3a9-4de4-86a0-42e7b585d58f"},"vehicle_type_id":"4","last_reported":1722028067,"current_range_meters":31200,"station_id":"ce4bgop2rcd13ifvqc1g","pricing_plan_id":"cebpf4jnsgd1na2vs0mg"},{"bike_id":"f5692a60-5918-47bd-8836-2fcdb8432214","system_id":"levelo_inurba_marseille","lat":43.30145,"lon":5.38074,"is_reserved":false,"is_disabled":false,"rental_uris":{"android":"levelo://app?vid=f5692a60-5918-47bd-8836-2fcdb8432214","ios":"levelo://app?vid=f5692a60-5918-47bd-8836-2fcdb8432214"},"vehicle_type_id":"4","last_reported":1722028067,"current_range_meters":23600,"station_id":"","pricing_plan_id":"cebpf4jnsgd1na2vs0mg"},{"bike_id":"73c0e0c3-24b6-4baf-a2c6-319766aeca3a","system_id":"levelo_inurba_marseille","lat":43.301437,"lon":5.380767,"is_reserved":false,"is_disabled":false,"rental_uris":{"android":"levelo://app?vid=73c0e0c3-24b6-4baf-a2c6-319766aeca3a","ios":"levelo://app?vid=73c0e0c3-24b6-4baf-a2c6-319766aeca3a"},"vehicle_type_id":"4","last_reported":1722028067,"current_range_meters":0,"station_id":"","pricing_plan_id":"cebpf4jnsgd1na2vs0mg"},{"bike_id":"6d782ea3-9dc1-43a3-8ec1-855e53a29786","system_id":"levelo_inurba_marseille","lat":43.297774,"lon":5.370875,"is_reserved":false,"is_disabled":false,"rental_uris":{"android":"levelo://app?vid=6d782ea3-9dc1-43a3-8ec1-855e53a29786","ios":"levelo://app?vid=6d782ea3-9dc1-43a3-8ec1-855e53a29786"},"vehicle_type_id":"4","last_reported":1722028067,"current_range_meters":31200,"station_id":"ce4bgop2rcd13ifvqc1g","pricing_plan_id":"cebpf4jnsgd1na2vs0mg"},{"bike_id":"d4262961-f3bb-4638-aa76-74e085324454","system_id":"levelo_inurba_marseille","lat":43.32278,"lon":5.38259,"is_reserved":false,"is_disabled":false,"rental_uris":{"android":"levelo://app?vid=d4262961-f3bb-4638-aa76-74e085324454","ios":"levelo://app?vid=d4262961-f3bb-4638-aa76-74e085324454"},"vehicle_type_id":"4","last_reported":1722028067,"current_range_meters":3600,"station_id":"ce4bhr12rcd13ifvqhqg","pricing_plan_id":"cebpf4jnsgd1na2vs0mg"},{"bike_id":"91f167e0-3598-4684-8465-a051e3d9fecf","system_id":"levelo_inurba_marseille","lat":43.297794,"lon":5.370888,"is_reserved":false,"is_disabled":false,"rental_uris":{"android":"levelo://app?vid=91f167e0-3598-4684-8465-a051e3d9fecf","ios":"levelo://app?vid=91f167e0-3598-4684-8465-a051e3d9fecf"},"vehicle_type_id":"4","last_reported":1722028067,"current_range_meters":31200,"station_id":"ce4bgop2rcd13ifvqc1g","pricing_plan_id":"cebpf4jnsgd1na2vs0mg"},{"bike_id":"cca3b4e5-8d40-41fc-a8d6-11745477c3e6","system_id":"levelo_inurba_marseille","lat":43.322872,"lon":5.382756,"is_reserved":false,"is_disabled":false,"rental_uris":{"android":"levelo://app?vid=cca3b4e5-8d40-41fc-a8d6-11745477c3e6","ios":"levelo://app?vid=cca3b4e5-8d40-41fc-a8d6-11745477c3e6"},"vehicle_type_id":"4","last_reported":1722028067,"current_range_meters":7200,"station_id":"ce4bhr12rcd13ifvqhqg","pricing_plan_id":"cebpf4jnsgd1na2vs0mg"},{"bike_id":"23601b0d-963a-4429-a411-db4635831707","system_id":"levelo_inurba_marseille","lat":43.322872,"lon":5.382756,"is_reserved":false,"is_disabled":false,"rental_uris":{"android":"levelo://app?vid=23601b0d-963a-4429-a411-db4635831707","ios":"levelo://app?vid=23601b0d-963a-4429-a411-db4635831707"},"vehicle_type_id":"4","last_reported":1722028067,"current_range_meters":0,"station_id":"ce4bhr12rcd13ifvqhqg","pricing_plan_id":"cebpf4jnsgd1na2vs0mg"},{"bike_id":"b1f4ca3e-8d01-4196-a1e8-a842a55de908","system_id":"levelo_inurba_marseille","lat":43.297794,"lon":5.370888,"is_reserved":false,"is_disabled":false,"rental_uris":{"android":"levelo://app?vid=b1f4ca3e-8d01-4196-a1e8-a842a55de908","ios":"levelo://app?vid=b1f4ca3e-8d01-4196-a1e8-a842a55de908"},"vehicle_type_id":"4","last_reported":1722028067,"current_range_meters":31200,"station_id":"ce4bgop2rcd13ifvqc1g","pricing_plan_id":"cebpf4jnsgd1na2vs0mg"},{"bike_id":"7f076708-6079-49d3-8bc7-75ae377aa73a","system_id":"levelo_inurba_marseille","lat":43.297774,"lon":5.370875,"is_reserved":false,"is_disabled":false,"rental_uris":{"android":"levelo://app?vid=7f076708-6079-49d3-8bc7-75ae377aa73a","ios":"levelo://app?vid=7f076708-6079-49d3-8bc7-75ae377aa73a"},"vehicle_type_id":"4","last_reported":1722028067,"current_range_meters":7200,"station_id":"ce4bgop2rcd13ifvqc1g","pricing_plan_id":"cebpf4jnsgd1na2vs0mg"},{"bike_id":"ea01aaae-ec07-4ec4-a9a9-992560bfb812","system_id":"levelo_inurba_marseille","lat":43.297774,"lon":5.370875,"is_reserved":false,"is_disabled":false,"rental_uris":{"android":"levelo://app?vid=ea01aaae-ec07-4ec4-a9a9-992560bfb812","ios":"levelo://app?vid=ea01aaae-ec07-4ec4-a9a9-992560bfb812"},"vehicle_type_id":"4","last_reported":1722028067,"current_range_meters":0,"station_id":"ce4bgop2rcd13ifvqc1g","pricing_plan_id":"cebpf4jnsgd1na2vs0mg"},{"bike_id":"1b2eabf3-2f44-4055-b35e-49a6427e7c4e","system_id":"levelo_inurba_marseille","lat":43.297774,"lon":5.370875,"is_reserved":false,"is_disabled":false,"rental_uris":{"android":"levelo://app?vid=1b2eabf3-2f44-4055-b35e-49a6427e7c4e","ios":"levelo://app?vid=1b2eabf3-2f44-4055-b35e-49a6427e7c4e"},"vehicle_type_id":"4","last_reported":1722028067,"current_range_meters":3600,"station_id":"ce4bgop2rcd13ifvqc1g","pricing_plan_id":"cebpf4jnsgd1na2vs0mg"},{"bike_id":"f94109fb-5568-4631-8087-b7339b192808","system_id":"levelo_inurba_marseille","lat":43.297774,"lon":5.370875,"is_reserved":false,"is_disabled":false,"rental_uris":{"android":"levelo://app?vid=f94109fb-5568-4631-8087-b7339b192808","ios":"levelo://app?vid=f94109fb-5568-4631-8087-b7339b192808"},"vehicle_type_id":"4","last_reported":1722028067,"current_range_meters":29200,"station_id":"ce4bgop2rcd13ifvqc1g","pricing_plan_id":"cebpf4jnsgd1na2vs0mg"},{"bike_id":"5866e309-4de9-4295-9068-4ee353fe4028","system_id":"levelo_inurba_marseille","lat":43.322872,"lon":5.382756,"is_reserved":false,"is_disabled":false,"rental_uris":{"android":"levelo://app?vid=5866e309-4de9-4295-9068-4ee353fe4028","ios":"levelo://app?vid=5866e309-4de9-4295-9068-4ee353fe4028"},"vehicle_type_id":"4","last_reported":1722028067,"current_range_meters":12000,"station_id":"ce4bhr12rcd13ifvqhqg","pricing_plan_id":"cebpf4jnsgd1na2vs0mg"},{"bike_id":"c5038399-9d28-48fd-9a93-bea6873973e1","system_id":"levelo_inurba_marseille","lat":43.322872,"lon":5.382756,"is_reserved":false,"is_disabled":false,"rental_uris":{"android":"levelo://app?vid=c5038399-9d28-48fd-9a93-bea6873973e1","ios":"levelo://app?vid=c5038399-9d28-48fd-9a93-bea6873973e1"},"vehicle_type_id":"4","last_reported":1722028067,"current_range_meters":15200,"station_id":"ce4bhr12rcd13ifvqhqg","pricing_plan_id":"cebpf4jnsgd1na2vs0mg"},{"bike_id":"0c5c1ee6-b63a-40c7-a4cd-2192390d6faa","system_id":"levelo_inurba_marseille","lat":43.322872,"lon":5.382756,"is_reserved":false,"is_disabled":false,"rental_uris":{"android":"levelo://app?vid=0c5c1ee6-b63a-40c7-a4cd-2192390d6faa","ios":"levelo://app?vid=0c5c1ee6-b63a-40c7-a4cd-2192390d6faa"},"vehicle_type_id":"4","last_reported":1722028067,"current_range_meters":15200,"station_id":"ce4bhr12rcd13ifvqhqg","pricing_plan_id":"cebpf4jnsgd1na2vs0mg"},{"bike_id":"c7adb6c5-26eb-4a36-aae5-b9f749257ee5","system_id":"levelo_inurba_marseille","lat":43.297163,"lon":5.365866,"is_reserved":false,"is_disabled":false,"rental_uris":{"android":"levelo://app?vid=c7adb6c5-26eb-4a36-aae5-b9f749257ee5","ios":"levelo://app?vid=c7adb6c5-26eb-4a36-aae5-b9f749257ee5"},"vehicle_type_id":"4","last_reported":1722028067,"current_range_meters":4000,"station_id":"ce4bgn12rcd13ifvqbt0","pricing_plan_id":"cebpf4jnsgd1na2vs0mg"},{"bike_id":"c51e9124-7c9c-465e-8f97-190da789342b","system_id":"levelo_inurba_marseille","lat":43.297163,"lon":5.365866,"is_reserved":false,"is_disabled":false,"rental_uris":{"android":"levelo://app?vid=c51e9124-7c9c-465e-8f97-190da789342b","ios":"levelo://app?vid=c51e9124-7c9c-465e-8f97-190da789342b"},"vehicle_type_id":"4","last_reported":1722028067,"current_range_meters":31200,"station_id":"ce4bgn12rcd13ifvqbt0","pricing_plan_id":"cebpf4jnsgd1na2vs0mg"},{"bike_id":"1483f967-8c96-4cf4-adde-6c542b089a35","system_id":"levelo_inurba_marseille","lat":43.297163,"lon":5.365866,"is_reserved":false,"is_disabled":false,"rental_uris":{"android":"levelo://app?vid=1483f967-8c96-4cf4-adde-6c542b089a35","ios":"levelo://app?vid=1483f967-8c96-4cf4-adde-6c542b089a35"},"vehicle_type_id":"4","last_reported":1722028067,"current_range_meters":5200,"station_id":"ce4bgn12rcd13ifvqbt0","pricing_plan_id":"cebpf4jnsgd1na2vs0mg"},{"bike_id":"75fcebdf-98f2-400a-a97b-9591a65ab6d4","system_id":"levelo_inurba_marseille","lat":43.296555,"lon":5.370869,"is_reserved":false,"is_disabled":false,"rental_uris":{"android":"levelo://app?vid=75fcebdf-98f2-400a-a97b-9591a65ab6d4","ios":"levelo://app?vid=75fcebdf-98f2-400a-a97b-9591a65ab6d4"},"vehicle_type_id":"4","last_reported":1722028067,"current_range_meters":8000,"station_id":"","pricing_plan_id":"cebpf4jnsgd1na2vs0mg"},{"bike_id":"ad7a1b59-c482-47ba-b55d-7374fbf13368","system_id":"levelo_inurba_marseille","lat":43.297163,"lon":5.365866,"is_reserved":false,"is_disabled":false,"rental_uris":{"android":"levelo://app?vid=ad7a1b59-c482-47ba-b55d-7374fbf13368","ios":"levelo://app?vid=ad7a1b59-c482-47ba-b55d-7374fbf13368"},"vehicle_type_id":"4","last_reported":1722028067,"current_range_meters":17200,"station_id":"ce4bgn12rcd13ifvqbt0","pricing_plan_id":"cebpf4jnsgd1na2vs0mg"},{"bike_id":"cd4e9066-81fc-4004-93df-3be00f833efa","system_id":"levelo_inurba_marseille","lat":43.29679,"lon":5.37296,"is_reserved":false,"is_disabled":false,"rental_uris":{"android":"levelo://app?vid=cd4e9066-81fc-4004-93df-3be00f833efa","ios":"levelo://app?vid=cd4e9066-81fc-4004-93df-3be00f833efa"},"vehicle_type_id":"4","last_reported":1722028067,"current_range_meters":10000,"station_id":"ce4bgk12rcd13ifvqbj0","pricing_plan_id":"cebpf4jnsgd1na2vs0mg"},{"bike_id":"77ebd6f7-0e15-4246-8feb-b1d720ac899a","system_id":"levelo_inurba_marseille","lat":43.300514,"lon":5.382268,"is_reserved":false,"is_disabled":false,"rental_uris":{"android":"levelo://app?vid=77ebd6f7-0e15-4246-8feb-b1d720ac899a","ios":"levelo://app?vid=77ebd6f7-0e15-4246-8feb-b1d720ac899a"},"vehicle_type_id":"4","last_reported":1722028067,"current_range_meters":22800,"station_id":"","pricing_plan_id":"cebpf4jnsgd1na2vs0mg"},{"bike_id":"b8ba0ae3-fe4a-4da5-9b51-88319bfd9715","system_id":"levelo_inurba_marseille","lat":43.29625,"lon":5.37149,"is_reserved":false,"is_disabled":false,"rental_uris":{"android":"levelo://app?vid=b8ba0ae3-fe4a-4da5-9b51-88319bfd9715","ios":"levelo://app?vid=b8ba0ae3-fe4a-4da5-9b51-88319bfd9715"},"vehicle_type_id":"4","last_reported":1722028067,"current_range_meters":5600,"station_id":"ce4bgnh2rcd13ifvqc0g","pricing_plan_id":"cebpf4jnsgd1na2vs0mg"},{"bike_id":"fcbc6149-c2dc-47e3-a772-59f0b3f0a412","system_id":"levelo_inurba_marseille","lat":43.29573,"lon":5.367355,"is_reserved":false,"is_disabled":false,"rental_uris":{"android":"levelo://app?vid=fcbc6149-c2dc-47e3-a772-59f0b3f0a412","ios":"levelo://app?vid=fcbc6149-c2dc-47e3-a772-59f0b3f0a412"},"vehicle_type_id":"4","last_reported":1722028067,"current_range_meters":2400,"station_id":"ce4bgph2rcd13ifvqc2g","pricing_plan_id":"cebpf4jnsgd1na2vs0mg"},{"bike_id":"6af7cec2-6ede-4e6f-b232-22005f05dd38","system_id":"levelo_inurba_marseille","lat":43.29575,"lon":5.36747,"is_reserved":false,"is_disabled":false,"rental_uris":{"android":"levelo://app?vid=6af7cec2-6ede-4e6f-b232-22005f05dd38","ios":"levelo://app?vid=6af7cec2-6ede-4e6f-b232-22005f05dd38"},"vehicle_type_id":"4","last_reported":1722028067,"current_range_meters":12000,"station_id":"ce4bgph2rcd13ifvqc2g","pricing_plan_id":"cebpf4jnsgd1na2vs0mg"},{"bike_id":"12bd0060-89ec-4e40-8d96-bdf525ef3b73","system_id":"levelo_inurba_marseille","lat":43.29903,"lon":5.3814,"is_reserved":false,"is_disabled":false,"rental_uris":{"android":"levelo://app?vid=12bd0060-89ec-4e40-8d96-bdf525ef3b73","ios":"levelo://app?vid=12bd0060-89ec-4e40-8d96-bdf525ef3b73"},"vehicle_type_id":"4","last_reported":1722028067,"current_range_meters":5200,"station_id":"ce4bgj12rcd13ifvqbc0","pricing_plan_id":"cebpf4jnsgd1na2vs0mg"},{"bike_id":"ce69103a-c7c3-48b4-84c9-5a0f933d910b","system_id":"levelo_inurba_marseille","lat":43.30951,"lon":5.39029,"is_reserved":false,"is_disabled":false,"rental_uris":{"android":"levelo://app?vid=ce69103a-c7c3-48b4-84c9-5a0f933d910b","ios":"levelo://app?vid=ce69103a-c7c3-48b4-84c9-5a0f933d910b"},"vehicle_type_id":"4","last_reported":1722028067,"current_range_meters":31600,"station_id":"ce4bgup2rcd13ifvqco0","pricing_plan_id":"cebpf4jnsgd1na2vs0mg"},{"bike_id":"2e1f0cf4-cbe7-41aa-ae3f-c54586b85fca","system_id":"levelo_inurba_marseille","lat":43.30961,"lon":5.39032,"is_reserved":false,"is_disabled":false,"rental_uris":{"android":"levelo://app?vid=2e1f0cf4-cbe7-41aa-ae3f-c54586b85fca","ios":"levelo://app?vid=2e1f0cf4-cbe7-41aa-ae3f-c54586b85fca"},"vehicle_type_id":"4","last_reported":1722028067,"current_range_meters":16800,"station_id":"ce4bgup2rcd13ifvqco0","pricing_plan_id":"cebpf4jnsgd1na2vs0mg"},{"bike_id":"7d03520d-4edf-4711-8e17-793db3374e7d","system_id":"levelo_inurba_marseille","lat":43.317557,"lon":5.390173,"is_reserved":false,"is_disabled":false,"rental_uris":{"android":"levelo://app?vid=7d03520d-4edf-4711-8e17-793db3374e7d","ios":"levelo://app?vid=7d03520d-4edf-4711-8e17-793db3374e7d"},"vehicle_type_id":"4","last_reported":1722028067,"current_range_meters":0,"station_id":"ce4bhqp2rcd13ifvqhng","pricing_plan_id":"cebpf4jnsgd1na2vs0mg"},{"bike_id":"d174510d-b116-4165-ad2d-ee5876e07cbd","system_id":"levelo_inurba_marseille","lat":43.29583,"lon":5.3751,"is_reserved":false,"is_disabled":false,"rental_uris":{"android":"levelo://app?vid=d174510d-b116-4165-ad2d-ee5876e07cbd","ios":"levelo://app?vid=d174510d-b116-4165-ad2d-ee5876e07cbd"},"vehicle_type_id":"4","last_reported":1722028067,"current_range_meters":0,"station_id":"ce4bgh92rcd13ifvqb50","pricing_plan_id":"cebpf4jnsgd1na2vs0mg"},{"bike_id":"c23d0a22-3e5f-4f6d-8488-2b18cdee4329","system_id":"levelo_inurba_marseille","lat":43.298037,"lon":5.381066,"is_reserved":false,"is_disabled":false,"rental_uris":{"android":"levelo://app?vid=c23d0a22-3e5f-4f6d-8488-2b18cdee4329","ios":"levelo://app?vid=c23d0a22-3e5f-4f6d-8488-2b18cdee4329"},"vehicle_type_id":"4","last_reported":1722028067,"current_range_meters":16400,"station_id":"ce4bgip2rcd13ifvqbb0","pricing_plan_id":"cebpf4jnsgd1na2vs0mg"},{"bike_id":"2a720633-f488-4683-8710-ddf73062a3ed","system_id":"levelo_inurba_marseille","lat":43.295748,"lon":5.37522,"is_reserved":false,"is_disabled":false,"rental_uris":{"android":"levelo://app?vid=2a720633-f488-4683-8710-ddf73062a3ed","ios":"levelo://app?vid=2a720633-f488-4683-8710-ddf73062a3ed"},"vehicle_type_id":"4","last_reported":1722028067,"current_range_meters":25200,"station_id":"ce4bgh92rcd13ifvqb50","pricing_plan_id":"cebpf4jnsgd1na2vs0mg"},{"bike_id":"1259f0c0-3168-46ab-9b03-fc6cfb8d9b25","system_id":"levelo_inurba_marseille","lat":43.295748,"lon":5.37522,"is_reserved":false,"is_disabled":false,"rental_uris":{"android":"levelo://app?vid=1259f0c0-3168-46ab-9b03-fc6cfb8d9b25","ios":"levelo://app?vid=1259f0c0-3168-46ab-9b03-fc6cfb8d9b25"},"vehicle_type_id":"4","last_reported":1722028067,"current_range_meters":28400,"station_id":"ce4bgh92rcd13ifvqb50","pricing_plan_id":"cebpf4jnsgd1na2vs0mg"},{"bike_id":"50f85745-4dee-4d4d-a943-ad098c4c968c","system_id":"levelo_inurba_marseille","lat":43.304278,"lon":5.388868,"is_reserved":false,"is_disabled":false,"rental_uris":{"android":"levelo://app?vid=50f85745-4dee-4d4d-a943-ad098c4c968c","ios":"levelo://app?vid=50f85745-4dee-4d4d-a943-ad098c4c968c"},"vehicle_type_id":"4","last_reported":1722028067,"current_range_meters":22000,"station_id":"ce4bgk12rcd13ifvqbi0","pricing_plan_id":"cebpf4jnsgd1na2vs0mg"},{"bike_id":"6dd5a054-97cf-4a28-836e-d445bc941a5c","system_id":"levelo_inurba_marseille","lat":43.304274,"lon":5.388873,"is_reserved":false,"is_disabled":false,"rental_uris":{"android":"levelo://app?vid=6dd5a054-97cf-4a28-836e-d445bc941a5c","ios":"levelo://app?vid=6dd5a054-97cf-4a28-836e-d445bc941a5c"},"vehicle_type_id":"4","last_reported":1722028067,"current_range_meters":6000,"station_id":"ce4bgk12rcd13ifvqbi0","pricing_plan_id":"cebpf4jnsgd1na2vs0mg"},{"bike_id":"a7cf9670-3e2e-4841-b2b7-7dee6e5d9606","system_id":"levelo_inurba_marseille","lat":43.304274,"lon":5.388873,"is_reserved":false,"is_disabled":false,"rental_uris":{"android":"levelo://app?vid=a7cf9670-3e2e-4841-b2b7-7dee6e5d9606","ios":"levelo://app?vid=a7cf9670-3e2e-4841-b2b7-7dee6e5d9606"},"vehicle_type_id":"4","last_reported":1722028067,"current_range_meters":30400,"station_id":"ce4bgk12rcd13ifvqbi0","pricing_plan_id":"cebpf4jnsgd1na2vs0mg"},{"bike_id":"18a7ecf1-4401-4060-8a1d-c5d6bcdb1f79","system_id":"levelo_inurba_marseille","lat":43.295748,"lon":5.37522,"is_reserved":false,"is_disabled":false,"rental_uris":{"android":"levelo://app?vid=18a7ecf1-4401-4060-8a1d-c5d6bcdb1f79","ios":"levelo://app?vid=18a7ecf1-4401-4060-8a1d-c5d6bcdb1f79"},"vehicle_type_id":"4","last_reported":1722028067,"current_range_meters":25600,"station_id":"ce4bgh92rcd13ifvqb50","pricing_plan_id":"cebpf4jnsgd1na2vs0mg"},{"bike_id":"706724a5-373c-47d2-837e-fda369a8bef9","system_id":"levelo_inurba_marseille","lat":43.298037,"lon":5.381066,"is_reserved":false,"is_disabled":false,"rental_uris":{"android":"levelo://app?vid=706724a5-373c-47d2-837e-fda369a8bef9","ios":"levelo://app?vid=706724a5-373c-47d2-837e-fda369a8bef9"},"vehicle_type_id":"4","last_reported":1722028067,"current_range_meters":0,"station_id":"ce4bgip2rcd13ifvqbb0","pricing_plan_id":"cebpf4jnsgd1na2vs0mg"},{"bike_id":"97a6a795-e5b8-4685-a2c9-1c4dcda54d58","system_id":"levelo_inurba_marseille","lat":43.304278,"lon":5.388868,"is_reserved":false,"is_disabled":false,"rental_uris":{"android":"levelo://app?vid=97a6a795-e5b8-4685-a2c9-1c4dcda54d58","ios":"levelo://app?vid=97a6a795-e5b8-4685-a2c9-1c4dcda54d58"},"vehicle_type_id":"4","last_reported":1722028067,"current_range_meters":15600,"station_id":"ce4bgk12rcd13ifvqbi0","pricing_plan_id":"cebpf4jnsgd1na2vs0mg"},{"bike_id":"2a9d663a-f013-4b52-a975-f8352fe46e8b","system_id":"levelo_inurba_marseille","lat":43.304278,"lon":5.388868,"is_reserved":false,"is_disabled":false,"rental_uris":{"android":"levelo://app?vid=2a9d663a-f013-4b52-a975-f8352fe46e8b","ios":"levelo://app?vid=2a9d663a-f013-4b52-a975-f8352fe46e8b"},"vehicle_type_id":"4","last_reported":1722028067,"current_range_meters":4800,"station_id":"ce4bgk12rcd13ifvqbi0","pricing_plan_id":"cebpf4jnsgd1na2vs0mg"},{"bike_id":"1e030654-de62-45e3-8574-d4367ad3c012","system_id":"levelo_inurba_marseille","lat":43.29603,"lon":5.37721,"is_reserved":false,"is_disabled":false,"rental_uris":{"android":"levelo://app?vid=1e030654-de62-45e3-8574-d4367ad3c012","ios":"levelo://app?vid=1e030654-de62-45e3-8574-d4367ad3c012"},"vehicle_type_id":"4","last_reported":1722028067,"current_range_meters":800,"station_id":"ce4bgi92rcd13ifvqb90","pricing_plan_id":"cebpf4jnsgd1na2vs0mg"},{"bike_id":"a59d6379-4dbc-435e-857a-edf7db493225","system_id":"levelo_inurba_marseille","lat":43.299707,"lon":5.384859,"is_reserved":false,"is_disabled":false,"rental_uris":{"android":"levelo://app?vid=a59d6379-4dbc-435e-857a-edf7db493225","ios":"levelo://app?vid=a59d6379-4dbc-435e-857a-edf7db493225"},"vehicle_type_id":"4","last_reported":1722028067,"current_range_meters":31200,"station_id":"ce4bgj92rcd13ifvqbd0","pricing_plan_id":"cebpf4jnsgd1na2vs0mg"},{"bike_id":"0d7df4f7-5b85-4956-ac3b-6171358e50c3","system_id":"levelo_inurba_marseille","lat":43.299724,"lon":5.384848,"is_reserved":false,"is_disabled":false,"rental_uris":{"android":"levelo://app?vid=0d7df4f7-5b85-4956-ac3b-6171358e50c3","ios":"levelo://app?vid=0d7df4f7-5b85-4956-ac3b-6171358e50c3"},"vehicle_type_id":"4","last_reported":1722028067,"current_range_meters":31200,"station_id":"ce4bgj92rcd13ifvqbd0","pricing_plan_id":"cebpf4jnsgd1na2vs0mg"},{"bike_id":"e5baa53d-1a1f-4a06-a673-f9cb418d14f6","system_id":"levelo_inurba_marseille","lat":43.299707,"lon":5.384859,"is_reserved":false,"is_disabled":false,"rental_uris":{"android":"levelo://app?vid=e5baa53d-1a1f-4a06-a673-f9cb418d14f6","ios":"levelo://app?vid=e5baa53d-1a1f-4a06-a673-f9cb418d14f6"},"vehicle_type_id":"4","last_reported":1722028067,"current_range_meters":26800,"station_id":"ce4bgj92rcd13ifvqbd0","pricing_plan_id":"cebpf4jnsgd1na2vs0mg"},{"bike_id":"02b8b768-e243-4812-8626-835dc33a3fb5","system_id":"levelo_inurba_marseille","lat":43.299707,"lon":5.384859,"is_reserved":false,"is_disabled":false,"rental_uris":{"android":"levelo://app?vid=02b8b768-e243-4812-8626-835dc33a3fb5","ios":"levelo://app?vid=02b8b768-e243-4812-8626-835dc33a3fb5"},"vehicle_type_id":"4","last_reported":1722028067,"current_range_meters":20400,"station_id":"ce4bgj92rcd13ifvqbd0","pricing_plan_id":"cebpf4jnsgd1na2vs0mg"},{"bike_id":"325fac32-baa4-46c5-a1a9-b9759c027cf2","system_id":"levelo_inurba_marseille","lat":43.295207,"lon":5.374977,"is_reserved":false,"is_disabled":false,"rental_uris":{"android":"levelo://app?vid=325fac32-baa4-46c5-a1a9-b9759c027cf2","ios":"levelo://app?vid=325fac32-baa4-46c5-a1a9-b9759c027cf2"},"vehicle_type_id":"4","last_reported":1722028067,"current_range_meters":0,"station_id":"ce4bgkp2rcd13ifvqbmg","pricing_plan_id":"cebpf4jnsgd1na2vs0mg"},{"bike_id":"a904802c-4a8d-4a50-94e3-9c003b3ac16e","system_id":"levelo_inurba_marseille","lat":43.29971,"lon":5.38495,"is_reserved":false,"is_disabled":false,"rental_uris":{"android":"levelo://app?vid=a904802c-4a8d-4a50-94e3-9c003b3ac16e","ios":"levelo://app?vid=a904802c-4a8d-4a50-94e3-9c003b3ac16e"},"vehicle_type_id":"4","last_reported":1722028067,"current_range_meters":31600,"station_id":"ce4bgj92rcd13ifvqbd0","pricing_plan_id":"cebpf4jnsgd1na2vs0mg"},{"bike_id":"5e0cbc04-e30a-4f67-bf1f-745231c3a156","system_id":"levelo_inurba_marseille","lat":43.299724,"lon":5.384848,"is_reserved":false,"is_disabled":false,"rental_uris":{"android":"levelo://app?vid=5e0cbc04-e30a-4f67-bf1f-745231c3a156","ios":"levelo://app?vid=5e0cbc04-e30a-4f67-bf1f-745231c3a156"},"vehicle_type_id":"4","last_reported":1722028067,"current_range_meters":31200,"station_id":"ce4bgj92rcd13ifvqbd0","pricing_plan_id":"cebpf4jnsgd1na2vs0mg"},{"bike_id":"b5b9a7c6-c6b5-43ac-885d-67bcd45d3680","system_id":"levelo_inurba_marseille","lat":43.299668,"lon":5.384955,"is_reserved":false,"is_disabled":false,"rental_uris":{"android":"levelo://app?vid=b5b9a7c6-c6b5-43ac-885d-67bcd45d3680","ios":"levelo://app?vid=b5b9a7c6-c6b5-43ac-885d-67bcd45d3680"},"vehicle_type_id":"4","last_reported":1722028067,"current_range_meters":30000,"station_id":"ce4bgj92rcd13ifvqbd0","pricing_plan_id":"cebpf4jnsgd1na2vs0mg"},{"bike_id":"0847718e-29ad-432b-9b3b-9fc76093886d","system_id":"levelo_inurba_marseille","lat":43.29967,"lon":5.38499,"is_reserved":false,"is_disabled":false,"rental_uris":{"android":"levelo://app?vid=0847718e-29ad-432b-9b3b-9fc76093886d","ios":"levelo://app?vid=0847718e-29ad-432b-9b3b-9fc76093886d"},"vehicle_type_id":"4","last_reported":1722028067,"current_range_meters":31600,"station_id":"ce4bgj92rcd13ifvqbd0","pricing_plan_id":"cebpf4jnsgd1na2vs0mg"},{"bike_id":"b2edfc2a-5fc6-4f37-9989-7caf5ffc43ec","system_id":"levelo_inurba_marseille","lat":43.299724,"lon":5.384848,"is_reserved":false,"is_disabled":false,"rental_uris":{"android":"levelo://app?vid=b2edfc2a-5fc6-4f37-9989-7caf5ffc43ec","ios":"levelo://app?vid=b2edfc2a-5fc6-4f37-9989-7caf5ffc43ec"},"vehicle_type_id":"4","last_reported":1722028067,"current_range_meters":31200,"station_id":"ce4bgj92rcd13ifvqbd0","pricing_plan_id":"cebpf4jnsgd1na2vs0mg"},{"bike_id":"7a1ccc2d-e113-46df-b2b0-cccd784a4c97","system_id":"levelo_inurba_marseille","lat":43.301396,"lon":5.387812,"is_reserved":false,"is_disabled":false,"rental_uris":{"android":"levelo://app?vid=7a1ccc2d-e113-46df-b2b0-cccd784a4c97","ios":"levelo://app?vid=7a1ccc2d-e113-46df-b2b0-cccd784a4c97"},"vehicle_type_id":"4","last_reported":1722028067,"current_range_meters":31200,"station_id":"ce4bghh2rcd13ifvqb60","pricing_plan_id":"cebpf4jnsgd1na2vs0mg"},{"bike_id":"31be1ab6-37b3-48c3-86da-a0a96a85e610","system_id":"levelo_inurba_marseille","lat":43.301396,"lon":5.387812,"is_reserved":false,"is_disabled":false,"rental_uris":{"android":"levelo://app?vid=31be1ab6-37b3-48c3-86da-a0a96a85e610","ios":"levelo://app?vid=31be1ab6-37b3-48c3-86da-a0a96a85e610"},"vehicle_type_id":"4","last_reported":1722028067,"current_range_meters":31200,"station_id":"ce4bghh2rcd13ifvqb60","pricing_plan_id":"cebpf4jnsgd1na2vs0mg"},{"bike_id":"0ab89a1a-1661-4f70-9f06-62891ac7cec8","system_id":"levelo_inurba_marseille","lat":43.30132,"lon":5.38786,"is_reserved":false,"is_disabled":false,"rental_uris":{"android":"levelo://app?vid=0ab89a1a-1661-4f70-9f06-62891ac7cec8","ios":"levelo://app?vid=0ab89a1a-1661-4f70-9f06-62891ac7cec8"},"vehicle_type_id":"4","last_reported":1722028067,"current_range_meters":31200,"station_id":"ce4bghh2rcd13ifvqb60","pricing_plan_id":"cebpf4jnsgd1na2vs0mg"},{"bike_id":"4a2047f6-0896-4a80-a4c2-3927674d0fa7","system_id":"levelo_inurba_marseille","lat":43.30124,"lon":5.38778,"is_reserved":false,"is_disabled":false,"rental_uris":{"android":"levelo://app?vid=4a2047f6-0896-4a80-a4c2-3927674d0fa7","ios":"levelo://app?vid=4a2047f6-0896-4a80-a4c2-3927674d0fa7"},"vehicle_type_id":"4","last_reported":1722028067,"current_range_meters":24800,"station_id":"ce4bghh2rcd13ifvqb60","pricing_plan_id":"cebpf4jnsgd1na2vs0mg"},{"bike_id":"71e76901-2b22-4b33-934f-0b408364401f","system_id":"levelo_inurba_marseille","lat":43.301396,"lon":5.387812,"is_reserved":false,"is_disabled":false,"rental_uris":{"android":"levelo://app?vid=71e76901-2b22-4b33-934f-0b408364401f","ios":"levelo://app?vid=71e76901-2b22-4b33-934f-0b408364401f"},"vehicle_type_id":"4","last_reported":1722028067,"current_range_meters":30000,"station_id":"ce4bghh2rcd13ifvqb60","pricing_plan_id":"cebpf4jnsgd1na2vs0mg"},{"bike_id":"657bcb0c-6c5d-412f-89df-273da3c4fb3d","system_id":"levelo_inurba_marseille","lat":43.32367,"lon":5.388836,"is_reserved":false,"is_disabled":false,"rental_uris":{"android":"levelo://app?vid=657bcb0c-6c5d-412f-89df-273da3c4fb3d","ios":"levelo://app?vid=657bcb0c-6c5d-412f-89df-273da3c4fb3d"},"vehicle_type_id":"4","last_reported":1722028067,"current_range_meters":1600,"station_id":"ce4bhqp2rcd13ifvqhog","pricing_plan_id":"cebpf4jnsgd1na2vs0mg"},{"bike_id":"ce7cbb67-c707-4599-9315-a2402398bfd9","system_id":"levelo_inurba_marseille","lat":43.32367,"lon":5.388836,"is_reserved":false,"is_disabled":false,"rental_uris":{"android":"levelo://app?vid=ce7cbb67-c707-4599-9315-a2402398bfd9","ios":"levelo://app?vid=ce7cbb67-c707-4599-9315-a2402398bfd9"},"vehicle_type_id":"4","last_reported":1722028067,"current_range_meters":14400,"station_id":"ce4bhqp2rcd13ifvqhog","pricing_plan_id":"cebpf4jnsgd1na2vs0mg"},{"bike_id":"ca41d1b4-47ca-4a06-91f8-171a7e64fdf8","system_id":"levelo_inurba_marseille","lat":43.29601,"lon":5.381084,"is_reserved":false,"is_disabled":false,"rental_uris":{"android":"levelo://app?vid=ca41d1b4-47ca-4a06-91f8-171a7e64fdf8","ios":"levelo://app?vid=ca41d1b4-47ca-4a06-91f8-171a7e64fdf8"},"vehicle_type_id":"4","last_reported":1722028067,"current_range_meters":25600,"station_id":"ce4bgl12rcd13ifvqbo0","pricing_plan_id":"cebpf4jnsgd1na2vs0mg"},{"bike_id":"49ff847c-a73e-4ad3-84c0-c62c91e7568c","system_id":"levelo_inurba_marseille","lat":43.29529,"lon":5.385581,"is_reserved":false,"is_disabled":false,"rental_uris":{"android":"levelo://app?vid=49ff847c-a73e-4ad3-84c0-c62c91e7568c","ios":"levelo://app?vid=49ff847c-a73e-4ad3-84c0-c62c91e7568c"},"vehicle_type_id":"4","last_reported":1722028067,"current_range_meters":28400,"station_id":"ce4bgih2rcd13ifvqba0","pricing_plan_id":"cebpf4jnsgd1na2vs0mg"},{"bike_id":"809b282f-89ca-40f4-a293-a2b5a41972c1","system_id":"levelo_inurba_marseille","lat":43.29601,"lon":5.38106,"is_reserved":false,"is_disabled":false,"rental_uris":{"android":"levelo://app?vid=809b282f-89ca-40f4-a293-a2b5a41972c1","ios":"levelo://app?vid=809b282f-89ca-40f4-a293-a2b5a41972c1"},"vehicle_type_id":"4","last_reported":1722028067,"current_range_meters":11600,"station_id":"ce4bgl12rcd13ifvqbo0","pricing_plan_id":"cebpf4jnsgd1na2vs0mg"},{"bike_id":"da2c6d77-1086-4da3-a022-d989f2d907e3","system_id":"levelo_inurba_marseille","lat":43.29328,"lon":5.37089,"is_reserved":false,"is_disabled":false,"rental_uris":{"android":"levelo://app?vid=da2c6d77-1086-4da3-a022-d989f2d907e3","ios":"levelo://app?vid=da2c6d77-1086-4da3-a022-d989f2d907e3"},"vehicle_type_id":"4","last_reported":1722028067,"current_range_meters":4000,"station_id":"","pricing_plan_id":"cebpf4jnsgd1na2vs0mg"},{"bike_id":"2b344f8e-bc0c-49d6-afbd-dbb63ffbb4d3","system_id":"levelo_inurba_marseille","lat":43.295842,"lon":5.380903,"is_reserved":false,"is_disabled":false,"rental_uris":{"android":"levelo://app?vid=2b344f8e-bc0c-49d6-afbd-dbb63ffbb4d3","ios":"levelo://app?vid=2b344f8e-bc0c-49d6-afbd-dbb63ffbb4d3"},"vehicle_type_id":"4","last_reported":1722028067,"current_range_meters":30800,"station_id":"ce4bgl12rcd13ifvqbo0","pricing_plan_id":"cebpf4jnsgd1na2vs0mg"},{"bike_id":"bed68b72-2790-4100-94eb-383197f23fb7","system_id":"levelo_inurba_marseille","lat":43.29602,"lon":5.381084,"is_reserved":false,"is_disabled":false,"rental_uris":{"android":"levelo://app?vid=bed68b72-2790-4100-94eb-383197f23fb7","ios":"levelo://app?vid=bed68b72-2790-4100-94eb-383197f23fb7"},"vehicle_type_id":"4","last_reported":1722028067,"current_range_meters":15200,"station_id":"ce4bgl12rcd13ifvqbo0","pricing_plan_id":"cebpf4jnsgd1na2vs0mg"},{"bike_id":"abdd1f4f-a4cc-4d76-9f75-4353dd5424b1","system_id":"levelo_inurba_marseille","lat":43.29284,"lon":5.36845,"is_reserved":false,"is_disabled":false,"rental_uris":{"android":"levelo://app?vid=abdd1f4f-a4cc-4d76-9f75-4353dd5424b1","ios":"levelo://app?vid=abdd1f4f-a4cc-4d76-9f75-4353dd5424b1"},"vehicle_type_id":"4","last_reported":1722028067,"current_range_meters":0,"station_id":"ce4bhbp2rcd13ifvqesg","pricing_plan_id":"cebpf4jnsgd1na2vs0mg"},{"bike_id":"792dc345-5997-42b2-9000-d257d3138214","system_id":"levelo_inurba_marseille","lat":43.292749,"lon":5.368402,"is_reserved":false,"is_disabled":false,"rental_uris":{"android":"levelo://app?vid=792dc345-5997-42b2-9000-d257d3138214","ios":"levelo://app?vid=792dc345-5997-42b2-9000-d257d3138214"},"vehicle_type_id":"4","last_reported":1722028067,"current_range_meters":0,"station_id":"ce4bhbp2rcd13ifvqesg","pricing_plan_id":"cebpf4jnsgd1na2vs0mg"},{"bike_id":"4c0b30c7-5adc-4383-82a4-dec04fe225f3","system_id":"levelo_inurba_marseille","lat":43.29277,"lon":5.36851,"is_reserved":false,"is_disabled":false,"rental_uris":{"android":"levelo://app?vid=4c0b30c7-5adc-4383-82a4-dec04fe225f3","ios":"levelo://app?vid=4c0b30c7-5adc-4383-82a4-dec04fe225f3"},"vehicle_type_id":"4","last_reported":1722028067,"current_range_meters":0,"station_id":"ce4bhbp2rcd13ifvqesg","pricing_plan_id":"cebpf4jnsgd1na2vs0mg"},{"bike_id":"84452986-b167-4bbb-9edf-ba1ecedbd811","system_id":"levelo_inurba_marseille","lat":43.293259,"lon":5.371586,"is_reserved":false,"is_disabled":false,"rental_uris":{"android":"levelo://app?vid=84452986-b167-4bbb-9edf-ba1ecedbd811","ios":"levelo://app?vid=84452986-b167-4bbb-9edf-ba1ecedbd811"},"vehicle_type_id":"4","last_reported":1722028067,"current_range_meters":27600,"station_id":"ce4bgh92rcd13ifvqb40","pricing_plan_id":"cebpf4jnsgd1na2vs0mg"},{"bike_id":"3930ed3e-bf83-4946-a60f-df78319bf52d","system_id":"levelo_inurba_marseille","lat":43.292749,"lon":5.368402,"is_reserved":false,"is_disabled":false,"rental_uris":{"android":"levelo://app?vid=3930ed3e-bf83-4946-a60f-df78319bf52d","ios":"levelo://app?vid=3930ed3e-bf83-4946-a60f-df78319bf52d"},"vehicle_type_id":"4","last_reported":1722028067,"current_range_meters":2000,"station_id":"ce4bhbp2rcd13ifvqesg","pricing_plan_id":"cebpf4jnsgd1na2vs0mg"},{"bike_id":"fb3c2cb3-499c-4112-9c80-88614aafd664","system_id":"levelo_inurba_marseille","lat":43.293259,"lon":5.371586,"is_reserved":false,"is_disabled":false,"rental_uris":{"android":"levelo://app?vid=fb3c2cb3-499c-4112-9c80-88614aafd664","ios":"levelo://app?vid=fb3c2cb3-499c-4112-9c80-88614aafd664"},"vehicle_type_id":"4","last_reported":1722028067,"current_range_meters":1600,"station_id":"ce4bgh92rcd13ifvqb40","pricing_plan_id":"cebpf4jnsgd1na2vs0mg"},{"bike_id":"29b24ff3-2f53-424c-a624-383bc3f96705","system_id":"levelo_inurba_marseille","lat":43.29267,"lon":5.36857,"is_reserved":false,"is_disabled":false,"rental_uris":{"android":"levelo://app?vid=29b24ff3-2f53-424c-a624-383bc3f96705","ios":"levelo://app?vid=29b24ff3-2f53-424c-a624-383bc3f96705"},"vehicle_type_id":"4","last_reported":1722028067,"current_range_meters":0,"station_id":"ce4bhbp2rcd13ifvqesg","pricing_plan_id":"cebpf4jnsgd1na2vs0mg"},{"bike_id":"c94b4e65-8aed-4ba8-b8d2-135f00b57a81","system_id":"levelo_inurba_marseille","lat":43.29306,"lon":5.37469,"is_reserved":false,"is_disabled":false,"rental_uris":{"android":"levelo://app?vid=c94b4e65-8aed-4ba8-b8d2-135f00b57a81","ios":"levelo://app?vid=c94b4e65-8aed-4ba8-b8d2-135f00b57a81"},"vehicle_type_id":"4","last_reported":1722028067,"current_range_meters":13600,"station_id":"ce4bgi12rcd13ifvqb70","pricing_plan_id":"cebpf4jnsgd1na2vs0mg"},{"bike_id":"7e3cb810-2b60-41db-bdd7-cac79c1ec73d","system_id":"levelo_inurba_marseille","lat":43.29301,"lon":5.3747,"is_reserved":false,"is_disabled":false,"rental_uris":{"android":"levelo://app?vid=7e3cb810-2b60-41db-bdd7-cac79c1ec73d","ios":"levelo://app?vid=7e3cb810-2b60-41db-bdd7-cac79c1ec73d"},"vehicle_type_id":"4","last_reported":1722028067,"current_range_meters":15200,"station_id":"ce4bgi12rcd13ifvqb70","pricing_plan_id":"cebpf4jnsgd1na2vs0mg"},{"bike_id":"2ef22308-cd83-4763-8f6b-161f63932fc2","system_id":"levelo_inurba_marseille","lat":43.305994,"lon":5.393687,"is_reserved":false,"is_disabled":false,"rental_uris":{"android":"levelo://app?vid=2ef22308-cd83-4763-8f6b-161f63932fc2","ios":"levelo://app?vid=2ef22308-cd83-4763-8f6b-161f63932fc2"},"vehicle_type_id":"4","last_reported":1722028067,"current_range_meters":7200,"station_id":"ce4bh0p2rcd13ifvqd80","pricing_plan_id":"cebpf4jnsgd1na2vs0mg"},{"bike_id":"ce9f6e3a-06e5-44fd-9617-505a4dac4449","system_id":"levelo_inurba_marseille","lat":43.293009,"lon":5.374584,"is_reserved":false,"is_disabled":false,"rental_uris":{"android":"levelo://app?vid=ce9f6e3a-06e5-44fd-9617-505a4dac4449","ios":"levelo://app?vid=ce9f6e3a-06e5-44fd-9617-505a4dac4449"},"vehicle_type_id":"4","last_reported":1722028067,"current_range_meters":3200,"station_id":"ce4bgi12rcd13ifvqb70","pricing_plan_id":"cebpf4jnsgd1na2vs0mg"},{"bike_id":"ea289ae1-e4e8-405a-9961-10cf7e2e675b","system_id":"levelo_inurba_marseille","lat":43.293009,"lon":5.374584,"is_reserved":false,"is_disabled":false,"rental_uris":{"android":"levelo://app?vid=ea289ae1-e4e8-405a-9961-10cf7e2e675b","ios":"levelo://app?vid=ea289ae1-e4e8-405a-9961-10cf7e2e675b"},"vehicle_type_id":"4","last_reported":1722028067,"current_range_meters":8800,"station_id":"ce4bgi12rcd13ifvqb70","pricing_plan_id":"cebpf4jnsgd1na2vs0mg"},{"bike_id":"b6e68d37-5ac3-49dc-8b52-444e0f816e6d","system_id":"levelo_inurba_marseille","lat":43.297163,"lon":5.365866,"is_reserved":false,"is_disabled":false,"rental_uris":{"android":"levelo://app?vid=b6e68d37-5ac3-49dc-8b52-444e0f816e6d","ios":"levelo://app?vid=b6e68d37-5ac3-49dc-8b52-444e0f816e6d"},"vehicle_type_id":"4","last_reported":1722028067,"current_range_meters":31200,"station_id":"ce4bgn12rcd13ifvqbt0","pricing_plan_id":"cebpf4jnsgd1na2vs0mg"},{"bike_id":"c7432ee4-44ce-4043-b0f2-755db33fe3ec","system_id":"levelo_inurba_marseille","lat":43.32656,"lon":5.38864,"is_reserved":false,"is_disabled":false,"rental_uris":{"android":"levelo://app?vid=c7432ee4-44ce-4043-b0f2-755db33fe3ec","ios":"levelo://app?vid=c7432ee4-44ce-4043-b0f2-755db33fe3ec"},"vehicle_type_id":"4","last_reported":1722028067,"current_range_meters":9200,"station_id":"","pricing_plan_id":"cebpf4jnsgd1na2vs0mg"},{"bike_id":"78e9875b-584f-478b-8f5b-5fc0efd99673","system_id":"levelo_inurba_marseille","lat":43.30085,"lon":5.390856,"is_reserved":false,"is_disabled":false,"rental_uris":{"android":"levelo://app?vid=78e9875b-584f-478b-8f5b-5fc0efd99673","ios":"levelo://app?vid=78e9875b-584f-478b-8f5b-5fc0efd99673"},"vehicle_type_id":"4","last_reported":1722028067,"current_range_meters":27200,"station_id":"ce4bh192rcd13ifvqdb0","pricing_plan_id":"cebpf4jnsgd1na2vs0mg"},{"bike_id":"5180fdfb-0b01-4fea-8780-9af5360c3f82","system_id":"levelo_inurba_marseille","lat":43.30085,"lon":5.390856,"is_reserved":false,"is_disabled":false,"rental_uris":{"android":"levelo://app?vid=5180fdfb-0b01-4fea-8780-9af5360c3f82","ios":"levelo://app?vid=5180fdfb-0b01-4fea-8780-9af5360c3f82"},"vehicle_type_id":"4","last_reported":1722028067,"current_range_meters":11200,"station_id":"ce4bh192rcd13ifvqdb0","pricing_plan_id":"cebpf4jnsgd1na2vs0mg"},{"bike_id":"3481329b-c08f-498d-803d-9e902272e52e","system_id":"levelo_inurba_marseille","lat":43.30085,"lon":5.390856,"is_reserved":false,"is_disabled":false,"rental_uris":{"android":"levelo://app?vid=3481329b-c08f-498d-803d-9e902272e52e","ios":"levelo://app?vid=3481329b-c08f-498d-803d-9e902272e52e"},"vehicle_type_id":"4","last_reported":1722028067,"current_range_meters":17200,"station_id":"ce4bh192rcd13ifvqdb0","pricing_plan_id":"cebpf4jnsgd1na2vs0mg"},{"bike_id":"dc4d471a-62bb-49b5-a452-71c7ede2076e","system_id":"levelo_inurba_marseille","lat":43.30088,"lon":5.39078,"is_reserved":false,"is_disabled":false,"rental_uris":{"android":"levelo://app?vid=dc4d471a-62bb-49b5-a452-71c7ede2076e","ios":"levelo://app?vid=dc4d471a-62bb-49b5-a452-71c7ede2076e"},"vehicle_type_id":"4","last_reported":1722028067,"current_range_meters":16800,"station_id":"ce4bh192rcd13ifvqdb0","pricing_plan_id":"cebpf4jnsgd1na2vs0mg"},{"bike_id":"e3d266ba-2744-405d-9f2f-b991b0addde0","system_id":"levelo_inurba_marseille","lat":43.30092,"lon":5.390887,"is_reserved":false,"is_disabled":false,"rental_uris":{"android":"levelo://app?vid=e3d266ba-2744-405d-9f2f-b991b0addde0","ios":"levelo://app?vid=e3d266ba-2744-405d-9f2f-b991b0addde0"},"vehicle_type_id":"4","last_reported":1722028067,"current_range_meters":16800,"station_id":"ce4bh192rcd13ifvqdb0","pricing_plan_id":"cebpf4jnsgd1na2vs0mg"},{"bike_id":"754852a5-29cb-4a03-a6ec-0a613c966318","system_id":"levelo_inurba_marseille","lat":43.300871,"lon":5.390859,"is_reserved":false,"is_disabled":false,"rental_uris":{"android":"levelo://app?vid=754852a5-29cb-4a03-a6ec-0a613c966318","ios":"levelo://app?vid=754852a5-29cb-4a03-a6ec-0a613c966318"},"vehicle_type_id":"4","last_reported":1722028067,"current_range_meters":0,"station_id":"ce4bh192rcd13ifvqdb0","pricing_plan_id":"cebpf4jnsgd1na2vs0mg"},{"bike_id":"e22e075a-cb04-4842-a58b-36e7623054e4","system_id":"levelo_inurba_marseille","lat":43.29175,"lon":5.3715,"is_reserved":false,"is_disabled":false,"rental_uris":{"android":"levelo://app?vid=e22e075a-cb04-4842-a58b-36e7623054e4","ios":"levelo://app?vid=e22e075a-cb04-4842-a58b-36e7623054e4"},"vehicle_type_id":"4","last_reported":1722028067,"current_range_meters":19600,"station_id":"ce4bha92rcd13ifvqeh0","pricing_plan_id":"cebpf4jnsgd1na2vs0mg"},{"bike_id":"d3456546-206e-40be-8dc4-da2d00df3f95","system_id":"levelo_inurba_marseille","lat":43.298764,"lon":5.388973,"is_reserved":false,"is_disabled":false,"rental_uris":{"android":"levelo://app?vid=d3456546-206e-40be-8dc4-da2d00df3f95","ios":"levelo://app?vid=d3456546-206e-40be-8dc4-da2d00df3f95"},"vehicle_type_id":"4","last_reported":1722028067,"current_range_meters":3600,"station_id":"ce4bh392rcd13ifvqdl0","pricing_plan_id":"cebpf4jnsgd1na2vs0mg"},{"bike_id":"d5f04152-5c86-44aa-85a6-685b8a1fea32","system_id":"levelo_inurba_marseille","lat":43.293009,"lon":5.374584,"is_reserved":false,"is_disabled":false,"rental_uris":{"android":"levelo://app?vid=d5f04152-5c86-44aa-85a6-685b8a1fea32","ios":"levelo://app?vid=d5f04152-5c86-44aa-85a6-685b8a1fea32"},"vehicle_type_id":"4","last_reported":1722028067,"current_range_meters":31200,"station_id":"ce4bgi12rcd13ifvqb70","pricing_plan_id":"cebpf4jnsgd1na2vs0mg"},{"bike_id":"efed29a7-51ff-4660-9d85-f7493bb2db8b","system_id":"levelo_inurba_marseille","lat":43.29169,"lon":5.37163,"is_reserved":false,"is_disabled":false,"rental_uris":{"android":"levelo://app?vid=efed29a7-51ff-4660-9d85-f7493bb2db8b","ios":"levelo://app?vid=efed29a7-51ff-4660-9d85-f7493bb2db8b"},"vehicle_type_id":"4","last_reported":1722028067,"current_range_meters":27200,"station_id":"ce4bha92rcd13ifvqeh0","pricing_plan_id":"cebpf4jnsgd1na2vs0mg"},{"bike_id":"d9d0fd4f-afcf-4c99-808d-d078fed0655a","system_id":"levelo_inurba_marseille","lat":43.298764,"lon":5.388973,"is_reserved":false,"is_disabled":false,"rental_uris":{"android":"levelo://app?vid=d9d0fd4f-afcf-4c99-808d-d078fed0655a","ios":"levelo://app?vid=d9d0fd4f-afcf-4c99-808d-d078fed0655a"},"vehicle_type_id":"4","last_reported":1722028067,"current_range_meters":6400,"station_id":"ce4bh392rcd13ifvqdl0","pricing_plan_id":"cebpf4jnsgd1na2vs0mg"},{"bike_id":"de71b2d4-7d7d-44a3-b0a4-9505345fc8a4","system_id":"levelo_inurba_marseille","lat":43.293009,"lon":5.374584,"is_reserved":false,"is_disabled":false,"rental_uris":{"android":"levelo://app?vid=de71b2d4-7d7d-44a3-b0a4-9505345fc8a4","ios":"levelo://app?vid=de71b2d4-7d7d-44a3-b0a4-9505345fc8a4"},"vehicle_type_id":"4","last_reported":1722028067,"current_range_meters":0,"station_id":"ce4bgi12rcd13ifvqb70","pricing_plan_id":"cebpf4jnsgd1na2vs0mg"},{"bike_id":"26bab9ba-57df-474b-ae31-bb8a1bd4d354","system_id":"levelo_inurba_marseille","lat":43.291675,"lon":5.371583,"is_reserved":false,"is_disabled":false,"rental_uris":{"android":"levelo://app?vid=26bab9ba-57df-474b-ae31-bb8a1bd4d354","ios":"levelo://app?vid=26bab9ba-57df-474b-ae31-bb8a1bd4d354"},"vehicle_type_id":"4","last_reported":1722028067,"current_range_meters":6800,"station_id":"ce4bha92rcd13ifvqeh0","pricing_plan_id":"cebpf4jnsgd1na2vs0mg"},{"bike_id":"3fcea192-14e0-431c-889c-364b791e6a51","system_id":"levelo_inurba_marseille","lat":43.298764,"lon":5.388973,"is_reserved":false,"is_disabled":false,"rental_uris":{"android":"levelo://app?vid=3fcea192-14e0-431c-889c-364b791e6a51","ios":"levelo://app?vid=3fcea192-14e0-431c-889c-364b791e6a51"},"vehicle_type_id":"4","last_reported":1722028067,"current_range_meters":30000,"station_id":"ce4bh392rcd13ifvqdl0","pricing_plan_id":"cebpf4jnsgd1na2vs0mg"},{"bike_id":"dd97147d-c762-4cb9-b9c2-2cb18aaa3c3f","system_id":"levelo_inurba_marseille","lat":43.291671,"lon":5.371575,"is_reserved":false,"is_disabled":false,"rental_uris":{"android":"levelo://app?vid=dd97147d-c762-4cb9-b9c2-2cb18aaa3c3f","ios":"levelo://app?vid=dd97147d-c762-4cb9-b9c2-2cb18aaa3c3f"},"vehicle_type_id":"4","last_reported":1722028067,"current_range_meters":5200,"station_id":"ce4bha92rcd13ifvqeh0","pricing_plan_id":"cebpf4jnsgd1na2vs0mg"},{"bike_id":"9a3ec4dc-51b5-49b0-9497-fe6054203ea2","system_id":"levelo_inurba_marseille","lat":43.292,"lon":5.35806,"is_reserved":false,"is_disabled":false,"rental_uris":{"android":"levelo://app?vid=9a3ec4dc-51b5-49b0-9497-fe6054203ea2","ios":"levelo://app?vid=9a3ec4dc-51b5-49b0-9497-fe6054203ea2"},"vehicle_type_id":"4","last_reported":1722028067,"current_range_meters":0,"station_id":"ce4bhb12rcd13ifvqel0","pricing_plan_id":"cebpf4jnsgd1na2vs0mg"},{"bike_id":"72c70b00-1fb4-4804-af1f-dc680bb5b5fa","system_id":"levelo_inurba_marseille","lat":43.31329,"lon":5.39678,"is_reserved":false,"is_disabled":false,"rental_uris":{"android":"levelo://app?vid=72c70b00-1fb4-4804-af1f-dc680bb5b5fa","ios":"levelo://app?vid=72c70b00-1fb4-4804-af1f-dc680bb5b5fa"},"vehicle_type_id":"4","last_reported":1722028067,"current_range_meters":8400,"station_id":"ce4bgvp2rcd13ifvqcu0","pricing_plan_id":"cebpf4jnsgd1na2vs0mg"},{"bike_id":"501a3ada-4c64-468b-bff0-f9f9d5f7e06f","system_id":"levelo_inurba_marseille","lat":43.29194,"lon":5.35803,"is_reserved":false,"is_disabled":false,"rental_uris":{"android":"levelo://app?vid=501a3ada-4c64-468b-bff0-f9f9d5f7e06f","ios":"levelo://app?vid=501a3ada-4c64-468b-bff0-f9f9d5f7e06f"},"vehicle_type_id":"4","last_reported":1722028067,"current_range_meters":0,"station_id":"ce4bhb12rcd13ifvqel0","pricing_plan_id":"cebpf4jnsgd1na2vs0mg"},{"bike_id":"5abeff50-5d15-4edd-bf90-e161ec3e7ae0","system_id":"levelo_inurba_marseille","lat":43.291923,"lon":5.358072,"is_reserved":false,"is_disabled":false,"rental_uris":{"android":"levelo://app?vid=5abeff50-5d15-4edd-bf90-e161ec3e7ae0","ios":"levelo://app?vid=5abeff50-5d15-4edd-bf90-e161ec3e7ae0"},"vehicle_type_id":"4","last_reported":1722028067,"current_range_meters":0,"station_id":"ce4bhb12rcd13ifvqel0","pricing_plan_id":"cebpf4jnsgd1na2vs0mg"},{"bike_id":"924ef19e-0504-43d0-8ff4-ed727bf14c06","system_id":"levelo_inurba_marseille","lat":43.291994,"lon":5.357886,"is_reserved":false,"is_disabled":false,"rental_uris":{"android":"levelo://app?vid=924ef19e-0504-43d0-8ff4-ed727bf14c06","ios":"levelo://app?vid=924ef19e-0504-43d0-8ff4-ed727bf14c06"},"vehicle_type_id":"4","last_reported":1722028067,"current_range_meters":0,"station_id":"ce4bhb12rcd13ifvqel0","pricing_plan_id":"cebpf4jnsgd1na2vs0mg"},{"bike_id":"6ea3f4e7-2d0b-4657-b6e2-ea2f4c6b4ef2","system_id":"levelo_inurba_marseille","lat":43.3133,"lon":5.39688,"is_reserved":false,"is_disabled":false,"rental_uris":{"android":"levelo://app?vid=6ea3f4e7-2d0b-4657-b6e2-ea2f4c6b4ef2","ios":"levelo://app?vid=6ea3f4e7-2d0b-4657-b6e2-ea2f4c6b4ef2"},"vehicle_type_id":"4","last_reported":1722028067,"current_range_meters":25600,"station_id":"ce4bgvp2rcd13ifvqcu0","pricing_plan_id":"cebpf4jnsgd1na2vs0mg"},{"bike_id":"50d17549-629a-4ea2-827e-7f2abb02a766","system_id":"levelo_inurba_marseille","lat":43.313291,"lon":5.396838,"is_reserved":false,"is_disabled":false,"rental_uris":{"android":"levelo://app?vid=50d17549-629a-4ea2-827e-7f2abb02a766","ios":"levelo://app?vid=50d17549-629a-4ea2-827e-7f2abb02a766"},"vehicle_type_id":"4","last_reported":1722028067,"current_range_meters":18000,"station_id":"ce4bgvp2rcd13ifvqcu0","pricing_plan_id":"cebpf4jnsgd1na2vs0mg"},{"bike_id":"8e99ccd3-b1f9-4310-98be-a811a3bfd5a2","system_id":"levelo_inurba_marseille","lat":43.313291,"lon":5.396838,"is_reserved":false,"is_disabled":false,"rental_uris":{"android":"levelo://app?vid=8e99ccd3-b1f9-4310-98be-a811a3bfd5a2","ios":"levelo://app?vid=8e99ccd3-b1f9-4310-98be-a811a3bfd5a2"},"vehicle_type_id":"4","last_reported":1722028067,"current_range_meters":31200,"station_id":"ce4bgvp2rcd13ifvqcu0","pricing_plan_id":"cebpf4jnsgd1na2vs0mg"},{"bike_id":"2f937932-134c-477c-8f99-bd69cd8b4229","system_id":"levelo_inurba_marseille","lat":43.313291,"lon":5.396838,"is_reserved":false,"is_disabled":false,"rental_uris":{"android":"levelo://app?vid=2f937932-134c-477c-8f99-bd69cd8b4229","ios":"levelo://app?vid=2f937932-134c-477c-8f99-bd69cd8b4229"},"vehicle_type_id":"4","last_reported":1722028067,"current_range_meters":18000,"station_id":"ce4bgvp2rcd13ifvqcu0","pricing_plan_id":"cebpf4jnsgd1na2vs0mg"},{"bike_id":"9bdec9d9-6124-4dcd-a57a-5488345b5f11","system_id":"levelo_inurba_marseille","lat":43.313291,"lon":5.396838,"is_reserved":false,"is_disabled":false,"rental_uris":{"android":"levelo://app?vid=9bdec9d9-6124-4dcd-a57a-5488345b5f11","ios":"levelo://app?vid=9bdec9d9-6124-4dcd-a57a-5488345b5f11"},"vehicle_type_id":"4","last_reported":1722028067,"current_range_meters":6800,"station_id":"ce4bgvp2rcd13ifvqcu0","pricing_plan_id":"cebpf4jnsgd1na2vs0mg"},{"bike_id":"337db1b1-3542-45a0-82d9-035717b92e8e","system_id":"levelo_inurba_marseille","lat":43.31332,"lon":5.39697,"is_reserved":false,"is_disabled":false,"rental_uris":{"android":"levelo://app?vid=337db1b1-3542-45a0-82d9-035717b92e8e","ios":"levelo://app?vid=337db1b1-3542-45a0-82d9-035717b92e8e"},"vehicle_type_id":"4","last_reported":1722028067,"current_range_meters":29600,"station_id":"ce4bgvp2rcd13ifvqcu0","pricing_plan_id":"cebpf4jnsgd1na2vs0mg"},{"bike_id":"c6fcb69a-0315-4b8e-8a24-1d87b127cce0","system_id":"levelo_inurba_marseille","lat":43.309047,"lon":5.396551,"is_reserved":false,"is_disabled":false,"rental_uris":{"android":"levelo://app?vid=c6fcb69a-0315-4b8e-8a24-1d87b127cce0","ios":"levelo://app?vid=c6fcb69a-0315-4b8e-8a24-1d87b127cce0"},"vehicle_type_id":"4","last_reported":1722028067,"current_range_meters":31200,"station_id":"ce4bh012rcd13ifvqcv0","pricing_plan_id":"cebpf4jnsgd1na2vs0mg"},{"bike_id":"b949fb95-feb7-4a55-a4bb-40887b596ff5","system_id":"levelo_inurba_marseille","lat":43.309038,"lon":5.396546,"is_reserved":false,"is_disabled":false,"rental_uris":{"android":"levelo://app?vid=b949fb95-feb7-4a55-a4bb-40887b596ff5","ios":"levelo://app?vid=b949fb95-feb7-4a55-a4bb-40887b596ff5"},"vehicle_type_id":"4","last_reported":1722028067,"current_range_meters":25600,"station_id":"ce4bh012rcd13ifvqcv0","pricing_plan_id":"cebpf4jnsgd1na2vs0mg"},{"bike_id":"6223a64e-db02-46a6-beda-bee206c6a098","system_id":"levelo_inurba_marseille","lat":43.309038,"lon":5.396546,"is_reserved":false,"is_disabled":false,"rental_uris":{"android":"levelo://app?vid=6223a64e-db02-46a6-beda-bee206c6a098","ios":"levelo://app?vid=6223a64e-db02-46a6-beda-bee206c6a098"},"vehicle_type_id":"4","last_reported":1722028067,"current_range_meters":31200,"station_id":"ce4bh012rcd13ifvqcv0","pricing_plan_id":"cebpf4jnsgd1na2vs0mg"},{"bike_id":"d95fd480-4a9d-43d9-b76d-e53593a253e8","system_id":"levelo_inurba_marseille","lat":43.29529,"lon":5.385581,"is_reserved":false,"is_disabled":false,"rental_uris":{"android":"levelo://app?vid=d95fd480-4a9d-43d9-b76d-e53593a253e8","ios":"levelo://app?vid=d95fd480-4a9d-43d9-b76d-e53593a253e8"},"vehicle_type_id":"4","last_reported":1722028067,"current_range_meters":31200,"station_id":"ce4bgih2rcd13ifvqba0","pricing_plan_id":"cebpf4jnsgd1na2vs0mg"},{"bike_id":"dd7e6d51-8741-4ad8-8297-7dae11f347db","system_id":"levelo_inurba_marseille","lat":43.29529,"lon":5.385581,"is_reserved":false,"is_disabled":false,"rental_uris":{"android":"levelo://app?vid=dd7e6d51-8741-4ad8-8297-7dae11f347db","ios":"levelo://app?vid=dd7e6d51-8741-4ad8-8297-7dae11f347db"},"vehicle_type_id":"4","last_reported":1722028067,"current_range_meters":31600,"station_id":"ce4bgih2rcd13ifvqba0","pricing_plan_id":"cebpf4jnsgd1na2vs0mg"},{"bike_id":"51485bc1-9d66-4d51-a92f-f465552cca9c","system_id":"levelo_inurba_marseille","lat":43.29536,"lon":5.38545,"is_reserved":false,"is_disabled":false,"rental_uris":{"android":"levelo://app?vid=51485bc1-9d66-4d51-a92f-f465552cca9c","ios":"levelo://app?vid=51485bc1-9d66-4d51-a92f-f465552cca9c"},"vehicle_type_id":"4","last_reported":1722028067,"current_range_meters":8400,"station_id":"ce4bgih2rcd13ifvqba0","pricing_plan_id":"cebpf4jnsgd1na2vs0mg"},{"bike_id":"ced042ef-0d16-4860-8801-f91b2463086b","system_id":"levelo_inurba_marseille","lat":43.29535,"lon":5.38544,"is_reserved":false,"is_disabled":false,"rental_uris":{"android":"levelo://app?vid=ced042ef-0d16-4860-8801-f91b2463086b","ios":"levelo://app?vid=ced042ef-0d16-4860-8801-f91b2463086b"},"vehicle_type_id":"4","last_reported":1722028067,"current_range_meters":30400,"station_id":"ce4bgih2rcd13ifvqba0","pricing_plan_id":"cebpf4jnsgd1na2vs0mg"},{"bike_id":"596881ef-5671-4836-aa5c-738a4d5beb2b","system_id":"levelo_inurba_marseille","lat":43.29539,"lon":5.38553,"is_reserved":false,"is_disabled":false,"rental_uris":{"android":"levelo://app?vid=596881ef-5671-4836-aa5c-738a4d5beb2b","ios":"levelo://app?vid=596881ef-5671-4836-aa5c-738a4d5beb2b"},"vehicle_type_id":"4","last_reported":1722028067,"current_range_meters":21600,"station_id":"ce4bgih2rcd13ifvqba0","pricing_plan_id":"cebpf4jnsgd1na2vs0mg"},{"bike_id":"8eedc535-5346-4cae-9e81-d85003589264","system_id":"levelo_inurba_marseille","lat":43.29538,"lon":5.38552,"is_reserved":false,"is_disabled":false,"rental_uris":{"android":"levelo://app?vid=8eedc535-5346-4cae-9e81-d85003589264","ios":"levelo://app?vid=8eedc535-5346-4cae-9e81-d85003589264"},"vehicle_type_id":"4","last_reported":1722028067,"current_range_meters":30000,"station_id":"ce4bgih2rcd13ifvqba0","pricing_plan_id":"cebpf4jnsgd1na2vs0mg"},{"bike_id":"66a8bf4c-cae8-4ad3-b820-a75896e8a5d1","system_id":"levelo_inurba_marseille","lat":43.29529,"lon":5.385581,"is_reserved":false,"is_disabled":false,"rental_uris":{"android":"levelo://app?vid=66a8bf4c-cae8-4ad3-b820-a75896e8a5d1","ios":"levelo://app?vid=66a8bf4c-cae8-4ad3-b820-a75896e8a5d1"},"vehicle_type_id":"4","last_reported":1722028067,"current_range_meters":24400,"station_id":"ce4bgih2rcd13ifvqba0","pricing_plan_id":"cebpf4jnsgd1na2vs0mg"},{"bike_id":"df2991e1-1aad-4135-8767-afc0131a107f","system_id":"levelo_inurba_marseille","lat":43.309038,"lon":5.396546,"is_reserved":false,"is_disabled":false,"rental_uris":{"android":"levelo://app?vid=df2991e1-1aad-4135-8767-afc0131a107f","ios":"levelo://app?vid=df2991e1-1aad-4135-8767-afc0131a107f"},"vehicle_type_id":"4","last_reported":1722028067,"current_range_meters":26000,"station_id":"ce4bh012rcd13ifvqcv0","pricing_plan_id":"cebpf4jnsgd1na2vs0mg"},{"bike_id":"a4662ad1-3f7d-432a-8413-7a72869c8e7e","system_id":"levelo_inurba_marseille","lat":43.29529,"lon":5.385581,"is_reserved":false,"is_disabled":false,"rental_uris":{"android":"levelo://app?vid=a4662ad1-3f7d-432a-8413-7a72869c8e7e","ios":"levelo://app?vid=a4662ad1-3f7d-432a-8413-7a72869c8e7e"},"vehicle_type_id":"4","last_reported":1722028067,"current_range_meters":28800,"station_id":"ce4bgih2rcd13ifvqba0","pricing_plan_id":"cebpf4jnsgd1na2vs0mg"},{"bike_id":"031f9fce-4afa-451e-ad98-a5bf47dabd23","system_id":"levelo_inurba_marseille","lat":43.29534,"lon":5.38548,"is_reserved":false,"is_disabled":false,"rental_uris":{"android":"levelo://app?vid=031f9fce-4afa-451e-ad98-a5bf47dabd23","ios":"levelo://app?vid=031f9fce-4afa-451e-ad98-a5bf47dabd23"},"vehicle_type_id":"4","last_reported":1722028067,"current_range_meters":31200,"station_id":"ce4bgih2rcd13ifvqba0","pricing_plan_id":"cebpf4jnsgd1na2vs0mg"},{"bike_id":"560382d1-ff8f-46e3-b066-2ab16d2108d7","system_id":"levelo_inurba_marseille","lat":43.29529,"lon":5.385581,"is_reserved":false,"is_disabled":false,"rental_uris":{"android":"levelo://app?vid=560382d1-ff8f-46e3-b066-2ab16d2108d7","ios":"levelo://app?vid=560382d1-ff8f-46e3-b066-2ab16d2108d7"},"vehicle_type_id":"4","last_reported":1722028067,"current_range_meters":22800,"station_id":"ce4bgih2rcd13ifvqba0","pricing_plan_id":"cebpf4jnsgd1na2vs0mg"},{"bike_id":"14d3342e-92b7-4abb-ae3e-227a8f8c62b9","system_id":"levelo_inurba_marseille","lat":43.29529,"lon":5.385581,"is_reserved":false,"is_disabled":false,"rental_uris":{"android":"levelo://app?vid=14d3342e-92b7-4abb-ae3e-227a8f8c62b9","ios":"levelo://app?vid=14d3342e-92b7-4abb-ae3e-227a8f8c62b9"},"vehicle_type_id":"4","last_reported":1722028067,"current_range_meters":10400,"station_id":"ce4bgih2rcd13ifvqba0","pricing_plan_id":"cebpf4jnsgd1na2vs0mg"},{"bike_id":"c4040012-e1a7-4ef9-a560-b03f244abef1","system_id":"levelo_inurba_marseille","lat":43.29532,"lon":5.3855,"is_reserved":false,"is_disabled":false,"rental_uris":{"android":"levelo://app?vid=c4040012-e1a7-4ef9-a560-b03f244abef1","ios":"levelo://app?vid=c4040012-e1a7-4ef9-a560-b03f244abef1"},"vehicle_type_id":"4","last_reported":1722028067,"current_range_meters":22000,"station_id":"ce4bgih2rcd13ifvqba0","pricing_plan_id":"cebpf4jnsgd1na2vs0mg"},{"bike_id":"d4d9385e-a686-4700-9854-c499901180c9","system_id":"levelo_inurba_marseille","lat":43.29529,"lon":5.385581,"is_reserved":false,"is_disabled":false,"rental_uris":{"android":"levelo://app?vid=d4d9385e-a686-4700-9854-c499901180c9","ios":"levelo://app?vid=d4d9385e-a686-4700-9854-c499901180c9"},"vehicle_type_id":"4","last_reported":1722028067,"current_range_meters":19200,"station_id":"ce4bgih2rcd13ifvqba0","pricing_plan_id":"cebpf4jnsgd1na2vs0mg"},{"bike_id":"0c99d31e-e940-4b60-a9c2-f7484968ec9a","system_id":"levelo_inurba_marseille","lat":43.29529,"lon":5.385581,"is_reserved":false,"is_disabled":false,"rental_uris":{"android":"levelo://app?vid=0c99d31e-e940-4b60-a9c2-f7484968ec9a","ios":"levelo://app?vid=0c99d31e-e940-4b60-a9c2-f7484968ec9a"},"vehicle_type_id":"4","last_reported":1722028067,"current_range_meters":14800,"station_id":"ce4bgih2rcd13ifvqba0","pricing_plan_id":"cebpf4jnsgd1na2vs0mg"},{"bike_id":"1a140540-9538-47e3-801b-a589cc0cd398","system_id":"levelo_inurba_marseille","lat":43.29528,"lon":5.38548,"is_reserved":false,"is_disabled":false,"rental_uris":{"android":"levelo://app?vid=1a140540-9538-47e3-801b-a589cc0cd398","ios":"levelo://app?vid=1a140540-9538-47e3-801b-a589cc0cd398"},"vehicle_type_id":"4","last_reported":1722028067,"current_range_meters":31200,"station_id":"","pricing_plan_id":"cebpf4jnsgd1na2vs0mg"},{"bike_id":"d0924647-e115-4283-a6ac-759e5ddcf261","system_id":"levelo_inurba_marseille","lat":43.29529,"lon":5.385581,"is_reserved":false,"is_disabled":false,"rental_uris":{"android":"levelo://app?vid=d0924647-e115-4283-a6ac-759e5ddcf261","ios":"levelo://app?vid=d0924647-e115-4283-a6ac-759e5ddcf261"},"vehicle_type_id":"4","last_reported":1722028067,"current_range_meters":15600,"station_id":"ce4bgih2rcd13ifvqba0","pricing_plan_id":"cebpf4jnsgd1na2vs0mg"},{"bike_id":"cce7c51c-427d-4df2-9f76-c64f74f97360","system_id":"levelo_inurba_marseille","lat":43.295282,"lon":5.385497,"is_reserved":false,"is_disabled":false,"rental_uris":{"android":"levelo://app?vid=cce7c51c-427d-4df2-9f76-c64f74f97360","ios":"levelo://app?vid=cce7c51c-427d-4df2-9f76-c64f74f97360"},"vehicle_type_id":"4","last_reported":1722028067,"current_range_meters":22000,"station_id":"ce4bgih2rcd13ifvqba0","pricing_plan_id":"cebpf4jnsgd1na2vs0mg"},{"bike_id":"db9f4831-f0d4-4ec6-8d9f-b2c159d562f6","system_id":"levelo_inurba_marseille","lat":43.29529,"lon":5.385581,"is_reserved":false,"is_disabled":false,"rental_uris":{"android":"levelo://app?vid=db9f4831-f0d4-4ec6-8d9f-b2c159d562f6","ios":"levelo://app?vid=db9f4831-f0d4-4ec6-8d9f-b2c159d562f6"},"vehicle_type_id":"4","last_reported":1722028067,"current_range_meters":20400,"station_id":"ce4bgih2rcd13ifvqba0","pricing_plan_id":"cebpf4jnsgd1na2vs0mg"},{"bike_id":"5aa9dc3c-03f9-4d0c-9ef9-d5ed8a3c5a37","system_id":"levelo_inurba_marseille","lat":43.29527,"lon":5.38548,"is_reserved":false,"is_disabled":false,"rental_uris":{"android":"levelo://app?vid=5aa9dc3c-03f9-4d0c-9ef9-d5ed8a3c5a37","ios":"levelo://app?vid=5aa9dc3c-03f9-4d0c-9ef9-d5ed8a3c5a37"},"vehicle_type_id":"4","last_reported":1722028067,"current_range_meters":10400,"station_id":"ce4bgih2rcd13ifvqba0","pricing_plan_id":"cebpf4jnsgd1na2vs0mg"},{"bike_id":"899f8ef3-68f6-4c5b-abb6-18d524807fd8","system_id":"levelo_inurba_marseille","lat":43.29529,"lon":5.385581,"is_reserved":false,"is_disabled":false,"rental_uris":{"android":"levelo://app?vid=899f8ef3-68f6-4c5b-abb6-18d524807fd8","ios":"levelo://app?vid=899f8ef3-68f6-4c5b-abb6-18d524807fd8"},"vehicle_type_id":"4","last_reported":1722028067,"current_range_meters":10400,"station_id":"ce4bgih2rcd13ifvqba0","pricing_plan_id":"cebpf4jnsgd1na2vs0mg"},{"bike_id":"af4d67aa-869e-406e-80be-4566050cbfd8","system_id":"levelo_inurba_marseille","lat":43.29529,"lon":5.385581,"is_reserved":false,"is_disabled":false,"rental_uris":{"android":"levelo://app?vid=af4d67aa-869e-406e-80be-4566050cbfd8","ios":"levelo://app?vid=af4d67aa-869e-406e-80be-4566050cbfd8"},"vehicle_type_id":"4","last_reported":1722028067,"current_range_meters":8800,"station_id":"ce4bgih2rcd13ifvqba0","pricing_plan_id":"cebpf4jnsgd1na2vs0mg"},{"bike_id":"29bf3331-13db-42de-ad27-d72d089a305b","system_id":"levelo_inurba_marseille","lat":43.334383,"lon":5.359285,"is_reserved":false,"is_disabled":false,"rental_uris":{"android":"levelo://app?vid=29bf3331-13db-42de-ad27-d72d089a305b","ios":"levelo://app?vid=29bf3331-13db-42de-ad27-d72d089a305b"},"vehicle_type_id":"4","last_reported":1722028067,"current_range_meters":0,"station_id":"","pricing_plan_id":"cebpf4jnsgd1na2vs0mg"},{"bike_id":"ec3adee8-fc27-432d-9e84-4b942696ef41","system_id":"levelo_inurba_marseille","lat":43.302008,"lon":5.394694,"is_reserved":false,"is_disabled":false,"rental_uris":{"android":"levelo://app?vid=ec3adee8-fc27-432d-9e84-4b942696ef41","ios":"levelo://app?vid=ec3adee8-fc27-432d-9e84-4b942696ef41"},"vehicle_type_id":"4","last_reported":1722028067,"current_range_meters":0,"station_id":"ce4bh0p2rcd13ifvqd70","pricing_plan_id":"cebpf4jnsgd1na2vs0mg"},{"bike_id":"1a1918ce-e869-41ab-b52c-a70b43040238","system_id":"levelo_inurba_marseille","lat":43.30202,"lon":5.39457,"is_reserved":false,"is_disabled":false,"rental_uris":{"android":"levelo://app?vid=1a1918ce-e869-41ab-b52c-a70b43040238","ios":"levelo://app?vid=1a1918ce-e869-41ab-b52c-a70b43040238"},"vehicle_type_id":"4","last_reported":1722028067,"current_range_meters":0,"station_id":"ce4bh0p2rcd13ifvqd70","pricing_plan_id":"cebpf4jnsgd1na2vs0mg"},{"bike_id":"6d34defb-f121-4870-8ebe-7890e76805bd","system_id":"levelo_inurba_marseille","lat":43.302008,"lon":5.394694,"is_reserved":false,"is_disabled":false,"rental_uris":{"android":"levelo://app?vid=6d34defb-f121-4870-8ebe-7890e76805bd","ios":"levelo://app?vid=6d34defb-f121-4870-8ebe-7890e76805bd"},"vehicle_type_id":"4","last_reported":1722028067,"current_range_meters":24000,"station_id":"ce4bh0p2rcd13ifvqd70","pricing_plan_id":"cebpf4jnsgd1na2vs0mg"},{"bike_id":"e502f73c-4bc7-4b9f-80f7-6f0d928a1c47","system_id":"levelo_inurba_marseille","lat":43.29044,"lon":5.35919,"is_reserved":false,"is_disabled":false,"rental_uris":{"android":"levelo://app?vid=e502f73c-4bc7-4b9f-80f7-6f0d928a1c47","ios":"levelo://app?vid=e502f73c-4bc7-4b9f-80f7-6f0d928a1c47"},"vehicle_type_id":"4","last_reported":1722028067,"current_range_meters":0,"station_id":"ce4bha92rcd13ifvqeg0","pricing_plan_id":"cebpf4jnsgd1na2vs0mg"},{"bike_id":"1b90e81b-5e0a-4cd2-9dcd-c941acdace66","system_id":"levelo_inurba_marseille","lat":43.290407,"lon":5.375724,"is_reserved":false,"is_disabled":false,"rental_uris":{"android":"levelo://app?vid=1b90e81b-5e0a-4cd2-9dcd-c941acdace66","ios":"levelo://app?vid=1b90e81b-5e0a-4cd2-9dcd-c941acdace66"},"vehicle_type_id":"4","last_reported":1722028067,"current_range_meters":0,"station_id":"ce4bh692rcd13ifvqe90","pricing_plan_id":"cebpf4jnsgd1na2vs0mg"},{"bike_id":"547b49d0-0a97-4414-ab04-37ee4ad43015","system_id":"levelo_inurba_marseille","lat":43.294153,"lon":5.386305,"is_reserved":false,"is_disabled":false,"rental_uris":{"android":"levelo://app?vid=547b49d0-0a97-4414-ab04-37ee4ad43015","ios":"levelo://app?vid=547b49d0-0a97-4414-ab04-37ee4ad43015"},"vehicle_type_id":"4","last_reported":1722028067,"current_range_meters":800,"station_id":"ce4bh2h2rcd13ifvqdh0","pricing_plan_id":"cebpf4jnsgd1na2vs0mg"},{"bike_id":"cd6a1c70-fecd-4865-a1f7-8dfbbcaae4e5","system_id":"levelo_inurba_marseille","lat":43.290379,"lon":5.375703,"is_reserved":false,"is_disabled":false,"rental_uris":{"android":"levelo://app?vid=cd6a1c70-fecd-4865-a1f7-8dfbbcaae4e5","ios":"levelo://app?vid=cd6a1c70-fecd-4865-a1f7-8dfbbcaae4e5"},"vehicle_type_id":"4","last_reported":1722028067,"current_range_meters":0,"station_id":"ce4bh692rcd13ifvqe90","pricing_plan_id":"cebpf4jnsgd1na2vs0mg"},{"bike_id":"b680e99c-95e9-4bc8-8353-44384d0e2f0d","system_id":"levelo_inurba_marseille","lat":43.29418,"lon":5.3862,"is_reserved":false,"is_disabled":false,"rental_uris":{"android":"levelo://app?vid=b680e99c-95e9-4bc8-8353-44384d0e2f0d","ios":"levelo://app?vid=b680e99c-95e9-4bc8-8353-44384d0e2f0d"},"vehicle_type_id":"4","last_reported":1722028067,"current_range_meters":0,"station_id":"ce4bh2h2rcd13ifvqdh0","pricing_plan_id":"cebpf4jnsgd1na2vs0mg"},{"bike_id":"ebb2006b-3ca0-45c5-ae48-6c0137d0d0cf","system_id":"levelo_inurba_marseille","lat":43.294153,"lon":5.386305,"is_reserved":false,"is_disabled":false,"rental_uris":{"android":"levelo://app?vid=ebb2006b-3ca0-45c5-ae48-6c0137d0d0cf","ios":"levelo://app?vid=ebb2006b-3ca0-45c5-ae48-6c0137d0d0cf"},"vehicle_type_id":"4","last_reported":1722028067,"current_range_meters":11600,"station_id":"ce4bh2h2rcd13ifvqdh0","pricing_plan_id":"cebpf4jnsgd1na2vs0mg"},{"bike_id":"ed9a5687-0552-430e-863e-41763371a0c5","system_id":"levelo_inurba_marseille","lat":43.29421,"lon":5.38627,"is_reserved":false,"is_disabled":false,"rental_uris":{"android":"levelo://app?vid=ed9a5687-0552-430e-863e-41763371a0c5","ios":"levelo://app?vid=ed9a5687-0552-430e-863e-41763371a0c5"},"vehicle_type_id":"4","last_reported":1722028067,"current_range_meters":8800,"station_id":"ce4bh2h2rcd13ifvqdh0","pricing_plan_id":"cebpf4jnsgd1na2vs0mg"},{"bike_id":"76833e6c-8393-4c18-a965-a15820a7abcd","system_id":"levelo_inurba_marseille","lat":43.294153,"lon":5.386305,"is_reserved":false,"is_disabled":false,"rental_uris":{"android":"levelo://app?vid=76833e6c-8393-4c18-a965-a15820a7abcd","ios":"levelo://app?vid=76833e6c-8393-4c18-a965-a15820a7abcd"},"vehicle_type_id":"4","last_reported":1722028067,"current_range_meters":28400,"station_id":"ce4bh2h2rcd13ifvqdh0","pricing_plan_id":"cebpf4jnsgd1na2vs0mg"},{"bike_id":"78485e45-9309-4c56-a2df-63793cb5d645","system_id":"levelo_inurba_marseille","lat":43.2942,"lon":5.38627,"is_reserved":false,"is_disabled":false,"rental_uris":{"android":"levelo://app?vid=78485e45-9309-4c56-a2df-63793cb5d645","ios":"levelo://app?vid=78485e45-9309-4c56-a2df-63793cb5d645"},"vehicle_type_id":"4","last_reported":1722028067,"current_range_meters":0,"station_id":"ce4bh2h2rcd13ifvqdh0","pricing_plan_id":"cebpf4jnsgd1na2vs0mg"},{"bike_id":"3d32d5d4-9715-46c1-8c36-ab87ca5a88e6","system_id":"levelo_inurba_marseille","lat":43.290327,"lon":5.375711,"is_reserved":false,"is_disabled":false,"rental_uris":{"android":"levelo://app?vid=3d32d5d4-9715-46c1-8c36-ab87ca5a88e6","ios":"levelo://app?vid=3d32d5d4-9715-46c1-8c36-ab87ca5a88e6"},"vehicle_type_id":"4","last_reported":1722028067,"current_range_meters":10000,"station_id":"ce4bh692rcd13ifvqe90","pricing_plan_id":"cebpf4jnsgd1na2vs0mg"},{"bike_id":"ec7f4533-1820-4a94-8b58-0ea33dfbadc6","system_id":"levelo_inurba_marseille","lat":43.294153,"lon":5.386305,"is_reserved":false,"is_disabled":false,"rental_uris":{"android":"levelo://app?vid=ec7f4533-1820-4a94-8b58-0ea33dfbadc6","ios":"levelo://app?vid=ec7f4533-1820-4a94-8b58-0ea33dfbadc6"},"vehicle_type_id":"4","last_reported":1722028067,"current_range_meters":0,"station_id":"ce4bh2h2rcd13ifvqdh0","pricing_plan_id":"cebpf4jnsgd1na2vs0mg"},{"bike_id":"9c1b10ea-81e6-4566-a928-9388d7492464","system_id":"levelo_inurba_marseille","lat":43.29417,"lon":5.38623,"is_reserved":false,"is_disabled":false,"rental_uris":{"android":"levelo://app?vid=9c1b10ea-81e6-4566-a928-9388d7492464","ios":"levelo://app?vid=9c1b10ea-81e6-4566-a928-9388d7492464"},"vehicle_type_id":"4","last_reported":1722028067,"current_range_meters":6800,"station_id":"ce4bh2h2rcd13ifvqdh0","pricing_plan_id":"cebpf4jnsgd1na2vs0mg"},{"bike_id":"c929eb7d-75cf-42c2-a5eb-53aea165ed8f","system_id":"levelo_inurba_marseille","lat":43.294153,"lon":5.386305,"is_reserved":false,"is_disabled":false,"rental_uris":{"android":"levelo://app?vid=c929eb7d-75cf-42c2-a5eb-53aea165ed8f","ios":"levelo://app?vid=c929eb7d-75cf-42c2-a5eb-53aea165ed8f"},"vehicle_type_id":"4","last_reported":1722028067,"current_range_meters":18400,"station_id":"ce4bh2h2rcd13ifvqdh0","pricing_plan_id":"cebpf4jnsgd1na2vs0mg"},{"bike_id":"33804857-91c0-4d45-aece-a58cc8b206a3","system_id":"levelo_inurba_marseille","lat":43.29034,"lon":5.37567,"is_reserved":false,"is_disabled":false,"rental_uris":{"android":"levelo://app?vid=33804857-91c0-4d45-aece-a58cc8b206a3","ios":"levelo://app?vid=33804857-91c0-4d45-aece-a58cc8b206a3"},"vehicle_type_id":"4","last_reported":1722028067,"current_range_meters":0,"station_id":"ce4bh692rcd13ifvqe90","pricing_plan_id":"cebpf4jnsgd1na2vs0mg"},{"bike_id":"9413bbb9-faa8-4241-99a7-16cc326bdc1a","system_id":"levelo_inurba_marseille","lat":43.2942,"lon":5.38629,"is_reserved":false,"is_disabled":false,"rental_uris":{"android":"levelo://app?vid=9413bbb9-faa8-4241-99a7-16cc326bdc1a","ios":"levelo://app?vid=9413bbb9-faa8-4241-99a7-16cc326bdc1a"},"vehicle_type_id":"4","last_reported":1722028067,"current_range_meters":28800,"station_id":"ce4bh2h2rcd13ifvqdh0","pricing_plan_id":"cebpf4jnsgd1na2vs0mg"},{"bike_id":"205065bc-b1f1-4a93-bc76-c550049bad9a","system_id":"levelo_inurba_marseille","lat":43.29421,"lon":5.38631,"is_reserved":false,"is_disabled":false,"rental_uris":{"android":"levelo://app?vid=205065bc-b1f1-4a93-bc76-c550049bad9a","ios":"levelo://app?vid=205065bc-b1f1-4a93-bc76-c550049bad9a"},"vehicle_type_id":"4","last_reported":1722028067,"current_range_meters":1600,"station_id":"ce4bh2h2rcd13ifvqdh0","pricing_plan_id":"cebpf4jnsgd1na2vs0mg"},{"bike_id":"3dcf9b2d-2944-4c74-90a6-397c0355ee23","system_id":"levelo_inurba_marseille","lat":43.29418,"lon":5.38626,"is_reserved":false,"is_disabled":false,"rental_uris":{"android":"levelo://app?vid=3dcf9b2d-2944-4c74-90a6-397c0355ee23","ios":"levelo://app?vid=3dcf9b2d-2944-4c74-90a6-397c0355ee23"},"vehicle_type_id":"4","last_reported":1722028067,"current_range_meters":0,"station_id":"ce4bh2h2rcd13ifvqdh0","pricing_plan_id":"cebpf4jnsgd1na2vs0mg"},{"bike_id":"d18dbf3e-758e-44b5-9588-c7e2b43edf3c","system_id":"levelo_inurba_marseille","lat":43.29419,"lon":5.38628,"is_reserved":false,"is_disabled":false,"rental_uris":{"android":"levelo://app?vid=d18dbf3e-758e-44b5-9588-c7e2b43edf3c","ios":"levelo://app?vid=d18dbf3e-758e-44b5-9588-c7e2b43edf3c"},"vehicle_type_id":"4","last_reported":1722028067,"current_range_meters":15200,"station_id":"ce4bh2h2rcd13ifvqdh0","pricing_plan_id":"cebpf4jnsgd1na2vs0mg"},{"bike_id":"55be0092-4c2d-4c97-931d-64ab94533030","system_id":"levelo_inurba_marseille","lat":43.294153,"lon":5.386305,"is_reserved":false,"is_disabled":false,"rental_uris":{"android":"levelo://app?vid=55be0092-4c2d-4c97-931d-64ab94533030","ios":"levelo://app?vid=55be0092-4c2d-4c97-931d-64ab94533030"},"vehicle_type_id":"4","last_reported":1722028067,"current_range_meters":14400,"station_id":"ce4bh2h2rcd13ifvqdh0","pricing_plan_id":"cebpf4jnsgd1na2vs0mg"},{"bike_id":"3fe0ada0-b3be-4719-83ac-79503348a0be","system_id":"levelo_inurba_marseille","lat":43.29418,"lon":5.38627,"is_reserved":false,"is_disabled":false,"rental_uris":{"android":"levelo://app?vid=3fe0ada0-b3be-4719-83ac-79503348a0be","ios":"levelo://app?vid=3fe0ada0-b3be-4719-83ac-79503348a0be"},"vehicle_type_id":"4","last_reported":1722028067,"current_range_meters":0,"station_id":"ce4bh2h2rcd13ifvqdh0","pricing_plan_id":"cebpf4jnsgd1na2vs0mg"},{"bike_id":"149ad317-2977-4c2d-b9af-065d2c29d5b4","system_id":"levelo_inurba_marseille","lat":43.289912,"lon":5.373317,"is_reserved":false,"is_disabled":false,"rental_uris":{"android":"levelo://app?vid=149ad317-2977-4c2d-b9af-065d2c29d5b4","ios":"levelo://app?vid=149ad317-2977-4c2d-b9af-065d2c29d5b4"},"vehicle_type_id":"4","last_reported":1722028067,"current_range_meters":28800,"station_id":"","pricing_plan_id":"cebpf4jnsgd1na2vs0mg"},{"bike_id":"8c181c05-98f0-428e-baf9-2c1aaa1b1c61","system_id":"levelo_inurba_marseille","lat":43.29417,"lon":5.38628,"is_reserved":false,"is_disabled":false,"rental_uris":{"android":"levelo://app?vid=8c181c05-98f0-428e-baf9-2c1aaa1b1c61","ios":"levelo://app?vid=8c181c05-98f0-428e-baf9-2c1aaa1b1c61"},"vehicle_type_id":"4","last_reported":1722028067,"current_range_meters":0,"station_id":"ce4bh2h2rcd13ifvqdh0","pricing_plan_id":"cebpf4jnsgd1na2vs0mg"},{"bike_id":"9708771b-1ff8-44be-9569-2345ff43fb9b","system_id":"levelo_inurba_marseille","lat":43.294153,"lon":5.386305,"is_reserved":false,"is_disabled":false,"rental_uris":{"android":"levelo://app?vid=9708771b-1ff8-44be-9569-2345ff43fb9b","ios":"levelo://app?vid=9708771b-1ff8-44be-9569-2345ff43fb9b"},"vehicle_type_id":"4","last_reported":1722028067,"current_range_meters":800,"station_id":"ce4bh2h2rcd13ifvqdh0","pricing_plan_id":"cebpf4jnsgd1na2vs0mg"},