{"last_updated":1725728865,"ttl":30,"version":"2.2","data":{"bikes":[{"bike_id":"4a1e4cf0-d4f6-412d-bf5f-689c45b52bce","system_id":"levelo_inurba_marseille","lat":43.31231,"lon":5.36881,"is_reserved":false,"is_disabled":false,"rental_uris":{"android":"levelo://app?vid=4a1e4cf0-d4f6-412d-bf5f-689c45b52bce","ios":"levelo://app?vid=4a1e4cf0-d4f6-412d-bf5f-689c45b52bce"},"vehicle_type_id":"4","last_reported":1725728865,"current_range_meters":0,"station_id":"ce4bgl92rcd13ifvqbq0","pricing_plan_id":"cebpf4jnsgd1na2vs0mg"},{"bike_id":"d4a9a7c7-a35d-4fed-96f4-0b40f7d8630f","system_id":"levelo_inurba_marseille","lat":43.30919,"lon":5.36843,"is_reserved":false,"is_disabled":false,"rental_uris":{"android":"levelo://app?vid=d4a9a7c7-a35d-4fed-96f4-0b40f7d8630f","ios":"levelo://app?vid=d4a9a7c7-a35d-4fed-96f4-0b40f7d8630f"},"vehicle_type_id":"4","last_reported":1725728865,"current_range_meters":18800,"station_id":"","pricing_plan_id":"cebpf4jnsgd1na2vs0mg"},{"bike_id":"df9f9eb3-1d6d-4f9c-b097-39d4252f6fc6","system_id":"levelo_inurba_marseille","lat":43.309076,"lon":5.368465,"is_reserved":false,"is_disabled":false,"rental_uris":{"android":"levelo://app?vid=df9f9eb3-1d6d-4f9c-b097-39d4252f6fc6","ios":"levelo://app?vid=df9f9eb3-1d6d-4f9c-b097-39d4252f6fc6"},"vehicle_type_id":"4","last_reported":1725728865,"current_range_meters":2400,"station_id":"ce4bgn92rcd13ifvqbvg","pricing_plan_id":"cebpf4jnsgd1na2vs0mg"},{"bike_id":"37690bc8-58e1-4339-8e0b-6ebc6e2efb20","system_id":"levelo_inurba_marseille","lat":43.314811,"lon":5.373103,"is_reserved":false,"is_disabled":false,"rental_uris":{"android":"levelo://app?vid=37690bc8-58e1-4339-8e0b-6ebc6e2efb20","ios":"levelo://app?vid=37690bc8-58e1-4339-8e0b-6ebc6e2efb20"},"vehicle_type_id":"4","last_reported":1725728865,"current_range_meters":0,"station_id":"ce4bgt12rcd13ifvqcd0","pricing_plan_id":"cebpf4jnsgd1na2vs0mg"},{"bike_id":"e43ae69a-fe2d-4514-9627-30710308ddf1","system_id":"levelo_inurba_marseille","lat":43.309039,"lon":5.371797,"is_reserved":false,"is_disabled":false,"rental_uris":{"android":"levelo://app?vid=e43ae69a-fe2d-4514-9627-30710308ddf1","ios":"levelo://app?vid=e43ae69a-fe2d-4514-9627-30710308ddf1"},"vehicle_type_id":"4","last_reported":1725728865,"current_range_meters":3600,"station_id":"ce4bguh2rcd13ifvqckg","pricing_plan_id":"cebpf4jnsgd1na2vs0mg"},{"bike_id":"9027e401-f306-4de0-a89d-62061b68a9c1","system_id":"levelo_inurba_marseille","lat":43.309034,"lon":5.371783,"is_reserved":false,"is_disabled":false,"rental_uris":{"android":"levelo://app?vid=9027e401-f306-4de0-a89d-62061b68a9c1","ios":"levelo://app?vid=9027e401-f306-4de0-a89d-62061b68a9c1"},"vehicle_type_id":"4","last_reported":1725728865,"current_range_meters":26800,"station_id":"ce4bguh2rcd13ifvqckg","pricing_plan_id":"cebpf4jnsgd1na2vs0mg"},{"bike_id":"2df0398a-40f9-4791-bae6-86bb7bb893a9","system_id":"levelo_inurba_marseille","lat":43.309039,"lon":5.371797,"is_reserved":false,"is_disabled":false,"rental_uris":{"android":"levelo://app?vid=2df0398a-40f9-4791-bae6-86bb7bb893a9","ios":"levelo://app?vid=2df0398a-40f9-4791-bae6-86bb7bb893a9"},"vehicle_type_id":"4","last_reported":1725728865,"current_range_meters":9600,"station_id":"ce4bguh2rcd13ifvqckg","pricing_plan_id":"cebpf4jnsgd1na2vs0mg"},{"bike_id":"da4160f6-f0cd-4093-93c2-1bc61f606e3c","system_id":"levelo_inurba_marseille","lat":43.306255,"lon":5.36566,"is_reserved":false,"is_disabled":false,"rental_uris":{"android":"levelo://app?vid=da4160f6-f0cd-4093-93c2-1bc61f606e3c","ios":"levelo://app?vid=da4160f6-f0cd-4093-93c2-1bc61f606e3c"},"vehicle_type_id":"4","last_reported":1725728865,"current_range_meters":0,"station_id":"","pricing_plan_id":"cebpf4jnsgd1na2vs0mg"},{"bike_id":"53058908-529e-408e-9249-23d702b14d86","system_id":"levelo_inurba_marseille","lat":43.310027,"lon":5.376393,"is_reserved":false,"is_disabled":false,"rental_uris":{"android":"levelo://app?vid=53058908-529e-408e-9249-23d702b14d86","ios":"levelo://app?vid=53058908-529e-408e-9249-23d702b14d86"},"vehicle_type_id":"4","last_reported":1725728865,"current_range_meters":0,"station_id":"","pricing_plan_id":"cebpf4jnsgd1na2vs0mg"},{"bike_id":"08bdf0f8-6313-43f8-9987-06eee585caeb","system_id":"levelo_inurba_marseille","lat":43.317075,"lon":5.377367,"is_reserved":false,"is_disabled":false,"rental_uris":{"android":"levelo://app?vid=08bdf0f8-6313-43f8-9987-06eee585caeb","ios":"levelo://app?vid=08bdf0f8-6313-43f8-9987-06eee585caeb"},"vehicle_type_id":"4","last_reported":1725728865,"current_range_meters":12800,"station_id":"ce4bgth2rcd13ifvqch0","pricing_plan_id":"cebpf4jnsgd1na2vs0mg"},{"bike_id":"bdd74d65-4af2-45f9-939c-9666f7582e45","system_id":"levelo_inurba_marseille","lat":43.317075,"lon":5.377367,"is_reserved":false,"is_disabled":false,"rental_uris":{"android":"levelo://app?vid=bdd74d65-4af2-45f9-939c-9666f7582e45","ios":"levelo://app?vid=bdd74d65-4af2-45f9-939c-9666f7582e45"},"vehicle_type_id":"4","last_reported":1725728865,"current_range_meters":4800,"station_id":"ce4bgth2rcd13ifvqch0","pricing_plan_id":"cebpf4jnsgd1na2vs0mg"},{"bike_id":"e6240958-5766-4e43-be3c-5414d3e93fa9","system_id":"levelo_inurba_marseille","lat":43.31354,"lon":5.37918,"is_reserved":false,"is_disabled":false,"rental_uris":{"android":"levelo://app?vid=e6240958-5766-4e43-be3c-5414d3e93fa9","ios":"levelo://app?vid=e6240958-5766-4e43-be3c-5414d3e93fa9"},"vehicle_type_id":"4","last_reported":1725728865,"current_range_meters":22400,"station_id":"","pricing_plan_id":"cebpf4jnsgd1na2vs0mg"},{"bike_id":"69c78e42-7244-400a-b149-798e93cec65e","system_id":"levelo_inurba_marseille","lat":43.3113,"lon":5.379907,"is_reserved":false,"is_disabled":false,"rental_uris":{"android":"levelo://app?vid=69c78e42-7244-400a-b149-798e93cec65e","ios":"levelo://app?vid=69c78e42-7244-400a-b149-798e93cec65e"},"vehicle_type_id":"4","last_reported":1725728865,"current_range_meters":400,"station_id":"","pricing_plan_id":"cebpf4jnsgd1na2vs0mg"},{"bike_id":"b66a0f8c-ec8b-4828-bea6-5a0015054508","system_id":"levelo_inurba_marseille","lat":43.30304,"lon":5.368987,"is_reserved":false,"is_disabled":false,"rental_uris":{"android":"levelo://app?vid=b66a0f8c-ec8b-4828-bea6-5a0015054508","ios":"levelo://app?vid=b66a0f8c-ec8b-4828-bea6-5a0015054508"},"vehicle_type_id":"4","last_reported":1725728865,"current_range_meters":0,"station_id":"ce4bgqh2rcd13ifvqc5g","pricing_plan_id":"cebpf4jnsgd1na2vs0mg"},{"bike_id":"03ad2f69-94f8-415d-b3e8-6297bd9824cc","system_id":"levelo_inurba_marseille","lat":43.315289,"lon":5.380349,"is_reserved":false,"is_disabled":false,"rental_uris":{"android":"levelo://app?vid=03ad2f69-94f8-415d-b3e8-6297bd9824cc","ios":"levelo://app?vid=03ad2f69-94f8-415d-b3e8-6297bd9824cc"},"vehicle_type_id":"4","last_reported":1725728865,"current_range_meters":1200,"station_id":"ce4bhsp2rcd13ifvqi50","pricing_plan_id":"cebpf4jnsgd1na2vs0mg"},{"bike_id":"6e0b17d8-165b-4723-acae-793e70517655","system_id":"levelo_inurba_marseille","lat":43.315289,"lon":5.380349,"is_reserved":false,"is_disabled":false,"rental_uris":{"android":"levelo://app?vid=6e0b17d8-165b-4723-acae-793e70517655","ios":"levelo://app?vid=6e0b17d8-165b-4723-acae-793e70517655"},"vehicle_type_id":"4","last_reported":1725728865,"current_range_meters":18000,"station_id":"ce4bhsp2rcd13ifvqi50","pricing_plan_id":"cebpf4jnsgd1na2vs0mg"},{"bike_id":"5c7e602c-f961-461f-96ab-799dea8e8115","system_id":"levelo_inurba_marseille","lat":43.32315,"lon":5.36737,"is_reserved":false,"is_disabled":false,"rental_uris":{"android":"levelo://app?vid=5c7e602c-f961-461f-96ab-799dea8e8115","ios":"levelo://app?vid=5c7e602c-f961-461f-96ab-799dea8e8115"},"vehicle_type_id":"4","last_reported":1725728865,"current_range_meters":14000,"station_id":"","pricing_plan_id":"cebpf4jnsgd1na2vs0mg"},{"bike_id":"25f748ef-8037-4c18-81c1-883867e7242d","system_id":"levelo_inurba_marseille","lat":43.301939,"lon":5.366286,"is_reserved":false,"is_disabled":false,"rental_uris":{"android":"levelo://app?vid=25f748ef-8037-4c18-81c1-883867e7242d","ios":"levelo://app?vid=25f748ef-8037-4c18-81c1-883867e7242d"},"vehicle_type_id":"4","last_reported":1725728865,"current_range_meters":0,"station_id":"ce4bgrh2rcd13ifvqc8g","pricing_plan_id":"cebpf4jnsgd1na2vs0mg"},{"bike_id":"292be192-b731-432a-b83f-bd368d193095","system_id":"levelo_inurba_marseille","lat":43.308067,"lon":5.381397,"is_reserved":false,"is_disabled":false,"rental_uris":{"android":"levelo://app?vid=292be192-b731-432a-b83f-bd368d193095","ios":"levelo://app?vid=292be192-b731-432a-b83f-bd368d193095"},"vehicle_type_id":"4","last_reported":1725728865,"current_range_meters":0,"station_id":"ce4bgt12rcd13ifvqce0","pricing_plan_id":"cebpf4jnsgd1na2vs0mg"},{"bike_id":"e6ec62ca-4095-4678-af4f-913af20cb650","system_id":"levelo_inurba_marseille","lat":43.324771,"lon":5.36557,"is_reserved":false,"is_disabled":false,"rental_uris":{"android":"levelo://app?vid=e6ec62ca-4095-4678-af4f-913af20cb650","ios":"levelo://app?vid=e6ec62ca-4095-4678-af4f-913af20cb650"},"vehicle_type_id":"4","last_reported":1725728865,"current_range_meters":5200,"station_id":"ce4bhs12rcd13ifvqhvg","pricing_plan_id":"cebpf4jnsgd1na2vs0mg"},{"bike_id":"f6c9249c-fb5e-4b61-b2ca-73a6d4e7ba38","system_id":"levelo_inurba_marseille","lat":43.304606,"lon":5.379026,"is_reserved":false,"is_disabled":false,"rental_uris":{"android":"levelo://app?vid=f6c9249c-fb5e-4b61-b2ca-73a6d4e7ba38","ios":"levelo://app?vid=f6c9249c-fb5e-4b61-b2ca-73a6d4e7ba38"},"vehicle_type_id":"4","last_reported":1725728865,"current_range_meters":1600,"station_id":"ce4bgup2rcd13ifvqcn0","pricing_plan_id":"cebpf4jnsgd1na2vs0mg"},{"bike_id":"65c91795-2ec5-482a-afb8-a5b9b4bc73cc","system_id":"levelo_inurba_marseille","lat":43.32471,"lon":5.36556,"is_reserved":false,"is_disabled":false,"rental_uris":{"android":"levelo://app?vid=65c91795-2ec5-482a-afb8-a5b9b4bc73cc","ios":"levelo://app?vid=65c91795-2ec5-482a-afb8-a5b9b4bc73cc"},"vehicle_type_id":"4","last_reported":1725728865,"current_range_meters":0,"station_id":"ce4bhs12rcd13ifvqhvg","pricing_plan_id":"cebpf4jnsgd1na2vs0mg"},{"bike_id":"8e8b7298-bda1-42f1-9283-662fa4189aca","system_id":"levelo_inurba_marseille","lat":43.32482,"lon":5.36572,"is_reserved":false,"is_disabled":false,"rental_uris":{"android":"levelo://app?vid=8e8b7298-bda1-42f1-9283-662fa4189aca","ios":"levelo://app?vid=8e8b7298-bda1-42f1-9283-662fa4189aca"},"vehicle_type_id":"4","last_reported":1725728865,"current_range_meters":30400,"station_id":"ce4bhs12rcd13ifvqhvg","pricing_plan_id":"cebpf4jnsgd1na2vs0mg"},{"bike_id":"33a5524d-9e06-48a0-b030-c181cf3ce0c9","system_id":"levelo_inurba_marseille","lat":43.32482,"lon":5.36568,"is_reserved":false,"is_disabled":false,"rental_uris":{"android":"levelo://app?vid=33a5524d-9e06-48a0-b030-c181cf3ce0c9","ios":"levelo://app?vid=33a5524d-9e06-48a0-b030-c181cf3ce0c9"},"vehicle_type_id":"4","last_reported":1725728865,"current_range_meters":11200,"station_id":"ce4bhs12rcd13ifvqhvg","pricing_plan_id":"cebpf4jnsgd1na2vs0mg"},{"bike_id":"d5959fbd-009b-4440-810f-601f3cb302d3","system_id":"levelo_inurba_marseille","lat":43.32484,"lon":5.36581,"is_reserved":false,"is_disabled":false,"rental_uris":{"android":"levelo://app?vid=d5959fbd-009b-4440-810f-601f3cb302d3","ios":"levelo://app?vid=d5959fbd-009b-4440-810f-601f3cb302d3"},"vehicle_type_id":"4","last_reported":1725728865,"current_range_meters":6000,"station_id":"ce4bhs12rcd13ifvqhvg","pricing_plan_id":"cebpf4jnsgd1na2vs0mg"},{"bike_id":"62c5248c-5496-4914-9982-489da97f23ea","system_id":"levelo_inurba_marseille","lat":43.32496,"lon":5.36631,"is_reserved":false,"is_disabled":false,"rental_uris":{"android":"levelo://app?vid=62c5248c-5496-4914-9982-489da97f23ea","ios":"levelo://app?vid=62c5248c-5496-4914-9982-489da97f23ea"},"vehicle_type_id":"4","last_reported":1725728865,"current_range_meters":9600,"station_id":"","pricing_plan_id":"cebpf4jnsgd1na2vs0mg"},{"bike_id":"8174a199-6fbd-4352-a5e9-fb7a5338fa90","system_id":"levelo_inurba_marseille","lat":43.310804,"lon":5.38359,"is_reserved":false,"is_disabled":false,"rental_uris":{"android":"levelo://app?vid=8174a199-6fbd-4352-a5e9-fb7a5338fa90","ios":"levelo://app?vid=8174a199-6fbd-4352-a5e9-fb7a5338fa90"},"vehicle_type_id":"4","last_reported":1725728865,"current_range_meters":11600,"station_id":"ce4bgv92rcd13ifvqcr0","pricing_plan_id":"cebpf4jnsgd1na2vs0mg"},{"bike_id":"7e56b2f0-5b05-467e-b16c-93d9fe6a3d5c","system_id":"levelo_inurba_marseille","lat":43.310804,"lon":5.38359,"is_reserved":false,"is_disabled":false,"rental_uris":{"android":"levelo://app?vid=7e56b2f0-5b05-467e-b16c-93d9fe6a3d5c","ios":"levelo://app?vid=7e56b2f0-5b05-467e-b16c-93d9fe6a3d5c"},"vehicle_type_id":"4","last_reported":1725728865,"current_range_meters":0,"station_id":"ce4bgv92rcd13ifvqcr0","pricing_plan_id":"cebpf4jnsgd1na2vs0mg"},{"bike_id":"989ff571-7e00-4bf0-9765-21aaa68b64a0","system_id":"levelo_inurba_marseille","lat":43.301429,"lon":5.37413,"is_reserved":false,"is_disabled":false,"rental_uris":{"android":"levelo://app?vid=989ff571-7e00-4bf0-9765-21aaa68b64a0","ios":"levelo://app?vid=989ff571-7e00-4bf0-9765-21aaa68b64a0"},"vehicle_type_id":"4","last_reported":1725728865,"current_range_meters":27200,"station_id":"ce4bgs92rcd13ifvqcc0","pricing_plan_id":"cebpf4jnsgd1na2vs0mg"},{"bike_id":"fe7d9997-58f0-4ff0-940e-1609f004c114","system_id":"levelo_inurba_marseille","lat":43.30143,"lon":5.37413,"is_reserved":false,"is_disabled":false,"rental_uris":{"android":"levelo://app?vid=fe7d9997-58f0-4ff0-940e-1609f004c114","ios":"levelo://app?vid=fe7d9997-58f0-4ff0-940e-1609f004c114"},"vehicle_type_id":"4","last_reported":1725728865,"current_range_meters":0,"station_id":"ce4bgs92rcd13ifvqcc0","pricing_plan_id":"cebpf4jnsgd1na2vs0mg"},{"bike_id":"96934dd4-6a6e-4235-bb58-9f80a5ba6c6b","system_id":"levelo_inurba_marseille","lat":43.31995,"lon":5.3815,"is_reserved":false,"is_disabled":false,"rental_uris":{"android":"levelo://app?vid=96934dd4-6a6e-4235-bb58-9f80a5ba6c6b","ios":"levelo://app?vid=96934dd4-6a6e-4235-bb58-9f80a5ba6c6b"},"vehicle_type_id":"4","last_reported":1725728865,"current_range_meters":31200,"station_id":"ce4bhr12rcd13ifvqhpg","pricing_plan_id":"cebpf4jnsgd1na2vs0mg"},{"bike_id":"a695f5b7-8baf-4130-8a46-0e6d56a1aec1","system_id":"levelo_inurba_marseille","lat":43.32004,"lon":5.38144,"is_reserved":false,"is_disabled":false,"rental_uris":{"android":"levelo://app?vid=a695f5b7-8baf-4130-8a46-0e6d56a1aec1","ios":"levelo://app?vid=a695f5b7-8baf-4130-8a46-0e6d56a1aec1"},"vehicle_type_id":"4","last_reported":1725728865,"current_range_meters":31200,"station_id":"ce4bhr12rcd13ifvqhpg","pricing_plan_id":"cebpf4jnsgd1na2vs0mg"},{"bike_id":"363a6257-5df7-44ca-bd8d-203fe7cb1f39","system_id":"levelo_inurba_marseille","lat":43.319935,"lon":5.381699,"is_reserved":false,"is_disabled":false,"rental_uris":{"android":"levelo://app?vid=363a6257-5df7-44ca-bd8d-203fe7cb1f39","ios":"levelo://app?vid=363a6257-5df7-44ca-bd8d-203fe7cb1f39"},"vehicle_type_id":"4","last_reported":1725728865,"current_range_meters":3200,"station_id":"ce4bhr12rcd13ifvqhpg","pricing_plan_id":"cebpf4jnsgd1na2vs0mg"},{"bike_id":"c03645b2-e3eb-4ee9-8cd4-26bd1d560a06","system_id":"levelo_inurba_marseille","lat":43.319935,"lon":5.381699,"is_reserved":false,"is_disabled":false,"rental_uris":{"android":"levelo://app?vid=c03645b2-e3eb-4ee9-8cd4-26bd1d560a06","ios":"levelo://app?vid=c03645b2-e3eb-4ee9-8cd4-26bd1d560a06"},"vehicle_type_id":"4","last_reported":1725728865,"current_range_meters":5200,"station_id":"ce4bhr12rcd13ifvqhpg","pricing_plan_id":"cebpf4jnsgd1na2vs0mg"},{"bike_id":"da46f99f-142b-4d62-819a-b01b486272fd","system_id":"levelo_inurba_marseille","lat":43.319935,"lon":5.381699,"is_reserved":false,"is_disabled":false,"rental_uris":{"android":"levelo://app?vid=da46f99f-142b-4d62-819a-b01b486272fd","ios":"levelo://app?vid=da46f99f-142b-4d62-819a-b01b486272fd"},"vehicle_type_id":"4","last_reported":1725728865,"current_range_meters":1200,"station_id":"ce4bhr12rcd13ifvqhpg","pricing_plan_id":"cebpf4jnsgd1na2vs0mg"},{"bike_id":"3f43ccdf-84f4-478e-8b4e-1ea58648cd63","system_id":"levelo_inurba_marseille","lat":43.3201,"lon":5.38155,"is_reserved":false,"is_disabled":false,"rental_uris":{"android":"levelo://app?vid=3f43ccdf-84f4-478e-8b4e-1ea58648cd63","ios":"levelo://app?vid=3f43ccdf-84f4-478e-8b4e-1ea58648cd63"},"vehicle_type_id":"4","last_reported":1725728865,"current_range_meters":4000,"station_id":"ce4bhr12rcd13ifvqhpg","pricing_plan_id":"cebpf4jnsgd1na2vs0mg"},{"bike_id":"1ad0335c-1981-4f30-9eda-c4fbee47c08a","system_id":"levelo_inurba_marseille","lat":43.319935,"lon":5.381699,"is_reserved":false,"is_disabled":false,"rental_uris":{"android":"levelo://app?vid=1ad0335c-1981-4f30-9eda-c4fbee47c08a","ios":"levelo://app?vid=1ad0335c-1981-4f30-9eda-c4fbee47c08a"},"vehicle_type_id":"4","last_reported":1725728865,"current_range_meters":3200,"station_id":"ce4bhr12rcd13ifvqhpg","pricing_plan_id":"cebpf4jnsgd1na2vs0mg"},{"bike_id":"6cfb7865-42f1-4bbf-8fce-547b12dc8e64","system_id":"levelo_inurba_marseille","lat":43.313571,"lon":5.384829,"is_reserved":false,"is_disabled":false,"rental_uris":{"android":"levelo://app?vid=6cfb7865-42f1-4bbf-8fce-547b12dc8e64","ios":"levelo://app?vid=6cfb7865-42f1-4bbf-8fce-547b12dc8e64"},"vehicle_type_id":"4","last_reported":1725728865,"current_range_meters":18400,"station_id":"ce4bgt92rcd13ifvqcf0","pricing_plan_id":"cebpf4jnsgd1na2vs0mg"},{"bike_id":"98d9feb0-e28f-46f1-b329-8bb9af6d22a9","system_id":"levelo_inurba_marseille","lat":43.299222,"lon":5.365554,"is_reserved":false,"is_disabled":false,"rental_uris":{"android":"levelo://app?vid=98d9feb0-e28f-46f1-b329-8bb9af6d22a9","ios":"levelo://app?vid=98d9feb0-e28f-46f1-b329-8bb9af6d22a9"},"vehicle_type_id":"4","last_reported":1725728865,"current_range_meters":0,"station_id":"ce4bgm92rcd13ifvqbr0","pricing_plan_id":"cebpf4jnsgd1na2vs0mg"},{"bike_id":"15d6206d-c24a-48b8-88f4-cecbbc70b639","system_id":"levelo_inurba_marseille","lat":43.299222,"lon":5.365554,"is_reserved":false,"is_disabled":false,"rental_uris":{"android":"levelo://app?vid=15d6206d-c24a-48b8-88f4-cecbbc70b639","ios":"levelo://app?vid=15d6206d-c24a-48b8-88f4-cecbbc70b639"},"vehicle_type_id":"4","last_reported":1725728865,"current_range_meters":26000,"station_id":"ce4bgm92rcd13ifvqbr0","pricing_plan_id":"cebpf4jnsgd1na2vs0mg"},{"bike_id":"de44db7e-b70c-4a53-b268-74030ded4b3c","system_id":"levelo_inurba_marseille","lat":43.324771,"lon":5.36557,"is_reserved":false,"is_disabled":false,"rental_uris":{"android":"levelo://app?vid=de44db7e-b70c-4a53-b268-74030ded4b3c","ios":"levelo://app?vid=de44db7e-b70c-4a53-b268-74030ded4b3c"},"vehicle_type_id":"4","last_reported":1725728865,"current_range_meters":7600,"station_id":"ce4bhs12rcd13ifvqhvg","pricing_plan_id":"cebpf4jnsgd1na2vs0mg"},{"bike_id":"95bbe9ce-d955-4575-ba01-98fec1df3989","system_id":"levelo_inurba_marseille","lat":43.29852,"lon":5.36286,"is_reserved":false,"is_disabled":false,"rental_uris":{"android":"levelo://app?vid=95bbe9ce-d955-4575-ba01-98fec1df3989","ios":"levelo://app?vid=95bbe9ce-d955-4575-ba01-98fec1df3989"},"vehicle_type_id":"4","last_reported":1725728865,"current_range_meters":0,"station_id":"ce4bgpp2rcd13ifvqc3g","pricing_plan_id":"cebpf4jnsgd1na2vs0mg"},{"bike_id":"bf2391d7-8f69-473c-ac84-7ff77d0adb1e","system_id":"levelo_inurba_marseille","lat":43.299243,"lon":5.374807,"is_reserved":false,"is_disabled":false,"rental_uris":{"android":"levelo://app?vid=bf2391d7-8f69-473c-ac84-7ff77d0adb1e","ios":"levelo://app?vid=bf2391d7-8f69-473c-ac84-7ff77d0adb1e"},"vehicle_type_id":"4","last_reported":1725728865,"current_range_meters":23600,"station_id":"ce4bgjh2rcd13ifvqbg0","pricing_plan_id":"cebpf4jnsgd1na2vs0mg"},{"bike_id":"c12fd17a-9a6e-4ee0-8195-ff592e7dd5b0","system_id":"levelo_inurba_marseille","lat":43.305364,"lon":5.384119,"is_reserved":false,"is_disabled":false,"rental_uris":{"android":"levelo://app?vid=c12fd17a-9a6e-4ee0-8195-ff592e7dd5b0","ios":"levelo://app?vid=c12fd17a-9a6e-4ee0-8195-ff592e7dd5b0"},"vehicle_type_id":"4","last_reported":1725728865,"current_range_meters":2000,"station_id":"ce4bgg92rcd13ifvqb30","pricing_plan_id":"cebpf4jnsgd1na2vs0mg"},{"bike_id":"65910cbd-340d-4c7e-a66e-a47fbb1176a4","system_id":"levelo_inurba_marseille","lat":43.299243,"lon":5.37481,"is_reserved":false,"is_disabled":false,"rental_uris":{"android":"levelo://app?vid=65910cbd-340d-4c7e-a66e-a47fbb1176a4","ios":"levelo://app?vid=65910cbd-340d-4c7e-a66e-a47fbb1176a4"},"vehicle_type_id":"4","last_reported":1725728865,"current_range_meters":6800,"station_id":"ce4bgjh2rcd13ifvqbg0","pricing_plan_id":"cebpf4jnsgd1na2vs0mg"},{"bike_id":"575aab23-1bea-48d7-842a-487e2c471a8d","system_id":"levelo_inurba_marseille","lat":43.311722,"lon":5.387247,"is_reserved":false,"is_disabled":false,"rental_uris":{"android":"levelo://app?vid=575aab23-1bea-48d7-842a-487e2c471a8d","ios":"levelo://app?vid=575aab23-1bea-48d7-842a-487e2c471a8d"},"vehicle_type_id":"4","last_reported":1725728865,"current_range_meters":14000,"station_id":"ce4bgv12rcd13ifvqcp0","pricing_plan_id":"cebpf4jnsgd1na2vs0mg"},{"bike_id":"a184e291-5f6e-42f0-8c46-4de16b207cb2","system_id":"levelo_inurba_marseille","lat":43.299243,"lon":5.37481,"is_reserved":false,"is_disabled":false,"rental_uris":{"android":"levelo://app?vid=a184e291-5f6e-42f0-8c46-4de16b207cb2","ios":"levelo://app?vid=a184e291-5f6e-42f0-8c46-4de16b207cb2"},"vehicle_type_id":"4","last_reported":1725728865,"current_range_meters":17200,"station_id":"ce4bgjh2rcd13ifvqbg0","pricing_plan_id":"cebpf4jnsgd1na2vs0mg"},{"bike_id":"896b7f85-af71-4d58-91bb-628479da7393","system_id":"levelo_inurba_marseille","lat":43.311722,"lon":5.387247,"is_reserved":false,"is_disabled":false,"rental_uris":{"android":"levelo://app?vid=896b7f85-af71-4d58-91bb-628479da7393","ios":"levelo://app?vid=896b7f85-af71-4d58-91bb-628479da7393"},"vehicle_type_id":"4","last_reported":1725728865,"current_range_meters":3200,"station_id":"ce4bgv12rcd13ifvqcp0","pricing_plan_id":"cebpf4jnsgd1na2vs0mg"},{"bike_id":"f66c2bf1-2d56-4c4d-b76a-19a80b63be58","system_id":"levelo_inurba_marseille","lat":43.311722,"lon":5.387247,"is_reserved":false,"is_disabled":false,"rental_uris":{"android":"levelo://app?vid=f66c2bf1-2d56-4c4d-b76a-19a80b63be58","ios":"levelo://app?vid=f66c2bf1-2d56-4c4d-b76a-19a80b63be58"},"vehicle_type_id":"4","last_reported":1725728865,"current_range_meters":14000,"station_id":"ce4bgv12rcd13ifvqcp0","pricing_plan_id":"cebpf4jnsgd1na2vs0mg"},{"bike_id":"bc54d3a9-6cc1-4ec4-a1fb-0cedc7d0ec00","system_id":"levelo_inurba_marseille","lat":43.301417,"lon":5.3809,"is_reserved":false,"is_disabled":false,"rental_uris":{"android":"levelo://app?vid=bc54d3a9-6cc1-4ec4-a1fb-0cedc7d0ec00","ios":"levelo://app?vid=bc54d3a9-6cc1-4ec4-a1fb-0cedc7d0ec00"},"vehicle_type_id":"4","last_reported":1725728865,"current_range_meters":31200,"station_id":"ce4bgjp2rcd13ifvqbh0","pricing_plan_id":"cebpf4jnsgd1na2vs0mg"},{"bike_id":"4ae51d6b-aaaf-442a-873d-f8eca9a3e7b5","system_id":"levelo_inurba_marseille","lat":43.320707,"lon":5.384471,"is_reserved":false,"is_disabled":false,"rental_uris":{"android":"levelo://app?vid=4ae51d6b-aaaf-442a-873d-f8eca9a3e7b5","ios":"levelo://app?vid=4ae51d6b-aaaf-442a-873d-f8eca9a3e7b5"},"vehicle_type_id":"4","last_reported":1725728865,"current_range_meters":6400,"station_id":"","pricing_plan_id":"cebpf4jnsgd1na2vs0mg"},{"bike_id":"9d4d4ad3-9fa4-4394-8995-8a5887e80cc8","system_id":"levelo_inurba_marseille","lat":43.32287,"lon":5.38246,"is_reserved":false,"is_disabled":false,"rental_uris":{"android":"levelo://app?vid=9d4d4ad3-9fa4-4394-8995-8a5887e80cc8","ios":"levelo://app?vid=9d4d4ad3-9fa4-4394-8995-8a5887e80cc8"},"vehicle_type_id":"4","last_reported":1725728865,"current_range_meters":12400,"station_id":"ce4bhr12rcd13ifvqhqg","pricing_plan_id":"cebpf4jnsgd1na2vs0mg"},{"bike_id":"b18ba882-bffc-40df-ae1e-c166c158d030","system_id":"levelo_inurba_marseille","lat":43.29783,"lon":5.37114,"is_reserved":false,"is_disabled":false,"rental_uris":{"android":"levelo://app?vid=b18ba882-bffc-40df-ae1e-c166c158d030","ios":"levelo://app?vid=b18ba882-bffc-40df-ae1e-c166c158d030"},"vehicle_type_id":"4","last_reported":1725728865,"current_range_meters":28000,"station_id":"ce4bgop2rcd13ifvqc1g","pricing_plan_id":"cebpf4jnsgd1na2vs0mg"},{"bike_id":"b379bfb2-ce73-4f09-97ce-1846c3ba9e95","system_id":"levelo_inurba_marseille","lat":43.322872,"lon":5.382756,"is_reserved":false,"is_disabled":false,"rental_uris":{"android":"levelo://app?vid=b379bfb2-ce73-4f09-97ce-1846c3ba9e95","ios":"levelo://app?vid=b379bfb2-ce73-4f09-97ce-1846c3ba9e95"},"vehicle_type_id":"4","last_reported":1725728865,"current_range_meters":400,"station_id":"ce4bhr12rcd13ifvqhqg","pricing_plan_id":"cebpf4jnsgd1na2vs0mg"},{"bike_id":"cfdfd2ab-41ab-46e9-8c72-30e1342d153b","system_id":"levelo_inurba_marseille","lat":43.322872,"lon":5.382756,"is_reserved":false,"is_disabled":false,"rental_uris":{"android":"levelo://app?vid=cfdfd2ab-41ab-46e9-8c72-30e1342d153b","ios":"levelo://app?vid=cfdfd2ab-41ab-46e9-8c72-30e1342d153b"},"vehicle_type_id":"4","last_reported":1725728865,"current_range_meters":28800,"station_id":"ce4bhr12rcd13ifvqhqg","pricing_plan_id":"cebpf4jnsgd1na2vs0mg"},{"bike_id":"9f1af717-3f28-4947-9102-8f958aeed162","system_id":"levelo_inurba_marseille","lat":43.298877,"lon":5.377527,"is_reserved":false,"is_disabled":false,"rental_uris":{"android":"levelo://app?vid=9f1af717-3f28-4947-9102-8f958aeed162","ios":"levelo://app?vid=9f1af717-3f28-4947-9102-8f958aeed162"},"vehicle_type_id":"4","last_reported":1725728865,"current_range_meters":0,"station_id":"","pricing_plan_id":"cebpf4jnsgd1na2vs0mg"},{"bike_id":"18c5addf-dbba-43df-a696-b0cf904e7c96","system_id":"levelo_inurba_marseille","lat":43.29672,"lon":5.36859,"is_reserved":false,"is_disabled":false,"rental_uris":{"android":"levelo://app?vid=18c5addf-dbba-43df-a696-b0cf904e7c96","ios":"levelo://app?vid=18c5addf-dbba-43df-a696-b0cf904e7c96"},"vehicle_type_id":"4","last_reported":1725728865,"current_range_meters":16800,"station_id":"","pricing_plan_id":"cebpf4jnsgd1na2vs0mg"},{"bike_id":"8a8887de-5c7d-4b1c-91b2-78e9c920b48d","system_id":"levelo_inurba_marseille","lat":43.2968,"lon":5.37291,"is_reserved":false,"is_disabled":false,"rental_uris":{"android":"levelo://app?vid=8a8887de-5c7d-4b1c-91b2-78e9c920b48d","ios":"levelo://app?vid=8a8887de-5c7d-4b1c-91b2-78e9c920b48d"},"vehicle_type_id":"4","last_reported":1725728865,"current_range_meters":28800,"station_id":"ce4bgk12rcd13ifvqbj0","pricing_plan_id":"cebpf4jnsgd1na2vs0mg"},{"bike_id":"150a8dd0-ad65-4672-9247-01b906f32950","system_id":"levelo_inurba_marseille","lat":43.2968,"lon":5.37291,"is_reserved":false,"is_disabled":false,"rental_uris":{"android":"levelo://app?vid=150a8dd0-ad65-4672-9247-01b906f32950","ios":"levelo://app?vid=150a8dd0-ad65-4672-9247-01b906f32950"},"vehicle_type_id":"4","last_reported":1725728865,"current_range_meters":8800,"station_id":"ce4bgk12rcd13ifvqbj0","pricing_plan_id":"cebpf4jnsgd1na2vs0mg"},{"bike_id":"784853d2-1abe-4af8-ab31-aba3ade2f195","system_id":"levelo_inurba_marseille","lat":43.296131,"lon":5.370773,"is_reserved":false,"is_disabled":false,"rental_uris":{"android":"levelo://app?vid=784853d2-1abe-4af8-ab31-aba3ade2f195","ios":"levelo://app?vid=784853d2-1abe-4af8-ab31-aba3ade2f195"},"vehicle_type_id":"4","last_reported":1725728865,"current_range_meters":31200,"station_id":"ce4bgnh2rcd13ifvqc0g","pricing_plan_id":"cebpf4jnsgd1na2vs0mg"},{"bike_id":"a4f9e9ea-ca8c-491c-83f9-1f94e43971cb","system_id":"levelo_inurba_marseille","lat":43.296131,"lon":5.370791,"is_reserved":false,"is_disabled":false,"rental_uris":{"android":"levelo://app?vid=a4f9e9ea-ca8c-491c-83f9-1f94e43971cb","ios":"levelo://app?vid=a4f9e9ea-ca8c-491c-83f9-1f94e43971cb"},"vehicle_type_id":"4","last_reported":1725728865,"current_range_meters":8800,"station_id":"ce4bgnh2rcd13ifvqc0g","pricing_plan_id":"cebpf4jnsgd1na2vs0mg"},{"bike_id":"7e2a9981-304b-427f-9c45-fdaba7c305e1","system_id":"levelo_inurba_marseille","lat":43.29565,"lon":5.365177,"is_reserved":false,"is_disabled":false,"rental_uris":{"android":"levelo://app?vid=7e2a9981-304b-427f-9c45-fdaba7c305e1","ios":"levelo://app?vid=7e2a9981-304b-427f-9c45-fdaba7c305e1"},"vehicle_type_id":"4","last_reported":1725728865,"current_range_meters":20000,"station_id":"","pricing_plan_id":"cebpf4jnsgd1na2vs0mg"},{"bike_id":"b20c8d8f-16ee-499b-b83c-e92c8793ab7a","system_id":"levelo_inurba_marseille","lat":43.296921,"lon":5.376579,"is_reserved":false,"is_disabled":false,"rental_uris":{"android":"levelo://app?vid=b20c8d8f-16ee-499b-b83c-e92c8793ab7a","ios":"levelo://app?vid=b20c8d8f-16ee-499b-b83c-e92c8793ab7a"},"vehicle_type_id":"4","last_reported":1725728865,"current_range_meters":28000,"station_id":"ce4bgkh2rcd13ifvqbl0","pricing_plan_id":"cebpf4jnsgd1na2vs0mg"},{"bike_id":"18b442c7-a050-4ac0-80d6-8ba7eac5e946","system_id":"levelo_inurba_marseille","lat":43.299028,"lon":5.381509,"is_reserved":false,"is_disabled":false,"rental_uris":{"android":"levelo://app?vid=18b442c7-a050-4ac0-80d6-8ba7eac5e946","ios":"levelo://app?vid=18b442c7-a050-4ac0-80d6-8ba7eac5e946"},"vehicle_type_id":"4","last_reported":1725728865,"current_range_meters":2400,"station_id":"ce4bgj12rcd13ifvqbc0","pricing_plan_id":"cebpf4jnsgd1na2vs0mg"},{"bike_id":"3dc402de-86ab-41ed-a0c8-35e8f693a7b3","system_id":"levelo_inurba_marseille","lat":43.30954,"lon":5.39027,"is_reserved":false,"is_disabled":false,"rental_uris":{"android":"levelo://app?vid=3dc402de-86ab-41ed-a0c8-35e8f693a7b3","ios":"levelo://app?vid=3dc402de-86ab-41ed-a0c8-35e8f693a7b3"},"vehicle_type_id":"4","last_reported":1725728865,"current_range_meters":0,"station_id":"ce4bgup2rcd13ifvqco0","pricing_plan_id":"cebpf4jnsgd1na2vs0mg"},{"bike_id":"fd433de0-5725-432e-b415-5f53e609d55a","system_id":"levelo_inurba_marseille","lat":43.309589,"lon":5.390258,"is_reserved":false,"is_disabled":false,"rental_uris":{"android":"levelo://app?vid=fd433de0-5725-432e-b415-5f53e609d55a","ios":"levelo://app?vid=fd433de0-5725-432e-b415-5f53e609d55a"},"vehicle_type_id":"4","last_reported":1725728865,"current_range_meters":16400,"station_id":"ce4bgup2rcd13ifvqco0","pricing_plan_id":"cebpf4jnsgd1na2vs0mg"},{"bike_id":"6a13d37a-8fd8-4a7b-aea2-aa1192f27be8","system_id":"levelo_inurba_marseille","lat":43.30951,"lon":5.39043,"is_reserved":false,"is_disabled":false,"rental_uris":{"android":"levelo://app?vid=6a13d37a-8fd8-4a7b-aea2-aa1192f27be8","ios":"levelo://app?vid=6a13d37a-8fd8-4a7b-aea2-aa1192f27be8"},"vehicle_type_id":"4","last_reported":1725728865,"current_range_meters":22800,"station_id":"ce4bgup2rcd13ifvqco0","pricing_plan_id":"cebpf4jnsgd1na2vs0mg"},{"bike_id":"774d2302-2260-4a1f-8990-623e5c7955bc","system_id":"levelo_inurba_marseille","lat":43.317557,"lon":5.390173,"is_reserved":false,"is_disabled":false,"rental_uris":{"android":"levelo://app?vid=774d2302-2260-4a1f-8990-623e5c7955bc","ios":"levelo://app?vid=774d2302-2260-4a1f-8990-623e5c7955bc"},"vehicle_type_id":"4","last_reported":1725728865,"current_range_meters":20400,"station_id":"ce4bhqp2rcd13ifvqhng","pricing_plan_id":"cebpf4jnsgd1na2vs0mg"},{"bike_id":"10f69fe8-7773-460f-8cbc-84d5043d302b","system_id":"levelo_inurba_marseille","lat":43.32253,"lon":5.387034,"is_reserved":false,"is_disabled":false,"rental_uris":{"android":"levelo://app?vid=10f69fe8-7773-460f-8cbc-84d5043d302b","ios":"levelo://app?vid=10f69fe8-7773-460f-8cbc-84d5043d302b"},"vehicle_type_id":"4","last_reported":1725728865,"current_range_meters":22400,"station_id":"","pricing_plan_id":"cebpf4jnsgd1na2vs0mg"},{"bike_id":"f6cb3e0a-f480-4f2c-8d19-7875dd310c74","system_id":"levelo_inurba_marseille","lat":43.317557,"lon":5.390173,"is_reserved":false,"is_disabled":false,"rental_uris":{"android":"levelo://app?vid=f6cb3e0a-f480-4f2c-8d19-7875dd310c74","ios":"levelo://app?vid=f6cb3e0a-f480-4f2c-8d19-7875dd310c74"},"vehicle_type_id":"4","last_reported":1725728865,"current_range_meters":26800,"station_id":"ce4bhqp2rcd13ifvqhng","pricing_plan_id":"cebpf4jnsgd1na2vs0mg"},{"bike_id":"c790f6d5-db50-4549-8f3b-123c2b60cf3f","system_id":"levelo_inurba_marseille","lat":43.298037,"lon":5.381066,"is_reserved":false,"is_disabled":false,"rental_uris":{"android":"levelo://app?vid=c790f6d5-db50-4549-8f3b-123c2b60cf3f","ios":"levelo://app?vid=c790f6d5-db50-4549-8f3b-123c2b60cf3f"},"vehicle_type_id":"4","last_reported":1725728865,"current_range_meters":2400,"station_id":"ce4bgip2rcd13ifvqbb0","pricing_plan_id":"cebpf4jnsgd1na2vs0mg"},{"bike_id":"73771a75-49a9-4312-b00f-487072f5067a","system_id":"levelo_inurba_marseille","lat":43.298037,"lon":5.381066,"is_reserved":false,"is_disabled":false,"rental_uris":{"android":"levelo://app?vid=73771a75-49a9-4312-b00f-487072f5067a","ios":"levelo://app?vid=73771a75-49a9-4312-b00f-487072f5067a"},"vehicle_type_id":"4","last_reported":1725728865,"current_range_meters":6000,"station_id":"ce4bgip2rcd13ifvqbb0","pricing_plan_id":"cebpf4jnsgd1na2vs0mg"},{"bike_id":"e31b43db-dd37-48ae-b38c-fd25be8c05f8","system_id":"levelo_inurba_marseille","lat":43.304274,"lon":5.388873,"is_reserved":false,"is_disabled":false,"rental_uris":{"android":"levelo://app?vid=e31b43db-dd37-48ae-b38c-fd25be8c05f8","ios":"levelo://app?vid=e31b43db-dd37-48ae-b38c-fd25be8c05f8"},"vehicle_type_id":"4","last_reported":1725728865,"current_range_meters":14800,"station_id":"ce4bgk12rcd13ifvqbi0","pricing_plan_id":"cebpf4jnsgd1na2vs0mg"},{"bike_id":"8e9c58f1-5fa4-4be3-9ff8-2a0d01a66168","system_id":"levelo_inurba_marseille","lat":43.304278,"lon":5.388868,"is_reserved":false,"is_disabled":false,"rental_uris":{"android":"levelo://app?vid=8e9c58f1-5fa4-4be3-9ff8-2a0d01a66168","ios":"levelo://app?vid=8e9c58f1-5fa4-4be3-9ff8-2a0d01a66168"},"vehicle_type_id":"4","last_reported":1725728865,"current_range_meters":0,"station_id":"ce4bgk12rcd13ifvqbi0","pricing_plan_id":"cebpf4jnsgd1na2vs0mg"},{"bike_id":"1bef5fa3-8c5f-47b2-b437-481c95bc689d","system_id":"levelo_inurba_marseille","lat":43.32358,"lon":5.38699,"is_reserved":false,"is_disabled":false,"rental_uris":{"android":"levelo://app?vid=1bef5fa3-8c5f-47b2-b437-481c95bc689d","ios":"levelo://app?vid=1bef5fa3-8c5f-47b2-b437-481c95bc689d"},"vehicle_type_id":"4","last_reported":1725728865,"current_range_meters":26000,"station_id":"","pricing_plan_id":"cebpf4jnsgd1na2vs0mg"},{"bike_id":"d9fbae1e-b71b-4fb1-95da-e97e8d7d2821","system_id":"levelo_inurba_marseille","lat":43.301396,"lon":5.387812,"is_reserved":false,"is_disabled":false,"rental_uris":{"android":"levelo://app?vid=d9fbae1e-b71b-4fb1-95da-e97e8d7d2821","ios":"levelo://app?vid=d9fbae1e-b71b-4fb1-95da-e97e8d7d2821"},"vehicle_type_id":"4","last_reported":1725728865,"current_range_meters":0,"station_id":"ce4bghh2rcd13ifvqb60","pricing_plan_id":"cebpf4jnsgd1na2vs0mg"},{"bike_id":"4b9adfb7-587e-4cc4-86a2-096d5e295e99","system_id":"levelo_inurba_marseille","lat":43.30128,"lon":5.38777,"is_reserved":false,"is_disabled":false,"rental_uris":{"android":"levelo://app?vid=4b9adfb7-587e-4cc4-86a2-096d5e295e99","ios":"levelo://app?vid=4b9adfb7-587e-4cc4-86a2-096d5e295e99"},"vehicle_type_id":"4","last_reported":1725728865,"current_range_meters":8000,"station_id":"ce4bghh2rcd13ifvqb60","pricing_plan_id":"cebpf4jnsgd1na2vs0mg"},{"bike_id":"7dfad6ee-3a0a-4e82-bc25-e7f709db6a07","system_id":"levelo_inurba_marseille","lat":43.293812,"lon":5.36258,"is_reserved":false,"is_disabled":false,"rental_uris":{"android":"levelo://app?vid=7dfad6ee-3a0a-4e82-bc25-e7f709db6a07","ios":"levelo://app?vid=7dfad6ee-3a0a-4e82-bc25-e7f709db6a07"},"vehicle_type_id":"4","last_reported":1725728865,"current_range_meters":13200,"station_id":"","pricing_plan_id":"cebpf4jnsgd1na2vs0mg"},{"bike_id":"028b5aa3-d9e2-49d3-b742-d2a84b64a134","system_id":"levelo_inurba_marseille","lat":43.29626,"lon":5.38086,"is_reserved":false,"is_disabled":false,"rental_uris":{"android":"levelo://app?vid=028b5aa3-d9e2-49d3-b742-d2a84b64a134","ios":"levelo://app?vid=028b5aa3-d9e2-49d3-b742-d2a84b64a134"},"vehicle_type_id":"4","last_reported":1725728865,"current_range_meters":16000,"station_id":"ce4bgl12rcd13ifvqbo0","pricing_plan_id":"cebpf4jnsgd1na2vs0mg"},{"bike_id":"cbbd6406-e8ea-4e6c-b10a-3bc83a55748c","system_id":"levelo_inurba_marseille","lat":43.29621,"lon":5.38088,"is_reserved":false,"is_disabled":false,"rental_uris":{"android":"levelo://app?vid=cbbd6406-e8ea-4e6c-b10a-3bc83a55748c","ios":"levelo://app?vid=cbbd6406-e8ea-4e6c-b10a-3bc83a55748c"},"vehicle_type_id":"4","last_reported":1725728865,"current_range_meters":24800,"station_id":"ce4bgl12rcd13ifvqbo0","pricing_plan_id":"cebpf4jnsgd1na2vs0mg"},{"bike_id":"1389f4a0-fe8c-45a8-89e1-761602337135","system_id":"levelo_inurba_marseille","lat":43.32367,"lon":5.38925,"is_reserved":false,"is_disabled":false,"rental_uris":{"android":"levelo://app?vid=1389f4a0-fe8c-45a8-89e1-761602337135","ios":"levelo://app?vid=1389f4a0-fe8c-45a8-89e1-761602337135"},"vehicle_type_id":"4","last_reported":1725728865,"current_range_meters":19600,"station_id":"ce4bhqp2rcd13ifvqhog","pricing_plan_id":"cebpf4jnsgd1na2vs0mg"},{"bike_id":"41704600-e9e6-4869-aefd-a4a12996605b","system_id":"levelo_inurba_marseille","lat":43.3237,"lon":5.38926,"is_reserved":false,"is_disabled":false,"rental_uris":{"android":"levelo://app?vid=41704600-e9e6-4869-aefd-a4a12996605b","ios":"levelo://app?vid=41704600-e9e6-4869-aefd-a4a12996605b"},"vehicle_type_id":"4","last_reported":1725728865,"current_range_meters":12400,"station_id":"ce4bhqp2rcd13ifvqhog","pricing_plan_id":"cebpf4jnsgd1na2vs0mg"},{"bike_id":"74c59e3d-56c9-4373-9efe-a345696f9a5c","system_id":"levelo_inurba_marseille","lat":43.3237,"lon":5.38926,"is_reserved":false,"is_disabled":false,"rental_uris":{"android":"levelo://app?vid=74c59e3d-56c9-4373-9efe-a345696f9a5c","ios":"levelo://app?vid=74c59e3d-56c9-4373-9efe-a345696f9a5c"},"vehicle_type_id":"4","last_reported":1725728865,"current_range_meters":24800,"station_id":"","pricing_plan_id":"cebpf4jnsgd1na2vs0mg"},{"bike_id":"39a4ff05-3396-48e3-8e44-08f321a89af1","system_id":"levelo_inurba_marseille","lat":43.29599,"lon":5.38098,"is_reserved":false,"is_disabled":false,"rental_uris":{"android":"levelo://app?vid=39a4ff05-3396-48e3-8e44-08f321a89af1","ios":"levelo://app?vid=39a4ff05-3396-48e3-8e44-08f321a89af1"},"vehicle_type_id":"4","last_reported":1725728865,"current_range_meters":0,"station_id":"ce4bgl12rcd13ifvqbo0","pricing_plan_id":"cebpf4jnsgd1na2vs0mg"},{"bike_id":"e996d816-66a4-4e01-aa7a-439f6c8a2a8f","system_id":"levelo_inurba_marseille","lat":43.29327,"lon":5.37076,"is_reserved":false,"is_disabled":false,"rental_uris":{"android":"levelo://app?vid=e996d816-66a4-4e01-aa7a-439f6c8a2a8f","ios":"levelo://app?vid=e996d816-66a4-4e01-aa7a-439f6c8a2a8f"},"vehicle_type_id":"4","last_reported":1725728865,"current_range_meters":27200,"station_id":"","pricing_plan_id":"cebpf4jnsgd1na2vs0mg"},{"bike_id":"1cea46c6-b8d6-4f72-b307-3b1c677cf95e","system_id":"levelo_inurba_marseille","lat":43.30367,"lon":5.39134,"is_reserved":false,"is_disabled":false,"rental_uris":{"android":"levelo://app?vid=1cea46c6-b8d6-4f72-b307-3b1c677cf95e","ios":"levelo://app?vid=1cea46c6-b8d6-4f72-b307-3b1c677cf95e"},"vehicle_type_id":"4","last_reported":1725728865,"current_range_meters":31200,"station_id":"","pricing_plan_id":"cebpf4jnsgd1na2vs0mg"},{"bike_id":"56e3c461-a33a-49da-a3f1-00b2131bd024","system_id":"levelo_inurba_marseille","lat":43.2928,"lon":5.36841,"is_reserved":false,"is_disabled":false,"rental_uris":{"android":"levelo://app?vid=56e3c461-a33a-49da-a3f1-00b2131bd024","ios":"levelo://app?vid=56e3c461-a33a-49da-a3f1-00b2131bd024"},"vehicle_type_id":"4","last_reported":1725728865,"current_range_meters":0,"station_id":"ce4bhbp2rcd13ifvqesg","pricing_plan_id":"cebpf4jnsgd1na2vs0mg"},{"bike_id":"3013ab60-2fd5-4bcf-8aa9-60479017c12b","system_id":"levelo_inurba_marseille","lat":43.29302,"lon":5.37172,"is_reserved":false,"is_disabled":false,"rental_uris":{"android":"levelo://app?vid=3013ab60-2fd5-4bcf-8aa9-60479017c12b","ios":"levelo://app?vid=3013ab60-2fd5-4bcf-8aa9-60479017c12b"},"vehicle_type_id":"4","last_reported":1725728865,"current_range_meters":0,"station_id":"ce4bgh92rcd13ifvqb40","pricing_plan_id":"cebpf4jnsgd1na2vs0mg"},{"bike_id":"f5ec5a0b-9619-42ee-9cfd-2087b8ecc8a8","system_id":"levelo_inurba_marseille","lat":43.292749,"lon":5.368402,"is_reserved":false,"is_disabled":false,"rental_uris":{"android":"levelo://app?vid=f5ec5a0b-9619-42ee-9cfd-2087b8ecc8a8","ios":"levelo://app?vid=f5ec5a0b-9619-42ee-9cfd-2087b8ecc8a8"},"vehicle_type_id":"4","last_reported":1725728865,"current_range_meters":19600,"station_id":"ce4bhbp2rcd13ifvqesg","pricing_plan_id":"cebpf4jnsgd1na2vs0mg"},{"bike_id":"eab906f4-c52a-4d5d-a00c-a8ba676407d1","system_id":"levelo_inurba_marseille","lat":43.293259,"lon":5.371586,"is_reserved":false,"is_disabled":false,"rental_uris":{"android":"levelo://app?vid=eab906f4-c52a-4d5d-a00c-a8ba676407d1","ios":"levelo://app?vid=eab906f4-c52a-4d5d-a00c-a8ba676407d1"},"vehicle_type_id":"4","last_reported":1725728865,"current_range_meters":13200,"station_id":"ce4bgh92rcd13ifvqb40","pricing_plan_id":"cebpf4jnsgd1na2vs0mg"},{"bike_id":"08fc73eb-89c5-4855-8b29-2878425e4a2d","system_id":"levelo_inurba_marseille","lat":43.293009,"lon":5.374584,"is_reserved":false,"is_disabled":false,"rental_uris":{"android":"levelo://app?vid=08fc73eb-89c5-4855-8b29-2878425e4a2d","ios":"levelo://app?vid=08fc73eb-89c5-4855-8b29-2878425e4a2d"},"vehicle_type_id":"4","last_reported":1725728865,"current_range_meters":0,"station_id":"ce4bgi12rcd13ifvqb70","pricing_plan_id":"cebpf4jnsgd1na2vs0mg"},{"bike_id":"b3de1c1a-21e7-4f86-a0f8-c702ab68de5d","system_id":"levelo_inurba_marseille","lat":43.29308,"lon":5.37466,"is_reserved":false,"is_disabled":false,"rental_uris":{"android":"levelo://app?vid=b3de1c1a-21e7-4f86-a0f8-c702ab68de5d","ios":"levelo://app?vid=b3de1c1a-21e7-4f86-a0f8-c702ab68de5d"},"vehicle_type_id":"4","last_reported":1725728865,"current_range_meters":4000,"station_id":"ce4bgi12rcd13ifvqb70","pricing_plan_id":"cebpf4jnsgd1na2vs0mg"},{"bike_id":"7c819373-d89e-4e25-a500-3c2634db1009","system_id":"levelo_inurba_marseille","lat":43.303002,"lon":5.392142,"is_reserved":false,"is_disabled":false,"rental_uris":{"android":"levelo://app?vid=7c819373-d89e-4e25-a500-3c2634db1009","ios":"levelo://app?vid=7c819373-d89e-4e25-a500-3c2634db1009"},"vehicle_type_id":"4","last_reported":1725728865,"current_range_meters":29600,"station_id":"ce4bgkh2rcd13ifvqbk0","pricing_plan_id":"cebpf4jnsgd1na2vs0mg"},{"bike_id":"fd231172-f9f9-4af0-9cdf-943bf2307180","system_id":"levelo_inurba_marseille","lat":43.29216,"lon":5.36359,"is_reserved":false,"is_disabled":false,"rental_uris":{"android":"levelo://app?vid=fd231172-f9f9-4af0-9cdf-943bf2307180","ios":"levelo://app?vid=fd231172-f9f9-4af0-9cdf-943bf2307180"},"vehicle_type_id":"4","last_reported":1725728865,"current_range_meters":0,"station_id":"","pricing_plan_id":"cebpf4jnsgd1na2vs0mg"},{"bike_id":"825c4d31-6d26-44e2-a1e0-672cc52a1a0f","system_id":"levelo_inurba_marseille","lat":43.302992,"lon":5.392136,"is_reserved":false,"is_disabled":false,"rental_uris":{"android":"levelo://app?vid=825c4d31-6d26-44e2-a1e0-672cc52a1a0f","ios":"levelo://app?vid=825c4d31-6d26-44e2-a1e0-672cc52a1a0f"},"vehicle_type_id":"4","last_reported":1725728865,"current_range_meters":0,"station_id":"ce4bgkh2rcd13ifvqbk0","pricing_plan_id":"cebpf4jnsgd1na2vs0mg"},{"bike_id":"d47b49db-7ce3-4943-8eed-584c0cdc10f4","system_id":"levelo_inurba_marseille","lat":43.292311,"lon":5.360731,"is_reserved":false,"is_disabled":false,"rental_uris":{"android":"levelo://app?vid=d47b49db-7ce3-4943-8eed-584c0cdc10f4","ios":"levelo://app?vid=d47b49db-7ce3-4943-8eed-584c0cdc10f4"},"vehicle_type_id":"4","last_reported":1725728865,"current_range_meters":19200,"station_id":"ce4bhbh2rcd13ifvqeqg","pricing_plan_id":"cebpf4jnsgd1na2vs0mg"},{"bike_id":"6f74ee58-2cd8-4e8e-bee1-17f158f1b3d1","system_id":"levelo_inurba_marseille","lat":43.292311,"lon":5.360731,"is_reserved":false,"is_disabled":false,"rental_uris":{"android":"levelo://app?vid=6f74ee58-2cd8-4e8e-bee1-17f158f1b3d1","ios":"levelo://app?vid=6f74ee58-2cd8-4e8e-bee1-17f158f1b3d1"},"vehicle_type_id":"4","last_reported":1725728865,"current_range_meters":15200,"station_id":"ce4bhbh2rcd13ifvqeqg","pricing_plan_id":"cebpf4jnsgd1na2vs0mg"},{"bike_id":"0a5849b3-ba95-4764-b461-eddbfe445077","system_id":"levelo_inurba_marseille","lat":43.300852,"lon":5.390859,"is_reserved":false,"is_disabled":false,"rental_uris":{"android":"levelo://app?vid=0a5849b3-ba95-4764-b461-eddbfe445077","ios":"levelo://app?vid=0a5849b3-ba95-4764-b461-eddbfe445077"},"vehicle_type_id":"4","last_reported":1725728865,"current_range_meters":27600,"station_id":"ce4bh192rcd13ifvqdb0","pricing_plan_id":"cebpf4jnsgd1na2vs0mg"},{"bike_id":"91f1203b-f290-408d-97cc-703e33a0a3e7","system_id":"levelo_inurba_marseille","lat":43.292311,"lon":5.360731,"is_reserved":false,"is_disabled":false,"rental_uris":{"android":"levelo://app?vid=91f1203b-f290-408d-97cc-703e33a0a3e7","ios":"levelo://app?vid=91f1203b-f290-408d-97cc-703e33a0a3e7"},"vehicle_type_id":"4","last_reported":1725728865,"current_range_meters":26400,"station_id":"ce4bhbh2rcd13ifvqeqg","pricing_plan_id":"cebpf4jnsgd1na2vs0mg"},{"bike_id":"885efecf-a22f-4925-b664-38beac3a2690","system_id":"levelo_inurba_marseille","lat":43.29218,"lon":5.36072,"is_reserved":false,"is_disabled":false,"rental_uris":{"android":"levelo://app?vid=885efecf-a22f-4925-b664-38beac3a2690","ios":"levelo://app?vid=885efecf-a22f-4925-b664-38beac3a2690"},"vehicle_type_id":"4","last_reported":1725728865,"current_range_meters":0,"station_id":"ce4bhbh2rcd13ifvqeqg","pricing_plan_id":"cebpf4jnsgd1na2vs0mg"},{"bike_id":"3f666172-a27a-4668-bc3f-2427b3e58bc5","system_id":"levelo_inurba_marseille","lat":43.298764,"lon":5.388973,"is_reserved":false,"is_disabled":false,"rental_uris":{"android":"levelo://app?vid=3f666172-a27a-4668-bc3f-2427b3e58bc5","ios":"levelo://app?vid=3f666172-a27a-4668-bc3f-2427b3e58bc5"},"vehicle_type_id":"4","last_reported":1725728865,"current_range_meters":22000,"station_id":"ce4bh392rcd13ifvqdl0","pricing_plan_id":"cebpf4jnsgd1na2vs0mg"},{"bike_id":"ee83ae0a-d461-4938-9016-a7f2c9d800ad","system_id":"levelo_inurba_marseille","lat":43.29393,"lon":5.38136,"is_reserved":false,"is_disabled":false,"rental_uris":{"android":"levelo://app?vid=ee83ae0a-d461-4938-9016-a7f2c9d800ad","ios":"levelo://app?vid=ee83ae0a-d461-4938-9016-a7f2c9d800ad"},"vehicle_type_id":"4","last_reported":1725728865,"current_range_meters":0,"station_id":"","pricing_plan_id":"cebpf4jnsgd1na2vs0mg"},{"bike_id":"3450f0d6-e45a-4949-a6d3-ba92fa59d37c","system_id":"levelo_inurba_marseille","lat":43.30885,"lon":5.39625,"is_reserved":false,"is_disabled":false,"rental_uris":{"android":"levelo://app?vid=3450f0d6-e45a-4949-a6d3-ba92fa59d37c","ios":"levelo://app?vid=3450f0d6-e45a-4949-a6d3-ba92fa59d37c"},"vehicle_type_id":"4","last_reported":1725728865,"current_range_meters":0,"station_id":"ce4bh012rcd13ifvqcv0","pricing_plan_id":"cebpf4jnsgd1na2vs0mg"},{"bike_id":"5bc3ea52-51e4-4547-820b-9a28d4c8b7be","system_id":"levelo_inurba_marseille","lat":43.298764,"lon":5.388973,"is_reserved":false,"is_disabled":false,"rental_uris":{"android":"levelo://app?vid=5bc3ea52-51e4-4547-820b-9a28d4c8b7be","ios":"levelo://app?vid=5bc3ea52-51e4-4547-820b-9a28d4c8b7be"},"vehicle_type_id":"4","last_reported":1725728865,"current_range_meters":0,"station_id":"ce4bh392rcd13ifvqdl0","pricing_plan_id":"cebpf4jnsgd1na2vs0mg"},{"bike_id":"f9844d6d-0bb3-4b5e-b481-590714a58915","system_id":"levelo_inurba_marseille","lat":43.292005,"lon":5.357875,"is_reserved":false,"is_disabled":false,"rental_uris":{"android":"levelo://app?vid=f9844d6d-0bb3-4b5e-b481-590714a58915","ios":"levelo://app?vid=f9844d6d-0bb3-4b5e-b481-590714a58915"},"vehicle_type_id":"4","last_reported":1725728865,"current_range_meters":23200,"station_id":"ce4bhb12rcd13ifvqel0","pricing_plan_id":"cebpf4jnsgd1na2vs0mg"},{"bike_id":"aeac022f-ee7b-4a44-809c-456b74602d61","system_id":"levelo_inurba_marseille","lat":43.313291,"lon":5.396838,"is_reserved":false,"is_disabled":false,"rental_uris":{"android":"levelo://app?vid=aeac022f-ee7b-4a44-809c-456b74602d61","ios":"levelo://app?vid=aeac022f-ee7b-4a44-809c-456b74602d61"},"vehicle_type_id":"4","last_reported":1725728865,"current_range_meters":7200,"station_id":"ce4bgvp2rcd13ifvqcu0","pricing_plan_id":"cebpf4jnsgd1na2vs0mg"},{"bike_id":"a926f2ff-bf38-49f3-8207-8cb25da3d9d6","system_id":"levelo_inurba_marseille","lat":43.29189,"lon":5.35793,"is_reserved":false,"is_disabled":false,"rental_uris":{"android":"levelo://app?vid=a926f2ff-bf38-49f3-8207-8cb25da3d9d6","ios":"levelo://app?vid=a926f2ff-bf38-49f3-8207-8cb25da3d9d6"},"vehicle_type_id":"4","last_reported":1725728865,"current_range_meters":0,"station_id":"ce4bhb12rcd13ifvqel0","pricing_plan_id":"cebpf4jnsgd1na2vs0mg"},{"bike_id":"40638417-df6b-4f67-b170-cce5ab842929","system_id":"levelo_inurba_marseille","lat":43.313291,"lon":5.396838,"is_reserved":false,"is_disabled":false,"rental_uris":{"android":"levelo://app?vid=40638417-df6b-4f67-b170-cce5ab842929","ios":"levelo://app?vid=40638417-df6b-4f67-b170-cce5ab842929"},"vehicle_type_id":"4","last_reported":1725728865,"current_range_meters":8000,"station_id":"ce4bgvp2rcd13ifvqcu0","pricing_plan_id":"cebpf4jnsgd1na2vs0mg"},{"bike_id":"aa4d2d23-765b-4239-b12e-3d8a4c012941","system_id":"levelo_inurba_marseille","lat":43.30885,"lon":5.39654,"is_reserved":false,"is_disabled":false,"rental_uris":{"android":"levelo://app?vid=aa4d2d23-765b-4239-b12e-3d8a4c012941","ios":"levelo://app?vid=aa4d2d23-765b-4239-b12e-3d8a4c012941"},"vehicle_type_id":"4","last_reported":1725728865,"current_range_meters":0,"station_id":"ce4bh012rcd13ifvqcv0","pricing_plan_id":"cebpf4jnsgd1na2vs0mg"},{"bike_id":"9e266798-13f2-4f60-924f-b15291960c9d","system_id":"levelo_inurba_marseille","lat":43.30893,"lon":5.39663,"is_reserved":false,"is_disabled":false,"rental_uris":{"android":"levelo://app?vid=9e266798-13f2-4f60-924f-b15291960c9d","ios":"levelo://app?vid=9e266798-13f2-4f60-924f-b15291960c9d"},"vehicle_type_id":"4","last_reported":1725728865,"current_range_meters":0,"station_id":"ce4bh012rcd13ifvqcv0","pricing_plan_id":"cebpf4jnsgd1na2vs0mg"},{"bike_id":"53c53236-1964-4793-9b2b-bf6010a56504","system_id":"levelo_inurba_marseille","lat":43.29529,"lon":5.385581,"is_reserved":false,"is_disabled":false,"rental_uris":{"android":"levelo://app?vid=53c53236-1964-4793-9b2b-bf6010a56504","ios":"levelo://app?vid=53c53236-1964-4793-9b2b-bf6010a56504"},"vehicle_type_id":"4","last_reported":1725728865,"current_range_meters":10800,"station_id":"ce4bgih2rcd13ifvqba0","pricing_plan_id":"cebpf4jnsgd1na2vs0mg"},{"bike_id":"776d3bf4-2821-43cc-b3cf-7a2cc59cb327","system_id":"levelo_inurba_marseille","lat":43.290779,"lon":5.371482,"is_reserved":false,"is_disabled":false,"rental_uris":{"android":"levelo://app?vid=776d3bf4-2821-43cc-b3cf-7a2cc59cb327","ios":"levelo://app?vid=776d3bf4-2821-43cc-b3cf-7a2cc59cb327"},"vehicle_type_id":"4","last_reported":1725728865,"current_range_meters":27600,"station_id":"ce4bh5p2rcd13ifvqe4g","pricing_plan_id":"cebpf4jnsgd1na2vs0mg"},{"bike_id":"3bfd9034-63bd-4af6-864b-4aebf5e8d2f9","system_id":"levelo_inurba_marseille","lat":43.290779,"lon":5.371482,"is_reserved":false,"is_disabled":false,"rental_uris":{"android":"levelo://app?vid=3bfd9034-63bd-4af6-864b-4aebf5e8d2f9","ios":"levelo://app?vid=3bfd9034-63bd-4af6-864b-4aebf5e8d2f9"},"vehicle_type_id":"4","last_reported":1725728865,"current_range_meters":400,"station_id":"ce4bh5p2rcd13ifvqe4g","pricing_plan_id":"cebpf4jnsgd1na2vs0mg"},{"bike_id":"fb44c05a-050e-4344-83e1-3bb1829f1990","system_id":"levelo_inurba_marseille","lat":43.302008,"lon":5.394694,"is_reserved":false,"is_disabled":false,"rental_uris":{"android":"levelo://app?vid=fb44c05a-050e-4344-83e1-3bb1829f1990","ios":"levelo://app?vid=fb44c05a-050e-4344-83e1-3bb1829f1990"},"vehicle_type_id":"4","last_reported":1725728865,"current_range_meters":29600,"station_id":"ce4bh0p2rcd13ifvqd70","pricing_plan_id":"cebpf4jnsgd1na2vs0mg"},{"bike_id":"d09552b5-a445-4a86-ba7f-4df4deeec0e5","system_id":"levelo_inurba_marseille","lat":43.29044,"lon":5.37544,"is_reserved":false,"is_disabled":false,"rental_uris":{"android":"levelo://app?vid=d09552b5-a445-4a86-ba7f-4df4deeec0e5","ios":"levelo://app?vid=d09552b5-a445-4a86-ba7f-4df4deeec0e5"},"vehicle_type_id":"4","last_reported":1725728865,"current_range_meters":31600,"station_id":"ce4bh692rcd13ifvqe90","pricing_plan_id":"cebpf4jnsgd1na2vs0mg"},{"bike_id":"9efd6e28-58db-4c11-b011-1d64434b7f3f","system_id":"levelo_inurba_marseille","lat":43.29042,"lon":5.37559,"is_reserved":false,"is_disabled":false,"rental_uris":{"android":"levelo://app?vid=9efd6e28-58db-4c11-b011-1d64434b7f3f","ios":"levelo://app?vid=9efd6e28-58db-4c11-b011-1d64434b7f3f"},"vehicle_type_id":"4","last_reported":1725728865,"current_range_meters":0,"station_id":"ce4bh692rcd13ifvqe90","pricing_plan_id":"cebpf4jnsgd1na2vs0mg"},{"bike_id":"464cb421-b169-4d2b-8a00-5b06e29ed76a","system_id":"levelo_inurba_marseille","lat":43.290324,"lon":5.375473,"is_reserved":false,"is_disabled":false,"rental_uris":{"android":"levelo://app?vid=464cb421-b169-4d2b-8a00-5b06e29ed76a","ios":"levelo://app?vid=464cb421-b169-4d2b-8a00-5b06e29ed76a"},"vehicle_type_id":"4","last_reported":1725728865,"current_range_meters":21200,"station_id":"ce4bh692rcd13ifvqe90","pricing_plan_id":"cebpf4jnsgd1na2vs0mg"},{"bike_id":"61a485fa-a8e9-41a4-a87b-c0f11242168a","system_id":"levelo_inurba_marseille","lat":43.289184,"lon":5.366408,"is_reserved":false,"is_disabled":false,"rental_uris":{"android":"levelo://app?vid=61a485fa-a8e9-41a4-a87b-c0f11242168a","ios":"levelo://app?vid=61a485fa-a8e9-41a4-a87b-c0f11242168a"},"vehicle_type_id":"4","last_reported":1725728865,"current_range_meters":12800,"station_id":"ce4bhap2rcd13ifvqek0","pricing_plan_id":"cebpf4jnsgd1na2vs0mg"},{"bike_id":"835ec3c0-1fb2-47d2-9411-9795511f3700","system_id":"levelo_inurba_marseille","lat":43.2895,"lon":5.36404,"is_reserved":false,"is_disabled":false,"rental_uris":{"android":"levelo://app?vid=835ec3c0-1fb2-47d2-9411-9795511f3700","ios":"levelo://app?vid=835ec3c0-1fb2-47d2-9411-9795511f3700"},"vehicle_type_id":"4","last_reported":1725728865,"current_range_meters":10400,"station_id":"ce4bhc92rcd13ifvqetg","pricing_plan_id":"cebpf4jnsgd1na2vs0mg"},{"bike_id":"6508adda-711f-4599-8c91-176658d62a90","system_id":"levelo_inurba_marseille","lat":43.29028,"lon":5.37563,"is_reserved":false,"is_disabled":false,"rental_uris":{"android":"levelo://app?vid=6508adda-711f-4599-8c91-176658d62a90","ios":"levelo://app?vid=6508adda-711f-4599-8c91-176658d62a90"},"vehicle_type_id":"4","last_reported":1725728865,"current_range_meters":31200,"station_id":"ce4bh692rcd13ifvqe90","pricing_plan_id":"cebpf4jnsgd1na2vs0mg"},{"bike_id":"07ee239e-c4eb-4b2f-b2bc-7b43cdaea4d7","system_id":"levelo_inurba_marseille","lat":43.2905,"lon":5.37776,"is_reserved":false,"is_disabled":false,"rental_uris":{"android":"levelo://app?vid=07ee239e-c4eb-4b2f-b2bc-7b43cdaea4d7","ios":"levelo://app?vid=07ee239e-c4eb-4b2f-b2bc-7b43cdaea4d7"},"vehicle_type_id":"4","last_reported":1725728865,"current_range_meters":0,"station_id":"","pricing_plan_id":"cebpf4jnsgd1na2vs0mg"},{"bike_id":"6fd52af7-9853-45fa-895d-6e63fa72c98e","system_id":"levelo_inurba_marseille","lat":43.292778,"lon":5.384476,"is_reserved":false,"is_disabled":false,"rental_uris":{"android":"levelo://app?vid=6fd52af7-9853-45fa-895d-6e63fa72c98e","ios":"levelo://app?vid=6fd52af7-9853-45fa-895d-6e63fa72c98e"},"vehicle_type_id":"4","last_reported":1725728865,"current_range_meters":31200,"station_id":"ce4bh692rcd13ifvqea0","pricing_plan_id":"cebpf4jnsgd1na2vs0mg"},{"bike_id":"e2e24d49-0307-4baf-8587-30f202d7e8ef","system_id":"levelo_inurba_marseille","lat":43.29253,"lon":5.38403,"is_reserved":false,"is_disabled":false,"rental_uris":{"android":"levelo://app?vid=e2e24d49-0307-4baf-8587-30f202d7e8ef","ios":"levelo://app?vid=e2e24d49-0307-4baf-8587-30f202d7e8ef"},"vehicle_type_id":"4","last_reported":1725728865,"current_range_meters":22400,"station_id":"ce4bh692rcd13ifvqea0","pricing_plan_id":"cebpf4jnsgd1na2vs0mg"},{"bike_id":"4e510abb-ea46-4471-b397-8e393c42cef7","system_id":"levelo_inurba_marseille","lat":43.292644,"lon":5.384257,"is_reserved":false,"is_disabled":false,"rental_uris":{"android":"levelo://app?vid=4e510abb-ea46-4471-b397-8e393c42cef7","ios":"levelo://app?vid=4e510abb-ea46-4471-b397-8e393c42cef7"},"vehicle_type_id":"4","last_reported":1725728865,"current_range_meters":0,"station_id":"ce4bh692rcd13ifvqea0","pricing_plan_id":"cebpf4jnsgd1na2vs0mg"},{"bike_id":"a39410ba-4e84-4e4d-8315-4f63e72f6f4a","system_id":"levelo_inurba_marseille","lat":43.29265,"lon":5.38453,"is_reserved":false,"is_disabled":false,"rental_uris":{"android":"levelo://app?vid=a39410ba-4e84-4e4d-8315-4f63e72f6f4a","ios":"levelo://app?vid=a39410ba-4e84-4e4d-8315-4f63e72f6f4a"},"vehicle_type_id":"4","last_reported":1725728865,"current_range_meters":15200,"station_id":"ce4bh692rcd13ifvqea0","pricing_plan_id":"cebpf4jnsgd1na2vs0mg"},{"bike_id":"6e217c07-57ad-4598-a6f7-770a5bea8729","system_id":"levelo_inurba_marseille","lat":43.29258,"lon":5.38443,"is_reserved":false,"is_disabled":false,"rental_uris":{"android":"levelo://app?vid=6e217c07-57ad-4598-a6f7-770a5bea8729","ios":"levelo://app?vid=6e217c07-57ad-4598-a6f7-770a5bea8729"},"vehicle_type_id":"4","last_reported":1725728865,"current_range_meters":11600,"station_id":"ce4bh692rcd13ifvqea0","pricing_plan_id":"cebpf4jnsgd1na2vs0mg"},{"bike_id":"6d4c6440-ed8f-41ee-bf74-2e60d0587e0c","system_id":"levelo_inurba_marseille","lat":43.290103,"lon":5.356114,"is_reserved":false,"is_disabled":false,"rental_uris":{"android":"levelo://app?vid=6d4c6440-ed8f-41ee-bf74-2e60d0587e0c","ios":"levelo://app?vid=6d4c6440-ed8f-41ee-bf74-2e60d0587e0c"},"vehicle_type_id":"4","last_reported":1725728865,"current_range_meters":0,"station_id":"ce4bhb92rcd13ifvqen0","pricing_plan_id":"cebpf4jnsgd1na2vs0mg"},{"bike_id":"2824188c-27dd-4aa1-89ea-9e1c788d1f3a","system_id":"levelo_inurba_marseille","lat":43.29005,"lon":5.35608,"is_reserved":false,"is_disabled":false,"rental_uris":{"android":"levelo://app?vid=2824188c-27dd-4aa1-89ea-9e1c788d1f3a","ios":"levelo://app?vid=2824188c-27dd-4aa1-89ea-9e1c788d1f3a"},"vehicle_type_id":"4","last_reported":1725728865,"current_range_meters":0,"station_id":"ce4bhb92rcd13ifvqen0","pricing_plan_id":"cebpf4jnsgd1na2vs0mg"},{"bike_id":"8251e9c5-bdc9-4d68-9131-e44953148bed","system_id":"levelo_inurba_marseille","lat":43.33021,"lon":5.39039,"is_reserved":false,"is_disabled":false,"rental_uris":{"android":"levelo://app?vid=8251e9c5-bdc9-4d68-9131-e44953148bed","ios":"levelo://app?vid=8251e9c5-bdc9-4d68-9131-e44953148bed"},"vehicle_type_id":"4","last_reported":1725728865,"current_range_meters":3600,"station_id":"ce4bhr92rcd13ifvqhrg","pricing_plan_id":"cebpf4jnsgd1na2vs0mg"},{"bike_id":"b1f7f0b7-11bf-4767-b4e5-16daa41aff24","system_id":"levelo_inurba_marseille","lat":43.330442,"lon":5.389148,"is_reserved":false,"is_disabled":false,"rental_uris":{"android":"levelo://app?vid=b1f7f0b7-11bf-4767-b4e5-16daa41aff24","ios":"levelo://app?vid=b1f7f0b7-11bf-4767-b4e5-16daa41aff24"},"vehicle_type_id":"4","last_reported":1725728865,"current_range_meters":28800,"station_id":"ce4bhr92rcd13ifvqhrg","pricing_plan_id":"cebpf4jnsgd1na2vs0mg"},{"bike_id":"222cb6a0-0ab9-4e09-b4cc-688a1624ee78","system_id":"levelo_inurba_marseille","lat":43.289741,"lon":5.378306,"is_reserved":false,"is_disabled":false,"rental_uris":{"android":"levelo://app?vid=222cb6a0-0ab9-4e09-b4cc-688a1624ee78","ios":"levelo://app?vid=222cb6a0-0ab9-4e09-b4cc-688a1624ee78"},"vehicle_type_id":"4","last_reported":1725728865,"current_range_meters":0,"station_id":"ce4bh9p2rcd13ifvqed0","pricing_plan_id":"cebpf4jnsgd1na2vs0mg"},{"bike_id":"ddc46ea3-9825-42ab-a237-2f42d3eff765","system_id":"levelo_inurba_marseille","lat":43.330442,"lon":5.389148,"is_reserved":false,"is_disabled":false,"rental_uris":{"android":"levelo://app?vid=ddc46ea3-9825-42ab-a237-2f42d3eff765","ios":"levelo://app?vid=ddc46ea3-9825-42ab-a237-2f42d3eff765"},"vehicle_type_id":"4","last_reported":1725728865,"current_range_meters":2000,"station_id":"ce4bhr92rcd13ifvqhrg","pricing_plan_id":"cebpf4jnsgd1na2vs0mg"},{"bike_id":"270d8ed7-0943-4e94-ab13-7c656b0caea1","system_id":"levelo_inurba_marseille","lat":43.330442,"lon":5.389148,"is_reserved":false,"is_disabled":false,"rental_uris":{"android":"levelo://app?vid=270d8ed7-0943-4e94-ab13-7c656b0caea1","ios":"levelo://app?vid=270d8ed7-0943-4e94-ab13-7c656b0caea1"},"vehicle_type_id":"4","last_reported":1725728865,"current_range_meters":800,"station_id":"ce4bhr92rcd13ifvqhrg","pricing_plan_id":"cebpf4jnsgd1na2vs0mg"},{"bike_id":"b13dd4eb-4fd2-4af0-82ce-a1e8dd9e3aa1","system_id":"levelo_inurba_marseille","lat":43.330442,"lon":5.389148,"is_reserved":false,"is_disabled":false,"rental_uris":{"android":"levelo://app?vid=b13dd4eb-4fd2-4af0-82ce-a1e8dd9e3aa1","ios":"levelo://app?vid=b13dd4eb-4fd2-4af0-82ce-a1e8dd9e3aa1"},"vehicle_type_id":"4","last_reported":1725728865,"current_range_meters":26800,"station_id":"ce4bhr92rcd13ifvqhrg","pricing_plan_id":"cebpf4jnsgd1na2vs0mg"},{"bike_id":"8b72aab1-11f4-4208-ae7e-1eb8efb982f6","system_id":"levelo_inurba_marseille","lat":43.330442,"lon":5.389148,"is_reserved":false,"is_disabled":false,"rental_uris":{"android":"levelo://app?vid=8b72aab1-11f4-4208-ae7e-1eb8efb982f6","ios":"levelo://app?vid=8b72aab1-11f4-4208-ae7e-1eb8efb982f6"},"vehicle_type_id":"4","last_reported":1725728865,"current_range_meters":4400,"station_id":"ce4bhr92rcd13ifvqhrg","pricing_plan_id":"cebpf4jnsgd1na2vs0mg"},{"bike_id":"f04bd275-ec11-4ef1-b3b2-15d2abbede83","system_id":"levelo_inurba_marseille","lat":43.310645,"lon":5.400571,"is_reserved":false,"is_disabled":false,"rental_uris":{"android":"levelo://app?vid=f04bd275-ec11-4ef1-b3b2-15d2abbede83","ios":"levelo://app?vid=f04bd275-ec11-4ef1-b3b2-15d2abbede83"},"vehicle_type_id":"4","last_reported":1725728865,"current_range_meters":15200,"station_id":"","pricing_plan_id":"cebpf4jnsgd1na2vs0mg"},{"bike_id":"8050ce66-2d5d-4522-aaea-5491875c26b8","system_id":"levelo_inurba_marseille","lat":43.28856,"lon":5.358371,"is_reserved":false,"is_disabled":false,"rental_uris":{"android":"levelo://app?vid=8050ce66-2d5d-4522-aaea-5491875c26b8","ios":"levelo://app?vid=8050ce66-2d5d-4522-aaea-5491875c26b8"},"vehicle_type_id":"4","last_reported":1725728865,"current_range_meters":2000,"station_id":"ce4bhb12rcd13ifvqem0","pricing_plan_id":"cebpf4jnsgd1na2vs0mg"},{"bike_id":"fefe100e-0996-4b98-8a8d-66c5981d8af0","system_id":"levelo_inurba_marseille","lat":43.312609,"lon":5.401662,"is_reserved":false,"is_disabled":false,"rental_uris":{"android":"levelo://app?vid=fefe100e-0996-4b98-8a8d-66c5981d8af0","ios":"levelo://app?vid=fefe100e-0996-4b98-8a8d-66c5981d8af0"},"vehicle_type_id":"4","last_reported":1725728865,"current_range_meters":20800,"station_id":"ce4bh092rcd13ifvqd30","pricing_plan_id":"cebpf4jnsgd1na2vs0mg"},{"bike_id":"40565d8c-4159-4883-b3f0-28e961f6be9e","system_id":"levelo_inurba_marseille","lat":43.3371,"lon":5.3577,"is_reserved":false,"is_disabled":false,"rental_uris":{"android":"levelo://app?vid=40565d8c-4159-4883-b3f0-28e961f6be9e","ios":"levelo://app?vid=40565d8c-4159-4883-b3f0-28e961f6be9e"},"vehicle_type_id":"4","last_reported":1725728865,"current_range_meters":15600,"station_id":"","pricing_plan_id":"cebpf4jnsgd1na2vs0mg"},{"bike_id":"3c3ad402-8137-42b9-a664-17039279138f","system_id":"levelo_inurba_marseille","lat":43.312609,"lon":5.401662,"is_reserved":false,"is_disabled":false,"rental_uris":{"android":"levelo://app?vid=3c3ad402-8137-42b9-a664-17039279138f","ios":"levelo://app?vid=3c3ad402-8137-42b9-a664-17039279138f"},"vehicle_type_id":"4","last_reported":1725728865,"current_range_meters":16000,"station_id":"ce4bh092rcd13ifvqd30","pricing_plan_id":"cebpf4jnsgd1na2vs0mg"},{"bike_id":"3f3244df-bee4-4437-b2a1-ab9135c8e39a","system_id":"levelo_inurba_marseille","lat":43.33755,"lon":5.37455,"is_reserved":false,"is_disabled":false,"rental_uris":{"android":"levelo://app?vid=3f3244df-bee4-4437-b2a1-ab9135c8e39a","ios":"levelo://app?vid=3f3244df-bee4-4437-b2a1-ab9135c8e39a"},"vehicle_type_id":"4","last_reported":1725728865,"current_range_meters":19200,"station_id":"","pricing_plan_id":"cebpf4jnsgd1na2vs0mg"},{"bike_id":"45985ff5-fc75-4626-9a62-c7067a0f7ca9","system_id":"levelo_inurba_marseille","lat":43.337553,"lon":5.374578,"is_reserved":false,"is_disabled":false,"rental_uris":{"android":"levelo://app?vid=45985ff5-fc75-4626-9a62-c7067a0f7ca9","ios":"levelo://app?vid=45985ff5-fc75-4626-9a62-c7067a0f7ca9"},"vehicle_type_id":"4","last_reported":1725728865,"current_range_meters":31200,"station_id":"ce4bhr92rcd13ifvqhrg","pricing_plan_id":"cebpf4jnsgd1na2vs0mg"},{"bike_id":"39f5af82-2d9d-49b5-9de0-0477144a0224","system_id":"levelo_inurba_marseille","lat":43.33756,"lon":5.37457,"is_reserved":false,"is_disabled":false,"rental_uris":{"android":"levelo://app?vid=39f5af82-2d9d-49b5-9de0-0477144a0224","ios":"levelo://app?vid=39f5af82-2d9d-49b5-9de0-0477144a0224"},"vehicle_type_id":"4","last_reported":1725728865,"current_range_meters":22400,"station_id":"","pricing_plan_id":"cebpf4jnsgd1na2vs0mg"},{"bike_id":"ad24495a-53c1-414f-927a-96f721cde68f","system_id":"levelo_inurba_marseille","lat":43.306412,"lon":5.401035,"is_reserved":false,"is_disabled":false,"rental_uris":{"android":"levelo://app?vid=ad24495a-53c1-414f-927a-96f721cde68f","ios":"levelo://app?vid=ad24495a-53c1-414f-927a-96f721cde68f"},"vehicle_type_id":"4","last_reported":1725728865,"current_range_meters":30000,"station_id":"ce4bh112rcd13ifvqda0","pricing_plan_id":"cebpf4jnsgd1na2vs0mg"},{"bike_id":"bb4233b4-30c4-4413-9ee2-c31421ebd08b","system_id":"levelo_inurba_marseille","lat":43.301117,"lon":5.398795,"is_reserved":false,"is_disabled":false,"rental_uris":{"android":"levelo://app?vid=bb4233b4-30c4-4413-9ee2-c31421ebd08b","ios":"levelo://app?vid=bb4233b4-30c4-4413-9ee2-c31421ebd08b"},"vehicle_type_id":"4","last_reported":1725728865,"current_range_meters":0,"station_id":"ce4bh0h2rcd13ifvqd40","pricing_plan_id":"cebpf4jnsgd1na2vs0mg"},{"bike_id":"4c5ad70f-d89b-44c9-9d5e-61958360f2a5","system_id":"levelo_inurba_marseille","lat":43.286591,"lon":5.363346,"is_reserved":false,"is_disabled":false,"rental_uris":{"android":"levelo://app?vid=4c5ad70f-d89b-44c9-9d5e-61958360f2a5","ios":"levelo://app?vid=4c5ad70f-d89b-44c9-9d5e-61958360f2a5"},"vehicle_type_id":"4","last_reported":1725728865,"current_range_meters":6000,"station_id":"ce4bhah2rcd13ifvqej0","pricing_plan_id":"cebpf4jnsgd1na2vs0mg"},{"bike_id":"fcadeca0-225e-4ead-b483-56d059a161c2","system_id":"levelo_inurba_marseille","lat":43.298681,"lon":5.397225,"is_reserved":false,"is_disabled":false,"rental_uris":{"android":"levelo://app?vid=fcadeca0-225e-4ead-b483-56d059a161c2","ios":"levelo://app?vid=fcadeca0-225e-4ead-b483-56d059a161c2"},"vehicle_type_id":"4","last_reported":1725728865,"current_range_meters":1600,"station_id":"ce4bh0h2rcd13ifvqd50","pricing_plan_id":"cebpf4jnsgd1na2vs0mg"},{"bike_id":"24cf3c44-4957-4e77-84f7-38f3bd24c5eb","system_id":"levelo_inurba_marseille","lat":43.286961,"lon":5.373785,"is_reserved":false,"is_disabled":false,"rental_uris":{"android":"levelo://app?vid=24cf3c44-4957-4e77-84f7-38f3bd24c5eb","ios":"levelo://app?vid=24cf3c44-4957-4e77-84f7-38f3bd24c5eb"},"vehicle_type_id":"4","last_reported":1725728865,"current_range_meters":0,"station_id":"ce4bh3p2rcd13ifvqdq0","pricing_plan_id":"cebpf4jnsgd1na2vs0mg"},{"bike_id":"13d83ccc-8110-4b2f-b9a4-18665a3d28b3","system_id":"levelo_inurba_marseille","lat":43.298681,"lon":5.397225,"is_reserved":false,"is_disabled":false,"rental_uris":{"android":"levelo://app?vid=13d83ccc-8110-4b2f-b9a4-18665a3d28b3","ios":"levelo://app?vid=13d83ccc-8110-4b2f-b9a4-18665a3d28b3"},"vehicle_type_id":"4","last_reported":1725728865,"current_range_meters":3200,"station_id":"ce4bh0h2rcd13ifvqd50","pricing_plan_id":"cebpf4jnsgd1na2vs0mg"},{"bike_id":"8aa63879-e699-432f-b1f2-e59f16c41af9","system_id":"levelo_inurba_marseille","lat":43.286961,"lon":5.373785,"is_reserved":false,"is_disabled":false,"rental_uris":{"android":"levelo://app?vid=8aa63879-e699-432f-b1f2-e59f16c41af9","ios":"levelo://app?vid=8aa63879-e699-432f-b1f2-e59f16c41af9"},"vehicle_type_id":"4","last_reported":1725728865,"current_range_meters":23200,"station_id":"ce4bh3p2rcd13ifvqdq0","pricing_plan_id":"cebpf4jnsgd1na2vs0mg"},{"bike_id":"110a9fa1-ba30-4620-99df-3d38bf42a924","system_id":"levelo_inurba_marseille","lat":43.298681,"lon":5.397225,"is_reserved":false,"is_disabled":false,"rental_uris":{"android":"levelo://app?vid=110a9fa1-ba30-4620-99df-3d38bf42a924","ios":"levelo://app?vid=110a9fa1-ba30-4620-99df-3d38bf42a924"},"vehicle_type_id":"4","last_reported":1725728865,"current_range_meters":3200,"station_id":"ce4bh0h2rcd13ifvqd50","pricing_plan_id":"cebpf4jnsgd1na2vs0mg"},{"bike_id":"341ae9f4-3533-4609-ac9e-596e75f1d2c3","system_id":"levelo_inurba_marseille","lat":43.286961,"lon":5.373785,"is_reserved":false,"is_disabled":false,"rental_uris":{"android":"levelo://app?vid=341ae9f4-3533-4609-ac9e-596e75f1d2c3","ios":"levelo://app?vid=341ae9f4-3533-4609-ac9e-596e75f1d2c3"},"vehicle_type_id":"4","last_reported":1725728865,"current_range_meters":9200,"station_id":"ce4bh3p2rcd13ifvqdq0","pricing_plan_id":"cebpf4jnsgd1na2vs0mg"},{"bike_id":"e5282b16-ce09-4b41-bc18-69742ac44a68","system_id":"levelo_inurba_marseille","lat":43.286961,"lon":5.373785,"is_reserved":false,"is_disabled":false,"rental_uris":{"android":"levelo://app?vid=e5282b16-ce09-4b41-bc18-69742ac44a68","ios":"levelo://app?vid=e5282b16-ce09-4b41-bc18-69742ac44a68"},"vehicle_type_id":"4","last_reported":1725728865,"current_range_meters":0,"station_id":"ce4bh3p2rcd13ifvqdq0","pricing_plan_id":"cebpf4jnsgd1na2vs0mg"},{"bike_id":"5e93120c-a706-4b20-9b3a-8577922e8bfb","system_id":"levelo_inurba_marseille","lat":43.286593,"lon":5.363346,"is_reserved":false,"is_disabled":false,"rental_uris":{"android":"levelo://app?vid=5e93120c-a706-4b20-9b3a-8577922e8bfb","ios":"levelo://app?vid=5e93120c-a706-4b20-9b3a-8577922e8bfb"},"vehicle_type_id":"4","last_reported":1725728865,"current_range_meters":27600,"station_id":"ce4bhah2rcd13ifvqej0","pricing_plan_id":"cebpf4jnsgd1na2vs0mg"},{"bike_id":"39fbac02-41f5-4496-a88f-2b8c6366c356","system_id":"levelo_inurba_marseille","lat":43.286593,"lon":5.363346,"is_reserved":false,"is_disabled":false,"rental_uris":{"android":"levelo://app?vid=39fbac02-41f5-4496-a88f-2b8c6366c356","ios":"levelo://app?vid=39fbac02-41f5-4496-a88f-2b8c6366c356"},"vehicle_type_id":"4","last_reported":1725728865,"current_range_meters":10000,"station_id":"ce4bhah2rcd13ifvqej0","pricing_plan_id":"cebpf4jnsgd1na2vs0mg"},{"bike_id":"64ee05b8-21b0-44e7-a6b2-0231ecc00312","system_id":"levelo_inurba_marseille","lat":43.29503,"lon":5.39402,"is_reserved":false,"is_disabled":false,"rental_uris":{"android":"levelo://app?vid=64ee05b8-21b0-44e7-a6b2-0231ecc00312","ios":"levelo://app?vid=64ee05b8-21b0-44e7-a6b2-0231ecc00312"},"vehicle_type_id":"4","last_reported":1725728865,"current_range_meters":0,"station_id":"ce4bh292rcd13ifvqdf0","pricing_plan_id":"cebpf4jnsgd1na2vs0mg"},{"bike_id":"81f65d19-73fe-408b-896a-7795e1211866","system_id":"levelo_inurba_marseille","lat":43.289307,"lon":5.38406,"is_reserved":false,"is_disabled":false,"rental_uris":{"android":"levelo://app?vid=81f65d19-73fe-408b-896a-7795e1211866","ios":"levelo://app?vid=81f65d19-73fe-408b-896a-7795e1211866"},"vehicle_type_id":"4","last_reported":1725728865,"current_range_meters":0,"station_id":"ce4bh612rcd13ifvqe6g","pricing_plan_id":"cebpf4jnsgd1na2vs0mg"},{"bike_id":"08840a80-6a37-49eb-9919-4863b94014a3","system_id":"levelo_inurba_marseille","lat":43.3025,"lon":5.40058,"is_reserved":false,"is_disabled":false,"rental_uris":{"android":"levelo://app?vid=08840a80-6a37-49eb-9919-4863b94014a3","ios":"levelo://app?vid=08840a80-6a37-49eb-9919-4863b94014a3"},"vehicle_type_id":"4","last_reported":1725728865,"current_range_meters":1600,"station_id":"ce4bgvh2rcd13ifvqcs0","pricing_plan_id":"cebpf4jnsgd1na2vs0mg"},{"bike_id":"1cd8b173-c96d-469e-ba5d-fb37ea4ca234","system_id":"levelo_inurba_marseille","lat":43.302759,"lon":5.400793,"is_reserved":false,"is_disabled":false,"rental_uris":{"android":"levelo://app?vid=1cd8b173-c96d-469e-ba5d-fb37ea4ca234","ios":"levelo://app?vid=1cd8b173-c96d-469e-ba5d-fb37ea4ca234"},"vehicle_type_id":"4","last_reported":1725728865,"current_range_meters":1600,"station_id":"ce4bgvh2rcd13ifvqcs0","pricing_plan_id":"cebpf4jnsgd1na2vs0mg"},{"bike_id":"5d42c232-5de1-4098-bdaf-cbdcae6e9d6f","system_id":"levelo_inurba_marseille","lat":43.29027,"lon":5.38644,"is_reserved":false,"is_disabled":false,"rental_uris":{"android":"levelo://app?vid=5d42c232-5de1-4098-bdaf-cbdcae6e9d6f","ios":"levelo://app?vid=5d42c232-5de1-4098-bdaf-cbdcae6e9d6f"},"vehicle_type_id":"4","last_reported":1725728865,"current_range_meters":0,"station_id":"ce4bh4p2rcd13ifvqe0g","pricing_plan_id":"cebpf4jnsgd1na2vs0mg"},{"bike_id":"cf372b8e-38c3-45b0-8da6-c0da230c3349","system_id":"levelo_inurba_marseille","lat":43.290336,"lon":5.386425,"is_reserved":false,"is_disabled":false,"rental_uris":{"android":"levelo://app?vid=cf372b8e-38c3-45b0-8da6-c0da230c3349","ios":"levelo://app?vid=cf372b8e-38c3-45b0-8da6-c0da230c3349"},"vehicle_type_id":"4","last_reported":1725728865,"current_range_meters":800,"station_id":"ce4bh4p2rcd13ifvqe0g","pricing_plan_id":"cebpf4jnsgd1na2vs0mg"},{"bike_id":"67c374cb-e445-40ae-a691-1e143c42874d","system_id":"levelo_inurba_marseille","lat":43.28611,"lon":5.37058,"is_reserved":false,"is_disabled":false,"rental_uris":{"android":"levelo://app?vid=67c374cb-e445-40ae-a691-1e143c42874d","ios":"levelo://app?vid=67c374cb-e445-40ae-a691-1e143c42874d"},"vehicle_type_id":"4","last_reported":1725728865,"current_range_meters":2800,"station_id":"ce4bht12rcd13ifvqi60","pricing_plan_id":"cebpf4jnsgd1na2vs0mg"},{"bike_id":"b256311d-387b-4732-a387-00bd548f98a4","system_id":"levelo_inurba_marseille","lat":43.286039,"lon":5.370679,"is_reserved":false,"is_disabled":false,"rental_uris":{"android":"levelo://app?vid=b256311d-387b-4732-a387-00bd548f98a4","ios":"levelo://app?vid=b256311d-387b-4732-a387-00bd548f98a4"},"vehicle_type_id":"4","last_reported":1725728865,"current_range_meters":29600,"station_id":"ce4bht12rcd13ifvqi60","pricing_plan_id":"cebpf4jnsgd1na2vs0mg"},{"bike_id":"6ce3f185-4139-42a1-a70e-c0b5041cb827","system_id":"levelo_inurba_marseille","lat":43.286039,"lon":5.370679,"is_reserved":false,"is_disabled":false,"rental_uris":{"android":"levelo://app?vid=6ce3f185-4139-42a1-a70e-c0b5041cb827","ios":"levelo://app?vid=6ce3f185-4139-42a1-a70e-c0b5041cb827"},"vehicle_type_id":"4","last_reported":1725728865,"current_range_meters":9600,"station_id":"ce4bht12rcd13ifvqi60","pricing_plan_id":"cebpf4jnsgd1na2vs0mg"},{"bike_id":"c136299d-e479-4c96-a8b0-7316b5075f17","system_id":"levelo_inurba_marseille","lat":43.286039,"lon":5.370679,"is_reserved":false,"is_disabled":false,"rental_uris":{"android":"levelo://app?vid=c136299d-e479-4c96-a8b0-7316b5075f17","ios":"levelo://app?vid=c136299d-e479-4c96-a8b0-7316b5075f17"},"vehicle_type_id":"4","last_reported":1725728865,"current_range_meters":4800,"station_id":"ce4bht12rcd13ifvqi60","pricing_plan_id":"cebpf4jnsgd1na2vs0mg"},{"bike_id":"d8ae768e-774d-41dc-9869-2a072adefdf8","system_id":"levelo_inurba_marseille","lat":43.286039,"lon":5.370679,"is_reserved":false,"is_disabled":false,"rental_uris":{"android":"levelo://app?vid=d8ae768e-774d-41dc-9869-2a072adefdf8","ios":"levelo://app?vid=d8ae768e-774d-41dc-9869-2a072adefdf8"},"vehicle_type_id":"4","last_reported":1725728865,"current_range_meters":23600,"station_id":"ce4bht12rcd13ifvqi60","pricing_plan_id":"cebpf4jnsgd1na2vs0mg"},{"bike_id":"125bdfa3-3abc-4d99-aee4-c8a2c3b7a63d","system_id":"levelo_inurba_marseille","lat":43.2872,"lon":5.37942,"is_reserved":false,"is_disabled":false,"rental_uris":{"android":"levelo://app?vid=125bdfa3-3abc-4d99-aee4-c8a2c3b7a63d","ios":"levelo://app?vid=125bdfa3-3abc-4d99-aee4-c8a2c3b7a63d"},"vehicle_type_id":"4","last_reported":1725728865,"current_range_meters":0,"station_id":"ce4bh9p2rcd13ifvqec0","pricing_plan_id":"cebpf4jnsgd1na2vs0mg"},{"bike_id":"990d0123-6239-431a-a529-8a243d4981ad","system_id":"levelo_inurba_marseille","lat":43.287184,"lon":5.37937,"is_reserved":false,"is_disabled":false,"rental_uris":{"android":"levelo://app?vid=990d0123-6239-431a-a529-8a243d4981ad","ios":"levelo://app?vid=990d0123-6239-431a-a529-8a243d4981ad"},"vehicle_type_id":"4","last_reported":1725728865,"current_range_meters":13600,"station_id":"ce4bh9p2rcd13ifvqec0","pricing_plan_id":"cebpf4jnsgd1na2vs0mg"},{"bike_id":"4c4b8b60-dd62-4c79-9aef-c38814531b19","system_id":"levelo_inurba_marseille","lat":43.287184,"lon":5.37937,"is_reserved":false,"is_disabled":false,"rental_uris":{"android":"levelo://app?vid=4c4b8b60-dd62-4c79-9aef-c38814531b19","ios":"levelo://app?vid=4c4b8b60-dd62-4c79-9aef-c38814531b19"},"vehicle_type_id":"4","last_reported":1725728865,"current_range_meters":4400,"station_id":"ce4bh9p2rcd13ifvqec0","pricing_plan_id":"cebpf4jnsgd1na2vs0mg"},{"bike_id":"bf166c58-80c8-4f53-87fd-47f8bbb5a8ab","system_id":"levelo_inurba_marseille","lat":43.291994,"lon":5.392907,"is_reserved":false,"is_disabled":false,"rental_uris":{"android":"levelo://app?vid=bf166c58-80c8-4f53-87fd-47f8bbb5a8ab","ios":"levelo://app?vid=bf166c58-80c8-4f53-87fd-47f8bbb5a8ab"},"vehicle_type_id":"4","last_reported":1725728865,"current_range_meters":0,"station_id":"ce4bh192rcd13ifvqdd0","pricing_plan_id":"cebpf4jnsgd1na2vs0mg"},{"bike_id":"33b160a1-f827-4e7f-8aab-79671d28a0c6","system_id":"levelo_inurba_marseille","lat":43.291994,"lon":5.392907,"is_reserved":false,"is_disabled":false,"rental_uris":{"android":"levelo://app?vid=33b160a1-f827-4e7f-8aab-79671d28a0c6","ios":"levelo://app?vid=33b160a1-f827-4e7f-8aab-79671d28a0c6"},"vehicle_type_id":"4","last_reported":1725728865,"current_range_meters":0,"station_id":"ce4bh192rcd13ifvqdd0","pricing_plan_id":"cebpf4jnsgd1na2vs0mg"},{"bike_id":"737dd204-5f2d-4ddd-823d-0ba53ac6895e","system_id":"levelo_inurba_marseille","lat":43.284534,"lon":5.358662,"is_reserved":false,"is_disabled":false,"rental_uris":{"android":"levelo://app?vid=737dd204-5f2d-4ddd-823d-0ba53ac6895e","ios":"levelo://app?vid=737dd204-5f2d-4ddd-823d-0ba53ac6895e"},"vehicle_type_id":"4","last_reported":1725728865,"current_range_meters":11200,"station_id":"ce4bhah2rcd13ifvqei0","pricing_plan_id":"cebpf4jnsgd1na2vs0mg"},{"bike_id":"a1cda6a3-4ee5-4654-8ee3-c882772be120","system_id":"levelo_inurba_marseille","lat":43.303256,"lon":5.404389,"is_reserved":false,"is_disabled":false,"rental_uris":{"android":"levelo://app?vid=a1cda6a3-4ee5-4654-8ee3-c882772be120","ios":"levelo://app?vid=a1cda6a3-4ee5-4654-8ee3-c882772be120"},"vehicle_type_id":"4","last_reported":1725728865,"current_range_meters":3200,"station_id":"ce4bh012rcd13ifvqd10","pricing_plan_id":"cebpf4jnsgd1na2vs0mg"},{"bike_id":"87d210b1-8560-4656-9bcf-323898357391","system_id":"levelo_inurba_marseille","lat":43.303256,"lon":5.404389,"is_reserved":false,"is_disabled":false,"rental_uris":{"android":"levelo://app?vid=87d210b1-8560-4656-9bcf-323898357391","ios":"levelo://app?vid=87d210b1-8560-4656-9bcf-323898357391"},"vehicle_type_id":"4","last_reported":1725728865,"current_range_meters":0,"station_id":"ce4bh012rcd13ifvqd10","pricing_plan_id":"cebpf4jnsgd1na2vs0mg"},{"bike_id":"67c8b43e-4aca-4735-a9dd-7484764b4986","system_id":"levelo_inurba_marseille","lat":43.294314,"lon":5.397498,"is_reserved":false,"is_disabled":false,"rental_uris":{"android":"levelo://app?vid=67c8b43e-4aca-4735-a9dd-7484764b4986","ios":"levelo://app?vid=67c8b43e-4aca-4735-a9dd-7484764b4986"},"vehicle_type_id":"4","last_reported":1725728865,"current_range_meters":4400,"station_id":"ce4bh3h2rcd13ifvqdo0","pricing_plan_id":"cebpf4jnsgd1na2vs0mg"},{"bike_id":"6c7758a4-9c38-42fc-b062-a27d1f7cbff9","system_id":"levelo_inurba_marseille","lat":43.286213,"lon":5.351104,"is_reserved":false,"is_disabled":false,"rental_uris":{"android":"levelo://app?vid=6c7758a4-9c38-42fc-b062-a27d1f7cbff9","ios":"levelo://app?vid=6c7758a4-9c38-42fc-b062-a27d1f7cbff9"},"vehicle_type_id":"4","last_reported":1725728865,"current_range_meters":24000,"station_id":"ce4bgi92rcd13ifvqb90","pricing_plan_id":"cebpf4jnsgd1na2vs0mg"},{"bike_id":"8bc00d8b-1049-4de6-a76a-6aeeb30f65ce","system_id":"levelo_inurba_marseille","lat":43.283998,"lon":5.375062,"is_reserved":false,"is_disabled":false,"rental_uris":{"android":"levelo://app?vid=8bc00d8b-1049-4de6-a76a-6aeeb30f65ce","ios":"levelo://app?vid=8bc00d8b-1049-4de6-a76a-6aeeb30f65ce"},"vehicle_type_id":"4","last_reported":1725728865,"current_range_meters":3600,"station_id":"ce4bh412rcd13ifvqds0","pricing_plan_id":"cebpf4jnsgd1na2vs0mg"},{"bike_id":"4da687d2-db5a-4446-81a1-63c8d4b6f575","system_id":"levelo_inurba_marseille","lat":43.283998,"lon":5.375062,"is_reserved":false,"is_disabled":false,"rental_uris":{"android":"levelo://app?vid=4da687d2-db5a-4446-81a1-63c8d4b6f575","ios":"levelo://app?vid=4da687d2-db5a-4446-81a1-63c8d4b6f575"},"vehicle_type_id":"4","last_reported":1725728865,"current_range_meters":1200,"station_id":"ce4bh412rcd13ifvqds0","pricing_plan_id":"cebpf4jnsgd1na2vs0mg"},{"bike_id":"6f9c2158-0434-49a5-a696-65b4a76fb06a","system_id":"levelo_inurba_marseille","lat":43.28413,"lon":5.37532,"is_reserved":false,"is_disabled":false,"rental_uris":{"android":"levelo://app?vid=6f9c2158-0434-49a5-a696-65b4a76fb06a","ios":"levelo://app?vid=6f9c2158-0434-49a5-a696-65b4a76fb06a"},"vehicle_type_id":"4","last_reported":1725728865,"current_range_meters":0,"station_id":"ce4bh412rcd13ifvqds0","pricing_plan_id":"cebpf4jnsgd1na2vs0mg"},{"bike_id":"73755a07-7bd6-4a2e-890d-58c83571de61","system_id":"levelo_inurba_marseille","lat":43.295713,"lon":5.399639,"is_reserved":false,"is_disabled":false,"rental_uris":{"android":"levelo://app?vid=73755a07-7bd6-4a2e-890d-58c83571de61","ios":"levelo://app?vid=73755a07-7bd6-4a2e-890d-58c83571de61"},"vehicle_type_id":"4","last_reported":1725728865,"current_range_meters":20800,"station_id":"ce4bh312rcd13ifvqdj0","pricing_plan_id":"cebpf4jnsgd1na2vs0mg"},{"bike_id":"ebd3be70-d337-4eab-bb98-3f0a3a7d0112","system_id":"levelo_inurba_marseille","lat":43.286595,"lon":5.386795,"is_reserved":false,"is_disabled":false,"rental_uris":{"android":"levelo://app?vid=ebd3be70-d337-4eab-bb98-3f0a3a7d0112","ios":"levelo://app?vid=ebd3be70-d337-4eab-bb98-3f0a3a7d0112"},"vehicle_type_id":"4","last_reported":1725728865,"current_range_meters":5200,"station_id":"ce4bh492rcd13ifvqdug","pricing_plan_id":"cebpf4jnsgd1na2vs0mg"},{"bike_id":"5fed1784-3952-482e-ac58-405868f201b1","system_id":"levelo_inurba_marseille","lat":43.31892,"lon":5.40734,"is_reserved":false,"is_disabled":false,"rental_uris":{"android":"levelo://app?vid=5fed1784-3952-482e-ac58-405868f201b1","ios":"levelo://app?vid=5fed1784-3952-482e-ac58-405868f201b1"},"vehicle_type_id":"4","last_reported":1725728865,"current_range_meters":0,"station_id":"ce4bhq12rcd13ifvqhig","pricing_plan_id":"cebpf4jnsgd1na2vs0mg"},{"bike_id":"de21396b-b0cd-4092-95f9-5f89e228f9f1","system_id":"levelo_inurba_marseille","lat":43.33717,"lon":5.391857,"is_reserved":false,"is_disabled":false,"rental_uris":{"android":"levelo://app?vid=de21396b-b0cd-4092-95f9-5f89e228f9f1","ios":"levelo://app?vid=de21396b-b0cd-4092-95f9-5f89e228f9f1"},"vehicle_type_id":"4","last_reported":1725728865,"current_range_meters":20400,"station_id":"ce4bhr92rcd13ifvqhsg","pricing_plan_id":"cebpf4jnsgd1na2vs0mg"},{"bike_id":"8a9da309-dafc-4002-8511-e42cf9ff13c4","system_id":"levelo_inurba_marseille","lat":43.323464,"lon":5.406297,"is_reserved":false,"is_disabled":false,"rental_uris":{"android":"levelo://app?vid=8a9da309-dafc-4002-8511-e42cf9ff13c4","ios":"levelo://app?vid=8a9da309-dafc-4002-8511-e42cf9ff13c4"},"vehicle_type_id":"4","last_reported":1725728865,"current_range_meters":32000,"station_id":"ce4bhq92rcd13ifvqhjg","pricing_plan_id":"cebpf4jnsgd1na2vs0mg"},{"bike_id":"7e92c364-ea1e-4355-baf6-32ed542b399f","system_id":"levelo_inurba_marseille","lat":43.323464,"lon":5.406297,"is_reserved":false,"is_disabled":false,"rental_uris":{"android":"levelo://app?vid=7e92c364-ea1e-4355-baf6-32ed542b399f","ios":"levelo://app?vid=7e92c364-ea1e-4355-baf6-32ed542b399f"},"vehicle_type_id":"4","last_reported":1725728865,"current_range_meters":5200,"station_id":"ce4bhq92rcd13ifvqhjg","pricing_plan_id":"cebpf4jnsgd1na2vs0mg"},{"bike_id":"3311a1a9-0606-4c84-baff-a7b71893f74c","system_id":"levelo_inurba_marseille","lat":43.297946,"lon":5.404063,"is_reserved":false,"is_disabled":false,"rental_uris":{"android":"levelo://app?vid=3311a1a9-0606-4c84-baff-a7b71893f74c","ios":"levelo://app?vid=3311a1a9-0606-4c84-baff-a7b71893f74c"},"vehicle_type_id":"4","last_reported":1725728865,"current_range_meters":20400,"station_id":"ce4bh112rcd13ifvqd90","pricing_plan_id":"cebpf4jnsgd1na2vs0mg"},{"bike_id":"d60e3047-f15a-4942-af13-d423911313c4","system_id":"levelo_inurba_marseille","lat":43.284695,"lon":5.38406,"is_reserved":false,"is_disabled":false,"rental_uris":{"android":"levelo://app?vid=d60e3047-f15a-4942-af13-d423911313c4","ios":"levelo://app?vid=d60e3047-f15a-4942-af13-d423911313c4"},"vehicle_type_id":"4","last_reported":1725728865,"current_range_meters":0,"station_id":"ce4bh512rcd13ifvqe3g","pricing_plan_id":"cebpf4jnsgd1na2vs0mg"},{"bike_id":"de2b00f0-dc03-4fe1-b29d-af983ceb7d69","system_id":"levelo_inurba_marseille","lat":43.284793,"lon":5.384119,"is_reserved":false,"is_disabled":false,"rental_uris":{"android":"levelo://app?vid=de2b00f0-dc03-4fe1-b29d-af983ceb7d69","ios":"levelo://app?vid=de2b00f0-dc03-4fe1-b29d-af983ceb7d69"},"vehicle_type_id":"4","last_reported":1725728865,"current_range_meters":29600,"station_id":"ce4bh512rcd13ifvqe3g","pricing_plan_id":"cebpf4jnsgd1na2vs0mg"},{"bike_id":"1915262d-fcbc-4a1c-9b1a-9db973a49d61","system_id":"levelo_inurba_marseille","lat":43.297946,"lon":5.404063,"is_reserved":false,"is_disabled":false,"rental_uris":{"android":"levelo://app?vid=1915262d-fcbc-4a1c-9b1a-9db973a49d61","ios":"levelo://app?vid=1915262d-fcbc-4a1c-9b1a-9db973a49d61"},"vehicle_type_id":"4","last_reported":1725728865,"current_range_meters":12800,"station_id":"ce4bh112rcd13ifvqd90","pricing_plan_id":"cebpf4jnsgd1na2vs0mg"},{"bike_id":"874729c8-806c-4e94-b16b-477fcbf9ad90","system_id":"levelo_inurba_marseille","lat":43.319179,"lon":5.407725,"is_reserved":false,"is_disabled":false,"rental_uris":{"android":"levelo://app?vid=874729c8-806c-4e94-b16b-477fcbf9ad90","ios":"levelo://app?vid=874729c8-806c-4e94-b16b-477fcbf9ad90"},"vehicle_type_id":"4","last_reported":1725728865,"current_range_meters":0,"station_id":"ce4bhq12rcd13ifvqhig","pricing_plan_id":"cebpf4jnsgd1na2vs0mg"},{"bike_id":"e8490dc1-fbd8-4610-853a-3d890ebd69ec","system_id":"levelo_inurba_marseille","lat":43.288501,"lon":5.393087,"is_reserved":false,"is_disabled":false,"rental_uris":{"android":"levelo://app?vid=e8490dc1-fbd8-4610-853a-3d890ebd69ec","ios":"levelo://app?vid=e8490dc1-fbd8-4610-853a-3d890ebd69ec"},"vehicle_type_id":"4","last_reported":1725728865,"current_range_meters":6800,"station_id":"ce4bh2p2rcd13ifvqdi0","pricing_plan_id":"cebpf4jnsgd1na2vs0mg"},{"bike_id":"2c8b1164-8c82-43e1-8e66-cff3c76440fb","system_id":"levelo_inurba_marseille","lat":43.283498,"lon":5.380948,"is_reserved":false,"is_disabled":false,"rental_uris":{"android":"levelo://app?vid=2c8b1164-8c82-43e1-8e66-cff3c76440fb","ios":"levelo://app?vid=2c8b1164-8c82-43e1-8e66-cff3c76440fb"},"vehicle_type_id":"4","last_reported":1725728865,"current_range_meters":2000,"station_id":"ce4bh412rcd13ifvqdr0","pricing_plan_id":"cebpf4jnsgd1na2vs0mg"},{"bike_id":"fd8dd8a1-dbcc-425b-92c7-2656caa765b0","system_id":"levelo_inurba_marseille","lat":43.283494,"lon":5.380945,"is_reserved":false,"is_disabled":false,"rental_uris":{"android":"levelo://app?vid=fd8dd8a1-dbcc-425b-92c7-2656caa765b0","ios":"levelo://app?vid=fd8dd8a1-dbcc-425b-92c7-2656caa765b0"},"vehicle_type_id":"4","last_reported":1725728865,"current_range_meters":0,"station_id":"ce4bh412rcd13ifvqdr0","pricing_plan_id":"cebpf4jnsgd1na2vs0mg"},{"bike_id":"ea62842c-48b5-4386-a9c5-c0269e06ebbc","system_id":"levelo_inurba_marseille","lat":43.283494,"lon":5.380945,"is_reserved":false,"is_disabled":false,"rental_uris":{"android":"levelo://app?vid=ea62842c-48b5-4386-a9c5-c0269e06ebbc","ios":"levelo://app?vid=ea62842c-48b5-4386-a9c5-c0269e06ebbc"},"vehicle_type_id":"4","last_reported":1725728865,"current_range_meters":0,"station_id":"ce4bh412rcd13ifvqdr0","pricing_plan_id":"cebpf4jnsgd1na2vs0mg"},{"bike_id":"0014069c-64df-420a-be0d-41ca068e62c4","system_id":"levelo_inurba_marseille","lat":43.28417,"lon":5.34978,"is_reserved":false,"is_disabled":false,"rental_uris":{"android":"levelo://app?vid=0014069c-64df-420a-be0d-41ca068e62c4","ios":"levelo://app?vid=0014069c-64df-420a-be0d-41ca068e62c4"},"vehicle_type_id":"4","last_reported":1725728865,"current_range_meters":0,"station_id":"ce4bhbh2rcd13ifvqepg","pricing_plan_id":"cebpf4jnsgd1na2vs0mg"},{"bike_id":"98130442-cb35-4503-b05e-7303f2b17b8e","system_id":"levelo_inurba_marseille","lat":43.282754,"lon":5.350519,"is_reserved":false,"is_disabled":false,"rental_uris":{"android":"levelo://app?vid=98130442-cb35-4503-b05e-7303f2b17b8e","ios":"levelo://app?vid=98130442-cb35-4503-b05e-7303f2b17b8e"},"vehicle_type_id":"4","last_reported":1725728865,"current_range_meters":2400,"station_id":"ce4bhbp2rcd13ifvqerg","pricing_plan_id":"cebpf4jnsgd1na2vs0mg"},{"bike_id":"5d55aec0-d462-4c97-862f-910fabbf0882","system_id":"levelo_inurba_marseille","lat":43.28279,"lon":5.3507,"is_reserved":false,"is_disabled":false,"rental_uris":{"android":"levelo://app?vid=5d55aec0-d462-4c97-862f-910fabbf0882","ios":"levelo://app?vid=5d55aec0-d462-4c97-862f-910fabbf0882"},"vehicle_type_id":"4","last_reported":1725728865,"current_range_meters":0,"station_id":"ce4bhbp2rcd13ifvqerg","pricing_plan_id":"cebpf4jnsgd1na2vs0mg"},{"bike_id":"0eda8cf1-5c4d-4dca-bb92-33fc93a5be2b","system_id":"levelo_inurba_marseille","lat":43.28277,"lon":5.35069,"is_reserved":false,"is_disabled":false,"rental_uris":{"android":"levelo://app?vid=0eda8cf1-5c4d-4dca-bb92-33fc93a5be2b","ios":"levelo://app?vid=0eda8cf1-5c4d-4dca-bb92-33fc93a5be2b"},"vehicle_type_id":"4","last_reported":1725728865,"current_range_meters":0,"station_id":"ce4bhbp2rcd13ifvqerg","pricing_plan_id":"cebpf4jnsgd1na2vs0mg"},{"bike_id":"a303a926-a5d1-4a18-902b-f7e0d744d284","system_id":"levelo_inurba_marseille","lat":43.28271,"lon":5.3507,"is_reserved":false,"is_disabled":false,"rental_uris":{"android":"levelo://app?vid=a303a926-a5d1-4a18-902b-f7e0d744d284","ios":"levelo://app?vid=a303a926-a5d1-4a18-902b-f7e0d744d284"},"vehicle_type_id":"4","last_reported":1725728865,"current_range_meters":0,"station_id":"ce4bhbp2rcd13ifvqerg","pricing_plan_id":"cebpf4jnsgd1na2vs0mg"},{"bike_id":"9aa7b9ad-861e-4a1b-99f8-e8d624999476","system_id":"levelo_inurba_marseille","lat":43.283502,"lon":5.386471,"is_reserved":false,"is_disabled":false,"rental_uris":{"android":"levelo://app?vid=9aa7b9ad-861e-4a1b-99f8-e8d624999476","ios":"levelo://app?vid=9aa7b9ad-861e-4a1b-99f8-e8d624999476"},"vehicle_type_id":"4","last_reported":1725728865,"current_range_meters":28000,"station_id":"ce4bh492rcd13ifvqdvg","pricing_plan_id":"cebpf4jnsgd1na2vs0mg"},{"bike_id":"161035a8-91de-4184-9290-1a7cb5dee8e3","system_id":"levelo_inurba_marseille","lat":43.283502,"lon":5.386471,"is_reserved":false,"is_disabled":false,"rental_uris":{"android":"levelo://app?vid=161035a8-91de-4184-9290-1a7cb5dee8e3","ios":"levelo://app?vid=161035a8-91de-4184-9290-1a7cb5dee8e3"},"vehicle_type_id":"4","last_reported":1725728865,"current_range_meters":16800,"station_id":"ce4bh492rcd13ifvqdvg","pricing_plan_id":"cebpf4jnsgd1na2vs0mg"},{"bike_id":"d86c3d25-08f3-439c-8967-901c38acc70f","system_id":"levelo_inurba_marseille","lat":43.28361,"lon":5.38632,"is_reserved":false,"is_disabled":false,"rental_uris":{"android":"levelo://app?vid=d86c3d25-08f3-439c-8967-901c38acc70f","ios":"levelo://app?vid=d86c3d25-08f3-439c-8967-901c38acc70f"},"vehicle_type_id":"4","last_reported":1725728865,"current_range_meters":400,"station_id":"ce4bh492rcd13ifvqdvg","pricing_plan_id":"cebpf4jnsgd1na2vs0mg"},{"bike_id":"44dd7d48-dd04-49b5-862b-cb7df8abbedc","system_id":"levelo_inurba_marseille","lat":43.283502,"lon":5.386471,"is_reserved":false,"is_disabled":false,"rental_uris":{"android":"levelo://app?vid=44dd7d48-dd04-49b5-862b-cb7df8abbedc","ios":"levelo://app?vid=44dd7d48-dd04-49b5-862b-cb7df8abbedc"},"vehicle_type_id":"4","last_reported":1725728865,"current_range_meters":26000,"station_id":"ce4bh492rcd13ifvqdvg","pricing_plan_id":"cebpf4jnsgd1na2vs0mg"},{"bike_id":"160fb8a8-bb68-4fb3-96f5-b0f2e21267ae","system_id":"levelo_inurba_marseille","lat":43.283502,"lon":5.386471,"is_reserved":false,"is_disabled":false,"rental_uris":{"android":"levelo://app?vid=160fb8a8-bb68-4fb3-96f5-b0f2e21267ae","ios":"levelo://app?vid=160fb8a8-bb68-4fb3-96f5-b0f2e21267ae"},"vehicle_type_id":"4","last_reported":1725728865,"current_range_meters":2800,"station_id":"ce4bh492rcd13ifvqdvg","pricing_plan_id":"cebpf4jnsgd1na2vs0mg"},{"bike_id":"bfe66749-f78a-4807-9b55-23591e13e343","system_id":"levelo_inurba_marseille","lat":43.281044,"lon":5.378308,"is_reserved":false,"is_disabled":false,"rental_uris":{"android":"levelo://app?vid=bfe66749-f78a-4807-9b55-23591e13e343","ios":"levelo://app?vid=bfe66749-f78a-4807-9b55-23591e13e343"},"vehicle_type_id":"4","last_reported":1725728865,"current_range_meters":0,"station_id":"ce4bha12rcd13ifvqee0","pricing_plan_id":"cebpf4jnsgd1na2vs0mg"},{"bike_id":"35686908-f715-460a-a6d2-0989cd333723","system_id":"levelo_inurba_marseille","lat":43.296263,"lon":5.40601,"is_reserved":false,"is_disabled":false,"rental_uris":{"android":"levelo://app?vid=35686908-f715-460a-a6d2-0989cd333723","ios":"levelo://app?vid=35686908-f715-460a-a6d2-0989cd333723"},"vehicle_type_id":"4","last_reported":1725728865,"current_range_meters":24400,"station_id":"ce4bh0h2rcd13ifvqd60","pricing_plan_id":"cebpf4jnsgd1na2vs0mg"},{"bike_id":"b72e7c26-8a8c-44a3-8fb7-ffcbc16cc4d2","system_id":"levelo_inurba_marseille","lat":43.296263,"lon":5.40601,"is_reserved":false,"is_disabled":false,"rental_uris":{"android":"levelo://app?vid=b72e7c26-8a8c-44a3-8fb7-ffcbc16cc4d2","ios":"levelo://app?vid=b72e7c26-8a8c-44a3-8fb7-ffcbc16cc4d2"},"vehicle_type_id":"4","last_reported":1725728865,"current_range_meters":3600,"station_id":"ce4bh0h2rcd13ifvqd60","pricing_plan_id":"cebpf4jnsgd1na2vs0mg"},{"bike_id":"59cdbb29-5fda-40ba-97ba-9a74c4575941","system_id":"levelo_inurba_marseille","lat":43.281044,"lon":5.378308,"is_reserved":false,"is_disabled":false,"rental_uris":{"android":"levelo://app?vid=59cdbb29-5fda-40ba-97ba-9a74c4575941","ios":"levelo://app?vid=59cdbb29-5fda-40ba-97ba-9a74c4575941"},"vehicle_type_id":"4","last_reported":1725728865,"current_range_meters":2400,"station_id":"ce4bha12rcd13ifvqee0","pricing_plan_id":"cebpf4jnsgd1na2vs0mg"},{"bike_id":"15c49a71-f178-4bad-ba91-3c6cca02368b","system_id":"levelo_inurba_marseille","lat":43.340784,"lon":5.390865,"is_reserved":false,"is_disabled":false,"rental_uris":{"android":"levelo://app?vid=15c49a71-f178-4bad-ba91-3c6cca02368b","ios":"levelo://app?vid=15c49a71-f178-4bad-ba91-3c6cca02368b"},"vehicle_type_id":"4","last_reported":1725728865,"current_range_meters":20000,"station_id":"","pricing_plan_id":"cebpf4jnsgd1na2vs0mg"},{"bike_id":"299165d4-bb75-4c3d-9bdc-af04c2d28269","system_id":"levelo_inurba_marseille","lat":43.28444,"lon":5.39181,"is_reserved":false,"is_disabled":false,"rental_uris":{"android":"levelo://app?vid=299165d4-bb75-4c3d-9bdc-af04c2d28269","ios":"levelo://app?vid=299165d4-bb75-4c3d-9bdc-af04c2d28269"},"vehicle_type_id":"4","last_reported":1725728865,"current_range_meters":1200,"station_id":"ce4bhoh2rcd13ifvqh5g","pricing_plan_id":"cebpf4jnsgd1na2vs0mg"},{"bike_id":"ac666ea5-4cb0-48eb-85c7-24cd761460fa","system_id":"levelo_inurba_marseille","lat":43.284462,"lon":5.392121,"is_reserved":false,"is_disabled":false,"rental_uris":{"android":"levelo://app?vid=ac666ea5-4cb0-48eb-85c7-24cd761460fa","ios":"levelo://app?vid=ac666ea5-4cb0-48eb-85c7-24cd761460fa"},"vehicle_type_id":"4","last_reported":1725728865,"current_range_meters":1200,"station_id":"ce4bhoh2rcd13ifvqh5g","pricing_plan_id":"cebpf4jnsgd1na2vs0mg"},{"bike_id":"a6d03d86-c95e-4efd-9a03-2956094559cc","system_id":"levelo_inurba_marseille","lat":43.284462,"lon":5.392121,"is_reserved":false,"is_disabled":false,"rental_uris":{"android":"levelo://app?vid=a6d03d86-c95e-4efd-9a03-2956094559cc","ios":"levelo://app?vid=a6d03d86-c95e-4efd-9a03-2956094559cc"},"vehicle_type_id":"4","last_reported":1725728865,"current_range_meters":2400,"station_id":"ce4bhoh2rcd13ifvqh5g","pricing_plan_id":"cebpf4jnsgd1na2vs0mg"},{"bike_id":"06365a22-b331-465a-ba69-14860bd3285a","system_id":"levelo_inurba_marseille","lat":43.28434,"lon":5.3919,"is_reserved":false,"is_disabled":false,"rental_uris":{"android":"levelo://app?vid=06365a22-b331-465a-ba69-14860bd3285a","ios":"levelo://app?vid=06365a22-b331-465a-ba69-14860bd3285a"},"vehicle_type_id":"4","last_reported":1725728865,"current_range_meters":400,"station_id":"ce4bhoh2rcd13ifvqh5g","pricing_plan_id":"cebpf4jnsgd1na2vs0mg"},{"bike_id":"a784f87d-bca1-4be2-81f8-2d9fe4c48edd","system_id":"levelo_inurba_marseille","lat":43.285742,"lon":5.395004,"is_reserved":false,"is_disabled":false,"rental_uris":{"android":"levelo://app?vid=a784f87d-bca1-4be2-81f8-2d9fe4c48edd","ios":"levelo://app?vid=a784f87d-bca1-4be2-81f8-2d9fe4c48edd"},"vehicle_type_id":"4","last_reported":1725728865,"current_range_meters":23600,"station_id":"ce4bh292rcd13ifvqdg0","pricing_plan_id":"cebpf4jnsgd1na2vs0mg"},{"bike_id":"69b59004-791f-46b9-9372-100b1fd77bd3","system_id":"levelo_inurba_marseille","lat":43.28573,"lon":5.394992,"is_reserved":false,"is_disabled":false,"rental_uris":{"android":"levelo://app?vid=69b59004-791f-46b9-9372-100b1fd77bd3","ios":"levelo://app?vid=69b59004-791f-46b9-9372-100b1fd77bd3"},"vehicle_type_id":"4","last_reported":1725728865,"current_range_meters":0,"station_id":"ce4bh292rcd13ifvqdg0","pricing_plan_id":"cebpf4jnsgd1na2vs0mg"},{"bike_id":"a3de36df-8dfd-4dd3-9e0e-8d8ab85f1aac","system_id":"levelo_inurba_marseille","lat":43.28573,"lon":5.394992,"is_reserved":false,"is_disabled":false,"rental_uris":{"android":"levelo://app?vid=a3de36df-8dfd-4dd3-9e0e-8d8ab85f1aac","ios":"levelo://app?vid=a3de36df-8dfd-4dd3-9e0e-8d8ab85f1aac"},"vehicle_type_id":"4","last_reported":1725728865,"current_range_meters":28000,"station_id":"ce4bh292rcd13ifvqdg0","pricing_plan_id":"cebpf4jnsgd1na2vs0mg"},{"bike_id":"e37bcc10-7109-4864-b9b7-ee0873d5a9a9","system_id":"levelo_inurba_marseille","lat":43.32658,"lon":5.40987,"is_reserved":false,"is_disabled":false,"rental_uris":{"android":"levelo://app?vid=e37bcc10-7109-4864-b9b7-ee0873d5a9a9","ios":"levelo://app?vid=e37bcc10-7109-4864-b9b7-ee0873d5a9a9"},"vehicle_type_id":"4","last_reported":1725728865,"current_range_meters":3200,"station_id":"ce4bhpp2rcd13ifvqhgg","pricing_plan_id":"cebpf4jnsgd1na2vs0mg"},{"bike_id":"e6bb7793-e921-42d9-9225-a5048cf6a5ee","system_id":"levelo_inurba_marseille","lat":43.326605,"lon":5.409903,"is_reserved":false,"is_disabled":false,"rental_uris":{"android":"levelo://app?vid=e6bb7793-e921-42d9-9225-a5048cf6a5ee","ios":"levelo://app?vid=e6bb7793-e921-42d9-9225-a5048cf6a5ee"},"vehicle_type_id":"4","last_reported":1725728865,"current_range_meters":25600,"station_id":"ce4bhpp2rcd13ifvqhgg","pricing_plan_id":"cebpf4jnsgd1na2vs0mg"},{"bike_id":"5fd43792-509b-4a10-ae6d-dbfc9ea62d57","system_id":"levelo_inurba_marseille","lat":43.320045,"lon":5.415048,"is_reserved":false,"is_disabled":false,"rental_uris":{"android":"levelo://app?vid=5fd43792-509b-4a10-ae6d-dbfc9ea62d57","ios":"levelo://app?vid=5fd43792-509b-4a10-ae6d-dbfc9ea62d57"},"vehicle_type_id":"4","last_reported":1725728865,"current_range_meters":5600,"station_id":"ce4bhq92rcd13ifvqhkg","pricing_plan_id":"cebpf4jnsgd1na2vs0mg"},{"bike_id":"31f95d80-def0-4479-a735-1620a5327b49","system_id":"levelo_inurba_marseille","lat":43.278591,"lon":5.385005,"is_reserved":false,"is_disabled":false,"rental_uris":{"android":"levelo://app?vid=31f95d80-def0-4479-a735-1620a5327b49","ios":"levelo://app?vid=31f95d80-def0-4479-a735-1620a5327b49"},