{"last_updated":1738840037,"ttl":60,"version":"2.2","data":{"bikes":[{"bike_id":"9b310c92-efeb-4765-8a96-172429f0f07e","system_id":"levelo_inurba_marseille","lat":43.28849,"lon":5.35867,"is_reserved":false,"is_disabled":false,"rental_uris":{"android":"levelo://app?vid=9b310c92-efeb-4765-8a96-172429f0f07e","ios":"levelo://app?vid=9b310c92-efeb-4765-8a96-172429f0f07e"},"vehicle_type_id":"4","last_reported":1738840037,"current_range_meters":30800,"station_id":"ce4bhb12rcd13ifvqem0","pricing_plan_id":"cebpf4jnsgd1na2vs0mg"},{"bike_id":"c88a5332-299f-4c55-b376-657578c07d3a","system_id":"levelo_inurba_marseille","lat":43.25819,"lon":5.39442,"is_reserved":false,"is_disabled":false,"rental_uris":{"android":"levelo://app?vid=c88a5332-299f-4c55-b376-657578c07d3a","ios":"levelo://app?vid=c88a5332-299f-4c55-b376-657578c07d3a"},"vehicle_type_id":"4","last_reported":1738840037,"current_range_meters":32000,"station_id":"ce4bhip2rcd13ifvqft0","pricing_plan_id":"cebpf4jnsgd1na2vs0mg"},{"bike_id":"610fb8b2-ef24-429f-8026-ba3e2d414d35","system_id":"levelo_inurba_marseille","lat":43.33606,"lon":5.41034,"is_reserved":false,"is_disabled":false,"rental_uris":{"android":"levelo://app?vid=610fb8b2-ef24-429f-8026-ba3e2d414d35","ios":"levelo://app?vid=610fb8b2-ef24-429f-8026-ba3e2d414d35"},"vehicle_type_id":"4","last_reported":1738840037,"current_range_meters":38800,"station_id":"ce4bhqh2rcd13ifvqhmg","pricing_plan_id":"cebpf4jnsgd1na2vs0mg"},{"bike_id":"26ba1934-c8ef-48a9-980c-d71ca1604721","system_id":"levelo_inurba_marseille","lat":43.24644,"lon":5.38904,"is_reserved":false,"is_disabled":false,"rental_uris":{"android":"levelo://app?vid=26ba1934-c8ef-48a9-980c-d71ca1604721","ios":"levelo://app?vid=26ba1934-c8ef-48a9-980c-d71ca1604721"},"vehicle_type_id":"4","last_reported":1738840037,"current_range_meters":38800,"station_id":"ce4bhg12rcd13ifvqf60","pricing_plan_id":"cebpf4jnsgd1na2vs0mg"},{"bike_id":"c443640c-fefd-46d9-bc90-8ee343713138","system_id":"levelo_inurba_marseille","lat":43.31366,"lon":5.3849,"is_reserved":false,"is_disabled":false,"rental_uris":{"android":"levelo://app?vid=c443640c-fefd-46d9-bc90-8ee343713138","ios":"levelo://app?vid=c443640c-fefd-46d9-bc90-8ee343713138"},"vehicle_type_id":"4","last_reported":1738840037,"current_range_meters":38000,"station_id":"ce4bgt92rcd13ifvqcf0","pricing_plan_id":"cebpf4jnsgd1na2vs0mg"},{"bike_id":"f0039135-2578-45b0-a1ae-c96553845e81","system_id":"levelo_inurba_marseille","lat":43.29732,"lon":5.37692,"is_reserved":false,"is_disabled":true,"rental_uris":{"android":"levelo://app?vid=f0039135-2578-45b0-a1ae-c96553845e81","ios":"levelo://app?vid=f0039135-2578-45b0-a1ae-c96553845e81"},"vehicle_type_id":"4","last_reported":1738840037,"current_range_meters":36400,"station_id":"ce4bgkh2rcd13ifvqbl0","pricing_plan_id":"cebpf4jnsgd1na2vs0mg"},{"bike_id":"2f1cf415-09de-41aa-895a-9eee8998baaf","system_id":"levelo_inurba_marseille","lat":43.29561,"lon":5.42281,"is_reserved":false,"is_disabled":false,"rental_uris":{"android":"levelo://app?vid=2f1cf415-09de-41aa-895a-9eee8998baaf","ios":"levelo://app?vid=2f1cf415-09de-41aa-895a-9eee8998baaf"},"vehicle_type_id":"4","last_reported":1738840037,"current_range_meters":39200,"station_id":"ce4bhph2rcd13ifvqhdg","pricing_plan_id":"cebpf4jnsgd1na2vs0mg"},{"bike_id":"270055df-e2dc-4de1-ace3-72b321a4b5f6","system_id":"levelo_inurba_marseille","lat":43.27677,"lon":5.38936,"is_reserved":false,"is_disabled":false,"rental_uris":{"android":"levelo://app?vid=270055df-e2dc-4de1-ace3-72b321a4b5f6","ios":"levelo://app?vid=270055df-e2dc-4de1-ace3-72b321a4b5f6"},"vehicle_type_id":"4","last_reported":1738840037,"current_range_meters":23200,"station_id":"ce4bhi12rcd13ifvqfo0","pricing_plan_id":"cebpf4jnsgd1na2vs0mg"},{"bike_id":"51997805-f51c-47ae-934c-a5e9c9cf61e8","system_id":"levelo_inurba_marseille","lat":43.29522,"lon":5.39032,"is_reserved":false,"is_disabled":false,"rental_uris":{"android":"levelo://app?vid=51997805-f51c-47ae-934c-a5e9c9cf61e8","ios":"levelo://app?vid=51997805-f51c-47ae-934c-a5e9c9cf61e8"},"vehicle_type_id":"4","last_reported":1738840037,"current_range_meters":18000,"station_id":"ce4bh3p2rcd13ifvqdp0","pricing_plan_id":"cebpf4jnsgd1na2vs0mg"},{"bike_id":"98fd826c-0bf1-4b38-a3d1-66676766ed4b","system_id":"levelo_inurba_marseille","lat":43.30542,"lon":5.36713,"is_reserved":false,"is_disabled":true,"rental_uris":{"android":"levelo://app?vid=98fd826c-0bf1-4b38-a3d1-66676766ed4b","ios":"levelo://app?vid=98fd826c-0bf1-4b38-a3d1-66676766ed4b"},"vehicle_type_id":"4","last_reported":1738840037,"current_range_meters":38800,"station_id":"ce4bgrp2rcd13ifvqc9g","pricing_plan_id":"cebpf4jnsgd1na2vs0mg"},{"bike_id":"60efba71-1f79-4331-8e03-d1cbb62a05fd","system_id":"levelo_inurba_marseille","lat":43.23193,"lon":5.39985,"is_reserved":false,"is_disabled":false,"rental_uris":{"android":"levelo://app?vid=60efba71-1f79-4331-8e03-d1cbb62a05fd","ios":"levelo://app?vid=60efba71-1f79-4331-8e03-d1cbb62a05fd"},"vehicle_type_id":"4","last_reported":1738840037,"current_range_meters":17600,"station_id":"ce4bhn12rcd13ifvqgqg","pricing_plan_id":"cebpf4jnsgd1na2vs0mg"},{"bike_id":"77f5d716-2879-4cc5-9a5b-bf93a92f4800","system_id":"levelo_inurba_marseille","lat":43.29621,"lon":5.37156,"is_reserved":false,"is_disabled":false,"rental_uris":{"android":"levelo://app?vid=77f5d716-2879-4cc5-9a5b-bf93a92f4800","ios":"levelo://app?vid=77f5d716-2879-4cc5-9a5b-bf93a92f4800"},"vehicle_type_id":"4","last_reported":1738840037,"current_range_meters":36800,"station_id":"ce4bgnh2rcd13ifvqc0g","pricing_plan_id":"cebpf4jnsgd1na2vs0mg"},{"bike_id":"2eeb98e9-52c0-4f56-96e8-f2bdd905ad31","system_id":"levelo_inurba_marseille","lat":43.29791,"lon":5.40412,"is_reserved":false,"is_disabled":false,"rental_uris":{"android":"levelo://app?vid=2eeb98e9-52c0-4f56-96e8-f2bdd905ad31","ios":"levelo://app?vid=2eeb98e9-52c0-4f56-96e8-f2bdd905ad31"},"vehicle_type_id":"4","last_reported":1738840037,"current_range_meters":38800,"station_id":"ce4bh112rcd13ifvqd90","pricing_plan_id":"cebpf4jnsgd1na2vs0mg"},{"bike_id":"651d1907-1f17-497d-8669-68618f6db364","system_id":"levelo_inurba_marseille","lat":43.30424,"lon":5.41278,"is_reserved":false,"is_disabled":false,"rental_uris":{"android":"levelo://app?vid=651d1907-1f17-497d-8669-68618f6db364","ios":"levelo://app?vid=651d1907-1f17-497d-8669-68618f6db364"},"vehicle_type_id":"4","last_reported":1738840037,"current_range_meters":36800,"station_id":"ce4bhop2rcd13ifvqh8g","pricing_plan_id":"cebpf4jnsgd1na2vs0mg"},{"bike_id":"4dae68f0-2eaf-47d8-b06c-120ffbb5d0e5","system_id":"levelo_inurba_marseille","lat":43.28667,"lon":5.38654,"is_reserved":false,"is_disabled":false,"rental_uris":{"android":"levelo://app?vid=4dae68f0-2eaf-47d8-b06c-120ffbb5d0e5","ios":"levelo://app?vid=4dae68f0-2eaf-47d8-b06c-120ffbb5d0e5"},"vehicle_type_id":"4","last_reported":1738840037,"current_range_meters":36000,"station_id":"ce4bh492rcd13ifvqdug","pricing_plan_id":"cebpf4jnsgd1na2vs0mg"},{"bike_id":"48387a09-94e7-4db4-8a78-34cf00f146fa","system_id":"levelo_inurba_marseille","lat":43.29544,"lon":5.42273,"is_reserved":false,"is_disabled":false,"rental_uris":{"android":"levelo://app?vid=48387a09-94e7-4db4-8a78-34cf00f146fa","ios":"levelo://app?vid=48387a09-94e7-4db4-8a78-34cf00f146fa"},"vehicle_type_id":"4","last_reported":1738840037,"current_range_meters":22800,"station_id":"ce4bhph2rcd13ifvqhdg","pricing_plan_id":"cebpf4jnsgd1na2vs0mg"},{"bike_id":"2e2103ea-1862-4a7c-aebb-70a8bcb44f35","system_id":"levelo_inurba_marseille","lat":43.30479,"lon":5.36705,"is_reserved":false,"is_disabled":false,"rental_uris":{"android":"levelo://app?vid=2e2103ea-1862-4a7c-aebb-70a8bcb44f35","ios":"levelo://app?vid=2e2103ea-1862-4a7c-aebb-70a8bcb44f35"},"vehicle_type_id":"4","last_reported":1738840037,"current_range_meters":32400,"station_id":"ce4bgrp2rcd13ifvqc9g","pricing_plan_id":"cebpf4jnsgd1na2vs0mg"},{"bike_id":"93436f32-c9ca-48fd-adf7-e627183ce3b5","system_id":"levelo_inurba_marseille","lat":43.28717,"lon":5.37954,"is_reserved":false,"is_disabled":true,"rental_uris":{"android":"levelo://app?vid=93436f32-c9ca-48fd-adf7-e627183ce3b5","ios":"levelo://app?vid=93436f32-c9ca-48fd-adf7-e627183ce3b5"},"vehicle_type_id":"4","last_reported":1738840037,"current_range_meters":36000,"station_id":"ce4bh9p2rcd13ifvqec0","pricing_plan_id":"cebpf4jnsgd1na2vs0mg"},{"bike_id":"fa041172-745c-49ed-942f-eb70fbb1f908","system_id":"levelo_inurba_marseille","lat":43.25811,"lon":5.39447,"is_reserved":false,"is_disabled":false,"rental_uris":{"android":"levelo://app?vid=fa041172-745c-49ed-942f-eb70fbb1f908","ios":"levelo://app?vid=fa041172-745c-49ed-942f-eb70fbb1f908"},"vehicle_type_id":"4","last_reported":1738840037,"current_range_meters":11600,"station_id":"ce4bhip2rcd13ifvqft0","pricing_plan_id":"cebpf4jnsgd1na2vs0mg"},{"bike_id":"48c3441c-11db-44cf-b627-fa15456f0152","system_id":"levelo_inurba_marseille","lat":43.3415,"lon":5.40939,"is_reserved":false,"is_disabled":false,"rental_uris":{"android":"levelo://app?vid=48c3441c-11db-44cf-b627-fa15456f0152","ios":"levelo://app?vid=48c3441c-11db-44cf-b627-fa15456f0152"},"vehicle_type_id":"4","last_reported":1738840037,"current_range_meters":30000,"station_id":"ce4bhqh2rcd13ifvqhlg","pricing_plan_id":"cebpf4jnsgd1na2vs0mg"},{"bike_id":"dabda0f4-b7bc-4081-811a-b8b88e9d50be","system_id":"levelo_inurba_marseille","lat":43.262,"lon":5.37464,"is_reserved":false,"is_disabled":false,"rental_uris":{"android":"levelo://app?vid=dabda0f4-b7bc-4081-811a-b8b88e9d50be","ios":"levelo://app?vid=dabda0f4-b7bc-4081-811a-b8b88e9d50be"},"vehicle_type_id":"4","last_reported":1738840037,"current_range_meters":38800,"station_id":"ce4bhgp2rcd13ifvqfc0","pricing_plan_id":"cebpf4jnsgd1na2vs0mg"},{"bike_id":"7eaacd34-10f9-4246-8aa1-4a22e07a7c06","system_id":"levelo_inurba_marseille","lat":43.31633,"lon":5.37399,"is_reserved":false,"is_disabled":false,"rental_uris":{"android":"levelo://app?vid=7eaacd34-10f9-4246-8aa1-4a22e07a7c06","ios":"levelo://app?vid=7eaacd34-10f9-4246-8aa1-4a22e07a7c06"},"vehicle_type_id":"4","last_reported":1738840037,"current_range_meters":23200,"station_id":"","pricing_plan_id":"cebpf4jnsgd1na2vs0mg"},{"bike_id":"b85d0f36-4ceb-47ae-b932-72d8372ef081","system_id":"levelo_inurba_marseille","lat":43.23197,"lon":5.39988,"is_reserved":false,"is_disabled":false,"rental_uris":{"android":"levelo://app?vid=b85d0f36-4ceb-47ae-b932-72d8372ef081","ios":"levelo://app?vid=b85d0f36-4ceb-47ae-b932-72d8372ef081"},"vehicle_type_id":"4","last_reported":1738840037,"current_range_meters":37600,"station_id":"ce4bhn12rcd13ifvqgqg","pricing_plan_id":"cebpf4jnsgd1na2vs0mg"},{"bike_id":"c4e55077-4eb0-47e2-a96e-7f002bcfe838","system_id":"levelo_inurba_marseille","lat":43.324699,"lon":5.365786,"is_reserved":false,"is_disabled":false,"rental_uris":{"android":"levelo://app?vid=c4e55077-4eb0-47e2-a96e-7f002bcfe838","ios":"levelo://app?vid=c4e55077-4eb0-47e2-a96e-7f002bcfe838"},"vehicle_type_id":"4","last_reported":1738840037,"current_range_meters":32400,"station_id":"ce4bhs12rcd13ifvqhvg","pricing_plan_id":"cebpf4jnsgd1na2vs0mg"},{"bike_id":"f717f0cc-763b-4450-b94a-505865741c95","system_id":"levelo_inurba_marseille","lat":43.29007,"lon":5.3561,"is_reserved":false,"is_disabled":false,"rental_uris":{"android":"levelo://app?vid=f717f0cc-763b-4450-b94a-505865741c95","ios":"levelo://app?vid=f717f0cc-763b-4450-b94a-505865741c95"},"vehicle_type_id":"4","last_reported":1738840037,"current_range_meters":30000,"station_id":"ce4bhb92rcd13ifvqen0","pricing_plan_id":"cebpf4jnsgd1na2vs0mg"},{"bike_id":"bf30465c-5d09-47ab-ba56-6e7954972992","system_id":"levelo_inurba_marseille","lat":43.29025,"lon":5.35913,"is_reserved":false,"is_disabled":false,"rental_uris":{"android":"levelo://app?vid=bf30465c-5d09-47ab-ba56-6e7954972992","ios":"levelo://app?vid=bf30465c-5d09-47ab-ba56-6e7954972992"},"vehicle_type_id":"4","last_reported":1738840037,"current_range_meters":38800,"station_id":"ce4bha92rcd13ifvqeg0","pricing_plan_id":"cebpf4jnsgd1na2vs0mg"},{"bike_id":"c87f8282-3539-4b73-a4e4-ca920fa0becd","system_id":"levelo_inurba_marseille","lat":43.30905,"lon":5.36841,"is_reserved":false,"is_disabled":false,"rental_uris":{"android":"levelo://app?vid=c87f8282-3539-4b73-a4e4-ca920fa0becd","ios":"levelo://app?vid=c87f8282-3539-4b73-a4e4-ca920fa0becd"},"vehicle_type_id":"4","last_reported":1738840037,"current_range_meters":38800,"station_id":"ce4bgn92rcd13ifvqbvg","pricing_plan_id":"cebpf4jnsgd1na2vs0mg"},{"bike_id":"aa6e98be-02c1-4756-ba28-df9352f6794a","system_id":"levelo_inurba_marseille","lat":43.29965,"lon":5.3849,"is_reserved":false,"is_disabled":false,"rental_uris":{"android":"levelo://app?vid=aa6e98be-02c1-4756-ba28-df9352f6794a","ios":"levelo://app?vid=aa6e98be-02c1-4756-ba28-df9352f6794a"},"vehicle_type_id":"4","last_reported":1738840037,"current_range_meters":34800,"station_id":"ce4bgj92rcd13ifvqbd0","pricing_plan_id":"cebpf4jnsgd1na2vs0mg"},{"bike_id":"b7eb1d29-c5ee-4080-8f84-5619ceb2add1","system_id":"levelo_inurba_marseille","lat":43.3134,"lon":5.36735,"is_reserved":false,"is_disabled":false,"rental_uris":{"android":"levelo://app?vid=b7eb1d29-c5ee-4080-8f84-5619ceb2add1","ios":"levelo://app?vid=b7eb1d29-c5ee-4080-8f84-5619ceb2add1"},"vehicle_type_id":"4","last_reported":1738840037,"current_range_meters":37600,"station_id":"ce4bgr92rcd13ifvqc6g","pricing_plan_id":"cebpf4jnsgd1na2vs0mg"},{"bike_id":"d75f9115-d144-4ef8-94e0-5161522a8e9b","system_id":"levelo_inurba_marseille","lat":43.31764,"lon":5.39009,"is_reserved":false,"is_disabled":true,"rental_uris":{"android":"levelo://app?vid=d75f9115-d144-4ef8-94e0-5161522a8e9b","ios":"levelo://app?vid=d75f9115-d144-4ef8-94e0-5161522a8e9b"},"vehicle_type_id":"4","last_reported":1738840037,"current_range_meters":1200,"station_id":"ce4bhqp2rcd13ifvqhng","pricing_plan_id":"cebpf4jnsgd1na2vs0mg"},{"bike_id":"a6ba5ef6-5b99-47d9-acea-ad62a4cd0a59","system_id":"levelo_inurba_marseille","lat":43.26888,"lon":5.36878,"is_reserved":false,"is_disabled":false,"rental_uris":{"android":"levelo://app?vid=a6ba5ef6-5b99-47d9-acea-ad62a4cd0a59","ios":"levelo://app?vid=a6ba5ef6-5b99-47d9-acea-ad62a4cd0a59"},"vehicle_type_id":"4","last_reported":1738840037,"current_range_meters":35600,"station_id":"","pricing_plan_id":"cebpf4jnsgd1na2vs0mg"},{"bike_id":"a1a7079b-68b5-45ca-9af8-b6bc9f7cd559","system_id":"levelo_inurba_marseille","lat":43.22935,"lon":5.35371,"is_reserved":false,"is_disabled":false,"rental_uris":{"android":"levelo://app?vid=a1a7079b-68b5-45ca-9af8-b6bc9f7cd559","ios":"levelo://app?vid=a1a7079b-68b5-45ca-9af8-b6bc9f7cd559"},"vehicle_type_id":"4","last_reported":1738840037,"current_range_meters":38800,"station_id":"cpo3532slgdg3j2ikp40","pricing_plan_id":"cebpf4jnsgd1na2vs0mg"},{"bike_id":"7fb8a5d4-3319-490a-8319-7dcd6d677490","system_id":"levelo_inurba_marseille","lat":43.28934,"lon":5.36392,"is_reserved":false,"is_disabled":false,"rental_uris":{"android":"levelo://app?vid=7fb8a5d4-3319-490a-8319-7dcd6d677490","ios":"levelo://app?vid=7fb8a5d4-3319-490a-8319-7dcd6d677490"},"vehicle_type_id":"4","last_reported":1738840037,"current_range_meters":25200,"station_id":"ce4bhc92rcd13ifvqetg","pricing_plan_id":"cebpf4jnsgd1na2vs0mg"},{"bike_id":"b3e15123-f412-47a1-bf1f-9c73196cafab","system_id":"levelo_inurba_marseille","lat":43.25825,"lon":5.3942,"is_reserved":false,"is_disabled":false,"rental_uris":{"android":"levelo://app?vid=b3e15123-f412-47a1-bf1f-9c73196cafab","ios":"levelo://app?vid=b3e15123-f412-47a1-bf1f-9c73196cafab"},"vehicle_type_id":"4","last_reported":1738840037,"current_range_meters":38800,"station_id":"ce4bhip2rcd13ifvqft0","pricing_plan_id":"cebpf4jnsgd1na2vs0mg"},{"bike_id":"99e6c8e3-5c86-415c-b3f7-c87c1418cb77","system_id":"levelo_inurba_marseille","lat":43.30491,"lon":5.37913,"is_reserved":false,"is_disabled":false,"rental_uris":{"android":"levelo://app?vid=99e6c8e3-5c86-415c-b3f7-c87c1418cb77","ios":"levelo://app?vid=99e6c8e3-5c86-415c-b3f7-c87c1418cb77"},"vehicle_type_id":"4","last_reported":1738840037,"current_range_meters":38800,"station_id":"ce4bgup2rcd13ifvqcn0","pricing_plan_id":"cebpf4jnsgd1na2vs0mg"},{"bike_id":"92a3a02e-652d-41fb-9674-3a2cf80bd30b","system_id":"levelo_inurba_marseille","lat":43.29554,"lon":5.42289,"is_reserved":false,"is_disabled":false,"rental_uris":{"android":"levelo://app?vid=92a3a02e-652d-41fb-9674-3a2cf80bd30b","ios":"levelo://app?vid=92a3a02e-652d-41fb-9674-3a2cf80bd30b"},"vehicle_type_id":"4","last_reported":1738840037,"current_range_meters":30000,"station_id":"ce4bhph2rcd13ifvqhdg","pricing_plan_id":"cebpf4jnsgd1na2vs0mg"},{"bike_id":"08e42cd3-6257-4ea4-839f-08272f21e059","system_id":"levelo_inurba_marseille","lat":43.290337,"lon":5.37588,"is_reserved":false,"is_disabled":false,"rental_uris":{"android":"levelo://app?vid=08e42cd3-6257-4ea4-839f-08272f21e059","ios":"levelo://app?vid=08e42cd3-6257-4ea4-839f-08272f21e059"},"vehicle_type_id":"4","last_reported":1738840037,"current_range_meters":38800,"station_id":"ce4bh692rcd13ifvqe90","pricing_plan_id":"cebpf4jnsgd1na2vs0mg"},{"bike_id":"b0b70dbd-bdde-4326-96ee-f00c6aa1d2d8","system_id":"levelo_inurba_marseille","lat":43.33607,"lon":5.41032,"is_reserved":false,"is_disabled":false,"rental_uris":{"android":"levelo://app?vid=b0b70dbd-bdde-4326-96ee-f00c6aa1d2d8","ios":"levelo://app?vid=b0b70dbd-bdde-4326-96ee-f00c6aa1d2d8"},"vehicle_type_id":"4","last_reported":1738840037,"current_range_meters":24800,"station_id":"ce4bhqh2rcd13ifvqhmg","pricing_plan_id":"cebpf4jnsgd1na2vs0mg"},{"bike_id":"a7c50473-4e3f-4aed-94d8-301b60cc89f6","system_id":"levelo_inurba_marseille","lat":43.29965,"lon":5.385,"is_reserved":false,"is_disabled":false,"rental_uris":{"android":"levelo://app?vid=a7c50473-4e3f-4aed-94d8-301b60cc89f6","ios":"levelo://app?vid=a7c50473-4e3f-4aed-94d8-301b60cc89f6"},"vehicle_type_id":"4","last_reported":1738840037,"current_range_meters":39200,"station_id":"ce4bgj92rcd13ifvqbd0","pricing_plan_id":"cebpf4jnsgd1na2vs0mg"},{"bike_id":"78433e7b-8e3e-4dcc-9204-985380e49e4b","system_id":"levelo_inurba_marseille","lat":43.26502,"lon":5.39542,"is_reserved":false,"is_disabled":false,"rental_uris":{"android":"levelo://app?vid=78433e7b-8e3e-4dcc-9204-985380e49e4b","ios":"levelo://app?vid=78433e7b-8e3e-4dcc-9204-985380e49e4b"},"vehicle_type_id":"4","last_reported":1738840037,"current_range_meters":23200,"station_id":"ce4bhi12rcd13ifvqfq0","pricing_plan_id":"cebpf4jnsgd1na2vs0mg"},{"bike_id":"7878e9ce-4697-486f-9371-500fdf9b9d86","system_id":"levelo_inurba_marseille","lat":43.30421,"lon":5.41286,"is_reserved":false,"is_disabled":false,"rental_uris":{"android":"levelo://app?vid=7878e9ce-4697-486f-9371-500fdf9b9d86","ios":"levelo://app?vid=7878e9ce-4697-486f-9371-500fdf9b9d86"},"vehicle_type_id":"4","last_reported":1738840037,"current_range_meters":39200,"station_id":"ce4bhop2rcd13ifvqh8g","pricing_plan_id":"cebpf4jnsgd1na2vs0mg"},{"bike_id":"0ff383dd-17ba-403c-8b38-64f30b07586d","system_id":"levelo_inurba_marseille","lat":43.27885,"lon":5.38027,"is_reserved":false,"is_disabled":false,"rental_uris":{"android":"levelo://app?vid=0ff383dd-17ba-403c-8b38-64f30b07586d","ios":"levelo://app?vid=0ff383dd-17ba-403c-8b38-64f30b07586d"},"vehicle_type_id":"4","last_reported":1738840037,"current_range_meters":17200,"station_id":"ce4bhf92rcd13ifvqf50","pricing_plan_id":"cebpf4jnsgd1na2vs0mg"},{"bike_id":"03fa3b22-d8cb-4f5a-98a2-61fc9938a61e","system_id":"levelo_inurba_marseille","lat":43.24548,"lon":5.39525,"is_reserved":false,"is_disabled":false,"rental_uris":{"android":"levelo://app?vid=03fa3b22-d8cb-4f5a-98a2-61fc9938a61e","ios":"levelo://app?vid=03fa3b22-d8cb-4f5a-98a2-61fc9938a61e"},"vehicle_type_id":"4","last_reported":1738840037,"current_range_meters":18800,"station_id":"ce4bhlp2rcd13ifvqgjg","pricing_plan_id":"cebpf4jnsgd1na2vs0mg"},{"bike_id":"859537e0-4cf9-4ee3-8f90-de5b287589dd","system_id":"levelo_inurba_marseille","lat":43.30914,"lon":5.36863,"is_reserved":false,"is_disabled":false,"rental_uris":{"android":"levelo://app?vid=859537e0-4cf9-4ee3-8f90-de5b287589dd","ios":"levelo://app?vid=859537e0-4cf9-4ee3-8f90-de5b287589dd"},"vehicle_type_id":"4","last_reported":1738840037,"current_range_meters":36400,"station_id":"ce4bgn92rcd13ifvqbvg","pricing_plan_id":"cebpf4jnsgd1na2vs0mg"},{"bike_id":"6bba36c7-75a6-4b1b-96cb-c03d219a6faa","system_id":"levelo_inurba_marseille","lat":43.33021,"lon":5.39041,"is_reserved":false,"is_disabled":false,"rental_uris":{"android":"levelo://app?vid=6bba36c7-75a6-4b1b-96cb-c03d219a6faa","ios":"levelo://app?vid=6bba36c7-75a6-4b1b-96cb-c03d219a6faa"},"vehicle_type_id":"4","last_reported":1738840037,"current_range_meters":33600,"station_id":"ce4bhr92rcd13ifvqhrg","pricing_plan_id":"cebpf4jnsgd1na2vs0mg"},{"bike_id":"46055e3a-e8f4-4382-8c29-7984f2bd0756","system_id":"levelo_inurba_marseille","lat":43.2903,"lon":5.38146,"is_reserved":false,"is_disabled":false,"rental_uris":{"android":"levelo://app?vid=46055e3a-e8f4-4382-8c29-7984f2bd0756","ios":"levelo://app?vid=46055e3a-e8f4-4382-8c29-7984f2bd0756"},"vehicle_type_id":"4","last_reported":1738840037,"current_range_meters":30000,"station_id":"ce4bh4p2rcd13ifvqe1g","pricing_plan_id":"cebpf4jnsgd1na2vs0mg"},{"bike_id":"a0466fca-9a02-4f02-acee-29f4a803b211","system_id":"levelo_inurba_marseille","lat":43.28443,"lon":5.39195,"is_reserved":false,"is_disabled":false,"rental_uris":{"android":"levelo://app?vid=a0466fca-9a02-4f02-acee-29f4a803b211","ios":"levelo://app?vid=a0466fca-9a02-4f02-acee-29f4a803b211"},"vehicle_type_id":"4","last_reported":1738840037,"current_range_meters":27600,"station_id":"ce4bhoh2rcd13ifvqh5g","pricing_plan_id":"cebpf4jnsgd1na2vs0mg"},{"bike_id":"5786637f-7aa3-4c94-860d-27f2b053d260","system_id":"levelo_inurba_marseille","lat":43.27681,"lon":5.3895,"is_reserved":false,"is_disabled":false,"rental_uris":{"android":"levelo://app?vid=5786637f-7aa3-4c94-860d-27f2b053d260","ios":"levelo://app?vid=5786637f-7aa3-4c94-860d-27f2b053d260"},"vehicle_type_id":"4","last_reported":1738840037,"current_range_meters":30000,"station_id":"ce4bhi12rcd13ifvqfo0","pricing_plan_id":"cebpf4jnsgd1na2vs0mg"},{"bike_id":"10e50f59-c87a-42f4-8fbb-d01f7149660f","system_id":"levelo_inurba_marseille","lat":43.31003,"lon":5.39078,"is_reserved":false,"is_disabled":false,"rental_uris":{"android":"levelo://app?vid=10e50f59-c87a-42f4-8fbb-d01f7149660f","ios":"levelo://app?vid=10e50f59-c87a-42f4-8fbb-d01f7149660f"},"vehicle_type_id":"4","last_reported":1738840037,"current_range_meters":22800,"station_id":"","pricing_plan_id":"cebpf4jnsgd1na2vs0mg"},{"bike_id":"10dae362-e090-466a-be31-ddeac0f0184e","system_id":"levelo_inurba_marseille","lat":43.27373,"lon":5.36264,"is_reserved":false,"is_disabled":false,"rental_uris":{"android":"levelo://app?vid=10dae362-e090-466a-be31-ddeac0f0184e","ios":"levelo://app?vid=10dae362-e090-466a-be31-ddeac0f0184e"},"vehicle_type_id":"4","last_reported":1738840037,"current_range_meters":32800,"station_id":"ce4bhbh2rcd13ifvqeo0","pricing_plan_id":"cebpf4jnsgd1na2vs0mg"},{"bike_id":"eb9df0e4-3834-43c6-b16a-e9ef33801258","system_id":"levelo_inurba_marseille","lat":43.2947,"lon":5.39752,"is_reserved":false,"is_disabled":true,"rental_uris":{"android":"levelo://app?vid=eb9df0e4-3834-43c6-b16a-e9ef33801258","ios":"levelo://app?vid=eb9df0e4-3834-43c6-b16a-e9ef33801258"},"vehicle_type_id":"4","last_reported":1738840037,"current_range_meters":1600,"station_id":"ce4bh3h2rcd13ifvqdo0","pricing_plan_id":"cebpf4jnsgd1na2vs0mg"},{"bike_id":"2e8e8620-e82e-4444-a8cb-51177d5eef4b","system_id":"levelo_inurba_marseille","lat":43.33023,"lon":5.39029,"is_reserved":false,"is_disabled":false,"rental_uris":{"android":"levelo://app?vid=2e8e8620-e82e-4444-a8cb-51177d5eef4b","ios":"levelo://app?vid=2e8e8620-e82e-4444-a8cb-51177d5eef4b"},"vehicle_type_id":"4","last_reported":1738840037,"current_range_meters":28000,"station_id":"ce4bhr92rcd13ifvqhrg","pricing_plan_id":"cebpf4jnsgd1na2vs0mg"},{"bike_id":"647c7183-9a5d-4786-aaa6-7682697d5424","system_id":"levelo_inurba_marseille","lat":43.27072,"lon":5.42276,"is_reserved":false,"is_disabled":false,"rental_uris":{"android":"levelo://app?vid=647c7183-9a5d-4786-aaa6-7682697d5424","ios":"levelo://app?vid=647c7183-9a5d-4786-aaa6-7682697d5424"},"vehicle_type_id":"4","last_reported":1738840037,"current_range_meters":16000,"station_id":"ce4bhk92rcd13ifvqgb0","pricing_plan_id":"cebpf4jnsgd1na2vs0mg"},{"bike_id":"7f657d43-65c7-468d-ad0e-f606466b52ae","system_id":"levelo_inurba_marseille","lat":43.32468,"lon":5.36561,"is_reserved":false,"is_disabled":false,"rental_uris":{"android":"levelo://app?vid=7f657d43-65c7-468d-ad0e-f606466b52ae","ios":"levelo://app?vid=7f657d43-65c7-468d-ad0e-f606466b52ae"},"vehicle_type_id":"4","last_reported":1738840037,"current_range_meters":14400,"station_id":"ce4bhs12rcd13ifvqhvg","pricing_plan_id":"cebpf4jnsgd1na2vs0mg"},{"bike_id":"593d1fe9-39a1-488a-b808-5a20cdd7b7be","system_id":"levelo_inurba_marseille","lat":43.26559,"lon":5.37285,"is_reserved":false,"is_disabled":false,"rental_uris":{"android":"levelo://app?vid=593d1fe9-39a1-488a-b808-5a20cdd7b7be","ios":"levelo://app?vid=593d1fe9-39a1-488a-b808-5a20cdd7b7be"},"vehicle_type_id":"4","last_reported":1738840037,"current_range_meters":35200,"station_id":"ce4bhg12rcd13ifvqf70","pricing_plan_id":"cebpf4jnsgd1na2vs0mg"},{"bike_id":"dc104847-4af8-4334-9efc-cab5fb4e3009","system_id":"levelo_inurba_marseille","lat":43.23152,"lon":5.43739,"is_reserved":false,"is_disabled":false,"rental_uris":{"android":"levelo://app?vid=dc104847-4af8-4334-9efc-cab5fb4e3009","ios":"levelo://app?vid=dc104847-4af8-4334-9efc-cab5fb4e3009"},"vehicle_type_id":"4","last_reported":1738840037,"current_range_meters":38800,"station_id":"ce4bhmp2rcd13ifvqgog","pricing_plan_id":"cebpf4jnsgd1na2vs0mg"},{"bike_id":"6712f04b-f35d-4e3a-a70d-c89aec85d9b2","system_id":"levelo_inurba_marseille","lat":43.22941,"lon":5.35382,"is_reserved":false,"is_disabled":false,"rental_uris":{"android":"levelo://app?vid=6712f04b-f35d-4e3a-a70d-c89aec85d9b2","ios":"levelo://app?vid=6712f04b-f35d-4e3a-a70d-c89aec85d9b2"},"vehicle_type_id":"4","last_reported":1738840037,"current_range_meters":38000,"station_id":"cpo3532slgdg3j2ikp40","pricing_plan_id":"cebpf4jnsgd1na2vs0mg"},{"bike_id":"80f789f5-fe59-4d39-929a-1d5e5cf352ea","system_id":"levelo_inurba_marseille","lat":43.29578,"lon":5.37731,"is_reserved":false,"is_disabled":false,"rental_uris":{"android":"levelo://app?vid=80f789f5-fe59-4d39-929a-1d5e5cf352ea","ios":"levelo://app?vid=80f789f5-fe59-4d39-929a-1d5e5cf352ea"},"vehicle_type_id":"4","last_reported":1738840037,"current_range_meters":38800,"station_id":"ce4bgi92rcd13ifvqb90","pricing_plan_id":"cebpf4jnsgd1na2vs0mg"},{"bike_id":"5169f958-fc07-489b-b19b-5b31b5506996","system_id":"levelo_inurba_marseille","lat":43.30178,"lon":5.38104,"is_reserved":false,"is_disabled":false,"rental_uris":{"android":"levelo://app?vid=5169f958-fc07-489b-b19b-5b31b5506996","ios":"levelo://app?vid=5169f958-fc07-489b-b19b-5b31b5506996"},"vehicle_type_id":"4","last_reported":1738840037,"current_range_meters":25200,"station_id":"ce4bgjp2rcd13ifvqbh0","pricing_plan_id":"cebpf4jnsgd1na2vs0mg"},{"bike_id":"1631835e-eb64-4097-b39f-638a3f74b000","system_id":"levelo_inurba_marseille","lat":43.30284,"lon":5.3771,"is_reserved":false,"is_disabled":false,"rental_uris":{"android":"levelo://app?vid=1631835e-eb64-4097-b39f-638a3f74b000","ios":"levelo://app?vid=1631835e-eb64-4097-b39f-638a3f74b000"},"vehicle_type_id":"4","last_reported":1738840037,"current_range_meters":39200,"station_id":"ce4bguh2rcd13ifvqcj0","pricing_plan_id":"cebpf4jnsgd1na2vs0mg"},{"bike_id":"69e03564-17f5-44a1-8879-5030df3f7e46","system_id":"levelo_inurba_marseille","lat":43.30134,"lon":5.37417,"is_reserved":false,"is_disabled":false,"rental_uris":{"android":"levelo://app?vid=69e03564-17f5-44a1-8879-5030df3f7e46","ios":"levelo://app?vid=69e03564-17f5-44a1-8879-5030df3f7e46"},"vehicle_type_id":"4","last_reported":1738840037,"current_range_meters":38800,"station_id":"ce4bgs92rcd13ifvqcc0","pricing_plan_id":"cebpf4jnsgd1na2vs0mg"},{"bike_id":"058d3b72-e750-49df-85ff-8e59412b305d","system_id":"levelo_inurba_marseille","lat":43.29277,"lon":5.36847,"is_reserved":false,"is_disabled":false,"rental_uris":{"android":"levelo://app?vid=058d3b72-e750-49df-85ff-8e59412b305d","ios":"levelo://app?vid=058d3b72-e750-49df-85ff-8e59412b305d"},"vehicle_type_id":"4","last_reported":1738840037,"current_range_meters":36400,"station_id":"ce4bhbp2rcd13ifvqesg","pricing_plan_id":"cebpf4jnsgd1na2vs0mg"},{"bike_id":"c1c75084-6fe2-45e8-8aa7-83f2021a6f51","system_id":"levelo_inurba_marseille","lat":43.27926,"lon":5.38747,"is_reserved":false,"is_disabled":false,"rental_uris":{"android":"levelo://app?vid=c1c75084-6fe2-45e8-8aa7-83f2021a6f51","ios":"levelo://app?vid=c1c75084-6fe2-45e8-8aa7-83f2021a6f51"},"vehicle_type_id":"4","last_reported":1738840037,"current_range_meters":38800,"station_id":"","pricing_plan_id":"cebpf4jnsgd1na2vs0mg"},{"bike_id":"25659fa6-7f8a-4039-a312-8f7176f52022","system_id":"levelo_inurba_marseille","lat":43.29571,"lon":5.36757,"is_reserved":false,"is_disabled":false,"rental_uris":{"android":"levelo://app?vid=25659fa6-7f8a-4039-a312-8f7176f52022","ios":"levelo://app?vid=25659fa6-7f8a-4039-a312-8f7176f52022"},"vehicle_type_id":"4","last_reported":1738840037,"current_range_meters":33200,"station_id":"ce4bgph2rcd13ifvqc2g","pricing_plan_id":"cebpf4jnsgd1na2vs0mg"},{"bike_id":"12be4a65-e7b3-4220-9442-37e04da9989a","system_id":"levelo_inurba_marseille","lat":43.27162,"lon":5.40964,"is_reserved":false,"is_disabled":false,"rental_uris":{"android":"levelo://app?vid=12be4a65-e7b3-4220-9442-37e04da9989a","ios":"levelo://app?vid=12be4a65-e7b3-4220-9442-37e04da9989a"},"vehicle_type_id":"4","last_reported":1738840037,"current_range_meters":38800,"station_id":"ce4bhl12rcd13ifvqgf0","pricing_plan_id":"cebpf4jnsgd1na2vs0mg"},{"bike_id":"8604271a-1856-49cc-98e1-13f33c6adfc2","system_id":"levelo_inurba_marseille","lat":43.31353,"lon":5.36711,"is_reserved":false,"is_disabled":false,"rental_uris":{"android":"levelo://app?vid=8604271a-1856-49cc-98e1-13f33c6adfc2","ios":"levelo://app?vid=8604271a-1856-49cc-98e1-13f33c6adfc2"},"vehicle_type_id":"4","last_reported":1738840037,"current_range_meters":38800,"station_id":"ce4bgr92rcd13ifvqc6g","pricing_plan_id":"cebpf4jnsgd1na2vs0mg"},{"bike_id":"97658022-11d9-44b3-8e7f-2eacbc9ac49d","system_id":"levelo_inurba_marseille","lat":43.30906,"lon":5.36901,"is_reserved":false,"is_disabled":false,"rental_uris":{"android":"levelo://app?vid=97658022-11d9-44b3-8e7f-2eacbc9ac49d","ios":"levelo://app?vid=97658022-11d9-44b3-8e7f-2eacbc9ac49d"},"vehicle_type_id":"4","last_reported":1738840037,"current_range_meters":38800,"station_id":"ce4bgn92rcd13ifvqbvg","pricing_plan_id":"cebpf4jnsgd1na2vs0mg"},{"bike_id":"4d52102d-9ecd-4401-b610-df7580da8936","system_id":"levelo_inurba_marseille","lat":43.3133,"lon":5.39696,"is_reserved":false,"is_disabled":false,"rental_uris":{"android":"levelo://app?vid=4d52102d-9ecd-4401-b610-df7580da8936","ios":"levelo://app?vid=4d52102d-9ecd-4401-b610-df7580da8936"},"vehicle_type_id":"4","last_reported":1738840037,"current_range_meters":14400,"station_id":"ce4bgvp2rcd13ifvqcu0","pricing_plan_id":"cebpf4jnsgd1na2vs0mg"},{"bike_id":"bb59bbf9-a773-4050-b666-ab885ddc31a5","system_id":"levelo_inurba_marseille","lat":43.24072,"lon":5.37769,"is_reserved":false,"is_disabled":false,"rental_uris":{"android":"levelo://app?vid=bb59bbf9-a773-4050-b666-ab885ddc31a5","ios":"levelo://app?vid=bb59bbf9-a773-4050-b666-ab885ddc31a5"},"vehicle_type_id":"4","last_reported":1738840037,"current_range_meters":20800,"station_id":"ce4bhnp2rcd13ifvqgvg","pricing_plan_id":"cebpf4jnsgd1na2vs0mg"},{"bike_id":"ea51b30d-1640-4c8f-b921-076520204eb4","system_id":"levelo_inurba_marseille","lat":43.27292,"lon":5.39111,"is_reserved":false,"is_disabled":false,"rental_uris":{"android":"levelo://app?vid=ea51b30d-1640-4c8f-b921-076520204eb4","ios":"levelo://app?vid=ea51b30d-1640-4c8f-b921-076520204eb4"},"vehicle_type_id":"4","last_reported":1738840037,"current_range_meters":38800,"station_id":"ce4bhgp2rcd13ifvqfe0","pricing_plan_id":"cebpf4jnsgd1na2vs0mg"},{"bike_id":"b3af7cc8-dfb8-48ae-b853-7564e930dc8d","system_id":"levelo_inurba_marseille","lat":43.284775,"lon":5.384497,"is_reserved":false,"is_disabled":false,"rental_uris":{"android":"levelo://app?vid=b3af7cc8-dfb8-48ae-b853-7564e930dc8d","ios":"levelo://app?vid=b3af7cc8-dfb8-48ae-b853-7564e930dc8d"},"vehicle_type_id":"4","last_reported":1738840037,"current_range_meters":27600,"station_id":"ce4bh512rcd13ifvqe3g","pricing_plan_id":"cebpf4jnsgd1na2vs0mg"},{"bike_id":"c85a26e1-f53e-4ec1-b1ea-8b32d23f1f4d","system_id":"levelo_inurba_marseille","lat":43.2306,"lon":5.35493,"is_reserved":false,"is_disabled":false,"rental_uris":{"android":"levelo://app?vid=c85a26e1-f53e-4ec1-b1ea-8b32d23f1f4d","ios":"levelo://app?vid=c85a26e1-f53e-4ec1-b1ea-8b32d23f1f4d"},"vehicle_type_id":"4","last_reported":1738840037,"current_range_meters":17600,"station_id":"cpo3342slgdg3j2ifvpg","pricing_plan_id":"cebpf4jnsgd1na2vs0mg"},{"bike_id":"679274d3-e500-4dd7-ace3-877f33c86066","system_id":"levelo_inurba_marseille","lat":43.27046,"lon":5.40269,"is_reserved":false,"is_disabled":false,"rental_uris":{"android":"levelo://app?vid=679274d3-e500-4dd7-ace3-877f33c86066","ios":"levelo://app?vid=679274d3-e500-4dd7-ace3-877f33c86066"},"vehicle_type_id":"4","last_reported":1738840037,"current_range_meters":30400,"station_id":"ce4bhk92rcd13ifvqgc0","pricing_plan_id":"cebpf4jnsgd1na2vs0mg"},{"bike_id":"3bf91f25-05fb-4d09-a436-800b293f026e","system_id":"levelo_inurba_marseille","lat":43.31077,"lon":5.3836,"is_reserved":false,"is_disabled":true,"rental_uris":{"android":"levelo://app?vid=3bf91f25-05fb-4d09-a436-800b293f026e","ios":"levelo://app?vid=3bf91f25-05fb-4d09-a436-800b293f026e"},"vehicle_type_id":"4","last_reported":1738840037,"current_range_meters":800,"station_id":"ce4bgv92rcd13ifvqcr0","pricing_plan_id":"cebpf4jnsgd1na2vs0mg"},{"bike_id":"ad3006cf-972a-427c-a8eb-d49936c14325","system_id":"levelo_inurba_marseille","lat":43.33284,"lon":5.38329,"is_reserved":false,"is_disabled":true,"rental_uris":{"android":"levelo://app?vid=ad3006cf-972a-427c-a8eb-d49936c14325","ios":"levelo://app?vid=ad3006cf-972a-427c-a8eb-d49936c14325"},"vehicle_type_id":"4","last_reported":1738840037,"current_range_meters":0,"station_id":"","pricing_plan_id":"cebpf4jnsgd1na2vs0mg"},{"bike_id":"15cba9bb-d80a-400a-9953-895fb4a4ed78","system_id":"levelo_inurba_marseille","lat":43.28684,"lon":5.38654,"is_reserved":false,"is_disabled":false,"rental_uris":{"android":"levelo://app?vid=15cba9bb-d80a-400a-9953-895fb4a4ed78","ios":"levelo://app?vid=15cba9bb-d80a-400a-9953-895fb4a4ed78"},"vehicle_type_id":"4","last_reported":1738840037,"current_range_meters":34800,"station_id":"ce4bh492rcd13ifvqdug","pricing_plan_id":"cebpf4jnsgd1na2vs0mg"},{"bike_id":"f6abcce2-0993-4345-8889-2e5c8bb1bf44","system_id":"levelo_inurba_marseille","lat":43.2316,"lon":5.43725,"is_reserved":false,"is_disabled":false,"rental_uris":{"android":"levelo://app?vid=f6abcce2-0993-4345-8889-2e5c8bb1bf44","ios":"levelo://app?vid=f6abcce2-0993-4345-8889-2e5c8bb1bf44"},"vehicle_type_id":"4","last_reported":1738840037,"current_range_meters":17200,"station_id":"ce4bhmp2rcd13ifvqgog","pricing_plan_id":"cebpf4jnsgd1na2vs0mg"},{"bike_id":"017c3247-6847-4a18-aea2-0e806d0dec2a","system_id":"levelo_inurba_marseille","lat":43.33599,"lon":5.4103,"is_reserved":false,"is_disabled":false,"rental_uris":{"android":"levelo://app?vid=017c3247-6847-4a18-aea2-0e806d0dec2a","ios":"levelo://app?vid=017c3247-6847-4a18-aea2-0e806d0dec2a"},"vehicle_type_id":"4","last_reported":1738840037,"current_range_meters":17600,"station_id":"ce4bhqh2rcd13ifvqhmg","pricing_plan_id":"cebpf4jnsgd1na2vs0mg"},{"bike_id":"bfec391f-a951-48b3-8a91-fa55aac51292","system_id":"levelo_inurba_marseille","lat":43.284663,"lon":5.385344,"is_reserved":false,"is_disabled":false,"rental_uris":{"android":"levelo://app?vid=bfec391f-a951-48b3-8a91-fa55aac51292","ios":"levelo://app?vid=bfec391f-a951-48b3-8a91-fa55aac51292"},"vehicle_type_id":"4","last_reported":1738840037,"current_range_meters":29600,"station_id":"ce4bh8p2rcd13ifvqeb0","pricing_plan_id":"cebpf4jnsgd1na2vs0mg"},{"bike_id":"adcd4863-6772-410e-a1ce-2e1bc6612724","system_id":"levelo_inurba_marseille","lat":43.29202,"lon":5.35804,"is_reserved":false,"is_disabled":false,"rental_uris":{"android":"levelo://app?vid=adcd4863-6772-410e-a1ce-2e1bc6612724","ios":"levelo://app?vid=adcd4863-6772-410e-a1ce-2e1bc6612724"},"vehicle_type_id":"4","last_reported":1738840037,"current_range_meters":24800,"station_id":"ce4bhb12rcd13ifvqel0","pricing_plan_id":"cebpf4jnsgd1na2vs0mg"},{"bike_id":"6a3f47a3-8f7a-4dd2-a856-450fdd8291f6","system_id":"levelo_inurba_marseille","lat":43.305435,"lon":5.367053,"is_reserved":false,"is_disabled":false,"rental_uris":{"android":"levelo://app?vid=6a3f47a3-8f7a-4dd2-a856-450fdd8291f6","ios":"levelo://app?vid=6a3f47a3-8f7a-4dd2-a856-450fdd8291f6"},"vehicle_type_id":"4","last_reported":1738840037,"current_range_meters":30000,"station_id":"ce4bgrp2rcd13ifvqc9g","pricing_plan_id":"cebpf4jnsgd1na2vs0mg"},{"bike_id":"a40e589a-9076-49c6-82d9-076dcf115369","system_id":"levelo_inurba_marseille","lat":43.29928,"lon":5.38162,"is_reserved":false,"is_disabled":false,"rental_uris":{"android":"levelo://app?vid=a40e589a-9076-49c6-82d9-076dcf115369","ios":"levelo://app?vid=a40e589a-9076-49c6-82d9-076dcf115369"},"vehicle_type_id":"4","last_reported":1738840037,"current_range_meters":36800,"station_id":"ce4bgj12rcd13ifvqbc0","pricing_plan_id":"cebpf4jnsgd1na2vs0mg"},{"bike_id":"1f60af65-67e4-4506-92ce-b099d71368bc","system_id":"levelo_inurba_marseille","lat":43.27362,"lon":5.36251,"is_reserved":false,"is_disabled":false,"rental_uris":{"android":"levelo://app?vid=1f60af65-67e4-4506-92ce-b099d71368bc","ios":"levelo://app?vid=1f60af65-67e4-4506-92ce-b099d71368bc"},"vehicle_type_id":"4","last_reported":1738840037,"current_range_meters":39200,"station_id":"ce4bhbh2rcd13ifvqeo0","pricing_plan_id":"cebpf4jnsgd1na2vs0mg"},{"bike_id":"e5167c52-2a4b-4da3-a392-fb00162ec198","system_id":"levelo_inurba_marseille","lat":43.29821,"lon":5.38105,"is_reserved":false,"is_disabled":false,"rental_uris":{"android":"levelo://app?vid=e5167c52-2a4b-4da3-a392-fb00162ec198","ios":"levelo://app?vid=e5167c52-2a4b-4da3-a392-fb00162ec198"},"vehicle_type_id":"4","last_reported":1738840037,"current_range_meters":30000,"station_id":"ce4bgip2rcd13ifvqbb0","pricing_plan_id":"cebpf4jnsgd1na2vs0mg"},{"bike_id":"a9d2cdd8-e8cc-40c9-87d7-d5a1d12197b1","system_id":"levelo_inurba_marseille","lat":43.27483,"lon":5.42467,"is_reserved":false,"is_disabled":false,"rental_uris":{"android":"levelo://app?vid=a9d2cdd8-e8cc-40c9-87d7-d5a1d12197b1","ios":"levelo://app?vid=a9d2cdd8-e8cc-40c9-87d7-d5a1d12197b1"},"vehicle_type_id":"4","last_reported":1738840037,"current_range_meters":38400,"station_id":"ce4bhn92rcd13ifvqgrg","pricing_plan_id":"cebpf4jnsgd1na2vs0mg"},{"bike_id":"a08c3f50-2972-4fb5-8d9c-2be5365819fb","system_id":"levelo_inurba_marseille","lat":43.31764,"lon":5.39009,"is_reserved":false,"is_disabled":false,"rental_uris":{"android":"levelo://app?vid=a08c3f50-2972-4fb5-8d9c-2be5365819fb","ios":"levelo://app?vid=a08c3f50-2972-4fb5-8d9c-2be5365819fb"},"vehicle_type_id":"4","last_reported":1738840037,"current_range_meters":38400,"station_id":"ce4bhqp2rcd13ifvqhng","pricing_plan_id":"cebpf4jnsgd1na2vs0mg"},{"bike_id":"9193840a-a4d3-45d8-a9f7-dfd661a76b64","system_id":"levelo_inurba_marseille","lat":43.31354,"lon":5.3671,"is_reserved":false,"is_disabled":false,"rental_uris":{"android":"levelo://app?vid=9193840a-a4d3-45d8-a9f7-dfd661a76b64","ios":"levelo://app?vid=9193840a-a4d3-45d8-a9f7-dfd661a76b64"},"vehicle_type_id":"4","last_reported":1738840037,"current_range_meters":38800,"station_id":"ce4bgr92rcd13ifvqc6g","pricing_plan_id":"cebpf4jnsgd1na2vs0mg"},{"bike_id":"d5461d8f-257a-4fae-abed-7030c455bfaf","system_id":"levelo_inurba_marseille","lat":43.29031,"lon":5.39964,"is_reserved":false,"is_disabled":false,"rental_uris":{"android":"levelo://app?vid=d5461d8f-257a-4fae-abed-7030c455bfaf","ios":"levelo://app?vid=d5461d8f-257a-4fae-abed-7030c455bfaf"},"vehicle_type_id":"4","last_reported":1738840037,"current_range_meters":8800,"station_id":"ce4bh392rcd13ifvqdm0","pricing_plan_id":"cebpf4jnsgd1na2vs0mg"},{"bike_id":"35b0fbe6-22db-46fb-a54a-76af362a8729","system_id":"levelo_inurba_marseille","lat":43.29967,"lon":5.41334,"is_reserved":false,"is_disabled":false,"rental_uris":{"android":"levelo://app?vid=35b0fbe6-22db-46fb-a54a-76af362a8729","ios":"levelo://app?vid=35b0fbe6-22db-46fb-a54a-76af362a8729"},"vehicle_type_id":"4","last_reported":1738840037,"current_range_meters":34000,"station_id":"ce4bhp12rcd13ifvqh9g","pricing_plan_id":"cebpf4jnsgd1na2vs0mg"},{"bike_id":"88ce7e1b-d6f8-4620-beef-be982f304f3e","system_id":"levelo_inurba_marseille","lat":43.32103,"lon":5.36783,"is_reserved":false,"is_disabled":false,"rental_uris":{"android":"levelo://app?vid=88ce7e1b-d6f8-4620-beef-be982f304f3e","ios":"levelo://app?vid=88ce7e1b-d6f8-4620-beef-be982f304f3e"},"vehicle_type_id":"4","last_reported":1738840037,"current_range_meters":38000,"station_id":"ce4bhrh2rcd13ifvqhug","pricing_plan_id":"cebpf4jnsgd1na2vs0mg"},{"bike_id":"344d1955-5263-40eb-a201-ab603aa02c10","system_id":"levelo_inurba_marseille","lat":43.23968,"lon":5.36628,"is_reserved":false,"is_disabled":false,"rental_uris":{"android":"levelo://app?vid=344d1955-5263-40eb-a201-ab603aa02c10","ios":"levelo://app?vid=344d1955-5263-40eb-a201-ab603aa02c10"},"vehicle_type_id":"4","last_reported":1738840037,"current_range_meters":38000,"station_id":"ce4bhi12rcd13ifvqfp0","pricing_plan_id":"cebpf4jnsgd1na2vs0mg"},{"bike_id":"0083c554-f72b-4dec-a9ea-993a6d3d9431","system_id":"levelo_inurba_marseille","lat":43.270538,"lon":5.40264,"is_reserved":false,"is_disabled":false,"rental_uris":{"android":"levelo://app?vid=0083c554-f72b-4dec-a9ea-993a6d3d9431","ios":"levelo://app?vid=0083c554-f72b-4dec-a9ea-993a6d3d9431"},"vehicle_type_id":"4","last_reported":1738840037,"current_range_meters":6400,"station_id":"ce4bhk92rcd13ifvqgc0","pricing_plan_id":"cebpf4jnsgd1na2vs0mg"},{"bike_id":"41a7c36a-2ba7-456e-9776-92a30f133957","system_id":"levelo_inurba_marseille","lat":43.27185,"lon":5.39161,"is_reserved":false,"is_disabled":false,"rental_uris":{"android":"levelo://app?vid=41a7c36a-2ba7-456e-9776-92a30f133957","ios":"levelo://app?vid=41a7c36a-2ba7-456e-9776-92a30f133957"},"vehicle_type_id":"4","last_reported":1738840037,"current_range_meters":38400,"station_id":"ce4bhhp2rcd13ifvqfm0","pricing_plan_id":"cebpf4jnsgd1na2vs0mg"},{"bike_id":"3476294f-bffe-47f4-86d6-c5448bc71339","system_id":"levelo_inurba_marseille","lat":43.28031,"lon":5.36956,"is_reserved":false,"is_disabled":false,"rental_uris":{"android":"levelo://app?vid=3476294f-bffe-47f4-86d6-c5448bc71339","ios":"levelo://app?vid=3476294f-bffe-47f4-86d6-c5448bc71339"},"vehicle_type_id":"4","last_reported":1738840037,"current_range_meters":24400,"station_id":"ce4bha12rcd13ifvqef0","pricing_plan_id":"cebpf4jnsgd1na2vs0mg"},{"bike_id":"be98d1a4-25d6-4e7e-ac77-f18d78a92b9d","system_id":"levelo_inurba_marseille","lat":43.28171,"lon":5.42624,"is_reserved":false,"is_disabled":false,"rental_uris":{"android":"levelo://app?vid=be98d1a4-25d6-4e7e-ac77-f18d78a92b9d","ios":"levelo://app?vid=be98d1a4-25d6-4e7e-ac77-f18d78a92b9d"},"vehicle_type_id":"4","last_reported":1738840037,"current_range_meters":8000,"station_id":"ce4bhnh2rcd13ifvqgug","pricing_plan_id":"cebpf4jnsgd1na2vs0mg"},{"bike_id":"786af5a6-7181-4746-8e7c-5055a97f6274","system_id":"levelo_inurba_marseille","lat":43.28172,"lon":5.42649,"is_reserved":false,"is_disabled":true,"rental_uris":{"android":"levelo://app?vid=786af5a6-7181-4746-8e7c-5055a97f6274","ios":"levelo://app?vid=786af5a6-7181-4746-8e7c-5055a97f6274"},"vehicle_type_id":"4","last_reported":1738840037,"current_range_meters":28400,"station_id":"ce4bhnh2rcd13ifvqgug","pricing_plan_id":"cebpf4jnsgd1na2vs0mg"},{"bike_id":"e15065a6-8250-416b-8039-693e48ff6eed","system_id":"levelo_inurba_marseille","lat":43.2417,"lon":5.39752,"is_reserved":false,"is_disabled":false,"rental_uris":{"android":"levelo://app?vid=e15065a6-8250-416b-8039-693e48ff6eed","ios":"levelo://app?vid=e15065a6-8250-416b-8039-693e48ff6eed"},"vehicle_type_id":"4","last_reported":1738840037,"current_range_meters":38800,"station_id":"ce4bhn12rcd13ifvqgpg","pricing_plan_id":"cebpf4jnsgd1na2vs0mg"},{"bike_id":"54d12554-7199-47d1-ae2b-5e07e301d9f4","system_id":"levelo_inurba_marseille","lat":43.29914,"lon":5.37483,"is_reserved":false,"is_disabled":false,"rental_uris":{"android":"levelo://app?vid=54d12554-7199-47d1-ae2b-5e07e301d9f4","ios":"levelo://app?vid=54d12554-7199-47d1-ae2b-5e07e301d9f4"},"vehicle_type_id":"4","last_reported":1738840037,"current_range_meters":33200,"station_id":"ce4bgjh2rcd13ifvqbg0","pricing_plan_id":"cebpf4jnsgd1na2vs0mg"},{"bike_id":"dea3caf3-4372-452d-a8b7-101a967d7129","system_id":"levelo_inurba_marseille","lat":43.24178,"lon":5.39735,"is_reserved":false,"is_disabled":false,"rental_uris":{"android":"levelo://app?vid=dea3caf3-4372-452d-a8b7-101a967d7129","ios":"levelo://app?vid=dea3caf3-4372-452d-a8b7-101a967d7129"},"vehicle_type_id":"4","last_reported":1738840037,"current_range_meters":16800,"station_id":"ce4bhn12rcd13ifvqgpg","pricing_plan_id":"cebpf4jnsgd1na2vs0mg"},{"bike_id":"37ffc750-068e-4f45-8927-8f7c4ba45521","system_id":"levelo_inurba_marseille","lat":43.278341,"lon":5.392018,"is_reserved":false,"is_disabled":false,"rental_uris":{"android":"levelo://app?vid=37ffc750-068e-4f45-8927-8f7c4ba45521","ios":"levelo://app?vid=37ffc750-068e-4f45-8927-8f7c4ba45521"},"vehicle_type_id":"4","last_reported":1738840037,"current_range_meters":30000,"station_id":"ce4bhjp2rcd13ifvqga0","pricing_plan_id":"cebpf4jnsgd1na2vs0mg"},{"bike_id":"6cc17b24-c47e-420a-adb6-514dcc7d7a17","system_id":"levelo_inurba_marseille","lat":43.29307,"lon":5.37453,"is_reserved":false,"is_disabled":false,"rental_uris":{"android":"levelo://app?vid=6cc17b24-c47e-420a-adb6-514dcc7d7a17","ios":"levelo://app?vid=6cc17b24-c47e-420a-adb6-514dcc7d7a17"},"vehicle_type_id":"4","last_reported":1738840037,"current_range_meters":38800,"station_id":"ce4bgi12rcd13ifvqb70","pricing_plan_id":"cebpf4jnsgd1na2vs0mg"},{"bike_id":"9b7355dc-7165-40f0-8cd2-81f22484ab5d","system_id":"levelo_inurba_marseille","lat":43.23969,"lon":5.36621,"is_reserved":false,"is_disabled":false,"rental_uris":{"android":"levelo://app?vid=9b7355dc-7165-40f0-8cd2-81f22484ab5d","ios":"levelo://app?vid=9b7355dc-7165-40f0-8cd2-81f22484ab5d"},"vehicle_type_id":"4","last_reported":1738840037,"current_range_meters":32400,"station_id":"ce4bhi12rcd13ifvqfp0","pricing_plan_id":"cebpf4jnsgd1na2vs0mg"},{"bike_id":"90535df1-0ce1-4ee3-9be0-17f57a11fd91","system_id":"levelo_inurba_marseille","lat":43.27372,"lon":5.36261,"is_reserved":false,"is_disabled":false,"rental_uris":{"android":"levelo://app?vid=90535df1-0ce1-4ee3-9be0-17f57a11fd91","ios":"levelo://app?vid=90535df1-0ce1-4ee3-9be0-17f57a11fd91"},"vehicle_type_id":"4","last_reported":1738840037,"current_range_meters":27600,"station_id":"ce4bhbh2rcd13ifvqeo0","pricing_plan_id":"cebpf4jnsgd1na2vs0mg"},{"bike_id":"9b19789b-537f-4ed5-92aa-6fda84d65c3e","system_id":"levelo_inurba_marseille","lat":43.308983,"lon":5.368433,"is_reserved":false,"is_disabled":false,"rental_uris":{"android":"levelo://app?vid=9b19789b-537f-4ed5-92aa-6fda84d65c3e","ios":"levelo://app?vid=9b19789b-537f-4ed5-92aa-6fda84d65c3e"},"vehicle_type_id":"4","last_reported":1738840037,"current_range_meters":18800,"station_id":"ce4bgn92rcd13ifvqbvg","pricing_plan_id":"cebpf4jnsgd1na2vs0mg"},{"bike_id":"5faf1ae7-8dab-473f-a1d4-d668766e2b45","system_id":"levelo_inurba_marseille","lat":43.2668,"lon":5.38263,"is_reserved":false,"is_disabled":false,"rental_uris":{"android":"levelo://app?vid=5faf1ae7-8dab-473f-a1d4-d668766e2b45","ios":"levelo://app?vid=5faf1ae7-8dab-473f-a1d4-d668766e2b45"},"vehicle_type_id":"4","last_reported":1738840037,"current_range_meters":28000,"station_id":"ce4bhg92rcd13ifvqf90","pricing_plan_id":"cebpf4jnsgd1na2vs0mg"},{"bike_id":"931c3b97-cce1-4ebe-a291-6c50a6f2810e","system_id":"levelo_inurba_marseille","lat":43.31799,"lon":5.37418,"is_reserved":false,"is_disabled":true,"rental_uris":{"android":"levelo://app?vid=931c3b97-cce1-4ebe-a291-6c50a6f2810e","ios":"levelo://app?vid=931c3b97-cce1-4ebe-a291-6c50a6f2810e"},"vehicle_type_id":"4","last_reported":1738840037,"current_range_meters":1600,"station_id":"","pricing_plan_id":"cebpf4jnsgd1na2vs0mg"},{"bike_id":"b9452b32-8f5d-4c98-bc11-fee58cf523e3","system_id":"levelo_inurba_marseille","lat":43.29897,"lon":5.43663,"is_reserved":false,"is_disabled":false,"rental_uris":{"android":"levelo://app?vid=b9452b32-8f5d-4c98-bc11-fee58cf523e3","ios":"levelo://app?vid=b9452b32-8f5d-4c98-bc11-fee58cf523e3"},"vehicle_type_id":"4","last_reported":1738840037,"current_range_meters":20400,"station_id":"ce4bhpp2rcd13ifvqhfg","pricing_plan_id":"cebpf4jnsgd1na2vs0mg"},{"bike_id":"b553fb90-bc31-4d0d-b0ad-01b7ba79c22e","system_id":"levelo_inurba_marseille","lat":43.2502,"lon":5.38941,"is_reserved":false,"is_disabled":false,"rental_uris":{"android":"levelo://app?vid=b553fb90-bc31-4d0d-b0ad-01b7ba79c22e","ios":"levelo://app?vid=b553fb90-bc31-4d0d-b0ad-01b7ba79c22e"},"vehicle_type_id":"4","last_reported":1738840037,"current_range_meters":18800,"station_id":"ce4bhgp2rcd13ifvqfd0","pricing_plan_id":"cebpf4jnsgd1na2vs0mg"},{"bike_id":"874de4a1-e3bc-4b6a-b89b-f2d4ac15bc74","system_id":"levelo_inurba_marseille","lat":43.33016,"lon":5.39047,"is_reserved":false,"is_disabled":false,"rental_uris":{"android":"levelo://app?vid=874de4a1-e3bc-4b6a-b89b-f2d4ac15bc74","ios":"levelo://app?vid=874de4a1-e3bc-4b6a-b89b-f2d4ac15bc74"},"vehicle_type_id":"4","last_reported":1738840037,"current_range_meters":31200,"station_id":"ce4bhr92rcd13ifvqhrg","pricing_plan_id":"cebpf4jnsgd1na2vs0mg"},{"bike_id":"cba5128e-47d3-4516-8145-6922824324e1","system_id":"levelo_inurba_marseille","lat":43.27055,"lon":5.40258,"is_reserved":false,"is_disabled":false,"rental_uris":{"android":"levelo://app?vid=cba5128e-47d3-4516-8145-6922824324e1","ios":"levelo://app?vid=cba5128e-47d3-4516-8145-6922824324e1"},"vehicle_type_id":"4","last_reported":1738840037,"current_range_meters":7200,"station_id":"ce4bhk92rcd13ifvqgc0","pricing_plan_id":"cebpf4jnsgd1na2vs0mg"},{"bike_id":"6100990f-c4b7-4419-ab12-3d9c2a9f7c81","system_id":"levelo_inurba_marseille","lat":43.28272,"lon":5.35081,"is_reserved":false,"is_disabled":false,"rental_uris":{"android":"levelo://app?vid=6100990f-c4b7-4419-ab12-3d9c2a9f7c81","ios":"levelo://app?vid=6100990f-c4b7-4419-ab12-3d9c2a9f7c81"},"vehicle_type_id":"4","last_reported":1738840037,"current_range_meters":35200,"station_id":"ce4bhbp2rcd13ifvqerg","pricing_plan_id":"cebpf4jnsgd1na2vs0mg"},{"bike_id":"df422e90-d87c-4c18-a2c8-ad34c8f39129","system_id":"levelo_inurba_marseille","lat":43.2843,"lon":5.39197,"is_reserved":false,"is_disabled":false,"rental_uris":{"android":"levelo://app?vid=df422e90-d87c-4c18-a2c8-ad34c8f39129","ios":"levelo://app?vid=df422e90-d87c-4c18-a2c8-ad34c8f39129"},"vehicle_type_id":"4","last_reported":1738840037,"current_range_meters":38800,"station_id":"ce4bhoh2rcd13ifvqh5g","pricing_plan_id":"cebpf4jnsgd1na2vs0mg"},{"bike_id":"eca76e43-2cb0-49b3-88ed-5412e23449e4","system_id":"levelo_inurba_marseille","lat":43.29264,"lon":5.38449,"is_reserved":false,"is_disabled":false,"rental_uris":{"android":"levelo://app?vid=eca76e43-2cb0-49b3-88ed-5412e23449e4","ios":"levelo://app?vid=eca76e43-2cb0-49b3-88ed-5412e23449e4"},"vehicle_type_id":"4","last_reported":1738840037,"current_range_meters":28400,"station_id":"ce4bh692rcd13ifvqea0","pricing_plan_id":"cebpf4jnsgd1na2vs0mg"},{"bike_id":"f6efe962-0131-47e4-9dda-fd4f708560de","system_id":"levelo_inurba_marseille","lat":43.23149,"lon":5.43725,"is_reserved":false,"is_disabled":false,"rental_uris":{"android":"levelo://app?vid=f6efe962-0131-47e4-9dda-fd4f708560de","ios":"levelo://app?vid=f6efe962-0131-47e4-9dda-fd4f708560de"},"vehicle_type_id":"4","last_reported":1738840037,"current_range_meters":30000,"station_id":"ce4bhmp2rcd13ifvqgog","pricing_plan_id":"cebpf4jnsgd1na2vs0mg"},{"bike_id":"2a480fc9-8aba-413d-b048-db7d23138de6","system_id":"levelo_inurba_marseille","lat":43.29265,"lon":5.38452,"is_reserved":false,"is_disabled":false,"rental_uris":{"android":"levelo://app?vid=2a480fc9-8aba-413d-b048-db7d23138de6","ios":"levelo://app?vid=2a480fc9-8aba-413d-b048-db7d23138de6"},"vehicle_type_id":"4","last_reported":1738840037,"current_range_meters":24800,"station_id":"ce4bh692rcd13ifvqea0","pricing_plan_id":"cebpf4jnsgd1na2vs0mg"},{"bike_id":"de8b98cc-777c-42cf-a67e-2d28d36cc37e","system_id":"levelo_inurba_marseille","lat":43.28366,"lon":5.38097,"is_reserved":false,"is_disabled":false,"rental_uris":{"android":"levelo://app?vid=de8b98cc-777c-42cf-a67e-2d28d36cc37e","ios":"levelo://app?vid=de8b98cc-777c-42cf-a67e-2d28d36cc37e"},"vehicle_type_id":"4","last_reported":1738840037,"current_range_meters":38800,"station_id":"ce4bh412rcd13ifvqdr0","pricing_plan_id":"cebpf4jnsgd1na2vs0mg"},{"bike_id":"e081ab28-36d5-4fbc-bea3-4f8a132df136","system_id":"levelo_inurba_marseille","lat":43.30931,"lon":5.40161,"is_reserved":false,"is_disabled":false,"rental_uris":{"android":"levelo://app?vid=e081ab28-36d5-4fbc-bea3-4f8a132df136","ios":"levelo://app?vid=e081ab28-36d5-4fbc-bea3-4f8a132df136"},"vehicle_type_id":"4","last_reported":1738840037,"current_range_meters":37600,"station_id":"ce4bgvp2rcd13ifvqct0","pricing_plan_id":"cebpf4jnsgd1na2vs0mg"},{"bike_id":"5a3dc70e-cca6-4850-8b0a-be39d9bb82df","system_id":"levelo_inurba_marseille","lat":43.25716,"lon":5.41117,"is_reserved":false,"is_disabled":false,"rental_uris":{"android":"levelo://app?vid=5a3dc70e-cca6-4850-8b0a-be39d9bb82df","ios":"levelo://app?vid=5a3dc70e-cca6-4850-8b0a-be39d9bb82df"},"vehicle_type_id":"4","last_reported":1738840037,"current_range_meters":26800,"station_id":"ce4bhkp2rcd13ifvqgd0","pricing_plan_id":"cebpf4jnsgd1na2vs0mg"},{"bike_id":"bc4186b3-1073-492b-ab95-0326a7b12d0e","system_id":"levelo_inurba_marseille","lat":43.28313,"lon":5.34999,"is_reserved":false,"is_disabled":false,"rental_uris":{"android":"levelo://app?vid=bc4186b3-1073-492b-ab95-0326a7b12d0e","ios":"levelo://app?vid=bc4186b3-1073-492b-ab95-0326a7b12d0e"},"vehicle_type_id":"4","last_reported":1738840037,"current_range_meters":32000,"station_id":"ce4bhbp2rcd13ifvqerg","pricing_plan_id":"cebpf4jnsgd1na2vs0mg"},{"bike_id":"4d04ccd7-41fe-45b8-a433-538275d1104c","system_id":"levelo_inurba_marseille","lat":43.30155,"lon":5.37466,"is_reserved":false,"is_disabled":false,"rental_uris":{"android":"levelo://app?vid=4d04ccd7-41fe-45b8-a433-538275d1104c","ios":"levelo://app?vid=4d04ccd7-41fe-45b8-a433-538275d1104c"},"vehicle_type_id":"4","last_reported":1738840037,"current_range_meters":31200,"station_id":"ce4bgs92rcd13ifvqcc0","pricing_plan_id":"cebpf4jnsgd1na2vs0mg"},{"bike_id":"2502a83f-59c8-4e6c-a522-fa56238bf57b","system_id":"levelo_inurba_marseille","lat":43.24546,"lon":5.39522,"is_reserved":false,"is_disabled":false,"rental_uris":{"android":"levelo://app?vid=2502a83f-59c8-4e6c-a522-fa56238bf57b","ios":"levelo://app?vid=2502a83f-59c8-4e6c-a522-fa56238bf57b"},"vehicle_type_id":"4","last_reported":1738840037,"current_range_meters":33200,"station_id":"ce4bhlp2rcd13ifvqgjg","pricing_plan_id":"cebpf4jnsgd1na2vs0mg"},{"bike_id":"df07776b-57f2-4e8c-b2ab-6e3a926b7866","system_id":"levelo_inurba_marseille","lat":43.2799,"lon":5.41661,"is_reserved":false,"is_disabled":false,"rental_uris":{"android":"levelo://app?vid=df07776b-57f2-4e8c-b2ab-6e3a926b7866","ios":"levelo://app?vid=df07776b-57f2-4e8c-b2ab-6e3a926b7866"},"vehicle_type_id":"4","last_reported":1738840037,"current_range_meters":26000,"station_id":"ce4bho12rcd13ifvqh1g","pricing_plan_id":"cebpf4jnsgd1na2vs0mg"},{"bike_id":"434166d5-5641-4cb0-8226-50315c2bc2ea","system_id":"levelo_inurba_marseille","lat":43.25112,"lon":5.40325,"is_reserved":false,"is_disabled":false,"rental_uris":{"android":"levelo://app?vid=434166d5-5641-4cb0-8226-50315c2bc2ea","ios":"levelo://app?vid=434166d5-5641-4cb0-8226-50315c2bc2ea"},"vehicle_type_id":"4","last_reported":1738840037,"current_range_meters":20800,"station_id":"ce4bhlh2rcd13ifvqgig","pricing_plan_id":"cebpf4jnsgd1na2vs0mg"},{"bike_id":"f2f5faee-8807-4570-acdb-9ab56ad43b0b","system_id":"levelo_inurba_marseille","lat":43.31368,"lon":5.36723,"is_reserved":false,"is_disabled":false,"rental_uris":{"android":"levelo://app?vid=f2f5faee-8807-4570-acdb-9ab56ad43b0b","ios":"levelo://app?vid=f2f5faee-8807-4570-acdb-9ab56ad43b0b"},"vehicle_type_id":"4","last_reported":1738840037,"current_range_meters":27600,"station_id":"ce4bgr92rcd13ifvqc6g","pricing_plan_id":"cebpf4jnsgd1na2vs0mg"},{"bike_id":"2b52254f-933d-4903-ac07-21eb27a1e798","system_id":"levelo_inurba_marseille","lat":43.27186,"lon":5.40997,"is_reserved":false,"is_disabled":false,"rental_uris":{"android":"levelo://app?vid=2b52254f-933d-4903-ac07-21eb27a1e798","ios":"levelo://app?vid=2b52254f-933d-4903-ac07-21eb27a1e798"},"vehicle_type_id":"4","last_reported":1738840037,"current_range_meters":36800,"station_id":"ce4bhl12rcd13ifvqgf0","pricing_plan_id":"cebpf4jnsgd1na2vs0mg"},{"bike_id":"e4391ae8-f020-400c-8dec-8c5d5e5b0e53","system_id":"levelo_inurba_marseille","lat":43.30888,"lon":5.37204,"is_reserved":false,"is_disabled":false,"rental_uris":{"android":"levelo://app?vid=e4391ae8-f020-400c-8dec-8c5d5e5b0e53","ios":"levelo://app?vid=e4391ae8-f020-400c-8dec-8c5d5e5b0e53"},"vehicle_type_id":"4","last_reported":1738840037,"current_range_meters":6400,"station_id":"ce4bguh2rcd13ifvqckg","pricing_plan_id":"cebpf4jnsgd1na2vs0mg"},{"bike_id":"599cece5-0d29-4e11-b46b-81ed71253738","system_id":"levelo_inurba_marseille","lat":43.27978,"lon":5.41664,"is_reserved":false,"is_disabled":false,"rental_uris":{"android":"levelo://app?vid=599cece5-0d29-4e11-b46b-81ed71253738","ios":"levelo://app?vid=599cece5-0d29-4e11-b46b-81ed71253738"},"vehicle_type_id":"4","last_reported":1738840037,"current_range_meters":39200,"station_id":"ce4bho12rcd13ifvqh1g","pricing_plan_id":"cebpf4jnsgd1na2vs0mg"},{"bike_id":"6d3ec936-088f-4802-ba95-2c0493d6c98e","system_id":"levelo_inurba_marseille","lat":43.27504,"lon":5.42469,"is_reserved":false,"is_disabled":false,"rental_uris":{"android":"levelo://app?vid=6d3ec936-088f-4802-ba95-2c0493d6c98e","ios":"levelo://app?vid=6d3ec936-088f-4802-ba95-2c0493d6c98e"},"vehicle_type_id":"4","last_reported":1738840037,"current_range_meters":11200,"station_id":"ce4bhn92rcd13ifvqgrg","pricing_plan_id":"cebpf4jnsgd1na2vs0mg"},{"bike_id":"3fd6cffb-b196-4602-8cca-24f618af4dc8","system_id":"levelo_inurba_marseille","lat":43.29697,"lon":5.37284,"is_reserved":false,"is_disabled":false,"rental_uris":{"android":"levelo://app?vid=3fd6cffb-b196-4602-8cca-24f618af4dc8","ios":"levelo://app?vid=3fd6cffb-b196-4602-8cca-24f618af4dc8"},"vehicle_type_id":"4","last_reported":1738840037,"current_range_meters":39200,"station_id":"ce4bgk12rcd13ifvqbj0","pricing_plan_id":"cebpf4jnsgd1na2vs0mg"},{"bike_id":"407915f2-41ff-4297-882f-2cad73cc62b4","system_id":"levelo_inurba_marseille","lat":43.30916,"lon":5.36853,"is_reserved":false,"is_disabled":false,"rental_uris":{"android":"levelo://app?vid=407915f2-41ff-4297-882f-2cad73cc62b4","ios":"levelo://app?vid=407915f2-41ff-4297-882f-2cad73cc62b4"},"vehicle_type_id":"4","last_reported":1738840037,"current_range_meters":39200,"station_id":"ce4bgn92rcd13ifvqbvg","pricing_plan_id":"cebpf4jnsgd1na2vs0mg"},{"bike_id":"acc0e037-3bae-49b9-9542-c77e0e85e10d","system_id":"levelo_inurba_marseille","lat":43.286527,"lon":5.363569,"is_reserved":false,"is_disabled":false,"rental_uris":{"android":"levelo://app?vid=acc0e037-3bae-49b9-9542-c77e0e85e10d","ios":"levelo://app?vid=acc0e037-3bae-49b9-9542-c77e0e85e10d"},"vehicle_type_id":"4","last_reported":1738840037,"current_range_meters":35200,"station_id":"ce4bhah2rcd13ifvqej0","pricing_plan_id":"cebpf4jnsgd1na2vs0mg"},{"bike_id":"2e06cead-7f65-4ae9-abd5-86c6a93c1cf2","system_id":"levelo_inurba_marseille","lat":43.2925,"lon":5.40908,"is_reserved":false,"is_disabled":false,"rental_uris":{"android":"levelo://app?vid=2e06cead-7f65-4ae9-abd5-86c6a93c1cf2","ios":"levelo://app?vid=2e06cead-7f65-4ae9-abd5-86c6a93c1cf2"},"vehicle_type_id":"4","last_reported":1738840037,"current_range_meters":32400,"station_id":"ce4bh192rcd13ifvqdc0","pricing_plan_id":"cebpf4jnsgd1na2vs0mg"},{"bike_id":"12dd591c-af41-4b22-9fb5-9d4eab8636c6","system_id":"levelo_inurba_marseille","lat":43.30466,"lon":5.37919,"is_reserved":false,"is_disabled":false,"rental_uris":{"android":"levelo://app?vid=12dd591c-af41-4b22-9fb5-9d4eab8636c6","ios":"levelo://app?vid=12dd591c-af41-4b22-9fb5-9d4eab8636c6"},"vehicle_type_id":"4","last_reported":1738840037,"current_range_meters":36000,"station_id":"ce4bgup2rcd13ifvqcn0","pricing_plan_id":"cebpf4jnsgd1na2vs0mg"},{"bike_id":"286f2d70-98eb-4edd-899a-a8aade2f66b8","system_id":"levelo_inurba_marseille","lat":43.31118,"lon":5.3776,"is_reserved":false,"is_disabled":false,"rental_uris":{"android":"levelo://app?vid=286f2d70-98eb-4edd-899a-a8aade2f66b8","ios":"levelo://app?vid=286f2d70-98eb-4edd-899a-a8aade2f66b8"},"vehicle_type_id":"4","last_reported":1738840037,"current_range_meters":15200,"station_id":"ce4bgt92rcd13ifvqcg0","pricing_plan_id":"cebpf4jnsgd1na2vs0mg"},{"bike_id":"9eb01c18-d575-49b0-b335-bff70127852a","system_id":"levelo_inurba_marseille","lat":43.292626,"lon":5.384296,"is_reserved":false,"is_disabled":true,"rental_uris":{"android":"levelo://app?vid=9eb01c18-d575-49b0-b335-bff70127852a","ios":"levelo://app?vid=9eb01c18-d575-49b0-b335-bff70127852a"},"vehicle_type_id":"4","last_reported":1738840037,"current_range_meters":38400,"station_id":"ce4bh692rcd13ifvqea0","pricing_plan_id":"cebpf4jnsgd1na2vs0mg"},{"bike_id":"0a8c6cc1-5149-4ec4-b8a5-47e378c1cf2b","system_id":"levelo_inurba_marseille","lat":43.26556,"lon":5.37285,"is_reserved":false,"is_disabled":false,"rental_uris":{"android":"levelo://app?vid=0a8c6cc1-5149-4ec4-b8a5-47e378c1cf2b","ios":"levelo://app?vid=0a8c6cc1-5149-4ec4-b8a5-47e378c1cf2b"},"vehicle_type_id":"4","last_reported":1738840037,"current_range_meters":28800,"station_id":"ce4bhg12rcd13ifvqf70","pricing_plan_id":"cebpf4jnsgd1na2vs0mg"},{"bike_id":"09963baf-f270-43fd-8845-1d0fc8b80973","system_id":"levelo_inurba_marseille","lat":43.29086,"lon":5.38181,"is_reserved":false,"is_disabled":true,"rental_uris":{"android":"levelo://app?vid=09963baf-f270-43fd-8845-1d0fc8b80973","ios":"levelo://app?vid=09963baf-f270-43fd-8845-1d0fc8b80973"},"vehicle_type_id":"4","last_reported":1738840037,"current_range_meters":0,"station_id":"ce4bh512rcd13ifvqe2g","pricing_plan_id":"cebpf4jnsgd1na2vs0mg"},{"bike_id":"4646af66-0dd4-47cf-83cb-4f3f70a6c2f5","system_id":"levelo_inurba_marseille","lat":43.26678,"lon":5.38278,"is_reserved":false,"is_disabled":false,"rental_uris":{"android":"levelo://app?vid=4646af66-0dd4-47cf-83cb-4f3f70a6c2f5","ios":"levelo://app?vid=4646af66-0dd4-47cf-83cb-4f3f70a6c2f5"},"vehicle_type_id":"4","last_reported":1738840037,"current_range_meters":38800,"station_id":"ce4bhg92rcd13ifvqf90","pricing_plan_id":"cebpf4jnsgd1na2vs0mg"},{"bike_id":"0d749b8b-94c3-4b93-a2e6-e46e0c637030","system_id":"levelo_inurba_marseille","lat":43.29627,"lon":5.38114,"is_reserved":false,"is_disabled":true,"rental_uris":{"android":"levelo://app?vid=0d749b8b-94c3-4b93-a2e6-e46e0c637030","ios":"levelo://app?vid=0d749b8b-94c3-4b93-a2e6-e46e0c637030"},"vehicle_type_id":"4","last_reported":1738840037,"current_range_meters":0,"station_id":"ce4bgl12rcd13ifvqbo0","pricing_plan_id":"cebpf4jnsgd1na2vs0mg"},{"bike_id":"9e1f3f21-cac8-4032-8cc5-7619214da968","system_id":"levelo_inurba_marseille","lat":43.28481,"lon":5.38564,"is_reserved":false,"is_disabled":false,"rental_uris":{"android":"levelo://app?vid=9e1f3f21-cac8-4032-8cc5-7619214da968","ios":"levelo://app?vid=9e1f3f21-cac8-4032-8cc5-7619214da968"},"vehicle_type_id":"4","last_reported":1738840037,"current_range_meters":38800,"station_id":"ce4bh8p2rcd13ifvqeb0","pricing_plan_id":"cebpf4jnsgd1na2vs0mg"},{"bike_id":"47a96e73-c80b-4070-b624-a7a31ae0a933","system_id":"levelo_inurba_marseille","lat":43.30184,"lon":5.36612,"is_reserved":false,"is_disabled":false,"rental_uris":{"android":"levelo://app?vid=47a96e73-c80b-4070-b624-a7a31ae0a933","ios":"levelo://app?vid=47a96e73-c80b-4070-b624-a7a31ae0a933"},"vehicle_type_id":"4","last_reported":1738840037,"current_range_meters":38000,"station_id":"ce4bgrh2rcd13ifvqc8g","pricing_plan_id":"cebpf4jnsgd1na2vs0mg"},{"bike_id":"3d13a1bd-14fb-4bcd-abcd-ded034c2c5a1","system_id":"levelo_inurba_marseille","lat":43.2782,"lon":5.4071,"is_reserved":false,"is_disabled":false,"rental_uris":{"android":"levelo://app?vid=3d13a1bd-14fb-4bcd-abcd-ded034c2c5a1","ios":"levelo://app?vid=3d13a1bd-14fb-4bcd-abcd-ded034c2c5a1"},"vehicle_type_id":"4","last_reported":1738840037,"current_range_meters":39200,"station_id":"ce4bhnh2rcd13ifvqgtg","pricing_plan_id":"cebpf4jnsgd1na2vs0mg"},{"bike_id":"16c08f4f-5078-4227-884d-a77ebbaaee0c","system_id":"levelo_inurba_marseille","lat":43.28135,"lon":5.42669,"is_reserved":false,"is_disabled":false,"rental_uris":{"android":"levelo://app?vid=16c08f4f-5078-4227-884d-a77ebbaaee0c","ios":"levelo://app?vid=16c08f4f-5078-4227-884d-a77ebbaaee0c"},"vehicle_type_id":"4","last_reported":1738840037,"current_range_meters":38800,"station_id":"ce4bhnh2rcd13ifvqgug","pricing_plan_id":"cebpf4jnsgd1na2vs0mg"},{"bike_id":"6970d14c-1dcd-437d-863b-bb444640864e","system_id":"levelo_inurba_marseille","lat":43.30624,"lon":5.4006,"is_reserved":false,"is_disabled":false,"rental_uris":{"android":"levelo://app?vid=6970d14c-1dcd-437d-863b-bb444640864e","ios":"levelo://app?vid=6970d14c-1dcd-437d-863b-bb444640864e"},"vehicle_type_id":"4","last_reported":1738840037,"current_range_meters":15200,"station_id":"ce4bh112rcd13ifvqda0","pricing_plan_id":"cebpf4jnsgd1na2vs0mg"},{"bike_id":"ff3d9c62-eb2a-492c-a8a9-5a5ad5f9a381","system_id":"levelo_inurba_marseille","lat":43.29316,"lon":5.37174,"is_reserved":false,"is_disabled":true,"rental_uris":{"android":"levelo://app?vid=ff3d9c62-eb2a-492c-a8a9-5a5ad5f9a381","ios":"levelo://app?vid=ff3d9c62-eb2a-492c-a8a9-5a5ad5f9a381"},"vehicle_type_id":"4","last_reported":1738840037,"current_range_meters":38400,"station_id":"ce4bgh92rcd13ifvqb40","pricing_plan_id":"cebpf4jnsgd1na2vs0mg"},{"bike_id":"66c91f0e-d404-4399-99c9-77276ceb134d","system_id":"levelo_inurba_marseille","lat":43.30539,"lon":5.36541,"is_reserved":false,"is_disabled":false,"rental_uris":{"android":"levelo://app?vid=66c91f0e-d404-4399-99c9-77276ceb134d","ios":"levelo://app?vid=66c91f0e-d404-4399-99c9-77276ceb134d"},"vehicle_type_id":"4","last_reported":1738840037,"current_range_meters":34800,"station_id":"ce4bgs12rcd13ifvqcag","pricing_plan_id":"cebpf4jnsgd1na2vs0mg"},{"bike_id":"0fe75a77-59c8-4e9b-a9c0-5d484c957c5c","system_id":"levelo_inurba_marseille","lat":43.28713,"lon":5.3793,"is_reserved":false,"is_disabled":true,"rental_uris":{"android":"levelo://app?vid=0fe75a77-59c8-4e9b-a9c0-5d484c957c5c","ios":"levelo://app?vid=0fe75a77-59c8-4e9b-a9c0-5d484c957c5c"},"vehicle_type_id":"4","last_reported":1738840037,"current_range_meters":9200,"station_id":"ce4bh9p2rcd13ifvqec0","pricing_plan_id":"cebpf4jnsgd1na2vs0mg"},{"bike_id":"bab07d03-5352-4a1b-80e4-e1f9df8edacd","system_id":"levelo_inurba_marseille","lat":43.231881,"lon":5.355571,"is_reserved":false,"is_disabled":false,"rental_uris":{"android":"levelo://app?vid=bab07d03-5352-4a1b-80e4-e1f9df8edacd","ios":"levelo://app?vid=bab07d03-5352-4a1b-80e4-e1f9df8edacd"},"vehicle_type_id":"4","last_reported":1738840037,"current_range_meters":33600,"station_id":"ce4bhu92rcd13ifvqi70","pricing_plan_id":"cebpf4jnsgd1na2vs0mg"},{"bike_id":"ae58f566-5afd-4c2c-9a43-e948f526a2e0","system_id":"levelo_inurba_marseille","lat":43.33614,"lon":5.41021,"is_reserved":false,"is_disabled":false,"rental_uris":{"android":"levelo://app?vid=ae58f566-5afd-4c2c-9a43-e948f526a2e0","ios":"levelo://app?vid=ae58f566-5afd-4c2c-9a43-e948f526a2e0"},"vehicle_type_id":"4","last_reported":1738840037,"current_range_meters":25200,"station_id":"ce4bhqh2rcd13ifvqhmg","pricing_plan_id":"cebpf4jnsgd1na2vs0mg"},{"bike_id":"f364ec4e-77a4-4264-a1e7-cc094d8dec9d","system_id":"levelo_inurba_marseille","lat":43.25589,"lon":5.38237,"is_reserved":false,"is_disabled":false,"rental_uris":{"android":"levelo://app?vid=f364ec4e-77a4-4264-a1e7-cc094d8dec9d","ios":"levelo://app?vid=f364ec4e-77a4-4264-a1e7-cc094d8dec9d"},"vehicle_type_id":"4","last_reported":1738840037,"current_range_meters":38800,"station_id":"ce4bhih2rcd13ifvqfs0","pricing_plan_id":"cebpf4jnsgd1na2vs0mg"},{"bike_id":"08040fc4-efda-470c-9580-4019bf44ba10","system_id":"levelo_inurba_marseille","lat":43.24167,"lon":5.364,"is_reserved":false,"is_disabled":false,"rental_uris":{"android":"levelo://app?vid=08040fc4-efda-470c-9580-4019bf44ba10","ios":"levelo://app?vid=08040fc4-efda-470c-9580-4019bf44ba10"},"vehicle_type_id":"4","last_reported":1738840037,"current_range_meters":27200,"station_id":"cpo36qri1sfpv3e86is0","pricing_plan_id":"cebpf4jnsgd1na2vs0mg"},{"bike_id":"3b8e2dc4-e56e-4d1a-b60f-f224de8f13be","system_id":"levelo_inurba_marseille","lat":43.29441,"lon":5.39756,"is_reserved":false,"is_disabled":false,"rental_uris":{"android":"levelo://app?vid=3b8e2dc4-e56e-4d1a-b60f-f224de8f13be","ios":"levelo://app?vid=3b8e2dc4-e56e-4d1a-b60f-f224de8f13be"},"vehicle_type_id":"4","last_reported":1738840037,"current_range_meters":11600,"station_id":"ce4bh3h2rcd13ifvqdo0","pricing_plan_id":"cebpf4jnsgd1na2vs0mg"},{"bike_id":"e754019e-7c8b-4672-9a61-98573c199dda","system_id":"levelo_inurba_marseille","lat":43.32551,"lon":5.41447,"is_reserved":false,"is_disabled":false,"rental_uris":{"android":"levelo://app?vid=e754019e-7c8b-4672-9a61-98573c199dda","ios":"levelo://app?vid=e754019e-7c8b-4672-9a61-98573c199dda"},"vehicle_type_id":"4","last_reported":1738840037,"current_range_meters":39200,"station_id":"ce4bhq12rcd13ifvqhhg","pricing_plan_id":"cebpf4jnsgd1na2vs0mg"},{"bike_id":"595588ff-42cd-4170-8c75-046e92bfb34d","system_id":"levelo_inurba_marseille","lat":43.30482,"lon":5.37908,"is_reserved":false,"is_disabled":true,"rental_uris":{"android":"levelo://app?vid=595588ff-42cd-4170-8c75-046e92bfb34d","ios":"levelo://app?vid=595588ff-42cd-4170-8c75-046e92bfb34d"},"vehicle_type_id":"4","last_reported":1738840037,"current_range_meters":14400,"station_id":"ce4bho92rcd13ifvqh3g","pricing_plan_id":"cebpf4jnsgd1na2vs0mg"},{"bike_id":"738f56e0-4691-484c-a3d4-49c733b2e236","system_id":"levelo_inurba_marseille","lat":43.22942,"lon":5.35392,"is_reserved":false,"is_disabled":false,"rental_uris":{"android":"levelo://app?vid=738f56e0-4691-484c-a3d4-49c733b2e236","ios":"levelo://app?vid=738f56e0-4691-484c-a3d4-49c733b2e236"},"vehicle_type_id":"4","last_reported":1738840037,"current_range_meters":28400,"station_id":"cpo3532slgdg3j2ikp40","pricing_plan_id":"cebpf4jnsgd1na2vs0mg"},{"bike_id":"934710cf-9010-4a78-81b6-34b30dbe6d5c","system_id":"levelo_inurba_marseille","lat":43.262,"lon":5.3794,"is_reserved":false,"is_disabled":false,"rental_uris":{"android":"levelo://app?vid=934710cf-9010-4a78-81b6-34b30dbe6d5c","ios":"levelo://app?vid=934710cf-9010-4a78-81b6-34b30dbe6d5c"},"vehicle_type_id":"4","last_reported":1738840037,"current_range_meters":39200,"station_id":"ce4bhjp2rcd13ifvqg90","pricing_plan_id":"cebpf4jnsgd1na2vs0mg"},{"bike_id":"7a200586-8422-4b95-b5a7-a14ae2a37d63","system_id":"levelo_inurba_marseille","lat":43.33807,"lon":5.3742,"is_reserved":false,"is_disabled":false,"rental_uris":{"android":"levelo://app?vid=7a200586-8422-4b95-b5a7-a14ae2a37d63","ios":"levelo://app?vid=7a200586-8422-4b95-b5a7-a14ae2a37d63"},"vehicle_type_id":"4","last_reported":1738840037,"current_range_meters":34000,"station_id":"","pricing_plan_id":"cebpf4jnsgd1na2vs0mg"},{"bike_id":"ccbc292f-c370-4f3f-821e-eaf3a0a6e9d5","system_id":"levelo_inurba_marseille","lat":43.25719,"lon":5.41126,"is_reserved":false,"is_disabled":false,"rental_uris":{"android":"levelo://app?vid=ccbc292f-c370-4f3f-821e-eaf3a0a6e9d5","ios":"levelo://app?vid=ccbc292f-c370-4f3f-821e-eaf3a0a6e9d5"},"vehicle_type_id":"4","last_reported":1738840037,"current_range_meters":22000,"station_id":"ce4bhkp2rcd13ifvqgd0","pricing_plan_id":"cebpf4jnsgd1na2vs0mg"},{"bike_id":"1581d598-5307-4e55-905b-001a70f200f9","system_id":"levelo_inurba_marseille","lat":43.25746,"lon":5.41056,"is_reserved":false,"is_disabled":false,"rental_uris":{"android":"levelo://app?vid=1581d598-5307-4e55-905b-001a70f200f9","ios":"levelo://app?vid=1581d598-5307-4e55-905b-001a70f200f9"},"vehicle_type_id":"4","last_reported":1738840037,"current_range_meters":39200,"station_id":"ce4bhkp2rcd13ifvqgd0","pricing_plan_id":"cebpf4jnsgd1na2vs0mg"},{"bike_id":"3ae9d3e4-5a85-48c5-9359-37dec08fc4f7","system_id":"levelo_inurba_marseille","lat":43.31258,"lon":5.40174,"is_reserved":false,"is_disabled":false,"rental_uris":{"android":"levelo://app?vid=3ae9d3e4-5a85-48c5-9359-37dec08fc4f7","ios":"levelo://app?vid=3ae9d3e4-5a85-48c5-9359-37dec08fc4f7"},"vehicle_type_id":"4","last_reported":1738840037,"current_range_meters":14800,"station_id":"ce4bh092rcd13ifvqd30","pricing_plan_id":"cebpf4jnsgd1na2vs0mg"},{"bike_id":"87ea7a2e-3367-4617-b793-d6e97e762c1f","system_id":"levelo_inurba_marseille","lat":43.27448,"lon":5.39395,"is_reserved":false,"is_disabled":false,"rental_uris":{"android":"levelo://app?vid=87ea7a2e-3367-4617-b793-d6e97e762c1f","ios":"levelo://app?vid=87ea7a2e-3367-4617-b793-d6e97e762c1f"},"vehicle_type_id":"4","last_reported":1738840037,"current_range_meters":38000,"station_id":"ce4bhdp2rcd13ifvqf20","pricing_plan_id":"cebpf4jnsgd1na2vs0mg"},{"bike_id":"6522239a-3688-4f94-bb02-adaf4a055ea5","system_id":"levelo_inurba_marseille","lat":43.23203,"lon":5.35554,"is_reserved":false,"is_disabled":false,"rental_uris":{"android":"levelo://app?vid=6522239a-3688-4f94-bb02-adaf4a055ea5","ios":"levelo://app?vid=6522239a-3688-4f94-bb02-adaf4a055ea5"},"vehicle_type_id":"4","last_reported":1738840037,"current_range_meters":38800,"station_id":"ce4bhu92rcd13ifvqi70","pricing_plan_id":"cebpf4jnsgd1na2vs0mg"},{"bike_id":"6fd0c732-3a1a-4c3f-8237-1cac68335031","system_id":"levelo_inurba_marseille","lat":43.27485,"lon":5.42447,"is_reserved":false,"is_disabled":true,"rental_uris":{"android":"levelo://app?vid=6fd0c732-3a1a-4c3f-8237-1cac68335031","ios":"levelo://app?vid=6fd0c732-3a1a-4c3f-8237-1cac68335031"},"vehicle_type_id":"4","last_reported":1738840037,"current_range_meters":18000,"station_id":"ce4bhn92rcd13ifvqgrg","pricing_plan_id":"cebpf4jnsgd1na2vs0mg"},{"bike_id":"2067b896-33e2-45f5-86d8-d65552e3842f","system_id":"levelo_inurba_marseille","lat":43.30151,"lon":5.37428,"is_reserved":false,"is_disabled":false,"rental_uris":{"android":"levelo://app?vid=2067b896-33e2-45f5-86d8-d65552e3842f","ios":"levelo://app?vid=2067b896-33e2-45f5-86d8-d65552e3842f"},"vehicle_type_id":"4","last_reported":1738840037,"current_range_meters":38800,"station_id":"ce4bgs92rcd13ifvqcc0","pricing_plan_id":"cebpf4jnsgd1na2vs0mg"},{"bike_id":"cd07e062-2af1-406e-bcb9-5f1ec4730937","system_id":"levelo_inurba_marseille","lat":43.23068,"lon":5.355,"is_reserved":false,"is_disabled":false,"rental_uris":{"android":"levelo://app?vid=cd07e062-2af1-406e-bcb9-5f1ec4730937","ios":"levelo://app?vid=cd07e062-2af1-406e-bcb9-5f1ec4730937"},"vehicle_type_id":"4","last_reported":1738840037,"current_range_meters":36400,"station_id":"cpo3342slgdg3j2ifvpg","pricing_plan_id":"cebpf4jnsgd1na2vs0mg"},{"bike_id":"c3644d12-8427-4602-9945-9ef42c46feca","system_id":"levelo_inurba_marseille","lat":43.24179,"lon":5.36382,"is_reserved":false,"is_disabled":false,"rental_uris":{"android":"levelo://app?vid=c3644d12-8427-4602-9945-9ef42c46feca","ios":"levelo://app?vid=c3644d12-8427-4602-9945-9ef42c46feca"},"vehicle_type_id":"4","last_reported":1738840037,"current_range_meters":36400,"station_id":"cpo36qri1sfpv3e86is0","pricing_plan_id":"cebpf4jnsgd1na2vs0mg"},{"bike_id":"01b41886-2ed6-4662-b87a-6ee149db700f","system_id":"levelo_inurba_marseille","lat":43.29272,"lon":5.36852,"is_reserved":false,"is_disabled":false,"rental_uris":{"android":"levelo://app?vid=01b41886-2ed6-4662-b87a-6ee149db700f","ios":"levelo://app?vid=01b41886-2ed6-4662-b87a-6ee149db700f"},"vehicle_type_id":"4","last_reported":1738840037,"current_range_meters":31200,"station_id":"ce4bhbp2rcd13ifvqesg","pricing_plan_id":"cebpf4jnsgd1na2vs0mg"},{"bike_id":"20815bf0-f955-435e-a63e-482bd619f1c6","system_id":"levelo_inurba_marseille","lat":43.24177,"lon":5.39744,"is_reserved":false,"is_disabled":false,"rental_uris":{"android":"levelo://app?vid=20815bf0-f955-435e-a63e-482bd619f1c6","ios":"levelo://app?vid=20815bf0-f955-435e-a63e-482bd619f1c6"},"vehicle_type_id":"4","last_reported":1738840037,"current_range_meters":36400,"station_id":"ce4bhn12rcd13ifvqgpg","pricing_plan_id":"cebpf4jnsgd1na2vs0mg"},{"bike_id":"1e7bde43-ab8f-4755-b59a-acd0a53ae759","system_id":"levelo_inurba_marseille","lat":43.31694,"lon":5.42413,"is_reserved":false,"is_disabled":true,"rental_uris":{"android":"levelo://app?vid=1e7bde43-ab8f-4755-b59a-acd0a53ae759","ios":"levelo://app?vid=1e7bde43-ab8f-4755-b59a-acd0a53ae759"},"vehicle_type_id":"4","last_reported":1738840037,"current_range_meters":0,"station_id":"ce4bhp92rcd13ifvqhbg","pricing_plan_id":"cebpf4jnsgd1na2vs0mg"},{"bike_id":"53e1d245-2fa1-49d1-bd1b-b723202b5a85","system_id":"levelo_inurba_marseille","lat":43.33606,"lon":5.41044,"is_reserved":false,"is_disabled":false,"rental_uris":{"android":"levelo://app?vid=53e1d245-2fa1-49d1-bd1b-b723202b5a85","ios":"levelo://app?vid=53e1d245-2fa1-49d1-bd1b-b723202b5a85"},"vehicle_type_id":"4","last_reported":1738840037,"current_range_meters":30400,"station_id":"ce4bhqh2rcd13ifvqhmg","pricing_plan_id":"cebpf4jnsgd1na2vs0mg"},{"bike_id":"c53c82a9-eade-4f82-9969-198c4a22bc49","system_id":"levelo_inurba_marseille","lat":43.2721,"lon":5.391879,"is_reserved":false,"is_disabled":false,"rental_uris":{"android":"levelo://app?vid=c53c82a9-eade-4f82-9969-198c4a22bc49","ios":"levelo://app?vid=c53c82a9-eade-4f82-9969-198c4a22bc49"},"vehicle_type_id":"4","last_reported":1738840037,"current_range_meters":25200,"station_id":"ce4bhhp2rcd13ifvqfm0","pricing_plan_id":"cebpf4jnsgd1na2vs0mg"},{"bike_id":"bd944b22-bdc4-45a8-9a31-0c38734abd7e","system_id":"levelo_inurba_marseille","lat":43.28941,"lon":5.36402,"is_reserved":false,"is_disabled":true,"rental_uris":{"android":"levelo://app?vid=bd944b22-bdc4-45a8-9a31-0c38734abd7e","ios":"levelo://app?vid=bd944b22-bdc4-45a8-9a31-0c38734abd7e"},"vehicle_type_id":"4","last_reported":1738840037,"current_range_meters":400,"station_id":"ce4bhc92rcd13ifvqetg","pricing_plan_id":"cebpf4jnsgd1na2vs0mg"},{"bike_id":"323fd1fd-6fc6-4abf-8c9c-e67f624cbd31","system_id":"levelo_inurba_marseille","lat":43.33763,"lon":5.37443,"is_reserved":false,"is_disabled":false,"rental_uris":{"android":"levelo://app?vid=323fd1fd-6fc6-4abf-8c9c-e67f624cbd31","ios":"levelo://app?vid=323fd1fd-6fc6-4abf-8c9c-e67f624cbd31"},"vehicle_type_id":"4","last_reported":1738840037,"current_range_meters":32000,"station_id":"","pricing_plan_id":"cebpf4jnsgd1na2vs0mg"},{"bike_id":"78a4c83f-4d73-437d-9527-15d2cb2bd443","system_id":"levelo_inurba_marseille","lat":43.2815,"lon":5.4265,"is_reserved":false,"is_disabled":false,"rental_uris":{"android":"levelo://app?vid=78a4c83f-4d73-437d-9527-15d2cb2bd443","ios":"levelo://app?vid=78a4c83f-4d73-437d-9527-15d2cb2bd443"},"vehicle_type_id":"4","last_reported":1738840037,"current_range_meters":38800,"station_id":"ce4bhnh2rcd13ifvqgug","pricing_plan_id":"cebpf4jnsgd1na2vs0mg"},{"bike_id":"2ee7c118-49ff-47fe-a9e4-7a60ef2b2763","system_id":"levelo_inurba_marseille","lat":43.32347,"lon":5.38951,"is_reserved":false,"is_disabled":false,"rental_uris":{"android":"levelo://app?vid=2ee7c118-49ff-47fe-a9e4-7a60ef2b2763","ios":"levelo://app?vid=2ee7c118-49ff-47fe-a9e4-7a60ef2b2763"},"vehicle_type_id":"4","last_reported":1738840037,"current_range_meters":30400,"station_id":"ce4bhqp2rcd13ifvqhog","pricing_plan_id":"cebpf4jnsgd1na2vs0mg"},{"bike_id":"45a7daa2-2a2e-4454-90c3-1009aaecc5bd","system_id":"levelo_inurba_marseille","lat":43.232,"lon":5.35549,"is_reserved":false,"is_disabled":false,"rental_uris":{"android":"levelo://app?vid=45a7daa2-2a2e-4454-90c3-1009aaecc5bd","ios":"levelo://app?vid=45a7daa2-2a2e-4454-90c3-1009aaecc5bd"},"vehicle_type_id":"4","last_reported":1738840037,"current_range_meters":38800,"station_id":"ce4bhu92rcd13ifvqi70","pricing_plan_id":"cebpf4jnsgd1na2vs0mg"},{"bike_id":"5d724c6b-2668-447b-ae93-9680fdd6c847","system_id":"levelo_inurba_marseille","lat":43.28716,"lon":5.37935,"is_reserved":false,"is_disabled":false,"rental_uris":{"android":"levelo://app?vid=5d724c6b-2668-447b-ae93-9680fdd6c847","ios":"levelo://app?vid=5d724c6b-2668-447b-ae93-9680fdd6c847"},"vehicle_type_id":"4","last_reported":1738840037,"current_range_meters":38800,"station_id":"ce4bh9p2rcd13ifvqec0","pricing_plan_id":"cebpf4jnsgd1na2vs0mg"},{"bike_id":"aece1634-918f-4f68-8bc7-9a7b7abafc1f","system_id":"levelo_inurba_marseille","lat":43.28152,"lon":5.427,"is_reserved":false,"is_disabled":true,"rental_uris":{"android":"levelo://app?vid=aece1634-918f-4f68-8bc7-9a7b7abafc1f","ios":"levelo://app?vid=aece1634-918f-4f68-8bc7-9a7b7abafc1f"},"vehicle_type_id":"4","last_reported":1738840037,"current_range_meters":26800,"station_id":"ce4bhnh2rcd13ifvqgug","pricing_plan_id":"cebpf4jnsgd1na2vs0mg"},{"bike_id":"aed95c19-b94a-4cd1-bdd0-71dcebbed92e","system_id":"levelo_inurba_marseille","lat":43.325376,"lon":5.414659,"is_reserved":false,"is_disabled":false,"rental_uris":{"android":"levelo://app?vid=aed95c19-b94a-4cd1-bdd0-71dcebbed92e","ios":"levelo://app?vid=aed95c19-b94a-4cd1-bdd0-71dcebbed92e"},"vehicle_type_id":"4","last_reported":1738840037,"current_range_meters":38800,"station_id":"ce4bhq12rcd13ifvqhhg","pricing_plan_id":"cebpf4jnsgd1na2vs0mg"},{"bike_id":"f15323e2-4f0f-461f-9da3-dbaaf5dc0e8b","system_id":"levelo_inurba_marseille","lat":43.29375,"lon":5.37856,"is_reserved":false,"is_disabled":false,"rental_uris":{"android":"levelo://app?vid=f15323e2-4f0f-461f-9da3-dbaaf5dc0e8b","ios":"levelo://app?vid=f15323e2-4f0f-461f-9da3-dbaaf5dc0e8b"},"vehicle_type_id":"4","last_reported":1738840037,"current_range_meters":38000,"station_id":"ce4bgjh2rcd13ifvqbf0","pricing_plan_id":"cebpf4jnsgd1na2vs0mg"},{"bike_id":"3b1d5f28-8e2f-4cd2-84ee-32e60c8bc1d4","system_id":"levelo_inurba_marseille","lat":43.27966,"lon":5.38713,"is_reserved":false,"is_disabled":false,"rental_uris":{"android":"levelo://app?vid=3b1d5f28-8e2f-4cd2-84ee-32e60c8bc1d4","ios":"levelo://app?vid=3b1d5f28-8e2f-4cd2-84ee-32e60c8bc1d4"},"vehicle_type_id":"4","last_reported":1738840037,"current_range_meters":38000,"station_id":"ce4bhg12rcd13ifvqf80","pricing_plan_id":"cebpf4jnsgd1na2vs0mg"},{"bike_id":"66e475f0-1f94-4f0d-9bb7-45c45668a15f","system_id":"levelo_inurba_marseille","lat":43.265,"lon":5.3954,"is_reserved":false,"is_disabled":false,"rental_uris":{"android":"levelo://app?vid=66e475f0-1f94-4f0d-9bb7-45c45668a15f","ios":"levelo://app?vid=66e475f0-1f94-4f0d-9bb7-45c45668a15f"},"vehicle_type_id":"4","last_reported":1738840037,"current_range_meters":28800,"station_id":"ce4bhi12rcd13ifvqfq0","pricing_plan_id":"cebpf4jnsgd1na2vs0mg"},{"bike_id":"dd71d97f-8b4b-4a1b-a8d7-a09a3041be67","system_id":"levelo_inurba_marseille","lat":43.28152,"lon":5.42677,"is_reserved":false,"is_disabled":false,"rental_uris":{"android":"levelo://app?vid=dd71d97f-8b4b-4a1b-a8d7-a09a3041be67","ios":"levelo://app?vid=dd71d97f-8b4b-4a1b-a8d7-a09a3041be67"},"vehicle_type_id":"4","last_reported":1738840037,"current_range_meters":38000,"station_id":"ce4bhnh2rcd13ifvqgug","pricing_plan_id":"cebpf4jnsgd1na2vs0mg"},{"bike_id":"a17b902b-bafc-49d0-9389-2ce74253b3a1","system_id":"levelo_inurba_marseille","lat":43.27188,"lon":5.41,"is_reserved":false,"is_disabled":false,"rental_uris":{"android":"levelo://app?vid=a17b902b-bafc-49d0-9389-2ce74253b3a1","ios":"levelo://app?vid=a17b902b-bafc-49d0-9389-2ce74253b3a1"},"vehicle_type_id":"4","last_reported":1738840037,"current_range_meters":38800,"station_id":"ce4bhl12rcd13ifvqgf0","pricing_plan_id":"cebpf4jnsgd1na2vs0mg"},{"bike_id":"82928581-7cae-4db3-9a68-a5b9ec34a9ee","system_id":"levelo_inurba_marseille","lat":43.31892,"lon":5.433624,"is_reserved":false,"is_disabled":true,"rental_uris":{"android":"levelo://app?vid=82928581-7cae-4db3-9a68-a5b9ec34a9ee","ios":"levelo://app?vid=82928581-7cae-4db3-9a68-a5b9ec34a9ee"},"vehicle_type_id":"4","last_reported":1738840037,"current_range_meters":0,"station_id":"","pricing_plan_id":"cebpf4jnsgd1na2vs0mg"},{"bike_id":"9570fd30-4823-4c4c-9c30-a0698b1ec018","system_id":"levelo_inurba_marseille","lat":43.26563,"lon":5.37275,"is_reserved":false,"is_disabled":false,"rental_uris":{"android":"levelo://app?vid=9570fd30-4823-4c4c-9c30-a0698b1ec018","ios":"levelo://app?vid=9570fd30-4823-4c4c-9c30-a0698b1ec018"},"vehicle_type_id":"4","last_reported":1738840037,"current_range_meters":38800,"station_id":"ce4bhg12rcd13ifvqf70","pricing_plan_id":"cebpf4jnsgd1na2vs0mg"},{"bike_id":"ecae73d1-2c66-4113-a621-fef7465426a7","system_id":"levelo_inurba_marseille","lat":43.231838,"lon":5.355703,"is_reserved":false,"is_disabled":false,"rental_uris":{"android":"levelo://app?vid=ecae73d1-2c66-4113-a621-fef7465426a7","ios":"levelo://app?vid=ecae73d1-2c66-4113-a621-fef7465426a7"},"vehicle_type_id":"4","last_reported":1738840037,"current_range_meters":24000,"station_id":"ce4bhu92rcd13ifvqi70","pricing_plan_id":"cebpf4jnsgd1na2vs0mg"},{"bike_id":"b3215240-4dd2-4eb3-a277-f713905ed079","system_id":"levelo_inurba_marseille","lat":43.26196,"lon":5.37461,"is_reserved":false,"is_disabled":true,"rental_uris":{"android":"levelo://app?vid=b3215240-4dd2-4eb3-a277-f713905ed079","ios":"levelo://app?vid=b3215240-4dd2-4eb3-a277-f713905ed079"},"vehicle_type_id":"4","last_reported":1738840037,"current_range_meters":0,"station_id":"ce4bhgp2rcd13ifvqfc0","pricing_plan_id":"cebpf4jnsgd1na2vs0mg"},{"bike_id":"8a3b1adc-e338-472b-9199-ede1c4fce4fb","system_id":"levelo_inurba_marseille","lat":43.30493,"lon":5.37911,"is_reserved":false,"is_disabled":false,"rental_uris":{"android":"levelo://app?vid=8a3b1adc-e338-472b-9199-ede1c4fce4fb","ios":"levelo://app?vid=8a3b1adc-e338-472b-9199-ede1c4fce4fb"},"vehicle_type_id":"4","last_reported":1738840037,"current_range_meters":38800,"station_id":"ce4bgup2rcd13ifvqcn0","pricing_plan_id":"cebpf4jnsgd1na2vs0mg"},{"bike_id":"25573098-4690-4e6f-82a5-b43599622b37","system_id":"levelo_inurba_marseille","lat":43.29613,"lon":5.37167,"is_reserved":false,"is_disabled":false,"rental_uris":{"android":"levelo://app?vid=25573098-4690-4e6f-82a5-b43599622b37","ios":"levelo://app?vid=25573098-4690-4e6f-82a5-b43599622b37"},"vehicle_type_id":"4","last_reported":1738840037,"current_range_meters":38000,"station_id":"ce4bgnh2rcd13ifvqc0g","pricing_plan_id":"cebpf4jnsgd1na2vs0mg"},{"bike_id":"0a1d80a5-8567-473e-862c-e2d2e710157a","system_id":"levelo_inurba_marseille","lat":43.28425,"lon":5.34973,"is_reserved":false,"is_disabled":false,"rental_uris":{"android":"levelo://app?vid=0a1d80a5-8567-473e-862c-e2d2e710157a","ios":"levelo://app?vid=0a1d80a5-8567-473e-862c-e2d2e710157a"},"vehicle_type_id":"4","last_reported":1738840037,"current_range_meters":30000,"station_id":"ce4bhbh2rcd13ifvqepg","pricing_plan_id":"cebpf4jnsgd1na2vs0mg"},{"bike_id":"ef15b174-9029-4622-95b2-4e5f874342a6","system_id":"levelo_inurba_marseille","lat":43.24077,"lon":5.37732,"is_reserved":false,"is_disabled":false,"rental_uris":{"android":"levelo://app?vid=ef15b174-9029-4622-95b2-4e5f874342a6","ios":"levelo://app?vid=ef15b174-9029-4622-95b2-4e5f874342a6"},"vehicle_type_id":"4","last_reported":1738840037,"current_range_meters":38800,"station_id":"ce4bhnp2rcd13ifvqgvg","pricing_plan_id":"cebpf4jnsgd1na2vs0mg"},{"bike_id":"efc75f68-c0e7-4c38-a126-0f2ae1afe39d","system_id":"levelo_inurba_marseille","lat":43.27174,"lon":5.41004,"is_reserved":false,"is_disabled":false,"rental_uris":{"android":"levelo://app?vid=efc75f68-c0e7-4c38-a126-0f2ae1afe39d","ios":"levelo://app?vid=efc75f68-c0e7-4c38-a126-0f2ae1afe39d"},"vehicle_type_id":"4","last_reported":1738840037,"current_range_meters":38800,"station_id":"ce4bhl12rcd13ifvqgf0","pricing_plan_id":"cebpf4jnsgd1na2vs0mg"},{"bike_id":"c8867084-73b3-4ef6-939b-90719c3af5d4","system_id":"levelo_inurba_marseille","lat":43.24162,"lon":5.36421,"is_reserved":false,"is_disabled":false,"rental_uris":{"android":"levelo://app?vid=c8867084-73b3-4ef6-939b-90719c3af5d4","ios":"levelo://app?vid=c8867084-73b3-4ef6-939b-90719c3af5d4"},"vehicle_type_id":"4","last_reported":1738840037,"current_range_meters":38800,"station_id":"cpo36qri1sfpv3e86is0","pricing_plan_id":"cebpf4jnsgd1na2vs0mg"},{"bike_id":"0dc28690-d1fc-4c68-886e-a1e203ae5896","system_id":"levelo_inurba_marseille","lat":43.3134,"lon":5.3682,"is_reserved":false,"is_disabled":false,"rental_uris":{"android":"levelo://app?vid=0dc28690-d1fc-4c68-886e-a1e203ae5896","ios":"levelo://app?vid=0dc28690-d1fc-4c68-886e-a1e203ae5896"},"vehicle_type_id":"4","last_reported":1738840037,"current_range_meters":38800,"station_id":"ce4bgr92rcd13ifvqc6g","pricing_plan_id":"cebpf4jnsgd1na2vs0mg"},{"bike_id":"e815bea6-a15d-4e98-b368-59ecfebf95c5","system_id":"levelo_inurba_marseille","lat":43.30918,"lon":5.3687,"is_reserved":false,"is_disabled":false,"rental_uris":{"android":"levelo://app?vid=e815bea6-a15d-4e98-b368-59ecfebf95c5","ios":"levelo://app?vid=e815bea6-a15d-4e98-b368-59ecfebf95c5"},"vehicle_type_id":"4","last_reported":1738840037,"current_range_meters":39200,"station_id":"ce4bgn92rcd13ifvqbvg","pricing_plan_id":"cebpf4jnsgd1na2vs0mg"},{"bike_id":"aa16a0f0-f75a-444e-a590-729c050ae236","system_id":"levelo_inurba_marseille","lat":43.231617,"lon":5.399983,"is_reserved":false,"is_disabled":false,"rental_uris":{"android":"levelo://app?vid=aa16a0f0-f75a-444e-a590-729c050ae236","ios":"levelo://app?vid=aa16a0f0-f75a-444e-a590-729c050ae236"},"vehicle_type_id":"4","last_reported":1738840037,"current_range_meters":22400,"station_id":"ce4bhn12rcd13ifvqgqg","pricing_plan_id":"cebpf4jnsgd1na2vs0mg"},{"bike_id":"c6a64351-9db3-4bb5-be12-a507bb068d20","system_id":"levelo_inurba_marseille","lat":43.30273,"lon":5.37702,"is_reserved":false,"is_disabled":false,"rental_uris":{"android":"levelo://app?vid=c6a64351-9db3-4bb5-be12-a507bb068d20","ios":"levelo://app?vid=c6a64351-9db3-4bb5-be12-a507bb068d20"},"vehicle_type_id":"4","last_reported":1738840037,"current_range_meters":32400,"station_id":"ce4bguh2rcd13ifvqcj0","pricing_plan_id":"cebpf4jnsgd1na2vs0mg"},{"bike_id":"66502117-174e-4624-bc1b-cdfaf99d636f","system_id":"levelo_inurba_marseille","lat":43.3046,"lon":5.37904,"is_reserved":false,"is_disabled":false,"rental_uris":{"android":"levelo://app?vid=66502117-174e-4624-bc1b-cdfaf99d636f","ios":"levelo://app?vid=66502117-174e-4624-bc1b-cdfaf99d636f"},"vehicle_type_id":"4","last_reported":1738840037,"current_range_meters":20800,"station_id":"ce4bgup2rcd13ifvqcn0","pricing_plan_id":"cebpf4jnsgd1na2vs0mg"},{"bike_id":"97e3f16d-c680-499c-b7df-c4ab9d43861c","system_id":"levelo_inurba_marseille","lat":43.23191,"lon":5.3999,"is_reserved":false,"is_disabled":false,"rental_uris":{"android":"levelo://app?vid=97e3f16d-c680-499c-b7df-c4ab9d43861c","ios":"levelo://app?vid=97e3f16d-c680-499c-b7df-c4ab9d43861c"},"vehicle_type_id":"4","last_reported":1738840037,"current_range_meters":18800,"station_id":"ce4bhn12rcd13ifvqgqg","pricing_plan_id":"cebpf4jnsgd1na2vs0mg"},{"bike_id":"8f505006-3de3-4ef2-97aa-50d38fefd4ef","system_id":"levelo_inurba_marseille","lat":43.27417,"lon":5.39415,"is_reserved":false,"is_disabled":false,"rental_uris":{"android":"levelo://app?vid=8f505006-3de3-4ef2-97aa-50d38fefd4ef","ios":"levelo://app?vid=8f505006-3de3-4ef2-97aa-50d38fefd4ef"},"vehicle_type_id":"4","last_reported":1738840037,"current_range_meters":38400,"station_id":"ce4bhdp2rcd13ifvqf20","pricing_plan_id":"cebpf4jnsgd1na2vs0mg"},{"bike_id":"1d39db26-f63e-47ca-96af-759972ec17a4","system_id":"levelo_inurba_marseille","lat":43.27378,"lon":5.3627,"is_reserved":false,"is_disabled":false,"rental_uris":{"android":"levelo://app?vid=1d39db26-f63e-47ca-96af-759972ec17a4","ios":"levelo://app?vid=1d39db26-f63e-47ca-96af-759972ec17a4"},"vehicle_type_id":"4","last_reported":1738840037,"current_range_meters":38800,"station_id":"ce4bhbh2rcd13ifvqeo0","pricing_plan_id":"cebpf4jnsgd1na2vs0mg"},{"bike_id":"09b6cb25-2a49-4fab-afe0-5ad8d63a05a0","system_id":"levelo_inurba_marseille","lat":43.29362,"lon":5.37863,"is_reserved":false,"is_disabled":false,"rental_uris":{"android":"levelo://app?vid=09b6cb25-2a49-4fab-afe0-5ad8d63a05a0","ios":"levelo://app?vid=09b6cb25-2a49-4fab-afe0-5ad8d63a05a0"},"vehicle_type_id":"4","last_reported":1738840037,"current_range_meters":13600,"station_id":"ce4bgjh2rcd13ifvqbf0","pricing_plan_id":"cebpf4jnsgd1na2vs0mg"},{"bike_id":"1b006f4f-be66-4f26-b0c6-dcd66bf61b6b","system_id":"levelo_inurba_marseille","lat":43.28034,"lon":5.36953,"is_reserved":false,"is_disabled":false,"rental_uris":{"android":"levelo://app?vid=1b006f4f-be66-4f26-b0c6-dcd66bf61b6b","ios":"levelo://app?vid=1b006f4f-be66-4f26-b0c6-dcd66bf61b6b"},"vehicle_type_id":"4","last_reported":1738840037,"current_range_meters":24000,"station_id":"ce4bha12rcd13ifvqef0","pricing_plan_id":"cebpf4jnsgd1na2vs0mg"},{"bike_id":"a13906c5-4f9e-4988-ab41-e13bc89f66bf","system_id":"levelo_inurba_marseille","lat":43.2984,"lon":5.36313,"is_reserved":false,"is_disabled":false,"rental_uris":{"android":"levelo://app?vid=a13906c5-4f9e-4988-ab41-e13bc89f66bf","ios":"levelo://app?vid=a13906c5-4f9e-4988-ab41-e13bc89f66bf"},"vehicle_type_id":"4","last_reported":1738840037,"current_range_meters":9600,"station_id":"ce4bgpp2rcd13ifvqc3g","pricing_plan_id":"cebpf4jnsgd1na2vs0mg"},{"bike_id":"45da2b68-d456-4dfb-a6de-301a7dd2ebd8","system_id":"levelo_inurba_marseille","lat":43.3112,"lon":5.37782,"is_reserved":false,"is_disabled":false,"rental_uris":{"android":"levelo://app?vid=45da2b68-d456-4dfb-a6de-301a7dd2ebd8","ios":"levelo://app?vid=45da2b68-d456-4dfb-a6de-301a7dd2ebd8"},"vehicle_type_id":"4","last_reported":1738840037,"current_range_meters":23200,"station_id":"ce4bgt92rcd13ifvqcg0","pricing_plan_id":"cebpf4jnsgd1na2vs0mg"},{"bike_id":"e36b985d-9bfb-4052-839b-86e805c0d8fc","system_id":"levelo_inurba_marseille","lat":43.31174,"lon":5.38725,"is_reserved":false,"is_disabled":false,"rental_uris":{"android":"levelo://app?vid=e36b985d-9bfb-4052-839b-86e805c0d8fc","ios":"levelo://app?vid=e36b985d-9bfb-4052-839b-86e805c0d8fc"},"vehicle_type_id":"4","last_reported":1738840037,"current_range_meters":37600,"station_id":"ce4bgv12rcd13ifvqcp0","pricing_plan_id":"cebpf4jnsgd1na2vs0mg"},{"bike_id":"c1a7392a-6352-4155-88f1-a5abd14b178d","system_id":"levelo_inurba_marseille","lat":43.276654,"lon":5.389445,"is_reserved":false,"is_disabled":false,"rental_uris":{"android":"levelo://app?vid=c1a7392a-6352-4155-88f1-a5abd14b178d","ios":"levelo://app?vid=c1a7392a-6352-4155-88f1-a5abd14b178d"},"vehicle_type_id":"4","last_reported":1738840037,"current_range_meters":11600,"station_id":"ce4bhi12rcd13ifvqfo0","pricing_plan_id":"cebpf4jnsgd1na2vs0mg"},{"bike_id":"2abe9708-9379-4a03-9845-e60b4d7451ca","system_id":"levelo_inurba_marseille","lat":43.330129,"lon":5.390508,"is_reserved":false,"is_disabled":false,"rental_uris":{"android":"levelo://app?vid=2abe9708-9379-4a03-9845-e60b4d7451ca","ios":"levelo://app?vid=2abe9708-9379-4a03-9845-e60b4d7451ca"},"vehicle_type_id":"4","last_reported":1738840037,"current_range_meters":25600,"station_id":"ce4bhr92rcd13ifvqhrg","pricing_plan_id":"cebpf4jnsgd1na2vs0mg"},{"bike_id":"5d5666b4-0a8b-4294-8c20-dcc21683403b","system_id":"levelo_inurba_marseille","lat":43.28978,"lon":5.3784,"is_reserved":false,"is_disabled":false,"rental_uris":{"android":"levelo://app?vid=5d5666b4-0a8b-4294-8c20-dcc21683403b","ios":"levelo://app?vid=5d5666b4-0a8b-4294-8c20-dcc21683403b"},"vehicle_type_id":"4","last_reported":1738840037,"current_range_meters":28400,"station_id":"ce4bh9p2rcd13ifvqed0","pricing_plan_id":"cebpf4jnsgd1na2vs0mg"},{"bike_id":"8aab57d3-ccd7-4a7e-8d92-acc1be3939df","system_id":"levelo_inurba_marseille","lat":43.27182,"lon":5.39175,"is_reserved":false,"is_disabled":false,"rental_uris":{"android":"levelo://app?vid=8aab57d3-ccd7-4a7e-8d92-acc1be3939df","ios":"levelo://app?vid=8aab57d3-ccd7-4a7e-8d92-acc1be3939df"},"vehicle_type_id":"4","last_reported":1738840037,"current_range_meters":38800,"station_id":"ce4bhhp2rcd13ifvqfm0","pricing_plan_id":"cebpf4jnsgd1na2vs0mg"},{"bike_id":"d5d9a3e9-b6b9-4496-97c0-0d638a64e82b","system_id":"levelo_inurba_marseille","lat":43.25823,"lon":5.39464,"is_reserved":false,"is_disabled":false,"rental_uris":{"android":"levelo://app?vid=d5d9a3e9-b6b9-4496-97c0-0d638a64e82b","ios":"levelo://app?vid=d5d9a3e9-b6b9-4496-97c0-0d638a64e82b"},"vehicle_type_id":"4","last_reported":1738840037,"current_range_meters":36400,"station_id":"ce4bhip2rcd13ifvqft0","pricing_plan_id":"cebpf4jnsgd1na2vs0mg"},{"bike_id":"0c8eec95-60e0-43f1-a3e2-0b6e8160b274","system_id":"levelo_inurba_marseille","lat":43.29797,"lon":5.38108,"is_reserved":false,"is_disabled":false,"rental_uris":{"android":"levelo://app?vid=0c8eec95-60e0-43f1-a3e2-0b6e8160b274","ios":"levelo://app?vid=0c8eec95-60e0-43f1-a3e2-0b6e8160b274"},"vehicle_type_id":"4","last_reported":1738840037,"current_range_meters":27200,"station_id":"ce4bgip2rcd13ifvqbb0","pricing_plan_id":"cebpf4jnsgd1na2vs0mg"},{"bike_id":"9f2812f1-aa9c-4d0b-be5f-ed61813186a6","system_id":"levelo_inurba_marseille","lat":43.28851,"lon":5.39333,"is_reserved":false,"is_disabled":false,"rental_uris":{"android":"levelo://app?vid=9f2812f1-aa9c-4d0b-be5f-ed61813186a6","ios":"levelo://app?vid=9f2812f1-aa9c-4d0b-be5f-ed61813186a6"},"vehicle_type_id":"4","last_reported":1738840037,"current_range_meters":38800,"station_id":"ce4bh2p2rcd13ifvqdi0","pricing_plan_id":"cebpf4jnsgd1na2vs0mg"},{"bike_id":"eb6107a0-42f3-4f68-ad7b-fcb0117c564f","system_id":"levelo_inurba_marseille","lat":43.30153,"lon":5.38079,"is_reserved":false,"is_disabled":false,"rental_uris":{"android":"levelo://app?vid=eb6107a0-42f3-4f68-ad7b-fcb0117c564f","ios":"levelo://app?vid=eb6107a0-42f3-4f68-ad7b-fcb0117c564f"},"vehicle_type_id":"4","last_reported":1738840037,"current_range_meters":34800,"station_id":"ce4bgjp2rcd13ifvqbh0","pricing_plan_id":"cebpf4jnsgd1na2vs0mg"},{"bike_id":"ec58a886-eddf-413c-9588-048d119536b0","system_id":"levelo_inurba_marseille","lat":43.27992,"lon":5.40006,"is_reserved":false,"is_disabled":false,"rental_uris":{"android":"levelo://app?vid=ec58a886-eddf-413c-9588-048d119536b0","ios":"levelo://app?vid=ec58a886-eddf-413c-9588-048d119536b0"},"vehicle_type_id":"4","last_reported":1738840037,"current_range_meters":2800,"station_id":"ce4bho92rcd13ifvqh4g","pricing_plan_id":"cebpf4jnsgd1na2vs0mg"},{"bike_id":"73d95778-45a8-4962-8242-592df60b779e","system_id":"levelo_inurba_marseille","lat":43.30184,"lon":5.36621,"is_reserved":false,"is_disabled":false,"rental_uris":{"android":"levelo://app?vid=73d95778-45a8-4962-8242-592df60b779e","ios":"levelo://app?vid=73d95778-45a8-4962-8242-592df60b779e"},"vehicle_type_id":"4","last_reported":1738840037,"current_range_meters":33600,"station_id":"ce4bgrh2rcd13ifvqc8g","pricing_plan_id":"cebpf4jnsgd1na2vs0mg"},{"bike_id":"4c91281c-bb30-4c8f-959e-a869ba430bb2","system_id":"levelo_inurba_marseille","lat":43.28145,"lon":5.42657,"is_reserved":false,"is_disabled":false,"rental_uris":{"android":"levelo://app?vid=4c91281c-bb30-4c8f-959e-a869ba430bb2","ios":"levelo://app?vid=4c91281c-bb30-4c8f-959e-a869ba430bb2"},"vehicle_type_id":"4","last_reported":1738840037,"current_range_meters":4800,"station_id":"ce4bhnh2rcd13ifvqgug","pricing_plan_id":"cebpf4jnsgd1na2vs0mg"},{"bike_id":"bf12c012-edcf-48b9-9fe9-0a7fe81d5114","system_id":"levelo_inurba_marseille","lat":43.30905,"lon":5.3686,"is_reserved":false,"is_disabled":false,"rental_uris":{"android":"levelo://app?vid=bf12c012-edcf-48b9-9fe9-0a7fe81d5114","ios":"levelo://app?vid=bf12c012-edcf-48b9-9fe9-0a7fe81d5114"},"vehicle_type_id":"4","last_reported":1738840037,"current_range_meters":30800,"station_id":"ce4bgn92rcd13ifvqbvg","pricing_plan_id":"cebpf4jnsgd1na2vs0mg"},