{"last_updated":1734786766,"ttl":60,"version":"2.2","data":{"bikes":[{"bike_id":"7d7d77c5-86d8-4b4c-9763-4b91f9fe95f3","system_id":"levelo_inurba_marseille","lat":43.29513,"lon":5.39031,"is_reserved":false,"is_disabled":false,"rental_uris":{"android":"levelo://app?vid=7d7d77c5-86d8-4b4c-9763-4b91f9fe95f3","ios":"levelo://app?vid=7d7d77c5-86d8-4b4c-9763-4b91f9fe95f3"},"vehicle_type_id":"4","last_reported":1734786767,"current_range_meters":25600,"station_id":"ce4bh3p2rcd13ifvqdp0","pricing_plan_id":"cebpf4jnsgd1na2vs0mg"},{"bike_id":"6475eb4f-8984-4b09-8dcc-0c2165b049c6","system_id":"levelo_inurba_marseille","lat":43.295747,"lon":5.399878,"is_reserved":false,"is_disabled":false,"rental_uris":{"android":"levelo://app?vid=6475eb4f-8984-4b09-8dcc-0c2165b049c6","ios":"levelo://app?vid=6475eb4f-8984-4b09-8dcc-0c2165b049c6"},"vehicle_type_id":"4","last_reported":1734786767,"current_range_meters":38000,"station_id":"ce4bh312rcd13ifvqdj0","pricing_plan_id":"cebpf4jnsgd1na2vs0mg"},{"bike_id":"12b28a6a-a08d-4088-a058-24fc8a1b7dad","system_id":"levelo_inurba_marseille","lat":43.25859,"lon":5.3992,"is_reserved":false,"is_disabled":false,"rental_uris":{"android":"levelo://app?vid=12b28a6a-a08d-4088-a058-24fc8a1b7dad","ios":"levelo://app?vid=12b28a6a-a08d-4088-a058-24fc8a1b7dad"},"vehicle_type_id":"4","last_reported":1734786767,"current_range_meters":39200,"station_id":"ce4bhl92rcd13ifvqghg","pricing_plan_id":"cebpf4jnsgd1na2vs0mg"},{"bike_id":"24041a61-6630-4c4c-89da-019f888e35f5","system_id":"levelo_inurba_marseille","lat":43.28717,"lon":5.40003,"is_reserved":false,"is_disabled":true,"rental_uris":{"android":"levelo://app?vid=24041a61-6630-4c4c-89da-019f888e35f5","ios":"levelo://app?vid=24041a61-6630-4c4c-89da-019f888e35f5"},"vehicle_type_id":"4","last_reported":1734786767,"current_range_meters":29600,"station_id":"ce4bho92rcd13ifvqh3g","pricing_plan_id":"cebpf4jnsgd1na2vs0mg"},{"bike_id":"aa496fe5-ff01-4c76-b230-91db42ff1c79","system_id":"levelo_inurba_marseille","lat":43.26944,"lon":5.40245,"is_reserved":false,"is_disabled":false,"rental_uris":{"android":"levelo://app?vid=aa496fe5-ff01-4c76-b230-91db42ff1c79","ios":"levelo://app?vid=aa496fe5-ff01-4c76-b230-91db42ff1c79"},"vehicle_type_id":"4","last_reported":1734786767,"current_range_meters":36400,"station_id":"cjm6bp8fraef2m0cb0m0","pricing_plan_id":"cebpf4jnsgd1na2vs0mg"},{"bike_id":"19b4fa94-a9e7-43f4-bb42-436dcb8c21dd","system_id":"levelo_inurba_marseille","lat":43.29,"lon":5.35613,"is_reserved":false,"is_disabled":false,"rental_uris":{"android":"levelo://app?vid=19b4fa94-a9e7-43f4-bb42-436dcb8c21dd","ios":"levelo://app?vid=19b4fa94-a9e7-43f4-bb42-436dcb8c21dd"},"vehicle_type_id":"4","last_reported":1734786767,"current_range_meters":39200,"station_id":"ce4bhb92rcd13ifvqen0","pricing_plan_id":"cebpf4jnsgd1na2vs0mg"},{"bike_id":"60c2770b-5058-46c1-8a5a-bebef3f8d4d5","system_id":"levelo_inurba_marseille","lat":43.29565,"lon":5.37517,"is_reserved":false,"is_disabled":false,"rental_uris":{"android":"levelo://app?vid=60c2770b-5058-46c1-8a5a-bebef3f8d4d5","ios":"levelo://app?vid=60c2770b-5058-46c1-8a5a-bebef3f8d4d5"},"vehicle_type_id":"4","last_reported":1734786767,"current_range_meters":19200,"station_id":"ce4bgh92rcd13ifvqb50","pricing_plan_id":"cebpf4jnsgd1na2vs0mg"},{"bike_id":"95108e3b-e762-4981-8873-4531fcb48fc1","system_id":"levelo_inurba_marseille","lat":43.30434,"lon":5.38897,"is_reserved":false,"is_disabled":false,"rental_uris":{"android":"levelo://app?vid=95108e3b-e762-4981-8873-4531fcb48fc1","ios":"levelo://app?vid=95108e3b-e762-4981-8873-4531fcb48fc1"},"vehicle_type_id":"4","last_reported":1734786767,"current_range_meters":28400,"station_id":"ce4bgk12rcd13ifvqbi0","pricing_plan_id":"cebpf4jnsgd1na2vs0mg"},{"bike_id":"96f67906-c94f-4a78-ae6e-fdff28a17019","system_id":"levelo_inurba_marseille","lat":43.337444,"lon":5.374475,"is_reserved":false,"is_disabled":false,"rental_uris":{"android":"levelo://app?vid=96f67906-c94f-4a78-ae6e-fdff28a17019","ios":"levelo://app?vid=96f67906-c94f-4a78-ae6e-fdff28a17019"},"vehicle_type_id":"4","last_reported":1734786767,"current_range_meters":38400,"station_id":"","pricing_plan_id":"cebpf4jnsgd1na2vs0mg"},{"bike_id":"6d401513-66ba-4f40-af76-25e509695a78","system_id":"levelo_inurba_marseille","lat":43.29204,"lon":5.361,"is_reserved":false,"is_disabled":false,"rental_uris":{"android":"levelo://app?vid=6d401513-66ba-4f40-af76-25e509695a78","ios":"levelo://app?vid=6d401513-66ba-4f40-af76-25e509695a78"},"vehicle_type_id":"4","last_reported":1734786767,"current_range_meters":24400,"station_id":"ce4bhbh2rcd13ifvqeqg","pricing_plan_id":"cebpf4jnsgd1na2vs0mg"},{"bike_id":"f42f783e-769a-4b80-ae8e-683f87caab35","system_id":"levelo_inurba_marseille","lat":43.29724,"lon":5.37749,"is_reserved":false,"is_disabled":false,"rental_uris":{"android":"levelo://app?vid=f42f783e-769a-4b80-ae8e-683f87caab35","ios":"levelo://app?vid=f42f783e-769a-4b80-ae8e-683f87caab35"},"vehicle_type_id":"4","last_reported":1734786767,"current_range_meters":36000,"station_id":"","pricing_plan_id":"cebpf4jnsgd1na2vs0mg"},{"bike_id":"40431b7a-e281-4e2d-91bc-d3d85515f6cd","system_id":"levelo_inurba_marseille","lat":43.2955,"lon":5.37497,"is_reserved":false,"is_disabled":false,"rental_uris":{"android":"levelo://app?vid=40431b7a-e281-4e2d-91bc-d3d85515f6cd","ios":"levelo://app?vid=40431b7a-e281-4e2d-91bc-d3d85515f6cd"},"vehicle_type_id":"4","last_reported":1734786767,"current_range_meters":23200,"station_id":"ce4bgkp2rcd13ifvqbmg","pricing_plan_id":"cebpf4jnsgd1na2vs0mg"},{"bike_id":"608374e1-f5ef-4e14-aac6-f3b4fbfd2453","system_id":"levelo_inurba_marseille","lat":43.25086,"lon":5.39532,"is_reserved":false,"is_disabled":false,"rental_uris":{"android":"levelo://app?vid=608374e1-f5ef-4e14-aac6-f3b4fbfd2453","ios":"levelo://app?vid=608374e1-f5ef-4e14-aac6-f3b4fbfd2453"},"vehicle_type_id":"4","last_reported":1734786767,"current_range_meters":30400,"station_id":"ce4bhm12rcd13ifvqgkg","pricing_plan_id":"cebpf4jnsgd1na2vs0mg"},{"bike_id":"644e3219-1450-4f2a-b186-c356cfe42ba2","system_id":"levelo_inurba_marseille","lat":43.28082,"lon":5.39663,"is_reserved":false,"is_disabled":false,"rental_uris":{"android":"levelo://app?vid=644e3219-1450-4f2a-b186-c356cfe42ba2","ios":"levelo://app?vid=644e3219-1450-4f2a-b186-c356cfe42ba2"},"vehicle_type_id":"4","last_reported":1734786767,"current_range_meters":9200,"station_id":"ce4bho12rcd13ifvqh2g","pricing_plan_id":"cebpf4jnsgd1na2vs0mg"},{"bike_id":"5481ebd9-b3a3-4db6-ba37-c92c821046b1","system_id":"levelo_inurba_marseille","lat":43.27616,"lon":5.36116,"is_reserved":false,"is_disabled":false,"rental_uris":{"android":"levelo://app?vid=5481ebd9-b3a3-4db6-ba37-c92c821046b1","ios":"levelo://app?vid=5481ebd9-b3a3-4db6-ba37-c92c821046b1"},"vehicle_type_id":"4","last_reported":1734786767,"current_range_meters":39200,"station_id":"ce4bgj92rcd13ifvqbe0","pricing_plan_id":"cebpf4jnsgd1na2vs0mg"},{"bike_id":"4cc98960-af6b-4891-96f0-d4955d80c28d","system_id":"levelo_inurba_marseille","lat":43.29602,"lon":5.37714,"is_reserved":false,"is_disabled":false,"rental_uris":{"android":"levelo://app?vid=4cc98960-af6b-4891-96f0-d4955d80c28d","ios":"levelo://app?vid=4cc98960-af6b-4891-96f0-d4955d80c28d"},"vehicle_type_id":"4","last_reported":1734786767,"current_range_meters":32800,"station_id":"ce4bgi92rcd13ifvqb90","pricing_plan_id":"cebpf4jnsgd1na2vs0mg"},{"bike_id":"c184989a-209b-4114-964c-07cc2fab81bc","system_id":"levelo_inurba_marseille","lat":43.29516,"lon":5.39051,"is_reserved":false,"is_disabled":false,"rental_uris":{"android":"levelo://app?vid=c184989a-209b-4114-964c-07cc2fab81bc","ios":"levelo://app?vid=c184989a-209b-4114-964c-07cc2fab81bc"},"vehicle_type_id":"4","last_reported":1734786767,"current_range_meters":26000,"station_id":"ce4bh3p2rcd13ifvqdp0","pricing_plan_id":"cebpf4jnsgd1na2vs0mg"},{"bike_id":"28d82292-98ba-4250-85c9-c5fea471f0be","system_id":"levelo_inurba_marseille","lat":43.29551,"lon":5.42284,"is_reserved":false,"is_disabled":false,"rental_uris":{"android":"levelo://app?vid=28d82292-98ba-4250-85c9-c5fea471f0be","ios":"levelo://app?vid=28d82292-98ba-4250-85c9-c5fea471f0be"},"vehicle_type_id":"4","last_reported":1734786767,"current_range_meters":13600,"station_id":"ce4bhph2rcd13ifvqhdg","pricing_plan_id":"cebpf4jnsgd1na2vs0mg"},{"bike_id":"bba00468-0873-478f-87c9-aba3e5979488","system_id":"levelo_inurba_marseille","lat":43.30316,"lon":5.39201,"is_reserved":false,"is_disabled":false,"rental_uris":{"android":"levelo://app?vid=bba00468-0873-478f-87c9-aba3e5979488","ios":"levelo://app?vid=bba00468-0873-478f-87c9-aba3e5979488"},"vehicle_type_id":"4","last_reported":1734786767,"current_range_meters":19600,"station_id":"ce4bgkh2rcd13ifvqbk0","pricing_plan_id":"cebpf4jnsgd1na2vs0mg"},{"bike_id":"923a60af-706d-4541-9eb5-86163a0b5c82","system_id":"levelo_inurba_marseille","lat":43.3266,"lon":5.40989,"is_reserved":false,"is_disabled":false,"rental_uris":{"android":"levelo://app?vid=923a60af-706d-4541-9eb5-86163a0b5c82","ios":"levelo://app?vid=923a60af-706d-4541-9eb5-86163a0b5c82"},"vehicle_type_id":"4","last_reported":1734786767,"current_range_meters":36800,"station_id":"ce4bhpp2rcd13ifvqhgg","pricing_plan_id":"cebpf4jnsgd1na2vs0mg"},{"bike_id":"9dc1ff30-2b1d-48f2-a09e-e77c91d5af4b","system_id":"levelo_inurba_marseille","lat":43.30966,"lon":5.3903,"is_reserved":false,"is_disabled":false,"rental_uris":{"android":"levelo://app?vid=9dc1ff30-2b1d-48f2-a09e-e77c91d5af4b","ios":"levelo://app?vid=9dc1ff30-2b1d-48f2-a09e-e77c91d5af4b"},"vehicle_type_id":"4","last_reported":1734786767,"current_range_meters":38000,"station_id":"ce4bgup2rcd13ifvqco0","pricing_plan_id":"cebpf4jnsgd1na2vs0mg"},{"bike_id":"9264b624-9de5-495f-afae-7a84bb3e1f28","system_id":"levelo_inurba_marseille","lat":43.31222,"lon":5.36862,"is_reserved":false,"is_disabled":false,"rental_uris":{"android":"levelo://app?vid=9264b624-9de5-495f-afae-7a84bb3e1f28","ios":"levelo://app?vid=9264b624-9de5-495f-afae-7a84bb3e1f28"},"vehicle_type_id":"4","last_reported":1734786767,"current_range_meters":28400,"station_id":"ce4bgl92rcd13ifvqbq0","pricing_plan_id":"cebpf4jnsgd1na2vs0mg"},{"bike_id":"c7fa8543-23ad-4172-87ae-03c0d9fe98c1","system_id":"levelo_inurba_marseille","lat":43.25002,"lon":5.38928,"is_reserved":false,"is_disabled":false,"rental_uris":{"android":"levelo://app?vid=c7fa8543-23ad-4172-87ae-03c0d9fe98c1","ios":"levelo://app?vid=c7fa8543-23ad-4172-87ae-03c0d9fe98c1"},"vehicle_type_id":"4","last_reported":1734786767,"current_range_meters":30000,"station_id":"ce4bhgp2rcd13ifvqfd0","pricing_plan_id":"cebpf4jnsgd1na2vs0mg"},{"bike_id":"9adbfd80-4a90-423e-918b-efc9aefda7cd","system_id":"levelo_inurba_marseille","lat":43.25869,"lon":5.39906,"is_reserved":false,"is_disabled":false,"rental_uris":{"android":"levelo://app?vid=9adbfd80-4a90-423e-918b-efc9aefda7cd","ios":"levelo://app?vid=9adbfd80-4a90-423e-918b-efc9aefda7cd"},"vehicle_type_id":"4","last_reported":1734786767,"current_range_meters":38800,"station_id":"ce4bhl92rcd13ifvqghg","pricing_plan_id":"cebpf4jnsgd1na2vs0mg"},{"bike_id":"710cbb4b-92a3-4fcb-a674-51cdb538a062","system_id":"levelo_inurba_marseille","lat":43.26052,"lon":5.393903,"is_reserved":false,"is_disabled":true,"rental_uris":{"android":"levelo://app?vid=710cbb4b-92a3-4fcb-a674-51cdb538a062","ios":"levelo://app?vid=710cbb4b-92a3-4fcb-a674-51cdb538a062"},"vehicle_type_id":"4","last_reported":1734786767,"current_range_meters":38000,"station_id":"ce4bhh92rcd13ifvqfj0","pricing_plan_id":"cebpf4jnsgd1na2vs0mg"},{"bike_id":"64d4aeef-3d2c-4521-a207-7b98a8a1be35","system_id":"levelo_inurba_marseille","lat":43.3122,"lon":5.36861,"is_reserved":false,"is_disabled":false,"rental_uris":{"android":"levelo://app?vid=64d4aeef-3d2c-4521-a207-7b98a8a1be35","ios":"levelo://app?vid=64d4aeef-3d2c-4521-a207-7b98a8a1be35"},"vehicle_type_id":"4","last_reported":1734786767,"current_range_meters":14800,"station_id":"ce4bgl92rcd13ifvqbq0","pricing_plan_id":"cebpf4jnsgd1na2vs0mg"},{"bike_id":"25f582da-80bb-46cd-988d-abd13b13594a","system_id":"levelo_inurba_marseille","lat":43.267924,"lon":5.393371,"is_reserved":false,"is_disabled":false,"rental_uris":{"android":"levelo://app?vid=25f582da-80bb-46cd-988d-abd13b13594a","ios":"levelo://app?vid=25f582da-80bb-46cd-988d-abd13b13594a"},"vehicle_type_id":"4","last_reported":1734786767,"current_range_meters":21600,"station_id":"ce4bhh92rcd13ifvqfj0","pricing_plan_id":"cebpf4jnsgd1na2vs0mg"},{"bike_id":"4010d8ba-4b80-425c-8eba-2845f10315fb","system_id":"levelo_inurba_marseille","lat":43.24091,"lon":5.37772,"is_reserved":false,"is_disabled":false,"rental_uris":{"android":"levelo://app?vid=4010d8ba-4b80-425c-8eba-2845f10315fb","ios":"levelo://app?vid=4010d8ba-4b80-425c-8eba-2845f10315fb"},"vehicle_type_id":"4","last_reported":1734786767,"current_range_meters":16400,"station_id":"ce4bhnp2rcd13ifvqgvg","pricing_plan_id":"cebpf4jnsgd1na2vs0mg"},{"bike_id":"dd52cea9-6fe3-460c-a4fc-255f18d6f38c","system_id":"levelo_inurba_marseille","lat":43.25006,"lon":5.38944,"is_reserved":false,"is_disabled":false,"rental_uris":{"android":"levelo://app?vid=dd52cea9-6fe3-460c-a4fc-255f18d6f38c","ios":"levelo://app?vid=dd52cea9-6fe3-460c-a4fc-255f18d6f38c"},"vehicle_type_id":"4","last_reported":1734786767,"current_range_meters":26000,"station_id":"ce4bhgp2rcd13ifvqfd0","pricing_plan_id":"cebpf4jnsgd1na2vs0mg"},{"bike_id":"02835011-6781-4b21-8cf5-3bf4e96fb2c9","system_id":"levelo_inurba_marseille","lat":43.32477,"lon":5.36564,"is_reserved":false,"is_disabled":false,"rental_uris":{"android":"levelo://app?vid=02835011-6781-4b21-8cf5-3bf4e96fb2c9","ios":"levelo://app?vid=02835011-6781-4b21-8cf5-3bf4e96fb2c9"},"vehicle_type_id":"4","last_reported":1734786767,"current_range_meters":29600,"station_id":"ce4bhs12rcd13ifvqhvg","pricing_plan_id":"cebpf4jnsgd1na2vs0mg"},{"bike_id":"4fa30569-b92b-422e-9bc7-ddcd7d605bf7","system_id":"levelo_inurba_marseille","lat":43.23038,"lon":5.35524,"is_reserved":false,"is_disabled":false,"rental_uris":{"android":"levelo://app?vid=4fa30569-b92b-422e-9bc7-ddcd7d605bf7","ios":"levelo://app?vid=4fa30569-b92b-422e-9bc7-ddcd7d605bf7"},"vehicle_type_id":"4","last_reported":1734786767,"current_range_meters":9200,"station_id":"cpo3342slgdg3j2ifvpg","pricing_plan_id":"cebpf4jnsgd1na2vs0mg"},{"bike_id":"923203be-81e9-4bac-baed-4fd99bc3f450","system_id":"levelo_inurba_marseille","lat":43.29581,"lon":5.37522,"is_reserved":false,"is_disabled":false,"rental_uris":{"android":"levelo://app?vid=923203be-81e9-4bac-baed-4fd99bc3f450","ios":"levelo://app?vid=923203be-81e9-4bac-baed-4fd99bc3f450"},"vehicle_type_id":"4","last_reported":1734786767,"current_range_meters":27200,"station_id":"ce4bgh92rcd13ifvqb50","pricing_plan_id":"cebpf4jnsgd1na2vs0mg"},{"bike_id":"0330259f-0861-48f5-9a21-7a991082f91c","system_id":"levelo_inurba_marseille","lat":43.27056,"lon":5.40268,"is_reserved":false,"is_disabled":false,"rental_uris":{"android":"levelo://app?vid=0330259f-0861-48f5-9a21-7a991082f91c","ios":"levelo://app?vid=0330259f-0861-48f5-9a21-7a991082f91c"},"vehicle_type_id":"4","last_reported":1734786767,"current_range_meters":33600,"station_id":"ce4bhk92rcd13ifvqgc0","pricing_plan_id":"cebpf4jnsgd1na2vs0mg"},{"bike_id":"fbf3da40-6db3-4b0a-ba01-e3b05174c03a","system_id":"levelo_inurba_marseille","lat":43.28223,"lon":5.35067,"is_reserved":false,"is_disabled":false,"rental_uris":{"android":"levelo://app?vid=fbf3da40-6db3-4b0a-ba01-e3b05174c03a","ios":"levelo://app?vid=fbf3da40-6db3-4b0a-ba01-e3b05174c03a"},"vehicle_type_id":"4","last_reported":1734786767,"current_range_meters":39200,"station_id":"ce4bhbp2rcd13ifvqerg","pricing_plan_id":"cebpf4jnsgd1na2vs0mg"},{"bike_id":"1f265f2c-c3ce-4530-9858-4eca3d9e00e1","system_id":"levelo_inurba_marseille","lat":43.23197,"lon":5.39983,"is_reserved":false,"is_disabled":false,"rental_uris":{"android":"levelo://app?vid=1f265f2c-c3ce-4530-9858-4eca3d9e00e1","ios":"levelo://app?vid=1f265f2c-c3ce-4530-9858-4eca3d9e00e1"},"vehicle_type_id":"4","last_reported":1734786767,"current_range_meters":10000,"station_id":"ce4bhn12rcd13ifvqgqg","pricing_plan_id":"cebpf4jnsgd1na2vs0mg"},{"bike_id":"82166131-f554-48b6-9171-8be7cc04ec8a","system_id":"levelo_inurba_marseille","lat":43.30443,"lon":5.38898,"is_reserved":false,"is_disabled":false,"rental_uris":{"android":"levelo://app?vid=82166131-f554-48b6-9171-8be7cc04ec8a","ios":"levelo://app?vid=82166131-f554-48b6-9171-8be7cc04ec8a"},"vehicle_type_id":"4","last_reported":1734786767,"current_range_meters":27600,"station_id":"ce4bgk12rcd13ifvqbi0","pricing_plan_id":"cebpf4jnsgd1na2vs0mg"},{"bike_id":"7fd1c797-e3d8-4dec-be0f-7347244fa071","system_id":"levelo_inurba_marseille","lat":43.31722,"lon":5.42403,"is_reserved":false,"is_disabled":false,"rental_uris":{"android":"levelo://app?vid=7fd1c797-e3d8-4dec-be0f-7347244fa071","ios":"levelo://app?vid=7fd1c797-e3d8-4dec-be0f-7347244fa071"},"vehicle_type_id":"4","last_reported":1734786767,"current_range_meters":12800,"station_id":"ce4bhp92rcd13ifvqhbg","pricing_plan_id":"cebpf4jnsgd1na2vs0mg"},{"bike_id":"523697cd-8684-4343-bd9c-3aae0aed004a","system_id":"levelo_inurba_marseille","lat":43.30483,"lon":5.36632,"is_reserved":false,"is_disabled":false,"rental_uris":{"android":"levelo://app?vid=523697cd-8684-4343-bd9c-3aae0aed004a","ios":"levelo://app?vid=523697cd-8684-4343-bd9c-3aae0aed004a"},"vehicle_type_id":"4","last_reported":1734786767,"current_range_meters":26800,"station_id":"ce4bgs12rcd13ifvqcag","pricing_plan_id":"cebpf4jnsgd1na2vs0mg"},{"bike_id":"708d2bfa-b81b-4d49-a7f6-e047229f1720","system_id":"levelo_inurba_marseille","lat":43.26501,"lon":5.3954,"is_reserved":false,"is_disabled":false,"rental_uris":{"android":"levelo://app?vid=708d2bfa-b81b-4d49-a7f6-e047229f1720","ios":"levelo://app?vid=708d2bfa-b81b-4d49-a7f6-e047229f1720"},"vehicle_type_id":"4","last_reported":1734786767,"current_range_meters":32000,"station_id":"ce4bhi12rcd13ifvqfq0","pricing_plan_id":"cebpf4jnsgd1na2vs0mg"},{"bike_id":"e724f4e5-0922-4e36-91f4-8a4c9d514ff5","system_id":"levelo_inurba_marseille","lat":43.29812,"lon":5.36289,"is_reserved":false,"is_disabled":false,"rental_uris":{"android":"levelo://app?vid=e724f4e5-0922-4e36-91f4-8a4c9d514ff5","ios":"levelo://app?vid=e724f4e5-0922-4e36-91f4-8a4c9d514ff5"},"vehicle_type_id":"4","last_reported":1734786767,"current_range_meters":38800,"station_id":"ce4bgpp2rcd13ifvqc3g","pricing_plan_id":"cebpf4jnsgd1na2vs0mg"},{"bike_id":"abf860be-3d3d-4a76-b353-f7286e2856a9","system_id":"levelo_inurba_marseille","lat":43.27608,"lon":5.36124,"is_reserved":false,"is_disabled":false,"rental_uris":{"android":"levelo://app?vid=abf860be-3d3d-4a76-b353-f7286e2856a9","ios":"levelo://app?vid=abf860be-3d3d-4a76-b353-f7286e2856a9"},"vehicle_type_id":"4","last_reported":1734786767,"current_range_meters":22800,"station_id":"ce4bgj92rcd13ifvqbe0","pricing_plan_id":"cebpf4jnsgd1na2vs0mg"},{"bike_id":"d98f0b8a-1ef4-43b4-85a1-12b00b5f4de1","system_id":"levelo_inurba_marseille","lat":43.284162,"lon":5.34982,"is_reserved":false,"is_disabled":false,"rental_uris":{"android":"levelo://app?vid=d98f0b8a-1ef4-43b4-85a1-12b00b5f4de1","ios":"levelo://app?vid=d98f0b8a-1ef4-43b4-85a1-12b00b5f4de1"},"vehicle_type_id":"4","last_reported":1734786767,"current_range_meters":38400,"station_id":"ce4bhbh2rcd13ifvqepg","pricing_plan_id":"cebpf4jnsgd1na2vs0mg"},{"bike_id":"cbd8c37e-4c23-4764-beb6-a16227464b84","system_id":"levelo_inurba_marseille","lat":43.26809,"lon":5.402614,"is_reserved":false,"is_disabled":false,"rental_uris":{"android":"levelo://app?vid=cbd8c37e-4c23-4764-beb6-a16227464b84","ios":"levelo://app?vid=cbd8c37e-4c23-4764-beb6-a16227464b84"},"vehicle_type_id":"4","last_reported":1734786767,"current_range_meters":35600,"station_id":"ce501612rcd8frsf0b60","pricing_plan_id":"cebpf4jnsgd1na2vs0mg"},{"bike_id":"89fb7c12-7f7c-4bae-841d-4e881f1dfd1f","system_id":"levelo_inurba_marseille","lat":43.28616,"lon":5.3511,"is_reserved":false,"is_disabled":false,"rental_uris":{"android":"levelo://app?vid=89fb7c12-7f7c-4bae-841d-4e881f1dfd1f","ios":"levelo://app?vid=89fb7c12-7f7c-4bae-841d-4e881f1dfd1f"},"vehicle_type_id":"4","last_reported":1734786767,"current_range_meters":18800,"station_id":"ce4bhch2rcd13ifvqeug","pricing_plan_id":"cebpf4jnsgd1na2vs0mg"},{"bike_id":"bbe925f2-96ca-4ec3-9187-91166b8ec43d","system_id":"levelo_inurba_marseille","lat":43.30467,"lon":5.37925,"is_reserved":false,"is_disabled":false,"rental_uris":{"android":"levelo://app?vid=bbe925f2-96ca-4ec3-9187-91166b8ec43d","ios":"levelo://app?vid=bbe925f2-96ca-4ec3-9187-91166b8ec43d"},"vehicle_type_id":"4","last_reported":1734786767,"current_range_meters":12400,"station_id":"ce4bgup2rcd13ifvqcn0","pricing_plan_id":"cebpf4jnsgd1na2vs0mg"},{"bike_id":"59ca2ebc-7c6f-439a-a11b-02933f88209e","system_id":"levelo_inurba_marseille","lat":43.27068,"lon":5.42307,"is_reserved":false,"is_disabled":false,"rental_uris":{"android":"levelo://app?vid=59ca2ebc-7c6f-439a-a11b-02933f88209e","ios":"levelo://app?vid=59ca2ebc-7c6f-439a-a11b-02933f88209e"},"vehicle_type_id":"4","last_reported":1734786767,"current_range_meters":37600,"station_id":"ce4bhk92rcd13ifvqgb0","pricing_plan_id":"cebpf4jnsgd1na2vs0mg"},{"bike_id":"7ec2e082-9a40-4719-bfaf-9cc7e2f0ff4c","system_id":"levelo_inurba_marseille","lat":43.27936,"lon":5.41055,"is_reserved":false,"is_disabled":false,"rental_uris":{"android":"levelo://app?vid=7ec2e082-9a40-4719-bfaf-9cc7e2f0ff4c","ios":"levelo://app?vid=7ec2e082-9a40-4719-bfaf-9cc7e2f0ff4c"},"vehicle_type_id":"4","last_reported":1734786767,"current_range_meters":6800,"station_id":"ce4bhnp2rcd13ifvqh0g","pricing_plan_id":"cebpf4jnsgd1na2vs0mg"},{"bike_id":"1c22359b-5f69-4549-8831-a59d602df36f","system_id":"levelo_inurba_marseille","lat":43.29787,"lon":5.37088,"is_reserved":false,"is_disabled":false,"rental_uris":{"android":"levelo://app?vid=1c22359b-5f69-4549-8831-a59d602df36f","ios":"levelo://app?vid=1c22359b-5f69-4549-8831-a59d602df36f"},"vehicle_type_id":"4","last_reported":1734786767,"current_range_meters":13600,"station_id":"ce4bgop2rcd13ifvqc1g","pricing_plan_id":"cebpf4jnsgd1na2vs0mg"},{"bike_id":"18b3f870-bfe7-4396-81e5-34ed6ada0d75","system_id":"levelo_inurba_marseille","lat":43.30153,"lon":5.38084,"is_reserved":false,"is_disabled":false,"rental_uris":{"android":"levelo://app?vid=18b3f870-bfe7-4396-81e5-34ed6ada0d75","ios":"levelo://app?vid=18b3f870-bfe7-4396-81e5-34ed6ada0d75"},"vehicle_type_id":"4","last_reported":1734786767,"current_range_meters":38800,"station_id":"ce4bgjp2rcd13ifvqbh0","pricing_plan_id":"cebpf4jnsgd1na2vs0mg"},{"bike_id":"75bcc3b1-3091-4198-922a-90b0ea0094c0","system_id":"levelo_inurba_marseille","lat":43.25581,"lon":5.3824,"is_reserved":false,"is_disabled":false,"rental_uris":{"android":"levelo://app?vid=75bcc3b1-3091-4198-922a-90b0ea0094c0","ios":"levelo://app?vid=75bcc3b1-3091-4198-922a-90b0ea0094c0"},"vehicle_type_id":"4","last_reported":1734786767,"current_range_meters":38800,"station_id":"ce4bhih2rcd13ifvqfs0","pricing_plan_id":"cebpf4jnsgd1na2vs0mg"},{"bike_id":"0625ba68-ce1b-41df-9ac4-ab243ba1a967","system_id":"levelo_inurba_marseille","lat":43.28952,"lon":5.39625,"is_reserved":false,"is_disabled":false,"rental_uris":{"android":"levelo://app?vid=0625ba68-ce1b-41df-9ac4-ab243ba1a967","ios":"levelo://app?vid=0625ba68-ce1b-41df-9ac4-ab243ba1a967"},"vehicle_type_id":"4","last_reported":1734786767,"current_range_meters":38800,"station_id":"ce4bh3h2rcd13ifvqdn0","pricing_plan_id":"cebpf4jnsgd1na2vs0mg"},{"bike_id":"fe985559-6fc0-4834-b5a5-96cdf3b41478","system_id":"levelo_inurba_marseille","lat":43.29979,"lon":5.3718,"is_reserved":false,"is_disabled":false,"rental_uris":{"android":"levelo://app?vid=fe985559-6fc0-4834-b5a5-96cdf3b41478","ios":"levelo://app?vid=fe985559-6fc0-4834-b5a5-96cdf3b41478"},"vehicle_type_id":"4","last_reported":1734786767,"current_range_meters":10000,"station_id":"ce4bgr92rcd13ifvqc7g","pricing_plan_id":"cebpf4jnsgd1na2vs0mg"},{"bike_id":"5de55ec3-b446-45b5-9e6a-b67b9996a2b3","system_id":"levelo_inurba_marseille","lat":43.27306,"lon":5.39078,"is_reserved":false,"is_disabled":true,"rental_uris":{"android":"levelo://app?vid=5de55ec3-b446-45b5-9e6a-b67b9996a2b3","ios":"levelo://app?vid=5de55ec3-b446-45b5-9e6a-b67b9996a2b3"},"vehicle_type_id":"4","last_reported":1734786767,"current_range_meters":36400,"station_id":"ce4bhgp2rcd13ifvqfe0","pricing_plan_id":"cebpf4jnsgd1na2vs0mg"},{"bike_id":"ceca975b-b342-4918-8353-e4cd51aebfcc","system_id":"levelo_inurba_marseille","lat":43.28616,"lon":5.35122,"is_reserved":false,"is_disabled":false,"rental_uris":{"android":"levelo://app?vid=ceca975b-b342-4918-8353-e4cd51aebfcc","ios":"levelo://app?vid=ceca975b-b342-4918-8353-e4cd51aebfcc"},"vehicle_type_id":"4","last_reported":1734786767,"current_range_meters":38800,"station_id":"ce4bhch2rcd13ifvqeug","pricing_plan_id":"cebpf4jnsgd1na2vs0mg"},{"bike_id":"54568c13-3ed6-4cb8-93bc-d1af885dc4aa","system_id":"levelo_inurba_marseille","lat":43.27815,"lon":5.40718,"is_reserved":false,"is_disabled":false,"rental_uris":{"android":"levelo://app?vid=54568c13-3ed6-4cb8-93bc-d1af885dc4aa","ios":"levelo://app?vid=54568c13-3ed6-4cb8-93bc-d1af885dc4aa"},"vehicle_type_id":"4","last_reported":1734786767,"current_range_meters":27200,"station_id":"ce4bhnh2rcd13ifvqgtg","pricing_plan_id":"cebpf4jnsgd1na2vs0mg"},{"bike_id":"b35fd2db-1d56-4c91-855e-93c369b0ec4e","system_id":"levelo_inurba_marseille","lat":43.26795,"lon":5.39416,"is_reserved":false,"is_disabled":false,"rental_uris":{"android":"levelo://app?vid=b35fd2db-1d56-4c91-855e-93c369b0ec4e","ios":"levelo://app?vid=b35fd2db-1d56-4c91-855e-93c369b0ec4e"},"vehicle_type_id":"4","last_reported":1734786767,"current_range_meters":35200,"station_id":"ce4bhh12rcd13ifvqfg0","pricing_plan_id":"cebpf4jnsgd1na2vs0mg"},{"bike_id":"8b730830-7a2e-4b84-aef3-0857fec71abe","system_id":"levelo_inurba_marseille","lat":43.29005,"lon":5.35607,"is_reserved":false,"is_disabled":false,"rental_uris":{"android":"levelo://app?vid=8b730830-7a2e-4b84-aef3-0857fec71abe","ios":"levelo://app?vid=8b730830-7a2e-4b84-aef3-0857fec71abe"},"vehicle_type_id":"4","last_reported":1734786767,"current_range_meters":4800,"station_id":"ce4bhb92rcd13ifvqen0","pricing_plan_id":"cebpf4jnsgd1na2vs0mg"},{"bike_id":"4ed128f2-c289-492e-b733-41626add23cd","system_id":"levelo_inurba_marseille","lat":43.31896,"lon":5.4075,"is_reserved":false,"is_disabled":false,"rental_uris":{"android":"levelo://app?vid=4ed128f2-c289-492e-b733-41626add23cd","ios":"levelo://app?vid=4ed128f2-c289-492e-b733-41626add23cd"},"vehicle_type_id":"4","last_reported":1734786767,"current_range_meters":36800,"station_id":"ce4bhq12rcd13ifvqhig","pricing_plan_id":"cebpf4jnsgd1na2vs0mg"},{"bike_id":"d1985a28-de3f-4de8-8223-adb22deb4411","system_id":"levelo_inurba_marseille","lat":43.30153,"lon":5.38102,"is_reserved":false,"is_disabled":false,"rental_uris":{"android":"levelo://app?vid=d1985a28-de3f-4de8-8223-adb22deb4411","ios":"levelo://app?vid=d1985a28-de3f-4de8-8223-adb22deb4411"},"vehicle_type_id":"4","last_reported":1734786767,"current_range_meters":32400,"station_id":"ce4bgjp2rcd13ifvqbh0","pricing_plan_id":"cebpf4jnsgd1na2vs0mg"},{"bike_id":"6dc6694c-e80f-4778-9813-70fc7e438103","system_id":"levelo_inurba_marseille","lat":43.27424,"lon":5.39413,"is_reserved":false,"is_disabled":false,"rental_uris":{"android":"levelo://app?vid=6dc6694c-e80f-4778-9813-70fc7e438103","ios":"levelo://app?vid=6dc6694c-e80f-4778-9813-70fc7e438103"},"vehicle_type_id":"4","last_reported":1734786767,"current_range_meters":25600,"station_id":"ce4bhdp2rcd13ifvqf20","pricing_plan_id":"cebpf4jnsgd1na2vs0mg"},{"bike_id":"52a88488-4dd2-4f03-9384-f060d17bb6f5","system_id":"levelo_inurba_marseille","lat":43.25859,"lon":5.399,"is_reserved":false,"is_disabled":true,"rental_uris":{"android":"levelo://app?vid=52a88488-4dd2-4f03-9384-f060d17bb6f5","ios":"levelo://app?vid=52a88488-4dd2-4f03-9384-f060d17bb6f5"},"vehicle_type_id":"4","last_reported":1734786767,"current_range_meters":0,"station_id":"ce4bhl92rcd13ifvqghg","pricing_plan_id":"cebpf4jnsgd1na2vs0mg"},{"bike_id":"366bef15-44c1-4f1f-a109-81643bbfc66e","system_id":"levelo_inurba_marseille","lat":43.29607,"lon":5.37724,"is_reserved":false,"is_disabled":false,"rental_uris":{"android":"levelo://app?vid=366bef15-44c1-4f1f-a109-81643bbfc66e","ios":"levelo://app?vid=366bef15-44c1-4f1f-a109-81643bbfc66e"},"vehicle_type_id":"4","last_reported":1734786767,"current_range_meters":32000,"station_id":"ce4bgi92rcd13ifvqb90","pricing_plan_id":"cebpf4jnsgd1na2vs0mg"},{"bike_id":"267b86c3-a6fa-4ada-bb30-11d2665f0f0b","system_id":"levelo_inurba_marseille","lat":43.29221,"lon":5.36071,"is_reserved":false,"is_disabled":false,"rental_uris":{"android":"levelo://app?vid=267b86c3-a6fa-4ada-bb30-11d2665f0f0b","ios":"levelo://app?vid=267b86c3-a6fa-4ada-bb30-11d2665f0f0b"},"vehicle_type_id":"4","last_reported":1734786767,"current_range_meters":38800,"station_id":"ce4bhbh2rcd13ifvqeqg","pricing_plan_id":"cebpf4jnsgd1na2vs0mg"},{"bike_id":"a57e9664-8eac-454e-a02a-57c62b6d02a3","system_id":"levelo_inurba_marseille","lat":43.29923,"lon":5.37469,"is_reserved":false,"is_disabled":false,"rental_uris":{"android":"levelo://app?vid=a57e9664-8eac-454e-a02a-57c62b6d02a3","ios":"levelo://app?vid=a57e9664-8eac-454e-a02a-57c62b6d02a3"},"vehicle_type_id":"4","last_reported":1734786767,"current_range_meters":38800,"station_id":"ce4bgjh2rcd13ifvqbg0","pricing_plan_id":"cebpf4jnsgd1na2vs0mg"},{"bike_id":"2ecd7a5c-6b03-4906-a193-c1bc16b7668c","system_id":"levelo_inurba_marseille","lat":43.3024,"lon":5.40023,"is_reserved":false,"is_disabled":true,"rental_uris":{"android":"levelo://app?vid=2ecd7a5c-6b03-4906-a193-c1bc16b7668c","ios":"levelo://app?vid=2ecd7a5c-6b03-4906-a193-c1bc16b7668c"},"vehicle_type_id":"4","last_reported":1734786767,"current_range_meters":38800,"station_id":"ce4bgvh2rcd13ifvqcs0","pricing_plan_id":"cebpf4jnsgd1na2vs0mg"},{"bike_id":"782bcbf2-b7de-4b04-bebc-aaa0329dd90c","system_id":"levelo_inurba_marseille","lat":43.23188,"lon":5.35566,"is_reserved":false,"is_disabled":false,"rental_uris":{"android":"levelo://app?vid=782bcbf2-b7de-4b04-bebc-aaa0329dd90c","ios":"levelo://app?vid=782bcbf2-b7de-4b04-bebc-aaa0329dd90c"},"vehicle_type_id":"4","last_reported":1734786767,"current_range_meters":31200,"station_id":"ce4bhu92rcd13ifvqi70","pricing_plan_id":"cebpf4jnsgd1na2vs0mg"},{"bike_id":"4c09947b-96a7-47e4-aac1-32c1f19bc6d1","system_id":"levelo_inurba_marseille","lat":43.30247,"lon":5.40077,"is_reserved":false,"is_disabled":false,"rental_uris":{"android":"levelo://app?vid=4c09947b-96a7-47e4-aac1-32c1f19bc6d1","ios":"levelo://app?vid=4c09947b-96a7-47e4-aac1-32c1f19bc6d1"},"vehicle_type_id":"4","last_reported":1734786767,"current_range_meters":28800,"station_id":"ce4bgvh2rcd13ifvqcs0","pricing_plan_id":"cebpf4jnsgd1na2vs0mg"},{"bike_id":"3bc9d7e3-29bb-4adc-9c94-43ca8a069539","system_id":"levelo_inurba_marseille","lat":43.27368,"lon":5.36263,"is_reserved":false,"is_disabled":false,"rental_uris":{"android":"levelo://app?vid=3bc9d7e3-29bb-4adc-9c94-43ca8a069539","ios":"levelo://app?vid=3bc9d7e3-29bb-4adc-9c94-43ca8a069539"},"vehicle_type_id":"4","last_reported":1734786767,"current_range_meters":27200,"station_id":"ce4bhbh2rcd13ifvqeo0","pricing_plan_id":"cebpf4jnsgd1na2vs0mg"},{"bike_id":"09b93e91-71cf-41ff-a4eb-a44816fbd1be","system_id":"levelo_inurba_marseille","lat":43.28672,"lon":5.38672,"is_reserved":false,"is_disabled":false,"rental_uris":{"android":"levelo://app?vid=09b93e91-71cf-41ff-a4eb-a44816fbd1be","ios":"levelo://app?vid=09b93e91-71cf-41ff-a4eb-a44816fbd1be"},"vehicle_type_id":"4","last_reported":1734786767,"current_range_meters":37600,"station_id":"ce4bh492rcd13ifvqdug","pricing_plan_id":"cebpf4jnsgd1na2vs0mg"},{"bike_id":"0fe0c7fc-7dc8-44c8-b816-723b7d01981d","system_id":"levelo_inurba_marseille","lat":43.26176,"lon":5.42048,"is_reserved":false,"is_disabled":true,"rental_uris":{"android":"levelo://app?vid=0fe0c7fc-7dc8-44c8-b816-723b7d01981d","ios":"levelo://app?vid=0fe0c7fc-7dc8-44c8-b816-723b7d01981d"},"vehicle_type_id":"4","last_reported":1734786767,"current_range_meters":1200,"station_id":"","pricing_plan_id":"cebpf4jnsgd1na2vs0mg"},{"bike_id":"3eb48583-d645-490e-9799-6865ef93411d","system_id":"levelo_inurba_marseille","lat":43.25567,"lon":5.38237,"is_reserved":false,"is_disabled":false,"rental_uris":{"android":"levelo://app?vid=3eb48583-d645-490e-9799-6865ef93411d","ios":"levelo://app?vid=3eb48583-d645-490e-9799-6865ef93411d"},"vehicle_type_id":"4","last_reported":1734786767,"current_range_meters":14400,"station_id":"ce4bhih2rcd13ifvqfs0","pricing_plan_id":"cebpf4jnsgd1na2vs0mg"},{"bike_id":"e904d402-ac26-4187-96c9-75e59e825d9e","system_id":"levelo_inurba_marseille","lat":43.304206,"lon":5.389515,"is_reserved":false,"is_disabled":false,"rental_uris":{"android":"levelo://app?vid=e904d402-ac26-4187-96c9-75e59e825d9e","ios":"levelo://app?vid=e904d402-ac26-4187-96c9-75e59e825d9e"},"vehicle_type_id":"4","last_reported":1734786767,"current_range_meters":20800,"station_id":"ce4bhoh2rcd13ifvqh6g","pricing_plan_id":"cebpf4jnsgd1na2vs0mg"},{"bike_id":"cc803612-c5e3-41d9-b847-7a8ecb434c97","system_id":"levelo_inurba_marseille","lat":43.30587,"lon":5.37217,"is_reserved":false,"is_disabled":false,"rental_uris":{"android":"levelo://app?vid=cc803612-c5e3-41d9-b847-7a8ecb434c97","ios":"levelo://app?vid=cc803612-c5e3-41d9-b847-7a8ecb434c97"},"vehicle_type_id":"4","last_reported":1734786767,"current_range_meters":38400,"station_id":"ce4bgqh2rcd13ifvqc4g","pricing_plan_id":"cebpf4jnsgd1na2vs0mg"},{"bike_id":"35325136-ba50-4a03-a961-ec049678dc79","system_id":"levelo_inurba_marseille","lat":43.24809,"lon":5.37457,"is_reserved":false,"is_disabled":false,"rental_uris":{"android":"levelo://app?vid=35325136-ba50-4a03-a961-ec049678dc79","ios":"levelo://app?vid=35325136-ba50-4a03-a961-ec049678dc79"},"vehicle_type_id":"4","last_reported":1734786767,"current_range_meters":30000,"station_id":"ce4bhgh2rcd13ifvqfb0","pricing_plan_id":"cebpf4jnsgd1na2vs0mg"},{"bike_id":"6a023270-643f-4d5e-99d2-e7e3ec80c557","system_id":"levelo_inurba_marseille","lat":43.284529,"lon":5.358678,"is_reserved":false,"is_disabled":false,"rental_uris":{"android":"levelo://app?vid=6a023270-643f-4d5e-99d2-e7e3ec80c557","ios":"levelo://app?vid=6a023270-643f-4d5e-99d2-e7e3ec80c557"},"vehicle_type_id":"4","last_reported":1734786767,"current_range_meters":27200,"station_id":"ce4bhah2rcd13ifvqei0","pricing_plan_id":"cebpf4jnsgd1na2vs0mg"},{"bike_id":"e1e55b34-0cc8-42c6-b9d9-a442d6ab0cd4","system_id":"levelo_inurba_marseille","lat":43.23197,"lon":5.39991,"is_reserved":false,"is_disabled":false,"rental_uris":{"android":"levelo://app?vid=e1e55b34-0cc8-42c6-b9d9-a442d6ab0cd4","ios":"levelo://app?vid=e1e55b34-0cc8-42c6-b9d9-a442d6ab0cd4"},"vehicle_type_id":"4","last_reported":1734786767,"current_range_meters":26000,"station_id":"ce4bhn12rcd13ifvqgqg","pricing_plan_id":"cebpf4jnsgd1na2vs0mg"},{"bike_id":"d4a36435-744e-424c-9dfb-2bbf19e7aaff","system_id":"levelo_inurba_marseille","lat":43.29688,"lon":5.37291,"is_reserved":false,"is_disabled":false,"rental_uris":{"android":"levelo://app?vid=d4a36435-744e-424c-9dfb-2bbf19e7aaff","ios":"levelo://app?vid=d4a36435-744e-424c-9dfb-2bbf19e7aaff"},"vehicle_type_id":"4","last_reported":1734786767,"current_range_meters":37600,"station_id":"ce4bgk12rcd13ifvqbj0","pricing_plan_id":"cebpf4jnsgd1na2vs0mg"},{"bike_id":"b67e6347-c993-4186-b85c-1f54c9e75564","system_id":"levelo_inurba_marseille","lat":43.27559,"lon":5.38456,"is_reserved":false,"is_disabled":false,"rental_uris":{"android":"levelo://app?vid=b67e6347-c993-4186-b85c-1f54c9e75564","ios":"levelo://app?vid=b67e6347-c993-4186-b85c-1f54c9e75564"},"vehicle_type_id":"4","last_reported":1734786767,"current_range_meters":38800,"station_id":"ce4bhh92rcd13ifvqfi0","pricing_plan_id":"cebpf4jnsgd1na2vs0mg"},{"bike_id":"a5404b43-1f8d-4cf3-a071-fce93c8325c1","system_id":"levelo_inurba_marseille","lat":43.27069,"lon":5.40256,"is_reserved":false,"is_disabled":false,"rental_uris":{"android":"levelo://app?vid=a5404b43-1f8d-4cf3-a071-fce93c8325c1","ios":"levelo://app?vid=a5404b43-1f8d-4cf3-a071-fce93c8325c1"},"vehicle_type_id":"4","last_reported":1734786767,"current_range_meters":27200,"station_id":"ce4bhk92rcd13ifvqgc0","pricing_plan_id":"cebpf4jnsgd1na2vs0mg"},{"bike_id":"0312043b-97f9-41f5-9ad1-d115dbdf7fd1","system_id":"levelo_inurba_marseille","lat":43.30327,"lon":5.40436,"is_reserved":false,"is_disabled":false,"rental_uris":{"android":"levelo://app?vid=0312043b-97f9-41f5-9ad1-d115dbdf7fd1","ios":"levelo://app?vid=0312043b-97f9-41f5-9ad1-d115dbdf7fd1"},"vehicle_type_id":"4","last_reported":1734786767,"current_range_meters":38800,"station_id":"ce4bh012rcd13ifvqd10","pricing_plan_id":"cebpf4jnsgd1na2vs0mg"},{"bike_id":"44127e4e-8e84-4a38-89f7-8f4efb63f7a5","system_id":"levelo_inurba_marseille","lat":43.31203,"lon":5.36759,"is_reserved":false,"is_disabled":true,"rental_uris":{"android":"levelo://app?vid=44127e4e-8e84-4a38-89f7-8f4efb63f7a5","ios":"levelo://app?vid=44127e4e-8e84-4a38-89f7-8f4efb63f7a5"},"vehicle_type_id":"4","last_reported":1734786767,"current_range_meters":0,"station_id":"","pricing_plan_id":"cebpf4jnsgd1na2vs0mg"},{"bike_id":"592df7ea-e0d5-4468-9dfc-a545f6dc0e22","system_id":"levelo_inurba_marseille","lat":43.31355,"lon":5.36722,"is_reserved":false,"is_disabled":false,"rental_uris":{"android":"levelo://app?vid=592df7ea-e0d5-4468-9dfc-a545f6dc0e22","ios":"levelo://app?vid=592df7ea-e0d5-4468-9dfc-a545f6dc0e22"},"vehicle_type_id":"4","last_reported":1734786767,"current_range_meters":3200,"station_id":"ce4bgr92rcd13ifvqc6g","pricing_plan_id":"cebpf4jnsgd1na2vs0mg"},{"bike_id":"59db6de1-d8ff-4eed-834d-940c2d7f728a","system_id":"levelo_inurba_marseille","lat":43.29525,"lon":5.39049,"is_reserved":false,"is_disabled":false,"rental_uris":{"android":"levelo://app?vid=59db6de1-d8ff-4eed-834d-940c2d7f728a","ios":"levelo://app?vid=59db6de1-d8ff-4eed-834d-940c2d7f728a"},"vehicle_type_id":"4","last_reported":1734786767,"current_range_meters":34000,"station_id":"ce4bh3p2rcd13ifvqdp0","pricing_plan_id":"cebpf4jnsgd1na2vs0mg"},{"bike_id":"a6636e31-39bd-4556-93c3-9961dd32e085","system_id":"levelo_inurba_marseille","lat":43.23082,"lon":5.35464,"is_reserved":false,"is_disabled":false,"rental_uris":{"android":"levelo://app?vid=a6636e31-39bd-4556-93c3-9961dd32e085","ios":"levelo://app?vid=a6636e31-39bd-4556-93c3-9961dd32e085"},"vehicle_type_id":"4","last_reported":1734786767,"current_range_meters":24800,"station_id":"cpo3342slgdg3j2ifvpg","pricing_plan_id":"cebpf4jnsgd1na2vs0mg"},{"bike_id":"987bc7a3-a46c-4030-b261-756d51e8931b","system_id":"levelo_inurba_marseille","lat":43.27561,"lon":5.38427,"is_reserved":false,"is_disabled":false,"rental_uris":{"android":"levelo://app?vid=987bc7a3-a46c-4030-b261-756d51e8931b","ios":"levelo://app?vid=987bc7a3-a46c-4030-b261-756d51e8931b"},"vehicle_type_id":"4","last_reported":1734786767,"current_range_meters":25200,"station_id":"ce4bhh92rcd13ifvqfi0","pricing_plan_id":"cebpf4jnsgd1na2vs0mg"},{"bike_id":"4c1fd80c-e9fb-42bb-9ee8-77cae5913cbe","system_id":"levelo_inurba_marseille","lat":43.28604,"lon":5.37062,"is_reserved":false,"is_disabled":false,"rental_uris":{"android":"levelo://app?vid=4c1fd80c-e9fb-42bb-9ee8-77cae5913cbe","ios":"levelo://app?vid=4c1fd80c-e9fb-42bb-9ee8-77cae5913cbe"},"vehicle_type_id":"4","last_reported":1734786767,"current_range_meters":32800,"station_id":"ce4bht12rcd13ifvqi60","pricing_plan_id":"cebpf4jnsgd1na2vs0mg"},{"bike_id":"a198e248-41c4-4a27-af7b-34f7a7595000","system_id":"levelo_inurba_marseille","lat":43.29921,"lon":5.37464,"is_reserved":false,"is_disabled":false,"rental_uris":{"android":"levelo://app?vid=a198e248-41c4-4a27-af7b-34f7a7595000","ios":"levelo://app?vid=a198e248-41c4-4a27-af7b-34f7a7595000"},"vehicle_type_id":"4","last_reported":1734786767,"current_range_meters":39200,"station_id":"ce4bgjh2rcd13ifvqbg0","pricing_plan_id":"cebpf4jnsgd1na2vs0mg"},{"bike_id":"b390ed23-507a-4cb3-af1e-381b2c9b98ff","system_id":"levelo_inurba_marseille","lat":43.29198,"lon":5.35786,"is_reserved":false,"is_disabled":false,"rental_uris":{"android":"levelo://app?vid=b390ed23-507a-4cb3-af1e-381b2c9b98ff","ios":"levelo://app?vid=b390ed23-507a-4cb3-af1e-381b2c9b98ff"},"vehicle_type_id":"4","last_reported":1734786767,"current_range_meters":31200,"station_id":"ce4bhb12rcd13ifvqel0","pricing_plan_id":"cebpf4jnsgd1na2vs0mg"},{"bike_id":"67bd58ad-bcc0-45ec-acbc-020a30ce0c10","system_id":"levelo_inurba_marseille","lat":43.30531,"lon":5.36545,"is_reserved":false,"is_disabled":false,"rental_uris":{"android":"levelo://app?vid=67bd58ad-bcc0-45ec-acbc-020a30ce0c10","ios":"levelo://app?vid=67bd58ad-bcc0-45ec-acbc-020a30ce0c10"},"vehicle_type_id":"4","last_reported":1734786767,"current_range_meters":26000,"station_id":"ce4bgs12rcd13ifvqcag","pricing_plan_id":"cebpf4jnsgd1na2vs0mg"},{"bike_id":"6d3e152a-52b7-4e48-8ce9-495072b8eb15","system_id":"levelo_inurba_marseille","lat":43.33022,"lon":5.39043,"is_reserved":false,"is_disabled":false,"rental_uris":{"android":"levelo://app?vid=6d3e152a-52b7-4e48-8ce9-495072b8eb15","ios":"levelo://app?vid=6d3e152a-52b7-4e48-8ce9-495072b8eb15"},"vehicle_type_id":"4","last_reported":1734786767,"current_range_meters":38800,"station_id":"ce4bhr92rcd13ifvqhrg","pricing_plan_id":"cebpf4jnsgd1na2vs0mg"},{"bike_id":"dfcbaf7f-5177-41a2-aa19-4f14caa37646","system_id":"levelo_inurba_marseille","lat":43.28607,"lon":5.37068,"is_reserved":false,"is_disabled":false,"rental_uris":{"android":"levelo://app?vid=dfcbaf7f-5177-41a2-aa19-4f14caa37646","ios":"levelo://app?vid=dfcbaf7f-5177-41a2-aa19-4f14caa37646"},"vehicle_type_id":"4","last_reported":1734786767,"current_range_meters":4000,"station_id":"ce4bht12rcd13ifvqi60","pricing_plan_id":"cebpf4jnsgd1na2vs0mg"},{"bike_id":"87deb113-8599-4d9f-bddd-4f38dcf6cc11","system_id":"levelo_inurba_marseille","lat":43.297274,"lon":5.377068,"is_reserved":false,"is_disabled":false,"rental_uris":{"android":"levelo://app?vid=87deb113-8599-4d9f-bddd-4f38dcf6cc11","ios":"levelo://app?vid=87deb113-8599-4d9f-bddd-4f38dcf6cc11"},"vehicle_type_id":"4","last_reported":1734786767,"current_range_meters":28000,"station_id":"ce4bgkh2rcd13ifvqbl0","pricing_plan_id":"cebpf4jnsgd1na2vs0mg"},{"bike_id":"fd9b10ab-4074-45a2-9fa5-108599963103","system_id":"levelo_inurba_marseille","lat":43.28932,"lon":5.36622,"is_reserved":false,"is_disabled":false,"rental_uris":{"android":"levelo://app?vid=fd9b10ab-4074-45a2-9fa5-108599963103","ios":"levelo://app?vid=fd9b10ab-4074-45a2-9fa5-108599963103"},"vehicle_type_id":"4","last_reported":1734786767,"current_range_meters":38800,"station_id":"ce4bhap2rcd13ifvqek0","pricing_plan_id":"cebpf4jnsgd1na2vs0mg"},{"bike_id":"7ddbcde7-0411-490e-afea-0c0d7796e65f","system_id":"levelo_inurba_marseille","lat":43.29248,"lon":5.384474,"is_reserved":false,"is_disabled":false,"rental_uris":{"android":"levelo://app?vid=7ddbcde7-0411-490e-afea-0c0d7796e65f","ios":"levelo://app?vid=7ddbcde7-0411-490e-afea-0c0d7796e65f"},"vehicle_type_id":"4","last_reported":1734786767,"current_range_meters":6000,"station_id":"ce4bhpp2rcd13ifvqhfg","pricing_plan_id":"cebpf4jnsgd1na2vs0mg"},{"bike_id":"20907fe1-7093-4868-8bd6-d680712c57df","system_id":"levelo_inurba_marseille","lat":43.29607,"lon":5.37711,"is_reserved":false,"is_disabled":false,"rental_uris":{"android":"levelo://app?vid=20907fe1-7093-4868-8bd6-d680712c57df","ios":"levelo://app?vid=20907fe1-7093-4868-8bd6-d680712c57df"},"vehicle_type_id":"4","last_reported":1734786767,"current_range_meters":28000,"station_id":"ce4bgi92rcd13ifvqb90","pricing_plan_id":"cebpf4jnsgd1na2vs0mg"},{"bike_id":"3e35c612-6aab-4cde-a603-054861237f48","system_id":"levelo_inurba_marseille","lat":43.29777,"lon":5.37102,"is_reserved":false,"is_disabled":false,"rental_uris":{"android":"levelo://app?vid=3e35c612-6aab-4cde-a603-054861237f48","ios":"levelo://app?vid=3e35c612-6aab-4cde-a603-054861237f48"},"vehicle_type_id":"4","last_reported":1734786767,"current_range_meters":30800,"station_id":"ce4bgop2rcd13ifvqc1g","pricing_plan_id":"cebpf4jnsgd1na2vs0mg"},{"bike_id":"d77abc9d-2ff7-46b1-95d2-5a87a7d7b6fc","system_id":"levelo_inurba_marseille","lat":43.29618,"lon":5.37699,"is_reserved":false,"is_disabled":false,"rental_uris":{"android":"levelo://app?vid=d77abc9d-2ff7-46b1-95d2-5a87a7d7b6fc","ios":"levelo://app?vid=d77abc9d-2ff7-46b1-95d2-5a87a7d7b6fc"},"vehicle_type_id":"4","last_reported":1734786767,"current_range_meters":38800,"station_id":"ce4bgi92rcd13ifvqb90","pricing_plan_id":"cebpf4jnsgd1na2vs0mg"},{"bike_id":"14dbcb14-abf7-4274-be65-58fb44a8e529","system_id":"levelo_inurba_marseille","lat":43.27416,"lon":5.39408,"is_reserved":false,"is_disabled":false,"rental_uris":{"android":"levelo://app?vid=14dbcb14-abf7-4274-be65-58fb44a8e529","ios":"levelo://app?vid=14dbcb14-abf7-4274-be65-58fb44a8e529"},"vehicle_type_id":"4","last_reported":1734786767,"current_range_meters":36800,"station_id":"ce4bhdp2rcd13ifvqf20","pricing_plan_id":"cebpf4jnsgd1na2vs0mg"},{"bike_id":"c95fa6d7-bba7-4ae8-8438-c7ee5ece27c6","system_id":"levelo_inurba_marseille","lat":43.30327,"lon":5.40448,"is_reserved":false,"is_disabled":false,"rental_uris":{"android":"levelo://app?vid=c95fa6d7-bba7-4ae8-8438-c7ee5ece27c6","ios":"levelo://app?vid=c95fa6d7-bba7-4ae8-8438-c7ee5ece27c6"},"vehicle_type_id":"4","last_reported":1734786767,"current_range_meters":12800,"station_id":"ce4bh012rcd13ifvqd10","pricing_plan_id":"cebpf4jnsgd1na2vs0mg"},{"bike_id":"77da38f2-be67-48e3-8cb9-3031a9b2b25c","system_id":"levelo_inurba_marseille","lat":43.29728,"lon":5.37691,"is_reserved":false,"is_disabled":false,"rental_uris":{"android":"levelo://app?vid=77da38f2-be67-48e3-8cb9-3031a9b2b25c","ios":"levelo://app?vid=77da38f2-be67-48e3-8cb9-3031a9b2b25c"},"vehicle_type_id":"4","last_reported":1734786767,"current_range_meters":17200,"station_id":"ce4bgkh2rcd13ifvqbl0","pricing_plan_id":"cebpf4jnsgd1na2vs0mg"},{"bike_id":"81c55f70-3f5b-44f5-82c2-dadd04d937b5","system_id":"levelo_inurba_marseille","lat":43.31127,"lon":5.37758,"is_reserved":false,"is_disabled":false,"rental_uris":{"android":"levelo://app?vid=81c55f70-3f5b-44f5-82c2-dadd04d937b5","ios":"levelo://app?vid=81c55f70-3f5b-44f5-82c2-dadd04d937b5"},"vehicle_type_id":"4","last_reported":1734786767,"current_range_meters":10800,"station_id":"ce4bgt92rcd13ifvqcg0","pricing_plan_id":"cebpf4jnsgd1na2vs0mg"},{"bike_id":"b2a7f13a-9614-4595-a264-2c05c7dda9fd","system_id":"levelo_inurba_marseille","lat":43.26483,"lon":5.3955,"is_reserved":false,"is_disabled":false,"rental_uris":{"android":"levelo://app?vid=b2a7f13a-9614-4595-a264-2c05c7dda9fd","ios":"levelo://app?vid=b2a7f13a-9614-4595-a264-2c05c7dda9fd"},"vehicle_type_id":"4","last_reported":1734786767,"current_range_meters":12800,"station_id":"ce4bhi12rcd13ifvqfq0","pricing_plan_id":"cebpf4jnsgd1na2vs0mg"},{"bike_id":"9ccd427a-335f-4345-8944-79b3d49dfe96","system_id":"levelo_inurba_marseille","lat":43.337444,"lon":5.374475,"is_reserved":false,"is_disabled":false,"rental_uris":{"android":"levelo://app?vid=9ccd427a-335f-4345-8944-79b3d49dfe96","ios":"levelo://app?vid=9ccd427a-335f-4345-8944-79b3d49dfe96"},"vehicle_type_id":"4","last_reported":1734786767,"current_range_meters":38800,"station_id":"","pricing_plan_id":"cebpf4jnsgd1na2vs0mg"},{"bike_id":"30afb38e-0c47-4c13-b1a5-c734d9214964","system_id":"levelo_inurba_marseille","lat":43.29271,"lon":5.36843,"is_reserved":false,"is_disabled":false,"rental_uris":{"android":"levelo://app?vid=30afb38e-0c47-4c13-b1a5-c734d9214964","ios":"levelo://app?vid=30afb38e-0c47-4c13-b1a5-c734d9214964"},"vehicle_type_id":"4","last_reported":1734786767,"current_range_meters":24800,"station_id":"ce4bhbp2rcd13ifvqesg","pricing_plan_id":"cebpf4jnsgd1na2vs0mg"},{"bike_id":"d38b4862-6926-4189-b4f3-1ec13d572e87","system_id":"levelo_inurba_marseille","lat":43.27206,"lon":5.39182,"is_reserved":false,"is_disabled":false,"rental_uris":{"android":"levelo://app?vid=d38b4862-6926-4189-b4f3-1ec13d572e87","ios":"levelo://app?vid=d38b4862-6926-4189-b4f3-1ec13d572e87"},"vehicle_type_id":"4","last_reported":1734786767,"current_range_meters":9200,"station_id":"ce4bhhp2rcd13ifvqfm0","pricing_plan_id":"cebpf4jnsgd1na2vs0mg"},{"bike_id":"eeb165cd-0850-4135-b307-a7a2de607d7b","system_id":"levelo_inurba_marseille","lat":43.28609,"lon":5.37066,"is_reserved":false,"is_disabled":false,"rental_uris":{"android":"levelo://app?vid=eeb165cd-0850-4135-b307-a7a2de607d7b","ios":"levelo://app?vid=eeb165cd-0850-4135-b307-a7a2de607d7b"},"vehicle_type_id":"4","last_reported":1734786767,"current_range_meters":38800,"station_id":"ce4bht12rcd13ifvqi60","pricing_plan_id":"cebpf4jnsgd1na2vs0mg"},{"bike_id":"aee9adb9-c0ca-4e0c-b927-b16e072008dd","system_id":"levelo_inurba_marseille","lat":43.29563,"lon":5.37512,"is_reserved":false,"is_disabled":false,"rental_uris":{"android":"levelo://app?vid=aee9adb9-c0ca-4e0c-b927-b16e072008dd","ios":"levelo://app?vid=aee9adb9-c0ca-4e0c-b927-b16e072008dd"},"vehicle_type_id":"4","last_reported":1734786767,"current_range_meters":36800,"station_id":"ce4bgh92rcd13ifvqb50","pricing_plan_id":"cebpf4jnsgd1na2vs0mg"},{"bike_id":"0f5e5d38-d472-4f22-ab9d-3205c66c2299","system_id":"levelo_inurba_marseille","lat":43.31226,"lon":5.36854,"is_reserved":false,"is_disabled":false,"rental_uris":{"android":"levelo://app?vid=0f5e5d38-d472-4f22-ab9d-3205c66c2299","ios":"levelo://app?vid=0f5e5d38-d472-4f22-ab9d-3205c66c2299"},"vehicle_type_id":"4","last_reported":1734786767,"current_range_meters":38000,"station_id":"ce4bgl92rcd13ifvqbq0","pricing_plan_id":"cebpf4jnsgd1na2vs0mg"},{"bike_id":"c6c8b182-0397-4cc8-ad31-743b7c56031b","system_id":"levelo_inurba_marseille","lat":43.27195,"lon":5.39207,"is_reserved":false,"is_disabled":true,"rental_uris":{"android":"levelo://app?vid=c6c8b182-0397-4cc8-ad31-743b7c56031b","ios":"levelo://app?vid=c6c8b182-0397-4cc8-ad31-743b7c56031b"},"vehicle_type_id":"4","last_reported":1734786767,"current_range_meters":36800,"station_id":"ce4bhhp2rcd13ifvqfm0","pricing_plan_id":"cebpf4jnsgd1na2vs0mg"},{"bike_id":"35fff6f6-14d3-44aa-bc3a-8e11749dabba","system_id":"levelo_inurba_marseille","lat":43.29534,"lon":5.38548,"is_reserved":false,"is_disabled":false,"rental_uris":{"android":"levelo://app?vid=35fff6f6-14d3-44aa-bc3a-8e11749dabba","ios":"levelo://app?vid=35fff6f6-14d3-44aa-bc3a-8e11749dabba"},"vehicle_type_id":"4","last_reported":1734786767,"current_range_meters":35200,"station_id":"ce4bgih2rcd13ifvqba0","pricing_plan_id":"cebpf4jnsgd1na2vs0mg"},{"bike_id":"0ccdf620-eaf4-47f7-bf63-410613d0565f","system_id":"levelo_inurba_marseille","lat":43.30537,"lon":5.36543,"is_reserved":false,"is_disabled":false,"rental_uris":{"android":"levelo://app?vid=0ccdf620-eaf4-47f7-bf63-410613d0565f","ios":"levelo://app?vid=0ccdf620-eaf4-47f7-bf63-410613d0565f"},"vehicle_type_id":"4","last_reported":1734786767,"current_range_meters":34800,"station_id":"ce4bgs12rcd13ifvqcag","pricing_plan_id":"cebpf4jnsgd1na2vs0mg"},{"bike_id":"9f50244a-d38a-491a-9f70-c23a46404b46","system_id":"levelo_inurba_marseille","lat":43.2861,"lon":5.37067,"is_reserved":false,"is_disabled":false,"rental_uris":{"android":"levelo://app?vid=9f50244a-d38a-491a-9f70-c23a46404b46","ios":"levelo://app?vid=9f50244a-d38a-491a-9f70-c23a46404b46"},"vehicle_type_id":"4","last_reported":1734786767,"current_range_meters":38800,"station_id":"ce4bht12rcd13ifvqi60","pricing_plan_id":"cebpf4jnsgd1na2vs0mg"},{"bike_id":"ceb47411-851c-4629-80be-093b3dea2d57","system_id":"levelo_inurba_marseille","lat":43.2958,"lon":5.37504,"is_reserved":false,"is_disabled":false,"rental_uris":{"android":"levelo://app?vid=ceb47411-851c-4629-80be-093b3dea2d57","ios":"levelo://app?vid=ceb47411-851c-4629-80be-093b3dea2d57"},"vehicle_type_id":"4","last_reported":1734786767,"current_range_meters":38800,"station_id":"ce4bgh92rcd13ifvqb50","pricing_plan_id":"cebpf4jnsgd1na2vs0mg"},{"bike_id":"c88c4b0d-8e58-498c-8a16-c07f5bd1c386","system_id":"levelo_inurba_marseille","lat":43.30155,"lon":5.38097,"is_reserved":false,"is_disabled":false,"rental_uris":{"android":"levelo://app?vid=c88c4b0d-8e58-498c-8a16-c07f5bd1c386","ios":"levelo://app?vid=c88c4b0d-8e58-498c-8a16-c07f5bd1c386"},"vehicle_type_id":"4","last_reported":1734786767,"current_range_meters":38800,"station_id":"ce4bgjp2rcd13ifvqbh0","pricing_plan_id":"cebpf4jnsgd1na2vs0mg"},{"bike_id":"7bfdbbd9-4fc8-4c9a-87a6-63b36363280e","system_id":"levelo_inurba_marseille","lat":43.30209,"lon":5.39472,"is_reserved":false,"is_disabled":false,"rental_uris":{"android":"levelo://app?vid=7bfdbbd9-4fc8-4c9a-87a6-63b36363280e","ios":"levelo://app?vid=7bfdbbd9-4fc8-4c9a-87a6-63b36363280e"},"vehicle_type_id":"4","last_reported":1734786767,"current_range_meters":26000,"station_id":"ce4bh0p2rcd13ifvqd70","pricing_plan_id":"cebpf4jnsgd1na2vs0mg"},{"bike_id":"90fbf7b3-3e59-4761-9ba2-48103aa75f60","system_id":"levelo_inurba_marseille","lat":43.29911,"lon":5.43666,"is_reserved":false,"is_disabled":false,"rental_uris":{"android":"levelo://app?vid=90fbf7b3-3e59-4761-9ba2-48103aa75f60","ios":"levelo://app?vid=90fbf7b3-3e59-4761-9ba2-48103aa75f60"},"vehicle_type_id":"4","last_reported":1734786767,"current_range_meters":27200,"station_id":"ce4bhpp2rcd13ifvqhfg","pricing_plan_id":"cebpf4jnsgd1na2vs0mg"},{"bike_id":"d623d71b-cdb1-4f37-9afb-994b775f406a","system_id":"levelo_inurba_marseille","lat":43.296265,"lon":5.377327,"is_reserved":false,"is_disabled":false,"rental_uris":{"android":"levelo://app?vid=d623d71b-cdb1-4f37-9afb-994b775f406a","ios":"levelo://app?vid=d623d71b-cdb1-4f37-9afb-994b775f406a"},"vehicle_type_id":"4","last_reported":1734786767,"current_range_meters":21600,"station_id":"ce4bgi92rcd13ifvqb90","pricing_plan_id":"cebpf4jnsgd1na2vs0mg"},{"bike_id":"3e76721f-98e4-431f-969b-21f0e57609ec","system_id":"levelo_inurba_marseille","lat":43.24648,"lon":5.38153,"is_reserved":false,"is_disabled":false,"rental_uris":{"android":"levelo://app?vid=3e76721f-98e4-431f-969b-21f0e57609ec","ios":"levelo://app?vid=3e76721f-98e4-431f-969b-21f0e57609ec"},"vehicle_type_id":"4","last_reported":1734786767,"current_range_meters":38800,"station_id":"ce4bhih2rcd13ifvqfr0","pricing_plan_id":"cebpf4jnsgd1na2vs0mg"},{"bike_id":"227b8709-a253-45c2-b4c3-fa7ef48a7c09","system_id":"levelo_inurba_marseille","lat":43.26941,"lon":5.38634,"is_reserved":false,"is_disabled":false,"rental_uris":{"android":"levelo://app?vid=227b8709-a253-45c2-b4c3-fa7ef48a7c09","ios":"levelo://app?vid=227b8709-a253-45c2-b4c3-fa7ef48a7c09"},"vehicle_type_id":"4","last_reported":1734786767,"current_range_meters":33200,"station_id":"ce4bhh92rcd13ifvqfh0","pricing_plan_id":"cebpf4jnsgd1na2vs0mg"},{"bike_id":"bc813bc0-0591-4549-9941-f7db470b8dfb","system_id":"levelo_inurba_marseille","lat":43.31069,"lon":5.3835,"is_reserved":false,"is_disabled":false,"rental_uris":{"android":"levelo://app?vid=bc813bc0-0591-4549-9941-f7db470b8dfb","ios":"levelo://app?vid=bc813bc0-0591-4549-9941-f7db470b8dfb"},"vehicle_type_id":"4","last_reported":1734786767,"current_range_meters":25200,"station_id":"ce4bgv92rcd13ifvqcr0","pricing_plan_id":"cebpf4jnsgd1na2vs0mg"},{"bike_id":"2de86a4a-b4f1-4dd2-8e55-4a842e2e9b6a","system_id":"levelo_inurba_marseille","lat":43.29626,"lon":5.37154,"is_reserved":false,"is_disabled":false,"rental_uris":{"android":"levelo://app?vid=2de86a4a-b4f1-4dd2-8e55-4a842e2e9b6a","ios":"levelo://app?vid=2de86a4a-b4f1-4dd2-8e55-4a842e2e9b6a"},"vehicle_type_id":"4","last_reported":1734786767,"current_range_meters":38400,"station_id":"","pricing_plan_id":"cebpf4jnsgd1na2vs0mg"},{"bike_id":"fd9c7df6-e3c4-4e62-a4b0-23afb455b299","system_id":"levelo_inurba_marseille","lat":43.30141,"lon":5.39856,"is_reserved":false,"is_disabled":false,"rental_uris":{"android":"levelo://app?vid=fd9c7df6-e3c4-4e62-a4b0-23afb455b299","ios":"levelo://app?vid=fd9c7df6-e3c4-4e62-a4b0-23afb455b299"},"vehicle_type_id":"4","last_reported":1734786767,"current_range_meters":18800,"station_id":"ce4bh0h2rcd13ifvqd40","pricing_plan_id":"cebpf4jnsgd1na2vs0mg"},{"bike_id":"8fb1bad3-a121-4eb1-a55f-687f99cf68d1","system_id":"levelo_inurba_marseille","lat":43.25488,"lon":5.37661,"is_reserved":false,"is_disabled":false,"rental_uris":{"android":"levelo://app?vid=8fb1bad3-a121-4eb1-a55f-687f99cf68d1","ios":"levelo://app?vid=8fb1bad3-a121-4eb1-a55f-687f99cf68d1"},"vehicle_type_id":"4","last_reported":1734786767,"current_range_meters":36400,"station_id":"ce4bhh12rcd13ifvqff0","pricing_plan_id":"cebpf4jnsgd1na2vs0mg"},{"bike_id":"2678b9e7-b887-4244-9b45-06365972f676","system_id":"levelo_inurba_marseille","lat":43.29569,"lon":5.37499,"is_reserved":false,"is_disabled":false,"rental_uris":{"android":"levelo://app?vid=2678b9e7-b887-4244-9b45-06365972f676","ios":"levelo://app?vid=2678b9e7-b887-4244-9b45-06365972f676"},"vehicle_type_id":"4","last_reported":1734786767,"current_range_meters":37600,"station_id":"ce4bgh92rcd13ifvqb50","pricing_plan_id":"cebpf4jnsgd1na2vs0mg"},{"bike_id":"4a6ff7a5-d949-4db1-b4f5-dd651078323e","system_id":"levelo_inurba_marseille","lat":43.23964,"lon":5.36637,"is_reserved":false,"is_disabled":false,"rental_uris":{"android":"levelo://app?vid=4a6ff7a5-d949-4db1-b4f5-dd651078323e","ios":"levelo://app?vid=4a6ff7a5-d949-4db1-b4f5-dd651078323e"},"vehicle_type_id":"4","last_reported":1734786767,"current_range_meters":36400,"station_id":"ce4bhi12rcd13ifvqfp0","pricing_plan_id":"cebpf4jnsgd1na2vs0mg"},{"bike_id":"40f0d9f7-597f-4a4f-9e1f-0bccc7e86565","system_id":"levelo_inurba_marseille","lat":43.290857,"lon":5.380958,"is_reserved":false,"is_disabled":false,"rental_uris":{"android":"levelo://app?vid=40f0d9f7-597f-4a4f-9e1f-0bccc7e86565","ios":"levelo://app?vid=40f0d9f7-597f-4a4f-9e1f-0bccc7e86565"},"vehicle_type_id":"4","last_reported":1734786767,"current_range_meters":30400,"station_id":"ce4bh4p2rcd13ifvqe1g","pricing_plan_id":"cebpf4jnsgd1na2vs0mg"},{"bike_id":"62c4bf08-2663-4d5f-b5a0-40453d217c52","system_id":"levelo_inurba_marseille","lat":43.26201,"lon":5.37924,"is_reserved":false,"is_disabled":false,"rental_uris":{"android":"levelo://app?vid=62c4bf08-2663-4d5f-b5a0-40453d217c52","ios":"levelo://app?vid=62c4bf08-2663-4d5f-b5a0-40453d217c52"},"vehicle_type_id":"4","last_reported":1734786767,"current_range_meters":36400,"station_id":"ce4bhjp2rcd13ifvqg90","pricing_plan_id":"cebpf4jnsgd1na2vs0mg"},{"bike_id":"91e7ad43-f916-4de7-908c-886dc8f256ff","system_id":"levelo_inurba_marseille","lat":43.26558,"lon":5.37279,"is_reserved":false,"is_disabled":true,"rental_uris":{"android":"levelo://app?vid=91e7ad43-f916-4de7-908c-886dc8f256ff","ios":"levelo://app?vid=91e7ad43-f916-4de7-908c-886dc8f256ff"},"vehicle_type_id":"4","last_reported":1734786767,"current_range_meters":0,"station_id":"ce4bhg12rcd13ifvqf70","pricing_plan_id":"cebpf4jnsgd1na2vs0mg"},{"bike_id":"108b58f7-795b-4bc3-887e-c514a0a656af","system_id":"levelo_inurba_marseille","lat":43.26952,"lon":5.40272,"is_reserved":false,"is_disabled":false,"rental_uris":{"android":"levelo://app?vid=108b58f7-795b-4bc3-887e-c514a0a656af","ios":"levelo://app?vid=108b58f7-795b-4bc3-887e-c514a0a656af"},"vehicle_type_id":"4","last_reported":1734786767,"current_range_meters":38400,"station_id":"cjm6bp8fraef2m0cb0m0","pricing_plan_id":"cebpf4jnsgd1na2vs0mg"},{"bike_id":"fc4ff347-ef4d-4a4d-ae09-babf618fedb6","system_id":"levelo_inurba_marseille","lat":43.24173,"lon":5.36394,"is_reserved":false,"is_disabled":false,"rental_uris":{"android":"levelo://app?vid=fc4ff347-ef4d-4a4d-ae09-babf618fedb6","ios":"levelo://app?vid=fc4ff347-ef4d-4a4d-ae09-babf618fedb6"},"vehicle_type_id":"4","last_reported":1734786767,"current_range_meters":35600,"station_id":"cpo36qri1sfpv3e86is0","pricing_plan_id":"cebpf4jnsgd1na2vs0mg"},{"bike_id":"4e1c702f-4fec-4a09-a45d-af1848f5ba3b","system_id":"levelo_inurba_marseille","lat":43.2558,"lon":5.38243,"is_reserved":false,"is_disabled":false,"rental_uris":{"android":"levelo://app?vid=4e1c702f-4fec-4a09-a45d-af1848f5ba3b","ios":"levelo://app?vid=4e1c702f-4fec-4a09-a45d-af1848f5ba3b"},"vehicle_type_id":"4","last_reported":1734786767,"current_range_meters":36800,"station_id":"ce4bhih2rcd13ifvqfs0","pricing_plan_id":"cebpf4jnsgd1na2vs0mg"},{"bike_id":"d2f4d2b9-8f1f-41d5-b191-9fde75bb091d","system_id":"levelo_inurba_marseille","lat":43.27429,"lon":5.39423,"is_reserved":false,"is_disabled":false,"rental_uris":{"android":"levelo://app?vid=d2f4d2b9-8f1f-41d5-b191-9fde75bb091d","ios":"levelo://app?vid=d2f4d2b9-8f1f-41d5-b191-9fde75bb091d"},"vehicle_type_id":"4","last_reported":1734786767,"current_range_meters":28400,"station_id":"ce4bhdp2rcd13ifvqf20","pricing_plan_id":"cebpf4jnsgd1na2vs0mg"},{"bike_id":"0fa7c283-b845-49a6-b0b1-e1a0116c4f73","system_id":"levelo_inurba_marseille","lat":43.264994,"lon":5.395379,"is_reserved":false,"is_disabled":false,"rental_uris":{"android":"levelo://app?vid=0fa7c283-b845-49a6-b0b1-e1a0116c4f73","ios":"levelo://app?vid=0fa7c283-b845-49a6-b0b1-e1a0116c4f73"},"vehicle_type_id":"4","last_reported":1734786767,"current_range_meters":38800,"station_id":"ce4bhi12rcd13ifvqfq0","pricing_plan_id":"cebpf4jnsgd1na2vs0mg"},{"bike_id":"11f9ede0-b346-400f-a4d9-e09e763a2b21","system_id":"levelo_inurba_marseille","lat":43.27815,"lon":5.4072,"is_reserved":false,"is_disabled":false,"rental_uris":{"android":"levelo://app?vid=11f9ede0-b346-400f-a4d9-e09e763a2b21","ios":"levelo://app?vid=11f9ede0-b346-400f-a4d9-e09e763a2b21"},"vehicle_type_id":"4","last_reported":1734786767,"current_range_meters":38000,"station_id":"ce4bhnh2rcd13ifvqgtg","pricing_plan_id":"cebpf4jnsgd1na2vs0mg"},{"bike_id":"1ee4213f-24d8-43d1-9aa2-82e570b9f575","system_id":"levelo_inurba_marseille","lat":43.29918,"lon":5.37471,"is_reserved":false,"is_disabled":false,"rental_uris":{"android":"levelo://app?vid=1ee4213f-24d8-43d1-9aa2-82e570b9f575","ios":"levelo://app?vid=1ee4213f-24d8-43d1-9aa2-82e570b9f575"},"vehicle_type_id":"4","last_reported":1734786767,"current_range_meters":36400,"station_id":"ce4bgjh2rcd13ifvqbg0","pricing_plan_id":"cebpf4jnsgd1na2vs0mg"},{"bike_id":"cef46b00-f8b6-4dfa-afc0-d09ec267248a","system_id":"levelo_inurba_marseille","lat":43.26783,"lon":5.39416,"is_reserved":false,"is_disabled":false,"rental_uris":{"android":"levelo://app?vid=cef46b00-f8b6-4dfa-afc0-d09ec267248a","ios":"levelo://app?vid=cef46b00-f8b6-4dfa-afc0-d09ec267248a"},"vehicle_type_id":"4","last_reported":1734786767,"current_range_meters":38400,"station_id":"ce4bhh12rcd13ifvqfg0","pricing_plan_id":"cebpf4jnsgd1na2vs0mg"},{"bike_id":"4695cff2-e8a9-4cfc-a059-a1678fa39cf5","system_id":"levelo_inurba_marseille","lat":43.27809,"lon":5.40719,"is_reserved":false,"is_disabled":false,"rental_uris":{"android":"levelo://app?vid=4695cff2-e8a9-4cfc-a059-a1678fa39cf5","ios":"levelo://app?vid=4695cff2-e8a9-4cfc-a059-a1678fa39cf5"},"vehicle_type_id":"4","last_reported":1734786767,"current_range_meters":27600,"station_id":"ce4bhnh2rcd13ifvqgtg","pricing_plan_id":"cebpf4jnsgd1na2vs0mg"},{"bike_id":"1b0e9d34-71b5-4d2a-8c59-b2701c6566e6","system_id":"levelo_inurba_marseille","lat":43.25502,"lon":5.37654,"is_reserved":false,"is_disabled":false,"rental_uris":{"android":"levelo://app?vid=1b0e9d34-71b5-4d2a-8c59-b2701c6566e6","ios":"levelo://app?vid=1b0e9d34-71b5-4d2a-8c59-b2701c6566e6"},"vehicle_type_id":"4","last_reported":1734786767,"current_range_meters":38800,"station_id":"ce4bhh12rcd13ifvqff0","pricing_plan_id":"cebpf4jnsgd1na2vs0mg"},{"bike_id":"925a18fc-4a82-4f01-8078-fc82223c6dd3","system_id":"levelo_inurba_marseille","lat":43.27423,"lon":5.39416,"is_reserved":false,"is_disabled":false,"rental_uris":{"android":"levelo://app?vid=925a18fc-4a82-4f01-8078-fc82223c6dd3","ios":"levelo://app?vid=925a18fc-4a82-4f01-8078-fc82223c6dd3"},"vehicle_type_id":"4","last_reported":1734786767,"current_range_meters":38800,"station_id":"ce4bhdp2rcd13ifvqf20","pricing_plan_id":"cebpf4jnsgd1na2vs0mg"},{"bike_id":"e3d42cc7-57ef-4460-aa59-56df95b8e11f","system_id":"levelo_inurba_marseille","lat":43.24061,"lon":5.37711,"is_reserved":false,"is_disabled":false,"rental_uris":{"android":"levelo://app?vid=e3d42cc7-57ef-4460-aa59-56df95b8e11f","ios":"levelo://app?vid=e3d42cc7-57ef-4460-aa59-56df95b8e11f"},"vehicle_type_id":"4","last_reported":1734786767,"current_range_meters":26000,"station_id":"ce4bhnp2rcd13ifvqgvg","pricing_plan_id":"cebpf4jnsgd1na2vs0mg"},{"bike_id":"4214f100-4a27-40b0-8707-05ceff11d510","system_id":"levelo_inurba_marseille","lat":43.29797,"lon":5.38109,"is_reserved":false,"is_disabled":false,"rental_uris":{"android":"levelo://app?vid=4214f100-4a27-40b0-8707-05ceff11d510","ios":"levelo://app?vid=4214f100-4a27-40b0-8707-05ceff11d510"},"vehicle_type_id":"4","last_reported":1734786767,"current_range_meters":22000,"station_id":"ce4bgip2rcd13ifvqbb0","pricing_plan_id":"cebpf4jnsgd1na2vs0mg"},{"bike_id":"5cce117c-21f6-4b47-9e6c-5cafdbb81f68","system_id":"levelo_inurba_marseille","lat":43.2737,"lon":5.36258,"is_reserved":false,"is_disabled":false,"rental_uris":{"android":"levelo://app?vid=5cce117c-21f6-4b47-9e6c-5cafdbb81f68","ios":"levelo://app?vid=5cce117c-21f6-4b47-9e6c-5cafdbb81f68"},"vehicle_type_id":"4","last_reported":1734786767,"current_range_meters":27200,"station_id":"ce4bhbh2rcd13ifvqeo0","pricing_plan_id":"cebpf4jnsgd1na2vs0mg"},{"bike_id":"4d72d596-6ee3-47fc-9e03-78edba84cb98","system_id":"levelo_inurba_marseille","lat":43.2791,"lon":5.3958,"is_reserved":false,"is_disabled":false,"rental_uris":{"android":"levelo://app?vid=4d72d596-6ee3-47fc-9e03-78edba84cb98","ios":"levelo://app?vid=4d72d596-6ee3-47fc-9e03-78edba84cb98"},"vehicle_type_id":"4","last_reported":1734786767,"current_range_meters":25200,"station_id":"ce4bhf92rcd13ifvqf40","pricing_plan_id":"cebpf4jnsgd1na2vs0mg"},{"bike_id":"0d08bce9-5500-4f9a-bd1e-c3986914d1bf","system_id":"levelo_inurba_marseille","lat":43.2961,"lon":5.37727,"is_reserved":false,"is_disabled":false,"rental_uris":{"android":"levelo://app?vid=0d08bce9-5500-4f9a-bd1e-c3986914d1bf","ios":"levelo://app?vid=0d08bce9-5500-4f9a-bd1e-c3986914d1bf"},"vehicle_type_id":"4","last_reported":1734786767,"current_range_meters":30400,"station_id":"ce4bgi92rcd13ifvqb90","pricing_plan_id":"cebpf4jnsgd1na2vs0mg"},{"bike_id":"10e1ad81-c22f-493d-8075-637ab8b5c981","system_id":"levelo_inurba_marseille","lat":43.26679,"lon":5.38273,"is_reserved":false,"is_disabled":false,"rental_uris":{"android":"levelo://app?vid=10e1ad81-c22f-493d-8075-637ab8b5c981","ios":"levelo://app?vid=10e1ad81-c22f-493d-8075-637ab8b5c981"},"vehicle_type_id":"4","last_reported":1734786767,"current_range_meters":37600,"station_id":"ce4bhg92rcd13ifvqf90","pricing_plan_id":"cebpf4jnsgd1na2vs0mg"},{"bike_id":"2a12bde8-ca1e-4ca8-8cbb-8dbf9a638106","system_id":"levelo_inurba_marseille","lat":43.23191,"lon":5.35557,"is_reserved":false,"is_disabled":false,"rental_uris":{"android":"levelo://app?vid=2a12bde8-ca1e-4ca8-8cbb-8dbf9a638106","ios":"levelo://app?vid=2a12bde8-ca1e-4ca8-8cbb-8dbf9a638106"},"vehicle_type_id":"4","last_reported":1734786767,"current_range_meters":21600,"station_id":"ce4bhu92rcd13ifvqi70","pricing_plan_id":"cebpf4jnsgd1na2vs0mg"},{"bike_id":"9cb8c7d3-6d3b-4938-90ce-5b574366bd18","system_id":"levelo_inurba_marseille","lat":43.28371,"lon":5.38622,"is_reserved":false,"is_disabled":false,"rental_uris":{"android":"levelo://app?vid=9cb8c7d3-6d3b-4938-90ce-5b574366bd18","ios":"levelo://app?vid=9cb8c7d3-6d3b-4938-90ce-5b574366bd18"},"vehicle_type_id":"4","last_reported":1734786767,"current_range_meters":24800,"station_id":"ce4bh492rcd13ifvqdvg","pricing_plan_id":"cebpf4jnsgd1na2vs0mg"},{"bike_id":"c4f01ca7-28f1-454d-ba01-b7f6f6e2db1f","system_id":"levelo_inurba_marseille","lat":43.27425,"lon":5.39415,"is_reserved":false,"is_disabled":false,"rental_uris":{"android":"levelo://app?vid=c4f01ca7-28f1-454d-ba01-b7f6f6e2db1f","ios":"levelo://app?vid=c4f01ca7-28f1-454d-ba01-b7f6f6e2db1f"},"vehicle_type_id":"4","last_reported":1734786767,"current_range_meters":39200,"station_id":"ce4bhdp2rcd13ifvqf20","pricing_plan_id":"cebpf4jnsgd1na2vs0mg"},{"bike_id":"fdc8cf9c-8e99-4365-a64b-10ec6fd20345","system_id":"levelo_inurba_marseille","lat":43.24393,"lon":5.37057,"is_reserved":false,"is_disabled":false,"rental_uris":{"android":"levelo://app?vid=fdc8cf9c-8e99-4365-a64b-10ec6fd20345","ios":"levelo://app?vid=fdc8cf9c-8e99-4365-a64b-10ec6fd20345"},"vehicle_type_id":"4","last_reported":1734786767,"current_range_meters":38800,"station_id":"ce4bhhh2rcd13ifvqfk0","pricing_plan_id":"cebpf4jnsgd1na2vs0mg"},{"bike_id":"f0bcbb45-555d-4c5b-8534-084b0fafc4e9","system_id":"levelo_inurba_marseille","lat":43.29167,"lon":5.3714,"is_reserved":false,"is_disabled":true,"rental_uris":{"android":"levelo://app?vid=f0bcbb45-555d-4c5b-8534-084b0fafc4e9","ios":"levelo://app?vid=f0bcbb45-555d-4c5b-8534-084b0fafc4e9"},"vehicle_type_id":"4","last_reported":1734786767,"current_range_meters":38800,"station_id":"ce4bha92rcd13ifvqeh0","pricing_plan_id":"cebpf4jnsgd1na2vs0mg"},{"bike_id":"0d97fe76-08b3-4fe5-94cd-e3771b17b56e","system_id":"levelo_inurba_marseille","lat":43.25089,"lon":5.39526,"is_reserved":false,"is_disabled":false,"rental_uris":{"android":"levelo://app?vid=0d97fe76-08b3-4fe5-94cd-e3771b17b56e","ios":"levelo://app?vid=0d97fe76-08b3-4fe5-94cd-e3771b17b56e"},"vehicle_type_id":"4","last_reported":1734786767,"current_range_meters":20000,"station_id":"ce4bhm12rcd13ifvqgkg","pricing_plan_id":"cebpf4jnsgd1na2vs0mg"},{"bike_id":"b002d028-e42c-46e2-93ce-a18a7a90546e","system_id":"levelo_inurba_marseille","lat":43.32279,"lon":5.38291,"is_reserved":false,"is_disabled":false,"rental_uris":{"android":"levelo://app?vid=b002d028-e42c-46e2-93ce-a18a7a90546e","ios":"levelo://app?vid=b002d028-e42c-46e2-93ce-a18a7a90546e"},"vehicle_type_id":"4","last_reported":1734786767,"current_range_meters":16800,"station_id":"ce4bhr12rcd13ifvqhqg","pricing_plan_id":"cebpf4jnsgd1na2vs0mg"},{"bike_id":"71992de3-9ce0-484e-8d89-22c34323813f","system_id":"levelo_inurba_marseille","lat":43.293014,"lon":5.371798,"is_reserved":false,"is_disabled":false,"rental_uris":{"android":"levelo://app?vid=71992de3-9ce0-484e-8d89-22c34323813f","ios":"levelo://app?vid=71992de3-9ce0-484e-8d89-22c34323813f"},"vehicle_type_id":"4","last_reported":1734786767,"current_range_meters":38800,"station_id":"ce4bgh92rcd13ifvqb40","pricing_plan_id":"cebpf4jnsgd1na2vs0mg"},{"bike_id":"868a2a2c-a456-4d7d-8a8c-db715b4607bb","system_id":"levelo_inurba_marseille","lat":43.29826,"lon":5.38077,"is_reserved":false,"is_disabled":false,"rental_uris":{"android":"levelo://app?vid=868a2a2c-a456-4d7d-8a8c-db715b4607bb","ios":"levelo://app?vid=868a2a2c-a456-4d7d-8a8c-db715b4607bb"},"vehicle_type_id":"4","last_reported":1734786767,"current_range_meters":38800,"station_id":"ce4bgip2rcd13ifvqbb0","pricing_plan_id":"cebpf4jnsgd1na2vs0mg"},{"bike_id":"e2ef8f12-3442-417e-9b2a-9c202d99979b","system_id":"levelo_inurba_marseille","lat":43.2892,"lon":5.36665,"is_reserved":false,"is_disabled":false,"rental_uris":{"android":"levelo://app?vid=e2ef8f12-3442-417e-9b2a-9c202d99979b","ios":"levelo://app?vid=e2ef8f12-3442-417e-9b2a-9c202d99979b"},"vehicle_type_id":"4","last_reported":1734786767,"current_range_meters":36000,"station_id":"ce4bhap2rcd13ifvqek0","pricing_plan_id":"cebpf4jnsgd1na2vs0mg"},{"bike_id":"5c592034-129f-414d-85e6-d92c74cda9ed","system_id":"levelo_inurba_marseille","lat":43.29574,"lon":5.37507,"is_reserved":false,"is_disabled":false,"rental_uris":{"android":"levelo://app?vid=5c592034-129f-414d-85e6-d92c74cda9ed","ios":"levelo://app?vid=5c592034-129f-414d-85e6-d92c74cda9ed"},"vehicle_type_id":"4","last_reported":1734786767,"current_range_meters":36800,"station_id":"ce4bgh92rcd13ifvqb50","pricing_plan_id":"cebpf4jnsgd1na2vs0mg"},{"bike_id":"4094ac40-fe97-4483-91f4-bc4b6a97b4f3","system_id":"levelo_inurba_marseille","lat":43.25828,"lon":5.39428,"is_reserved":false,"is_disabled":false,"rental_uris":{"android":"levelo://app?vid=4094ac40-fe97-4483-91f4-bc4b6a97b4f3","ios":"levelo://app?vid=4094ac40-fe97-4483-91f4-bc4b6a97b4f3"},"vehicle_type_id":"4","last_reported":1734786767,"current_range_meters":6400,"station_id":"ce4bhip2rcd13ifvqft0","pricing_plan_id":"cebpf4jnsgd1na2vs0mg"},{"bike_id":"b44f9236-c33f-43b3-ab7e-0f32e9951c9e","system_id":"levelo_inurba_marseille","lat":43.23187,"lon":5.35558,"is_reserved":false,"is_disabled":false,"rental_uris":{"android":"levelo://app?vid=b44f9236-c33f-43b3-ab7e-0f32e9951c9e","ios":"levelo://app?vid=b44f9236-c33f-43b3-ab7e-0f32e9951c9e"},"vehicle_type_id":"4","last_reported":1734786767,"current_range_meters":36800,"station_id":"ce4bhu92rcd13ifvqi70","pricing_plan_id":"cebpf4jnsgd1na2vs0mg"},{"bike_id":"83571daf-4df4-4c30-875e-3631c985fa1d","system_id":"levelo_inurba_marseille","lat":43.29842,"lon":5.36266,"is_reserved":false,"is_disabled":false,"rental_uris":{"android":"levelo://app?vid=83571daf-4df4-4c30-875e-3631c985fa1d","ios":"levelo://app?vid=83571daf-4df4-4c30-875e-3631c985fa1d"},"vehicle_type_id":"4","last_reported":1734786767,"current_range_meters":38000,"station_id":"ce4bgpp2rcd13ifvqc3g","pricing_plan_id":"cebpf4jnsgd1na2vs0mg"},{"bike_id":"c6d6f2e3-a19b-4f12-9273-24fbed440b93","system_id":"levelo_inurba_marseille","lat":43.30263,"lon":5.37712,"is_reserved":false,"is_disabled":false,"rental_uris":{"android":"levelo://app?vid=c6d6f2e3-a19b-4f12-9273-24fbed440b93","ios":"levelo://app?vid=c6d6f2e3-a19b-4f12-9273-24fbed440b93"},"vehicle_type_id":"4","last_reported":1734786767,"current_range_meters":34800,"station_id":"ce4bguh2rcd13ifvqcj0","pricing_plan_id":"cebpf4jnsgd1na2vs0mg"},{"bike_id":"9becddea-ecbc-4149-89d1-f1de80737443","system_id":"levelo_inurba_marseille","lat":43.2668,"lon":5.38268,"is_reserved":false,"is_disabled":false,"rental_uris":{"android":"levelo://app?vid=9becddea-ecbc-4149-89d1-f1de80737443","ios":"levelo://app?vid=9becddea-ecbc-4149-89d1-f1de80737443"},"vehicle_type_id":"4","last_reported":1734786767,"current_range_meters":35600,"station_id":"ce4bhg92rcd13ifvqf90","pricing_plan_id":"cebpf4jnsgd1na2vs0mg"},{"bike_id":"b73b3cc8-26fa-4032-8e99-f74b6ff40c2a","system_id":"levelo_inurba_marseille","lat":43.27004,"lon":5.40223,"is_reserved":false,"is_disabled":false,"rental_uris":{"android":"levelo://app?vid=b73b3cc8-26fa-4032-8e99-f74b6ff40c2a","ios":"levelo://app?vid=b73b3cc8-26fa-4032-8e99-f74b6ff40c2a"},"vehicle_type_id":"4","last_reported":1734786767,"current_range_meters":20400,"station_id":"","pricing_plan_id":"cebpf4jnsgd1na2vs0mg"},{"bike_id":"db122134-c31b-4a82-9b05-bda39f6fec31","system_id":"levelo_inurba_marseille","lat":43.24652,"lon":5.38172,"is_reserved":false,"is_disabled":false,"rental_uris":{"android":"levelo://app?vid=db122134-c31b-4a82-9b05-bda39f6fec31","ios":"levelo://app?vid=db122134-c31b-4a82-9b05-bda39f6fec31"},"vehicle_type_id":"4","last_reported":1734786767,"current_range_meters":36800,"station_id":"ce4bhih2rcd13ifvqfr0","pricing_plan_id":"cebpf4jnsgd1na2vs0mg"},{"bike_id":"32ebf098-e002-4aa6-88f7-5b365ee05e11","system_id":"levelo_inurba_marseille","lat":43.2408,"lon":5.37747,"is_reserved":false,"is_disabled":false,"rental_uris":{"android":"levelo://app?vid=32ebf098-e002-4aa6-88f7-5b365ee05e11","ios":"levelo://app?vid=32ebf098-e002-4aa6-88f7-5b365ee05e11"},"vehicle_type_id":"4","last_reported":1734786767,"current_range_meters":2800,"station_id":"ce4bhnp2rcd13ifvqgvg","pricing_plan_id":"cebpf4jnsgd1na2vs0mg"},{"bike_id":"83bfb82b-bde3-46ea-a5b7-3d139fbcf90a","system_id":"levelo_inurba_marseille","lat":43.270567,"lon":5.402631,"is_reserved":false,"is_disabled":false,"rental_uris":{"android":"levelo://app?vid=83bfb82b-bde3-46ea-a5b7-3d139fbcf90a","ios":"levelo://app?vid=83bfb82b-bde3-46ea-a5b7-3d139fbcf90a"},"vehicle_type_id":"4","last_reported":1734786767,"current_range_meters":12000,"station_id":"ce4bhk92rcd13ifvqgc0","pricing_plan_id":"cebpf4jnsgd1na2vs0mg"},{"bike_id":"4b7afde9-10fb-4c99-9992-7cd53645a008","system_id":"levelo_inurba_marseille","lat":43.29581,"lon":5.37783,"is_reserved":false,"is_disabled":false,"rental_uris":{"android":"levelo://app?vid=4b7afde9-10fb-4c99-9992-7cd53645a008","ios":"levelo://app?vid=4b7afde9-10fb-4c99-9992-7cd53645a008"},"vehicle_type_id":"4","last_reported":1734786767,"current_range_meters":38800,"station_id":"","pricing_plan_id":"cebpf4jnsgd1na2vs0mg"},{"bike_id":"a4cdc68d-9a41-489e-9b1d-3577a4e39cb2","system_id":"levelo_inurba_marseille","lat":43.31728,"lon":5.42392,"is_reserved":false,"is_disabled":false,"rental_uris":{"android":"levelo://app?vid=a4cdc68d-9a41-489e-9b1d-3577a4e39cb2","ios":"levelo://app?vid=a4cdc68d-9a41-489e-9b1d-3577a4e39cb2"},"vehicle_type_id":"4","last_reported":1734786767,"current_range_meters":39200,"station_id":"ce4bhp92rcd13ifvqhbg","pricing_plan_id":"cebpf4jnsgd1na2vs0mg"},{"bike_id":"575a1b12-9fe6-41cc-a647-57720183f8a1","system_id":"levelo_inurba_marseille","lat":43.29979,"lon":5.372,"is_reserved":false,"is_disabled":false,"rental_uris":{"android":"levelo://app?vid=575a1b12-9fe6-41cc-a647-57720183f8a1","ios":"levelo://app?vid=575a1b12-9fe6-41cc-a647-57720183f8a1"},"vehicle_type_id":"4","last_reported":1734786767,"current_range_meters":39200,"station_id":"ce4bgr92rcd13ifvqc7g","pricing_plan_id":"cebpf4jnsgd1na2vs0mg"},{"bike_id":"61bd45b4-bece-42b5-80d4-864f70786968","system_id":"levelo_inurba_marseille","lat":43.286188,"lon":5.350998,"is_reserved":false,"is_disabled":false,"rental_uris":{"android":"levelo://app?vid=61bd45b4-bece-42b5-80d4-864f70786968","ios":"levelo://app?vid=61bd45b4-bece-42b5-80d4-864f70786968"},"vehicle_type_id":"4","last_reported":1734786767,"current_range_meters":38000,"station_id":"ce4bhch2rcd13ifvqeug","pricing_plan_id":"cebpf4jnsgd1na2vs0mg"},{"bike_id":"ba623d7f-de4d-43e6-9a39-be19938e75fb","system_id":"levelo_inurba_marseille","lat":43.29353,"lon":5.37864,"is_reserved":false,"is_disabled":true,"rental_uris":{"android":"levelo://app?vid=ba623d7f-de4d-43e6-9a39-be19938e75fb","ios":"levelo://app?vid=ba623d7f-de4d-43e6-9a39-be19938e75fb"},"vehicle_type_id":"4","last_reported":1734786767,"current_range_meters":37600,"station_id":"","pricing_plan_id":"cebpf4jnsgd1na2vs0mg"},{"bike_id":"e66ede9e-6d3f-45d8-8f35-600ac0cd60c8","system_id":"levelo_inurba_marseille","lat":43.29777,"lon":5.37042,"is_reserved":false,"is_disabled":false,"rental_uris":{"android":"levelo://app?vid=e66ede9e-6d3f-45d8-8f35-600ac0cd60c8","ios":"levelo://app?vid=e66ede9e-6d3f-45d8-8f35-600ac0cd60c8"},"vehicle_type_id":"4","last_reported":1734786767,"current_range_meters":38000,"station_id":"ce4bgop2rcd13ifvqc1g","pricing_plan_id":"cebpf4jnsgd1na2vs0mg"},{"bike_id":"00c6460d-0463-404f-ba04-3266a5d0bb0f","system_id":"levelo_inurba_marseille","lat":43.29909,"lon":5.38143,"is_reserved":false,"is_disabled":false,"rental_uris":{"android":"levelo://app?vid=00c6460d-0463-404f-ba04-3266a5d0bb0f","ios":"levelo://app?vid=00c6460d-0463-404f-ba04-3266a5d0bb0f"},"vehicle_type_id":"4","last_reported":1734786767,"current_range_meters":38000,"station_id":"ce4bgj12rcd13ifvqbc0","pricing_plan_id":"cebpf4jnsgd1na2vs0mg"},{"bike_id":"c073fa6a-f94e-4fab-8a56-0f73febd329a","system_id":"levelo_inurba_marseille","lat":43.27946,"lon":5.41056,"is_reserved":false,"is_disabled":false,"rental_uris":{"android":"levelo://app?vid=c073fa6a-f94e-4fab-8a56-0f73febd329a","ios":"levelo://app?vid=c073fa6a-f94e-4fab-8a56-0f73febd329a"},"vehicle_type_id":"4","last_reported":1734786767,"current_range_meters":12000,"station_id":"ce4bhnp2rcd13ifvqh0g","pricing_plan_id":"cebpf4jnsgd1na2vs0mg"},{"bike_id":"eb66acd5-ad04-42f2-8460-25bae4cd3515","system_id":"levelo_inurba_marseille","lat":43.30272,"lon":5.37703,"is_reserved":false,"is_disabled":false,"rental_uris":{"android":"levelo://app?vid=eb66acd5-ad04-42f2-8460-25bae4cd3515","ios":"levelo://app?vid=eb66acd5-ad04-42f2-8460-25bae4cd3515"},"vehicle_type_id":"4","last_reported":1734786767,"current_range_meters":38800,"station_id":"ce4bguh2rcd13ifvqcj0","pricing_plan_id":"cebpf4jnsgd1na2vs0mg"},{"bike_id":"caa28317-677f-4684-8cc6-46932db162b9","system_id":"levelo_inurba_marseille","lat":43.27813,"lon":5.40718,"is_reserved":false,"is_disabled":false,"rental_uris":{"android":"levelo://app?vid=caa28317-677f-4684-8cc6-46932db162b9","ios":"levelo://app?vid=caa28317-677f-4684-8cc6-46932db162b9"},"vehicle_type_id":"4","last_reported":1734786767,"current_range_meters":17200,"station_id":"ce4bhnh2rcd13ifvqgtg","pricing_plan_id":"cebpf4jnsgd1na2vs0mg"},{"bike_id":"d7a9a039-2919-4498-94bc-85df69bbf9b4","system_id":"levelo_inurba_marseille","lat":43.25087,"lon":5.39521,"is_reserved":false,"is_disabled":true,"rental_uris":{"android":"levelo://app?vid=d7a9a039-2919-4498-94bc-85df69bbf9b4","ios":"levelo://app?vid=d7a9a039-2919-4498-94bc-85df69bbf9b4"},"vehicle_type_id":"4","last_reported":1734786767,"current_range_meters":0,"station_id":"ce4bhm12rcd13ifvqgkg","pricing_plan_id":"cebpf4jnsgd1na2vs0mg"},{"bike_id":"d34fefdf-efe5-47e8-acde-18666dae30c4","system_id":"levelo_inurba_marseille","lat":43.33734,"lon":5.37483,"is_reserved":false,"is_disabled":false,"rental_uris":{"android":"levelo://app?vid=d34fefdf-efe5-47e8-acde-18666dae30c4","ios":"levelo://app?vid=d34fefdf-efe5-47e8-acde-18666dae30c4"},"vehicle_type_id":"4","last_reported":1734786767,"current_range_meters":36800,"station_id":"","pricing_plan_id":"cebpf4jnsgd1na2vs0mg"},{"bike_id":"f6e00a83-cc1f-4aaf-83bb-77e9d3b9e809","system_id":"levelo_inurba_marseille","lat":43.337444,"lon":5.374475,"is_reserved":false,"is_disabled":false,"rental_uris":{"android":"levelo://app?vid=f6e00a83-cc1f-4aaf-83bb-77e9d3b9e809","ios":"levelo://app?vid=f6e00a83-cc1f-4aaf-83bb-77e9d3b9e809"},"vehicle_type_id":"4","last_reported":1734786767,"current_range_meters":28400,"station_id":"","pricing_plan_id":"cebpf4jnsgd1na2vs0mg"},{"bike_id":"4557c5fc-60ed-4c34-9596-70c70138f451","system_id":"levelo_inurba_marseille","lat":43.29613,"lon":5.37173,"is_reserved":false,"is_disabled":true,"rental_uris":{"android":"levelo://app?vid=4557c5fc-60ed-4c34-9596-70c70138f451","ios":"levelo://app?vid=4557c5fc-60ed-4c34-9596-70c70138f451"},"vehicle_type_id":"4","last_reported":1734786767,"current_range_meters":0,"station_id":"","pricing_plan_id":"cebpf4jnsgd1na2vs0mg"},{"bike_id":"7d1b96ea-46ee-455b-a275-7a36e20b7a8b","system_id":"levelo_inurba_marseille","lat":43.30098,"lon":5.39085,"is_reserved":false,"is_disabled":true,"rental_uris":{"android":"levelo://app?vid=7d1b96ea-46ee-455b-a275-7a36e20b7a8b","ios":"levelo://app?vid=7d1b96ea-46ee-455b-a275-7a36e20b7a8b"},"vehicle_type_id":"4","last_reported":1734786767,"current_range_meters":0,"station_id":"ce4bh192rcd13ifvqdb0","pricing_plan_id":"cebpf4jnsgd1na2vs0mg"},{"bike_id":"28d91cfc-1ca3-4872-9b2f-41fd3752c6b7","system_id":"levelo_inurba_marseille","lat":43.29975,"lon":5.38483,"is_reserved":false,"is_disabled":false,"rental_uris":{"android":"levelo://app?vid=28d91cfc-1ca3-4872-9b2f-41fd3752c6b7","ios":"levelo://app?vid=28d91cfc-1ca3-4872-9b2f-41fd3752c6b7"},"vehicle_type_id":"4","last_reported":1734786767,"current_range_meters":39200,"station_id":"ce4bgj92rcd13ifvqbd0","pricing_plan_id":"cebpf4jnsgd1na2vs0mg"},{"bike_id":"f957ffa3-7b76-4b18-bb62-81627d313cf8","system_id":"levelo_inurba_marseille","lat":43.23194,"lon":5.35554,"is_reserved":false,"is_disabled":false,"rental_uris":{"android":"levelo://app?vid=f957ffa3-7b76-4b18-bb62-81627d313cf8","ios":"levelo://app?vid=f957ffa3-7b76-4b18-bb62-81627d313cf8"},"vehicle_type_id":"4","last_reported":1734786767,"current_range_meters":25600,"station_id":"ce4bhu92rcd13ifvqi70","pricing_plan_id":"cebpf4jnsgd1na2vs0mg"},{"bike_id":"a10c3e4f-e4d5-44ed-8f32-eb7fc4c1879c","system_id":"levelo_inurba_marseille","lat":43.28483,"lon":5.38424,"is_reserved":false,"is_disabled":false,"rental_uris":{"android":"levelo://app?vid=a10c3e4f-e4d5-44ed-8f32-eb7fc4c1879c","ios":"levelo://app?vid=a10c3e4f-e4d5-44ed-8f32-eb7fc4c1879c"},"vehicle_type_id":"4","last_reported":1734786767,"current_range_meters":24000,"station_id":"ce4bh512rcd13ifvqe3g","pricing_plan_id":"cebpf4jnsgd1na2vs0mg"},{"bike_id":"8c50a5d9-7a9c-4f67-979c-fa4fac499ea7","system_id":"levelo_inurba_marseille","lat":43.30313,"lon":5.39191,"is_reserved":false,"is_disabled":false,"rental_uris":{"android":"levelo://app?vid=8c50a5d9-7a9c-4f67-979c-fa4fac499ea7","ios":"levelo://app?vid=8c50a5d9-7a9c-4f67-979c-fa4fac499ea7"},"vehicle_type_id":"4","last_reported":1734786767,"current_range_meters":37600,"station_id":"ce4bgkh2rcd13ifvqbk0","pricing_plan_id":"cebpf4jnsgd1na2vs0mg"},{"bike_id":"55f9c124-4641-4134-b5db-fac4f8895df8","system_id":"levelo_inurba_marseille","lat":43.30445,"lon":5.38892,"is_reserved":false,"is_disabled":false,"rental_uris":{"android":"levelo://app?vid=55f9c124-4641-4134-b5db-fac4f8895df8","ios":"levelo://app?vid=55f9c124-4641-4134-b5db-fac4f8895df8"},"vehicle_type_id":"4","last_reported":1734786767,"current_range_meters":38800,"station_id":"ce4bgk12rcd13ifvqbi0","pricing_plan_id":"cebpf4jnsgd1na2vs0mg"},{"bike_id":"8d23ef1c-4d80-41f5-8856-02b6ab55c880","system_id":"levelo_inurba_marseille","lat":43.33727,"lon":5.39182,"is_reserved":false,"is_disabled":false,"rental_uris":{"android":"levelo://app?vid=8d23ef1c-4d80-41f5-8856-02b6ab55c880","ios":"levelo://app?vid=8d23ef1c-4d80-41f5-8856-02b6ab55c880"},"vehicle_type_id":"4","last_reported":1734786767,"current_range_meters":36000,"station_id":"ce4bhr92rcd13ifvqhsg","pricing_plan_id":"cebpf4jnsgd1na2vs0mg"},{"bike_id":"273828d0-ad53-4df1-ab71-8bd58cada311","system_id":"levelo_inurba_marseille","lat":43.23192,"lon":5.39984,"is_reserved":false,"is_disabled":false,"rental_uris":{"android":"levelo://app?vid=273828d0-ad53-4df1-ab71-8bd58cada311","ios":"levelo://app?vid=273828d0-ad53-4df1-ab71-8bd58cada311"},"vehicle_type_id":"4","last_reported":1734786767,"current_range_meters":12400,"station_id":"ce4bhn12rcd13ifvqgqg","pricing_plan_id":"cebpf4jnsgd1na2vs0mg"},{"bike_id":"bc3230d4-c5dd-4006-a1a1-75a048a6a931","system_id":"levelo_inurba_marseille","lat":43.29298,"lon":5.37455,"is_reserved":false,"is_disabled":false,"rental_uris":{"android":"levelo://app?vid=bc3230d4-c5dd-4006-a1a1-75a048a6a931","ios":"levelo://app?vid=bc3230d4-c5dd-4006-a1a1-75a048a6a931"},"vehicle_type_id":"4","last_reported":1734786767,"current_range_meters":32800,"station_id":"ce4bgi12rcd13ifvqb70","pricing_plan_id":"cebpf4jnsgd1na2vs0mg"},{"bike_id":"29666aa4-269c-46ca-8ed0-7ecc022f915c","system_id":"levelo_inurba_marseille","lat":43.29512,"lon":5.375,"is_reserved":false,"is_disabled":false,"rental_uris":{"android":"levelo://app?vid=29666aa4-269c-46ca-8ed0-7ecc022f915c","ios":"levelo://app?vid=29666aa4-269c-46ca-8ed0-7ecc022f915c"},"vehicle_type_id":"4","last_reported":1734786767,"current_range_meters":14400,"station_id":"ce4bgkp2rcd13ifvqbmg","pricing_plan_id":"cebpf4jnsgd1na2vs0mg"},{"bike_id":"d60d8232-4a96-492d-9348-9c3d8bdfda03","system_id":"levelo_inurba_marseille","lat":43.29867,"lon":5.3626,"is_reserved":false,"is_disabled":false,"rental_uris":{"android":"levelo://app?vid=d60d8232-4a96-492d-9348-9c3d8bdfda03","ios":"levelo://app?vid=d60d8232-4a96-492d-9348-9c3d8bdfda03"},"vehicle_type_id":"4","last_reported":1734786767,"current_range_meters":38800,"station_id":"ce4bgpp2rcd13ifvqc3g","pricing_plan_id":"cebpf4jnsgd1na2vs0mg"},{"bike_id":"0365d627-bfc5-459b-8305-c5938b939cbe","system_id":"levelo_inurba_marseille","lat":43.26924,"lon":5.38949,"is_reserved":false,"is_disabled":false,"rental_uris":{"android":"levelo://app?vid=0365d627-bfc5-459b-8305-c5938b939cbe","ios":"levelo://app?vid=0365d627-bfc5-459b-8305-c5938b939cbe"},"vehicle_type_id":"4","last_reported":1734786767,"current_range_meters":27600,"station_id":"ce4bhhh2rcd13ifvqfl0","pricing_plan_id":"cebpf4jnsgd1na2vs0mg"},{"bike_id":"4b2884e8-05f0-41d6-b396-0510b69b1783","system_id":"levelo_inurba_marseille","lat":43.30133,"lon":5.39858,"is_reserved":false,"is_disabled":false,"rental_uris":{"android":"levelo://app?vid=4b2884e8-05f0-41d6-b396-0510b69b1783","ios":"levelo://app?vid=4b2884e8-05f0-41d6-b396-0510b69b1783"},"vehicle_type_id":"4","last_reported":1734786767,"current_range_meters":31200,"station_id":"ce4bh0h2rcd13ifvqd40","pricing_plan_id":"cebpf4jnsgd1na2vs0mg"},{"bike_id":"cb91b326-16a3-458d-97e2-238f2be05f3d","system_id":"levelo_inurba_marseille","lat":43.29573,"lon":5.3752,"is_reserved":false,"is_disabled":false,"rental_uris":{"android":"levelo://app?vid=cb91b326-16a3-458d-97e2-238f2be05f3d","ios":"levelo://app?vid=cb91b326-16a3-458d-97e2-238f2be05f3d"},"vehicle_type_id":"4","last_reported":1734786767,"current_range_meters":19600,"station_id":"ce4bgh92rcd13ifvqb50","pricing_plan_id":"cebpf4jnsgd1na2vs0mg"},{"bike_id":"b8e48d58-02f6-420a-9a50-3cf353bc15f6","system_id":"levelo_inurba_marseille","lat":43.28411,"lon":5.37524,"is_reserved":false,"is_disabled":false,"rental_uris":{"android":"levelo://app?vid=b8e48d58-02f6-420a-9a50-3cf353bc15f6","ios":"levelo://app?vid=b8e48d58-02f6-420a-9a50-3cf353bc15f6"},"vehicle_type_id":"4","last_reported":1734786767,"current_range_meters":28800,"station_id":"ce4bh412rcd13ifvqds0","pricing_plan_id":"cebpf4jnsgd1na2vs0mg"},{"bike_id":"5a6ca2af-f962-492e-990f-0b811a8e2080","system_id":"levelo_inurba_marseille","lat":43.28446,"lon":5.34977,"is_reserved":false,"is_disabled":false,"rental_uris":{"android":"levelo://app?vid=5a6ca2af-f962-492e-990f-0b811a8e2080","ios":"levelo://app?vid=5a6ca2af-f962-492e-990f-0b811a8e2080"},"vehicle_type_id":"4","last_reported":1734786767,"current_range_meters":38800,"station_id":"ce4bhbh2rcd13ifvqepg","pricing_plan_id":"cebpf4jnsgd1na2vs0mg"},{"bike_id":"bef3d09e-5fc0-4be0-a3bf-78412c964146","system_id":"levelo_inurba_marseille","lat":43.29005,"lon":5.3562,"is_reserved":false,"is_disabled":false,"rental_uris":{"android":"levelo://app?vid=bef3d09e-5fc0-4be0-a3bf-78412c964146","ios":"levelo://app?vid=bef3d09e-5fc0-4be0-a3bf-78412c964146"},"vehicle_type_id":"4","last_reported":1734786767,"current_range_meters":16800,"station_id":"ce4bhb92rcd13ifvqen0","pricing_plan_id":"cebpf4jnsgd1na2vs0mg"},{"bike_id":"646232ca-85af-4543-9491-77ec5822ec23","system_id":"levelo_inurba_marseille","lat":43.29837,"lon":5.36271,"is_reserved":false,"is_disabled":false,"rental_uris":{"android":"levelo://app?vid=646232ca-85af-4543-9491-77ec5822ec23","ios":"levelo://app?vid=646232ca-85af-4543-9491-77ec5822ec23"},"vehicle_type_id":"4","last_reported":1734786767,"current_range_meters":38000,"station_id":"ce4bgpp2rcd13ifvqc3g","pricing_plan_id":"cebpf4jnsgd1na2vs0mg"},{"bike_id":"723b635c-d72a-47a0-a994-f42fb93169c7","system_id":"levelo_inurba_marseille","lat":43.29682,"lon":5.37731,"is_reserved":false,"is_disabled":false,"rental_uris":{"android":"levelo://app?vid=723b635c-d72a-47a0-a994-f42fb93169c7","ios":"levelo://app?vid=723b635c-d72a-47a0-a994-f42fb93169c7"},"vehicle_type_id":"4","last_reported":1734786767,"current_range_meters":38400,"station_id":"ce4bgkh2rcd13ifvqbl0","pricing_plan_id":"cebpf4jnsgd1na2vs0mg"},{"bike_id":"03a50578-8fe1-4026-9c7e-92326b69d35c","system_id":"levelo_inurba_marseille","lat":43.26214,"lon":5.37445,"is_reserved":false,"is_disabled":false,"rental_uris":{"android":"levelo://app?vid=03a50578-8fe1-4026-9c7e-92326b69d35c","ios":"levelo://app?vid=03a50578-8fe1-4026-9c7e-92326b69d35c"},"vehicle_type_id":"4","last_reported":1734786767,"current_range_meters":34000,"station_id":"ce4bhgp2rcd13ifvqfc0","pricing_plan_id":"cebpf4jnsgd1na2vs0mg"},{"bike_id":"aa91dade-6cf1-4e52-9698-1717c14433b1","system_id":"levelo_inurba_marseille","lat":43.29257,"lon":5.38443,"is_reserved":false,"is_disabled":false,"rental_uris":{"android":"levelo://app?vid=aa91dade-6cf1-4e52-9698-1717c14433b1","ios":"levelo://app?vid=aa91dade-6cf1-4e52-9698-1717c14433b1"},"vehicle_type_id":"4","last_reported":1734786767,"current_range_meters":32800,"station_id":"ce4bh692rcd13ifvqea0","pricing_plan_id":"cebpf4jnsgd1na2vs0mg"},{"bike_id":"e353d62c-c5ff-4f13-94a9-2d54b9fdbe08","system_id":"levelo_inurba_marseille","lat":43.288463,"lon":5.358413,"is_reserved":false,"is_disabled":true,"rental_uris":{"android":"levelo://app?vid=e353d62c-c5ff-4f13-94a9-2d54b9fdbe08","ios":"levelo://app?vid=e353d62c-c5ff-4f13-94a9-2d54b9fdbe08"},"vehicle_type_id":"4","last_reported":1734786767,"current_range_meters":0,"station_id":"ce4bhb12rcd13ifvqem0","pricing_plan_id":"cebpf4jnsgd1na2vs0mg"},{"bike_id":"6f8a0222-30d9-4acd-9679-9f18eea26dbe","system_id":"levelo_inurba_marseille","lat":43.24672,"lon":5.38165,"is_reserved":false,"is_disabled":false,"rental_uris":{"android":"levelo://app?vid=6f8a0222-30d9-4acd-9679-9f18eea26dbe","ios":"levelo://app?vid=6f8a0222-30d9-4acd-9679-9f18eea26dbe"},"vehicle_type_id":"4","last_reported":1734786767,"current_range_meters":17200,"station_id":"ce4bhih2rcd13ifvqfr0","pricing_plan_id":"cebpf4jnsgd1na2vs0mg"},{"bike_id":"dfd60306-6842-4fae-aacb-4c30d2d5cfbb","system_id":"levelo_inurba_marseille","lat":43.27373,"lon":5.36252,"is_reserved":false,"is_disabled":false,"rental_uris":{"android":"levelo://app?vid=dfd60306-6842-4fae-aacb-4c30d2d5cfbb","ios":"levelo://app?vid=dfd60306-6842-4fae-aacb-4c30d2d5cfbb"},"vehicle_type_id":"4","last_reported":1734786767,"current_range_meters":24800,"station_id":"ce4bhbh2rcd13ifvqeo0","pricing_plan_id":"cebpf4jnsgd1na2vs0mg"},{"bike_id":"3e4953e1-c178-41db-9597-f41113272927","system_id":"levelo_inurba_marseille","lat":43.27199,"lon":5.39172,"is_reserved":false,"is_disabled":false,"rental_uris":{"android":"levelo://app?vid=3e4953e1-c178-41db-9597-f41113272927","ios":"levelo://app?vid=3e4953e1-c178-41db-9597-f41113272927"},"vehicle_type_id":"4","last_reported":1734786767,"current_range_meters":38800,"station_id":"ce4bhhp2rcd13ifvqfm0","pricing_plan_id":"cebpf4jnsgd1na2vs0mg"},{"bike_id":"870ac398-0980-41bc-b29b-852a736f71c6","system_id":"levelo_inurba_marseille","lat":43.29939,"lon":5.36534,"is_reserved":false,"is_disabled":false,"rental_uris":{"android":"levelo://app?vid=870ac398-0980-41bc-b29b-852a736f71c6","ios":"levelo://app?vid=870ac398-0980-41bc-b29b-852a736f71c6"},"vehicle_type_id":"4","last_reported":1734786767,"current_range_meters":19200,"station_id":"ce4bgm92rcd13ifvqbr0","pricing_plan_id":"cebpf4jnsgd1na2vs0mg"},{"bike_id":"494c8398-822e-42ee-a7f1-dfd664d1fba7","system_id":"levelo_inurba_marseille","lat":43.23194,"lon":5.3555,"is_reserved":false,"is_disabled":false,"rental_uris":{"android":"levelo://app?vid=494c8398-822e-42ee-a7f1-dfd664d1fba7","ios":"levelo://app?vid=494c8398-822e-42ee-a7f1-dfd664d1fba7"},"vehicle_type_id":"4","last_reported":1734786767,"current_range_meters":30800,"station_id":"ce4bhu92rcd13ifvqi70","pricing_plan_id":"cebpf4jnsgd1na2vs0mg"},{"bike_id":"623c8165-c1d4-43b5-856a-33dac25db1d4","system_id":"levelo_inurba_marseille","lat":43.29627,"lon":5.37151,"is_reserved":false,"is_disabled":false,"rental_uris":{"android":"levelo://app?vid=623c8165-c1d4-43b5-856a-33dac25db1d4","ios":"levelo://app?vid=623c8165-c1d4-43b5-856a-33dac25db1d4"},"vehicle_type_id":"4","last_reported":1734786767,"current_range_meters":36400,"station_id":"","pricing_plan_id":"cebpf4jnsgd1na2vs0mg"},{"bike_id":"a37c10b7-1da8-4cc6-b0f3-2a310cde69cc","system_id":"levelo_inurba_marseille","lat":43.29524,"lon":5.39026,"is_reserved":false,"is_disabled":true,"rental_uris":{"android":"levelo://app?vid=a37c10b7-1da8-4cc6-b0f3-2a310cde69cc","ios":"levelo://app?vid=a37c10b7-1da8-4cc6-b0f3-2a310cde69cc"},"vehicle_type_id":"4","last_reported":1734786767,"current_range_meters":31200,"station_id":"ce4bh3p2rcd13ifvqdp0","pricing_plan_id":"cebpf4jnsgd1na2vs0mg"},{"bike_id":"1944c7c6-6e06-48ae-a48b-b245bec5f038","system_id":"levelo_inurba_marseille","lat":43.27915,"lon":5.39577,"is_reserved":false,"is_disabled":false,"rental_uris":{"android":"levelo://app?vid=1944c7c6-6e06-48ae-a48b-b245bec5f038","ios":"levelo://app?vid=1944c7c6-6e06-48ae-a48b-b245bec5f038"},"vehicle_type_id":"4","last_reported":1734786767,"current_range_meters":26800,"station_id":"ce4bhf92rcd13ifvqf40","pricing_plan_id":"cebpf4jnsgd1na2vs0mg"},{"bike_id":"28195630-2c39-4c93-bf30-6590e0ccf6df","system_id":"levelo_inurba_marseille","lat":43.27049,"lon":5.40272,"is_reserved":false,"is_disabled":false,"rental_uris":{"android":"levelo://app?vid=28195630-2c39-4c93-bf30-6590e0ccf6df","ios":"levelo://app?vid=28195630-2c39-4c93-bf30-6590e0ccf6df"},"vehicle_type_id":"4","last_reported":1734786767,"current_range_meters":13600,"station_id":"ce4bhk92rcd13ifvqgc0","pricing_plan_id":"cebpf4jnsgd1na2vs0mg"},{"bike_id":"47cc93a7-70b5-45bf-991b-f441a77935aa","system_id":"levelo_inurba_marseille","lat":43.27311,"lon":5.39098,"is_reserved":false,"is_disabled":true,"rental_uris":{"android":"levelo://app?vid=47cc93a7-70b5-45bf-991b-f441a77935aa","ios":"levelo://app?vid=47cc93a7-70b5-45bf-991b-f441a77935aa"},"vehicle_type_id":"4","last_reported":1734786767,"current_range_meters":37600,"station_id":"ce4bhgp2rcd13ifvqfe0","pricing_plan_id":"cebpf4jnsgd1na2vs0mg"},{"bike_id":"76f7298d-23db-43ba-97cb-ee0a1bca30fa","system_id":"levelo_inurba_marseille","lat":43.26941,"lon":5.40254,"is_reserved":false,"is_disabled":false,"rental_uris":{"android":"levelo://app?vid=76f7298d-23db-43ba-97cb-ee0a1bca30fa","ios":"levelo://app?vid=76f7298d-23db-43ba-97cb-ee0a1bca30fa"},"vehicle_type_id":"4","last_reported":1734786767,"current_range_meters":39200,"station_id":"cjm6bp8fraef2m0cb0m0","pricing_plan_id":"cebpf4jnsgd1na2vs0mg"},{"bike_id":"39cb86bd-d333-444c-a321-d07277f74a29","system_id":"levelo_inurba_marseille","lat":43.26563,"lon":5.37305,"is_reserved":false,"is_disabled":false,"rental_uris":{"android":"levelo://app?vid=39cb86bd-d333-444c-a321-d07277f74a29","ios":"levelo://app?vid=39cb86bd-d333-444c-a321-d07277f74a29"},"vehicle_type_id":"4","last_reported":1734786767,"current_range_meters":33200,"station_id":"ce4bhg12rcd13ifvqf70","pricing_plan_id":"cebpf4jnsgd1na2vs0mg"},{"bike_id":"5de77257-80f5-4126-8140-fd63253300d0","system_id":"levelo_inurba_marseille","lat":43.27067,"lon":5.42278,"is_reserved":false,"is_disabled":false,"rental_uris":{"android":"levelo://app?vid=5de77257-80f5-4126-8140-fd63253300d0","ios":"levelo://app?vid=5de77257-80f5-4126-8140-fd63253300d0"},"vehicle_type_id":"4","last_reported":1734786767,"current_range_meters":8800,"station_id":"ce4bhk92rcd13ifvqgb0","pricing_plan_id":"cebpf4jnsgd1na2vs0mg"},{"bike_id":"a2eba22b-b0ee-4005-9bf3-576bb458d391","system_id":"levelo_inurba_marseille","lat":43.279651,"lon":5.387544,"is_reserved":false,"is_disabled":true,"rental_uris":{"android":"levelo://app?vid=a2eba22b-b0ee-4005-9bf3-576bb458d391","ios":"levelo://app?vid=a2eba22b-b0ee-4005-9bf3-576bb458d391"},"vehicle_type_id":"4","last_reported":1734786767,"current_range_meters":0,"station_id":"","pricing_plan_id":"cebpf4jnsgd1na2vs0mg"},{"bike_id":"8aa4b71b-d877-4fb0-8b5e-2c201f8eedc2","system_id":"levelo_inurba_marseille","lat":43.29171,"lon":5.37143,"is_reserved":false,"is_disabled":false,"rental_uris":{"android":"levelo://app?vid=8aa4b71b-d877-4fb0-8b5e-2c201f8eedc2","ios":"levelo://app?vid=8aa4b71b-d877-4fb0-8b5e-2c201f8eedc2"},"vehicle_type_id":"4","last_reported":1734786767,"current_range_meters":38800,"station_id":"ce4bha92rcd13ifvqeh0","pricing_plan_id":"cebpf4jnsgd1na2vs0mg"},{"bike_id":"fa1b00c2-1e45-460c-a625-e22f4e722d1e","system_id":"levelo_inurba_marseille","lat":43.29596,"lon":5.37727,"is_reserved":false,"is_disabled":false,"rental_uris":{"android":"levelo://app?vid=fa1b00c2-1e45-460c-a625-e22f4e722d1e","ios":"levelo://app?vid=fa1b00c2-1e45-460c-a625-e22f4e722d1e"},"vehicle_type_id":"4","last_reported":1734786767,"current_range_meters":37600,"station_id":"ce4bgi92rcd13ifvqb90","pricing_plan_id":"cebpf4jnsgd1na2vs0mg"},{"bike_id":"5c947138-4462-4c28-a25a-8fcdf6b4a3a2","system_id":"levelo_inurba_marseille","lat":43.33023,"lon":5.39037,"is_reserved":false,"is_disabled":false,"rental_uris":{"android":"levelo://app?vid=5c947138-4462-4c28-a25a-8fcdf6b4a3a2","ios":"levelo://app?vid=5c947138-4462-4c28-a25a-8fcdf6b4a3a2"},"vehicle_type_id":"4","last_reported":1734786767,"current_range_meters":38800,"station_id":"ce4bhr92rcd13ifvqhrg","pricing_plan_id":"cebpf4jnsgd1na2vs0mg"},{"bike_id":"e8b9266a-288a-46d4-af3d-7f133e6bf0fb","system_id":"levelo_inurba_marseille","lat":43.29947,"lon":5.37454,"is_reserved":false,"is_disabled":false,"rental_uris":{"android":"levelo://app?vid=e8b9266a-288a-46d4-af3d-7f133e6bf0fb","ios":"levelo://app?vid=e8b9266a-288a-46d4-af3d-7f133e6bf0fb"},"vehicle_type_id":"4","last_reported":1734786767,"current_range_meters":36000,"station_id":"ce4bgjh2rcd13ifvqbg0","pricing_plan_id":"cebpf4jnsgd1na2vs0mg"},