{"last_updated":1748383758,"ttl":60,"version":"2.2","data":{"bikes":[{"bike_id":"c0b9fd4f-e181-46ce-b0bf-f5119973334f","system_id":"levelo_inurba_marseille","lat":43.33771,"lon":5.37424,"is_reserved":false,"is_disabled":true,"rental_uris":{"android":"levelo://app?vid=c0b9fd4f-e181-46ce-b0bf-f5119973334f","ios":"levelo://app?vid=c0b9fd4f-e181-46ce-b0bf-f5119973334f"},"vehicle_type_id":"4","last_reported":1748383758,"current_range_meters":0,"station_id":"","pricing_plan_id":"cebpf4jnsgd1na2vs0mg"},{"bike_id":"da453a88-f81b-4e0f-9781-5a7f6c1d364c","system_id":"levelo_inurba_marseille","lat":43.337499,"lon":5.374469,"is_reserved":false,"is_disabled":true,"rental_uris":{"android":"levelo://app?vid=da453a88-f81b-4e0f-9781-5a7f6c1d364c","ios":"levelo://app?vid=da453a88-f81b-4e0f-9781-5a7f6c1d364c"},"vehicle_type_id":"4","last_reported":1748383758,"current_range_meters":0,"station_id":"","pricing_plan_id":"cebpf4jnsgd1na2vs0mg"},{"bike_id":"a8e97d8f-8b1a-4591-9245-02b7651f630b","system_id":"levelo_inurba_marseille","lat":43.21191,"lon":5.35083,"is_reserved":false,"is_disabled":true,"rental_uris":{"android":"levelo://app?vid=a8e97d8f-8b1a-4591-9245-02b7651f630b","ios":"levelo://app?vid=a8e97d8f-8b1a-4591-9245-02b7651f630b"},"vehicle_type_id":"4","last_reported":1748383758,"current_range_meters":0,"station_id":"","pricing_plan_id":"cebpf4jnsgd1na2vs0mg"},{"bike_id":"62c69b0c-3510-43b1-942b-9f47bc88312e","system_id":"levelo_inurba_marseille","lat":43.29059,"lon":5.35607,"is_reserved":false,"is_disabled":true,"rental_uris":{"android":"levelo://app?vid=62c69b0c-3510-43b1-942b-9f47bc88312e","ios":"levelo://app?vid=62c69b0c-3510-43b1-942b-9f47bc88312e"},"vehicle_type_id":"4","last_reported":1748383758,"current_range_meters":0,"station_id":"","pricing_plan_id":"cebpf4jnsgd1na2vs0mg"},{"bike_id":"ae9ac33e-6b71-439c-979f-3a5bd5a37079","system_id":"levelo_inurba_marseille","lat":43.282304,"lon":5.390408,"is_reserved":false,"is_disabled":true,"rental_uris":{"android":"levelo://app?vid=ae9ac33e-6b71-439c-979f-3a5bd5a37079","ios":"levelo://app?vid=ae9ac33e-6b71-439c-979f-3a5bd5a37079"},"vehicle_type_id":"4","last_reported":1748383758,"current_range_meters":0,"station_id":"","pricing_plan_id":"cebpf4jnsgd1na2vs0mg"},{"bike_id":"3fe3d6c4-138a-47df-b6b4-e6f19e8f7d46","system_id":"levelo_inurba_marseille","lat":43.21411,"lon":5.34114,"is_reserved":false,"is_disabled":true,"rental_uris":{"android":"levelo://app?vid=3fe3d6c4-138a-47df-b6b4-e6f19e8f7d46","ios":"levelo://app?vid=3fe3d6c4-138a-47df-b6b4-e6f19e8f7d46"},"vehicle_type_id":"4","last_reported":1748383758,"current_range_meters":0,"station_id":"","pricing_plan_id":"cebpf4jnsgd1na2vs0mg"},{"bike_id":"fd133867-b5d2-4fd2-aa0a-382781ea3f5a","system_id":"levelo_inurba_marseille","lat":43.290011,"lon":5.430261,"is_reserved":false,"is_disabled":true,"rental_uris":{"android":"levelo://app?vid=fd133867-b5d2-4fd2-aa0a-382781ea3f5a","ios":"levelo://app?vid=fd133867-b5d2-4fd2-aa0a-382781ea3f5a"},"vehicle_type_id":"4","last_reported":1748383758,"current_range_meters":0,"station_id":"","pricing_plan_id":"cebpf4jnsgd1na2vs0mg"},{"bike_id":"d9fa0449-e47c-4bbe-a91c-4939cab5d888","system_id":"levelo_inurba_marseille","lat":43.2851,"lon":5.42579,"is_reserved":false,"is_disabled":true,"rental_uris":{"android":"levelo://app?vid=d9fa0449-e47c-4bbe-a91c-4939cab5d888","ios":"levelo://app?vid=d9fa0449-e47c-4bbe-a91c-4939cab5d888"},"vehicle_type_id":"4","last_reported":1748383758,"current_range_meters":0,"station_id":"","pricing_plan_id":"cebpf4jnsgd1na2vs0mg"},{"bike_id":"15dcdbbd-a41e-43eb-9ed6-26ec15ce7a50","system_id":"levelo_inurba_marseille","lat":43.21411,"lon":5.34113,"is_reserved":false,"is_disabled":true,"rental_uris":{"android":"levelo://app?vid=15dcdbbd-a41e-43eb-9ed6-26ec15ce7a50","ios":"levelo://app?vid=15dcdbbd-a41e-43eb-9ed6-26ec15ce7a50"},"vehicle_type_id":"4","last_reported":1748383758,"current_range_meters":0,"station_id":"","pricing_plan_id":"cebpf4jnsgd1na2vs0mg"},{"bike_id":"a2f4288a-1e9c-4b87-a581-ec53dfe27c90","system_id":"levelo_inurba_marseille","lat":43.28839,"lon":5.38425,"is_reserved":false,"is_disabled":true,"rental_uris":{"android":"levelo://app?vid=a2f4288a-1e9c-4b87-a581-ec53dfe27c90","ios":"levelo://app?vid=a2f4288a-1e9c-4b87-a581-ec53dfe27c90"},"vehicle_type_id":"4","last_reported":1748383758,"current_range_meters":0,"station_id":"","pricing_plan_id":"cebpf4jnsgd1na2vs0mg"},{"bike_id":"f9fb40c0-1fcd-48cb-8e26-3f2dc0fb2451","system_id":"levelo_inurba_marseille","lat":43.33751,"lon":5.37509,"is_reserved":false,"is_disabled":true,"rental_uris":{"android":"levelo://app?vid=f9fb40c0-1fcd-48cb-8e26-3f2dc0fb2451","ios":"levelo://app?vid=f9fb40c0-1fcd-48cb-8e26-3f2dc0fb2451"},"vehicle_type_id":"4","last_reported":1748383758,"current_range_meters":0,"station_id":"","pricing_plan_id":"cebpf4jnsgd1na2vs0mg"},{"bike_id":"e9dd3aa4-b5e7-4480-926d-d7f537719bfa","system_id":"levelo_inurba_marseille","lat":43.230331,"lon":5.401847,"is_reserved":false,"is_disabled":true,"rental_uris":{"android":"levelo://app?vid=e9dd3aa4-b5e7-4480-926d-d7f537719bfa","ios":"levelo://app?vid=e9dd3aa4-b5e7-4480-926d-d7f537719bfa"},"vehicle_type_id":"4","last_reported":1748383758,"current_range_meters":0,"station_id":"","pricing_plan_id":"cebpf4jnsgd1na2vs0mg"},{"bike_id":"dcd075ea-b4af-4d6d-90b2-1236858b7bc1","system_id":"levelo_inurba_marseille","lat":43.27609,"lon":5.35873,"is_reserved":false,"is_disabled":true,"rental_uris":{"android":"levelo://app?vid=dcd075ea-b4af-4d6d-90b2-1236858b7bc1","ios":"levelo://app?vid=dcd075ea-b4af-4d6d-90b2-1236858b7bc1"},"vehicle_type_id":"4","last_reported":1748383758,"current_range_meters":0,"station_id":"","pricing_plan_id":"cebpf4jnsgd1na2vs0mg"},{"bike_id":"ca39f4ef-0212-44c3-b77e-5ab03fae5e5a","system_id":"levelo_inurba_marseille","lat":43.302853,"lon":5.39987,"is_reserved":false,"is_disabled":true,"rental_uris":{"android":"levelo://app?vid=ca39f4ef-0212-44c3-b77e-5ab03fae5e5a","ios":"levelo://app?vid=ca39f4ef-0212-44c3-b77e-5ab03fae5e5a"},"vehicle_type_id":"4","last_reported":1748383758,"current_range_meters":0,"station_id":"ce4bgvh2rcd13ifvqcs0","pricing_plan_id":"cebpf4jnsgd1na2vs0mg"},{"bike_id":"2d8c3c43-c003-4fa2-9afd-b2f283939eeb","system_id":"levelo_inurba_marseille","lat":43.27919,"lon":5.39583,"is_reserved":false,"is_disabled":true,"rental_uris":{"android":"levelo://app?vid=2d8c3c43-c003-4fa2-9afd-b2f283939eeb","ios":"levelo://app?vid=2d8c3c43-c003-4fa2-9afd-b2f283939eeb"},"vehicle_type_id":"4","last_reported":1748383758,"current_range_meters":0,"station_id":"ce4bhf92rcd13ifvqf40","pricing_plan_id":"cebpf4jnsgd1na2vs0mg"},{"bike_id":"8e665b81-5e54-489d-84f2-54f38aa8dc8f","system_id":"levelo_inurba_marseille","lat":43.22507,"lon":5.34787,"is_reserved":false,"is_disabled":true,"rental_uris":{"android":"levelo://app?vid=8e665b81-5e54-489d-84f2-54f38aa8dc8f","ios":"levelo://app?vid=8e665b81-5e54-489d-84f2-54f38aa8dc8f"},"vehicle_type_id":"4","last_reported":1748383758,"current_range_meters":800,"station_id":"","pricing_plan_id":"cebpf4jnsgd1na2vs0mg"},{"bike_id":"4386a4aa-225e-4480-a3f7-0cb0bb657fe9","system_id":"levelo_inurba_marseille","lat":43.31527,"lon":5.38036,"is_reserved":false,"is_disabled":true,"rental_uris":{"android":"levelo://app?vid=4386a4aa-225e-4480-a3f7-0cb0bb657fe9","ios":"levelo://app?vid=4386a4aa-225e-4480-a3f7-0cb0bb657fe9"},"vehicle_type_id":"4","last_reported":1748383758,"current_range_meters":2000,"station_id":"ce4bhsp2rcd13ifvqi50","pricing_plan_id":"cebpf4jnsgd1na2vs0mg"},{"bike_id":"bfd4e0bf-fbf6-4d67-86e1-a4b21505b452","system_id":"levelo_inurba_marseille","lat":43.286957,"lon":5.399783,"is_reserved":false,"is_disabled":false,"rental_uris":{"android":"levelo://app?vid=bfd4e0bf-fbf6-4d67-86e1-a4b21505b452","ios":"levelo://app?vid=bfd4e0bf-fbf6-4d67-86e1-a4b21505b452"},"vehicle_type_id":"4","last_reported":1748383758,"current_range_meters":2800,"station_id":"ce4bho92rcd13ifvqh3g","pricing_plan_id":"cebpf4jnsgd1na2vs0mg"},{"bike_id":"7463fd3f-db4d-4d3a-94ad-8c136a2723ec","system_id":"levelo_inurba_marseille","lat":43.31525,"lon":5.38025,"is_reserved":false,"is_disabled":false,"rental_uris":{"android":"levelo://app?vid=7463fd3f-db4d-4d3a-94ad-8c136a2723ec","ios":"levelo://app?vid=7463fd3f-db4d-4d3a-94ad-8c136a2723ec"},"vehicle_type_id":"4","last_reported":1748383758,"current_range_meters":2800,"station_id":"ce4bhsp2rcd13ifvqi50","pricing_plan_id":"cebpf4jnsgd1na2vs0mg"},{"bike_id":"a4aef2b9-b7e8-4e2d-8340-592d28bc6c85","system_id":"levelo_inurba_marseille","lat":43.337654,"lon":5.37434,"is_reserved":false,"is_disabled":false,"rental_uris":{"android":"levelo://app?vid=a4aef2b9-b7e8-4e2d-8340-592d28bc6c85","ios":"levelo://app?vid=a4aef2b9-b7e8-4e2d-8340-592d28bc6c85"},"vehicle_type_id":"4","last_reported":1748383758,"current_range_meters":3600,"station_id":"","pricing_plan_id":"cebpf4jnsgd1na2vs0mg"},{"bike_id":"c3e05eea-952a-4c3f-a2e1-df4cb71533f9","system_id":"levelo_inurba_marseille","lat":43.28505,"lon":5.3839,"is_reserved":false,"is_disabled":false,"rental_uris":{"android":"levelo://app?vid=c3e05eea-952a-4c3f-a2e1-df4cb71533f9","ios":"levelo://app?vid=c3e05eea-952a-4c3f-a2e1-df4cb71533f9"},"vehicle_type_id":"4","last_reported":1748383758,"current_range_meters":3600,"station_id":"ce4bh512rcd13ifvqe3g","pricing_plan_id":"cebpf4jnsgd1na2vs0mg"},{"bike_id":"548df7f7-5963-4f30-90f6-203939d9196f","system_id":"levelo_inurba_marseille","lat":43.26927,"lon":5.38914,"is_reserved":false,"is_disabled":false,"rental_uris":{"android":"levelo://app?vid=548df7f7-5963-4f30-90f6-203939d9196f","ios":"levelo://app?vid=548df7f7-5963-4f30-90f6-203939d9196f"},"vehicle_type_id":"4","last_reported":1748383758,"current_range_meters":4000,"station_id":"ce4bhhh2rcd13ifvqfl0","pricing_plan_id":"cebpf4jnsgd1na2vs0mg"},{"bike_id":"81073b57-ac04-480f-afb6-2528a984f711","system_id":"levelo_inurba_marseille","lat":43.28705,"lon":5.39992,"is_reserved":false,"is_disabled":false,"rental_uris":{"android":"levelo://app?vid=81073b57-ac04-480f-afb6-2528a984f711","ios":"levelo://app?vid=81073b57-ac04-480f-afb6-2528a984f711"},"vehicle_type_id":"4","last_reported":1748383758,"current_range_meters":4000,"station_id":"ce4bho92rcd13ifvqh3g","pricing_plan_id":"cebpf4jnsgd1na2vs0mg"},{"bike_id":"f1733994-596a-42d8-ba1f-289ddc36b89b","system_id":"levelo_inurba_marseille","lat":43.22505,"lon":5.34775,"is_reserved":false,"is_disabled":false,"rental_uris":{"android":"levelo://app?vid=f1733994-596a-42d8-ba1f-289ddc36b89b","ios":"levelo://app?vid=f1733994-596a-42d8-ba1f-289ddc36b89b"},"vehicle_type_id":"4","last_reported":1748383758,"current_range_meters":4400,"station_id":"","pricing_plan_id":"cebpf4jnsgd1na2vs0mg"},{"bike_id":"854610a0-faf2-4a8f-a589-0d6ce3f0edf0","system_id":"levelo_inurba_marseille","lat":43.288507,"lon":5.39313,"is_reserved":false,"is_disabled":false,"rental_uris":{"android":"levelo://app?vid=854610a0-faf2-4a8f-a589-0d6ce3f0edf0","ios":"levelo://app?vid=854610a0-faf2-4a8f-a589-0d6ce3f0edf0"},"vehicle_type_id":"4","last_reported":1748383758,"current_range_meters":4400,"station_id":"ce4bh2p2rcd13ifvqdi0","pricing_plan_id":"cebpf4jnsgd1na2vs0mg"},{"bike_id":"4b36678c-bba4-4c34-9c08-e03c8db196a6","system_id":"levelo_inurba_marseille","lat":43.287,"lon":5.37383,"is_reserved":false,"is_disabled":false,"rental_uris":{"android":"levelo://app?vid=4b36678c-bba4-4c34-9c08-e03c8db196a6","ios":"levelo://app?vid=4b36678c-bba4-4c34-9c08-e03c8db196a6"},"vehicle_type_id":"4","last_reported":1748383758,"current_range_meters":4400,"station_id":"ce4bh3p2rcd13ifvqdq0","pricing_plan_id":"cebpf4jnsgd1na2vs0mg"},{"bike_id":"301bf0f9-9b48-466e-a883-4d218136fa68","system_id":"levelo_inurba_marseille","lat":43.28715,"lon":5.37381,"is_reserved":false,"is_disabled":false,"rental_uris":{"android":"levelo://app?vid=301bf0f9-9b48-466e-a883-4d218136fa68","ios":"levelo://app?vid=301bf0f9-9b48-466e-a883-4d218136fa68"},"vehicle_type_id":"4","last_reported":1748383758,"current_range_meters":4400,"station_id":"ce4bh3p2rcd13ifvqdq0","pricing_plan_id":"cebpf4jnsgd1na2vs0mg"},{"bike_id":"911ddcc0-fd4b-441e-8818-2c48c0210aad","system_id":"levelo_inurba_marseille","lat":43.25087,"lon":5.39523,"is_reserved":false,"is_disabled":false,"rental_uris":{"android":"levelo://app?vid=911ddcc0-fd4b-441e-8818-2c48c0210aad","ios":"levelo://app?vid=911ddcc0-fd4b-441e-8818-2c48c0210aad"},"vehicle_type_id":"4","last_reported":1748383758,"current_range_meters":4400,"station_id":"ce4bhm12rcd13ifvqgkg","pricing_plan_id":"cebpf4jnsgd1na2vs0mg"},{"bike_id":"da65d91d-801e-4ed3-aae5-38bce5ff6ca6","system_id":"levelo_inurba_marseille","lat":43.31046,"lon":5.38334,"is_reserved":false,"is_disabled":false,"rental_uris":{"android":"levelo://app?vid=da65d91d-801e-4ed3-aae5-38bce5ff6ca6","ios":"levelo://app?vid=da65d91d-801e-4ed3-aae5-38bce5ff6ca6"},"vehicle_type_id":"4","last_reported":1748383758,"current_range_meters":4800,"station_id":"ce4bgv92rcd13ifvqcr0","pricing_plan_id":"cebpf4jnsgd1na2vs0mg"},{"bike_id":"cb869968-daa5-4599-a35b-0286d3394ef9","system_id":"levelo_inurba_marseille","lat":43.27377,"lon":5.36259,"is_reserved":false,"is_disabled":false,"rental_uris":{"android":"levelo://app?vid=cb869968-daa5-4599-a35b-0286d3394ef9","ios":"levelo://app?vid=cb869968-daa5-4599-a35b-0286d3394ef9"},"vehicle_type_id":"4","last_reported":1748383758,"current_range_meters":4800,"station_id":"ce4bhbh2rcd13ifvqeo0","pricing_plan_id":"cebpf4jnsgd1na2vs0mg"},{"bike_id":"2d393347-525f-40cd-8bc8-636e6636ef28","system_id":"levelo_inurba_marseille","lat":43.262314,"lon":5.404507,"is_reserved":false,"is_disabled":false,"rental_uris":{"android":"levelo://app?vid=2d393347-525f-40cd-8bc8-636e6636ef28","ios":"levelo://app?vid=2d393347-525f-40cd-8bc8-636e6636ef28"},"vehicle_type_id":"4","last_reported":1748383758,"current_range_meters":4800,"station_id":"ce4bhmh2rcd13ifvqgmg","pricing_plan_id":"cebpf4jnsgd1na2vs0mg"},{"bike_id":"2a704511-3241-4476-a1bb-aa5c4987909d","system_id":"levelo_inurba_marseille","lat":43.28566,"lon":5.39493,"is_reserved":false,"is_disabled":false,"rental_uris":{"android":"levelo://app?vid=2a704511-3241-4476-a1bb-aa5c4987909d","ios":"levelo://app?vid=2a704511-3241-4476-a1bb-aa5c4987909d"},"vehicle_type_id":"4","last_reported":1748383758,"current_range_meters":5600,"station_id":"ce4bh292rcd13ifvqdg0","pricing_plan_id":"cebpf4jnsgd1na2vs0mg"},{"bike_id":"83229224-589e-4c50-a778-c0c522497500","system_id":"levelo_inurba_marseille","lat":43.241747,"lon":5.397057,"is_reserved":false,"is_disabled":false,"rental_uris":{"android":"levelo://app?vid=83229224-589e-4c50-a778-c0c522497500","ios":"levelo://app?vid=83229224-589e-4c50-a778-c0c522497500"},"vehicle_type_id":"4","last_reported":1748383758,"current_range_meters":5600,"station_id":"ce4bhn12rcd13ifvqgpg","pricing_plan_id":"cebpf4jnsgd1na2vs0mg"},{"bike_id":"025226b6-a6c8-456c-acb5-2494f335f577","system_id":"levelo_inurba_marseille","lat":43.32655,"lon":5.40995,"is_reserved":false,"is_disabled":false,"rental_uris":{"android":"levelo://app?vid=025226b6-a6c8-456c-acb5-2494f335f577","ios":"levelo://app?vid=025226b6-a6c8-456c-acb5-2494f335f577"},"vehicle_type_id":"4","last_reported":1748383758,"current_range_meters":5600,"station_id":"ce4bhpp2rcd13ifvqhgg","pricing_plan_id":"cebpf4jnsgd1na2vs0mg"},{"bike_id":"2f50dc5b-dd1a-4fd7-b3a4-bca2ea8883de","system_id":"levelo_inurba_marseille","lat":43.31997,"lon":5.38164,"is_reserved":false,"is_disabled":false,"rental_uris":{"android":"levelo://app?vid=2f50dc5b-dd1a-4fd7-b3a4-bca2ea8883de","ios":"levelo://app?vid=2f50dc5b-dd1a-4fd7-b3a4-bca2ea8883de"},"vehicle_type_id":"4","last_reported":1748383758,"current_range_meters":5600,"station_id":"ce4bhr12rcd13ifvqhpg","pricing_plan_id":"cebpf4jnsgd1na2vs0mg"},{"bike_id":"6d43068a-112c-4af8-bd30-4aa1a6f9f125","system_id":"levelo_inurba_marseille","lat":43.28723,"lon":5.36105,"is_reserved":false,"is_disabled":false,"rental_uris":{"android":"levelo://app?vid=6d43068a-112c-4af8-bd30-4aa1a6f9f125","ios":"levelo://app?vid=6d43068a-112c-4af8-bd30-4aa1a6f9f125"},"vehicle_type_id":"4","last_reported":1748383758,"current_range_meters":5600,"station_id":"cki0cbj6b192h4jlfktg","pricing_plan_id":"cebpf4jnsgd1na2vs0mg"},{"bike_id":"8e1e3d14-39e1-40c6-a572-79984978bd7d","system_id":"levelo_inurba_marseille","lat":43.225,"lon":5.34778,"is_reserved":false,"is_disabled":false,"rental_uris":{"android":"levelo://app?vid=8e1e3d14-39e1-40c6-a572-79984978bd7d","ios":"levelo://app?vid=8e1e3d14-39e1-40c6-a572-79984978bd7d"},"vehicle_type_id":"4","last_reported":1748383758,"current_range_meters":6000,"station_id":"","pricing_plan_id":"cebpf4jnsgd1na2vs0mg"},{"bike_id":"ba73e725-4e8e-4a11-aef9-3e858720ec7f","system_id":"levelo_inurba_marseille","lat":43.29201,"lon":5.39323,"is_reserved":false,"is_disabled":false,"rental_uris":{"android":"levelo://app?vid=ba73e725-4e8e-4a11-aef9-3e858720ec7f","ios":"levelo://app?vid=ba73e725-4e8e-4a11-aef9-3e858720ec7f"},"vehicle_type_id":"4","last_reported":1748383758,"current_range_meters":6000,"station_id":"ce4bh192rcd13ifvqdd0","pricing_plan_id":"cebpf4jnsgd1na2vs0mg"},{"bike_id":"573e04d3-be67-423e-a3f7-a04af8dad0c4","system_id":"levelo_inurba_marseille","lat":43.29261,"lon":5.40126,"is_reserved":false,"is_disabled":false,"rental_uris":{"android":"levelo://app?vid=573e04d3-be67-423e-a3f7-a04af8dad0c4","ios":"levelo://app?vid=573e04d3-be67-423e-a3f7-a04af8dad0c4"},"vehicle_type_id":"4","last_reported":1748383758,"current_range_meters":6000,"station_id":"ce4bh312rcd13ifvqdk0","pricing_plan_id":"cebpf4jnsgd1na2vs0mg"},{"bike_id":"c2b0a191-bf31-4e89-8dc5-11d646e535b1","system_id":"levelo_inurba_marseille","lat":43.254969,"lon":5.37649,"is_reserved":false,"is_disabled":false,"rental_uris":{"android":"levelo://app?vid=c2b0a191-bf31-4e89-8dc5-11d646e535b1","ios":"levelo://app?vid=c2b0a191-bf31-4e89-8dc5-11d646e535b1"},"vehicle_type_id":"4","last_reported":1748383758,"current_range_meters":6400,"station_id":"","pricing_plan_id":"cebpf4jnsgd1na2vs0mg"},{"bike_id":"7cffe0f5-0c22-42fa-8a03-ff2d1a3770c2","system_id":"levelo_inurba_marseille","lat":43.301676,"lon":5.392942,"is_reserved":false,"is_disabled":false,"rental_uris":{"android":"levelo://app?vid=7cffe0f5-0c22-42fa-8a03-ff2d1a3770c2","ios":"levelo://app?vid=7cffe0f5-0c22-42fa-8a03-ff2d1a3770c2"},"vehicle_type_id":"4","last_reported":1748383758,"current_range_meters":6400,"station_id":"ce4bh3h2rcd13ifvqdo0","pricing_plan_id":"cebpf4jnsgd1na2vs0mg"},{"bike_id":"5e669dbf-b92e-4d90-8faa-89e2559b7f1b","system_id":"levelo_inurba_marseille","lat":43.27687,"lon":5.38894,"is_reserved":false,"is_disabled":false,"rental_uris":{"android":"levelo://app?vid=5e669dbf-b92e-4d90-8faa-89e2559b7f1b","ios":"levelo://app?vid=5e669dbf-b92e-4d90-8faa-89e2559b7f1b"},"vehicle_type_id":"4","last_reported":1748383758,"current_range_meters":6400,"station_id":"ce4bhi12rcd13ifvqfo0","pricing_plan_id":"cebpf4jnsgd1na2vs0mg"},{"bike_id":"c0e8dbd5-9ec0-46b4-9176-6ba6be298f0d","system_id":"levelo_inurba_marseille","lat":43.27072,"lon":5.42281,"is_reserved":false,"is_disabled":false,"rental_uris":{"android":"levelo://app?vid=c0e8dbd5-9ec0-46b4-9176-6ba6be298f0d","ios":"levelo://app?vid=c0e8dbd5-9ec0-46b4-9176-6ba6be298f0d"},"vehicle_type_id":"4","last_reported":1748383758,"current_range_meters":6400,"station_id":"ce4bhk92rcd13ifvqgb0","pricing_plan_id":"cebpf4jnsgd1na2vs0mg"},{"bike_id":"3ec21973-a1d7-4ca4-be49-3fc654fc1ac2","system_id":"levelo_inurba_marseille","lat":43.2681,"lon":5.40264,"is_reserved":false,"is_disabled":false,"rental_uris":{"android":"levelo://app?vid=3ec21973-a1d7-4ca4-be49-3fc654fc1ac2","ios":"levelo://app?vid=3ec21973-a1d7-4ca4-be49-3fc654fc1ac2"},"vehicle_type_id":"4","last_reported":1748383758,"current_range_meters":6400,"station_id":"ce501612rcd8frsf0b60","pricing_plan_id":"cebpf4jnsgd1na2vs0mg"},{"bike_id":"1a0998e5-8bb9-474f-a827-53cad24c9e8f","system_id":"levelo_inurba_marseille","lat":43.32028,"lon":5.44943,"is_reserved":false,"is_disabled":false,"rental_uris":{"android":"levelo://app?vid=1a0998e5-8bb9-474f-a827-53cad24c9e8f","ios":"levelo://app?vid=1a0998e5-8bb9-474f-a827-53cad24c9e8f"},"vehicle_type_id":"4","last_reported":1748383758,"current_range_meters":6800,"station_id":"","pricing_plan_id":"cebpf4jnsgd1na2vs0mg"},{"bike_id":"73f138f2-14d8-4ce4-aa98-7c07ec00d12a","system_id":"levelo_inurba_marseille","lat":43.28348,"lon":5.38095,"is_reserved":false,"is_disabled":false,"rental_uris":{"android":"levelo://app?vid=73f138f2-14d8-4ce4-aa98-7c07ec00d12a","ios":"levelo://app?vid=73f138f2-14d8-4ce4-aa98-7c07ec00d12a"},"vehicle_type_id":"4","last_reported":1748383758,"current_range_meters":6800,"station_id":"ce4bh412rcd13ifvqdr0","pricing_plan_id":"cebpf4jnsgd1na2vs0mg"},{"bike_id":"2621921b-742a-4cef-8fb9-86afebf4ef48","system_id":"levelo_inurba_marseille","lat":43.26826,"lon":5.40261,"is_reserved":false,"is_disabled":false,"rental_uris":{"android":"levelo://app?vid=2621921b-742a-4cef-8fb9-86afebf4ef48","ios":"levelo://app?vid=2621921b-742a-4cef-8fb9-86afebf4ef48"},"vehicle_type_id":"4","last_reported":1748383758,"current_range_meters":6800,"station_id":"ce501612rcd8frsf0b60","pricing_plan_id":"cebpf4jnsgd1na2vs0mg"},{"bike_id":"ae6e6868-2635-4f49-b7c1-b03759c58ec7","system_id":"levelo_inurba_marseille","lat":43.27303,"lon":5.4161,"is_reserved":false,"is_disabled":false,"rental_uris":{"android":"levelo://app?vid=ae6e6868-2635-4f49-b7c1-b03759c58ec7","ios":"levelo://app?vid=ae6e6868-2635-4f49-b7c1-b03759c58ec7"},"vehicle_type_id":"4","last_reported":1748383758,"current_range_meters":7200,"station_id":"","pricing_plan_id":"cebpf4jnsgd1na2vs0mg"},{"bike_id":"e9822bf6-601d-4e3b-a97c-5d51f2fe51a3","system_id":"levelo_inurba_marseille","lat":43.26368,"lon":5.3782,"is_reserved":false,"is_disabled":false,"rental_uris":{"android":"levelo://app?vid=e9822bf6-601d-4e3b-a97c-5d51f2fe51a3","ios":"levelo://app?vid=e9822bf6-601d-4e3b-a97c-5d51f2fe51a3"},"vehicle_type_id":"4","last_reported":1748383758,"current_range_meters":7200,"station_id":"","pricing_plan_id":"cebpf4jnsgd1na2vs0mg"},{"bike_id":"a7bcb1f1-7682-4d43-a695-1c800fa5f5e8","system_id":"levelo_inurba_marseille","lat":43.28709,"lon":5.37467,"is_reserved":false,"is_disabled":false,"rental_uris":{"android":"levelo://app?vid=a7bcb1f1-7682-4d43-a695-1c800fa5f5e8","ios":"levelo://app?vid=a7bcb1f1-7682-4d43-a695-1c800fa5f5e8"},"vehicle_type_id":"4","last_reported":1748383758,"current_range_meters":7200,"station_id":"","pricing_plan_id":"cebpf4jnsgd1na2vs0mg"},{"bike_id":"2badb821-2859-4b8d-9b1a-9dfbe62ae729","system_id":"levelo_inurba_marseille","lat":43.30321,"lon":5.40429,"is_reserved":false,"is_disabled":false,"rental_uris":{"android":"levelo://app?vid=2badb821-2859-4b8d-9b1a-9dfbe62ae729","ios":"levelo://app?vid=2badb821-2859-4b8d-9b1a-9dfbe62ae729"},"vehicle_type_id":"4","last_reported":1748383758,"current_range_meters":7200,"station_id":"ce4bh012rcd13ifvqd10","pricing_plan_id":"cebpf4jnsgd1na2vs0mg"},{"bike_id":"143c2ab4-f42c-444a-976a-2bc9c3850a17","system_id":"levelo_inurba_marseille","lat":43.30198,"lon":5.39451,"is_reserved":false,"is_disabled":false,"rental_uris":{"android":"levelo://app?vid=143c2ab4-f42c-444a-976a-2bc9c3850a17","ios":"levelo://app?vid=143c2ab4-f42c-444a-976a-2bc9c3850a17"},"vehicle_type_id":"4","last_reported":1748383758,"current_range_meters":7200,"station_id":"ce4bh0p2rcd13ifvqd70","pricing_plan_id":"cebpf4jnsgd1na2vs0mg"},{"bike_id":"41f3a81a-1f9a-499b-95e6-feb508389a33","system_id":"levelo_inurba_marseille","lat":43.30597,"lon":5.39353,"is_reserved":false,"is_disabled":false,"rental_uris":{"android":"levelo://app?vid=41f3a81a-1f9a-499b-95e6-feb508389a33","ios":"levelo://app?vid=41f3a81a-1f9a-499b-95e6-feb508389a33"},"vehicle_type_id":"4","last_reported":1748383758,"current_range_meters":7200,"station_id":"ce4bh0p2rcd13ifvqd80","pricing_plan_id":"cebpf4jnsgd1na2vs0mg"},{"bike_id":"114dc401-a27e-46d4-a93c-42feda223b25","system_id":"levelo_inurba_marseille","lat":43.25695,"lon":5.41112,"is_reserved":false,"is_disabled":false,"rental_uris":{"android":"levelo://app?vid=114dc401-a27e-46d4-a93c-42feda223b25","ios":"levelo://app?vid=114dc401-a27e-46d4-a93c-42feda223b25"},"vehicle_type_id":"4","last_reported":1748383758,"current_range_meters":7200,"station_id":"ce4bhkp2rcd13ifvqgd0","pricing_plan_id":"cebpf4jnsgd1na2vs0mg"},{"bike_id":"8ac2acc6-b767-4c1c-bcde-982458034c88","system_id":"levelo_inurba_marseille","lat":43.311973,"lon":5.416117,"is_reserved":false,"is_disabled":false,"rental_uris":{"android":"levelo://app?vid=8ac2acc6-b767-4c1c-bcde-982458034c88","ios":"levelo://app?vid=8ac2acc6-b767-4c1c-bcde-982458034c88"},"vehicle_type_id":"4","last_reported":1748383758,"current_range_meters":8000,"station_id":"","pricing_plan_id":"cebpf4jnsgd1na2vs0mg"},{"bike_id":"5b70a372-26b5-4d90-9fd8-7ab5a3240b72","system_id":"levelo_inurba_marseille","lat":43.31222,"lon":5.36859,"is_reserved":false,"is_disabled":false,"rental_uris":{"android":"levelo://app?vid=5b70a372-26b5-4d90-9fd8-7ab5a3240b72","ios":"levelo://app?vid=5b70a372-26b5-4d90-9fd8-7ab5a3240b72"},"vehicle_type_id":"4","last_reported":1748383758,"current_range_meters":8000,"station_id":"ce4bgl92rcd13ifvqbq0","pricing_plan_id":"cebpf4jnsgd1na2vs0mg"},{"bike_id":"9946121a-e441-4db9-b342-d50b7a06f604","system_id":"levelo_inurba_marseille","lat":43.31699,"lon":5.37734,"is_reserved":false,"is_disabled":false,"rental_uris":{"android":"levelo://app?vid=9946121a-e441-4db9-b342-d50b7a06f604","ios":"levelo://app?vid=9946121a-e441-4db9-b342-d50b7a06f604"},"vehicle_type_id":"4","last_reported":1748383758,"current_range_meters":8000,"station_id":"ce4bgth2rcd13ifvqch0","pricing_plan_id":"cebpf4jnsgd1na2vs0mg"},{"bike_id":"ff8f28bc-f6fd-4682-9705-5ce355ece96b","system_id":"levelo_inurba_marseille","lat":43.30245,"lon":5.40047,"is_reserved":false,"is_disabled":false,"rental_uris":{"android":"levelo://app?vid=ff8f28bc-f6fd-4682-9705-5ce355ece96b","ios":"levelo://app?vid=ff8f28bc-f6fd-4682-9705-5ce355ece96b"},"vehicle_type_id":"4","last_reported":1748383758,"current_range_meters":8000,"station_id":"ce4bgvh2rcd13ifvqcs0","pricing_plan_id":"cebpf4jnsgd1na2vs0mg"},{"bike_id":"a382f3df-edfa-456b-8f81-d62e49146343","system_id":"levelo_inurba_marseille","lat":43.30883,"lon":5.39669,"is_reserved":false,"is_disabled":false,"rental_uris":{"android":"levelo://app?vid=a382f3df-edfa-456b-8f81-d62e49146343","ios":"levelo://app?vid=a382f3df-edfa-456b-8f81-d62e49146343"},"vehicle_type_id":"4","last_reported":1748383758,"current_range_meters":8000,"station_id":"ce4bh012rcd13ifvqcv0","pricing_plan_id":"cebpf4jnsgd1na2vs0mg"},{"bike_id":"ceb81090-b40e-47dd-bc35-8598d269ef58","system_id":"levelo_inurba_marseille","lat":43.26658,"lon":5.38427,"is_reserved":false,"is_disabled":false,"rental_uris":{"android":"levelo://app?vid=ceb81090-b40e-47dd-bc35-8598d269ef58","ios":"levelo://app?vid=ceb81090-b40e-47dd-bc35-8598d269ef58"},"vehicle_type_id":"4","last_reported":1748383758,"current_range_meters":8400,"station_id":"","pricing_plan_id":"cebpf4jnsgd1na2vs0mg"},{"bike_id":"4366209f-542f-4ffd-8ff1-3fdbaaffc9ae","system_id":"levelo_inurba_marseille","lat":43.31079,"lon":5.38366,"is_reserved":false,"is_disabled":false,"rental_uris":{"android":"levelo://app?vid=4366209f-542f-4ffd-8ff1-3fdbaaffc9ae","ios":"levelo://app?vid=4366209f-542f-4ffd-8ff1-3fdbaaffc9ae"},"vehicle_type_id":"4","last_reported":1748383758,"current_range_meters":8400,"station_id":"ce4bgv92rcd13ifvqcr0","pricing_plan_id":"cebpf4jnsgd1na2vs0mg"},{"bike_id":"0939f9f4-b3c0-41c9-84e2-932897626536","system_id":"levelo_inurba_marseille","lat":43.301358,"lon":5.387761,"is_reserved":false,"is_disabled":false,"rental_uris":{"android":"levelo://app?vid=0939f9f4-b3c0-41c9-84e2-932897626536","ios":"levelo://app?vid=0939f9f4-b3c0-41c9-84e2-932897626536"},"vehicle_type_id":"4","last_reported":1748383758,"current_range_meters":8400,"station_id":"ce4bha92rcd13ifvqeg0","pricing_plan_id":"cebpf4jnsgd1na2vs0mg"},{"bike_id":"dc4bc07c-b76e-4ef7-ae63-610566bce330","system_id":"levelo_inurba_marseille","lat":43.27436,"lon":5.39413,"is_reserved":false,"is_disabled":false,"rental_uris":{"android":"levelo://app?vid=dc4bc07c-b76e-4ef7-ae63-610566bce330","ios":"levelo://app?vid=dc4bc07c-b76e-4ef7-ae63-610566bce330"},"vehicle_type_id":"4","last_reported":1748383758,"current_range_meters":8400,"station_id":"ce4bhdp2rcd13ifvqf20","pricing_plan_id":"cebpf4jnsgd1na2vs0mg"},{"bike_id":"db71ab02-81ac-4a4d-a8af-cf7a1ec445b3","system_id":"levelo_inurba_marseille","lat":43.25007,"lon":5.38956,"is_reserved":false,"is_disabled":false,"rental_uris":{"android":"levelo://app?vid=db71ab02-81ac-4a4d-a8af-cf7a1ec445b3","ios":"levelo://app?vid=db71ab02-81ac-4a4d-a8af-cf7a1ec445b3"},"vehicle_type_id":"4","last_reported":1748383758,"current_range_meters":8400,"station_id":"ce4bhgp2rcd13ifvqfd0","pricing_plan_id":"cebpf4jnsgd1na2vs0mg"},{"bike_id":"ecec0dbe-0ccb-470d-bc6b-7e71f374730a","system_id":"levelo_inurba_marseille","lat":43.23955,"lon":5.36629,"is_reserved":false,"is_disabled":false,"rental_uris":{"android":"levelo://app?vid=ecec0dbe-0ccb-470d-bc6b-7e71f374730a","ios":"levelo://app?vid=ecec0dbe-0ccb-470d-bc6b-7e71f374730a"},"vehicle_type_id":"4","last_reported":1748383758,"current_range_meters":8400,"station_id":"ce4bhi12rcd13ifvqfp0","pricing_plan_id":"cebpf4jnsgd1na2vs0mg"},{"bike_id":"ede9773a-3bb5-49a2-af67-a49560b3e7e3","system_id":"levelo_inurba_marseille","lat":43.30645,"lon":5.4008,"is_reserved":false,"is_disabled":false,"rental_uris":{"android":"levelo://app?vid=ede9773a-3bb5-49a2-af67-a49560b3e7e3","ios":"levelo://app?vid=ede9773a-3bb5-49a2-af67-a49560b3e7e3"},"vehicle_type_id":"4","last_reported":1748383758,"current_range_meters":8800,"station_id":"ce4bh112rcd13ifvqda0","pricing_plan_id":"cebpf4jnsgd1na2vs0mg"},{"bike_id":"de2087ec-e349-4226-8787-4bb02417113b","system_id":"levelo_inurba_marseille","lat":43.29511,"lon":5.39383,"is_reserved":false,"is_disabled":false,"rental_uris":{"android":"levelo://app?vid=de2087ec-e349-4226-8787-4bb02417113b","ios":"levelo://app?vid=de2087ec-e349-4226-8787-4bb02417113b"},"vehicle_type_id":"4","last_reported":1748383758,"current_range_meters":8800,"station_id":"ce4bh292rcd13ifvqdf0","pricing_plan_id":"cebpf4jnsgd1na2vs0mg"},{"bike_id":"31b5b198-fa02-44b7-b6f9-32e39fcd8d3d","system_id":"levelo_inurba_marseille","lat":43.28851,"lon":5.39311,"is_reserved":false,"is_disabled":false,"rental_uris":{"android":"levelo://app?vid=31b5b198-fa02-44b7-b6f9-32e39fcd8d3d","ios":"levelo://app?vid=31b5b198-fa02-44b7-b6f9-32e39fcd8d3d"},"vehicle_type_id":"4","last_reported":1748383758,"current_range_meters":8800,"station_id":"ce4bh2p2rcd13ifvqdi0","pricing_plan_id":"cebpf4jnsgd1na2vs0mg"},{"bike_id":"0bf5d1c6-1433-425f-b1d7-4180aad61682","system_id":"levelo_inurba_marseille","lat":43.29021,"lon":5.38648,"is_reserved":false,"is_disabled":false,"rental_uris":{"android":"levelo://app?vid=0bf5d1c6-1433-425f-b1d7-4180aad61682","ios":"levelo://app?vid=0bf5d1c6-1433-425f-b1d7-4180aad61682"},"vehicle_type_id":"4","last_reported":1748383758,"current_range_meters":8800,"station_id":"ce4bh4p2rcd13ifvqe0g","pricing_plan_id":"cebpf4jnsgd1na2vs0mg"},{"bike_id":"8a8da44b-f0bc-49bf-a97a-1dee19c6a572","system_id":"levelo_inurba_marseille","lat":43.23201,"lon":5.35545,"is_reserved":false,"is_disabled":false,"rental_uris":{"android":"levelo://app?vid=8a8da44b-f0bc-49bf-a97a-1dee19c6a572","ios":"levelo://app?vid=8a8da44b-f0bc-49bf-a97a-1dee19c6a572"},"vehicle_type_id":"4","last_reported":1748383758,"current_range_meters":8800,"station_id":"ce4bhu92rcd13ifvqi70","pricing_plan_id":"cebpf4jnsgd1na2vs0mg"},{"bike_id":"f4dd589b-5b58-470a-a2c9-9de3a4398e71","system_id":"levelo_inurba_marseille","lat":43.22937,"lon":5.35366,"is_reserved":false,"is_disabled":false,"rental_uris":{"android":"levelo://app?vid=f4dd589b-5b58-470a-a2c9-9de3a4398e71","ios":"levelo://app?vid=f4dd589b-5b58-470a-a2c9-9de3a4398e71"},"vehicle_type_id":"4","last_reported":1748383758,"current_range_meters":8800,"station_id":"cpo3532slgdg3j2ikp40","pricing_plan_id":"cebpf4jnsgd1na2vs0mg"},{"bike_id":"e6c65de3-7d92-4979-809c-6677188473c0","system_id":"levelo_inurba_marseille","lat":43.337598,"lon":5.374632,"is_reserved":false,"is_disabled":false,"rental_uris":{"android":"levelo://app?vid=e6c65de3-7d92-4979-809c-6677188473c0","ios":"levelo://app?vid=e6c65de3-7d92-4979-809c-6677188473c0"},"vehicle_type_id":"4","last_reported":1748383758,"current_range_meters":9200,"station_id":"","pricing_plan_id":"cebpf4jnsgd1na2vs0mg"},{"bike_id":"6ef27e84-462a-46f9-afe5-e09b209cc7f0","system_id":"levelo_inurba_marseille","lat":43.33113,"lon":5.36204,"is_reserved":false,"is_disabled":false,"rental_uris":{"android":"levelo://app?vid=6ef27e84-462a-46f9-afe5-e09b209cc7f0","ios":"levelo://app?vid=6ef27e84-462a-46f9-afe5-e09b209cc7f0"},"vehicle_type_id":"4","last_reported":1748383758,"current_range_meters":9200,"station_id":"","pricing_plan_id":"cebpf4jnsgd1na2vs0mg"},{"bike_id":"c6b7237c-c6df-4172-9948-735378227c7e","system_id":"levelo_inurba_marseille","lat":43.30147,"lon":5.38807,"is_reserved":false,"is_disabled":false,"rental_uris":{"android":"levelo://app?vid=c6b7237c-c6df-4172-9948-735378227c7e","ios":"levelo://app?vid=c6b7237c-c6df-4172-9948-735378227c7e"},"vehicle_type_id":"4","last_reported":1748383758,"current_range_meters":9200,"station_id":"ce4bghh2rcd13ifvqb60","pricing_plan_id":"cebpf4jnsgd1na2vs0mg"},{"bike_id":"90350e55-53fb-48d9-8c9a-452ed59f6370","system_id":"levelo_inurba_marseille","lat":43.29708,"lon":5.36615,"is_reserved":false,"is_disabled":false,"rental_uris":{"android":"levelo://app?vid=90350e55-53fb-48d9-8c9a-452ed59f6370","ios":"levelo://app?vid=90350e55-53fb-48d9-8c9a-452ed59f6370"},"vehicle_type_id":"4","last_reported":1748383758,"current_range_meters":9200,"station_id":"ce4bgn12rcd13ifvqbt0","pricing_plan_id":"cebpf4jnsgd1na2vs0mg"},{"bike_id":"67a12058-dbf0-4d84-95eb-f96b02b4ae98","system_id":"levelo_inurba_marseille","lat":43.29257,"lon":5.40915,"is_reserved":false,"is_disabled":false,"rental_uris":{"android":"levelo://app?vid=67a12058-dbf0-4d84-95eb-f96b02b4ae98","ios":"levelo://app?vid=67a12058-dbf0-4d84-95eb-f96b02b4ae98"},"vehicle_type_id":"4","last_reported":1748383758,"current_range_meters":9200,"station_id":"ce4bh192rcd13ifvqdc0","pricing_plan_id":"cebpf4jnsgd1na2vs0mg"},{"bike_id":"ddb91082-4722-4770-bd2c-0e7cd7a0719c","system_id":"levelo_inurba_marseille","lat":43.28413,"lon":5.37522,"is_reserved":false,"is_disabled":false,"rental_uris":{"android":"levelo://app?vid=ddb91082-4722-4770-bd2c-0e7cd7a0719c","ios":"levelo://app?vid=ddb91082-4722-4770-bd2c-0e7cd7a0719c"},"vehicle_type_id":"4","last_reported":1748383758,"current_range_meters":9200,"station_id":"ce4bh412rcd13ifvqds0","pricing_plan_id":"cebpf4jnsgd1na2vs0mg"},{"bike_id":"1c4d626c-93ab-41b9-815e-96048904b577","system_id":"levelo_inurba_marseille","lat":43.24063,"lon":5.3776,"is_reserved":false,"is_disabled":false,"rental_uris":{"android":"levelo://app?vid=1c4d626c-93ab-41b9-815e-96048904b577","ios":"levelo://app?vid=1c4d626c-93ab-41b9-815e-96048904b577"},"vehicle_type_id":"4","last_reported":1748383758,"current_range_meters":9200,"station_id":"ce4bhnp2rcd13ifvqgvg","pricing_plan_id":"cebpf4jnsgd1na2vs0mg"},{"bike_id":"630e3090-df9f-4e61-a2d8-b2bbefd032a0","system_id":"levelo_inurba_marseille","lat":43.24614,"lon":5.39273,"is_reserved":false,"is_disabled":false,"rental_uris":{"android":"levelo://app?vid=630e3090-df9f-4e61-a2d8-b2bbefd032a0","ios":"levelo://app?vid=630e3090-df9f-4e61-a2d8-b2bbefd032a0"},"vehicle_type_id":"4","last_reported":1748383758,"current_range_meters":9600,"station_id":"","pricing_plan_id":"cebpf4jnsgd1na2vs0mg"},{"bike_id":"2a046dee-b3af-48c9-9659-b7d30ba20af5","system_id":"levelo_inurba_marseille","lat":43.24333,"lon":5.37994,"is_reserved":false,"is_disabled":false,"rental_uris":{"android":"levelo://app?vid=2a046dee-b3af-48c9-9659-b7d30ba20af5","ios":"levelo://app?vid=2a046dee-b3af-48c9-9659-b7d30ba20af5"},"vehicle_type_id":"4","last_reported":1748383758,"current_range_meters":9600,"station_id":"","pricing_plan_id":"cebpf4jnsgd1na2vs0mg"},{"bike_id":"c437d2cf-2db2-401d-99d8-68cfd28314bb","system_id":"levelo_inurba_marseille","lat":43.29548,"lon":5.37839,"is_reserved":false,"is_disabled":false,"rental_uris":{"android":"levelo://app?vid=c437d2cf-2db2-401d-99d8-68cfd28314bb","ios":"levelo://app?vid=c437d2cf-2db2-401d-99d8-68cfd28314bb"},"vehicle_type_id":"4","last_reported":1748383758,"current_range_meters":9600,"station_id":"","pricing_plan_id":"cebpf4jnsgd1na2vs0mg"},{"bike_id":"f0d83b53-4594-4033-afb0-0d9b1a402851","system_id":"levelo_inurba_marseille","lat":43.31118,"lon":5.37773,"is_reserved":false,"is_disabled":false,"rental_uris":{"android":"levelo://app?vid=f0d83b53-4594-4033-afb0-0d9b1a402851","ios":"levelo://app?vid=f0d83b53-4594-4033-afb0-0d9b1a402851"},"vehicle_type_id":"4","last_reported":1748383758,"current_range_meters":9600,"station_id":"ce4bgt92rcd13ifvqcg0","pricing_plan_id":"cebpf4jnsgd1na2vs0mg"},{"bike_id":"5c29a350-f368-474d-9c37-db39342a3756","system_id":"levelo_inurba_marseille","lat":43.31692,"lon":5.3776,"is_reserved":false,"is_disabled":false,"rental_uris":{"android":"levelo://app?vid=5c29a350-f368-474d-9c37-db39342a3756","ios":"levelo://app?vid=5c29a350-f368-474d-9c37-db39342a3756"},"vehicle_type_id":"4","last_reported":1748383758,"current_range_meters":9600,"station_id":"ce4bgth2rcd13ifvqch0","pricing_plan_id":"cebpf4jnsgd1na2vs0mg"},{"bike_id":"7fbb37bd-adf7-43d6-8420-a5729ec099e7","system_id":"levelo_inurba_marseille","lat":43.29245,"lon":5.40902,"is_reserved":false,"is_disabled":false,"rental_uris":{"android":"levelo://app?vid=7fbb37bd-adf7-43d6-8420-a5729ec099e7","ios":"levelo://app?vid=7fbb37bd-adf7-43d6-8420-a5729ec099e7"},"vehicle_type_id":"4","last_reported":1748383758,"current_range_meters":9600,"station_id":"ce4bh192rcd13ifvqdc0","pricing_plan_id":"cebpf4jnsgd1na2vs0mg"},{"bike_id":"3b48f1e0-3da9-4e1b-b775-3cb1ad325b81","system_id":"levelo_inurba_marseille","lat":43.28729,"lon":5.36094,"is_reserved":false,"is_disabled":false,"rental_uris":{"android":"levelo://app?vid=3b48f1e0-3da9-4e1b-b775-3cb1ad325b81","ios":"levelo://app?vid=3b48f1e0-3da9-4e1b-b775-3cb1ad325b81"},"vehicle_type_id":"4","last_reported":1748383758,"current_range_meters":9600,"station_id":"cki0cbj6b192h4jlfktg","pricing_plan_id":"cebpf4jnsgd1na2vs0mg"},{"bike_id":"f4a9b39a-050a-4eeb-995e-1a67df9b66fc","system_id":"levelo_inurba_marseille","lat":43.29709,"lon":5.36623,"is_reserved":false,"is_disabled":false,"rental_uris":{"android":"levelo://app?vid=f4a9b39a-050a-4eeb-995e-1a67df9b66fc","ios":"levelo://app?vid=f4a9b39a-050a-4eeb-995e-1a67df9b66fc"},"vehicle_type_id":"4","last_reported":1748383758,"current_range_meters":10000,"station_id":"ce4bgn12rcd13ifvqbt0","pricing_plan_id":"cebpf4jnsgd1na2vs0mg"},{"bike_id":"765507f4-4472-41a3-99a1-e5ed81e33e54","system_id":"levelo_inurba_marseille","lat":43.28423,"lon":5.3751,"is_reserved":false,"is_disabled":false,"rental_uris":{"android":"levelo://app?vid=765507f4-4472-41a3-99a1-e5ed81e33e54","ios":"levelo://app?vid=765507f4-4472-41a3-99a1-e5ed81e33e54"},"vehicle_type_id":"4","last_reported":1748383758,"current_range_meters":10000,"station_id":"ce4bh412rcd13ifvqds0","pricing_plan_id":"cebpf4jnsgd1na2vs0mg"},{"bike_id":"a3a1e2f8-c082-4657-9cf8-ceb282e14a71","system_id":"levelo_inurba_marseille","lat":43.23192,"lon":5.39987,"is_reserved":false,"is_disabled":false,"rental_uris":{"android":"levelo://app?vid=a3a1e2f8-c082-4657-9cf8-ceb282e14a71","ios":"levelo://app?vid=a3a1e2f8-c082-4657-9cf8-ceb282e14a71"},"vehicle_type_id":"4","last_reported":1748383758,"current_range_meters":10000,"station_id":"ce4bhn12rcd13ifvqgqg","pricing_plan_id":"cebpf4jnsgd1na2vs0mg"},{"bike_id":"1a6da69f-1ddb-4eb0-99d5-b8d7dbfa3b64","system_id":"levelo_inurba_marseille","lat":43.28077,"lon":5.39643,"is_reserved":false,"is_disabled":false,"rental_uris":{"android":"levelo://app?vid=1a6da69f-1ddb-4eb0-99d5-b8d7dbfa3b64","ios":"levelo://app?vid=1a6da69f-1ddb-4eb0-99d5-b8d7dbfa3b64"},"vehicle_type_id":"4","last_reported":1748383758,"current_range_meters":10000,"station_id":"ce4bho12rcd13ifvqh2g","pricing_plan_id":"cebpf4jnsgd1na2vs0mg"},{"bike_id":"92c20333-f1be-4048-8f1a-30fdeff2a990","system_id":"levelo_inurba_marseille","lat":43.330213,"lon":5.390322,"is_reserved":false,"is_disabled":false,"rental_uris":{"android":"levelo://app?vid=92c20333-f1be-4048-8f1a-30fdeff2a990","ios":"levelo://app?vid=92c20333-f1be-4048-8f1a-30fdeff2a990"},"vehicle_type_id":"4","last_reported":1748383758,"current_range_meters":10000,"station_id":"ce4bhr92rcd13ifvqhrg","pricing_plan_id":"cebpf4jnsgd1na2vs0mg"},{"bike_id":"07c1d756-250e-4873-9f42-8d55b1c807a3","system_id":"levelo_inurba_marseille","lat":43.29255,"lon":5.37614,"is_reserved":false,"is_disabled":false,"rental_uris":{"android":"levelo://app?vid=07c1d756-250e-4873-9f42-8d55b1c807a3","ios":"levelo://app?vid=07c1d756-250e-4873-9f42-8d55b1c807a3"},"vehicle_type_id":"4","last_reported":1748383758,"current_range_meters":10800,"station_id":"ce4bgi12rcd13ifvqb80","pricing_plan_id":"cebpf4jnsgd1na2vs0mg"},{"bike_id":"27b98b60-9b65-40d7-b266-79d4a12fa059","system_id":"levelo_inurba_marseille","lat":43.306,"lon":5.37228,"is_reserved":false,"is_disabled":false,"rental_uris":{"android":"levelo://app?vid=27b98b60-9b65-40d7-b266-79d4a12fa059","ios":"levelo://app?vid=27b98b60-9b65-40d7-b266-79d4a12fa059"},"vehicle_type_id":"4","last_reported":1748383758,"current_range_meters":10800,"station_id":"ce4bgqh2rcd13ifvqc4g","pricing_plan_id":"cebpf4jnsgd1na2vs0mg"},{"bike_id":"b22310cf-e533-4fa9-8f4f-61171f82f011","system_id":"levelo_inurba_marseille","lat":43.3043,"lon":5.39741,"is_reserved":false,"is_disabled":false,"rental_uris":{"android":"levelo://app?vid=b22310cf-e533-4fa9-8f4f-61171f82f011","ios":"levelo://app?vid=b22310cf-e533-4fa9-8f4f-61171f82f011"},"vehicle_type_id":"4","last_reported":1748383758,"current_range_meters":10800,"station_id":"ce4bh092rcd13ifvqd20","pricing_plan_id":"cebpf4jnsgd1na2vs0mg"},{"bike_id":"7aada5ca-e1c3-4b6b-b301-a25ef474274f","system_id":"levelo_inurba_marseille","lat":43.23957,"lon":5.36637,"is_reserved":false,"is_disabled":false,"rental_uris":{"android":"levelo://app?vid=7aada5ca-e1c3-4b6b-b301-a25ef474274f","ios":"levelo://app?vid=7aada5ca-e1c3-4b6b-b301-a25ef474274f"},"vehicle_type_id":"4","last_reported":1748383758,"current_range_meters":10800,"station_id":"ce4bhi12rcd13ifvqfp0","pricing_plan_id":"cebpf4jnsgd1na2vs0mg"},{"bike_id":"24cfad0d-71d0-43ea-8447-3b796d58b84b","system_id":"levelo_inurba_marseille","lat":43.27048,"lon":5.40262,"is_reserved":false,"is_disabled":false,"rental_uris":{"android":"levelo://app?vid=24cfad0d-71d0-43ea-8447-3b796d58b84b","ios":"levelo://app?vid=24cfad0d-71d0-43ea-8447-3b796d58b84b"},"vehicle_type_id":"4","last_reported":1748383758,"current_range_meters":10800,"station_id":"ce4bhk92rcd13ifvqgc0","pricing_plan_id":"cebpf4jnsgd1na2vs0mg"},{"bike_id":"c0b9a566-efe3-4d0b-9acc-6ef247057511","system_id":"levelo_inurba_marseille","lat":43.32371,"lon":5.38892,"is_reserved":false,"is_disabled":false,"rental_uris":{"android":"levelo://app?vid=c0b9a566-efe3-4d0b-9acc-6ef247057511","ios":"levelo://app?vid=c0b9a566-efe3-4d0b-9acc-6ef247057511"},"vehicle_type_id":"4","last_reported":1748383758,"current_range_meters":10800,"station_id":"ce4bhqp2rcd13ifvqhog","pricing_plan_id":"cebpf4jnsgd1na2vs0mg"},{"bike_id":"58c565ec-4152-4033-9b18-66babf3bc18f","system_id":"levelo_inurba_marseille","lat":43.30608,"lon":5.37201,"is_reserved":false,"is_disabled":false,"rental_uris":{"android":"levelo://app?vid=58c565ec-4152-4033-9b18-66babf3bc18f","ios":"levelo://app?vid=58c565ec-4152-4033-9b18-66babf3bc18f"},"vehicle_type_id":"4","last_reported":1748383758,"current_range_meters":11200,"station_id":"ce4bgqh2rcd13ifvqc4g","pricing_plan_id":"cebpf4jnsgd1na2vs0mg"},{"bike_id":"0750c5bc-16dd-493b-9a98-03792500952e","system_id":"levelo_inurba_marseille","lat":43.31074,"lon":5.38343,"is_reserved":false,"is_disabled":false,"rental_uris":{"android":"levelo://app?vid=0750c5bc-16dd-493b-9a98-03792500952e","ios":"levelo://app?vid=0750c5bc-16dd-493b-9a98-03792500952e"},"vehicle_type_id":"4","last_reported":1748383758,"current_range_meters":11200,"station_id":"ce4bgv92rcd13ifvqcr0","pricing_plan_id":"cebpf4jnsgd1na2vs0mg"},{"bike_id":"19287673-ae6f-4fed-9bb4-55bd5f4b7a00","system_id":"levelo_inurba_marseille","lat":43.31221,"lon":5.36859,"is_reserved":false,"is_disabled":false,"rental_uris":{"android":"levelo://app?vid=19287673-ae6f-4fed-9bb4-55bd5f4b7a00","ios":"levelo://app?vid=19287673-ae6f-4fed-9bb4-55bd5f4b7a00"},"vehicle_type_id":"4","last_reported":1748383758,"current_range_meters":11600,"station_id":"ce4bgl92rcd13ifvqbq0","pricing_plan_id":"cebpf4jnsgd1na2vs0mg"},{"bike_id":"4f400036-3840-49c8-9932-b6aa5ab45ce0","system_id":"levelo_inurba_marseille","lat":43.30927,"lon":5.40141,"is_reserved":false,"is_disabled":false,"rental_uris":{"android":"levelo://app?vid=4f400036-3840-49c8-9932-b6aa5ab45ce0","ios":"levelo://app?vid=4f400036-3840-49c8-9932-b6aa5ab45ce0"},"vehicle_type_id":"4","last_reported":1748383758,"current_range_meters":11600,"station_id":"ce4bgvp2rcd13ifvqct0","pricing_plan_id":"cebpf4jnsgd1na2vs0mg"},{"bike_id":"62d5eecd-5381-4b1b-9da6-026e19fa07d0","system_id":"levelo_inurba_marseille","lat":43.29801,"lon":5.40399,"is_reserved":false,"is_disabled":false,"rental_uris":{"android":"levelo://app?vid=62d5eecd-5381-4b1b-9da6-026e19fa07d0","ios":"levelo://app?vid=62d5eecd-5381-4b1b-9da6-026e19fa07d0"},"vehicle_type_id":"4","last_reported":1748383758,"current_range_meters":11600,"station_id":"ce4bh112rcd13ifvqd90","pricing_plan_id":"cebpf4jnsgd1na2vs0mg"},{"bike_id":"26287ccc-7b12-4725-a7ad-008152084d93","system_id":"levelo_inurba_marseille","lat":43.29275,"lon":5.40924,"is_reserved":false,"is_disabled":false,"rental_uris":{"android":"levelo://app?vid=26287ccc-7b12-4725-a7ad-008152084d93","ios":"levelo://app?vid=26287ccc-7b12-4725-a7ad-008152084d93"},"vehicle_type_id":"4","last_reported":1748383758,"current_range_meters":11600,"station_id":"ce4bh192rcd13ifvqdc0","pricing_plan_id":"cebpf4jnsgd1na2vs0mg"},{"bike_id":"cf73d4eb-8800-40a2-abb3-7d2208b0cb69","system_id":"levelo_inurba_marseille","lat":43.29036,"lon":5.38653,"is_reserved":false,"is_disabled":false,"rental_uris":{"android":"levelo://app?vid=cf73d4eb-8800-40a2-abb3-7d2208b0cb69","ios":"levelo://app?vid=cf73d4eb-8800-40a2-abb3-7d2208b0cb69"},"vehicle_type_id":"4","last_reported":1748383758,"current_range_meters":11600,"station_id":"ce4bh4p2rcd13ifvqe0g","pricing_plan_id":"cebpf4jnsgd1na2vs0mg"},{"bike_id":"8a64d82d-9c9e-4b9e-8cfc-761276738f61","system_id":"levelo_inurba_marseille","lat":43.27839,"lon":5.39207,"is_reserved":false,"is_disabled":false,"rental_uris":{"android":"levelo://app?vid=8a64d82d-9c9e-4b9e-8cfc-761276738f61","ios":"levelo://app?vid=8a64d82d-9c9e-4b9e-8cfc-761276738f61"},"vehicle_type_id":"4","last_reported":1748383758,"current_range_meters":11600,"station_id":"ce4bhjp2rcd13ifvqga0","pricing_plan_id":"cebpf4jnsgd1na2vs0mg"},{"bike_id":"f0ecbad3-5c56-4efa-84f0-9f2a84b7774d","system_id":"levelo_inurba_marseille","lat":43.322307,"lon":5.384237,"is_reserved":false,"is_disabled":false,"rental_uris":{"android":"levelo://app?vid=f0ecbad3-5c56-4efa-84f0-9f2a84b7774d","ios":"levelo://app?vid=f0ecbad3-5c56-4efa-84f0-9f2a84b7774d"},"vehicle_type_id":"4","last_reported":1748383758,"current_range_meters":12000,"station_id":"","pricing_plan_id":"cebpf4jnsgd1na2vs0mg"},{"bike_id":"6a2eb3d1-8421-4db2-9c25-13e15f56bb41","system_id":"levelo_inurba_marseille","lat":43.3092,"lon":5.40161,"is_reserved":false,"is_disabled":false,"rental_uris":{"android":"levelo://app?vid=6a2eb3d1-8421-4db2-9c25-13e15f56bb41","ios":"levelo://app?vid=6a2eb3d1-8421-4db2-9c25-13e15f56bb41"},"vehicle_type_id":"4","last_reported":1748383758,"current_range_meters":12000,"station_id":"ce4bgvp2rcd13ifvqct0","pricing_plan_id":"cebpf4jnsgd1na2vs0mg"},{"bike_id":"f757d16f-10d1-46fd-97c8-e7926b6602c0","system_id":"levelo_inurba_marseille","lat":43.30885,"lon":5.3964,"is_reserved":false,"is_disabled":false,"rental_uris":{"android":"levelo://app?vid=f757d16f-10d1-46fd-97c8-e7926b6602c0","ios":"levelo://app?vid=f757d16f-10d1-46fd-97c8-e7926b6602c0"},"vehicle_type_id":"4","last_reported":1748383758,"current_range_meters":12000,"station_id":"ce4bh012rcd13ifvqcv0","pricing_plan_id":"cebpf4jnsgd1na2vs0mg"},{"bike_id":"086db649-d8a7-4996-b50f-1dba37294b53","system_id":"levelo_inurba_marseille","lat":43.30875,"lon":5.39647,"is_reserved":false,"is_disabled":false,"rental_uris":{"android":"levelo://app?vid=086db649-d8a7-4996-b50f-1dba37294b53","ios":"levelo://app?vid=086db649-d8a7-4996-b50f-1dba37294b53"},"vehicle_type_id":"4","last_reported":1748383758,"current_range_meters":12000,"station_id":"ce4bh012rcd13ifvqcv0","pricing_plan_id":"cebpf4jnsgd1na2vs0mg"},{"bike_id":"a510ee1e-f45d-4394-b413-80862029c837","system_id":"levelo_inurba_marseille","lat":43.28845,"lon":5.3931,"is_reserved":false,"is_disabled":false,"rental_uris":{"android":"levelo://app?vid=a510ee1e-f45d-4394-b413-80862029c837","ios":"levelo://app?vid=a510ee1e-f45d-4394-b413-80862029c837"},"vehicle_type_id":"4","last_reported":1748383758,"current_range_meters":12000,"station_id":"ce4bh2p2rcd13ifvqdi0","pricing_plan_id":"cebpf4jnsgd1na2vs0mg"},{"bike_id":"5ad0faef-897d-4c19-b2e4-979327720bd4","system_id":"levelo_inurba_marseille","lat":43.25083,"lon":5.39507,"is_reserved":false,"is_disabled":false,"rental_uris":{"android":"levelo://app?vid=5ad0faef-897d-4c19-b2e4-979327720bd4","ios":"levelo://app?vid=5ad0faef-897d-4c19-b2e4-979327720bd4"},"vehicle_type_id":"4","last_reported":1748383758,"current_range_meters":12000,"station_id":"ce4bhm12rcd13ifvqgkg","pricing_plan_id":"cebpf4jnsgd1na2vs0mg"},{"bike_id":"37d1376c-dfa1-4e03-8541-7bea54bb6ea8","system_id":"levelo_inurba_marseille","lat":43.31169,"lon":5.38709,"is_reserved":false,"is_disabled":false,"rental_uris":{"android":"levelo://app?vid=37d1376c-dfa1-4e03-8541-7bea54bb6ea8","ios":"levelo://app?vid=37d1376c-dfa1-4e03-8541-7bea54bb6ea8"},"vehicle_type_id":"4","last_reported":1748383758,"current_range_meters":12400,"station_id":"ce4bgv12rcd13ifvqcp0","pricing_plan_id":"cebpf4jnsgd1na2vs0mg"},{"bike_id":"9457a377-3567-464b-b191-f8d2ccbd3d31","system_id":"levelo_inurba_marseille","lat":43.3169,"lon":5.40447,"is_reserved":false,"is_disabled":false,"rental_uris":{"android":"levelo://app?vid=9457a377-3567-464b-b191-f8d2ccbd3d31","ios":"levelo://app?vid=9457a377-3567-464b-b191-f8d2ccbd3d31"},"vehicle_type_id":"4","last_reported":1748383758,"current_range_meters":12400,"station_id":"ce4bh012rcd13ifvqd00","pricing_plan_id":"cebpf4jnsgd1na2vs0mg"},{"bike_id":"3e85e1f2-2d7f-4bc7-820d-eecd727cdc87","system_id":"levelo_inurba_marseille","lat":43.28459,"lon":5.35883,"is_reserved":false,"is_disabled":false,"rental_uris":{"android":"levelo://app?vid=3e85e1f2-2d7f-4bc7-820d-eecd727cdc87","ios":"levelo://app?vid=3e85e1f2-2d7f-4bc7-820d-eecd727cdc87"},"vehicle_type_id":"4","last_reported":1748383758,"current_range_meters":12400,"station_id":"ce4bhah2rcd13ifvqei0","pricing_plan_id":"cebpf4jnsgd1na2vs0mg"},{"bike_id":"8b8f4ddc-5f2d-41ad-9613-91a528fd4361","system_id":"levelo_inurba_marseille","lat":43.22924,"lon":5.35379,"is_reserved":false,"is_disabled":false,"rental_uris":{"android":"levelo://app?vid=8b8f4ddc-5f2d-41ad-9613-91a528fd4361","ios":"levelo://app?vid=8b8f4ddc-5f2d-41ad-9613-91a528fd4361"},"vehicle_type_id":"4","last_reported":1748383758,"current_range_meters":12400,"station_id":"cpo3532slgdg3j2ikp40","pricing_plan_id":"cebpf4jnsgd1na2vs0mg"},{"bike_id":"16325869-b0b1-4ea6-b5e0-4206964d490a","system_id":"levelo_inurba_marseille","lat":43.26022,"lon":5.41713,"is_reserved":false,"is_disabled":false,"rental_uris":{"android":"levelo://app?vid=16325869-b0b1-4ea6-b5e0-4206964d490a","ios":"levelo://app?vid=16325869-b0b1-4ea6-b5e0-4206964d490a"},"vehicle_type_id":"4","last_reported":1748383758,"current_range_meters":12800,"station_id":"","pricing_plan_id":"cebpf4jnsgd1na2vs0mg"},{"bike_id":"a323b46e-446a-4461-a99d-342c5cb06fdf","system_id":"levelo_inurba_marseille","lat":43.30899,"lon":5.37183,"is_reserved":false,"is_disabled":false,"rental_uris":{"android":"levelo://app?vid=a323b46e-446a-4461-a99d-342c5cb06fdf","ios":"levelo://app?vid=a323b46e-446a-4461-a99d-342c5cb06fdf"},"vehicle_type_id":"4","last_reported":1748383758,"current_range_meters":12800,"station_id":"ce4bguh2rcd13ifvqckg","pricing_plan_id":"cebpf4jnsgd1na2vs0mg"},{"bike_id":"f91ff3d1-fe64-4f18-b961-1a1a243abf63","system_id":"levelo_inurba_marseille","lat":43.30324,"lon":5.403814,"is_reserved":false,"is_disabled":false,"rental_uris":{"android":"levelo://app?vid=f91ff3d1-fe64-4f18-b961-1a1a243abf63","ios":"levelo://app?vid=f91ff3d1-fe64-4f18-b961-1a1a243abf63"},"vehicle_type_id":"4","last_reported":1748383758,"current_range_meters":12800,"station_id":"ce4bh012rcd13ifvqd10","pricing_plan_id":"cebpf4jnsgd1na2vs0mg"},{"bike_id":"72558c5c-1de9-435d-a9b7-e96b6d7c033f","system_id":"levelo_inurba_marseille","lat":43.29867,"lon":5.39735,"is_reserved":false,"is_disabled":false,"rental_uris":{"android":"levelo://app?vid=72558c5c-1de9-435d-a9b7-e96b6d7c033f","ios":"levelo://app?vid=72558c5c-1de9-435d-a9b7-e96b6d7c033f"},"vehicle_type_id":"4","last_reported":1748383758,"current_range_meters":12800,"station_id":"ce4bh0h2rcd13ifvqd50","pricing_plan_id":"cebpf4jnsgd1na2vs0mg"},{"bike_id":"245b30f8-80dc-4878-ba6a-66701beca56f","system_id":"levelo_inurba_marseille","lat":43.28411,"lon":5.37514,"is_reserved":false,"is_disabled":false,"rental_uris":{"android":"levelo://app?vid=245b30f8-80dc-4878-ba6a-66701beca56f","ios":"levelo://app?vid=245b30f8-80dc-4878-ba6a-66701beca56f"},"vehicle_type_id":"4","last_reported":1748383758,"current_range_meters":12800,"station_id":"ce4bh412rcd13ifvqds0","pricing_plan_id":"cebpf4jnsgd1na2vs0mg"},{"bike_id":"07ab72bd-9298-45dd-8184-52d45380b58d","system_id":"levelo_inurba_marseille","lat":43.28075,"lon":5.39635,"is_reserved":false,"is_disabled":false,"rental_uris":{"android":"levelo://app?vid=07ab72bd-9298-45dd-8184-52d45380b58d","ios":"levelo://app?vid=07ab72bd-9298-45dd-8184-52d45380b58d"},"vehicle_type_id":"4","last_reported":1748383758,"current_range_meters":12800,"station_id":"ce4bho12rcd13ifvqh2g","pricing_plan_id":"cebpf4jnsgd1na2vs0mg"},{"bike_id":"d2fa8e77-9f90-45e1-a835-7464576f03ac","system_id":"levelo_inurba_marseille","lat":43.31677,"lon":5.40464,"is_reserved":false,"is_disabled":false,"rental_uris":{"android":"levelo://app?vid=d2fa8e77-9f90-45e1-a835-7464576f03ac","ios":"levelo://app?vid=d2fa8e77-9f90-45e1-a835-7464576f03ac"},"vehicle_type_id":"4","last_reported":1748383758,"current_range_meters":13600,"station_id":"ce4bh012rcd13ifvqd00","pricing_plan_id":"cebpf4jnsgd1na2vs0mg"},{"bike_id":"f8202d39-2e7a-4ca8-ab37-01c4228f54d0","system_id":"levelo_inurba_marseille","lat":43.28683,"lon":5.39991,"is_reserved":false,"is_disabled":false,"rental_uris":{"android":"levelo://app?vid=f8202d39-2e7a-4ca8-ab37-01c4228f54d0","ios":"levelo://app?vid=f8202d39-2e7a-4ca8-ab37-01c4228f54d0"},"vehicle_type_id":"4","last_reported":1748383758,"current_range_meters":13600,"station_id":"ce4bho92rcd13ifvqh3g","pricing_plan_id":"cebpf4jnsgd1na2vs0mg"},{"bike_id":"46f1e1a2-421d-4288-9b19-22918bc7cc7f","system_id":"levelo_inurba_marseille","lat":43.232027,"lon":5.355499,"is_reserved":false,"is_disabled":false,"rental_uris":{"android":"levelo://app?vid=46f1e1a2-421d-4288-9b19-22918bc7cc7f","ios":"levelo://app?vid=46f1e1a2-421d-4288-9b19-22918bc7cc7f"},"vehicle_type_id":"4","last_reported":1748383758,"current_range_meters":13600,"station_id":"ce4bhu92rcd13ifvqi70","pricing_plan_id":"cebpf4jnsgd1na2vs0mg"},{"bike_id":"34c6f0fc-a825-460a-874b-f9afa9305de8","system_id":"levelo_inurba_marseille","lat":43.30604,"lon":5.37222,"is_reserved":false,"is_disabled":false,"rental_uris":{"android":"levelo://app?vid=34c6f0fc-a825-460a-874b-f9afa9305de8","ios":"levelo://app?vid=34c6f0fc-a825-460a-874b-f9afa9305de8"},"vehicle_type_id":"4","last_reported":1748383758,"current_range_meters":14000,"station_id":"ce4bgqh2rcd13ifvqc4g","pricing_plan_id":"cebpf4jnsgd1na2vs0mg"},{"bike_id":"f7fbc1d9-af64-4aef-9eba-8165d0aadc07","system_id":"levelo_inurba_marseille","lat":43.30937,"lon":5.40135,"is_reserved":false,"is_disabled":false,"rental_uris":{"android":"levelo://app?vid=f7fbc1d9-af64-4aef-9eba-8165d0aadc07","ios":"levelo://app?vid=f7fbc1d9-af64-4aef-9eba-8165d0aadc07"},"vehicle_type_id":"4","last_reported":1748383758,"current_range_meters":14000,"station_id":"ce4bgvp2rcd13ifvqct0","pricing_plan_id":"cebpf4jnsgd1na2vs0mg"},{"bike_id":"beeca1d2-d65c-44fe-8ce6-7afce205f53e","system_id":"levelo_inurba_marseille","lat":43.30885,"lon":5.39659,"is_reserved":false,"is_disabled":false,"rental_uris":{"android":"levelo://app?vid=beeca1d2-d65c-44fe-8ce6-7afce205f53e","ios":"levelo://app?vid=beeca1d2-d65c-44fe-8ce6-7afce205f53e"},"vehicle_type_id":"4","last_reported":1748383758,"current_range_meters":14000,"station_id":"ce4bh012rcd13ifvqcv0","pricing_plan_id":"cebpf4jnsgd1na2vs0mg"},{"bike_id":"9ed94f34-a328-46fc-b201-bade39dda6d1","system_id":"levelo_inurba_marseille","lat":43.25009,"lon":5.38916,"is_reserved":false,"is_disabled":false,"rental_uris":{"android":"levelo://app?vid=9ed94f34-a328-46fc-b201-bade39dda6d1","ios":"levelo://app?vid=9ed94f34-a328-46fc-b201-bade39dda6d1"},"vehicle_type_id":"4","last_reported":1748383758,"current_range_meters":14000,"station_id":"ce4bhgp2rcd13ifvqfd0","pricing_plan_id":"cebpf4jnsgd1na2vs0mg"},{"bike_id":"0c92f513-ef44-4a67-958b-d1ecfa5c366b","system_id":"levelo_inurba_marseille","lat":43.31174,"lon":5.38701,"is_reserved":false,"is_disabled":false,"rental_uris":{"android":"levelo://app?vid=0c92f513-ef44-4a67-958b-d1ecfa5c366b","ios":"levelo://app?vid=0c92f513-ef44-4a67-958b-d1ecfa5c366b"},"vehicle_type_id":"4","last_reported":1748383758,"current_range_meters":14400,"station_id":"ce4bgv12rcd13ifvqcp0","pricing_plan_id":"cebpf4jnsgd1na2vs0mg"},{"bike_id":"71c3c26b-dbd0-45d0-80eb-41fe0433ad32","system_id":"levelo_inurba_marseille","lat":43.31074,"lon":5.38353,"is_reserved":false,"is_disabled":false,"rental_uris":{"android":"levelo://app?vid=71c3c26b-dbd0-45d0-80eb-41fe0433ad32","ios":"levelo://app?vid=71c3c26b-dbd0-45d0-80eb-41fe0433ad32"},"vehicle_type_id":"4","last_reported":1748383758,"current_range_meters":14400,"station_id":"ce4bgv92rcd13ifvqcr0","pricing_plan_id":"cebpf4jnsgd1na2vs0mg"},{"bike_id":"c9ac9815-cace-4f5a-bc55-391519ae5e1e","system_id":"levelo_inurba_marseille","lat":43.27177,"lon":5.40972,"is_reserved":false,"is_disabled":false,"rental_uris":{"android":"levelo://app?vid=c9ac9815-cace-4f5a-bc55-391519ae5e1e","ios":"levelo://app?vid=c9ac9815-cace-4f5a-bc55-391519ae5e1e"},"vehicle_type_id":"4","last_reported":1748383758,"current_range_meters":14400,"station_id":"ce4bhl12rcd13ifvqgf0","pricing_plan_id":"cebpf4jnsgd1na2vs0mg"},{"bike_id":"47583335-9e10-4931-b076-003bea66dc0e","system_id":"levelo_inurba_marseille","lat":43.2821,"lon":5.39064,"is_reserved":false,"is_disabled":false,"rental_uris":{"android":"levelo://app?vid=47583335-9e10-4931-b076-003bea66dc0e","ios":"levelo://app?vid=47583335-9e10-4931-b076-003bea66dc0e"},"vehicle_type_id":"4","last_reported":1748383758,"current_range_meters":14800,"station_id":"","pricing_plan_id":"cebpf4jnsgd1na2vs0mg"},{"bike_id":"134c70cc-46f1-414c-ba60-b99ba2b4a992","system_id":"levelo_inurba_marseille","lat":43.348153,"lon":5.351148,"is_reserved":false,"is_disabled":false,"rental_uris":{"android":"levelo://app?vid=134c70cc-46f1-414c-ba60-b99ba2b4a992","ios":"levelo://app?vid=134c70cc-46f1-414c-ba60-b99ba2b4a992"},"vehicle_type_id":"4","last_reported":1748383758,"current_range_meters":14800,"station_id":"","pricing_plan_id":"cebpf4jnsgd1na2vs0mg"},{"bike_id":"aeb17350-5d00-44be-8ef5-7401b4326230","system_id":"levelo_inurba_marseille","lat":43.2455,"lon":5.39514,"is_reserved":false,"is_disabled":false,"rental_uris":{"android":"levelo://app?vid=aeb17350-5d00-44be-8ef5-7401b4326230","ios":"levelo://app?vid=aeb17350-5d00-44be-8ef5-7401b4326230"},"vehicle_type_id":"4","last_reported":1748383758,"current_range_meters":14800,"station_id":"ce4bhlp2rcd13ifvqgjg","pricing_plan_id":"cebpf4jnsgd1na2vs0mg"},{"bike_id":"718f3e6f-cbd1-46ef-9d95-4a8094e4f55f","system_id":"levelo_inurba_marseille","lat":43.309152,"lon":5.401497,"is_reserved":false,"is_disabled":false,"rental_uris":{"android":"levelo://app?vid=718f3e6f-cbd1-46ef-9d95-4a8094e4f55f","ios":"levelo://app?vid=718f3e6f-cbd1-46ef-9d95-4a8094e4f55f"},"vehicle_type_id":"4","last_reported":1748383758,"current_range_meters":15200,"station_id":"ce4bgvp2rcd13ifvqct0","pricing_plan_id":"cebpf4jnsgd1na2vs0mg"},{"bike_id":"5b7d6e6a-d949-4210-8e20-5ca317bc7d28","system_id":"levelo_inurba_marseille","lat":43.29517,"lon":5.39394,"is_reserved":false,"is_disabled":false,"rental_uris":{"android":"levelo://app?vid=5b7d6e6a-d949-4210-8e20-5ca317bc7d28","ios":"levelo://app?vid=5b7d6e6a-d949-4210-8e20-5ca317bc7d28"},"vehicle_type_id":"4","last_reported":1748383758,"current_range_meters":15200,"station_id":"ce4bh292rcd13ifvqdf0","pricing_plan_id":"cebpf4jnsgd1na2vs0mg"},{"bike_id":"7aa7b369-c4e8-494e-a460-d3e5f9177952","system_id":"levelo_inurba_marseille","lat":43.29561,"lon":5.39988,"is_reserved":false,"is_disabled":false,"rental_uris":{"android":"levelo://app?vid=7aa7b369-c4e8-494e-a460-d3e5f9177952","ios":"levelo://app?vid=7aa7b369-c4e8-494e-a460-d3e5f9177952"},"vehicle_type_id":"4","last_reported":1748383758,"current_range_meters":15200,"station_id":"ce4bh312rcd13ifvqdj0","pricing_plan_id":"cebpf4jnsgd1na2vs0mg"},{"bike_id":"1d9aa0a3-8d94-496c-8645-8bc9aba995f5","system_id":"levelo_inurba_marseille","lat":43.29265,"lon":5.40128,"is_reserved":false,"is_disabled":false,"rental_uris":{"android":"levelo://app?vid=1d9aa0a3-8d94-496c-8645-8bc9aba995f5","ios":"levelo://app?vid=1d9aa0a3-8d94-496c-8645-8bc9aba995f5"},"vehicle_type_id":"4","last_reported":1748383758,"current_range_meters":15200,"station_id":"ce4bh312rcd13ifvqdk0","pricing_plan_id":"cebpf4jnsgd1na2vs0mg"},{"bike_id":"8107c2ea-2cb5-43b7-9292-8a74dcad82f5","system_id":"levelo_inurba_marseille","lat":43.28461,"lon":5.35881,"is_reserved":false,"is_disabled":false,"rental_uris":{"android":"levelo://app?vid=8107c2ea-2cb5-43b7-9292-8a74dcad82f5","ios":"levelo://app?vid=8107c2ea-2cb5-43b7-9292-8a74dcad82f5"},"vehicle_type_id":"4","last_reported":1748383758,"current_range_meters":15200,"station_id":"ce4bhah2rcd13ifvqei0","pricing_plan_id":"cebpf4jnsgd1na2vs0mg"},{"bike_id":"c2c25dd5-dc71-4aa2-a4d5-1ae79422659b","system_id":"levelo_inurba_marseille","lat":43.28216,"lon":5.39057,"is_reserved":false,"is_disabled":false,"rental_uris":{"android":"levelo://app?vid=c2c25dd5-dc71-4aa2-a4d5-1ae79422659b","ios":"levelo://app?vid=c2c25dd5-dc71-4aa2-a4d5-1ae79422659b"},"vehicle_type_id":"4","last_reported":1748383758,"current_range_meters":16000,"station_id":"","pricing_plan_id":"cebpf4jnsgd1na2vs0mg"},{"bike_id":"1317c4f1-3b2f-4782-959b-fe162ef6f028","system_id":"levelo_inurba_marseille","lat":43.29534,"lon":5.38537,"is_reserved":false,"is_disabled":false,"rental_uris":{"android":"levelo://app?vid=1317c4f1-3b2f-4782-959b-fe162ef6f028","ios":"levelo://app?vid=1317c4f1-3b2f-4782-959b-fe162ef6f028"},"vehicle_type_id":"4","last_reported":1748383758,"current_range_meters":16000,"station_id":"ce4bgih2rcd13ifvqba0","pricing_plan_id":"cebpf4jnsgd1na2vs0mg"},{"bike_id":"f17b5f1b-722c-492d-a6a6-635d0fc8540a","system_id":"levelo_inurba_marseille","lat":43.30421,"lon":5.39744,"is_reserved":false,"is_disabled":false,"rental_uris":{"android":"levelo://app?vid=f17b5f1b-722c-492d-a6a6-635d0fc8540a","ios":"levelo://app?vid=f17b5f1b-722c-492d-a6a6-635d0fc8540a"},"vehicle_type_id":"4","last_reported":1748383758,"current_range_meters":16000,"station_id":"ce4bh092rcd13ifvqd20","pricing_plan_id":"cebpf4jnsgd1na2vs0mg"},{"bike_id":"cca40936-2e2e-4cae-9baf-eec8f3341b59","system_id":"levelo_inurba_marseille","lat":43.30648,"lon":5.40061,"is_reserved":false,"is_disabled":false,"rental_uris":{"android":"levelo://app?vid=cca40936-2e2e-4cae-9baf-eec8f3341b59","ios":"levelo://app?vid=cca40936-2e2e-4cae-9baf-eec8f3341b59"},"vehicle_type_id":"4","last_reported":1748383758,"current_range_meters":16000,"station_id":"ce4bh112rcd13ifvqda0","pricing_plan_id":"cebpf4jnsgd1na2vs0mg"},{"bike_id":"24f3e3d5-b921-4756-97bd-883483154b22","system_id":"levelo_inurba_marseille","lat":43.322898,"lon":5.382732,"is_reserved":false,"is_disabled":false,"rental_uris":{"android":"levelo://app?vid=24f3e3d5-b921-4756-97bd-883483154b22","ios":"levelo://app?vid=24f3e3d5-b921-4756-97bd-883483154b22"},"vehicle_type_id":"4","last_reported":1748383758,"current_range_meters":16000,"station_id":"ce4bhr12rcd13ifvqhqg","pricing_plan_id":"cebpf4jnsgd1na2vs0mg"},{"bike_id":"6ebb6dd7-e028-471a-a254-2363923c0cd9","system_id":"levelo_inurba_marseille","lat":43.32115,"lon":5.36766,"is_reserved":false,"is_disabled":false,"rental_uris":{"android":"levelo://app?vid=6ebb6dd7-e028-471a-a254-2363923c0cd9","ios":"levelo://app?vid=6ebb6dd7-e028-471a-a254-2363923c0cd9"},"vehicle_type_id":"4","last_reported":1748383758,"current_range_meters":16000,"station_id":"ce4bhrh2rcd13ifvqhug","pricing_plan_id":"cebpf4jnsgd1na2vs0mg"},{"bike_id":"7a74a642-4bb8-43e8-bc8b-7b0191a1cddf","system_id":"levelo_inurba_marseille","lat":43.29582,"lon":5.39965,"is_reserved":false,"is_disabled":false,"rental_uris":{"android":"levelo://app?vid=7a74a642-4bb8-43e8-bc8b-7b0191a1cddf","ios":"levelo://app?vid=7a74a642-4bb8-43e8-bc8b-7b0191a1cddf"},"vehicle_type_id":"4","last_reported":1748383758,"current_range_meters":16400,"station_id":"ce4bh312rcd13ifvqdj0","pricing_plan_id":"cebpf4jnsgd1na2vs0mg"},{"bike_id":"d61a2e27-e65f-4e4c-9647-5687c75317c0","system_id":"levelo_inurba_marseille","lat":43.280992,"lon":5.378387,"is_reserved":false,"is_disabled":false,"rental_uris":{"android":"levelo://app?vid=d61a2e27-e65f-4e4c-9647-5687c75317c0","ios":"levelo://app?vid=d61a2e27-e65f-4e4c-9647-5687c75317c0"},"vehicle_type_id":"4","last_reported":1748383758,"current_range_meters":16400,"station_id":"ce4bha12rcd13ifvqee0","pricing_plan_id":"cebpf4jnsgd1na2vs0mg"},{"bike_id":"750d9e45-bbfa-48c7-98ea-fdd51751dc8b","system_id":"levelo_inurba_marseille","lat":43.23957,"lon":5.36629,"is_reserved":false,"is_disabled":false,"rental_uris":{"android":"levelo://app?vid=750d9e45-bbfa-48c7-98ea-fdd51751dc8b","ios":"levelo://app?vid=750d9e45-bbfa-48c7-98ea-fdd51751dc8b"},"vehicle_type_id":"4","last_reported":1748383758,"current_range_meters":16400,"station_id":"ce4bhi12rcd13ifvqfp0","pricing_plan_id":"cebpf4jnsgd1na2vs0mg"},{"bike_id":"c06fca89-0053-4526-bf0e-39603aea1bf2","system_id":"levelo_inurba_marseille","lat":43.33003,"lon":5.39056,"is_reserved":false,"is_disabled":false,"rental_uris":{"android":"levelo://app?vid=c06fca89-0053-4526-bf0e-39603aea1bf2","ios":"levelo://app?vid=c06fca89-0053-4526-bf0e-39603aea1bf2"},"vehicle_type_id":"4","last_reported":1748383758,"current_range_meters":16400,"station_id":"ce4bhr92rcd13ifvqhrg","pricing_plan_id":"cebpf4jnsgd1na2vs0mg"},{"bike_id":"349e7297-179d-46aa-af73-d0772f15795a","system_id":"levelo_inurba_marseille","lat":43.29984,"lon":5.38387,"is_reserved":false,"is_disabled":false,"rental_uris":{"android":"levelo://app?vid=349e7297-179d-46aa-af73-d0772f15795a","ios":"levelo://app?vid=349e7297-179d-46aa-af73-d0772f15795a"},"vehicle_type_id":"4","last_reported":1748383758,"current_range_meters":16800,"station_id":"","pricing_plan_id":"cebpf4jnsgd1na2vs0mg"},{"bike_id":"ad5b9106-ec60-4c11-a8ec-64b97a8620ed","system_id":"levelo_inurba_marseille","lat":43.30792,"lon":5.38158,"is_reserved":false,"is_disabled":false,"rental_uris":{"android":"levelo://app?vid=ad5b9106-ec60-4c11-a8ec-64b97a8620ed","ios":"levelo://app?vid=ad5b9106-ec60-4c11-a8ec-64b97a8620ed"},"vehicle_type_id":"4","last_reported":1748383758,"current_range_meters":16800,"station_id":"ce4bgt12rcd13ifvqce0","pricing_plan_id":"cebpf4jnsgd1na2vs0mg"},{"bike_id":"9d261c87-a2b3-4a62-884c-13fffe97a760","system_id":"levelo_inurba_marseille","lat":43.30934,"lon":5.40141,"is_reserved":false,"is_disabled":false,"rental_uris":{"android":"levelo://app?vid=9d261c87-a2b3-4a62-884c-13fffe97a760","ios":"levelo://app?vid=9d261c87-a2b3-4a62-884c-13fffe97a760"},"vehicle_type_id":"4","last_reported":1748383758,"current_range_meters":16800,"station_id":"ce4bgvp2rcd13ifvqct0","pricing_plan_id":"cebpf4jnsgd1na2vs0mg"},{"bike_id":"a89651c3-d534-4bfc-8af7-fb20a1998c60","system_id":"levelo_inurba_marseille","lat":43.30885,"lon":5.39661,"is_reserved":false,"is_disabled":false,"rental_uris":{"android":"levelo://app?vid=a89651c3-d534-4bfc-8af7-fb20a1998c60","ios":"levelo://app?vid=a89651c3-d534-4bfc-8af7-fb20a1998c60"},"vehicle_type_id":"4","last_reported":1748383758,"current_range_meters":16800,"station_id":"ce4bh012rcd13ifvqcv0","pricing_plan_id":"cebpf4jnsgd1na2vs0mg"},{"bike_id":"47473bd8-8b43-432c-9d7a-415e717aa32f","system_id":"levelo_inurba_marseille","lat":43.30895,"lon":5.3964,"is_reserved":false,"is_disabled":false,"rental_uris":{"android":"levelo://app?vid=47473bd8-8b43-432c-9d7a-415e717aa32f","ios":"levelo://app?vid=47473bd8-8b43-432c-9d7a-415e717aa32f"},"vehicle_type_id":"4","last_reported":1748383758,"current_range_meters":16800,"station_id":"ce4bh012rcd13ifvqcv0","pricing_plan_id":"cebpf4jnsgd1na2vs0mg"},{"bike_id":"ce65e712-a56e-49d6-81c7-2fe625f899aa","system_id":"levelo_inurba_marseille","lat":43.27842,"lon":5.39203,"is_reserved":false,"is_disabled":false,"rental_uris":{"android":"levelo://app?vid=ce65e712-a56e-49d6-81c7-2fe625f899aa","ios":"levelo://app?vid=ce65e712-a56e-49d6-81c7-2fe625f899aa"},"vehicle_type_id":"4","last_reported":1748383758,"current_range_meters":16800,"station_id":"ce4bhjp2rcd13ifvqga0","pricing_plan_id":"cebpf4jnsgd1na2vs0mg"},{"bike_id":"45c941a7-9562-4778-ae0c-86ddbaf5a628","system_id":"levelo_inurba_marseille","lat":43.24526,"lon":5.39528,"is_reserved":false,"is_disabled":false,"rental_uris":{"android":"levelo://app?vid=45c941a7-9562-4778-ae0c-86ddbaf5a628","ios":"levelo://app?vid=45c941a7-9562-4778-ae0c-86ddbaf5a628"},"vehicle_type_id":"4","last_reported":1748383758,"current_range_meters":16800,"station_id":"ce4bhlp2rcd13ifvqgjg","pricing_plan_id":"cebpf4jnsgd1na2vs0mg"},{"bike_id":"ed3ce463-8108-462a-b16b-760e2671d87c","system_id":"levelo_inurba_marseille","lat":43.25088,"lon":5.39513,"is_reserved":false,"is_disabled":false,"rental_uris":{"android":"levelo://app?vid=ed3ce463-8108-462a-b16b-760e2671d87c","ios":"levelo://app?vid=ed3ce463-8108-462a-b16b-760e2671d87c"},"vehicle_type_id":"4","last_reported":1748383758,"current_range_meters":16800,"station_id":"ce4bhm12rcd13ifvqgkg","pricing_plan_id":"cebpf4jnsgd1na2vs0mg"},{"bike_id":"2447e726-02f2-4707-a232-a209224dd9ad","system_id":"levelo_inurba_marseille","lat":43.3301,"lon":5.39048,"is_reserved":false,"is_disabled":false,"rental_uris":{"android":"levelo://app?vid=2447e726-02f2-4707-a232-a209224dd9ad","ios":"levelo://app?vid=2447e726-02f2-4707-a232-a209224dd9ad"},"vehicle_type_id":"4","last_reported":1748383758,"current_range_meters":16800,"station_id":"ce4bhr92rcd13ifvqhrg","pricing_plan_id":"cebpf4jnsgd1na2vs0mg"},{"bike_id":"3b07f020-3d8e-47eb-b723-de46e817e2a3","system_id":"levelo_inurba_marseille","lat":43.29751,"lon":5.38349,"is_reserved":false,"is_disabled":false,"rental_uris":{"android":"levelo://app?vid=3b07f020-3d8e-47eb-b723-de46e817e2a3","ios":"levelo://app?vid=3b07f020-3d8e-47eb-b723-de46e817e2a3"},"vehicle_type_id":"4","last_reported":1748383758,"current_range_meters":17200,"station_id":"","pricing_plan_id":"cebpf4jnsgd1na2vs0mg"},{"bike_id":"3865b0a2-6909-4ea2-b648-0ed5dd91b7a2","system_id":"levelo_inurba_marseille","lat":43.22531,"lon":5.34773,"is_reserved":false,"is_disabled":false,"rental_uris":{"android":"levelo://app?vid=3865b0a2-6909-4ea2-b648-0ed5dd91b7a2","ios":"levelo://app?vid=3865b0a2-6909-4ea2-b648-0ed5dd91b7a2"},"vehicle_type_id":"4","last_reported":1748383758,"current_range_meters":17200,"station_id":"","pricing_plan_id":"cebpf4jnsgd1na2vs0mg"},{"bike_id":"7907d746-b302-43bb-9f17-838fe24ab47b","system_id":"levelo_inurba_marseille","lat":43.2319,"lon":5.39985,"is_reserved":false,"is_disabled":false,"rental_uris":{"android":"levelo://app?vid=7907d746-b302-43bb-9f17-838fe24ab47b","ios":"levelo://app?vid=7907d746-b302-43bb-9f17-838fe24ab47b"},"vehicle_type_id":"4","last_reported":1748383758,"current_range_meters":17200,"station_id":"ce4bhn12rcd13ifvqgqg","pricing_plan_id":"cebpf4jnsgd1na2vs0mg"},{"bike_id":"74a51669-7c01-4d0f-ac1d-b36a4d09a524","system_id":"levelo_inurba_marseille","lat":43.24069,"lon":5.37745,"is_reserved":false,"is_disabled":false,"rental_uris":{"android":"levelo://app?vid=74a51669-7c01-4d0f-ac1d-b36a4d09a524","ios":"levelo://app?vid=74a51669-7c01-4d0f-ac1d-b36a4d09a524"},"vehicle_type_id":"4","last_reported":1748383758,"current_range_meters":17200,"station_id":"ce4bhnp2rcd13ifvqgvg","pricing_plan_id":"cebpf4jnsgd1na2vs0mg"},{"bike_id":"e973ebb1-c5cc-469b-a013-5cc42fa3e4c6","system_id":"levelo_inurba_marseille","lat":43.33721,"lon":5.3919,"is_reserved":false,"is_disabled":false,"rental_uris":{"android":"levelo://app?vid=e973ebb1-c5cc-469b-a013-5cc42fa3e4c6","ios":"levelo://app?vid=e973ebb1-c5cc-469b-a013-5cc42fa3e4c6"},"vehicle_type_id":"4","last_reported":1748383758,"current_range_meters":17200,"station_id":"ce4bhr92rcd13ifvqhsg","pricing_plan_id":"cebpf4jnsgd1na2vs0mg"},{"bike_id":"7adbd369-f684-4c09-90a5-6bbf2f150346","system_id":"levelo_inurba_marseille","lat":43.32101,"lon":5.36811,"is_reserved":false,"is_disabled":false,"rental_uris":{"android":"levelo://app?vid=7adbd369-f684-4c09-90a5-6bbf2f150346","ios":"levelo://app?vid=7adbd369-f684-4c09-90a5-6bbf2f150346"},"vehicle_type_id":"4","last_reported":1748383758,"current_range_meters":17200,"station_id":"ce4bhrh2rcd13ifvqhug","pricing_plan_id":"cebpf4jnsgd1na2vs0mg"},{"bike_id":"798b4dd9-09fd-4939-a396-5d8278d045a8","system_id":"levelo_inurba_marseille","lat":43.28226,"lon":5.39051,"is_reserved":false,"is_disabled":false,"rental_uris":{"android":"levelo://app?vid=798b4dd9-09fd-4939-a396-5d8278d045a8","ios":"levelo://app?vid=798b4dd9-09fd-4939-a396-5d8278d045a8"},"vehicle_type_id":"4","last_reported":1748383758,"current_range_meters":17600,"station_id":"","pricing_plan_id":"cebpf4jnsgd1na2vs0mg"},{"bike_id":"68189fd1-9866-4843-94ef-6d114f110fbd","system_id":"levelo_inurba_marseille","lat":43.28214,"lon":5.39043,"is_reserved":false,"is_disabled":false,"rental_uris":{"android":"levelo://app?vid=68189fd1-9866-4843-94ef-6d114f110fbd","ios":"levelo://app?vid=68189fd1-9866-4843-94ef-6d114f110fbd"},"vehicle_type_id":"4","last_reported":1748383758,"current_range_meters":17600,"station_id":"","pricing_plan_id":"cebpf4jnsgd1na2vs0mg"},{"bike_id":"78034e56-14c2-49a7-bd04-283a6cf20898","system_id":"levelo_inurba_marseille","lat":43.30788,"lon":5.37644,"is_reserved":false,"is_disabled":false,"rental_uris":{"android":"levelo://app?vid=78034e56-14c2-49a7-bd04-283a6cf20898","ios":"levelo://app?vid=78034e56-14c2-49a7-bd04-283a6cf20898"},"vehicle_type_id":"4","last_reported":1748383758,"current_range_meters":17600,"station_id":"ce4bgv92rcd13ifvqcq0","pricing_plan_id":"cebpf4jnsgd1na2vs0mg"},{"bike_id":"41c050c2-8142-45c0-9077-5a96dabe3d8b","system_id":"levelo_inurba_marseille","lat":43.29877,"lon":5.39725,"is_reserved":false,"is_disabled":false,"rental_uris":{"android":"levelo://app?vid=41c050c2-8142-45c0-9077-5a96dabe3d8b","ios":"levelo://app?vid=41c050c2-8142-45c0-9077-5a96dabe3d8b"},"vehicle_type_id":"4","last_reported":1748383758,"current_range_meters":17600,"station_id":"ce4bh0h2rcd13ifvqd50","pricing_plan_id":"cebpf4jnsgd1na2vs0mg"},{"bike_id":"37075ab1-59de-427a-b26f-ec3af48f74d2","system_id":"levelo_inurba_marseille","lat":43.29261,"lon":5.40906,"is_reserved":false,"is_disabled":false,"rental_uris":{"android":"levelo://app?vid=37075ab1-59de-427a-b26f-ec3af48f74d2","ios":"levelo://app?vid=37075ab1-59de-427a-b26f-ec3af48f74d2"},"vehicle_type_id":"4","last_reported":1748383758,"current_range_meters":17600,"station_id":"ce4bh192rcd13ifvqdc0","pricing_plan_id":"cebpf4jnsgd1na2vs0mg"},{"bike_id":"b3d31ff0-c50d-4007-822a-c9f2557a3e37","system_id":"levelo_inurba_marseille","lat":43.27559,"lon":5.384075,"is_reserved":false,"is_disabled":false,"rental_uris":{"android":"levelo://app?vid=b3d31ff0-c50d-4007-822a-c9f2557a3e37","ios":"levelo://app?vid=b3d31ff0-c50d-4007-822a-c9f2557a3e37"},"vehicle_type_id":"4","last_reported":1748383758,"current_range_meters":17600,"station_id":"ce4bhh92rcd13ifvqfi0","pricing_plan_id":"cebpf4jnsgd1na2vs0mg"},{"bike_id":"ef77543b-22de-44af-930a-38e7dfe2d4e6","system_id":"levelo_inurba_marseille","lat":43.2321,"lon":5.39982,"is_reserved":false,"is_disabled":false,"rental_uris":{"android":"levelo://app?vid=ef77543b-22de-44af-930a-38e7dfe2d4e6","ios":"levelo://app?vid=ef77543b-22de-44af-930a-38e7dfe2d4e6"},"vehicle_type_id":"4","last_reported":1748383758,"current_range_meters":17600,"station_id":"ce4bhn12rcd13ifvqgqg","pricing_plan_id":"cebpf4jnsgd1na2vs0mg"},{"bike_id":"9f96c977-918e-4d59-937c-78e2d60493ee","system_id":"levelo_inurba_marseille","lat":43.27295,"lon":5.4104,"is_reserved":false,"is_disabled":false,"rental_uris":{"android":"levelo://app?vid=9f96c977-918e-4d59-937c-78e2d60493ee","ios":"levelo://app?vid=9f96c977-918e-4d59-937c-78e2d60493ee"},"vehicle_type_id":"4","last_reported":1748383758,"current_range_meters":18000,"station_id":"","pricing_plan_id":"cebpf4jnsgd1na2vs0mg"},{"bike_id":"03eed578-bb19-48fc-b5c7-10358efea5d8","system_id":"levelo_inurba_marseille","lat":43.30434,"lon":5.39742,"is_reserved":false,"is_disabled":false,"rental_uris":{"android":"levelo://app?vid=03eed578-bb19-48fc-b5c7-10358efea5d8","ios":"levelo://app?vid=03eed578-bb19-48fc-b5c7-10358efea5d8"},"vehicle_type_id":"4","last_reported":1748383758,"current_range_meters":18000,"station_id":"ce4bh092rcd13ifvqd20","pricing_plan_id":"cebpf4jnsgd1na2vs0mg"},{"bike_id":"8df877f1-b26b-4555-9770-a7ce46b0b547","system_id":"levelo_inurba_marseille","lat":43.30095,"lon":5.39068,"is_reserved":false,"is_disabled":false,"rental_uris":{"android":"levelo://app?vid=8df877f1-b26b-4555-9770-a7ce46b0b547","ios":"levelo://app?vid=8df877f1-b26b-4555-9770-a7ce46b0b547"},"vehicle_type_id":"4","last_reported":1748383758,"current_range_meters":18000,"station_id":"ce4bh192rcd13ifvqdb0","pricing_plan_id":"cebpf4jnsgd1na2vs0mg"},{"bike_id":"55c8afa6-628a-4668-80db-ceb1a1a0f083","system_id":"levelo_inurba_marseille","lat":43.29567,"lon":5.39967,"is_reserved":false,"is_disabled":false,"rental_uris":{"android":"levelo://app?vid=55c8afa6-628a-4668-80db-ceb1a1a0f083","ios":"levelo://app?vid=55c8afa6-628a-4668-80db-ceb1a1a0f083"},"vehicle_type_id":"4","last_reported":1748383758,"current_range_meters":18000,"station_id":"ce4bh312rcd13ifvqdj0","pricing_plan_id":"cebpf4jnsgd1na2vs0mg"},{"bike_id":"937f6a7f-a8fa-4cba-9a1e-521f8fd69c78","system_id":"levelo_inurba_marseille","lat":43.29285,"lon":5.40126,"is_reserved":false,"is_disabled":false,"rental_uris":{"android":"levelo://app?vid=937f6a7f-a8fa-4cba-9a1e-521f8fd69c78","ios":"levelo://app?vid=937f6a7f-a8fa-4cba-9a1e-521f8fd69c78"},"vehicle_type_id":"4","last_reported":1748383758,"current_range_meters":18000,"station_id":"ce4bh312rcd13ifvqdk0","pricing_plan_id":"cebpf4jnsgd1na2vs0mg"},{"bike_id":"fbe5a021-32eb-479f-9f14-4eac2b7df7e5","system_id":"levelo_inurba_marseille","lat":43.26487,"lon":5.39559,"is_reserved":false,"is_disabled":false,"rental_uris":{"android":"levelo://app?vid=fbe5a021-32eb-479f-9f14-4eac2b7df7e5","ios":"levelo://app?vid=fbe5a021-32eb-479f-9f14-4eac2b7df7e5"},"vehicle_type_id":"4","last_reported":1748383758,"current_range_meters":18000,"station_id":"ce4bhi12rcd13ifvqfq0","pricing_plan_id":"cebpf4jnsgd1na2vs0mg"},{"bike_id":"c51186ad-4fb2-475e-8a6c-a1c4255415cc","system_id":"levelo_inurba_marseille","lat":43.2872,"lon":5.36096,"is_reserved":false,"is_disabled":false,"rental_uris":{"android":"levelo://app?vid=c51186ad-4fb2-475e-8a6c-a1c4255415cc","ios":"levelo://app?vid=c51186ad-4fb2-475e-8a6c-a1c4255415cc"},"vehicle_type_id":"4","last_reported":1748383758,"current_range_meters":18000,"station_id":"cki0cbj6b192h4jlfktg","pricing_plan_id":"cebpf4jnsgd1na2vs0mg"},{"bike_id":"b38b96d3-38d3-4d6a-be25-e7c9777ff1be","system_id":"levelo_inurba_marseille","lat":43.31106,"lon":5.37756,"is_reserved":false,"is_disabled":false,"rental_uris":{"android":"levelo://app?vid=b38b96d3-38d3-4d6a-be25-e7c9777ff1be","ios":"levelo://app?vid=b38b96d3-38d3-4d6a-be25-e7c9777ff1be"},"vehicle_type_id":"4","last_reported":1748383758,"current_range_meters":18800,"station_id":"ce4bgt92rcd13ifvqcg0","pricing_plan_id":"cebpf4jnsgd1na2vs0mg"},{"bike_id":"fcb789d7-3cf7-430a-a366-a3a6c6977f44","system_id":"levelo_inurba_marseille","lat":43.31076,"lon":5.38353,"is_reserved":false,"is_disabled":false,"rental_uris":{"android":"levelo://app?vid=fcb789d7-3cf7-430a-a366-a3a6c6977f44","ios":"levelo://app?vid=fcb789d7-3cf7-430a-a366-a3a6c6977f44"},"vehicle_type_id":"4","last_reported":1748383758,"current_range_meters":18800,"station_id":"ce4bgv92rcd13ifvqcr0","pricing_plan_id":"cebpf4jnsgd1na2vs0mg"},{"bike_id":"2c08af6d-e6dd-47bf-abe3-3c0981a41b80","system_id":"levelo_inurba_marseille","lat":43.30325,"lon":5.40435,"is_reserved":false,"is_disabled":false,"rental_uris":{"android":"levelo://app?vid=2c08af6d-e6dd-47bf-abe3-3c0981a41b80","ios":"levelo://app?vid=2c08af6d-e6dd-47bf-abe3-3c0981a41b80"},"vehicle_type_id":"4","last_reported":1748383758,"current_range_meters":18800,"station_id":"ce4bh012rcd13ifvqd10","pricing_plan_id":"cebpf4jnsgd1na2vs0mg"},{"bike_id":"7c7fe84b-0dcb-485f-b284-acd1e2adabd9","system_id":"levelo_inurba_marseille","lat":43.29517,"lon":5.39044,"is_reserved":false,"is_disabled":false,"rental_uris":{"android":"levelo://app?vid=7c7fe84b-0dcb-485f-b284-acd1e2adabd9","ios":"levelo://app?vid=7c7fe84b-0dcb-485f-b284-acd1e2adabd9"},"vehicle_type_id":"4","last_reported":1748383758,"current_range_meters":18800,"station_id":"ce4bh3p2rcd13ifvqdp0","pricing_plan_id":"cebpf4jnsgd1na2vs0mg"},{"bike_id":"812036af-fdef-40d2-95dc-3b0652a632c7","system_id":"levelo_inurba_marseille","lat":43.28411,"lon":5.37502,"is_reserved":false,"is_disabled":false,"rental_uris":{"android":"levelo://app?vid=812036af-fdef-40d2-95dc-3b0652a632c7","ios":"levelo://app?vid=812036af-fdef-40d2-95dc-3b0652a632c7"},"vehicle_type_id":"4","last_reported":1748383758,"current_range_meters":18800,"station_id":"ce4bh412rcd13ifvqds0","pricing_plan_id":"cebpf4jnsgd1na2vs0mg"},{"bike_id":"7f27e242-0fbe-45da-9338-76fc7fc98a51","system_id":"levelo_inurba_marseille","lat":43.24638,"lon":5.38937,"is_reserved":false,"is_disabled":false,"rental_uris":{"android":"levelo://app?vid=7f27e242-0fbe-45da-9338-76fc7fc98a51","ios":"levelo://app?vid=7f27e242-0fbe-45da-9338-76fc7fc98a51"},"vehicle_type_id":"4","last_reported":1748383758,"current_range_meters":18800,"station_id":"ce4bhg12rcd13ifvqf60","pricing_plan_id":"cebpf4jnsgd1na2vs0mg"},{"bike_id":"2eefa692-cf01-477e-b75f-98c8d4095538","system_id":"levelo_inurba_marseille","lat":43.27837,"lon":5.39208,"is_reserved":false,"is_disabled":false,"rental_uris":{"android":"levelo://app?vid=2eefa692-cf01-477e-b75f-98c8d4095538","ios":"levelo://app?vid=2eefa692-cf01-477e-b75f-98c8d4095538"},"vehicle_type_id":"4","last_reported":1748383758,"current_range_meters":18800,"station_id":"ce4bhjp2rcd13ifvqga0","pricing_plan_id":"cebpf4jnsgd1na2vs0mg"},{"bike_id":"b2e483d1-8417-49fc-b5d5-da2183f79552","system_id":"levelo_inurba_marseille","lat":43.21774,"lon":5.34592,"is_reserved":false,"is_disabled":false,"rental_uris":{"android":"levelo://app?vid=b2e483d1-8417-49fc-b5d5-da2183f79552","ios":"levelo://app?vid=b2e483d1-8417-49fc-b5d5-da2183f79552"},"vehicle_type_id":"4","last_reported":1748383758,"current_range_meters":18800,"station_id":"st_cvj6r9ubvosntc0bgbag","pricing_plan_id":"cebpf4jnsgd1na2vs0mg"},{"bike_id":"39a043e6-fc15-4a52-9fda-ec07dffbe013","system_id":"levelo_inurba_marseille","lat":43.34319,"lon":5.34808,"is_reserved":false,"is_disabled":false,"rental_uris":{"android":"levelo://app?vid=39a043e6-fc15-4a52-9fda-ec07dffbe013","ios":"levelo://app?vid=39a043e6-fc15-4a52-9fda-ec07dffbe013"},"vehicle_type_id":"4","last_reported":1748383758,"current_range_meters":19200,"station_id":"","pricing_plan_id":"cebpf4jnsgd1na2vs0mg"},{"bike_id":"21784756-8695-4b10-acb4-14da7bc97e18","system_id":"levelo_inurba_marseille","lat":43.2824,"lon":5.3904,"is_reserved":false,"is_disabled":false,"rental_uris":{"android":"levelo://app?vid=21784756-8695-4b10-acb4-14da7bc97e18","ios":"levelo://app?vid=21784756-8695-4b10-acb4-14da7bc97e18"},"vehicle_type_id":"4","last_reported":1748383758,"current_range_meters":19200,"station_id":"","pricing_plan_id":"cebpf4jnsgd1na2vs0mg"},{"bike_id":"df798438-3540-4bc4-99dd-2243555b9ece","system_id":"levelo_inurba_marseille","lat":43.2904,"lon":5.35896,"is_reserved":false,"is_disabled":false,"rental_uris":{"android":"levelo://app?vid=df798438-3540-4bc4-99dd-2243555b9ece","ios":"levelo://app?vid=df798438-3540-4bc4-99dd-2243555b9ece"},"vehicle_type_id":"4","last_reported":1748383758,"current_range_meters":19200,"station_id":"","pricing_plan_id":"cebpf4jnsgd1na2vs0mg"},{"bike_id":"ca260ded-c7c2-47f8-8e09-8a74dcde0f9c","system_id":"levelo_inurba_marseille","lat":43.32334,"lon":5.38283,"is_reserved":false,"is_disabled":false,"rental_uris":{"android":"levelo://app?vid=ca260ded-c7c2-47f8-8e09-8a74dcde0f9c","ios":"levelo://app?vid=ca260ded-c7c2-47f8-8e09-8a74dcde0f9c"},"vehicle_type_id":"4","last_reported":1748383758,"current_range_meters":19200,"station_id":"","pricing_plan_id":"cebpf4jnsgd1na2vs0mg"},{"bike_id":"34858189-ddd5-4e07-b290-98eb796d2948","system_id":"levelo_inurba_marseille","lat":43.31176,"lon":5.38711,"is_reserved":false,"is_disabled":false,"rental_uris":{"android":"levelo://app?vid=34858189-ddd5-4e07-b290-98eb796d2948","ios":"levelo://app?vid=34858189-ddd5-4e07-b290-98eb796d2948"},"vehicle_type_id":"4","last_reported":1748383758,"current_range_meters":19200,"station_id":"ce4bgv12rcd13ifvqcp0","pricing_plan_id":"cebpf4jnsgd1na2vs0mg"},{"bike_id":"b755083e-3707-4f05-b4c4-98be3ff74df3","system_id":"levelo_inurba_marseille","lat":43.30928,"lon":5.40152,"is_reserved":false,"is_disabled":false,"rental_uris":{"android":"levelo://app?vid=b755083e-3707-4f05-b4c4-98be3ff74df3","ios":"levelo://app?vid=b755083e-3707-4f05-b4c4-98be3ff74df3"},"vehicle_type_id":"4","last_reported":1748383758,"current_range_meters":19200,"station_id":"ce4bgvp2rcd13ifvqct0","pricing_plan_id":"cebpf4jnsgd1na2vs0mg"},{"bike_id":"7988a9b9-ede0-4f0b-8ec2-f1603f01cb15","system_id":"levelo_inurba_marseille","lat":43.30883,"lon":5.39646,"is_reserved":false,"is_disabled":false,"rental_uris":{"android":"levelo://app?vid=7988a9b9-ede0-4f0b-8ec2-f1603f01cb15","ios":"levelo://app?vid=7988a9b9-ede0-4f0b-8ec2-f1603f01cb15"},"vehicle_type_id":"4","last_reported":1748383758,"current_range_meters":19200,"station_id":"ce4bh012rcd13ifvqcv0","pricing_plan_id":"cebpf4jnsgd1na2vs0mg"},{"bike_id":"3c377628-691d-4588-9e03-9307519b6359","system_id":"levelo_inurba_marseille","lat":43.30433,"lon":5.39742,"is_reserved":false,"is_disabled":false,"rental_uris":{"android":"levelo://app?vid=3c377628-691d-4588-9e03-9307519b6359","ios":"levelo://app?vid=3c377628-691d-4588-9e03-9307519b6359"},"vehicle_type_id":"4","last_reported":1748383758,"current_range_meters":19200,"station_id":"ce4bh092rcd13ifvqd20","pricing_plan_id":"cebpf4jnsgd1na2vs0mg"},{"bike_id":"149d5f07-5b78-45fa-9056-90e6990ced65","system_id":"levelo_inurba_marseille","lat":43.28568,"lon":5.39496,"is_reserved":false,"is_disabled":false,"rental_uris":{"android":"levelo://app?vid=149d5f07-5b78-45fa-9056-90e6990ced65","ios":"levelo://app?vid=149d5f07-5b78-45fa-9056-90e6990ced65"},"vehicle_type_id":"4","last_reported":1748383758,"current_range_meters":19200,"station_id":"ce4bh292rcd13ifvqdg0","pricing_plan_id":"cebpf4jnsgd1na2vs0mg"},{"bike_id":"a55af55d-a66a-4ca4-89b5-254351fe9d8a","system_id":"levelo_inurba_marseille","lat":43.298846,"lon":5.389017,"is_reserved":false,"is_disabled":false,"rental_uris":{"android":"levelo://app?vid=a55af55d-a66a-4ca4-89b5-254351fe9d8a","ios":"levelo://app?vid=a55af55d-a66a-4ca4-89b5-254351fe9d8a"},"vehicle_type_id":"4","last_reported":1748383758,"current_range_meters":19200,"station_id":"ce4bh392rcd13ifvqdl0","pricing_plan_id":"cebpf4jnsgd1na2vs0mg"},{"bike_id":"ae843995-d290-46cd-80cd-06fc62dbe21e","system_id":"levelo_inurba_marseille","lat":43.29049,"lon":5.35899,"is_reserved":false,"is_disabled":false,"rental_uris":{"android":"levelo://app?vid=ae843995-d290-46cd-80cd-06fc62dbe21e","ios":"levelo://app?vid=ae843995-d290-46cd-80cd-06fc62dbe21e"},"vehicle_type_id":"4","last_reported":1748383758,"current_range_meters":19200,"station_id":"ce4bha92rcd13ifvqeg0","pricing_plan_id":"cebpf4jnsgd1na2vs0mg"},{"bike_id":"729bf32d-a297-4a8a-8ed9-08e94bf819b6","system_id":"levelo_inurba_marseille","lat":43.3073,"lon":5.42437,"is_reserved":false,"is_disabled":false,"rental_uris":{"android":"levelo://app?vid=729bf32d-a297-4a8a-8ed9-08e94bf819b6","ios":"levelo://app?vid=729bf32d-a297-4a8a-8ed9-08e94bf819b6"},"vehicle_type_id":"4","last_reported":1748383758,"current_range_meters":19200,"station_id":"st_cvj6ca6bvosntc0bfgr0","pricing_plan_id":"cebpf4jnsgd1na2vs0mg"},{"bike_id":"693a4751-c6bb-4ca7-ac5b-2b5a6905dd96","system_id":"levelo_inurba_marseille","lat":43.24335,"lon":5.37993,"is_reserved":false,"is_disabled":false,"rental_uris":{"android":"levelo://app?vid=693a4751-c6bb-4ca7-ac5b-2b5a6905dd96","ios":"levelo://app?vid=693a4751-c6bb-4ca7-ac5b-2b5a6905dd96"},"vehicle_type_id":"4","last_reported":1748383758,"current_range_meters":19600,"station_id":"","pricing_plan_id":"cebpf4jnsgd1na2vs0mg"},{"bike_id":"6e278fbb-e605-4182-ab61-26aebe14ebbd","system_id":"levelo_inurba_marseille","lat":43.30792,"lon":5.3816,"is_reserved":false,"is_disabled":false,"rental_uris":{"android":"levelo://app?vid=6e278fbb-e605-4182-ab61-26aebe14ebbd","ios":"levelo://app?vid=6e278fbb-e605-4182-ab61-26aebe14ebbd"},"vehicle_type_id":"4","last_reported":1748383758,"current_range_meters":19600,"station_id":"ce4bgt12rcd13ifvqce0","pricing_plan_id":"cebpf4jnsgd1na2vs0mg"},{"bike_id":"dc6971fa-d35f-4d71-8e25-6579263133c8","system_id":"levelo_inurba_marseille","lat":43.31072,"lon":5.38351,"is_reserved":false,"is_disabled":false,"rental_uris":{"android":"levelo://app?vid=dc6971fa-d35f-4d71-8e25-6579263133c8","ios":"levelo://app?vid=dc6971fa-d35f-4d71-8e25-6579263133c8"},"vehicle_type_id":"4","last_reported":1748383758,"current_range_meters":19600,"station_id":"ce4bgv92rcd13ifvqcr0","pricing_plan_id":"cebpf4jnsgd1na2vs0mg"},{"bike_id":"6626b783-9b2f-426d-8bf3-336037508619","system_id":"levelo_inurba_marseille","lat":43.30608,"lon":5.39365,"is_reserved":false,"is_disabled":false,"rental_uris":{"android":"levelo://app?vid=6626b783-9b2f-426d-8bf3-336037508619","ios":"levelo://app?vid=6626b783-9b2f-426d-8bf3-336037508619"},"vehicle_type_id":"4","last_reported":1748383758,"current_range_meters":19600,"station_id":"ce4bh0p2rcd13ifvqd80","pricing_plan_id":"cebpf4jnsgd1na2vs0mg"},{"bike_id":"f4983eaa-0108-4395-8d08-04194e1a8e19","system_id":"levelo_inurba_marseille","lat":43.30593,"lon":5.39361,"is_reserved":false,"is_disabled":false,"rental_uris":{"android":"levelo://app?vid=f4983eaa-0108-4395-8d08-04194e1a8e19","ios":"levelo://app?vid=f4983eaa-0108-4395-8d08-04194e1a8e19"},"vehicle_type_id":"4","last_reported":1748383758,"current_range_meters":19600,"station_id":"ce4bh0p2rcd13ifvqd80","pricing_plan_id":"cebpf4jnsgd1na2vs0mg"},{"bike_id":"7384b219-4833-4c8b-870f-b3b1f1458eb4","system_id":"levelo_inurba_marseille","lat":43.30643,"lon":5.40063,"is_reserved":false,"is_disabled":false,"rental_uris":{"android":"levelo://app?vid=7384b219-4833-4c8b-870f-b3b1f1458eb4","ios":"levelo://app?vid=7384b219-4833-4c8b-870f-b3b1f1458eb4"},"vehicle_type_id":"4","last_reported":1748383758,"current_range_meters":19600,"station_id":"ce4bh112rcd13ifvqda0","pricing_plan_id":"cebpf4jnsgd1na2vs0mg"},{"bike_id":"c6fb8ce5-34e4-4b7c-b5a9-af16d9cf8e23","system_id":"levelo_inurba_marseille","lat":43.26565,"lon":5.38998,"is_reserved":false,"is_disabled":false,"rental_uris":{"android":"levelo://app?vid=c6fb8ce5-34e4-4b7c-b5a9-af16d9cf8e23","ios":"levelo://app?vid=c6fb8ce5-34e4-4b7c-b5a9-af16d9cf8e23"},"vehicle_type_id":"4","last_reported":1748383758,"current_range_meters":19600,"station_id":"ce4bhe12rcd13ifvqf30","pricing_plan_id":"cebpf4jnsgd1na2vs0mg"},{"bike_id":"58e50726-299d-4923-905f-f7f097694996","system_id":"levelo_inurba_marseille","lat":43.25086,"lon":5.3952,"is_reserved":false,"is_disabled":false,"rental_uris":{"android":"levelo://app?vid=58e50726-299d-4923-905f-f7f097694996","ios":"levelo://app?vid=58e50726-299d-4923-905f-f7f097694996"},"vehicle_type_id":"4","last_reported":1748383758,"current_range_meters":19600,"station_id":"ce4bhm12rcd13ifvqgkg","pricing_plan_id":"cebpf4jnsgd1na2vs0mg"},{"bike_id":"c6a9609e-f354-4765-80a3-a59d9640fbb1","system_id":"levelo_inurba_marseille","lat":43.27824,"lon":5.40696,"is_reserved":false,"is_disabled":false,"rental_uris":{"android":"levelo://app?vid=c6a9609e-f354-4765-80a3-a59d9640fbb1","ios":"levelo://app?vid=c6a9609e-f354-4765-80a3-a59d9640fbb1"},"vehicle_type_id":"4","last_reported":1748383758,"current_range_meters":19600,"station_id":"ce4bhnh2rcd13ifvqgtg","pricing_plan_id":"cebpf4jnsgd1na2vs0mg"},{"bike_id":"a480806e-9514-4154-85b3-2f5f9baca26f","system_id":"levelo_inurba_marseille","lat":43.28227,"lon":5.39074,"is_reserved":false,"is_disabled":false,"rental_uris":{"android":"levelo://app?vid=a480806e-9514-4154-85b3-2f5f9baca26f","ios":"levelo://app?vid=a480806e-9514-4154-85b3-2f5f9baca26f"},"vehicle_type_id":"4","last_reported":1748383758,"current_range_meters":20000,"station_id":"","pricing_plan_id":"cebpf4jnsgd1na2vs0mg"},{"bike_id":"ab23b45d-55a4-4f45-8515-e9a728e9e7ef","system_id":"levelo_inurba_marseille","lat":43.30553,"lon":5.38436,"is_reserved":false,"is_disabled":false,"rental_uris":{"android":"levelo://app?vid=ab23b45d-55a4-4f45-8515-e9a728e9e7ef","ios":"levelo://app?vid=ab23b45d-55a4-4f45-8515-e9a728e9e7ef"},"vehicle_type_id":"4","last_reported":1748383758,"current_range_meters":20000,"station_id":"ce4bgg92rcd13ifvqb30","pricing_plan_id":"cebpf4jnsgd1na2vs0mg"},{"bike_id":"f022af89-f558-4091-bd3d-abd024db6cac","system_id":"levelo_inurba_marseille","lat":43.306,"lon":5.37222,"is_reserved":false,"is_disabled":false,"rental_uris":{"android":"levelo://app?vid=f022af89-f558-4091-bd3d-abd024db6cac","ios":"levelo://app?vid=f022af89-f558-4091-bd3d-abd024db6cac"},"vehicle_type_id":"4","last_reported":1748383758,"current_range_meters":20000,"station_id":"ce4bgqh2rcd13ifvqc4g","pricing_plan_id":"cebpf4jnsgd1na2vs0mg"},{"bike_id":"61590f09-834e-4eb6-9ba3-616fa85c9926","system_id":"levelo_inurba_marseille","lat":43.30598,"lon":5.39347,"is_reserved":false,"is_disabled":false,"rental_uris":{"android":"levelo://app?vid=61590f09-834e-4eb6-9ba3-616fa85c9926","ios":"levelo://app?vid=61590f09-834e-4eb6-9ba3-616fa85c9926"},"vehicle_type_id":"4","last_reported":1748383758,"current_range_meters":20000,"station_id":"ce4bh0p2rcd13ifvqd80","pricing_plan_id":"cebpf4jnsgd1na2vs0mg"},{"bike_id":"29007d65-5316-4f60-a2af-33c91d22f98b","system_id":"levelo_inurba_marseille","lat":43.28699,"lon":5.37385,"is_reserved":false,"is_disabled":false,"rental_uris":{"android":"levelo://app?vid=29007d65-5316-4f60-a2af-33c91d22f98b","ios":"levelo://app?vid=29007d65-5316-4f60-a2af-33c91d22f98b"},"vehicle_type_id":"4","last_reported":1748383758,"current_range_meters":20000,"station_id":"ce4bh3p2rcd13ifvqdq0","pricing_plan_id":"cebpf4jnsgd1na2vs0mg"},{"bike_id":"bc8fe8d8-5114-4fe5-ae3d-33257c32329d","system_id":"levelo_inurba_marseille","lat":43.28415,"lon":5.37523,"is_reserved":false,"is_disabled":false,"rental_uris":{"android":"levelo://app?vid=bc8fe8d8-5114-4fe5-ae3d-33257c32329d","ios":"levelo://app?vid=bc8fe8d8-5114-4fe5-ae3d-33257c32329d"},"vehicle_type_id":"4","last_reported":1748383758,"current_range_meters":20000,"station_id":"ce4bh412rcd13ifvqds0","pricing_plan_id":"cebpf4jnsgd1na2vs0mg"},{"bike_id":"0cdd34ce-0998-4c58-bab1-2f3e9497b304","system_id":"levelo_inurba_marseille","lat":43.29959,"lon":5.41328,"is_reserved":false,"is_disabled":false,"rental_uris":{"android":"levelo://app?vid=0cdd34ce-0998-4c58-bab1-2f3e9497b304","ios":"levelo://app?vid=0cdd34ce-0998-4c58-bab1-2f3e9497b304"},"vehicle_type_id":"4","last_reported":1748383758,"current_range_meters":20000,"station_id":"ce4bhp12rcd13ifvqh9g","pricing_plan_id":"cebpf4jnsgd1na2vs0mg"},{"bike_id":"435d1a1f-35a7-45ad-ad6b-fa7767471b2e","system_id":"levelo_inurba_marseille","lat":43.330273,"lon":5.390435,"is_reserved":false,"is_disabled":false,"rental_uris":{"android":"levelo://app?vid=435d1a1f-35a7-45ad-ad6b-fa7767471b2e","ios":"levelo://app?vid=435d1a1f-35a7-45ad-ad6b-fa7767471b2e"},"vehicle_type_id":"4","last_reported":1748383758,"current_range_meters":20000,"station_id":"ce4bhr92rcd13ifvqhrg","pricing_plan_id":"cebpf4jnsgd1na2vs0mg"},{"bike_id":"b07d8774-7f5c-4c03-97b5-db64498f48ee","system_id":"levelo_inurba_marseille","lat":43.31363,"lon":5.38485,"is_reserved":false,"is_disabled":false,"rental_uris":{"android":"levelo://app?vid=b07d8774-7f5c-4c03-97b5-db64498f48ee","ios":"levelo://app?vid=b07d8774-7f5c-4c03-97b5-db64498f48ee"},"vehicle_type_id":"4","last_reported":1748383758,"current_range_meters":20400,"station_id":"ce4bgt92rcd13ifvqcf0","pricing_plan_id":"cebpf4jnsgd1na2vs0mg"},{"bike_id":"08ca7669-94b9-4c84-8662-065f181c26c5","system_id":"levelo_inurba_marseille","lat":43.30929,"lon":5.40148,"is_reserved":false,"is_disabled":false,"rental_uris":{"android":"levelo://app?vid=08ca7669-94b9-4c84-8662-065f181c26c5","ios":"levelo://app?vid=08ca7669-94b9-4c84-8662-065f181c26c5"},"vehicle_type_id":"4","last_reported":1748383758,"current_range_meters":20400,"station_id":"ce4bgvp2rcd13ifvqct0","pricing_plan_id":"cebpf4jnsgd1na2vs0mg"},{"bike_id":"631be6ef-185c-491c-a0ab-4ce631d26e9e","system_id":"levelo_inurba_marseille","lat":43.30646,"lon":5.40091,"is_reserved":false,"is_disabled":false,"rental_uris":{"android":"levelo://app?vid=631be6ef-185c-491c-a0ab-4ce631d26e9e","ios":"levelo://app?vid=631be6ef-185c-491c-a0ab-4ce631d26e9e"},"vehicle_type_id":"4","last_reported":1748383758,"current_range_meters":20400,"station_id":"ce4bh112rcd13ifvqda0","pricing_plan_id":"cebpf4jnsgd1na2vs0mg"},{"bike_id":"518de3ac-4f08-47a0-b73d-9b1b1bed145a","system_id":"levelo_inurba_marseille","lat":43.30646,"lon":5.40067,"is_reserved":false,"is_disabled":false,"rental_uris":{"android":"levelo://app?vid=518de3ac-4f08-47a0-b73d-9b1b1bed145a","ios":"levelo://app?vid=518de3ac-4f08-47a0-b73d-9b1b1bed145a"},"vehicle_type_id":"4","last_reported":1748383758,"current_range_meters":20400,"station_id":"ce4bh112rcd13ifvqda0","pricing_plan_id":"cebpf4jnsgd1na2vs0mg"},{"bike_id":"071b6e50-b5c6-4e50-b980-9d274b4b9882","system_id":"levelo_inurba_marseille","lat":43.28849,"lon":5.39298,"is_reserved":false,"is_disabled":false,"rental_uris":{"android":"levelo://app?vid=071b6e50-b5c6-4e50-b980-9d274b4b9882","ios":"levelo://app?vid=071b6e50-b5c6-4e50-b980-9d274b4b9882"},"vehicle_type_id":"4","last_reported":1748383758,"current_range_meters":20400,"station_id":"ce4bh2p2rcd13ifvqdi0","pricing_plan_id":"cebpf4jnsgd1na2vs0mg"},{"bike_id":"53b7357b-cc23-4c1d-a8f8-cf95734c6822","system_id":"levelo_inurba_marseille","lat":43.28668,"lon":5.3635,"is_reserved":false,"is_disabled":false,"rental_uris":{"android":"levelo://app?vid=53b7357b-cc23-4c1d-a8f8-cf95734c6822","ios":"levelo://app?vid=53b7357b-cc23-4c1d-a8f8-cf95734c6822"},"vehicle_type_id":"4","last_reported":1748383758,"current_range_meters":20400,"station_id":"ce4bhah2rcd13ifvqej0","pricing_plan_id":"cebpf4jnsgd1na2vs0mg"},{"bike_id":"3860192c-258a-4363-8d00-d9d8c7c25383","system_id":"levelo_inurba_marseille","lat":43.27422,"lon":5.394127,"is_reserved":false,"is_disabled":false,"rental_uris":{"android":"levelo://app?vid=3860192c-258a-4363-8d00-d9d8c7c25383","ios":"levelo://app?vid=3860192c-258a-4363-8d00-d9d8c7c25383"},