{"last_updated":1730070592,"ttl":60,"version":"2.2","data":{"bikes":[{"bike_id":"796d13f0-dbdb-469e-b237-8b6f408a292a","system_id":"levelo_inurba_marseille","lat":43.28658,"lon":5.36361,"is_reserved":false,"is_disabled":false,"rental_uris":{"android":"levelo://app?vid=796d13f0-dbdb-469e-b237-8b6f408a292a","ios":"levelo://app?vid=796d13f0-dbdb-469e-b237-8b6f408a292a"},"vehicle_type_id":"4","last_reported":1730070592,"current_range_meters":35200,"station_id":"ce4bhah2rcd13ifvqej0","pricing_plan_id":"cebpf4jnsgd1na2vs0mg"},{"bike_id":"724dc614-2190-4e35-bc1b-c3dab9efe590","system_id":"levelo_inurba_marseille","lat":43.28725,"lon":5.36082,"is_reserved":false,"is_disabled":false,"rental_uris":{"android":"levelo://app?vid=724dc614-2190-4e35-bc1b-c3dab9efe590","ios":"levelo://app?vid=724dc614-2190-4e35-bc1b-c3dab9efe590"},"vehicle_type_id":"4","last_reported":1730070592,"current_range_meters":18800,"station_id":"cki0cbj6b192h4jlfktg","pricing_plan_id":"cebpf4jnsgd1na2vs0mg"},{"bike_id":"645e4a67-a45f-4559-bf89-21f7355cc074","system_id":"levelo_inurba_marseille","lat":43.29886,"lon":5.39737,"is_reserved":false,"is_disabled":false,"rental_uris":{"android":"levelo://app?vid=645e4a67-a45f-4559-bf89-21f7355cc074","ios":"levelo://app?vid=645e4a67-a45f-4559-bf89-21f7355cc074"},"vehicle_type_id":"4","last_reported":1730070592,"current_range_meters":37600,"station_id":"ce4bh0h2rcd13ifvqd50","pricing_plan_id":"cebpf4jnsgd1na2vs0mg"},{"bike_id":"1e7c1adc-6e5f-45d9-a75d-a51f2ad067c8","system_id":"levelo_inurba_marseille","lat":43.29895,"lon":5.4367,"is_reserved":false,"is_disabled":false,"rental_uris":{"android":"levelo://app?vid=1e7c1adc-6e5f-45d9-a75d-a51f2ad067c8","ios":"levelo://app?vid=1e7c1adc-6e5f-45d9-a75d-a51f2ad067c8"},"vehicle_type_id":"4","last_reported":1730070592,"current_range_meters":11600,"station_id":"ce4bhpp2rcd13ifvqhfg","pricing_plan_id":"cebpf4jnsgd1na2vs0mg"},{"bike_id":"b6e289e4-f54c-41d4-9b66-a1a2db060b7b","system_id":"levelo_inurba_marseille","lat":43.28463,"lon":5.35896,"is_reserved":false,"is_disabled":false,"rental_uris":{"android":"levelo://app?vid=b6e289e4-f54c-41d4-9b66-a1a2db060b7b","ios":"levelo://app?vid=b6e289e4-f54c-41d4-9b66-a1a2db060b7b"},"vehicle_type_id":"4","last_reported":1730070592,"current_range_meters":38800,"station_id":"ce4bhah2rcd13ifvqei0","pricing_plan_id":"cebpf4jnsgd1na2vs0mg"},{"bike_id":"90b09f7c-4665-4372-8e70-8220f506b4de","system_id":"levelo_inurba_marseille","lat":43.25729,"lon":5.41109,"is_reserved":false,"is_disabled":false,"rental_uris":{"android":"levelo://app?vid=90b09f7c-4665-4372-8e70-8220f506b4de","ios":"levelo://app?vid=90b09f7c-4665-4372-8e70-8220f506b4de"},"vehicle_type_id":"4","last_reported":1730070592,"current_range_meters":15200,"station_id":"ce4bhkp2rcd13ifvqgd0","pricing_plan_id":"cebpf4jnsgd1na2vs0mg"},{"bike_id":"83dc329b-1766-4a0e-99ca-b0b205cf41c3","system_id":"levelo_inurba_marseille","lat":43.28107,"lon":5.37837,"is_reserved":false,"is_disabled":false,"rental_uris":{"android":"levelo://app?vid=83dc329b-1766-4a0e-99ca-b0b205cf41c3","ios":"levelo://app?vid=83dc329b-1766-4a0e-99ca-b0b205cf41c3"},"vehicle_type_id":"4","last_reported":1730070592,"current_range_meters":24800,"station_id":"ce4bha12rcd13ifvqee0","pricing_plan_id":"cebpf4jnsgd1na2vs0mg"},{"bike_id":"160897ef-1d3e-4aeb-9746-85c66d58b719","system_id":"levelo_inurba_marseille","lat":43.2582,"lon":5.39435,"is_reserved":false,"is_disabled":false,"rental_uris":{"android":"levelo://app?vid=160897ef-1d3e-4aeb-9746-85c66d58b719","ios":"levelo://app?vid=160897ef-1d3e-4aeb-9746-85c66d58b719"},"vehicle_type_id":"4","last_reported":1730070592,"current_range_meters":27200,"station_id":"ce4bhip2rcd13ifvqft0","pricing_plan_id":"cebpf4jnsgd1na2vs0mg"},{"bike_id":"18728487-1f41-4027-9752-d42c4c6fc507","system_id":"levelo_inurba_marseille","lat":43.29874,"lon":5.39739,"is_reserved":false,"is_disabled":false,"rental_uris":{"android":"levelo://app?vid=18728487-1f41-4027-9752-d42c4c6fc507","ios":"levelo://app?vid=18728487-1f41-4027-9752-d42c4c6fc507"},"vehicle_type_id":"4","last_reported":1730070592,"current_range_meters":16800,"station_id":"ce4bh0h2rcd13ifvqd50","pricing_plan_id":"cebpf4jnsgd1na2vs0mg"},{"bike_id":"bccce493-792e-40e4-8a9d-8fc23fb84135","system_id":"levelo_inurba_marseille","lat":43.29568,"lon":5.37514,"is_reserved":false,"is_disabled":false,"rental_uris":{"android":"levelo://app?vid=bccce493-792e-40e4-8a9d-8fc23fb84135","ios":"levelo://app?vid=bccce493-792e-40e4-8a9d-8fc23fb84135"},"vehicle_type_id":"4","last_reported":1730070592,"current_range_meters":38800,"station_id":"ce4bgh92rcd13ifvqb50","pricing_plan_id":"cebpf4jnsgd1na2vs0mg"},{"bike_id":"5a273d38-2138-412f-9ccc-fe2117529145","system_id":"levelo_inurba_marseille","lat":43.28722,"lon":5.37937,"is_reserved":false,"is_disabled":false,"rental_uris":{"android":"levelo://app?vid=5a273d38-2138-412f-9ccc-fe2117529145","ios":"levelo://app?vid=5a273d38-2138-412f-9ccc-fe2117529145"},"vehicle_type_id":"4","last_reported":1730070592,"current_range_meters":38000,"station_id":"ce4bh9p2rcd13ifvqec0","pricing_plan_id":"cebpf4jnsgd1na2vs0mg"},{"bike_id":"e1395604-316e-4ef3-9482-76e16d240733","system_id":"levelo_inurba_marseille","lat":43.308905,"lon":5.396439,"is_reserved":false,"is_disabled":false,"rental_uris":{"android":"levelo://app?vid=e1395604-316e-4ef3-9482-76e16d240733","ios":"levelo://app?vid=e1395604-316e-4ef3-9482-76e16d240733"},"vehicle_type_id":"4","last_reported":1730070592,"current_range_meters":22800,"station_id":"ce4bh012rcd13ifvqcv0","pricing_plan_id":"cebpf4jnsgd1na2vs0mg"},{"bike_id":"e2971513-5509-43da-a4bb-a3d89812546c","system_id":"levelo_inurba_marseille","lat":43.250067,"lon":5.389153,"is_reserved":false,"is_disabled":false,"rental_uris":{"android":"levelo://app?vid=e2971513-5509-43da-a4bb-a3d89812546c","ios":"levelo://app?vid=e2971513-5509-43da-a4bb-a3d89812546c"},"vehicle_type_id":"4","last_reported":1730070592,"current_range_meters":8000,"station_id":"ce4bhgp2rcd13ifvqfd0","pricing_plan_id":"cebpf4jnsgd1na2vs0mg"},{"bike_id":"4e76489d-b1e0-4ba9-adfd-a21d6b553c02","system_id":"levelo_inurba_marseille","lat":43.25112,"lon":5.40326,"is_reserved":false,"is_disabled":false,"rental_uris":{"android":"levelo://app?vid=4e76489d-b1e0-4ba9-adfd-a21d6b553c02","ios":"levelo://app?vid=4e76489d-b1e0-4ba9-adfd-a21d6b553c02"},"vehicle_type_id":"4","last_reported":1730070592,"current_range_meters":36400,"station_id":"ce4bhlh2rcd13ifvqgig","pricing_plan_id":"cebpf4jnsgd1na2vs0mg"},{"bike_id":"713f5c9e-116f-4c28-99ae-d5eb1c1249d0","system_id":"levelo_inurba_marseille","lat":43.27974,"lon":5.40046,"is_reserved":false,"is_disabled":false,"rental_uris":{"android":"levelo://app?vid=713f5c9e-116f-4c28-99ae-d5eb1c1249d0","ios":"levelo://app?vid=713f5c9e-116f-4c28-99ae-d5eb1c1249d0"},"vehicle_type_id":"4","last_reported":1730070592,"current_range_meters":38400,"station_id":"ce4bho92rcd13ifvqh4g","pricing_plan_id":"cebpf4jnsgd1na2vs0mg"},{"bike_id":"a531fcfe-00f9-4d5e-bf0b-055819806b8e","system_id":"levelo_inurba_marseille","lat":43.31323,"lon":5.39694,"is_reserved":false,"is_disabled":false,"rental_uris":{"android":"levelo://app?vid=a531fcfe-00f9-4d5e-bf0b-055819806b8e","ios":"levelo://app?vid=a531fcfe-00f9-4d5e-bf0b-055819806b8e"},"vehicle_type_id":"4","last_reported":1730070592,"current_range_meters":36000,"station_id":"ce4bgvp2rcd13ifvqcu0","pricing_plan_id":"cebpf4jnsgd1na2vs0mg"},{"bike_id":"a0afcde7-78ee-4ece-84c5-aff9aa0d1fd9","system_id":"levelo_inurba_marseille","lat":43.29908,"lon":5.37486,"is_reserved":false,"is_disabled":false,"rental_uris":{"android":"levelo://app?vid=a0afcde7-78ee-4ece-84c5-aff9aa0d1fd9","ios":"levelo://app?vid=a0afcde7-78ee-4ece-84c5-aff9aa0d1fd9"},"vehicle_type_id":"4","last_reported":1730070592,"current_range_meters":33600,"station_id":"ce4bgjh2rcd13ifvqbg0","pricing_plan_id":"cebpf4jnsgd1na2vs0mg"},{"bike_id":"804ab3e9-2a31-4b35-ab7d-b81e9937d544","system_id":"levelo_inurba_marseille","lat":43.30302,"lon":5.39209,"is_reserved":false,"is_disabled":false,"rental_uris":{"android":"levelo://app?vid=804ab3e9-2a31-4b35-ab7d-b81e9937d544","ios":"levelo://app?vid=804ab3e9-2a31-4b35-ab7d-b81e9937d544"},"vehicle_type_id":"4","last_reported":1730070592,"current_range_meters":34000,"station_id":"ce4bgkh2rcd13ifvqbk0","pricing_plan_id":"cebpf4jnsgd1na2vs0mg"},{"bike_id":"eb74aa32-c49d-4202-bac3-91a96c4d4783","system_id":"levelo_inurba_marseille","lat":43.30807,"lon":5.36982,"is_reserved":false,"is_disabled":false,"rental_uris":{"android":"levelo://app?vid=eb74aa32-c49d-4202-bac3-91a96c4d4783","ios":"levelo://app?vid=eb74aa32-c49d-4202-bac3-91a96c4d4783"},"vehicle_type_id":"4","last_reported":1730070592,"current_range_meters":19200,"station_id":"ce4bguh2rcd13ifvqckg","pricing_plan_id":"cebpf4jnsgd1na2vs0mg"},{"bike_id":"8fea6a8c-1bba-48fa-bae2-6e9923e9bf31","system_id":"levelo_inurba_marseille","lat":43.31175,"lon":5.3872,"is_reserved":false,"is_disabled":false,"rental_uris":{"android":"levelo://app?vid=8fea6a8c-1bba-48fa-bae2-6e9923e9bf31","ios":"levelo://app?vid=8fea6a8c-1bba-48fa-bae2-6e9923e9bf31"},"vehicle_type_id":"4","last_reported":1730070592,"current_range_meters":24400,"station_id":"ce4bgv12rcd13ifvqcp0","pricing_plan_id":"cebpf4jnsgd1na2vs0mg"},{"bike_id":"84e374c4-fc62-498f-bc8b-cb0b8a3e0a0c","system_id":"levelo_inurba_marseille","lat":43.25728,"lon":5.41113,"is_reserved":false,"is_disabled":false,"rental_uris":{"android":"levelo://app?vid=84e374c4-fc62-498f-bc8b-cb0b8a3e0a0c","ios":"levelo://app?vid=84e374c4-fc62-498f-bc8b-cb0b8a3e0a0c"},"vehicle_type_id":"4","last_reported":1730070592,"current_range_meters":38800,"station_id":"ce4bhkp2rcd13ifvqgd0","pricing_plan_id":"cebpf4jnsgd1na2vs0mg"},{"bike_id":"eaf566eb-b09e-46d4-b187-2147ca599082","system_id":"levelo_inurba_marseille","lat":43.30948,"lon":5.39042,"is_reserved":false,"is_disabled":false,"rental_uris":{"android":"levelo://app?vid=eaf566eb-b09e-46d4-b187-2147ca599082","ios":"levelo://app?vid=eaf566eb-b09e-46d4-b187-2147ca599082"},"vehicle_type_id":"4","last_reported":1730070592,"current_range_meters":19600,"station_id":"ce4bgup2rcd13ifvqco0","pricing_plan_id":"cebpf4jnsgd1na2vs0mg"},{"bike_id":"48e40d75-ca0c-48e5-ae31-b42eeb6f4184","system_id":"levelo_inurba_marseille","lat":43.31078,"lon":5.38362,"is_reserved":false,"is_disabled":false,"rental_uris":{"android":"levelo://app?vid=48e40d75-ca0c-48e5-ae31-b42eeb6f4184","ios":"levelo://app?vid=48e40d75-ca0c-48e5-ae31-b42eeb6f4184"},"vehicle_type_id":"4","last_reported":1730070592,"current_range_meters":14000,"station_id":"ce4bgv92rcd13ifvqcr0","pricing_plan_id":"cebpf4jnsgd1na2vs0mg"},{"bike_id":"090c043d-c75d-4799-97ee-f225f61fa3ea","system_id":"levelo_inurba_marseille","lat":43.28157,"lon":5.42644,"is_reserved":false,"is_disabled":false,"rental_uris":{"android":"levelo://app?vid=090c043d-c75d-4799-97ee-f225f61fa3ea","ios":"levelo://app?vid=090c043d-c75d-4799-97ee-f225f61fa3ea"},"vehicle_type_id":"4","last_reported":1730070592,"current_range_meters":18000,"station_id":"ce4bhnh2rcd13ifvqgug","pricing_plan_id":"cebpf4jnsgd1na2vs0mg"},{"bike_id":"04be2868-2aab-4e6c-8872-303c9381e9e2","system_id":"levelo_inurba_marseille","lat":43.30069,"lon":5.40103,"is_reserved":false,"is_disabled":false,"rental_uris":{"android":"levelo://app?vid=04be2868-2aab-4e6c-8872-303c9381e9e2","ios":"levelo://app?vid=04be2868-2aab-4e6c-8872-303c9381e9e2"},"vehicle_type_id":"4","last_reported":1730070592,"current_range_meters":11200,"station_id":"ce4bh112rcd13ifvqd90","pricing_plan_id":"cebpf4jnsgd1na2vs0mg"},{"bike_id":"c70c3f6b-a8d0-434d-b9f6-e5c66a62c638","system_id":"levelo_inurba_marseille","lat":43.31762,"lon":5.39026,"is_reserved":false,"is_disabled":false,"rental_uris":{"android":"levelo://app?vid=c70c3f6b-a8d0-434d-b9f6-e5c66a62c638","ios":"levelo://app?vid=c70c3f6b-a8d0-434d-b9f6-e5c66a62c638"},"vehicle_type_id":"4","last_reported":1730070592,"current_range_meters":6000,"station_id":"ce4bhqp2rcd13ifvqhng","pricing_plan_id":"cebpf4jnsgd1na2vs0mg"},{"bike_id":"05839fd9-f9ea-458d-8238-2d78d6845397","system_id":"levelo_inurba_marseille","lat":43.30415,"lon":5.40089,"is_reserved":false,"is_disabled":false,"rental_uris":{"android":"levelo://app?vid=05839fd9-f9ea-458d-8238-2d78d6845397","ios":"levelo://app?vid=05839fd9-f9ea-458d-8238-2d78d6845397"},"vehicle_type_id":"4","last_reported":1730070592,"current_range_meters":33600,"station_id":"ce4bh112rcd13ifvqda0","pricing_plan_id":"cebpf4jnsgd1na2vs0mg"},{"bike_id":"7b87e6db-3f7a-48c8-83b0-5ba95a586374","system_id":"levelo_inurba_marseille","lat":43.28457,"lon":5.35891,"is_reserved":false,"is_disabled":false,"rental_uris":{"android":"levelo://app?vid=7b87e6db-3f7a-48c8-83b0-5ba95a586374","ios":"levelo://app?vid=7b87e6db-3f7a-48c8-83b0-5ba95a586374"},"vehicle_type_id":"4","last_reported":1730070592,"current_range_meters":14800,"station_id":"ce4bhah2rcd13ifvqei0","pricing_plan_id":"cebpf4jnsgd1na2vs0mg"},{"bike_id":"2ab6a876-b383-42be-8174-3b09d00c2764","system_id":"levelo_inurba_marseille","lat":43.22927,"lon":5.35374,"is_reserved":false,"is_disabled":false,"rental_uris":{"android":"levelo://app?vid=2ab6a876-b383-42be-8174-3b09d00c2764","ios":"levelo://app?vid=2ab6a876-b383-42be-8174-3b09d00c2764"},"vehicle_type_id":"4","last_reported":1730070592,"current_range_meters":38800,"station_id":"cpo3532slgdg3j2ikp40","pricing_plan_id":"cebpf4jnsgd1na2vs0mg"},{"bike_id":"885f8dd2-91f7-4ef6-9993-cc1af36f0309","system_id":"levelo_inurba_marseille","lat":43.28103,"lon":5.37841,"is_reserved":false,"is_disabled":false,"rental_uris":{"android":"levelo://app?vid=885f8dd2-91f7-4ef6-9993-cc1af36f0309","ios":"levelo://app?vid=885f8dd2-91f7-4ef6-9993-cc1af36f0309"},"vehicle_type_id":"4","last_reported":1730070592,"current_range_meters":32800,"station_id":"ce4bha12rcd13ifvqee0","pricing_plan_id":"cebpf4jnsgd1na2vs0mg"},{"bike_id":"f8da188e-27f9-4404-9276-e402b0c7c251","system_id":"levelo_inurba_marseille","lat":43.28567,"lon":5.39498,"is_reserved":false,"is_disabled":false,"rental_uris":{"android":"levelo://app?vid=f8da188e-27f9-4404-9276-e402b0c7c251","ios":"levelo://app?vid=f8da188e-27f9-4404-9276-e402b0c7c251"},"vehicle_type_id":"4","last_reported":1730070592,"current_range_meters":33600,"station_id":"ce4bh292rcd13ifvqdg0","pricing_plan_id":"cebpf4jnsgd1na2vs0mg"},{"bike_id":"e9d2627b-0323-4f6a-bb61-f8fed2e2d6e2","system_id":"levelo_inurba_marseille","lat":43.2418,"lon":5.39712,"is_reserved":false,"is_disabled":false,"rental_uris":{"android":"levelo://app?vid=e9d2627b-0323-4f6a-bb61-f8fed2e2d6e2","ios":"levelo://app?vid=e9d2627b-0323-4f6a-bb61-f8fed2e2d6e2"},"vehicle_type_id":"4","last_reported":1730070592,"current_range_meters":12400,"station_id":"ce4bhn12rcd13ifvqgpg","pricing_plan_id":"cebpf4jnsgd1na2vs0mg"},{"bike_id":"711ea989-9bbd-4a86-a947-8e287449186f","system_id":"levelo_inurba_marseille","lat":43.22923,"lon":5.35377,"is_reserved":false,"is_disabled":false,"rental_uris":{"android":"levelo://app?vid=711ea989-9bbd-4a86-a947-8e287449186f","ios":"levelo://app?vid=711ea989-9bbd-4a86-a947-8e287449186f"},"vehicle_type_id":"4","last_reported":1730070592,"current_range_meters":38800,"station_id":"cpo3532slgdg3j2ikp40","pricing_plan_id":"cebpf4jnsgd1na2vs0mg"},{"bike_id":"1dbad7da-c97d-4f8d-9410-6b4584849860","system_id":"levelo_inurba_marseille","lat":43.29556,"lon":5.42295,"is_reserved":false,"is_disabled":false,"rental_uris":{"android":"levelo://app?vid=1dbad7da-c97d-4f8d-9410-6b4584849860","ios":"levelo://app?vid=1dbad7da-c97d-4f8d-9410-6b4584849860"},"vehicle_type_id":"4","last_reported":1730070592,"current_range_meters":16000,"station_id":"ce4bhph2rcd13ifvqhdg","pricing_plan_id":"cebpf4jnsgd1na2vs0mg"},{"bike_id":"27f39214-437b-402f-ba70-e8fd46f4e41b","system_id":"levelo_inurba_marseille","lat":43.284955,"lon":5.369326,"is_reserved":false,"is_disabled":false,"rental_uris":{"android":"levelo://app?vid=27f39214-437b-402f-ba70-e8fd46f4e41b","ios":"levelo://app?vid=27f39214-437b-402f-ba70-e8fd46f4e41b"},"vehicle_type_id":"4","last_reported":1730070592,"current_range_meters":16800,"station_id":"","pricing_plan_id":"cebpf4jnsgd1na2vs0mg"},{"bike_id":"bd4e1a28-5e3f-420f-8236-1634e6a8a61d","system_id":"levelo_inurba_marseille","lat":43.25585,"lon":5.3823,"is_reserved":false,"is_disabled":false,"rental_uris":{"android":"levelo://app?vid=bd4e1a28-5e3f-420f-8236-1634e6a8a61d","ios":"levelo://app?vid=bd4e1a28-5e3f-420f-8236-1634e6a8a61d"},"vehicle_type_id":"4","last_reported":1730070592,"current_range_meters":38800,"station_id":"ce4bhih2rcd13ifvqfs0","pricing_plan_id":"cebpf4jnsgd1na2vs0mg"},{"bike_id":"d1dacee6-8f47-4ca5-823b-a2ea6c3413e8","system_id":"levelo_inurba_marseille","lat":43.23193,"lon":5.35556,"is_reserved":false,"is_disabled":false,"rental_uris":{"android":"levelo://app?vid=d1dacee6-8f47-4ca5-823b-a2ea6c3413e8","ios":"levelo://app?vid=d1dacee6-8f47-4ca5-823b-a2ea6c3413e8"},"vehicle_type_id":"4","last_reported":1730070592,"current_range_meters":38000,"station_id":"ce4bhu92rcd13ifvqi70","pricing_plan_id":"cebpf4jnsgd1na2vs0mg"},{"bike_id":"a6965f49-eb39-4825-8976-1f87c42f05ca","system_id":"levelo_inurba_marseille","lat":43.28699,"lon":5.39988,"is_reserved":false,"is_disabled":false,"rental_uris":{"android":"levelo://app?vid=a6965f49-eb39-4825-8976-1f87c42f05ca","ios":"levelo://app?vid=a6965f49-eb39-4825-8976-1f87c42f05ca"},"vehicle_type_id":"4","last_reported":1730070592,"current_range_meters":30800,"station_id":"ce4bho92rcd13ifvqh3g","pricing_plan_id":"cebpf4jnsgd1na2vs0mg"},{"bike_id":"73bf1d48-4811-483c-9cf9-ca83aa18090a","system_id":"levelo_inurba_marseille","lat":43.3136,"lon":5.38492,"is_reserved":false,"is_disabled":false,"rental_uris":{"android":"levelo://app?vid=73bf1d48-4811-483c-9cf9-ca83aa18090a","ios":"levelo://app?vid=73bf1d48-4811-483c-9cf9-ca83aa18090a"},"vehicle_type_id":"4","last_reported":1730070592,"current_range_meters":26000,"station_id":"ce4bgt92rcd13ifvqcf0","pricing_plan_id":"cebpf4jnsgd1na2vs0mg"},{"bike_id":"3e9dcef7-ab51-498e-9e24-fefbe1288868","system_id":"levelo_inurba_marseille","lat":43.28723,"lon":5.37933,"is_reserved":false,"is_disabled":false,"rental_uris":{"android":"levelo://app?vid=3e9dcef7-ab51-498e-9e24-fefbe1288868","ios":"levelo://app?vid=3e9dcef7-ab51-498e-9e24-fefbe1288868"},"vehicle_type_id":"4","last_reported":1730070592,"current_range_meters":28800,"station_id":"ce4bh9p2rcd13ifvqec0","pricing_plan_id":"cebpf4jnsgd1na2vs0mg"},{"bike_id":"f485cf2b-ddbf-4193-a10a-2c5038f271dc","system_id":"levelo_inurba_marseille","lat":43.26027,"lon":5.37551,"is_reserved":false,"is_disabled":false,"rental_uris":{"android":"levelo://app?vid=f485cf2b-ddbf-4193-a10a-2c5038f271dc","ios":"levelo://app?vid=f485cf2b-ddbf-4193-a10a-2c5038f271dc"},"vehicle_type_id":"4","last_reported":1730070592,"current_range_meters":38800,"station_id":"ce4bhgh2rcd13ifvqfa0","pricing_plan_id":"cebpf4jnsgd1na2vs0mg"},{"bike_id":"0735b41e-71a4-4766-b4b6-d17376be3df2","system_id":"levelo_inurba_marseille","lat":43.301237,"lon":5.398582,"is_reserved":false,"is_disabled":false,"rental_uris":{"android":"levelo://app?vid=0735b41e-71a4-4766-b4b6-d17376be3df2","ios":"levelo://app?vid=0735b41e-71a4-4766-b4b6-d17376be3df2"},"vehicle_type_id":"4","last_reported":1730070592,"current_range_meters":24400,"station_id":"ce4bh0h2rcd13ifvqd40","pricing_plan_id":"cebpf4jnsgd1na2vs0mg"},{"bike_id":"062c37a5-8c98-4262-a368-0baffa13b81a","system_id":"levelo_inurba_marseille","lat":43.29555,"lon":5.42291,"is_reserved":false,"is_disabled":false,"rental_uris":{"android":"levelo://app?vid=062c37a5-8c98-4262-a368-0baffa13b81a","ios":"levelo://app?vid=062c37a5-8c98-4262-a368-0baffa13b81a"},"vehicle_type_id":"4","last_reported":1730070592,"current_range_meters":21600,"station_id":"ce4bhph2rcd13ifvqhdg","pricing_plan_id":"cebpf4jnsgd1na2vs0mg"},{"bike_id":"c617479c-40f2-49ac-ae62-20a0a7b2a8a7","system_id":"levelo_inurba_marseille","lat":43.30594,"lon":5.3722,"is_reserved":false,"is_disabled":false,"rental_uris":{"android":"levelo://app?vid=c617479c-40f2-49ac-ae62-20a0a7b2a8a7","ios":"levelo://app?vid=c617479c-40f2-49ac-ae62-20a0a7b2a8a7"},"vehicle_type_id":"4","last_reported":1730070592,"current_range_meters":38800,"station_id":"ce4bgqh2rcd13ifvqc4g","pricing_plan_id":"cebpf4jnsgd1na2vs0mg"},{"bike_id":"20d2749c-e6f3-4094-af86-7f1bb0f7bf36","system_id":"levelo_inurba_marseille","lat":43.26027,"lon":5.37589,"is_reserved":false,"is_disabled":false,"rental_uris":{"android":"levelo://app?vid=20d2749c-e6f3-4094-af86-7f1bb0f7bf36","ios":"levelo://app?vid=20d2749c-e6f3-4094-af86-7f1bb0f7bf36"},"vehicle_type_id":"4","last_reported":1730070592,"current_range_meters":35200,"station_id":"ce4bhgh2rcd13ifvqfa0","pricing_plan_id":"cebpf4jnsgd1na2vs0mg"},{"bike_id":"66f3a9a7-dc9e-4420-ba07-600dafb22f7e","system_id":"levelo_inurba_marseille","lat":43.27024,"lon":5.36472,"is_reserved":false,"is_disabled":false,"rental_uris":{"android":"levelo://app?vid=66f3a9a7-dc9e-4420-ba07-600dafb22f7e","ios":"levelo://app?vid=66f3a9a7-dc9e-4420-ba07-600dafb22f7e"},"vehicle_type_id":"4","last_reported":1730070592,"current_range_meters":11600,"station_id":"","pricing_plan_id":"cebpf4jnsgd1na2vs0mg"},{"bike_id":"fb0fb3bd-9991-459b-b6be-e6c91b7de3e3","system_id":"levelo_inurba_marseille","lat":43.28104,"lon":5.37831,"is_reserved":false,"is_disabled":false,"rental_uris":{"android":"levelo://app?vid=fb0fb3bd-9991-459b-b6be-e6c91b7de3e3","ios":"levelo://app?vid=fb0fb3bd-9991-459b-b6be-e6c91b7de3e3"},"vehicle_type_id":"4","last_reported":1730070592,"current_range_meters":24000,"station_id":"ce4bha12rcd13ifvqee0","pricing_plan_id":"cebpf4jnsgd1na2vs0mg"},{"bike_id":"49d48a20-ca55-4e3a-abd2-6bef373d1253","system_id":"levelo_inurba_marseille","lat":43.23064,"lon":5.35496,"is_reserved":false,"is_disabled":false,"rental_uris":{"android":"levelo://app?vid=49d48a20-ca55-4e3a-abd2-6bef373d1253","ios":"levelo://app?vid=49d48a20-ca55-4e3a-abd2-6bef373d1253"},"vehicle_type_id":"4","last_reported":1730070592,"current_range_meters":38400,"station_id":"cpo3342slgdg3j2ifvpg","pricing_plan_id":"cebpf4jnsgd1na2vs0mg"},{"bike_id":"e166311b-ab8b-4b53-b2d9-495939d8c0b8","system_id":"levelo_inurba_marseille","lat":43.3021,"lon":5.39475,"is_reserved":false,"is_disabled":false,"rental_uris":{"android":"levelo://app?vid=e166311b-ab8b-4b53-b2d9-495939d8c0b8","ios":"levelo://app?vid=e166311b-ab8b-4b53-b2d9-495939d8c0b8"},"vehicle_type_id":"4","last_reported":1730070592,"current_range_meters":19200,"station_id":"ce4bh0p2rcd13ifvqd70","pricing_plan_id":"cebpf4jnsgd1na2vs0mg"},{"bike_id":"14c45dc6-f9f1-4916-ba78-8b92ecd5d852","system_id":"levelo_inurba_marseille","lat":43.262268,"lon":5.375579,"is_reserved":false,"is_disabled":false,"rental_uris":{"android":"levelo://app?vid=14c45dc6-f9f1-4916-ba78-8b92ecd5d852","ios":"levelo://app?vid=14c45dc6-f9f1-4916-ba78-8b92ecd5d852"},"vehicle_type_id":"4","last_reported":1730070592,"current_range_meters":2800,"station_id":"ce4bhhp2rcd13ifvqfm0","pricing_plan_id":"cebpf4jnsgd1na2vs0mg"},{"bike_id":"6875a1a6-32b9-4783-93f5-84a3a0c85f67","system_id":"levelo_inurba_marseille","lat":43.23068,"lon":5.35499,"is_reserved":false,"is_disabled":false,"rental_uris":{"android":"levelo://app?vid=6875a1a6-32b9-4783-93f5-84a3a0c85f67","ios":"levelo://app?vid=6875a1a6-32b9-4783-93f5-84a3a0c85f67"},"vehicle_type_id":"4","last_reported":1730070592,"current_range_meters":23200,"station_id":"cpo3342slgdg3j2ifvpg","pricing_plan_id":"cebpf4jnsgd1na2vs0mg"},{"bike_id":"7daba550-57fa-427b-a443-0c724a890480","system_id":"levelo_inurba_marseille","lat":43.29978,"lon":5.37189,"is_reserved":false,"is_disabled":false,"rental_uris":{"android":"levelo://app?vid=7daba550-57fa-427b-a443-0c724a890480","ios":"levelo://app?vid=7daba550-57fa-427b-a443-0c724a890480"},"vehicle_type_id":"4","last_reported":1730070592,"current_range_meters":37600,"station_id":"ce4bgr92rcd13ifvqc7g","pricing_plan_id":"cebpf4jnsgd1na2vs0mg"},{"bike_id":"9a8331a1-6c4c-4c94-94cb-22a14384360e","system_id":"levelo_inurba_marseille","lat":43.305664,"lon":5.372753,"is_reserved":false,"is_disabled":false,"rental_uris":{"android":"levelo://app?vid=9a8331a1-6c4c-4c94-94cb-22a14384360e","ios":"levelo://app?vid=9a8331a1-6c4c-4c94-94cb-22a14384360e"},"vehicle_type_id":"4","last_reported":1730070592,"current_range_meters":28000,"station_id":"","pricing_plan_id":"cebpf4jnsgd1na2vs0mg"},{"bike_id":"e89036ab-06cb-459b-91f1-830ff3435de6","system_id":"levelo_inurba_marseille","lat":43.2319,"lon":5.35548,"is_reserved":false,"is_disabled":false,"rental_uris":{"android":"levelo://app?vid=e89036ab-06cb-459b-91f1-830ff3435de6","ios":"levelo://app?vid=e89036ab-06cb-459b-91f1-830ff3435de6"},"vehicle_type_id":"4","last_reported":1730070592,"current_range_meters":38800,"station_id":"ce4bhu92rcd13ifvqi70","pricing_plan_id":"cebpf4jnsgd1na2vs0mg"},{"bike_id":"29e4d27e-c275-400d-963d-7448af940e61","system_id":"levelo_inurba_marseille","lat":43.32334,"lon":5.40621,"is_reserved":false,"is_disabled":false,"rental_uris":{"android":"levelo://app?vid=29e4d27e-c275-400d-963d-7448af940e61","ios":"levelo://app?vid=29e4d27e-c275-400d-963d-7448af940e61"},"vehicle_type_id":"4","last_reported":1730070592,"current_range_meters":22000,"station_id":"ce4bhq92rcd13ifvqhjg","pricing_plan_id":"cebpf4jnsgd1na2vs0mg"},{"bike_id":"66fb00a7-295c-492a-b5c9-538d3dea086f","system_id":"levelo_inurba_marseille","lat":43.23184,"lon":5.4372,"is_reserved":false,"is_disabled":false,"rental_uris":{"android":"levelo://app?vid=66fb00a7-295c-492a-b5c9-538d3dea086f","ios":"levelo://app?vid=66fb00a7-295c-492a-b5c9-538d3dea086f"},"vehicle_type_id":"4","last_reported":1730070592,"current_range_meters":24000,"station_id":"","pricing_plan_id":"cebpf4jnsgd1na2vs0mg"},{"bike_id":"f54ac4a4-b721-41ff-800d-9bd8d7cd93a8","system_id":"levelo_inurba_marseille","lat":43.29021,"lon":5.38142,"is_reserved":false,"is_disabled":false,"rental_uris":{"android":"levelo://app?vid=f54ac4a4-b721-41ff-800d-9bd8d7cd93a8","ios":"levelo://app?vid=f54ac4a4-b721-41ff-800d-9bd8d7cd93a8"},"vehicle_type_id":"4","last_reported":1730070592,"current_range_meters":38800,"station_id":"ce4bh4p2rcd13ifvqe1g","pricing_plan_id":"cebpf4jnsgd1na2vs0mg"},{"bike_id":"3ab2eae3-f854-4b01-8cde-e6fd82ccdb82","system_id":"levelo_inurba_marseille","lat":43.29515,"lon":5.39403,"is_reserved":false,"is_disabled":false,"rental_uris":{"android":"levelo://app?vid=3ab2eae3-f854-4b01-8cde-e6fd82ccdb82","ios":"levelo://app?vid=3ab2eae3-f854-4b01-8cde-e6fd82ccdb82"},"vehicle_type_id":"4","last_reported":1730070592,"current_range_meters":14800,"station_id":"ce4bh292rcd13ifvqdf0","pricing_plan_id":"cebpf4jnsgd1na2vs0mg"},{"bike_id":"7fe76d9c-88a1-4c85-8e5f-9f86d7557849","system_id":"levelo_inurba_marseille","lat":43.23152,"lon":5.4372,"is_reserved":false,"is_disabled":false,"rental_uris":{"android":"levelo://app?vid=7fe76d9c-88a1-4c85-8e5f-9f86d7557849","ios":"levelo://app?vid=7fe76d9c-88a1-4c85-8e5f-9f86d7557849"},"vehicle_type_id":"4","last_reported":1730070592,"current_range_meters":30000,"station_id":"ce4bhmp2rcd13ifvqgog","pricing_plan_id":"cebpf4jnsgd1na2vs0mg"},{"bike_id":"5d013205-968f-46f0-8cb2-f55d13ad5ff4","system_id":"levelo_inurba_marseille","lat":43.32475,"lon":5.36574,"is_reserved":false,"is_disabled":false,"rental_uris":{"android":"levelo://app?vid=5d013205-968f-46f0-8cb2-f55d13ad5ff4","ios":"levelo://app?vid=5d013205-968f-46f0-8cb2-f55d13ad5ff4"},"vehicle_type_id":"4","last_reported":1730070592,"current_range_meters":38800,"station_id":"ce4bhs12rcd13ifvqhvg","pricing_plan_id":"cebpf4jnsgd1na2vs0mg"},{"bike_id":"91f4f450-5f74-431d-b936-587b46889ea2","system_id":"levelo_inurba_marseille","lat":43.29913,"lon":5.38145,"is_reserved":false,"is_disabled":false,"rental_uris":{"android":"levelo://app?vid=91f4f450-5f74-431d-b936-587b46889ea2","ios":"levelo://app?vid=91f4f450-5f74-431d-b936-587b46889ea2"},"vehicle_type_id":"4","last_reported":1730070592,"current_range_meters":32400,"station_id":"ce4bgj12rcd13ifvqbc0","pricing_plan_id":"cebpf4jnsgd1na2vs0mg"},{"bike_id":"22dca55f-d5f5-4b3f-83a3-47072ff8d3bb","system_id":"levelo_inurba_marseille","lat":43.31333,"lon":5.36703,"is_reserved":false,"is_disabled":false,"rental_uris":{"android":"levelo://app?vid=22dca55f-d5f5-4b3f-83a3-47072ff8d3bb","ios":"levelo://app?vid=22dca55f-d5f5-4b3f-83a3-47072ff8d3bb"},"vehicle_type_id":"4","last_reported":1730070592,"current_range_meters":19600,"station_id":"ce4bgr92rcd13ifvqc6g","pricing_plan_id":"cebpf4jnsgd1na2vs0mg"},{"bike_id":"86f483fb-7146-45bb-9a75-9c8b7e96431b","system_id":"levelo_inurba_marseille","lat":43.30297,"lon":5.3921,"is_reserved":false,"is_disabled":false,"rental_uris":{"android":"levelo://app?vid=86f483fb-7146-45bb-9a75-9c8b7e96431b","ios":"levelo://app?vid=86f483fb-7146-45bb-9a75-9c8b7e96431b"},"vehicle_type_id":"4","last_reported":1730070592,"current_range_meters":24800,"station_id":"ce4bgkh2rcd13ifvqbk0","pricing_plan_id":"cebpf4jnsgd1na2vs0mg"},{"bike_id":"bdc54b50-50bc-412f-8ba6-23bc7543a137","system_id":"levelo_inurba_marseille","lat":43.32369,"lon":5.38886,"is_reserved":false,"is_disabled":false,"rental_uris":{"android":"levelo://app?vid=bdc54b50-50bc-412f-8ba6-23bc7543a137","ios":"levelo://app?vid=bdc54b50-50bc-412f-8ba6-23bc7543a137"},"vehicle_type_id":"4","last_reported":1730070592,"current_range_meters":24000,"station_id":"ce4bhqp2rcd13ifvqhog","pricing_plan_id":"cebpf4jnsgd1na2vs0mg"},{"bike_id":"dc408d0f-b451-4c96-9d06-39735057a541","system_id":"levelo_inurba_marseille","lat":43.28716,"lon":5.36083,"is_reserved":false,"is_disabled":false,"rental_uris":{"android":"levelo://app?vid=dc408d0f-b451-4c96-9d06-39735057a541","ios":"levelo://app?vid=dc408d0f-b451-4c96-9d06-39735057a541"},"vehicle_type_id":"4","last_reported":1730070592,"current_range_meters":32000,"station_id":"cki0cbj6b192h4jlfktg","pricing_plan_id":"cebpf4jnsgd1na2vs0mg"},{"bike_id":"eba855d6-bb86-4b54-87b1-b102aa1a672a","system_id":"levelo_inurba_marseille","lat":43.31755,"lon":5.3903,"is_reserved":false,"is_disabled":false,"rental_uris":{"android":"levelo://app?vid=eba855d6-bb86-4b54-87b1-b102aa1a672a","ios":"levelo://app?vid=eba855d6-bb86-4b54-87b1-b102aa1a672a"},"vehicle_type_id":"4","last_reported":1730070592,"current_range_meters":38800,"station_id":"ce4bhqp2rcd13ifvqhng","pricing_plan_id":"cebpf4jnsgd1na2vs0mg"},{"bike_id":"3d822701-cfd6-42b9-b711-72bd3e903ecb","system_id":"levelo_inurba_marseille","lat":43.25113,"lon":5.40321,"is_reserved":false,"is_disabled":false,"rental_uris":{"android":"levelo://app?vid=3d822701-cfd6-42b9-b711-72bd3e903ecb","ios":"levelo://app?vid=3d822701-cfd6-42b9-b711-72bd3e903ecb"},"vehicle_type_id":"4","last_reported":1730070592,"current_range_meters":14000,"station_id":"ce4bhlh2rcd13ifvqgig","pricing_plan_id":"cebpf4jnsgd1na2vs0mg"},{"bike_id":"f2510b72-7e55-4d25-ac93-c226c89cf60e","system_id":"levelo_inurba_marseille","lat":43.30311,"lon":5.36888,"is_reserved":false,"is_disabled":false,"rental_uris":{"android":"levelo://app?vid=f2510b72-7e55-4d25-ac93-c226c89cf60e","ios":"levelo://app?vid=f2510b72-7e55-4d25-ac93-c226c89cf60e"},"vehicle_type_id":"4","last_reported":1730070592,"current_range_meters":38800,"station_id":"ce4bgqh2rcd13ifvqc5g","pricing_plan_id":"cebpf4jnsgd1na2vs0mg"},{"bike_id":"ef915c69-a746-473b-bdc6-ca2cdbe5bac9","system_id":"levelo_inurba_marseille","lat":43.32294,"lon":5.38272,"is_reserved":false,"is_disabled":false,"rental_uris":{"android":"levelo://app?vid=ef915c69-a746-473b-bdc6-ca2cdbe5bac9","ios":"levelo://app?vid=ef915c69-a746-473b-bdc6-ca2cdbe5bac9"},"vehicle_type_id":"4","last_reported":1730070592,"current_range_meters":35600,"station_id":"ce4bhr12rcd13ifvqhqg","pricing_plan_id":"cebpf4jnsgd1na2vs0mg"},{"bike_id":"3d5a1e4f-9eaf-4518-a7d4-cd942bb61755","system_id":"levelo_inurba_marseille","lat":43.28709,"lon":5.39983,"is_reserved":false,"is_disabled":false,"rental_uris":{"android":"levelo://app?vid=3d5a1e4f-9eaf-4518-a7d4-cd942bb61755","ios":"levelo://app?vid=3d5a1e4f-9eaf-4518-a7d4-cd942bb61755"},"vehicle_type_id":"4","last_reported":1730070592,"current_range_meters":30400,"station_id":"ce4bho92rcd13ifvqh3g","pricing_plan_id":"cebpf4jnsgd1na2vs0mg"},{"bike_id":"cd8988cf-34e0-4cd8-92c1-67d3cd8c964e","system_id":"levelo_inurba_marseille","lat":43.23957,"lon":5.36628,"is_reserved":false,"is_disabled":false,"rental_uris":{"android":"levelo://app?vid=cd8988cf-34e0-4cd8-92c1-67d3cd8c964e","ios":"levelo://app?vid=cd8988cf-34e0-4cd8-92c1-67d3cd8c964e"},"vehicle_type_id":"4","last_reported":1730070592,"current_range_meters":13600,"station_id":"ce4bhi12rcd13ifvqfp0","pricing_plan_id":"cebpf4jnsgd1na2vs0mg"},{"bike_id":"4b4c881c-be97-49d5-9517-45cef8c368a3","system_id":"levelo_inurba_marseille","lat":43.31714,"lon":5.43725,"is_reserved":false,"is_disabled":false,"rental_uris":{"android":"levelo://app?vid=4b4c881c-be97-49d5-9517-45cef8c368a3","ios":"levelo://app?vid=4b4c881c-be97-49d5-9517-45cef8c368a3"},"vehicle_type_id":"4","last_reported":1730070592,"current_range_meters":33200,"station_id":"ce4bhp92rcd13ifvqhcg","pricing_plan_id":"cebpf4jnsgd1na2vs0mg"},{"bike_id":"5825dba0-0004-4870-b108-b368b679fc1f","system_id":"levelo_inurba_marseille","lat":43.29788,"lon":5.393525,"is_reserved":false,"is_disabled":false,"rental_uris":{"android":"levelo://app?vid=5825dba0-0004-4870-b108-b368b679fc1f","ios":"levelo://app?vid=5825dba0-0004-4870-b108-b368b679fc1f"},"vehicle_type_id":"4","last_reported":1730070592,"current_range_meters":38800,"station_id":"chh1huq6cuj3fo74tm60","pricing_plan_id":"cebpf4jnsgd1na2vs0mg"},{"bike_id":"1747cfa9-b040-4698-b581-4316c2e2fdf4","system_id":"levelo_inurba_marseille","lat":43.3021,"lon":5.39469,"is_reserved":false,"is_disabled":false,"rental_uris":{"android":"levelo://app?vid=1747cfa9-b040-4698-b581-4316c2e2fdf4","ios":"levelo://app?vid=1747cfa9-b040-4698-b581-4316c2e2fdf4"},"vehicle_type_id":"4","last_reported":1730070592,"current_range_meters":28000,"station_id":"ce4bh0p2rcd13ifvqd70","pricing_plan_id":"cebpf4jnsgd1na2vs0mg"},{"bike_id":"97aea651-a68f-4129-a1f2-0c368fe7bbe6","system_id":"levelo_inurba_marseille","lat":43.303252,"lon":5.404317,"is_reserved":false,"is_disabled":false,"rental_uris":{"android":"levelo://app?vid=97aea651-a68f-4129-a1f2-0c368fe7bbe6","ios":"levelo://app?vid=97aea651-a68f-4129-a1f2-0c368fe7bbe6"},"vehicle_type_id":"4","last_reported":1730070592,"current_range_meters":17200,"station_id":"ce4bgop2rcd13ifvqc1g","pricing_plan_id":"cebpf4jnsgd1na2vs0mg"},{"bike_id":"4461f702-9d41-45c6-b89e-9f584ce5f30d","system_id":"levelo_inurba_marseille","lat":43.28946,"lon":5.36402,"is_reserved":false,"is_disabled":false,"rental_uris":{"android":"levelo://app?vid=4461f702-9d41-45c6-b89e-9f584ce5f30d","ios":"levelo://app?vid=4461f702-9d41-45c6-b89e-9f584ce5f30d"},"vehicle_type_id":"4","last_reported":1730070592,"current_range_meters":28800,"station_id":"ce4bhc92rcd13ifvqetg","pricing_plan_id":"cebpf4jnsgd1na2vs0mg"},{"bike_id":"84f08a96-7694-4052-9b8f-f2301671f41d","system_id":"levelo_inurba_marseille","lat":43.29869,"lon":5.3974,"is_reserved":false,"is_disabled":false,"rental_uris":{"android":"levelo://app?vid=84f08a96-7694-4052-9b8f-f2301671f41d","ios":"levelo://app?vid=84f08a96-7694-4052-9b8f-f2301671f41d"},"vehicle_type_id":"4","last_reported":1730070592,"current_range_meters":8400,"station_id":"ce4bh0h2rcd13ifvqd50","pricing_plan_id":"cebpf4jnsgd1na2vs0mg"},{"bike_id":"a8308e2d-fe60-4d7a-a240-0d92564717ef","system_id":"levelo_inurba_marseille","lat":43.33607,"lon":5.41039,"is_reserved":false,"is_disabled":false,"rental_uris":{"android":"levelo://app?vid=a8308e2d-fe60-4d7a-a240-0d92564717ef","ios":"levelo://app?vid=a8308e2d-fe60-4d7a-a240-0d92564717ef"},"vehicle_type_id":"4","last_reported":1730070592,"current_range_meters":29600,"station_id":"ce4bhqh2rcd13ifvqhmg","pricing_plan_id":"cebpf4jnsgd1na2vs0mg"},{"bike_id":"9ac06857-e5cf-459f-87b4-75d0710bcab5","system_id":"levelo_inurba_marseille","lat":43.32336,"lon":5.40624,"is_reserved":false,"is_disabled":false,"rental_uris":{"android":"levelo://app?vid=9ac06857-e5cf-459f-87b4-75d0710bcab5","ios":"levelo://app?vid=9ac06857-e5cf-459f-87b4-75d0710bcab5"},"vehicle_type_id":"4","last_reported":1730070592,"current_range_meters":17200,"station_id":"ce4bhq92rcd13ifvqhjg","pricing_plan_id":"cebpf4jnsgd1na2vs0mg"},{"bike_id":"22ca0989-6470-4735-a8b1-883f9bf848b8","system_id":"levelo_inurba_marseille","lat":43.24548,"lon":5.39525,"is_reserved":false,"is_disabled":false,"rental_uris":{"android":"levelo://app?vid=22ca0989-6470-4735-a8b1-883f9bf848b8","ios":"levelo://app?vid=22ca0989-6470-4735-a8b1-883f9bf848b8"},"vehicle_type_id":"4","last_reported":1730070592,"current_range_meters":18800,"station_id":"ce4bhlp2rcd13ifvqgjg","pricing_plan_id":"cebpf4jnsgd1na2vs0mg"},{"bike_id":"aacb3cb6-ebb2-4c9a-9d59-1efc9a1b694e","system_id":"levelo_inurba_marseille","lat":43.25113,"lon":5.40322,"is_reserved":false,"is_disabled":false,"rental_uris":{"android":"levelo://app?vid=aacb3cb6-ebb2-4c9a-9d59-1efc9a1b694e","ios":"levelo://app?vid=aacb3cb6-ebb2-4c9a-9d59-1efc9a1b694e"},"vehicle_type_id":"4","last_reported":1730070592,"current_range_meters":10800,"station_id":"ce4bhlh2rcd13ifvqgig","pricing_plan_id":"cebpf4jnsgd1na2vs0mg"},{"bike_id":"9a6f3c88-75ee-4af6-8e5a-d3b9f7d3021b","system_id":"levelo_inurba_marseille","lat":43.30252,"lon":5.40067,"is_reserved":false,"is_disabled":false,"rental_uris":{"android":"levelo://app?vid=9a6f3c88-75ee-4af6-8e5a-d3b9f7d3021b","ios":"levelo://app?vid=9a6f3c88-75ee-4af6-8e5a-d3b9f7d3021b"},"vehicle_type_id":"4","last_reported":1730070592,"current_range_meters":27600,"station_id":"ce4bgvh2rcd13ifvqcs0","pricing_plan_id":"cebpf4jnsgd1na2vs0mg"},{"bike_id":"9adafdd8-3240-48a9-a8cf-b77695dc96b2","system_id":"levelo_inurba_marseille","lat":43.32367,"lon":5.38885,"is_reserved":false,"is_disabled":false,"rental_uris":{"android":"levelo://app?vid=9adafdd8-3240-48a9-a8cf-b77695dc96b2","ios":"levelo://app?vid=9adafdd8-3240-48a9-a8cf-b77695dc96b2"},"vehicle_type_id":"4","last_reported":1730070592,"current_range_meters":38800,"station_id":"ce4bhqp2rcd13ifvqhog","pricing_plan_id":"cebpf4jnsgd1na2vs0mg"},{"bike_id":"8d66ba2e-e771-4c67-99ad-ef2d113002e3","system_id":"levelo_inurba_marseille","lat":43.25087,"lon":5.39523,"is_reserved":false,"is_disabled":false,"rental_uris":{"android":"levelo://app?vid=8d66ba2e-e771-4c67-99ad-ef2d113002e3","ios":"levelo://app?vid=8d66ba2e-e771-4c67-99ad-ef2d113002e3"},"vehicle_type_id":"4","last_reported":1730070592,"current_range_meters":38800,"station_id":"ce4bhm12rcd13ifvqgkg","pricing_plan_id":"cebpf4jnsgd1na2vs0mg"},{"bike_id":"6981206a-d30e-4a3d-914c-c893cef2a8e3","system_id":"levelo_inurba_marseille","lat":43.28689,"lon":5.39988,"is_reserved":false,"is_disabled":false,"rental_uris":{"android":"levelo://app?vid=6981206a-d30e-4a3d-914c-c893cef2a8e3","ios":"levelo://app?vid=6981206a-d30e-4a3d-914c-c893cef2a8e3"},"vehicle_type_id":"4","last_reported":1730070592,"current_range_meters":39200,"station_id":"ce4bho92rcd13ifvqh3g","pricing_plan_id":"cebpf4jnsgd1na2vs0mg"},{"bike_id":"7736dd09-94cb-4ed7-8c60-e4d633c89494","system_id":"levelo_inurba_marseille","lat":43.29788,"lon":5.39352,"is_reserved":false,"is_disabled":false,"rental_uris":{"android":"levelo://app?vid=7736dd09-94cb-4ed7-8c60-e4d633c89494","ios":"levelo://app?vid=7736dd09-94cb-4ed7-8c60-e4d633c89494"},"vehicle_type_id":"4","last_reported":1730070592,"current_range_meters":32400,"station_id":"chh1huq6cuj3fo74tm60","pricing_plan_id":"cebpf4jnsgd1na2vs0mg"},{"bike_id":"bff575ca-c255-4a46-8a9d-4bac098e697d","system_id":"levelo_inurba_marseille","lat":43.28457,"lon":5.35889,"is_reserved":false,"is_disabled":false,"rental_uris":{"android":"levelo://app?vid=bff575ca-c255-4a46-8a9d-4bac098e697d","ios":"levelo://app?vid=bff575ca-c255-4a46-8a9d-4bac098e697d"},"vehicle_type_id":"4","last_reported":1730070592,"current_range_meters":14800,"station_id":"ce4bhah2rcd13ifvqei0","pricing_plan_id":"cebpf4jnsgd1na2vs0mg"},{"bike_id":"1fafbe93-2ba4-4077-bfcf-7b3992b30a25","system_id":"levelo_inurba_marseille","lat":43.29551,"lon":5.42285,"is_reserved":false,"is_disabled":false,"rental_uris":{"android":"levelo://app?vid=1fafbe93-2ba4-4077-bfcf-7b3992b30a25","ios":"levelo://app?vid=1fafbe93-2ba4-4077-bfcf-7b3992b30a25"},"vehicle_type_id":"4","last_reported":1730070592,"current_range_meters":38800,"station_id":"ce4bhph2rcd13ifvqhdg","pricing_plan_id":"cebpf4jnsgd1na2vs0mg"},{"bike_id":"0727f7fa-8959-4af5-8998-b27de5da9a6d","system_id":"levelo_inurba_marseille","lat":43.31367,"lon":5.38501,"is_reserved":false,"is_disabled":false,"rental_uris":{"android":"levelo://app?vid=0727f7fa-8959-4af5-8998-b27de5da9a6d","ios":"levelo://app?vid=0727f7fa-8959-4af5-8998-b27de5da9a6d"},"vehicle_type_id":"4","last_reported":1730070592,"current_range_meters":40000,"station_id":"ce4bgt92rcd13ifvqcf0","pricing_plan_id":"cebpf4jnsgd1na2vs0mg"},{"bike_id":"e9f6b129-07d2-4973-b040-d362cec307cd","system_id":"levelo_inurba_marseille","lat":43.298889,"lon":5.387905,"is_reserved":false,"is_disabled":false,"rental_uris":{"android":"levelo://app?vid=e9f6b129-07d2-4973-b040-d362cec307cd","ios":"levelo://app?vid=e9f6b129-07d2-4973-b040-d362cec307cd"},"vehicle_type_id":"4","last_reported":1730070592,"current_range_meters":38400,"station_id":"ce4bh392rcd13ifvqdl0","pricing_plan_id":"cebpf4jnsgd1na2vs0mg"},{"bike_id":"60b2524f-8257-4ee4-88ec-e868f21b8c6d","system_id":"levelo_inurba_marseille","lat":43.2972,"lon":5.36624,"is_reserved":false,"is_disabled":false,"rental_uris":{"android":"levelo://app?vid=60b2524f-8257-4ee4-88ec-e868f21b8c6d","ios":"levelo://app?vid=60b2524f-8257-4ee4-88ec-e868f21b8c6d"},"vehicle_type_id":"4","last_reported":1730070592,"current_range_meters":26000,"station_id":"ce4bgn12rcd13ifvqbt0","pricing_plan_id":"cebpf4jnsgd1na2vs0mg"},{"bike_id":"91d85bed-e01e-4c53-bef7-3f7b97da4ec7","system_id":"levelo_inurba_marseille","lat":43.303,"lon":5.39219,"is_reserved":false,"is_disabled":false,"rental_uris":{"android":"levelo://app?vid=91d85bed-e01e-4c53-bef7-3f7b97da4ec7","ios":"levelo://app?vid=91d85bed-e01e-4c53-bef7-3f7b97da4ec7"},"vehicle_type_id":"4","last_reported":1730070592,"current_range_meters":27200,"station_id":"ce4bgkh2rcd13ifvqbk0","pricing_plan_id":"cebpf4jnsgd1na2vs0mg"},{"bike_id":"584c0bb4-1d8a-46db-8f0d-4817ae9f0034","system_id":"levelo_inurba_marseille","lat":43.308898,"lon":5.371936,"is_reserved":false,"is_disabled":false,"rental_uris":{"android":"levelo://app?vid=584c0bb4-1d8a-46db-8f0d-4817ae9f0034","ios":"levelo://app?vid=584c0bb4-1d8a-46db-8f0d-4817ae9f0034"},"vehicle_type_id":"4","last_reported":1730070592,"current_range_meters":38800,"station_id":"ce4bguh2rcd13ifvqckg","pricing_plan_id":"cebpf4jnsgd1na2vs0mg"},{"bike_id":"96daa32e-c8e6-4bca-9c28-c08d2824e18e","system_id":"levelo_inurba_marseille","lat":43.29277,"lon":5.4012,"is_reserved":false,"is_disabled":false,"rental_uris":{"android":"levelo://app?vid=96daa32e-c8e6-4bca-9c28-c08d2824e18e","ios":"levelo://app?vid=96daa32e-c8e6-4bca-9c28-c08d2824e18e"},"vehicle_type_id":"4","last_reported":1730070592,"current_range_meters":26800,"station_id":"ce4bh312rcd13ifvqdk0","pricing_plan_id":"cebpf4jnsgd1na2vs0mg"},{"bike_id":"e113f747-4daa-44f7-a218-9e030daa2565","system_id":"levelo_inurba_marseille","lat":43.32104,"lon":5.36773,"is_reserved":false,"is_disabled":false,"rental_uris":{"android":"levelo://app?vid=e113f747-4daa-44f7-a218-9e030daa2565","ios":"levelo://app?vid=e113f747-4daa-44f7-a218-9e030daa2565"},"vehicle_type_id":"4","last_reported":1730070592,"current_range_meters":24400,"station_id":"ce4bhrh2rcd13ifvqhug","pricing_plan_id":"cebpf4jnsgd1na2vs0mg"},{"bike_id":"c83bf92a-895e-4031-90cc-0a4806604b3f","system_id":"levelo_inurba_marseille","lat":43.23053,"lon":5.35497,"is_reserved":false,"is_disabled":false,"rental_uris":{"android":"levelo://app?vid=c83bf92a-895e-4031-90cc-0a4806604b3f","ios":"levelo://app?vid=c83bf92a-895e-4031-90cc-0a4806604b3f"},"vehicle_type_id":"4","last_reported":1730070592,"current_range_meters":38800,"station_id":"cpo3342slgdg3j2ifvpg","pricing_plan_id":"cebpf4jnsgd1na2vs0mg"},{"bike_id":"33e5e27c-5a4e-45f1-9065-6b6ad147ea8d","system_id":"levelo_inurba_marseille","lat":43.29971,"lon":5.37191,"is_reserved":false,"is_disabled":false,"rental_uris":{"android":"levelo://app?vid=33e5e27c-5a4e-45f1-9065-6b6ad147ea8d","ios":"levelo://app?vid=33e5e27c-5a4e-45f1-9065-6b6ad147ea8d"},"vehicle_type_id":"4","last_reported":1730070592,"current_range_meters":38800,"station_id":"ce4bgr92rcd13ifvqc7g","pricing_plan_id":"cebpf4jnsgd1na2vs0mg"},{"bike_id":"9fd56fad-5f3d-42b4-b491-7b57b76bc0cf","system_id":"levelo_inurba_marseille","lat":43.27814,"lon":5.40718,"is_reserved":false,"is_disabled":false,"rental_uris":{"android":"levelo://app?vid=9fd56fad-5f3d-42b4-b491-7b57b76bc0cf","ios":"levelo://app?vid=9fd56fad-5f3d-42b4-b491-7b57b76bc0cf"},"vehicle_type_id":"4","last_reported":1730070592,"current_range_meters":20400,"station_id":"ce4bhnh2rcd13ifvqgtg","pricing_plan_id":"cebpf4jnsgd1na2vs0mg"},{"bike_id":"bc75bc36-53c2-40d2-a77d-675682863779","system_id":"levelo_inurba_marseille","lat":43.30949,"lon":5.39043,"is_reserved":false,"is_disabled":false,"rental_uris":{"android":"levelo://app?vid=bc75bc36-53c2-40d2-a77d-675682863779","ios":"levelo://app?vid=bc75bc36-53c2-40d2-a77d-675682863779"},"vehicle_type_id":"4","last_reported":1730070592,"current_range_meters":6000,"station_id":"ce4bgup2rcd13ifvqco0","pricing_plan_id":"cebpf4jnsgd1na2vs0mg"},{"bike_id":"1a6b642e-e085-4146-a0f3-57a2127d50e2","system_id":"levelo_inurba_marseille","lat":43.31852,"lon":5.38764,"is_reserved":false,"is_disabled":false,"rental_uris":{"android":"levelo://app?vid=1a6b642e-e085-4146-a0f3-57a2127d50e2","ios":"levelo://app?vid=1a6b642e-e085-4146-a0f3-57a2127d50e2"},"vehicle_type_id":"4","last_reported":1730070592,"current_range_meters":9200,"station_id":"ce4bhqp2rcd13ifvqhng","pricing_plan_id":"cebpf4jnsgd1na2vs0mg"},{"bike_id":"b502ad4f-4825-42a7-9380-4b1fe6eb7c94","system_id":"levelo_inurba_marseille","lat":43.29959,"lon":5.41323,"is_reserved":false,"is_disabled":false,"rental_uris":{"android":"levelo://app?vid=b502ad4f-4825-42a7-9380-4b1fe6eb7c94","ios":"levelo://app?vid=b502ad4f-4825-42a7-9380-4b1fe6eb7c94"},"vehicle_type_id":"4","last_reported":1730070592,"current_range_meters":38400,"station_id":"ce4bhp12rcd13ifvqh9g","pricing_plan_id":"cebpf4jnsgd1na2vs0mg"},{"bike_id":"b04efa54-544e-4d58-9594-ae7e10fe76cf","system_id":"levelo_inurba_marseille","lat":43.25872,"lon":5.39899,"is_reserved":false,"is_disabled":false,"rental_uris":{"android":"levelo://app?vid=b04efa54-544e-4d58-9594-ae7e10fe76cf","ios":"levelo://app?vid=b04efa54-544e-4d58-9594-ae7e10fe76cf"},"vehicle_type_id":"4","last_reported":1730070592,"current_range_meters":9600,"station_id":"ce4bhl92rcd13ifvqghg","pricing_plan_id":"cebpf4jnsgd1na2vs0mg"},{"bike_id":"410bd732-1574-46df-b1c7-461dee6fbdd0","system_id":"levelo_inurba_marseille","lat":43.29261,"lon":5.40909,"is_reserved":false,"is_disabled":false,"rental_uris":{"android":"levelo://app?vid=410bd732-1574-46df-b1c7-461dee6fbdd0","ios":"levelo://app?vid=410bd732-1574-46df-b1c7-461dee6fbdd0"},"vehicle_type_id":"4","last_reported":1730070592,"current_range_meters":35600,"station_id":"ce4bh192rcd13ifvqdc0","pricing_plan_id":"cebpf4jnsgd1na2vs0mg"},{"bike_id":"1d0d92b7-f6c1-4ccd-8c1f-6182976eb675","system_id":"levelo_inurba_marseille","lat":43.26209,"lon":5.37928,"is_reserved":false,"is_disabled":false,"rental_uris":{"android":"levelo://app?vid=1d0d92b7-f6c1-4ccd-8c1f-6182976eb675","ios":"levelo://app?vid=1d0d92b7-f6c1-4ccd-8c1f-6182976eb675"},"vehicle_type_id":"4","last_reported":1730070592,"current_range_meters":36400,"station_id":"ce4bhjp2rcd13ifvqg90","pricing_plan_id":"cebpf4jnsgd1na2vs0mg"},{"bike_id":"a8f9e5f1-9109-4bb3-bf33-6f5251bd1cff","system_id":"levelo_inurba_marseille","lat":43.30608,"lon":5.37224,"is_reserved":false,"is_disabled":false,"rental_uris":{"android":"levelo://app?vid=a8f9e5f1-9109-4bb3-bf33-6f5251bd1cff","ios":"levelo://app?vid=a8f9e5f1-9109-4bb3-bf33-6f5251bd1cff"},"vehicle_type_id":"4","last_reported":1730070592,"current_range_meters":16800,"station_id":"ce4bgqh2rcd13ifvqc4g","pricing_plan_id":"cebpf4jnsgd1na2vs0mg"},{"bike_id":"f1704452-cc24-4a74-8351-c1aa1bec66cb","system_id":"levelo_inurba_marseille","lat":43.28835,"lon":5.35874,"is_reserved":false,"is_disabled":false,"rental_uris":{"android":"levelo://app?vid=f1704452-cc24-4a74-8351-c1aa1bec66cb","ios":"levelo://app?vid=f1704452-cc24-4a74-8351-c1aa1bec66cb"},"vehicle_type_id":"4","last_reported":1730070592,"current_range_meters":29600,"station_id":"ce4bhb12rcd13ifvqem0","pricing_plan_id":"cebpf4jnsgd1na2vs0mg"},{"bike_id":"bb43b68b-eba2-4125-9e9f-ebf8a22cffee","system_id":"levelo_inurba_marseille","lat":43.31759,"lon":5.39018,"is_reserved":false,"is_disabled":false,"rental_uris":{"android":"levelo://app?vid=bb43b68b-eba2-4125-9e9f-ebf8a22cffee","ios":"levelo://app?vid=bb43b68b-eba2-4125-9e9f-ebf8a22cffee"},"vehicle_type_id":"4","last_reported":1730070592,"current_range_meters":30800,"station_id":"ce4bhqp2rcd13ifvqhng","pricing_plan_id":"cebpf4jnsgd1na2vs0mg"},{"bike_id":"60f60a7f-97f6-470f-a502-15e06dd3d680","system_id":"levelo_inurba_marseille","lat":43.23153,"lon":5.4372,"is_reserved":false,"is_disabled":false,"rental_uris":{"android":"levelo://app?vid=60f60a7f-97f6-470f-a502-15e06dd3d680","ios":"levelo://app?vid=60f60a7f-97f6-470f-a502-15e06dd3d680"},"vehicle_type_id":"4","last_reported":1730070592,"current_range_meters":12000,"station_id":"ce4bhmp2rcd13ifvqgog","pricing_plan_id":"cebpf4jnsgd1na2vs0mg"},{"bike_id":"630e8ee7-2ca4-4214-9e45-0804a2e1bf1d","system_id":"levelo_inurba_marseille","lat":43.3188,"lon":5.40739,"is_reserved":false,"is_disabled":false,"rental_uris":{"android":"levelo://app?vid=630e8ee7-2ca4-4214-9e45-0804a2e1bf1d","ios":"levelo://app?vid=630e8ee7-2ca4-4214-9e45-0804a2e1bf1d"},"vehicle_type_id":"4","last_reported":1730070592,"current_range_meters":8800,"station_id":"ce4bhq12rcd13ifvqhig","pricing_plan_id":"cebpf4jnsgd1na2vs0mg"},{"bike_id":"2b32cc72-402e-40a1-a52e-d0c9131d539f","system_id":"levelo_inurba_marseille","lat":43.27371,"lon":5.36259,"is_reserved":false,"is_disabled":false,"rental_uris":{"android":"levelo://app?vid=2b32cc72-402e-40a1-a52e-d0c9131d539f","ios":"levelo://app?vid=2b32cc72-402e-40a1-a52e-d0c9131d539f"},"vehicle_type_id":"4","last_reported":1730070592,"current_range_meters":8000,"station_id":"ce4bhbh2rcd13ifvqeo0","pricing_plan_id":"cebpf4jnsgd1na2vs0mg"},{"bike_id":"ba7ff12b-4fb3-47ea-b304-85ab8fca1364","system_id":"levelo_inurba_marseille","lat":43.32286,"lon":5.38283,"is_reserved":false,"is_disabled":false,"rental_uris":{"android":"levelo://app?vid=ba7ff12b-4fb3-47ea-b304-85ab8fca1364","ios":"levelo://app?vid=ba7ff12b-4fb3-47ea-b304-85ab8fca1364"},"vehicle_type_id":"4","last_reported":1730070592,"current_range_meters":39200,"station_id":"ce4bhr12rcd13ifvqhqg","pricing_plan_id":"cebpf4jnsgd1na2vs0mg"},{"bike_id":"0c8e91d5-48c5-48c3-9198-c07a15466f99","system_id":"levelo_inurba_marseille","lat":43.29567,"lon":5.39967,"is_reserved":false,"is_disabled":false,"rental_uris":{"android":"levelo://app?vid=0c8e91d5-48c5-48c3-9198-c07a15466f99","ios":"levelo://app?vid=0c8e91d5-48c5-48c3-9198-c07a15466f99"},"vehicle_type_id":"4","last_reported":1730070592,"current_range_meters":33600,"station_id":"ce4bh312rcd13ifvqdj0","pricing_plan_id":"cebpf4jnsgd1na2vs0mg"},{"bike_id":"3175915b-2fbf-4d22-8776-58128d4114a6","system_id":"levelo_inurba_marseille","lat":43.27996,"lon":5.416628,"is_reserved":false,"is_disabled":false,"rental_uris":{"android":"levelo://app?vid=3175915b-2fbf-4d22-8776-58128d4114a6","ios":"levelo://app?vid=3175915b-2fbf-4d22-8776-58128d4114a6"},"vehicle_type_id":"4","last_reported":1730070592,"current_range_meters":6000,"station_id":"ce4bho12rcd13ifvqh1g","pricing_plan_id":"cebpf4jnsgd1na2vs0mg"},{"bike_id":"2842f46d-2e4d-42ec-9460-60174175b404","system_id":"levelo_inurba_marseille","lat":43.25109,"lon":5.40319,"is_reserved":false,"is_disabled":false,"rental_uris":{"android":"levelo://app?vid=2842f46d-2e4d-42ec-9460-60174175b404","ios":"levelo://app?vid=2842f46d-2e4d-42ec-9460-60174175b404"},"vehicle_type_id":"4","last_reported":1730070592,"current_range_meters":30400,"station_id":"ce4bhlh2rcd13ifvqgig","pricing_plan_id":"cebpf4jnsgd1na2vs0mg"},{"bike_id":"5e4153f1-7e88-496d-bd82-780dbc5e3dfa","system_id":"levelo_inurba_marseille","lat":43.26494,"lon":5.39542,"is_reserved":false,"is_disabled":false,"rental_uris":{"android":"levelo://app?vid=5e4153f1-7e88-496d-bd82-780dbc5e3dfa","ios":"levelo://app?vid=5e4153f1-7e88-496d-bd82-780dbc5e3dfa"},"vehicle_type_id":"4","last_reported":1730070592,"current_range_meters":38000,"station_id":"ce4bhi12rcd13ifvqfq0","pricing_plan_id":"cebpf4jnsgd1na2vs0mg"},{"bike_id":"f7a50275-88a4-4be4-ac33-5cce1242cfaa","system_id":"levelo_inurba_marseille","lat":43.31711,"lon":5.37754,"is_reserved":false,"is_disabled":false,"rental_uris":{"android":"levelo://app?vid=f7a50275-88a4-4be4-ac33-5cce1242cfaa","ios":"levelo://app?vid=f7a50275-88a4-4be4-ac33-5cce1242cfaa"},"vehicle_type_id":"4","last_reported":1730070592,"current_range_meters":39200,"station_id":"ce4bgth2rcd13ifvqch0","pricing_plan_id":"cebpf4jnsgd1na2vs0mg"},{"bike_id":"53e995e6-add3-40f6-8acb-cde71469a9f4","system_id":"levelo_inurba_marseille","lat":43.31173,"lon":5.38714,"is_reserved":false,"is_disabled":false,"rental_uris":{"android":"levelo://app?vid=53e995e6-add3-40f6-8acb-cde71469a9f4","ios":"levelo://app?vid=53e995e6-add3-40f6-8acb-cde71469a9f4"},"vehicle_type_id":"4","last_reported":1730070592,"current_range_meters":28400,"station_id":"ce4bgv12rcd13ifvqcp0","pricing_plan_id":"cebpf4jnsgd1na2vs0mg"},{"bike_id":"e20c89c8-49fc-48c0-8a85-ade3d59fe2fc","system_id":"levelo_inurba_marseille","lat":43.25105,"lon":5.40324,"is_reserved":false,"is_disabled":false,"rental_uris":{"android":"levelo://app?vid=e20c89c8-49fc-48c0-8a85-ade3d59fe2fc","ios":"levelo://app?vid=e20c89c8-49fc-48c0-8a85-ade3d59fe2fc"},"vehicle_type_id":"4","last_reported":1730070592,"current_range_meters":33600,"station_id":"ce4bhlh2rcd13ifvqgig","pricing_plan_id":"cebpf4jnsgd1na2vs0mg"},{"bike_id":"59e82a4e-1841-4082-84ae-50a5176e85f8","system_id":"levelo_inurba_marseille","lat":43.29676,"lon":5.37293,"is_reserved":false,"is_disabled":false,"rental_uris":{"android":"levelo://app?vid=59e82a4e-1841-4082-84ae-50a5176e85f8","ios":"levelo://app?vid=59e82a4e-1841-4082-84ae-50a5176e85f8"},"vehicle_type_id":"4","last_reported":1730070592,"current_range_meters":38000,"station_id":"ce4bgk12rcd13ifvqbj0","pricing_plan_id":"cebpf4jnsgd1na2vs0mg"},{"bike_id":"abc5207f-d86f-4e31-9ce9-ca2d68d828ba","system_id":"levelo_inurba_marseille","lat":43.24996,"lon":5.38931,"is_reserved":false,"is_disabled":false,"rental_uris":{"android":"levelo://app?vid=abc5207f-d86f-4e31-9ce9-ca2d68d828ba","ios":"levelo://app?vid=abc5207f-d86f-4e31-9ce9-ca2d68d828ba"},"vehicle_type_id":"4","last_reported":1730070592,"current_range_meters":4400,"station_id":"ce4bhgp2rcd13ifvqfd0","pricing_plan_id":"cebpf4jnsgd1na2vs0mg"},{"bike_id":"7ca56edd-ab0f-42b5-b290-aff4cb25cb72","system_id":"levelo_inurba_marseille","lat":43.24389,"lon":5.37057,"is_reserved":false,"is_disabled":false,"rental_uris":{"android":"levelo://app?vid=7ca56edd-ab0f-42b5-b290-aff4cb25cb72","ios":"levelo://app?vid=7ca56edd-ab0f-42b5-b290-aff4cb25cb72"},"vehicle_type_id":"4","last_reported":1730070592,"current_range_meters":32800,"station_id":"ce4bhhh2rcd13ifvqfk0","pricing_plan_id":"cebpf4jnsgd1na2vs0mg"},{"bike_id":"4cf016cf-222a-4af0-b71c-5001d7c7e17d","system_id":"levelo_inurba_marseille","lat":43.25093,"lon":5.39511,"is_reserved":false,"is_disabled":false,"rental_uris":{"android":"levelo://app?vid=4cf016cf-222a-4af0-b71c-5001d7c7e17d","ios":"levelo://app?vid=4cf016cf-222a-4af0-b71c-5001d7c7e17d"},"vehicle_type_id":"4","last_reported":1730070592,"current_range_meters":35200,"station_id":"ce4bhm12rcd13ifvqgkg","pricing_plan_id":"cebpf4jnsgd1na2vs0mg"},{"bike_id":"ca934805-46d7-4d3d-9a43-ed1b3e520080","system_id":"levelo_inurba_marseille","lat":43.26557,"lon":5.37287,"is_reserved":false,"is_disabled":false,"rental_uris":{"android":"levelo://app?vid=ca934805-46d7-4d3d-9a43-ed1b3e520080","ios":"levelo://app?vid=ca934805-46d7-4d3d-9a43-ed1b3e520080"},"vehicle_type_id":"4","last_reported":1730070592,"current_range_meters":24400,"station_id":"ce4bhg12rcd13ifvqf70","pricing_plan_id":"cebpf4jnsgd1na2vs0mg"},{"bike_id":"3ce017f1-d9d6-4c08-a41c-e5c11b0c4cdc","system_id":"levelo_inurba_marseille","lat":43.28706,"lon":5.37397,"is_reserved":false,"is_disabled":false,"rental_uris":{"android":"levelo://app?vid=3ce017f1-d9d6-4c08-a41c-e5c11b0c4cdc","ios":"levelo://app?vid=3ce017f1-d9d6-4c08-a41c-e5c11b0c4cdc"},"vehicle_type_id":"4","last_reported":1730070592,"current_range_meters":24000,"station_id":"ce4bh3p2rcd13ifvqdq0","pricing_plan_id":"cebpf4jnsgd1na2vs0mg"},{"bike_id":"6f84dc04-67fa-416d-b589-7f6229a82abf","system_id":"levelo_inurba_marseille","lat":43.27623,"lon":5.36113,"is_reserved":false,"is_disabled":false,"rental_uris":{"android":"levelo://app?vid=6f84dc04-67fa-416d-b589-7f6229a82abf","ios":"levelo://app?vid=6f84dc04-67fa-416d-b589-7f6229a82abf"},"vehicle_type_id":"4","last_reported":1730070592,"current_range_meters":36400,"station_id":"ce4bgj92rcd13ifvqbe0","pricing_plan_id":"cebpf4jnsgd1na2vs0mg"},{"bike_id":"d02e2892-3b43-44cc-af2b-0eba10956224","system_id":"levelo_inurba_marseille","lat":43.28605,"lon":5.37074,"is_reserved":false,"is_disabled":false,"rental_uris":{"android":"levelo://app?vid=d02e2892-3b43-44cc-af2b-0eba10956224","ios":"levelo://app?vid=d02e2892-3b43-44cc-af2b-0eba10956224"},"vehicle_type_id":"4","last_reported":1730070592,"current_range_meters":28400,"station_id":"ce4bht12rcd13ifvqi60","pricing_plan_id":"cebpf4jnsgd1na2vs0mg"},{"bike_id":"8d1224ea-8c67-414f-8e8e-8dff85dd0343","system_id":"levelo_inurba_marseille","lat":43.25001,"lon":5.38927,"is_reserved":false,"is_disabled":false,"rental_uris":{"android":"levelo://app?vid=8d1224ea-8c67-414f-8e8e-8dff85dd0343","ios":"levelo://app?vid=8d1224ea-8c67-414f-8e8e-8dff85dd0343"},"vehicle_type_id":"4","last_reported":1730070592,"current_range_meters":35200,"station_id":"ce4bhgp2rcd13ifvqfd0","pricing_plan_id":"cebpf4jnsgd1na2vs0mg"},{"bike_id":"9befed88-9f8c-464c-b07b-093bd97066bb","system_id":"levelo_inurba_marseille","lat":43.29805,"lon":5.37136,"is_reserved":false,"is_disabled":false,"rental_uris":{"android":"levelo://app?vid=9befed88-9f8c-464c-b07b-093bd97066bb","ios":"levelo://app?vid=9befed88-9f8c-464c-b07b-093bd97066bb"},"vehicle_type_id":"4","last_reported":1730070592,"current_range_meters":17600,"station_id":"","pricing_plan_id":"cebpf4jnsgd1na2vs0mg"},{"bike_id":"f37e3b02-a49c-4c4e-b112-f9c8c24edf90","system_id":"levelo_inurba_marseille","lat":43.2319,"lon":5.35552,"is_reserved":false,"is_disabled":false,"rental_uris":{"android":"levelo://app?vid=f37e3b02-a49c-4c4e-b112-f9c8c24edf90","ios":"levelo://app?vid=f37e3b02-a49c-4c4e-b112-f9c8c24edf90"},"vehicle_type_id":"4","last_reported":1730070592,"current_range_meters":13600,"station_id":"ce4bhu92rcd13ifvqi70","pricing_plan_id":"cebpf4jnsgd1na2vs0mg"},{"bike_id":"c65ec850-e717-4601-9821-87b556c16011","system_id":"levelo_inurba_marseille","lat":43.31187,"lon":5.38708,"is_reserved":false,"is_disabled":false,"rental_uris":{"android":"levelo://app?vid=c65ec850-e717-4601-9821-87b556c16011","ios":"levelo://app?vid=c65ec850-e717-4601-9821-87b556c16011"},"vehicle_type_id":"4","last_reported":1730070592,"current_range_meters":38000,"station_id":"ce4bgv12rcd13ifvqcp0","pricing_plan_id":"cebpf4jnsgd1na2vs0mg"},{"bike_id":"03c64661-ec20-42cc-aab2-b42dd87d524d","system_id":"levelo_inurba_marseille","lat":43.3054,"lon":5.38432,"is_reserved":false,"is_disabled":false,"rental_uris":{"android":"levelo://app?vid=03c64661-ec20-42cc-aab2-b42dd87d524d","ios":"levelo://app?vid=03c64661-ec20-42cc-aab2-b42dd87d524d"},"vehicle_type_id":"4","last_reported":1730070592,"current_range_meters":33600,"station_id":"ce4bh292rcd13ifvqdf0","pricing_plan_id":"cebpf4jnsgd1na2vs0mg"},{"bike_id":"071e485e-07a5-4d0b-a931-bdd21b11fab6","system_id":"levelo_inurba_marseille","lat":43.30598,"lon":5.37224,"is_reserved":false,"is_disabled":false,"rental_uris":{"android":"levelo://app?vid=071e485e-07a5-4d0b-a931-bdd21b11fab6","ios":"levelo://app?vid=071e485e-07a5-4d0b-a931-bdd21b11fab6"},"vehicle_type_id":"4","last_reported":1730070592,"current_range_meters":15200,"station_id":"ce4bgqh2rcd13ifvqc4g","pricing_plan_id":"cebpf4jnsgd1na2vs0mg"},{"bike_id":"861692e4-8878-4d12-a06f-bba82e5731c6","system_id":"levelo_inurba_marseille","lat":43.24543,"lon":5.39533,"is_reserved":false,"is_disabled":false,"rental_uris":{"android":"levelo://app?vid=861692e4-8878-4d12-a06f-bba82e5731c6","ios":"levelo://app?vid=861692e4-8878-4d12-a06f-bba82e5731c6"},"vehicle_type_id":"4","last_reported":1730070592,"current_range_meters":34000,"station_id":"ce4bhlp2rcd13ifvqgjg","pricing_plan_id":"cebpf4jnsgd1na2vs0mg"},{"bike_id":"ccfa1692-c802-4f20-903b-15d864d61ff4","system_id":"levelo_inurba_marseille","lat":43.28852,"lon":5.39321,"is_reserved":false,"is_disabled":false,"rental_uris":{"android":"levelo://app?vid=ccfa1692-c802-4f20-903b-15d864d61ff4","ios":"levelo://app?vid=ccfa1692-c802-4f20-903b-15d864d61ff4"},"vehicle_type_id":"4","last_reported":1730070592,"current_range_meters":16800,"station_id":"ce4bh2p2rcd13ifvqdi0","pricing_plan_id":"cebpf4jnsgd1na2vs0mg"},{"bike_id":"0fc35ec4-d69e-455a-854d-9256f0d5a7e6","system_id":"levelo_inurba_marseille","lat":43.24071,"lon":5.37763,"is_reserved":false,"is_disabled":false,"rental_uris":{"android":"levelo://app?vid=0fc35ec4-d69e-455a-854d-9256f0d5a7e6","ios":"levelo://app?vid=0fc35ec4-d69e-455a-854d-9256f0d5a7e6"},"vehicle_type_id":"4","last_reported":1730070592,"current_range_meters":25600,"station_id":"ce4bhnp2rcd13ifvqgvg","pricing_plan_id":"cebpf4jnsgd1na2vs0mg"},{"bike_id":"9c975ea9-79b8-44be-86c3-0afb0514a4ca","system_id":"levelo_inurba_marseille","lat":43.28149,"lon":5.42644,"is_reserved":false,"is_disabled":false,"rental_uris":{"android":"levelo://app?vid=9c975ea9-79b8-44be-86c3-0afb0514a4ca","ios":"levelo://app?vid=9c975ea9-79b8-44be-86c3-0afb0514a4ca"},"vehicle_type_id":"4","last_reported":1730070592,"current_range_meters":22800,"station_id":"ce4bhnh2rcd13ifvqgug","pricing_plan_id":"cebpf4jnsgd1na2vs0mg"},{"bike_id":"095cb914-8282-46ed-8027-40460b9cac82","system_id":"levelo_inurba_marseille","lat":43.2884,"lon":5.393267,"is_reserved":false,"is_disabled":false,"rental_uris":{"android":"levelo://app?vid=095cb914-8282-46ed-8027-40460b9cac82","ios":"levelo://app?vid=095cb914-8282-46ed-8027-40460b9cac82"},"vehicle_type_id":"4","last_reported":1730070592,"current_range_meters":20000,"station_id":"ce4bh2p2rcd13ifvqdi0","pricing_plan_id":"cebpf4jnsgd1na2vs0mg"},{"bike_id":"9de4b6d1-b328-4924-9217-9f37e44a2c12","system_id":"levelo_inurba_marseille","lat":43.30605,"lon":5.37227,"is_reserved":false,"is_disabled":false,"rental_uris":{"android":"levelo://app?vid=9de4b6d1-b328-4924-9217-9f37e44a2c12","ios":"levelo://app?vid=9de4b6d1-b328-4924-9217-9f37e44a2c12"},"vehicle_type_id":"4","last_reported":1730070592,"current_range_meters":35600,"station_id":"ce4bgqh2rcd13ifvqc4g","pricing_plan_id":"cebpf4jnsgd1na2vs0mg"},{"bike_id":"e39645c5-87ac-4e87-90ca-e4c6f3ff67ce","system_id":"levelo_inurba_marseille","lat":43.29937,"lon":5.36547,"is_reserved":false,"is_disabled":false,"rental_uris":{"android":"levelo://app?vid=e39645c5-87ac-4e87-90ca-e4c6f3ff67ce","ios":"levelo://app?vid=e39645c5-87ac-4e87-90ca-e4c6f3ff67ce"},"vehicle_type_id":"4","last_reported":1730070592,"current_range_meters":33600,"station_id":"ce4bgm92rcd13ifvqbr0","pricing_plan_id":"cebpf4jnsgd1na2vs0mg"},{"bike_id":"8eb293f7-0d62-4a49-8083-060e6405105e","system_id":"levelo_inurba_marseille","lat":43.26568,"lon":5.39007,"is_reserved":false,"is_disabled":false,"rental_uris":{"android":"levelo://app?vid=8eb293f7-0d62-4a49-8083-060e6405105e","ios":"levelo://app?vid=8eb293f7-0d62-4a49-8083-060e6405105e"},"vehicle_type_id":"4","last_reported":1730070592,"current_range_meters":18800,"station_id":"ce4bhe12rcd13ifvqf30","pricing_plan_id":"cebpf4jnsgd1na2vs0mg"},{"bike_id":"3358362c-b062-4573-a7c9-c08024f817aa","system_id":"levelo_inurba_marseille","lat":43.2901,"lon":5.35612,"is_reserved":false,"is_disabled":false,"rental_uris":{"android":"levelo://app?vid=3358362c-b062-4573-a7c9-c08024f817aa","ios":"levelo://app?vid=3358362c-b062-4573-a7c9-c08024f817aa"},"vehicle_type_id":"4","last_reported":1730070592,"current_range_meters":38800,"station_id":"ce4bhb92rcd13ifvqen0","pricing_plan_id":"cebpf4jnsgd1na2vs0mg"},{"bike_id":"8a5799ec-e449-40ff-9cff-af399ca40c89","system_id":"levelo_inurba_marseille","lat":43.3082,"lon":5.38156,"is_reserved":false,"is_disabled":false,"rental_uris":{"android":"levelo://app?vid=8a5799ec-e449-40ff-9cff-af399ca40c89","ios":"levelo://app?vid=8a5799ec-e449-40ff-9cff-af399ca40c89"},"vehicle_type_id":"4","last_reported":1730070592,"current_range_meters":28000,"station_id":"ce4bgt12rcd13ifvqce0","pricing_plan_id":"cebpf4jnsgd1na2vs0mg"},{"bike_id":"2c0fb998-8356-4931-a4f4-4414e12732c6","system_id":"levelo_inurba_marseille","lat":43.29264,"lon":5.3844,"is_reserved":false,"is_disabled":false,"rental_uris":{"android":"levelo://app?vid=2c0fb998-8356-4931-a4f4-4414e12732c6","ios":"levelo://app?vid=2c0fb998-8356-4931-a4f4-4414e12732c6"},"vehicle_type_id":"4","last_reported":1730070592,"current_range_meters":28400,"station_id":"ce4bh692rcd13ifvqea0","pricing_plan_id":"cebpf4jnsgd1na2vs0mg"},{"bike_id":"efa4566a-b34e-47c4-8d83-b4c58c5f2896","system_id":"levelo_inurba_marseille","lat":43.30315,"lon":5.36888,"is_reserved":false,"is_disabled":false,"rental_uris":{"android":"levelo://app?vid=efa4566a-b34e-47c4-8d83-b4c58c5f2896","ios":"levelo://app?vid=efa4566a-b34e-47c4-8d83-b4c58c5f2896"},"vehicle_type_id":"4","last_reported":1730070592,"current_range_meters":38800,"station_id":"ce4bgqh2rcd13ifvqc5g","pricing_plan_id":"cebpf4jnsgd1na2vs0mg"},{"bike_id":"3d729504-3198-4bd2-a0c7-ff4fc02f56e0","system_id":"levelo_inurba_marseille","lat":43.31518,"lon":5.37415,"is_reserved":false,"is_disabled":false,"rental_uris":{"android":"levelo://app?vid=3d729504-3198-4bd2-a0c7-ff4fc02f56e0","ios":"levelo://app?vid=3d729504-3198-4bd2-a0c7-ff4fc02f56e0"},"vehicle_type_id":"4","last_reported":1730070592,"current_range_meters":15200,"station_id":"","pricing_plan_id":"cebpf4jnsgd1na2vs0mg"},{"bike_id":"a08296db-b3f4-4d7c-b368-674ac3a21b1e","system_id":"levelo_inurba_marseille","lat":43.23061,"lon":5.35491,"is_reserved":false,"is_disabled":false,"rental_uris":{"android":"levelo://app?vid=a08296db-b3f4-4d7c-b368-674ac3a21b1e","ios":"levelo://app?vid=a08296db-b3f4-4d7c-b368-674ac3a21b1e"},"vehicle_type_id":"4","last_reported":1730070592,"current_range_meters":38400,"station_id":"cpo3342slgdg3j2ifvpg","pricing_plan_id":"cebpf4jnsgd1na2vs0mg"},{"bike_id":"56fa48c3-db27-4e34-89de-464ed017462b","system_id":"levelo_inurba_marseille","lat":43.28451,"lon":5.35899,"is_reserved":false,"is_disabled":false,"rental_uris":{"android":"levelo://app?vid=56fa48c3-db27-4e34-89de-464ed017462b","ios":"levelo://app?vid=56fa48c3-db27-4e34-89de-464ed017462b"},"vehicle_type_id":"4","last_reported":1730070592,"current_range_meters":19600,"station_id":"ce4bhah2rcd13ifvqei0","pricing_plan_id":"cebpf4jnsgd1na2vs0mg"},{"bike_id":"286b9786-7e56-412b-8222-4a603da92956","system_id":"levelo_inurba_marseille","lat":43.28857,"lon":5.39326,"is_reserved":false,"is_disabled":false,"rental_uris":{"android":"levelo://app?vid=286b9786-7e56-412b-8222-4a603da92956","ios":"levelo://app?vid=286b9786-7e56-412b-8222-4a603da92956"},"vehicle_type_id":"4","last_reported":1730070592,"current_range_meters":12400,"station_id":"ce4bh2p2rcd13ifvqdi0","pricing_plan_id":"cebpf4jnsgd1na2vs0mg"},{"bike_id":"477cd90a-8a9d-4f2c-8ef4-702382168c43","system_id":"levelo_inurba_marseille","lat":43.276,"lon":5.41255,"is_reserved":false,"is_disabled":false,"rental_uris":{"android":"levelo://app?vid=477cd90a-8a9d-4f2c-8ef4-702382168c43","ios":"levelo://app?vid=477cd90a-8a9d-4f2c-8ef4-702382168c43"},"vehicle_type_id":"4","last_reported":1730070592,"current_range_meters":16000,"station_id":"","pricing_plan_id":"cebpf4jnsgd1na2vs0mg"},{"bike_id":"7bd34cc0-adb9-4aa9-974f-5c7ef00f03ca","system_id":"levelo_inurba_marseille","lat":43.30532,"lon":5.38421,"is_reserved":false,"is_disabled":false,"rental_uris":{"android":"levelo://app?vid=7bd34cc0-adb9-4aa9-974f-5c7ef00f03ca","ios":"levelo://app?vid=7bd34cc0-adb9-4aa9-974f-5c7ef00f03ca"},"vehicle_type_id":"4","last_reported":1730070592,"current_range_meters":37600,"station_id":"ce4bgg92rcd13ifvqb30","pricing_plan_id":"cebpf4jnsgd1na2vs0mg"},{"bike_id":"e20d3c69-3096-41fb-8abf-5b752c1ce0c2","system_id":"levelo_inurba_marseille","lat":43.28059,"lon":5.38688,"is_reserved":false,"is_disabled":false,"rental_uris":{"android":"levelo://app?vid=e20d3c69-3096-41fb-8abf-5b752c1ce0c2","ios":"levelo://app?vid=e20d3c69-3096-41fb-8abf-5b752c1ce0c2"},"vehicle_type_id":"4","last_reported":1730070592,"current_range_meters":26000,"station_id":"","pricing_plan_id":"cebpf4jnsgd1na2vs0mg"},{"bike_id":"7c7bf064-c68f-41cb-bc20-1168467849fc","system_id":"levelo_inurba_marseille","lat":43.2841,"lon":5.35005,"is_reserved":false,"is_disabled":false,"rental_uris":{"android":"levelo://app?vid=7c7bf064-c68f-41cb-bc20-1168467849fc","ios":"levelo://app?vid=7c7bf064-c68f-41cb-bc20-1168467849fc"},"vehicle_type_id":"4","last_reported":1730070592,"current_range_meters":28000,"station_id":"ce4bhbh2rcd13ifvqepg","pricing_plan_id":"cebpf4jnsgd1na2vs0mg"},{"bike_id":"72f33990-5a0c-44ef-9d09-66d93400b4a5","system_id":"levelo_inurba_marseille","lat":43.31714,"lon":5.37753,"is_reserved":false,"is_disabled":false,"rental_uris":{"android":"levelo://app?vid=72f33990-5a0c-44ef-9d09-66d93400b4a5","ios":"levelo://app?vid=72f33990-5a0c-44ef-9d09-66d93400b4a5"},"vehicle_type_id":"4","last_reported":1730070592,"current_range_meters":36400,"station_id":"ce4bgth2rcd13ifvqch0","pricing_plan_id":"cebpf4jnsgd1na2vs0mg"},{"bike_id":"d9d5f286-e789-4821-88ae-3c2492881525","system_id":"levelo_inurba_marseille","lat":43.24072,"lon":5.37763,"is_reserved":false,"is_disabled":false,"rental_uris":{"android":"levelo://app?vid=d9d5f286-e789-4821-88ae-3c2492881525","ios":"levelo://app?vid=d9d5f286-e789-4821-88ae-3c2492881525"},"vehicle_type_id":"4","last_reported":1730070592,"current_range_meters":20800,"station_id":"ce4bhnp2rcd13ifvqgvg","pricing_plan_id":"cebpf4jnsgd1na2vs0mg"},{"bike_id":"d42cd8f1-be9f-4587-96dc-fd9d11f4d1a0","system_id":"levelo_inurba_marseille","lat":43.2511,"lon":5.40325,"is_reserved":false,"is_disabled":false,"rental_uris":{"android":"levelo://app?vid=d42cd8f1-be9f-4587-96dc-fd9d11f4d1a0","ios":"levelo://app?vid=d42cd8f1-be9f-4587-96dc-fd9d11f4d1a0"},"vehicle_type_id":"4","last_reported":1730070592,"current_range_meters":24400,"station_id":"ce4bhlh2rcd13ifvqgig","pricing_plan_id":"cebpf4jnsgd1na2vs0mg"},{"bike_id":"76588601-f0de-444c-8708-6d6ae74a37db","system_id":"levelo_inurba_marseille","lat":43.23969,"lon":5.36637,"is_reserved":false,"is_disabled":false,"rental_uris":{"android":"levelo://app?vid=76588601-f0de-444c-8708-6d6ae74a37db","ios":"levelo://app?vid=76588601-f0de-444c-8708-6d6ae74a37db"},"vehicle_type_id":"4","last_reported":1730070592,"current_range_meters":38000,"station_id":"ce4bhi12rcd13ifvqfp0","pricing_plan_id":"cebpf4jnsgd1na2vs0mg"},{"bike_id":"7cdd88d2-5824-40fa-8faf-90ef733261c2","system_id":"levelo_inurba_marseille","lat":43.23969,"lon":5.36638,"is_reserved":false,"is_disabled":false,"rental_uris":{"android":"levelo://app?vid=7cdd88d2-5824-40fa-8faf-90ef733261c2","ios":"levelo://app?vid=7cdd88d2-5824-40fa-8faf-90ef733261c2"},"vehicle_type_id":"4","last_reported":1730070592,"current_range_meters":13600,"station_id":"ce4bhi12rcd13ifvqfp0","pricing_plan_id":"cebpf4jnsgd1na2vs0mg"},{"bike_id":"14dd07aa-796b-49ac-82e8-2bb3f08c1790","system_id":"levelo_inurba_marseille","lat":43.2872,"lon":5.36092,"is_reserved":false,"is_disabled":false,"rental_uris":{"android":"levelo://app?vid=14dd07aa-796b-49ac-82e8-2bb3f08c1790","ios":"levelo://app?vid=14dd07aa-796b-49ac-82e8-2bb3f08c1790"},"vehicle_type_id":"4","last_reported":1730070592,"current_range_meters":39200,"station_id":"cki0cbj6b192h4jlfktg","pricing_plan_id":"cebpf4jnsgd1na2vs0mg"},{"bike_id":"9a599d39-93e1-4768-9001-e14667f53e65","system_id":"levelo_inurba_marseille","lat":43.30811,"lon":5.38163,"is_reserved":false,"is_disabled":false,"rental_uris":{"android":"levelo://app?vid=9a599d39-93e1-4768-9001-e14667f53e65","ios":"levelo://app?vid=9a599d39-93e1-4768-9001-e14667f53e65"},"vehicle_type_id":"4","last_reported":1730070592,"current_range_meters":28800,"station_id":"ce4bgt12rcd13ifvqce0","pricing_plan_id":"cebpf4jnsgd1na2vs0mg"},{"bike_id":"9403ad19-9050-4623-81ae-08b1b66bb37c","system_id":"levelo_inurba_marseille","lat":43.23189,"lon":5.39985,"is_reserved":false,"is_disabled":false,"rental_uris":{"android":"levelo://app?vid=9403ad19-9050-4623-81ae-08b1b66bb37c","ios":"levelo://app?vid=9403ad19-9050-4623-81ae-08b1b66bb37c"},"vehicle_type_id":"4","last_reported":1730070592,"current_range_meters":38000,"station_id":"ce4bhn12rcd13ifvqgqg","pricing_plan_id":"cebpf4jnsgd1na2vs0mg"},{"bike_id":"d5a1c7ae-9162-4121-b272-151b950895e5","system_id":"levelo_inurba_marseille","lat":43.279451,"lon":5.410406,"is_reserved":false,"is_disabled":false,"rental_uris":{"android":"levelo://app?vid=d5a1c7ae-9162-4121-b272-151b950895e5","ios":"levelo://app?vid=d5a1c7ae-9162-4121-b272-151b950895e5"},"vehicle_type_id":"4","last_reported":1730070592,"current_range_meters":18000,"station_id":"ce4bhnp2rcd13ifvqh0g","pricing_plan_id":"cebpf4jnsgd1na2vs0mg"},{"bike_id":"52ecacba-15ba-4ed7-b7e6-263a0a9ba727","system_id":"levelo_inurba_marseille","lat":43.28458,"lon":5.35889,"is_reserved":false,"is_disabled":false,"rental_uris":{"android":"levelo://app?vid=52ecacba-15ba-4ed7-b7e6-263a0a9ba727","ios":"levelo://app?vid=52ecacba-15ba-4ed7-b7e6-263a0a9ba727"},"vehicle_type_id":"4","last_reported":1730070592,"current_range_meters":8000,"station_id":"ce4bhah2rcd13ifvqei0","pricing_plan_id":"cebpf4jnsgd1na2vs0mg"},{"bike_id":"79b412b6-7504-41de-b13f-6567b5a9d93f","system_id":"levelo_inurba_marseille","lat":43.31535,"lon":5.38027,"is_reserved":false,"is_disabled":false,"rental_uris":{"android":"levelo://app?vid=79b412b6-7504-41de-b13f-6567b5a9d93f","ios":"levelo://app?vid=79b412b6-7504-41de-b13f-6567b5a9d93f"},"vehicle_type_id":"4","last_reported":1730070592,"current_range_meters":8400,"station_id":"ce4bhsp2rcd13ifvqi50","pricing_plan_id":"cebpf4jnsgd1na2vs0mg"},{"bike_id":"d6a732df-7d0a-4298-a50e-a9e78d4759b8","system_id":"levelo_inurba_marseille","lat":43.24539,"lon":5.39528,"is_reserved":false,"is_disabled":false,"rental_uris":{"android":"levelo://app?vid=d6a732df-7d0a-4298-a50e-a9e78d4759b8","ios":"levelo://app?vid=d6a732df-7d0a-4298-a50e-a9e78d4759b8"},"vehicle_type_id":"4","last_reported":1730070592,"current_range_meters":38800,"station_id":"ce4bhlp2rcd13ifvqgjg","pricing_plan_id":"cebpf4jnsgd1na2vs0mg"},{"bike_id":"02fd0614-a6c6-42e2-a6aa-0d2136f615e7","system_id":"levelo_inurba_marseille","lat":43.25104,"lon":5.40331,"is_reserved":false,"is_disabled":false,"rental_uris":{"android":"levelo://app?vid=02fd0614-a6c6-42e2-a6aa-0d2136f615e7","ios":"levelo://app?vid=02fd0614-a6c6-42e2-a6aa-0d2136f615e7"},"vehicle_type_id":"4","last_reported":1730070592,"current_range_meters":24800,"station_id":"ce4bhlh2rcd13ifvqgig","pricing_plan_id":"cebpf4jnsgd1na2vs0mg"},{"bike_id":"cd68f1dc-3134-4c22-9fa5-8490da02f071","system_id":"levelo_inurba_marseille","lat":43.2315,"lon":5.43717,"is_reserved":false,"is_disabled":false,"rental_uris":{"android":"levelo://app?vid=cd68f1dc-3134-4c22-9fa5-8490da02f071","ios":"levelo://app?vid=cd68f1dc-3134-4c22-9fa5-8490da02f071"},"vehicle_type_id":"4","last_reported":1730070592,"current_range_meters":12800,"station_id":"ce4bhmp2rcd13ifvqgog","pricing_plan_id":"cebpf4jnsgd1na2vs0mg"},{"bike_id":"42939b7f-8bb8-4020-9042-5a5f052537b7","system_id":"levelo_inurba_marseille","lat":43.28249,"lon":5.38276,"is_reserved":false,"is_disabled":false,"rental_uris":{"android":"levelo://app?vid=42939b7f-8bb8-4020-9042-5a5f052537b7","ios":"levelo://app?vid=42939b7f-8bb8-4020-9042-5a5f052537b7"},"vehicle_type_id":"4","last_reported":1730070592,"current_range_meters":26800,"station_id":"ce4bhc92rcd13ifvqetg","pricing_plan_id":"cebpf4jnsgd1na2vs0mg"},{"bike_id":"9df781dc-a17d-4c43-8d58-f238f2778b8b","system_id":"levelo_inurba_marseille","lat":43.25103,"lon":5.40331,"is_reserved":false,"is_disabled":false,"rental_uris":{"android":"levelo://app?vid=9df781dc-a17d-4c43-8d58-f238f2778b8b","ios":"levelo://app?vid=9df781dc-a17d-4c43-8d58-f238f2778b8b"},"vehicle_type_id":"4","last_reported":1730070592,"current_range_meters":14400,"station_id":"ce4bhlh2rcd13ifvqgig","pricing_plan_id":"cebpf4jnsgd1na2vs0mg"},{"bike_id":"33466152-8701-4ace-81b5-c2bf7c8025de","system_id":"levelo_inurba_marseille","lat":43.258667,"lon":5.398961,"is_reserved":false,"is_disabled":false,"rental_uris":{"android":"levelo://app?vid=33466152-8701-4ace-81b5-c2bf7c8025de","ios":"levelo://app?vid=33466152-8701-4ace-81b5-c2bf7c8025de"},"vehicle_type_id":"4","last_reported":1730070592,"current_range_meters":25600,"station_id":"ce4bhl92rcd13ifvqghg","pricing_plan_id":"cebpf4jnsgd1na2vs0mg"},{"bike_id":"ded3fa34-bd70-4208-8e12-be1d3f97a91f","system_id":"levelo_inurba_marseille","lat":43.28574,"lon":5.39487,"is_reserved":false,"is_disabled":false,"rental_uris":{"android":"levelo://app?vid=ded3fa34-bd70-4208-8e12-be1d3f97a91f","ios":"levelo://app?vid=ded3fa34-bd70-4208-8e12-be1d3f97a91f"},"vehicle_type_id":"4","last_reported":1730070592,"current_range_meters":39200,"station_id":"ce4bh292rcd13ifvqdg0","pricing_plan_id":"cebpf4jnsgd1na2vs0mg"},{"bike_id":"5ed2fff8-c3d4-4654-a668-3b57adf4f72b","system_id":"levelo_inurba_marseille","lat":43.27492,"lon":5.42453,"is_reserved":false,"is_disabled":false,"rental_uris":{"android":"levelo://app?vid=5ed2fff8-c3d4-4654-a668-3b57adf4f72b","ios":"levelo://app?vid=5ed2fff8-c3d4-4654-a668-3b57adf4f72b"},"vehicle_type_id":"4","last_reported":1730070592,"current_range_meters":22400,"station_id":"ce4bhn92rcd13ifvqgrg","pricing_plan_id":"cebpf4jnsgd1na2vs0mg"},{"bike_id":"a7c6eb8e-227c-4432-958d-8969596fd179","system_id":"levelo_inurba_marseille","lat":43.25727,"lon":5.41109,"is_reserved":false,"is_disabled":false,"rental_uris":{"android":"levelo://app?vid=a7c6eb8e-227c-4432-958d-8969596fd179","ios":"levelo://app?vid=a7c6eb8e-227c-4432-958d-8969596fd179"},"vehicle_type_id":"4","last_reported":1730070592,"current_range_meters":40000,"station_id":"ce4bhkp2rcd13ifvqgd0","pricing_plan_id":"cebpf4jnsgd1na2vs0mg"},{"bike_id":"1af1ace0-6d50-4670-9928-9bb4053befbf","system_id":"levelo_inurba_marseille","lat":43.25867,"lon":5.39904,"is_reserved":false,"is_disabled":false,"rental_uris":{"android":"levelo://app?vid=1af1ace0-6d50-4670-9928-9bb4053befbf","ios":"levelo://app?vid=1af1ace0-6d50-4670-9928-9bb4053befbf"},"vehicle_type_id":"4","last_reported":1730070592,"current_range_meters":38800,"station_id":"ce4bhl92rcd13ifvqghg","pricing_plan_id":"cebpf4jnsgd1na2vs0mg"},{"bike_id":"e89316dc-a19a-469f-a9cd-dc00b495757e","system_id":"levelo_inurba_marseille","lat":43.27427,"lon":5.40662,"is_reserved":false,"is_disabled":false,"rental_uris":{"android":"levelo://app?vid=e89316dc-a19a-469f-a9cd-dc00b495757e","ios":"levelo://app?vid=e89316dc-a19a-469f-a9cd-dc00b495757e"},"vehicle_type_id":"4","last_reported":1730070592,"current_range_meters":8400,"station_id":"","pricing_plan_id":"cebpf4jnsgd1na2vs0mg"},{"bike_id":"88d679ce-bf81-422c-88c5-977567915cf3","system_id":"levelo_inurba_marseille","lat":43.27489,"lon":5.42463,"is_reserved":false,"is_disabled":false,"rental_uris":{"android":"levelo://app?vid=88d679ce-bf81-422c-88c5-977567915cf3","ios":"levelo://app?vid=88d679ce-bf81-422c-88c5-977567915cf3"},"vehicle_type_id":"4","last_reported":1730070592,"current_range_meters":24000,"station_id":"ce4bhn92rcd13ifvqgrg","pricing_plan_id":"cebpf4jnsgd1na2vs0mg"},{"bike_id":"40cb860c-c6cd-4c15-b796-c88e99e4424d","system_id":"levelo_inurba_marseille","lat":43.25109,"lon":5.40324,"is_reserved":false,"is_disabled":false,"rental_uris":{"android":"levelo://app?vid=40cb860c-c6cd-4c15-b796-c88e99e4424d","ios":"levelo://app?vid=40cb860c-c6cd-4c15-b796-c88e99e4424d"},"vehicle_type_id":"4","last_reported":1730070592,"current_range_meters":18000,"station_id":"ce4bhlh2rcd13ifvqgig","pricing_plan_id":"cebpf4jnsgd1na2vs0mg"},{"bike_id":"04dd23bb-f238-4eba-90d1-d80bc6673779","system_id":"levelo_inurba_marseille","lat":43.31168,"lon":5.38713,"is_reserved":false,"is_disabled":false,"rental_uris":{"android":"levelo://app?vid=04dd23bb-f238-4eba-90d1-d80bc6673779","ios":"levelo://app?vid=04dd23bb-f238-4eba-90d1-d80bc6673779"},"vehicle_type_id":"4","last_reported":1730070592,"current_range_meters":32800,"station_id":"ce4bgv12rcd13ifvqcp0","pricing_plan_id":"cebpf4jnsgd1na2vs0mg"},{"bike_id":"81e500be-3ff6-45b1-af40-237783c8efb0","system_id":"levelo_inurba_marseille","lat":43.27815,"lon":5.40714,"is_reserved":false,"is_disabled":false,"rental_uris":{"android":"levelo://app?vid=81e500be-3ff6-45b1-af40-237783c8efb0","ios":"levelo://app?vid=81e500be-3ff6-45b1-af40-237783c8efb0"},"vehicle_type_id":"4","last_reported":1730070592,"current_range_meters":11200,"station_id":"ce4bhnh2rcd13ifvqgtg","pricing_plan_id":"cebpf4jnsgd1na2vs0mg"},{"bike_id":"5d820ce0-2d55-46e5-b74d-cc75a18e2e27","system_id":"levelo_inurba_marseille","lat":43.27003,"lon":5.39258,"is_reserved":false,"is_disabled":false,"rental_uris":{"android":"levelo://app?vid=5d820ce0-2d55-46e5-b74d-cc75a18e2e27","ios":"levelo://app?vid=5d820ce0-2d55-46e5-b74d-cc75a18e2e27"},"vehicle_type_id":"4","last_reported":1730070592,"current_range_meters":35200,"station_id":"ce4bgh92rcd13ifvqb40","pricing_plan_id":"cebpf4jnsgd1na2vs0mg"},{"bike_id":"3cf15f8a-e66b-431c-8ebb-b4fd8ccc5efd","system_id":"levelo_inurba_marseille","lat":43.28656,"lon":5.36359,"is_reserved":false,"is_disabled":false,"rental_uris":{"android":"levelo://app?vid=3cf15f8a-e66b-431c-8ebb-b4fd8ccc5efd","ios":"levelo://app?vid=3cf15f8a-e66b-431c-8ebb-b4fd8ccc5efd"},"vehicle_type_id":"4","last_reported":1730070592,"current_range_meters":20800,"station_id":"ce4bhah2rcd13ifvqej0","pricing_plan_id":"cebpf4jnsgd1na2vs0mg"},{"bike_id":"5d740240-5c8c-4416-9068-3eaec70c8525","system_id":"levelo_inurba_marseille","lat":43.28852,"lon":5.35868,"is_reserved":false,"is_disabled":false,"rental_uris":{"android":"levelo://app?vid=5d740240-5c8c-4416-9068-3eaec70c8525","ios":"levelo://app?vid=5d740240-5c8c-4416-9068-3eaec70c8525"},"vehicle_type_id":"4","last_reported":1730070592,"current_range_meters":36400,"station_id":"ce4bhb12rcd13ifvqem0","pricing_plan_id":"cebpf4jnsgd1na2vs0mg"},{"bike_id":"85954db0-0f95-4cab-bd1b-ba49cde47c67","system_id":"levelo_inurba_marseille","lat":43.31295,"lon":5.38294,"is_reserved":false,"is_disabled":false,"rental_uris":{"android":"levelo://app?vid=85954db0-0f95-4cab-bd1b-ba49cde47c67","ios":"levelo://app?vid=85954db0-0f95-4cab-bd1b-ba49cde47c67"},"vehicle_type_id":"4","last_reported":1730070592,"current_range_meters":18800,"station_id":"","pricing_plan_id":"cebpf4jnsgd1na2vs0mg"},{"bike_id":"ee33413b-65f3-45cc-a496-70b9493de29e","system_id":"levelo_inurba_marseille","lat":43.30147,"lon":5.38777,"is_reserved":false,"is_disabled":false,"rental_uris":{"android":"levelo://app?vid=ee33413b-65f3-45cc-a496-70b9493de29e","ios":"levelo://app?vid=ee33413b-65f3-45cc-a496-70b9493de29e"},"vehicle_type_id":"4","last_reported":1730070592,"current_range_meters":32800,"station_id":"ce4bghh2rcd13ifvqb60","pricing_plan_id":"cebpf4jnsgd1na2vs0mg"},{"bike_id":"42dac13f-214f-4da4-918e-f2fe6ed3fc58","system_id":"levelo_inurba_marseille","lat":43.31171,"lon":5.38715,"is_reserved":false,"is_disabled":false,"rental_uris":{"android":"levelo://app?vid=42dac13f-214f-4da4-918e-f2fe6ed3fc58","ios":"levelo://app?vid=42dac13f-214f-4da4-918e-f2fe6ed3fc58"},"vehicle_type_id":"4","last_reported":1730070592,"current_range_meters":33200,"station_id":"ce4bgv12rcd13ifvqcp0","pricing_plan_id":"cebpf4jnsgd1na2vs0mg"},{"bike_id":"99cec95b-ba23-456c-896e-735765711003","system_id":"levelo_inurba_marseille","lat":43.29251,"lon":5.40902,"is_reserved":false,"is_disabled":false,"rental_uris":{"android":"levelo://app?vid=99cec95b-ba23-456c-896e-735765711003","ios":"levelo://app?vid=99cec95b-ba23-456c-896e-735765711003"},"vehicle_type_id":"4","last_reported":1730070592,"current_range_meters":28400,"station_id":"ce4bh192rcd13ifvqdc0","pricing_plan_id":"cebpf4jnsgd1na2vs0mg"},{"bike_id":"9dd449de-290c-4d16-8334-82c90c75800a","system_id":"levelo_inurba_marseille","lat":43.2884,"lon":5.39312,"is_reserved":false,"is_disabled":false,"rental_uris":{"android":"levelo://app?vid=9dd449de-290c-4d16-8334-82c90c75800a","ios":"levelo://app?vid=9dd449de-290c-4d16-8334-82c90c75800a"},"vehicle_type_id":"4","last_reported":1730070592,"current_range_meters":38000,"station_id":"ce4bh2p2rcd13ifvqdi0","pricing_plan_id":"cebpf4jnsgd1na2vs0mg"},{"bike_id":"b10b3a46-0faf-46a8-b80e-e2440f818b40","system_id":"levelo_inurba_marseille","lat":43.27975,"lon":5.38761,"is_reserved":false,"is_disabled":false,"rental_uris":{"android":"levelo://app?vid=b10b3a46-0faf-46a8-b80e-e2440f818b40","ios":"levelo://app?vid=b10b3a46-0faf-46a8-b80e-e2440f818b40"},"vehicle_type_id":"4","last_reported":1730070592,"current_range_meters":38800,"station_id":"ce4bhg12rcd13ifvqf80","pricing_plan_id":"cebpf4jnsgd1na2vs0mg"},{"bike_id":"9013a3e1-f982-49e2-8d48-57870016015e","system_id":"levelo_inurba_marseille","lat":43.28853,"lon":5.35859,"is_reserved":false,"is_disabled":false,"rental_uris":{"android":"levelo://app?vid=9013a3e1-f982-49e2-8d48-57870016015e","ios":"levelo://app?vid=9013a3e1-f982-49e2-8d48-57870016015e"},"vehicle_type_id":"4","last_reported":1730070592,"current_range_meters":9200,"station_id":"ce4bhb12rcd13ifvqem0","pricing_plan_id":"cebpf4jnsgd1na2vs0mg"},{"bike_id":"fa658056-5f4b-4f81-aa8b-aa8810ba0515","system_id":"levelo_inurba_marseille","lat":43.26204,"lon":5.37934,"is_reserved":false,"is_disabled":false,"rental_uris":{"android":"levelo://app?vid=fa658056-5f4b-4f81-aa8b-aa8810ba0515","ios":"levelo://app?vid=fa658056-5f4b-4f81-aa8b-aa8810ba0515"},"vehicle_type_id":"4","last_reported":1730070592,"current_range_meters":38800,"station_id":"ce4bhjp2rcd13ifvqg90","pricing_plan_id":"cebpf4jnsgd1na2vs0mg"},{"bike_id":"4f40e012-ea5b-4575-9527-1f943967bef1","system_id":"levelo_inurba_marseille","lat":43.23955,"lon":5.3665,"is_reserved":false,"is_disabled":false,"rental_uris":{"android":"levelo://app?vid=4f40e012-ea5b-4575-9527-1f943967bef1","ios":"levelo://app?vid=4f40e012-ea5b-4575-9527-1f943967bef1"},"vehicle_type_id":"4","last_reported":1730070592,"current_range_meters":8800,"station_id":"ce4bhi12rcd13ifvqfp0","pricing_plan_id":"cebpf4jnsgd1na2vs0mg"},{"bike_id":"5e8add12-0a2f-4ee0-a948-b3005ed38fe3","system_id":"levelo_inurba_marseille","lat":43.32761,"lon":5.36012,"is_reserved":false,"is_disabled":false,"rental_uris":{"android":"levelo://app?vid=5e8add12-0a2f-4ee0-a948-b3005ed38fe3","ios":"levelo://app?vid=5e8add12-0a2f-4ee0-a948-b3005ed38fe3"},"vehicle_type_id":"4","last_reported":1730070592,"current_range_meters":26800,"station_id":"ce4bhs12rcd13ifvqhvg","pricing_plan_id":"cebpf4jnsgd1na2vs0mg"},{"bike_id":"8dd6c660-06af-45a8-8f0a-cf00adfc1087","system_id":"levelo_inurba_marseille","lat":43.26025,"lon":5.37596,"is_reserved":false,"is_disabled":false,"rental_uris":{"android":"levelo://app?vid=8dd6c660-06af-45a8-8f0a-cf00adfc1087","ios":"levelo://app?vid=8dd6c660-06af-45a8-8f0a-cf00adfc1087"},"vehicle_type_id":"4","last_reported":1730070592,"current_range_meters":11600,"station_id":"ce4bhgh2rcd13ifvqfa0","pricing_plan_id":"cebpf4jnsgd1na2vs0mg"},{"bike_id":"fb45d249-4144-46f6-b7c5-60ca140f16a8","system_id":"levelo_inurba_marseille","lat":43.2901,"lon":5.35617,"is_reserved":false,"is_disabled":false,"rental_uris":{"android":"levelo://app?vid=fb45d249-4144-46f6-b7c5-60ca140f16a8","ios":"levelo://app?vid=fb45d249-4144-46f6-b7c5-60ca140f16a8"},"vehicle_type_id":"4","last_reported":1730070592,"current_range_meters":30000,"station_id":"ce4bhb92rcd13ifvqen0","pricing_plan_id":"cebpf4jnsgd1na2vs0mg"},{"bike_id":"1257c724-44cf-4bf9-b9f1-3ed2713a28c2","system_id":"levelo_inurba_marseille","lat":43.29039,"lon":5.39982,"is_reserved":false,"is_disabled":false,"rental_uris":{"android":"levelo://app?vid=1257c724-44cf-4bf9-b9f1-3ed2713a28c2","ios":"levelo://app?vid=1257c724-44cf-4bf9-b9f1-3ed2713a28c2"},"vehicle_type_id":"4","last_reported":1730070592,"current_range_meters":29600,"station_id":"ce4bh392rcd13ifvqdm0","pricing_plan_id":"cebpf4jnsgd1na2vs0mg"},{"bike_id":"6242fc62-a9ab-417b-89b0-6df54281ec5c","system_id":"levelo_inurba_marseille","lat":43.23181,"lon":5.39996,"is_reserved":false,"is_disabled":false,"rental_uris":{"android":"levelo://app?vid=6242fc62-a9ab-417b-89b0-6df54281ec5c","ios":"levelo://app?vid=6242fc62-a9ab-417b-89b0-6df54281ec5c"},"vehicle_type_id":"4","last_reported":1730070592,"current_range_meters":30000,"station_id":"ce4bhn12rcd13ifvqgqg","pricing_plan_id":"cebpf4jnsgd1na2vs0mg"},{"bike_id":"397e19e1-70d1-4c1a-82ef-1ec9a560a69f","system_id":"levelo_inurba_marseille","lat":43.28612,"lon":5.35102,"is_reserved":false,"is_disabled":false,"rental_uris":{"android":"levelo://app?vid=397e19e1-70d1-4c1a-82ef-1ec9a560a69f","ios":"levelo://app?vid=397e19e1-70d1-4c1a-82ef-1ec9a560a69f"},"vehicle_type_id":"4","last_reported":1730070592,"current_range_meters":38800,"station_id":"ce4bhch2rcd13ifvqeug","pricing_plan_id":"cebpf4jnsgd1na2vs0mg"},{"bike_id":"1192b6e4-337c-43c7-9b6f-d5c7b7c9df2c","system_id":"levelo_inurba_marseille","lat":43.28003,"lon":5.41669,"is_reserved":false,"is_disabled":false,"rental_uris":{"android":"levelo://app?vid=1192b6e4-337c-43c7-9b6f-d5c7b7c9df2c","ios":"levelo://app?vid=1192b6e4-337c-43c7-9b6f-d5c7b7c9df2c"},"vehicle_type_id":"4","last_reported":1730070592,"current_range_meters":32800,"station_id":"ce4bho12rcd13ifvqh1g","pricing_plan_id":"cebpf4jnsgd1na2vs0mg"},{"bike_id":"a792347a-d158-4403-9c48-1b4e0c6fc790","system_id":"levelo_inurba_marseille","lat":43.27069,"lon":5.42281,"is_reserved":false,"is_disabled":false,"rental_uris":{"android":"levelo://app?vid=a792347a-d158-4403-9c48-1b4e0c6fc790","ios":"levelo://app?vid=a792347a-d158-4403-9c48-1b4e0c6fc790"},"vehicle_type_id":"4","last_reported":1730070592,"current_range_meters":39200,"station_id":"ce4bhk92rcd13ifvqgb0","pricing_plan_id":"cebpf4jnsgd1na2vs0mg"},{"bike_id":"586c9364-d841-42a5-96f6-a227c2d19cf5","system_id":"levelo_inurba_marseille","lat":43.28653,"lon":5.3636,"is_reserved":false,"is_disabled":false,"rental_uris":{"android":"levelo://app?vid=586c9364-d841-42a5-96f6-a227c2d19cf5","ios":"levelo://app?vid=586c9364-d841-42a5-96f6-a227c2d19cf5"},"vehicle_type_id":"4","last_reported":1730070592,"current_range_meters":6800,"station_id":"ce4bhah2rcd13ifvqej0","pricing_plan_id":"cebpf4jnsgd1na2vs0mg"},{"bike_id":"c54ad764-6ee9-458d-b1fd-4ba2647c6a0a","system_id":"levelo_inurba_marseille","lat":43.32485,"lon":5.3657,"is_reserved":false,"is_disabled":false,"rental_uris":{"android":"levelo://app?vid=c54ad764-6ee9-458d-b1fd-4ba2647c6a0a","ios":"levelo://app?vid=c54ad764-6ee9-458d-b1fd-4ba2647c6a0a"},"vehicle_type_id":"4","last_reported":1730070592,"current_range_meters":38800,"station_id":"ce4bhs12rcd13ifvqhvg","pricing_plan_id":"cebpf4jnsgd1na2vs0mg"},{"bike_id":"89dd3134-b025-416d-8fea-1e4e35dbefc4","system_id":"levelo_inurba_marseille","lat":43.26795,"lon":5.39418,"is_reserved":false,"is_disabled":false,"rental_uris":{"android":"levelo://app?vid=89dd3134-b025-416d-8fea-1e4e35dbefc4","ios":"levelo://app?vid=89dd3134-b025-416d-8fea-1e4e35dbefc4"},"vehicle_type_id":"4","last_reported":1730070592,"current_range_meters":4400,"station_id":"ce4bhh12rcd13ifvqfg0","pricing_plan_id":"cebpf4jnsgd1na2vs0mg"},{"bike_id":"b497d91c-1f87-4508-b462-50136e06ba9f","system_id":"levelo_inurba_marseille","lat":43.2418,"lon":5.39728,"is_reserved":false,"is_disabled":false,"rental_uris":{"android":"levelo://app?vid=b497d91c-1f87-4508-b462-50136e06ba9f","ios":"levelo://app?vid=b497d91c-1f87-4508-b462-50136e06ba9f"},"vehicle_type_id":"4","last_reported":1730070592,"current_range_meters":35600,"station_id":"ce4bhn12rcd13ifvqgpg","pricing_plan_id":"cebpf4jnsgd1na2vs0mg"},{"bike_id":"e0bf05b6-3eb6-4872-8e8d-82b38f035f72","system_id":"levelo_inurba_marseille","lat":43.23184,"lon":5.39982,"is_reserved":false,"is_disabled":false,"rental_uris":{"android":"levelo://app?vid=e0bf05b6-3eb6-4872-8e8d-82b38f035f72","ios":"levelo://app?vid=e0bf05b6-3eb6-4872-8e8d-82b38f035f72"},"vehicle_type_id":"4","last_reported":1730070592,"current_range_meters":29600,"station_id":"ce4bhn12rcd13ifvqgqg","pricing_plan_id":"cebpf4jnsgd1na2vs0mg"},{"bike_id":"dba8cbb6-488b-4476-81c2-22862d5ee384","system_id":"levelo_inurba_marseille","lat":43.30773,"lon":5.37655,"is_reserved":false,"is_disabled":false,"rental_uris":{"android":"levelo://app?vid=dba8cbb6-488b-4476-81c2-22862d5ee384","ios":"levelo://app?vid=dba8cbb6-488b-4476-81c2-22862d5ee384"},"vehicle_type_id":"4","last_reported":1730070592,"current_range_meters":39200,"station_id":"ce4bgv92rcd13ifvqcq0","pricing_plan_id":"cebpf4jnsgd1na2vs0mg"},{"bike_id":"870759aa-b4f1-410f-8dd7-8cce75f5dcfb","system_id":"levelo_inurba_marseille","lat":43.23152,"lon":5.43724,"is_reserved":false,"is_disabled":false,"rental_uris":{"android":"levelo://app?vid=870759aa-b4f1-410f-8dd7-8cce75f5dcfb","ios":"levelo://app?vid=870759aa-b4f1-410f-8dd7-8cce75f5dcfb"},"vehicle_type_id":"4","last_reported":1730070592,"current_range_meters":34000,"station_id":"ce4bhmp2rcd13ifvqgog","pricing_plan_id":"cebpf4jnsgd1na2vs0mg"},{"bike_id":"03ffeab1-71a3-48a9-9c51-d04215d91470","system_id":"levelo_inurba_marseille","lat":43.28148,"lon":5.42651,"is_reserved":false,"is_disabled":false,"rental_uris":{"android":"levelo://app?vid=03ffeab1-71a3-48a9-9c51-d04215d91470","ios":"levelo://app?vid=03ffeab1-71a3-48a9-9c51-d04215d91470"},"vehicle_type_id":"4","last_reported":1730070592,"current_range_meters":24000,"station_id":"ce4bhnh2rcd13ifvqgug","pricing_plan_id":"cebpf4jnsgd1na2vs0mg"},{"bike_id":"016fc884-44e1-4e58-afe4-7e18f6f1d442","system_id":"levelo_inurba_marseille","lat":43.27904,"lon":5.38021,"is_reserved":false,"is_disabled":false,"rental_uris":{"android":"levelo://app?vid=016fc884-44e1-4e58-afe4-7e18f6f1d442","ios":"levelo://app?vid=016fc884-44e1-4e58-afe4-7e18f6f1d442"},"vehicle_type_id":"4","last_reported":1730070592,"current_range_meters":24400,"station_id":"ce4bhf92rcd13ifvqf50","pricing_plan_id":"cebpf4jnsgd1na2vs0mg"},{"bike_id":"e2732363-8e1b-45e7-a618-8dda5d1a4482","system_id":"levelo_inurba_marseille","lat":43.23961,"lon":5.36633,"is_reserved":false,"is_disabled":false,"rental_uris":{"android":"levelo://app?vid=e2732363-8e1b-45e7-a618-8dda5d1a4482","ios":"levelo://app?vid=e2732363-8e1b-45e7-a618-8dda5d1a4482"},"vehicle_type_id":"4","last_reported":1730070592,"current_range_meters":8400,"station_id":"ce4bhi12rcd13ifvqfp0","pricing_plan_id":"cebpf4jnsgd1na2vs0mg"},{"bike_id":"4a7a540e-ad39-4ed2-95e3-93bb1da1620d","system_id":"levelo_inurba_marseille","lat":43.29702,"lon":5.36593,"is_reserved":false,"is_disabled":false,"rental_uris":{"android":"levelo://app?vid=4a7a540e-ad39-4ed2-95e3-93bb1da1620d","ios":"levelo://app?vid=4a7a540e-ad39-4ed2-95e3-93bb1da1620d"},"vehicle_type_id":"4","last_reported":1730070592,"current_range_meters":38800,"station_id":"ce4bgn12rcd13ifvqbt0","pricing_plan_id":"cebpf4jnsgd1na2vs0mg"},{"bike_id":"5ccb7ee4-6a2d-45c4-8fb7-cd26045ce7d9","system_id":"levelo_inurba_marseille","lat":43.30937,"lon":5.4015,"is_reserved":false,"is_disabled":false,"rental_uris":{"android":"levelo://app?vid=5ccb7ee4-6a2d-45c4-8fb7-cd26045ce7d9","ios":"levelo://app?vid=5ccb7ee4-6a2d-45c4-8fb7-cd26045ce7d9"},"vehicle_type_id":"4","last_reported":1730070592,"current_range_meters":27600,"station_id":"ce4bgvp2rcd13ifvqct0","pricing_plan_id":"cebpf4jnsgd1na2vs0mg"},{"bike_id":"6c4501c5-b4b5-40ac-8339-f5cfedeb62b4","system_id":"levelo_inurba_marseille","lat":43.31499,"lon":5.37309,"is_reserved":false,"is_disabled":false,"rental_uris":{"android":"levelo://app?vid=6c4501c5-b4b5-40ac-8339-f5cfedeb62b4","ios":"levelo://app?vid=6c4501c5-b4b5-40ac-8339-f5cfedeb62b4"},"vehicle_type_id":"4","last_reported":1730070592,"current_range_meters":10800,"station_id":"ce4bgt12rcd13ifvqcd0","pricing_plan_id":"cebpf4jnsgd1na2vs0mg"},{"bike_id":"6a41d150-6ecb-43b9-80a3-28b47ecefd30","system_id":"levelo_inurba_marseille","lat":43.30606,"lon":5.37229,"is_reserved":false,"is_disabled":false,"rental_uris":{"android":"levelo://app?vid=6a41d150-6ecb-43b9-80a3-28b47ecefd30","ios":"levelo://app?vid=6a41d150-6ecb-43b9-80a3-28b47ecefd30"},"vehicle_type_id":"4","last_reported":1730070592,"current_range_meters":22800,"station_id":"ce4bgqh2rcd13ifvqc4g","pricing_plan_id":"cebpf4jnsgd1na2vs0mg"},{"bike_id":"f2545ce3-7885-4d1b-9e04-57efd565ad77","system_id":"levelo_inurba_marseille","lat":43.30238,"lon":5.40054,"is_reserved":false,"is_disabled":false,"rental_uris":{"android":"levelo://app?vid=f2545ce3-7885-4d1b-9e04-57efd565ad77","ios":"levelo://app?vid=f2545ce3-7885-4d1b-9e04-57efd565ad77"},"vehicle_type_id":"4","last_reported":1730070592,"current_range_meters":38800,"station_id":"ce4bgvh2rcd13ifvqcs0","pricing_plan_id":"cebpf4jnsgd1na2vs0mg"},{"bike_id":"2013c153-ff51-4e02-8905-85f92aa2fbe4","system_id":"levelo_inurba_marseille","lat":43.29967,"lon":5.38489,"is_reserved":false,"is_disabled":false,"rental_uris":{"android":"levelo://app?vid=2013c153-ff51-4e02-8905-85f92aa2fbe4","ios":"levelo://app?vid=2013c153-ff51-4e02-8905-85f92aa2fbe4"},"vehicle_type_id":"4","last_reported":1730070592,"current_range_meters":29600,"station_id":"ce4bgj92rcd13ifvqbd0","pricing_plan_id":"cebpf4jnsgd1na2vs0mg"},{"bike_id":"7d0d6da2-ea58-46a9-b143-ef11153901da","system_id":"levelo_inurba_marseille","lat":43.28152,"lon":5.42645,"is_reserved":false,"is_disabled":false,"rental_uris":{"android":"levelo://app?vid=7d0d6da2-ea58-46a9-b143-ef11153901da","ios":"levelo://app?vid=7d0d6da2-ea58-46a9-b143-ef11153901da"},"vehicle_type_id":"4","last_reported":1730070592,"current_range_meters":39200,"station_id":"ce4bhnh2rcd13ifvqgug","pricing_plan_id":"cebpf4jnsgd1na2vs0mg"},{"bike_id":"8ff43a9b-0c91-4da2-a5da-c019bc802af5","system_id":"levelo_inurba_marseille","lat":43.307949,"lon":5.433853,"is_reserved":false,"is_disabled":false,"rental_uris":{"android":"levelo://app?vid=8ff43a9b-0c91-4da2-a5da-c019bc802af5","ios":"levelo://app?vid=8ff43a9b-0c91-4da2-a5da-c019bc802af5"},"vehicle_type_id":"4","last_reported":1730070592,"current_range_meters":6800,"station_id":"ce4bhph2rcd13ifvqheg","pricing_plan_id":"cebpf4jnsgd1na2vs0mg"},{"bike_id":"5c87e2cf-2373-4c29-b0a4-27279fc8474a","system_id":"levelo_inurba_marseille","lat":43.31363,"lon":5.38494,"is_reserved":false,"is_disabled":false,"rental_uris":{"android":"levelo://app?vid=5c87e2cf-2373-4c29-b0a4-27279fc8474a","ios":"levelo://app?vid=5c87e2cf-2373-4c29-b0a4-27279fc8474a"},"vehicle_type_id":"4","last_reported":1730070592,"current_range_meters":22000,"station_id":"ce4bgt92rcd13ifvqcf0","pricing_plan_id":"cebpf4jnsgd1na2vs0mg"},{"bike_id":"eb406fbe-05e1-499a-8adc-500b8e7f2365","system_id":"levelo_inurba_marseille","lat":43.30797,"lon":5.43531,"is_reserved":false,"is_disabled":false,"rental_uris":{"android":"levelo://app?vid=eb406fbe-05e1-499a-8adc-500b8e7f2365","ios":"levelo://app?vid=eb406fbe-05e1-499a-8adc-500b8e7f2365"},"vehicle_type_id":"4","last_reported":1730070592,"current_range_meters":6400,"station_id":"ce4bhph2rcd13ifvqheg","pricing_plan_id":"cebpf4jnsgd1na2vs0mg"},{"bike_id":"98b526ca-125d-4427-98a8-82b136d261b0","system_id":"levelo_inurba_marseille","lat":43.23182,"lon":5.39992,"is_reserved":false,"is_disabled":false,"rental_uris":{"android":"levelo://app?vid=98b526ca-125d-4427-98a8-82b136d261b0","ios":"levelo://app?vid=98b526ca-125d-4427-98a8-82b136d261b0"},"vehicle_type_id":"4","last_reported":1730070592,"current_range_meters":9200,"station_id":"ce4bhn12rcd13ifvqgqg","pricing_plan_id":"cebpf4jnsgd1na2vs0mg"},