{"last_updated":1727507243,"ttl":60,"version":"2.2","data":{"bikes":[{"bike_id":"88e686c5-18bf-4f6f-a54b-f6a6f7b7270a","system_id":"levelo_inurba_marseille","lat":43.29991,"lon":5.38214,"is_reserved":false,"is_disabled":false,"rental_uris":{"android":"levelo://app?vid=88e686c5-18bf-4f6f-a54b-f6a6f7b7270a","ios":"levelo://app?vid=88e686c5-18bf-4f6f-a54b-f6a6f7b7270a"},"vehicle_type_id":"4","last_reported":1727507243,"current_range_meters":17200,"station_id":"","pricing_plan_id":"cebpf4jnsgd1na2vs0mg"},{"bike_id":"f2602725-d633-43ab-bd38-fb1227eda7aa","system_id":"levelo_inurba_marseille","lat":43.2984,"lon":5.36264,"is_reserved":false,"is_disabled":false,"rental_uris":{"android":"levelo://app?vid=f2602725-d633-43ab-bd38-fb1227eda7aa","ios":"levelo://app?vid=f2602725-d633-43ab-bd38-fb1227eda7aa"},"vehicle_type_id":"4","last_reported":1727507243,"current_range_meters":39200,"station_id":"ce4bgpp2rcd13ifvqc3g","pricing_plan_id":"cebpf4jnsgd1na2vs0mg"},{"bike_id":"6dd65401-3259-455b-9d6d-245adfe3f67a","system_id":"levelo_inurba_marseille","lat":43.27917,"lon":5.39593,"is_reserved":false,"is_disabled":false,"rental_uris":{"android":"levelo://app?vid=6dd65401-3259-455b-9d6d-245adfe3f67a","ios":"levelo://app?vid=6dd65401-3259-455b-9d6d-245adfe3f67a"},"vehicle_type_id":"4","last_reported":1727507243,"current_range_meters":24000,"station_id":"ce4bhf92rcd13ifvqf40","pricing_plan_id":"cebpf4jnsgd1na2vs0mg"},{"bike_id":"e7081ef8-8a32-46a8-a293-c48ce527862e","system_id":"levelo_inurba_marseille","lat":43.34502,"lon":5.41626,"is_reserved":false,"is_disabled":false,"rental_uris":{"android":"levelo://app?vid=e7081ef8-8a32-46a8-a293-c48ce527862e","ios":"levelo://app?vid=e7081ef8-8a32-46a8-a293-c48ce527862e"},"vehicle_type_id":"4","last_reported":1727507243,"current_range_meters":6400,"station_id":"","pricing_plan_id":"cebpf4jnsgd1na2vs0mg"},{"bike_id":"fb5c5b18-3490-474b-9366-26167243c812","system_id":"levelo_inurba_marseille","lat":43.24669,"lon":5.38164,"is_reserved":false,"is_disabled":false,"rental_uris":{"android":"levelo://app?vid=fb5c5b18-3490-474b-9366-26167243c812","ios":"levelo://app?vid=fb5c5b18-3490-474b-9366-26167243c812"},"vehicle_type_id":"4","last_reported":1727507243,"current_range_meters":30800,"station_id":"ce4bhih2rcd13ifvqfr0","pricing_plan_id":"cebpf4jnsgd1na2vs0mg"},{"bike_id":"20d3e793-05ed-4bd0-979b-f6b46cc4aba9","system_id":"levelo_inurba_marseille","lat":43.28942,"lon":5.3641,"is_reserved":false,"is_disabled":false,"rental_uris":{"android":"levelo://app?vid=20d3e793-05ed-4bd0-979b-f6b46cc4aba9","ios":"levelo://app?vid=20d3e793-05ed-4bd0-979b-f6b46cc4aba9"},"vehicle_type_id":"4","last_reported":1727507243,"current_range_meters":38400,"station_id":"ce4bhc92rcd13ifvqetg","pricing_plan_id":"cebpf4jnsgd1na2vs0mg"},{"bike_id":"069cda62-b618-45be-8c2c-9603660f4c74","system_id":"levelo_inurba_marseille","lat":43.29199,"lon":5.35802,"is_reserved":false,"is_disabled":false,"rental_uris":{"android":"levelo://app?vid=069cda62-b618-45be-8c2c-9603660f4c74","ios":"levelo://app?vid=069cda62-b618-45be-8c2c-9603660f4c74"},"vehicle_type_id":"4","last_reported":1727507243,"current_range_meters":2800,"station_id":"ce4bhb12rcd13ifvqel0","pricing_plan_id":"cebpf4jnsgd1na2vs0mg"},{"bike_id":"065bacd5-9929-4380-91c4-587ad3f90b3f","system_id":"levelo_inurba_marseille","lat":43.31269,"lon":5.40163,"is_reserved":false,"is_disabled":false,"rental_uris":{"android":"levelo://app?vid=065bacd5-9929-4380-91c4-587ad3f90b3f","ios":"levelo://app?vid=065bacd5-9929-4380-91c4-587ad3f90b3f"},"vehicle_type_id":"4","last_reported":1727507243,"current_range_meters":39200,"station_id":"ce4bh092rcd13ifvqd30","pricing_plan_id":"cebpf4jnsgd1na2vs0mg"},{"bike_id":"6642d7d8-2484-4537-aa6a-5def2bf5f855","system_id":"levelo_inurba_marseille","lat":43.297558,"lon":5.380788,"is_reserved":false,"is_disabled":false,"rental_uris":{"android":"levelo://app?vid=6642d7d8-2484-4537-aa6a-5def2bf5f855","ios":"levelo://app?vid=6642d7d8-2484-4537-aa6a-5def2bf5f855"},"vehicle_type_id":"4","last_reported":1727507243,"current_range_meters":36400,"station_id":"","pricing_plan_id":"cebpf4jnsgd1na2vs0mg"},{"bike_id":"c42bda2a-576f-4405-9ceb-4d1e065cf644","system_id":"levelo_inurba_marseille","lat":43.27951,"lon":5.41049,"is_reserved":false,"is_disabled":false,"rental_uris":{"android":"levelo://app?vid=c42bda2a-576f-4405-9ceb-4d1e065cf644","ios":"levelo://app?vid=c42bda2a-576f-4405-9ceb-4d1e065cf644"},"vehicle_type_id":"4","last_reported":1727507243,"current_range_meters":38400,"station_id":"ce4bhnp2rcd13ifvqh0g","pricing_plan_id":"cebpf4jnsgd1na2vs0mg"},{"bike_id":"b31d2a6f-f5b3-427c-91ed-ee55eb9ea647","system_id":"levelo_inurba_marseille","lat":43.28405,"lon":5.37522,"is_reserved":false,"is_disabled":false,"rental_uris":{"android":"levelo://app?vid=b31d2a6f-f5b3-427c-91ed-ee55eb9ea647","ios":"levelo://app?vid=b31d2a6f-f5b3-427c-91ed-ee55eb9ea647"},"vehicle_type_id":"4","last_reported":1727507243,"current_range_meters":34000,"station_id":"ce4bh412rcd13ifvqds0","pricing_plan_id":"cebpf4jnsgd1na2vs0mg"},{"bike_id":"61003e19-5ab7-4221-a140-bd67cbefa582","system_id":"levelo_inurba_marseille","lat":43.3376,"lon":5.37437,"is_reserved":false,"is_disabled":false,"rental_uris":{"android":"levelo://app?vid=61003e19-5ab7-4221-a140-bd67cbefa582","ios":"levelo://app?vid=61003e19-5ab7-4221-a140-bd67cbefa582"},"vehicle_type_id":"4","last_reported":1727507243,"current_range_meters":34000,"station_id":"","pricing_plan_id":"cebpf4jnsgd1na2vs0mg"},{"bike_id":"f6f8cda9-f51d-4be8-a2ad-8943d0d2dc46","system_id":"levelo_inurba_marseille","lat":43.32359,"lon":5.38892,"is_reserved":false,"is_disabled":false,"rental_uris":{"android":"levelo://app?vid=f6f8cda9-f51d-4be8-a2ad-8943d0d2dc46","ios":"levelo://app?vid=f6f8cda9-f51d-4be8-a2ad-8943d0d2dc46"},"vehicle_type_id":"4","last_reported":1727507243,"current_range_meters":23200,"station_id":"ce4bhqp2rcd13ifvqhog","pricing_plan_id":"cebpf4jnsgd1na2vs0mg"},{"bike_id":"02c6d3d8-077a-4c1a-ae87-92ce1ff0942b","system_id":"levelo_inurba_marseille","lat":43.23182,"lon":5.39991,"is_reserved":false,"is_disabled":false,"rental_uris":{"android":"levelo://app?vid=02c6d3d8-077a-4c1a-ae87-92ce1ff0942b","ios":"levelo://app?vid=02c6d3d8-077a-4c1a-ae87-92ce1ff0942b"},"vehicle_type_id":"4","last_reported":1727507243,"current_range_meters":24000,"station_id":"ce4bhn12rcd13ifvqgqg","pricing_plan_id":"cebpf4jnsgd1na2vs0mg"},{"bike_id":"86ab9e15-2330-4229-871b-cd4aa2f273d2","system_id":"levelo_inurba_marseille","lat":43.32823,"lon":5.40507,"is_reserved":false,"is_disabled":false,"rental_uris":{"android":"levelo://app?vid=86ab9e15-2330-4229-871b-cd4aa2f273d2","ios":"levelo://app?vid=86ab9e15-2330-4229-871b-cd4aa2f273d2"},"vehicle_type_id":"4","last_reported":1727507243,"current_range_meters":3600,"station_id":"","pricing_plan_id":"cebpf4jnsgd1na2vs0mg"},{"bike_id":"a4a2f0c3-49a8-4928-8430-9d7576a0a2ee","system_id":"levelo_inurba_marseille","lat":43.27499,"lon":5.42452,"is_reserved":false,"is_disabled":false,"rental_uris":{"android":"levelo://app?vid=a4a2f0c3-49a8-4928-8430-9d7576a0a2ee","ios":"levelo://app?vid=a4a2f0c3-49a8-4928-8430-9d7576a0a2ee"},"vehicle_type_id":"4","last_reported":1727507243,"current_range_meters":24800,"station_id":"ce4bhn92rcd13ifvqgrg","pricing_plan_id":"cebpf4jnsgd1na2vs0mg"},{"bike_id":"45de4d0e-6260-457a-8c5b-8736e995e5cd","system_id":"levelo_inurba_marseille","lat":43.26035,"lon":5.3756,"is_reserved":false,"is_disabled":false,"rental_uris":{"android":"levelo://app?vid=45de4d0e-6260-457a-8c5b-8736e995e5cd","ios":"levelo://app?vid=45de4d0e-6260-457a-8c5b-8736e995e5cd"},"vehicle_type_id":"4","last_reported":1727507243,"current_range_meters":10000,"station_id":"ce4bhgh2rcd13ifvqfa0","pricing_plan_id":"cebpf4jnsgd1na2vs0mg"},{"bike_id":"fdecff15-3179-4e36-968c-4f84422781a2","system_id":"levelo_inurba_marseille","lat":43.28413,"lon":5.37514,"is_reserved":false,"is_disabled":false,"rental_uris":{"android":"levelo://app?vid=fdecff15-3179-4e36-968c-4f84422781a2","ios":"levelo://app?vid=fdecff15-3179-4e36-968c-4f84422781a2"},"vehicle_type_id":"4","last_reported":1727507243,"current_range_meters":10800,"station_id":"ce4bh412rcd13ifvqds0","pricing_plan_id":"cebpf4jnsgd1na2vs0mg"},{"bike_id":"fd95b7d0-9465-4ced-a887-157866b5f796","system_id":"levelo_inurba_marseille","lat":43.28075,"lon":5.39655,"is_reserved":false,"is_disabled":false,"rental_uris":{"android":"levelo://app?vid=fd95b7d0-9465-4ced-a887-157866b5f796","ios":"levelo://app?vid=fd95b7d0-9465-4ced-a887-157866b5f796"},"vehicle_type_id":"4","last_reported":1727507243,"current_range_meters":39200,"station_id":"ce4bho12rcd13ifvqh2g","pricing_plan_id":"cebpf4jnsgd1na2vs0mg"},{"bike_id":"9b75a29d-f1a9-4fde-909a-755a96ab8371","system_id":"levelo_inurba_marseille","lat":43.28267,"lon":5.35074,"is_reserved":false,"is_disabled":false,"rental_uris":{"android":"levelo://app?vid=9b75a29d-f1a9-4fde-909a-755a96ab8371","ios":"levelo://app?vid=9b75a29d-f1a9-4fde-909a-755a96ab8371"},"vehicle_type_id":"4","last_reported":1727507243,"current_range_meters":38800,"station_id":"ce4bhbp2rcd13ifvqerg","pricing_plan_id":"cebpf4jnsgd1na2vs0mg"},{"bike_id":"a2b4b0ab-e9f6-447d-9d29-5bfbabc5e1d4","system_id":"levelo_inurba_marseille","lat":43.28378,"lon":5.38644,"is_reserved":false,"is_disabled":false,"rental_uris":{"android":"levelo://app?vid=a2b4b0ab-e9f6-447d-9d29-5bfbabc5e1d4","ios":"levelo://app?vid=a2b4b0ab-e9f6-447d-9d29-5bfbabc5e1d4"},"vehicle_type_id":"4","last_reported":1727507243,"current_range_meters":16800,"station_id":"ce4bh492rcd13ifvqdvg","pricing_plan_id":"cebpf4jnsgd1na2vs0mg"},{"bike_id":"547e2159-7a4b-4c55-aede-f3c45615a7fa","system_id":"levelo_inurba_marseille","lat":43.2316,"lon":5.437,"is_reserved":false,"is_disabled":false,"rental_uris":{"android":"levelo://app?vid=547e2159-7a4b-4c55-aede-f3c45615a7fa","ios":"levelo://app?vid=547e2159-7a4b-4c55-aede-f3c45615a7fa"},"vehicle_type_id":"4","last_reported":1727507243,"current_range_meters":36800,"station_id":"ce4bhmp2rcd13ifvqgog","pricing_plan_id":"cebpf4jnsgd1na2vs0mg"},{"bike_id":"83ab67e9-9683-40ac-9b80-c07390469159","system_id":"levelo_inurba_marseille","lat":43.22922,"lon":5.35374,"is_reserved":false,"is_disabled":false,"rental_uris":{"android":"levelo://app?vid=83ab67e9-9683-40ac-9b80-c07390469159","ios":"levelo://app?vid=83ab67e9-9683-40ac-9b80-c07390469159"},"vehicle_type_id":"4","last_reported":1727507243,"current_range_meters":38000,"station_id":"cpo3532slgdg3j2ikp40","pricing_plan_id":"cebpf4jnsgd1na2vs0mg"},{"bike_id":"d5102023-2177-42c2-ad10-f0c853c8591c","system_id":"levelo_inurba_marseille","lat":43.29631,"lon":5.40595,"is_reserved":false,"is_disabled":false,"rental_uris":{"android":"levelo://app?vid=d5102023-2177-42c2-ad10-f0c853c8591c","ios":"levelo://app?vid=d5102023-2177-42c2-ad10-f0c853c8591c"},"vehicle_type_id":"4","last_reported":1727507243,"current_range_meters":38800,"station_id":"ce4bh0h2rcd13ifvqd60","pricing_plan_id":"cebpf4jnsgd1na2vs0mg"},{"bike_id":"73d4b1b9-8fa7-45c3-b819-17c2aa182b44","system_id":"levelo_inurba_marseille","lat":43.2956,"lon":5.4229,"is_reserved":false,"is_disabled":false,"rental_uris":{"android":"levelo://app?vid=73d4b1b9-8fa7-45c3-b819-17c2aa182b44","ios":"levelo://app?vid=73d4b1b9-8fa7-45c3-b819-17c2aa182b44"},"vehicle_type_id":"4","last_reported":1727507243,"current_range_meters":11600,"station_id":"ce4bhph2rcd13ifvqhdg","pricing_plan_id":"cebpf4jnsgd1na2vs0mg"},{"bike_id":"2de6baeb-42fc-4f78-baf1-4fd4579b6aba","system_id":"levelo_inurba_marseille","lat":43.33026,"lon":5.39043,"is_reserved":false,"is_disabled":false,"rental_uris":{"android":"levelo://app?vid=2de6baeb-42fc-4f78-baf1-4fd4579b6aba","ios":"levelo://app?vid=2de6baeb-42fc-4f78-baf1-4fd4579b6aba"},"vehicle_type_id":"4","last_reported":1727507243,"current_range_meters":11200,"station_id":"ce4bhr92rcd13ifvqhrg","pricing_plan_id":"cebpf4jnsgd1na2vs0mg"},{"bike_id":"28f5d0e0-5ef9-4a12-9b39-7c641235e3d0","system_id":"levelo_inurba_marseille","lat":43.30783,"lon":5.37646,"is_reserved":false,"is_disabled":false,"rental_uris":{"android":"levelo://app?vid=28f5d0e0-5ef9-4a12-9b39-7c641235e3d0","ios":"levelo://app?vid=28f5d0e0-5ef9-4a12-9b39-7c641235e3d0"},"vehicle_type_id":"4","last_reported":1727507243,"current_range_meters":15200,"station_id":"ce4bgv92rcd13ifvqcq0","pricing_plan_id":"cebpf4jnsgd1na2vs0mg"},{"bike_id":"9f6b5ef6-02f7-4c16-9005-0978229a95e0","system_id":"levelo_inurba_marseille","lat":43.28455,"lon":5.35899,"is_reserved":false,"is_disabled":false,"rental_uris":{"android":"levelo://app?vid=9f6b5ef6-02f7-4c16-9005-0978229a95e0","ios":"levelo://app?vid=9f6b5ef6-02f7-4c16-9005-0978229a95e0"},"vehicle_type_id":"4","last_reported":1727507243,"current_range_meters":38400,"station_id":"ce4bhah2rcd13ifvqei0","pricing_plan_id":"cebpf4jnsgd1na2vs0mg"},{"bike_id":"d395f723-67ab-463d-b33d-2dfc8dc773fb","system_id":"levelo_inurba_marseille","lat":43.25834,"lon":5.39425,"is_reserved":false,"is_disabled":false,"rental_uris":{"android":"levelo://app?vid=d395f723-67ab-463d-b33d-2dfc8dc773fb","ios":"levelo://app?vid=d395f723-67ab-463d-b33d-2dfc8dc773fb"},"vehicle_type_id":"4","last_reported":1727507243,"current_range_meters":38400,"station_id":"ce4bhip2rcd13ifvqft0","pricing_plan_id":"cebpf4jnsgd1na2vs0mg"},{"bike_id":"6fb54eef-1b79-4c8c-956c-b78c5752a631","system_id":"levelo_inurba_marseille","lat":43.25826,"lon":5.39441,"is_reserved":false,"is_disabled":false,"rental_uris":{"android":"levelo://app?vid=6fb54eef-1b79-4c8c-956c-b78c5752a631","ios":"levelo://app?vid=6fb54eef-1b79-4c8c-956c-b78c5752a631"},"vehicle_type_id":"4","last_reported":1727507243,"current_range_meters":8000,"station_id":"ce4bhip2rcd13ifvqft0","pricing_plan_id":"cebpf4jnsgd1na2vs0mg"},{"bike_id":"0abfa85f-e51b-42a4-82e2-778eb183e74e","system_id":"levelo_inurba_marseille","lat":43.31531,"lon":5.3804,"is_reserved":false,"is_disabled":false,"rental_uris":{"android":"levelo://app?vid=0abfa85f-e51b-42a4-82e2-778eb183e74e","ios":"levelo://app?vid=0abfa85f-e51b-42a4-82e2-778eb183e74e"},"vehicle_type_id":"4","last_reported":1727507243,"current_range_meters":38000,"station_id":"ce4bhsp2rcd13ifvqi50","pricing_plan_id":"cebpf4jnsgd1na2vs0mg"},{"bike_id":"b7abccf7-039d-47c7-b3a6-a5c7ad9bfa95","system_id":"levelo_inurba_marseille","lat":43.31115,"lon":5.37765,"is_reserved":false,"is_disabled":false,"rental_uris":{"android":"levelo://app?vid=b7abccf7-039d-47c7-b3a6-a5c7ad9bfa95","ios":"levelo://app?vid=b7abccf7-039d-47c7-b3a6-a5c7ad9bfa95"},"vehicle_type_id":"4","last_reported":1727507243,"current_range_meters":39200,"station_id":"ce4bgt92rcd13ifvqcg0","pricing_plan_id":"cebpf4jnsgd1na2vs0mg"},{"bike_id":"ef385aff-3079-48ef-a8fb-3479a7428776","system_id":"levelo_inurba_marseille","lat":43.27945,"lon":5.41041,"is_reserved":false,"is_disabled":false,"rental_uris":{"android":"levelo://app?vid=ef385aff-3079-48ef-a8fb-3479a7428776","ios":"levelo://app?vid=ef385aff-3079-48ef-a8fb-3479a7428776"},"vehicle_type_id":"4","last_reported":1727507243,"current_range_meters":38800,"station_id":"ce4bhnp2rcd13ifvqh0g","pricing_plan_id":"cebpf4jnsgd1na2vs0mg"},{"bike_id":"7fab7451-a6e0-472b-81ac-3e5565e130d8","system_id":"levelo_inurba_marseille","lat":43.33752,"lon":5.37361,"is_reserved":false,"is_disabled":false,"rental_uris":{"android":"levelo://app?vid=7fab7451-a6e0-472b-81ac-3e5565e130d8","ios":"levelo://app?vid=7fab7451-a6e0-472b-81ac-3e5565e130d8"},"vehicle_type_id":"4","last_reported":1727507243,"current_range_meters":23200,"station_id":"","pricing_plan_id":"cebpf4jnsgd1na2vs0mg"},{"bike_id":"c1f1be46-6a39-467c-91cf-9cc8be642387","system_id":"levelo_inurba_marseille","lat":43.31715,"lon":5.43708,"is_reserved":false,"is_disabled":false,"rental_uris":{"android":"levelo://app?vid=c1f1be46-6a39-467c-91cf-9cc8be642387","ios":"levelo://app?vid=c1f1be46-6a39-467c-91cf-9cc8be642387"},"vehicle_type_id":"4","last_reported":1727507243,"current_range_meters":22800,"station_id":"ce4bhp92rcd13ifvqhcg","pricing_plan_id":"cebpf4jnsgd1na2vs0mg"},{"bike_id":"06e383df-1197-449f-9df1-e723e6e5b745","system_id":"levelo_inurba_marseille","lat":43.23934,"lon":5.38276,"is_reserved":false,"is_disabled":false,"rental_uris":{"android":"levelo://app?vid=06e383df-1197-449f-9df1-e723e6e5b745","ios":"levelo://app?vid=06e383df-1197-449f-9df1-e723e6e5b745"},"vehicle_type_id":"4","last_reported":1727507243,"current_range_meters":8800,"station_id":"","pricing_plan_id":"cebpf4jnsgd1na2vs0mg"},{"bike_id":"e19c2211-331c-42ae-b78a-4ecc2a7133fe","system_id":"levelo_inurba_marseille","lat":43.2466,"lon":5.38163,"is_reserved":false,"is_disabled":false,"rental_uris":{"android":"levelo://app?vid=e19c2211-331c-42ae-b78a-4ecc2a7133fe","ios":"levelo://app?vid=e19c2211-331c-42ae-b78a-4ecc2a7133fe"},"vehicle_type_id":"4","last_reported":1727507243,"current_range_meters":38800,"station_id":"ce4bhih2rcd13ifvqfr0","pricing_plan_id":"cebpf4jnsgd1na2vs0mg"},{"bike_id":"51eaecec-0080-4902-9db8-230fe75a0ab2","system_id":"levelo_inurba_marseille","lat":43.29628,"lon":5.40589,"is_reserved":false,"is_disabled":false,"rental_uris":{"android":"levelo://app?vid=51eaecec-0080-4902-9db8-230fe75a0ab2","ios":"levelo://app?vid=51eaecec-0080-4902-9db8-230fe75a0ab2"},"vehicle_type_id":"4","last_reported":1727507243,"current_range_meters":31200,"station_id":"ce4bh0h2rcd13ifvqd60","pricing_plan_id":"cebpf4jnsgd1na2vs0mg"},{"bike_id":"53d3d543-4809-4f9c-a6c1-ced8bbb46e3b","system_id":"levelo_inurba_marseille","lat":43.24386,"lon":5.3705,"is_reserved":false,"is_disabled":false,"rental_uris":{"android":"levelo://app?vid=53d3d543-4809-4f9c-a6c1-ced8bbb46e3b","ios":"levelo://app?vid=53d3d543-4809-4f9c-a6c1-ced8bbb46e3b"},"vehicle_type_id":"4","last_reported":1727507243,"current_range_meters":39200,"station_id":"ce4bhhh2rcd13ifvqfk0","pricing_plan_id":"cebpf4jnsgd1na2vs0mg"},{"bike_id":"a00340c3-2a87-4b48-a268-ec041e1a44ab","system_id":"levelo_inurba_marseille","lat":43.337444,"lon":5.374475,"is_reserved":false,"is_disabled":false,"rental_uris":{"android":"levelo://app?vid=a00340c3-2a87-4b48-a268-ec041e1a44ab","ios":"levelo://app?vid=a00340c3-2a87-4b48-a268-ec041e1a44ab"},"vehicle_type_id":"4","last_reported":1727507243,"current_range_meters":12800,"station_id":"","pricing_plan_id":"cebpf4jnsgd1na2vs0mg"},{"bike_id":"20bea894-ab97-44cf-b75f-65b64d8d80b2","system_id":"levelo_inurba_marseille","lat":43.30151,"lon":5.381,"is_reserved":false,"is_disabled":false,"rental_uris":{"android":"levelo://app?vid=20bea894-ab97-44cf-b75f-65b64d8d80b2","ios":"levelo://app?vid=20bea894-ab97-44cf-b75f-65b64d8d80b2"},"vehicle_type_id":"4","last_reported":1727507243,"current_range_meters":28000,"station_id":"ce4bgjp2rcd13ifvqbh0","pricing_plan_id":"cebpf4jnsgd1na2vs0mg"},{"bike_id":"d068d157-381d-413c-84d5-85045142d6df","system_id":"levelo_inurba_marseille","lat":43.24391,"lon":5.37054,"is_reserved":false,"is_disabled":false,"rental_uris":{"android":"levelo://app?vid=d068d157-381d-413c-84d5-85045142d6df","ios":"levelo://app?vid=d068d157-381d-413c-84d5-85045142d6df"},"vehicle_type_id":"4","last_reported":1727507243,"current_range_meters":39200,"station_id":"ce4bhhh2rcd13ifvqfk0","pricing_plan_id":"cebpf4jnsgd1na2vs0mg"},{"bike_id":"88c252b6-34e7-4889-9529-1e33eadcc1d0","system_id":"levelo_inurba_marseille","lat":43.27207,"lon":5.39178,"is_reserved":false,"is_disabled":false,"rental_uris":{"android":"levelo://app?vid=88c252b6-34e7-4889-9529-1e33eadcc1d0","ios":"levelo://app?vid=88c252b6-34e7-4889-9529-1e33eadcc1d0"},"vehicle_type_id":"4","last_reported":1727507243,"current_range_meters":36800,"station_id":"ce4bhhp2rcd13ifvqfm0","pricing_plan_id":"cebpf4jnsgd1na2vs0mg"},{"bike_id":"3eef014d-d776-49be-8484-ae177328603a","system_id":"levelo_inurba_marseille","lat":43.31116,"lon":5.3776,"is_reserved":false,"is_disabled":false,"rental_uris":{"android":"levelo://app?vid=3eef014d-d776-49be-8484-ae177328603a","ios":"levelo://app?vid=3eef014d-d776-49be-8484-ae177328603a"},"vehicle_type_id":"4","last_reported":1727507243,"current_range_meters":23200,"station_id":"ce4bgt92rcd13ifvqcg0","pricing_plan_id":"cebpf4jnsgd1na2vs0mg"},{"bike_id":"8fe46ecc-1e67-4f19-8b8d-10a6acd8bd0b","system_id":"levelo_inurba_marseille","lat":43.25997,"lon":5.38679,"is_reserved":false,"is_disabled":false,"rental_uris":{"android":"levelo://app?vid=8fe46ecc-1e67-4f19-8b8d-10a6acd8bd0b","ios":"levelo://app?vid=8fe46ecc-1e67-4f19-8b8d-10a6acd8bd0b"},"vehicle_type_id":"4","last_reported":1727507243,"current_range_meters":9200,"station_id":"","pricing_plan_id":"cebpf4jnsgd1na2vs0mg"},{"bike_id":"69c822e0-82f3-4471-92b1-a17043de052d","system_id":"levelo_inurba_marseille","lat":43.28718,"lon":5.36092,"is_reserved":false,"is_disabled":false,"rental_uris":{"android":"levelo://app?vid=69c822e0-82f3-4471-92b1-a17043de052d","ios":"levelo://app?vid=69c822e0-82f3-4471-92b1-a17043de052d"},"vehicle_type_id":"4","last_reported":1727507243,"current_range_meters":9600,"station_id":"cki0cbj6b192h4jlfktg","pricing_plan_id":"cebpf4jnsgd1na2vs0mg"},{"bike_id":"bde544f5-3fb0-427a-a293-eae8b2ab9ecd","system_id":"levelo_inurba_marseille","lat":43.31992,"lon":5.38143,"is_reserved":false,"is_disabled":false,"rental_uris":{"android":"levelo://app?vid=bde544f5-3fb0-427a-a293-eae8b2ab9ecd","ios":"levelo://app?vid=bde544f5-3fb0-427a-a293-eae8b2ab9ecd"},"vehicle_type_id":"4","last_reported":1727507243,"current_range_meters":39200,"station_id":"ce4bhr12rcd13ifvqhpg","pricing_plan_id":"cebpf4jnsgd1na2vs0mg"},{"bike_id":"2bb56936-31f2-4da4-8af8-cead08cca0fc","system_id":"levelo_inurba_marseille","lat":43.23177,"lon":5.3999,"is_reserved":false,"is_disabled":false,"rental_uris":{"android":"levelo://app?vid=2bb56936-31f2-4da4-8af8-cead08cca0fc","ios":"levelo://app?vid=2bb56936-31f2-4da4-8af8-cead08cca0fc"},"vehicle_type_id":"4","last_reported":1727507243,"current_range_meters":28800,"station_id":"ce4bhn12rcd13ifvqgqg","pricing_plan_id":"cebpf4jnsgd1na2vs0mg"},{"bike_id":"b6f3e3a5-463f-4e04-84ad-db38dc53ca10","system_id":"levelo_inurba_marseille","lat":43.26676,"lon":5.38267,"is_reserved":false,"is_disabled":false,"rental_uris":{"android":"levelo://app?vid=b6f3e3a5-463f-4e04-84ad-db38dc53ca10","ios":"levelo://app?vid=b6f3e3a5-463f-4e04-84ad-db38dc53ca10"},"vehicle_type_id":"4","last_reported":1727507243,"current_range_meters":39200,"station_id":"ce4bhg92rcd13ifvqf90","pricing_plan_id":"cebpf4jnsgd1na2vs0mg"},{"bike_id":"4e7af17f-7bae-4a01-b602-6545b1a25484","system_id":"levelo_inurba_marseille","lat":43.30284,"lon":5.37703,"is_reserved":false,"is_disabled":false,"rental_uris":{"android":"levelo://app?vid=4e7af17f-7bae-4a01-b602-6545b1a25484","ios":"levelo://app?vid=4e7af17f-7bae-4a01-b602-6545b1a25484"},"vehicle_type_id":"4","last_reported":1727507243,"current_range_meters":39200,"station_id":"ce4bguh2rcd13ifvqcj0","pricing_plan_id":"cebpf4jnsgd1na2vs0mg"},{"bike_id":"afe5fcf5-fe1a-4d30-bfcd-4452c0d39cee","system_id":"levelo_inurba_marseille","lat":43.30149,"lon":5.38082,"is_reserved":false,"is_disabled":false,"rental_uris":{"android":"levelo://app?vid=afe5fcf5-fe1a-4d30-bfcd-4452c0d39cee","ios":"levelo://app?vid=afe5fcf5-fe1a-4d30-bfcd-4452c0d39cee"},"vehicle_type_id":"4","last_reported":1727507243,"current_range_meters":35200,"station_id":"ce4bgjp2rcd13ifvqbh0","pricing_plan_id":"cebpf4jnsgd1na2vs0mg"},{"bike_id":"199ae112-7a5a-4347-aeac-bb4a25e7635b","system_id":"levelo_inurba_marseille","lat":43.296509,"lon":5.405593,"is_reserved":false,"is_disabled":false,"rental_uris":{"android":"levelo://app?vid=199ae112-7a5a-4347-aeac-bb4a25e7635b","ios":"levelo://app?vid=199ae112-7a5a-4347-aeac-bb4a25e7635b"},"vehicle_type_id":"4","last_reported":1727507243,"current_range_meters":36400,"station_id":"ce4bh192rcd13ifvqdc0","pricing_plan_id":"cebpf4jnsgd1na2vs0mg"},{"bike_id":"991adec8-5c61-4b01-bbd2-48290cb7f4ab","system_id":"levelo_inurba_marseille","lat":43.29618,"lon":5.37146,"is_reserved":false,"is_disabled":false,"rental_uris":{"android":"levelo://app?vid=991adec8-5c61-4b01-bbd2-48290cb7f4ab","ios":"levelo://app?vid=991adec8-5c61-4b01-bbd2-48290cb7f4ab"},"vehicle_type_id":"4","last_reported":1727507243,"current_range_meters":38800,"station_id":"ce4bgnh2rcd13ifvqc0g","pricing_plan_id":"cebpf4jnsgd1na2vs0mg"},{"bike_id":"190b0699-b930-42f7-b3b0-6b2ee1a3350d","system_id":"levelo_inurba_marseille","lat":43.29891,"lon":5.38143,"is_reserved":false,"is_disabled":false,"rental_uris":{"android":"levelo://app?vid=190b0699-b930-42f7-b3b0-6b2ee1a3350d","ios":"levelo://app?vid=190b0699-b930-42f7-b3b0-6b2ee1a3350d"},"vehicle_type_id":"4","last_reported":1727507243,"current_range_meters":39200,"station_id":"ce4bgj12rcd13ifvqbc0","pricing_plan_id":"cebpf4jnsgd1na2vs0mg"},{"bike_id":"93b592c1-3637-4418-88f1-149375efabc7","system_id":"levelo_inurba_marseille","lat":43.30779,"lon":5.37649,"is_reserved":false,"is_disabled":false,"rental_uris":{"android":"levelo://app?vid=93b592c1-3637-4418-88f1-149375efabc7","ios":"levelo://app?vid=93b592c1-3637-4418-88f1-149375efabc7"},"vehicle_type_id":"4","last_reported":1727507243,"current_range_meters":35200,"station_id":"ce4bgv92rcd13ifvqcq0","pricing_plan_id":"cebpf4jnsgd1na2vs0mg"},{"bike_id":"6d2e0c7d-9a37-4e2b-8600-8680c8c9fb26","system_id":"levelo_inurba_marseille","lat":43.323364,"lon":5.406224,"is_reserved":false,"is_disabled":false,"rental_uris":{"android":"levelo://app?vid=6d2e0c7d-9a37-4e2b-8600-8680c8c9fb26","ios":"levelo://app?vid=6d2e0c7d-9a37-4e2b-8600-8680c8c9fb26"},"vehicle_type_id":"4","last_reported":1727507243,"current_range_meters":36400,"station_id":"ce4bhq92rcd13ifvqhjg","pricing_plan_id":"cebpf4jnsgd1na2vs0mg"},{"bike_id":"34210d1e-5120-452f-8bf4-0caac563929f","system_id":"levelo_inurba_marseille","lat":43.23186,"lon":5.39992,"is_reserved":false,"is_disabled":false,"rental_uris":{"android":"levelo://app?vid=34210d1e-5120-452f-8bf4-0caac563929f","ios":"levelo://app?vid=34210d1e-5120-452f-8bf4-0caac563929f"},"vehicle_type_id":"4","last_reported":1727507243,"current_range_meters":22400,"station_id":"ce4bhn12rcd13ifvqgqg","pricing_plan_id":"cebpf4jnsgd1na2vs0mg"},{"bike_id":"afd22b8f-da9e-49bd-b9c5-edbc00a92e9f","system_id":"levelo_inurba_marseille","lat":43.32656,"lon":5.40991,"is_reserved":false,"is_disabled":false,"rental_uris":{"android":"levelo://app?vid=afd22b8f-da9e-49bd-b9c5-edbc00a92e9f","ios":"levelo://app?vid=afd22b8f-da9e-49bd-b9c5-edbc00a92e9f"},"vehicle_type_id":"4","last_reported":1727507243,"current_range_meters":38000,"station_id":"ce4bhpp2rcd13ifvqhgg","pricing_plan_id":"cebpf4jnsgd1na2vs0mg"},{"bike_id":"43da96b4-5c52-46a9-9c78-ba1c20b69191","system_id":"levelo_inurba_marseille","lat":43.30435,"lon":5.39749,"is_reserved":false,"is_disabled":false,"rental_uris":{"android":"levelo://app?vid=43da96b4-5c52-46a9-9c78-ba1c20b69191","ios":"levelo://app?vid=43da96b4-5c52-46a9-9c78-ba1c20b69191"},"vehicle_type_id":"4","last_reported":1727507243,"current_range_meters":38000,"station_id":"ce4bh092rcd13ifvqd20","pricing_plan_id":"cebpf4jnsgd1na2vs0mg"},{"bike_id":"c7662f29-d977-460a-81ef-ae899ee53108","system_id":"levelo_inurba_marseille","lat":43.24547,"lon":5.39523,"is_reserved":false,"is_disabled":false,"rental_uris":{"android":"levelo://app?vid=c7662f29-d977-460a-81ef-ae899ee53108","ios":"levelo://app?vid=c7662f29-d977-460a-81ef-ae899ee53108"},"vehicle_type_id":"4","last_reported":1727507243,"current_range_meters":16400,"station_id":"ce4bhlp2rcd13ifvqgjg","pricing_plan_id":"cebpf4jnsgd1na2vs0mg"},{"bike_id":"47fa717d-e8de-45a4-8ddd-b14906f6f690","system_id":"levelo_inurba_marseille","lat":43.28442,"lon":5.3918,"is_reserved":false,"is_disabled":false,"rental_uris":{"android":"levelo://app?vid=47fa717d-e8de-45a4-8ddd-b14906f6f690","ios":"levelo://app?vid=47fa717d-e8de-45a4-8ddd-b14906f6f690"},"vehicle_type_id":"4","last_reported":1727507243,"current_range_meters":32800,"station_id":"ce4bhoh2rcd13ifvqh5g","pricing_plan_id":"cebpf4jnsgd1na2vs0mg"},{"bike_id":"38acefea-bc18-4b5e-b328-29a172e6d017","system_id":"levelo_inurba_marseille","lat":43.28383,"lon":5.38639,"is_reserved":false,"is_disabled":false,"rental_uris":{"android":"levelo://app?vid=38acefea-bc18-4b5e-b328-29a172e6d017","ios":"levelo://app?vid=38acefea-bc18-4b5e-b328-29a172e6d017"},"vehicle_type_id":"4","last_reported":1727507243,"current_range_meters":24800,"station_id":"ce4bh492rcd13ifvqdvg","pricing_plan_id":"cebpf4jnsgd1na2vs0mg"},{"bike_id":"69ff64b2-90b6-40c6-96cc-57e6441f6bb9","system_id":"levelo_inurba_marseille","lat":43.29035,"lon":5.39989,"is_reserved":false,"is_disabled":false,"rental_uris":{"android":"levelo://app?vid=69ff64b2-90b6-40c6-96cc-57e6441f6bb9","ios":"levelo://app?vid=69ff64b2-90b6-40c6-96cc-57e6441f6bb9"},"vehicle_type_id":"4","last_reported":1727507243,"current_range_meters":39200,"station_id":"ce4bh392rcd13ifvqdm0","pricing_plan_id":"cebpf4jnsgd1na2vs0mg"},{"bike_id":"e3ec6078-3a5c-4ce1-b7ff-abb50d0ea11c","system_id":"levelo_inurba_marseille","lat":43.25107,"lon":5.4033,"is_reserved":false,"is_disabled":false,"rental_uris":{"android":"levelo://app?vid=e3ec6078-3a5c-4ce1-b7ff-abb50d0ea11c","ios":"levelo://app?vid=e3ec6078-3a5c-4ce1-b7ff-abb50d0ea11c"},"vehicle_type_id":"4","last_reported":1727507243,"current_range_meters":10000,"station_id":"ce4bhlh2rcd13ifvqgig","pricing_plan_id":"cebpf4jnsgd1na2vs0mg"},{"bike_id":"29fffc0f-5ee1-49fd-b093-b8286cc6dbdb","system_id":"levelo_inurba_marseille","lat":43.2781,"lon":5.4071,"is_reserved":false,"is_disabled":false,"rental_uris":{"android":"levelo://app?vid=29fffc0f-5ee1-49fd-b093-b8286cc6dbdb","ios":"levelo://app?vid=29fffc0f-5ee1-49fd-b093-b8286cc6dbdb"},"vehicle_type_id":"4","last_reported":1727507243,"current_range_meters":16400,"station_id":"ce4bhnh2rcd13ifvqgtg","pricing_plan_id":"cebpf4jnsgd1na2vs0mg"},{"bike_id":"cf2a99f0-171d-46e2-b5f9-b8e518581e33","system_id":"levelo_inurba_marseille","lat":43.23959,"lon":5.36633,"is_reserved":false,"is_disabled":false,"rental_uris":{"android":"levelo://app?vid=cf2a99f0-171d-46e2-b5f9-b8e518581e33","ios":"levelo://app?vid=cf2a99f0-171d-46e2-b5f9-b8e518581e33"},"vehicle_type_id":"4","last_reported":1727507243,"current_range_meters":38000,"station_id":"ce4bhi12rcd13ifvqfp0","pricing_plan_id":"cebpf4jnsgd1na2vs0mg"},{"bike_id":"d90adb35-ffe7-4a40-989f-f0230c4178a8","system_id":"levelo_inurba_marseille","lat":43.30462,"lon":5.37914,"is_reserved":false,"is_disabled":false,"rental_uris":{"android":"levelo://app?vid=d90adb35-ffe7-4a40-989f-f0230c4178a8","ios":"levelo://app?vid=d90adb35-ffe7-4a40-989f-f0230c4178a8"},"vehicle_type_id":"4","last_reported":1727507243,"current_range_meters":35200,"station_id":"ce4bgup2rcd13ifvqcn0","pricing_plan_id":"cebpf4jnsgd1na2vs0mg"},{"bike_id":"65c8a0f3-336f-4dd0-b350-9a977bec0976","system_id":"levelo_inurba_marseille","lat":43.27953,"lon":5.4104,"is_reserved":false,"is_disabled":false,"rental_uris":{"android":"levelo://app?vid=65c8a0f3-336f-4dd0-b350-9a977bec0976","ios":"levelo://app?vid=65c8a0f3-336f-4dd0-b350-9a977bec0976"},"vehicle_type_id":"4","last_reported":1727507243,"current_range_meters":26800,"station_id":"ce4bhnp2rcd13ifvqh0g","pricing_plan_id":"cebpf4jnsgd1na2vs0mg"},{"bike_id":"1edebd99-2434-4fd0-a11f-d585198858c2","system_id":"levelo_inurba_marseille","lat":43.28963,"lon":5.48147,"is_reserved":false,"is_disabled":false,"rental_uris":{"android":"levelo://app?vid=1edebd99-2434-4fd0-a11f-d585198858c2","ios":"levelo://app?vid=1edebd99-2434-4fd0-a11f-d585198858c2"},"vehicle_type_id":"4","last_reported":1727507243,"current_range_meters":28400,"station_id":"","pricing_plan_id":"cebpf4jnsgd1na2vs0mg"},{"bike_id":"3e6bf87a-1253-4307-932e-19de6e54ae5f","system_id":"levelo_inurba_marseille","lat":43.27981,"lon":5.38766,"is_reserved":false,"is_disabled":false,"rental_uris":{"android":"levelo://app?vid=3e6bf87a-1253-4307-932e-19de6e54ae5f","ios":"levelo://app?vid=3e6bf87a-1253-4307-932e-19de6e54ae5f"},"vehicle_type_id":"4","last_reported":1727507243,"current_range_meters":39200,"station_id":"ce4bhg12rcd13ifvqf80","pricing_plan_id":"cebpf4jnsgd1na2vs0mg"},{"bike_id":"05a65473-4528-4866-bef5-6a81102143b3","system_id":"levelo_inurba_marseille","lat":43.27916,"lon":5.39581,"is_reserved":false,"is_disabled":false,"rental_uris":{"android":"levelo://app?vid=05a65473-4528-4866-bef5-6a81102143b3","ios":"levelo://app?vid=05a65473-4528-4866-bef5-6a81102143b3"},"vehicle_type_id":"4","last_reported":1727507243,"current_range_meters":37600,"station_id":"ce4bhf92rcd13ifvqf40","pricing_plan_id":"cebpf4jnsgd1na2vs0mg"},{"bike_id":"ab52395e-ba5e-4853-8871-805a1b180bda","system_id":"levelo_inurba_marseille","lat":43.289459,"lon":5.363942,"is_reserved":false,"is_disabled":false,"rental_uris":{"android":"levelo://app?vid=ab52395e-ba5e-4853-8871-805a1b180bda","ios":"levelo://app?vid=ab52395e-ba5e-4853-8871-805a1b180bda"},"vehicle_type_id":"4","last_reported":1727507243,"current_range_meters":36400,"station_id":"ce4bha92rcd13ifvqeh0","pricing_plan_id":"cebpf4jnsgd1na2vs0mg"},{"bike_id":"e173e9bf-3b91-451c-8346-16cb54836af9","system_id":"levelo_inurba_marseille","lat":43.24389,"lon":5.37055,"is_reserved":false,"is_disabled":false,"rental_uris":{"android":"levelo://app?vid=e173e9bf-3b91-451c-8346-16cb54836af9","ios":"levelo://app?vid=e173e9bf-3b91-451c-8346-16cb54836af9"},"vehicle_type_id":"4","last_reported":1727507243,"current_range_meters":39200,"station_id":"ce4bhhh2rcd13ifvqfk0","pricing_plan_id":"cebpf4jnsgd1na2vs0mg"},{"bike_id":"0fed74f7-0924-4d8e-943d-a2f778f6d444","system_id":"levelo_inurba_marseille","lat":43.301397,"lon":5.387803,"is_reserved":false,"is_disabled":false,"rental_uris":{"android":"levelo://app?vid=0fed74f7-0924-4d8e-943d-a2f778f6d444","ios":"levelo://app?vid=0fed74f7-0924-4d8e-943d-a2f778f6d444"},"vehicle_type_id":"4","last_reported":1727507243,"current_range_meters":22800,"station_id":"ce4bghh2rcd13ifvqb60","pricing_plan_id":"cebpf4jnsgd1na2vs0mg"},{"bike_id":"7db2ebac-ef38-4479-ab04-6dcff883ed81","system_id":"levelo_inurba_marseille","lat":43.28943,"lon":5.39626,"is_reserved":false,"is_disabled":false,"rental_uris":{"android":"levelo://app?vid=7db2ebac-ef38-4479-ab04-6dcff883ed81","ios":"levelo://app?vid=7db2ebac-ef38-4479-ab04-6dcff883ed81"},"vehicle_type_id":"4","last_reported":1727507243,"current_range_meters":30800,"station_id":"ce4bh3h2rcd13ifvqdn0","pricing_plan_id":"cebpf4jnsgd1na2vs0mg"},{"bike_id":"cd165583-7ba8-43c8-8263-2ed151a783ea","system_id":"levelo_inurba_marseille","lat":43.29597,"lon":5.38112,"is_reserved":false,"is_disabled":false,"rental_uris":{"android":"levelo://app?vid=cd165583-7ba8-43c8-8263-2ed151a783ea","ios":"levelo://app?vid=cd165583-7ba8-43c8-8263-2ed151a783ea"},"vehicle_type_id":"4","last_reported":1727507243,"current_range_meters":14000,"station_id":"ce4bgl12rcd13ifvqbo0","pricing_plan_id":"cebpf4jnsgd1na2vs0mg"},{"bike_id":"0b55a54a-cb93-429c-895c-43a1c40cd808","system_id":"levelo_inurba_marseille","lat":43.29268,"lon":5.36835,"is_reserved":false,"is_disabled":false,"rental_uris":{"android":"levelo://app?vid=0b55a54a-cb93-429c-895c-43a1c40cd808","ios":"levelo://app?vid=0b55a54a-cb93-429c-895c-43a1c40cd808"},"vehicle_type_id":"4","last_reported":1727507243,"current_range_meters":38800,"station_id":"ce4bhbp2rcd13ifvqesg","pricing_plan_id":"cebpf4jnsgd1na2vs0mg"},{"bike_id":"525a2431-150e-4587-95d6-e6539f12bec3","system_id":"levelo_inurba_marseille","lat":43.24668,"lon":5.38175,"is_reserved":false,"is_disabled":false,"rental_uris":{"android":"levelo://app?vid=525a2431-150e-4587-95d6-e6539f12bec3","ios":"levelo://app?vid=525a2431-150e-4587-95d6-e6539f12bec3"},"vehicle_type_id":"4","last_reported":1727507243,"current_range_meters":19200,"station_id":"ce4bhih2rcd13ifvqfr0","pricing_plan_id":"cebpf4jnsgd1na2vs0mg"},{"bike_id":"79de36c3-12d2-494a-8694-9013beb8b3e5","system_id":"levelo_inurba_marseille","lat":43.23188,"lon":5.3998,"is_reserved":false,"is_disabled":false,"rental_uris":{"android":"levelo://app?vid=79de36c3-12d2-494a-8694-9013beb8b3e5","ios":"levelo://app?vid=79de36c3-12d2-494a-8694-9013beb8b3e5"},"vehicle_type_id":"4","last_reported":1727507243,"current_range_meters":17600,"station_id":"ce4bhn12rcd13ifvqgqg","pricing_plan_id":"cebpf4jnsgd1na2vs0mg"},{"bike_id":"b31076bf-865d-43b2-8cbd-1aba32e55de4","system_id":"levelo_inurba_marseille","lat":43.29257,"lon":5.40914,"is_reserved":false,"is_disabled":false,"rental_uris":{"android":"levelo://app?vid=b31076bf-865d-43b2-8cbd-1aba32e55de4","ios":"levelo://app?vid=b31076bf-865d-43b2-8cbd-1aba32e55de4"},"vehicle_type_id":"4","last_reported":1727507243,"current_range_meters":30000,"station_id":"ce4bh192rcd13ifvqdc0","pricing_plan_id":"cebpf4jnsgd1na2vs0mg"},{"bike_id":"5f7c65f4-e71e-4e15-b205-025c2e0a2968","system_id":"levelo_inurba_marseille","lat":43.23182,"lon":5.39977,"is_reserved":false,"is_disabled":false,"rental_uris":{"android":"levelo://app?vid=5f7c65f4-e71e-4e15-b205-025c2e0a2968","ios":"levelo://app?vid=5f7c65f4-e71e-4e15-b205-025c2e0a2968"},"vehicle_type_id":"4","last_reported":1727507243,"current_range_meters":36800,"station_id":"ce4bhn12rcd13ifvqgqg","pricing_plan_id":"cebpf4jnsgd1na2vs0mg"},{"bike_id":"f39498a8-f029-4bf5-9eac-689a552be6d3","system_id":"levelo_inurba_marseille","lat":43.29246,"lon":5.40902,"is_reserved":false,"is_disabled":false,"rental_uris":{"android":"levelo://app?vid=f39498a8-f029-4bf5-9eac-689a552be6d3","ios":"levelo://app?vid=f39498a8-f029-4bf5-9eac-689a552be6d3"},"vehicle_type_id":"4","last_reported":1727507243,"current_range_meters":3600,"station_id":"ce4bh192rcd13ifvqdc0","pricing_plan_id":"cebpf4jnsgd1na2vs0mg"},{"bike_id":"59ebc050-7ea4-4232-b9b3-141a98371c6b","system_id":"levelo_inurba_marseille","lat":43.298004,"lon":5.380919,"is_reserved":false,"is_disabled":false,"rental_uris":{"android":"levelo://app?vid=59ebc050-7ea4-4232-b9b3-141a98371c6b","ios":"levelo://app?vid=59ebc050-7ea4-4232-b9b3-141a98371c6b"},"vehicle_type_id":"4","last_reported":1727507243,"current_range_meters":12000,"station_id":"ce4bhbp2rcd13ifvqerg","pricing_plan_id":"cebpf4jnsgd1na2vs0mg"},{"bike_id":"e79808f3-7dc6-4dc9-9a42-6d9400cc6ef1","system_id":"levelo_inurba_marseille","lat":43.28278,"lon":5.35066,"is_reserved":false,"is_disabled":false,"rental_uris":{"android":"levelo://app?vid=e79808f3-7dc6-4dc9-9a42-6d9400cc6ef1","ios":"levelo://app?vid=e79808f3-7dc6-4dc9-9a42-6d9400cc6ef1"},"vehicle_type_id":"4","last_reported":1727507243,"current_range_meters":39200,"station_id":"ce4bhbp2rcd13ifvqerg","pricing_plan_id":"cebpf4jnsgd1na2vs0mg"},{"bike_id":"50dd8fcc-fb71-4cd7-a81d-40d7e39ee5e4","system_id":"levelo_inurba_marseille","lat":43.311147,"lon":5.377653,"is_reserved":false,"is_disabled":false,"rental_uris":{"android":"levelo://app?vid=50dd8fcc-fb71-4cd7-a81d-40d7e39ee5e4","ios":"levelo://app?vid=50dd8fcc-fb71-4cd7-a81d-40d7e39ee5e4"},"vehicle_type_id":"4","last_reported":1727507243,"current_range_meters":4000,"station_id":"ce4bgt92rcd13ifvqcg0","pricing_plan_id":"cebpf4jnsgd1na2vs0mg"},{"bike_id":"160aa09d-622e-4263-882b-c6c85682d7e4","system_id":"levelo_inurba_marseille","lat":43.31698,"lon":5.40478,"is_reserved":false,"is_disabled":false,"rental_uris":{"android":"levelo://app?vid=160aa09d-622e-4263-882b-c6c85682d7e4","ios":"levelo://app?vid=160aa09d-622e-4263-882b-c6c85682d7e4"},"vehicle_type_id":"4","last_reported":1727507243,"current_range_meters":38400,"station_id":"ce4bh012rcd13ifvqd00","pricing_plan_id":"cebpf4jnsgd1na2vs0mg"},{"bike_id":"8bfa74d4-6034-476a-ae50-61f9c2cde2cb","system_id":"levelo_inurba_marseille","lat":43.26192,"lon":5.37447,"is_reserved":false,"is_disabled":false,"rental_uris":{"android":"levelo://app?vid=8bfa74d4-6034-476a-ae50-61f9c2cde2cb","ios":"levelo://app?vid=8bfa74d4-6034-476a-ae50-61f9c2cde2cb"},"vehicle_type_id":"4","last_reported":1727507243,"current_range_meters":33200,"station_id":"ce4bhgp2rcd13ifvqfc0","pricing_plan_id":"cebpf4jnsgd1na2vs0mg"},{"bike_id":"027ec904-758b-4151-8256-dde109f50a82","system_id":"levelo_inurba_marseille","lat":43.31751,"lon":5.39016,"is_reserved":false,"is_disabled":false,"rental_uris":{"android":"levelo://app?vid=027ec904-758b-4151-8256-dde109f50a82","ios":"levelo://app?vid=027ec904-758b-4151-8256-dde109f50a82"},"vehicle_type_id":"4","last_reported":1727507243,"current_range_meters":39200,"station_id":"ce4bhqp2rcd13ifvqhng","pricing_plan_id":"cebpf4jnsgd1na2vs0mg"},{"bike_id":"03373044-cab4-4cec-84ce-7d2eca2df3c1","system_id":"levelo_inurba_marseille","lat":43.31538,"lon":5.38033,"is_reserved":false,"is_disabled":false,"rental_uris":{"android":"levelo://app?vid=03373044-cab4-4cec-84ce-7d2eca2df3c1","ios":"levelo://app?vid=03373044-cab4-4cec-84ce-7d2eca2df3c1"},"vehicle_type_id":"4","last_reported":1727507243,"current_range_meters":20000,"station_id":"ce4bhsp2rcd13ifvqi50","pricing_plan_id":"cebpf4jnsgd1na2vs0mg"},{"bike_id":"ae69293c-2e11-4e8e-877d-d38d7d427da8","system_id":"levelo_inurba_marseille","lat":43.29225,"lon":5.36069,"is_reserved":false,"is_disabled":false,"rental_uris":{"android":"levelo://app?vid=ae69293c-2e11-4e8e-877d-d38d7d427da8","ios":"levelo://app?vid=ae69293c-2e11-4e8e-877d-d38d7d427da8"},"vehicle_type_id":"4","last_reported":1727507243,"current_range_meters":38400,"station_id":"ce4bhbh2rcd13ifvqeqg","pricing_plan_id":"cebpf4jnsgd1na2vs0mg"},{"bike_id":"e6d11121-6dfe-4366-b0e1-42c11670a108","system_id":"levelo_inurba_marseille","lat":43.337444,"lon":5.374475,"is_reserved":false,"is_disabled":false,"rental_uris":{"android":"levelo://app?vid=e6d11121-6dfe-4366-b0e1-42c11670a108","ios":"levelo://app?vid=e6d11121-6dfe-4366-b0e1-42c11670a108"},"vehicle_type_id":"4","last_reported":1727507243,"current_range_meters":35200,"station_id":"","pricing_plan_id":"cebpf4jnsgd1na2vs0mg"},{"bike_id":"eb10e224-cb08-4e8d-acee-722e2d2ab298","system_id":"levelo_inurba_marseille","lat":43.2594,"lon":5.409,"is_reserved":false,"is_disabled":false,"rental_uris":{"android":"levelo://app?vid=eb10e224-cb08-4e8d-acee-722e2d2ab298","ios":"levelo://app?vid=eb10e224-cb08-4e8d-acee-722e2d2ab298"},"vehicle_type_id":"4","last_reported":1727507243,"current_range_meters":26000,"station_id":"ce4bhm92rcd13ifvqglg","pricing_plan_id":"cebpf4jnsgd1na2vs0mg"},{"bike_id":"cd86a739-0d42-4110-a940-203a12da5e28","system_id":"levelo_inurba_marseille","lat":43.2904,"lon":5.39989,"is_reserved":false,"is_disabled":false,"rental_uris":{"android":"levelo://app?vid=cd86a739-0d42-4110-a940-203a12da5e28","ios":"levelo://app?vid=cd86a739-0d42-4110-a940-203a12da5e28"},"vehicle_type_id":"4","last_reported":1727507243,"current_range_meters":22800,"station_id":"ce4bh392rcd13ifvqdm0","pricing_plan_id":"cebpf4jnsgd1na2vs0mg"},{"bike_id":"5d9c4eb9-dba8-40bd-a4b8-18c429be83ba","system_id":"levelo_inurba_marseille","lat":43.30923,"lon":5.40133,"is_reserved":false,"is_disabled":false,"rental_uris":{"android":"levelo://app?vid=5d9c4eb9-dba8-40bd-a4b8-18c429be83ba","ios":"levelo://app?vid=5d9c4eb9-dba8-40bd-a4b8-18c429be83ba"},"vehicle_type_id":"4","last_reported":1727507243,"current_range_meters":26000,"station_id":"ce4bgvp2rcd13ifvqct0","pricing_plan_id":"cebpf4jnsgd1na2vs0mg"},{"bike_id":"bdc5b691-ffc7-4073-a2da-fd841a386d5b","system_id":"levelo_inurba_marseille","lat":43.29269,"lon":5.36853,"is_reserved":false,"is_disabled":false,"rental_uris":{"android":"levelo://app?vid=bdc5b691-ffc7-4073-a2da-fd841a386d5b","ios":"levelo://app?vid=bdc5b691-ffc7-4073-a2da-fd841a386d5b"},"vehicle_type_id":"4","last_reported":1727507243,"current_range_meters":38800,"station_id":"ce4bhbp2rcd13ifvqesg","pricing_plan_id":"cebpf4jnsgd1na2vs0mg"},{"bike_id":"bf15cf37-3a4c-4635-b28c-358f55c15bae","system_id":"levelo_inurba_marseille","lat":43.33739,"lon":5.37468,"is_reserved":false,"is_disabled":false,"rental_uris":{"android":"levelo://app?vid=bf15cf37-3a4c-4635-b28c-358f55c15bae","ios":"levelo://app?vid=bf15cf37-3a4c-4635-b28c-358f55c15bae"},"vehicle_type_id":"4","last_reported":1727507243,"current_range_meters":26000,"station_id":"","pricing_plan_id":"cebpf4jnsgd1na2vs0mg"},{"bike_id":"9cd0bb23-3780-431d-97ff-9afd8a4bc25e","system_id":"levelo_inurba_marseille","lat":43.30462,"lon":5.37892,"is_reserved":false,"is_disabled":false,"rental_uris":{"android":"levelo://app?vid=9cd0bb23-3780-431d-97ff-9afd8a4bc25e","ios":"levelo://app?vid=9cd0bb23-3780-431d-97ff-9afd8a4bc25e"},"vehicle_type_id":"4","last_reported":1727507243,"current_range_meters":35600,"station_id":"ce4bgup2rcd13ifvqcn0","pricing_plan_id":"cebpf4jnsgd1na2vs0mg"},{"bike_id":"20202039-bf6e-49f7-abf4-48e3a3787af5","system_id":"levelo_inurba_marseille","lat":43.27947,"lon":5.41052,"is_reserved":false,"is_disabled":false,"rental_uris":{"android":"levelo://app?vid=20202039-bf6e-49f7-abf4-48e3a3787af5","ios":"levelo://app?vid=20202039-bf6e-49f7-abf4-48e3a3787af5"},"vehicle_type_id":"4","last_reported":1727507243,"current_range_meters":37600,"station_id":"ce4bhnp2rcd13ifvqh0g","pricing_plan_id":"cebpf4jnsgd1na2vs0mg"},{"bike_id":"cd2327c7-af60-4af9-9eff-465722c02c8b","system_id":"levelo_inurba_marseille","lat":43.33612,"lon":5.41021,"is_reserved":false,"is_disabled":false,"rental_uris":{"android":"levelo://app?vid=cd2327c7-af60-4af9-9eff-465722c02c8b","ios":"levelo://app?vid=cd2327c7-af60-4af9-9eff-465722c02c8b"},"vehicle_type_id":"4","last_reported":1727507243,"current_range_meters":9600,"station_id":"ce4bhqh2rcd13ifvqhmg","pricing_plan_id":"cebpf4jnsgd1na2vs0mg"},{"bike_id":"b1009be1-d273-465d-83a6-4142c34b3f2d","system_id":"levelo_inurba_marseille","lat":43.30475,"lon":5.37907,"is_reserved":false,"is_disabled":false,"rental_uris":{"android":"levelo://app?vid=b1009be1-d273-465d-83a6-4142c34b3f2d","ios":"levelo://app?vid=b1009be1-d273-465d-83a6-4142c34b3f2d"},"vehicle_type_id":"4","last_reported":1727507243,"current_range_meters":37600,"station_id":"ce4bgup2rcd13ifvqcn0","pricing_plan_id":"cebpf4jnsgd1na2vs0mg"},{"bike_id":"6aa95821-8b44-42f3-9d07-8b4a4001e2b1","system_id":"levelo_inurba_marseille","lat":43.23957,"lon":5.36647,"is_reserved":false,"is_disabled":false,"rental_uris":{"android":"levelo://app?vid=6aa95821-8b44-42f3-9d07-8b4a4001e2b1","ios":"levelo://app?vid=6aa95821-8b44-42f3-9d07-8b4a4001e2b1"},"vehicle_type_id":"4","last_reported":1727507243,"current_range_meters":35200,"station_id":"ce4bhi12rcd13ifvqfp0","pricing_plan_id":"cebpf4jnsgd1na2vs0mg"},{"bike_id":"51870931-c5a1-4480-846a-13af532df7a7","system_id":"levelo_inurba_marseille","lat":43.317558,"lon":5.390154,"is_reserved":false,"is_disabled":false,"rental_uris":{"android":"levelo://app?vid=51870931-c5a1-4480-846a-13af532df7a7","ios":"levelo://app?vid=51870931-c5a1-4480-846a-13af532df7a7"},"vehicle_type_id":"4","last_reported":1727507243,"current_range_meters":30000,"station_id":"ce4bhqp2rcd13ifvqhng","pricing_plan_id":"cebpf4jnsgd1na2vs0mg"},{"bike_id":"a63d4449-4f5a-4f1c-9a3c-27c8d74bd2a3","system_id":"levelo_inurba_marseille","lat":43.2439,"lon":5.37066,"is_reserved":false,"is_disabled":false,"rental_uris":{"android":"levelo://app?vid=a63d4449-4f5a-4f1c-9a3c-27c8d74bd2a3","ios":"levelo://app?vid=a63d4449-4f5a-4f1c-9a3c-27c8d74bd2a3"},"vehicle_type_id":"4","last_reported":1727507243,"current_range_meters":17200,"station_id":"ce4bhhh2rcd13ifvqfk0","pricing_plan_id":"cebpf4jnsgd1na2vs0mg"},{"bike_id":"342bef7e-8023-4492-872b-5c47ca5d8a8f","system_id":"levelo_inurba_marseille","lat":43.24645,"lon":5.38897,"is_reserved":false,"is_disabled":false,"rental_uris":{"android":"levelo://app?vid=342bef7e-8023-4492-872b-5c47ca5d8a8f","ios":"levelo://app?vid=342bef7e-8023-4492-872b-5c47ca5d8a8f"},"vehicle_type_id":"4","last_reported":1727507243,"current_range_meters":28000,"station_id":"ce4bhg12rcd13ifvqf60","pricing_plan_id":"cebpf4jnsgd1na2vs0mg"},{"bike_id":"809245d8-c125-4e34-bd4d-23eefcbba16e","system_id":"levelo_inurba_marseille","lat":43.30894,"lon":5.39653,"is_reserved":false,"is_disabled":false,"rental_uris":{"android":"levelo://app?vid=809245d8-c125-4e34-bd4d-23eefcbba16e","ios":"levelo://app?vid=809245d8-c125-4e34-bd4d-23eefcbba16e"},"vehicle_type_id":"4","last_reported":1727507243,"current_range_meters":36400,"station_id":"ce4bh012rcd13ifvqcv0","pricing_plan_id":"cebpf4jnsgd1na2vs0mg"},{"bike_id":"cb2cf2de-26fa-4449-ada0-056eedbe3b11","system_id":"levelo_inurba_marseille","lat":43.29029,"lon":5.3999,"is_reserved":false,"is_disabled":false,"rental_uris":{"android":"levelo://app?vid=cb2cf2de-26fa-4449-ada0-056eedbe3b11","ios":"levelo://app?vid=cb2cf2de-26fa-4449-ada0-056eedbe3b11"},"vehicle_type_id":"4","last_reported":1727507243,"current_range_meters":39200,"station_id":"ce4bh392rcd13ifvqdm0","pricing_plan_id":"cebpf4jnsgd1na2vs0mg"},{"bike_id":"cff8d981-82e5-4fe5-8732-59ac9c29f5d1","system_id":"levelo_inurba_marseille","lat":43.30787,"lon":5.37644,"is_reserved":false,"is_disabled":false,"rental_uris":{"android":"levelo://app?vid=cff8d981-82e5-4fe5-8732-59ac9c29f5d1","ios":"levelo://app?vid=cff8d981-82e5-4fe5-8732-59ac9c29f5d1"},"vehicle_type_id":"4","last_reported":1727507243,"current_range_meters":36000,"station_id":"ce4bgv92rcd13ifvqcq0","pricing_plan_id":"cebpf4jnsgd1na2vs0mg"},{"bike_id":"e8881021-06cd-42da-8a98-2ef3e9aefc43","system_id":"levelo_inurba_marseille","lat":43.27491,"lon":5.42447,"is_reserved":false,"is_disabled":false,"rental_uris":{"android":"levelo://app?vid=e8881021-06cd-42da-8a98-2ef3e9aefc43","ios":"levelo://app?vid=e8881021-06cd-42da-8a98-2ef3e9aefc43"},"vehicle_type_id":"4","last_reported":1727507243,"current_range_meters":30400,"station_id":"ce4bhn92rcd13ifvqgrg","pricing_plan_id":"cebpf4jnsgd1na2vs0mg"},{"bike_id":"ce9a5419-e4a6-43f3-a4fb-e7f88ddf3982","system_id":"levelo_inurba_marseille","lat":43.23186,"lon":5.3998,"is_reserved":false,"is_disabled":false,"rental_uris":{"android":"levelo://app?vid=ce9a5419-e4a6-43f3-a4fb-e7f88ddf3982","ios":"levelo://app?vid=ce9a5419-e4a6-43f3-a4fb-e7f88ddf3982"},"vehicle_type_id":"4","last_reported":1727507243,"current_range_meters":38400,"station_id":"ce4bhn12rcd13ifvqgqg","pricing_plan_id":"cebpf4jnsgd1na2vs0mg"},{"bike_id":"71ba535f-5af1-4e82-8d63-800670e2daf2","system_id":"levelo_inurba_marseille","lat":43.29633,"lon":5.37186,"is_reserved":false,"is_disabled":false,"rental_uris":{"android":"levelo://app?vid=71ba535f-5af1-4e82-8d63-800670e2daf2","ios":"levelo://app?vid=71ba535f-5af1-4e82-8d63-800670e2daf2"},"vehicle_type_id":"4","last_reported":1727507243,"current_range_meters":38000,"station_id":"ce4bgnh2rcd13ifvqc0g","pricing_plan_id":"cebpf4jnsgd1na2vs0mg"},{"bike_id":"bf4babc3-d8e1-4008-9a0f-c8606ba7f89d","system_id":"levelo_inurba_marseille","lat":43.26196,"lon":5.3745,"is_reserved":false,"is_disabled":false,"rental_uris":{"android":"levelo://app?vid=bf4babc3-d8e1-4008-9a0f-c8606ba7f89d","ios":"levelo://app?vid=bf4babc3-d8e1-4008-9a0f-c8606ba7f89d"},"vehicle_type_id":"4","last_reported":1727507243,"current_range_meters":38800,"station_id":"ce4bhgp2rcd13ifvqfc0","pricing_plan_id":"cebpf4jnsgd1na2vs0mg"},{"bike_id":"b420a558-0442-4340-a39c-af9bdd3ffb2a","system_id":"levelo_inurba_marseille","lat":43.30152,"lon":5.38075,"is_reserved":false,"is_disabled":false,"rental_uris":{"android":"levelo://app?vid=b420a558-0442-4340-a39c-af9bdd3ffb2a","ios":"levelo://app?vid=b420a558-0442-4340-a39c-af9bdd3ffb2a"},"vehicle_type_id":"4","last_reported":1727507243,"current_range_meters":27200,"station_id":"ce4bgjp2rcd13ifvqbh0","pricing_plan_id":"cebpf4jnsgd1na2vs0mg"},{"bike_id":"0cf7f5eb-9236-4027-b5fa-a06bfba275e2","system_id":"levelo_inurba_marseille","lat":43.29185,"lon":5.358,"is_reserved":false,"is_disabled":false,"rental_uris":{"android":"levelo://app?vid=0cf7f5eb-9236-4027-b5fa-a06bfba275e2","ios":"levelo://app?vid=0cf7f5eb-9236-4027-b5fa-a06bfba275e2"},"vehicle_type_id":"4","last_reported":1727507243,"current_range_meters":38800,"station_id":"ce4bhb12rcd13ifvqel0","pricing_plan_id":"cebpf4jnsgd1na2vs0mg"},{"bike_id":"677c653e-87a0-47a5-9b05-44cc6e138cca","system_id":"levelo_inurba_marseille","lat":43.28078,"lon":5.3964,"is_reserved":false,"is_disabled":false,"rental_uris":{"android":"levelo://app?vid=677c653e-87a0-47a5-9b05-44cc6e138cca","ios":"levelo://app?vid=677c653e-87a0-47a5-9b05-44cc6e138cca"},"vehicle_type_id":"4","last_reported":1727507243,"current_range_meters":28400,"station_id":"ce4bho12rcd13ifvqh2g","pricing_plan_id":"cebpf4jnsgd1na2vs0mg"},{"bike_id":"1658e09b-671f-454d-a049-61e08ce844b0","system_id":"levelo_inurba_marseille","lat":43.28693,"lon":5.39992,"is_reserved":false,"is_disabled":false,"rental_uris":{"android":"levelo://app?vid=1658e09b-671f-454d-a049-61e08ce844b0","ios":"levelo://app?vid=1658e09b-671f-454d-a049-61e08ce844b0"},"vehicle_type_id":"4","last_reported":1727507243,"current_range_meters":38000,"station_id":"ce4bho92rcd13ifvqh3g","pricing_plan_id":"cebpf4jnsgd1na2vs0mg"},{"bike_id":"24999d36-0b09-447a-ba6c-cc08fb1d6494","system_id":"levelo_inurba_marseille","lat":43.26191,"lon":5.37453,"is_reserved":false,"is_disabled":false,"rental_uris":{"android":"levelo://app?vid=24999d36-0b09-447a-ba6c-cc08fb1d6494","ios":"levelo://app?vid=24999d36-0b09-447a-ba6c-cc08fb1d6494"},"vehicle_type_id":"4","last_reported":1727507243,"current_range_meters":3200,"station_id":"ce4bhgp2rcd13ifvqfc0","pricing_plan_id":"cebpf4jnsgd1na2vs0mg"},{"bike_id":"d00a5fcc-91f4-4b19-b231-c7f7e2f5b6cf","system_id":"levelo_inurba_marseille","lat":43.29193,"lon":5.35808,"is_reserved":false,"is_disabled":false,"rental_uris":{"android":"levelo://app?vid=d00a5fcc-91f4-4b19-b231-c7f7e2f5b6cf","ios":"levelo://app?vid=d00a5fcc-91f4-4b19-b231-c7f7e2f5b6cf"},"vehicle_type_id":"4","last_reported":1727507243,"current_range_meters":22400,"station_id":"ce4bhb12rcd13ifvqel0","pricing_plan_id":"cebpf4jnsgd1na2vs0mg"},{"bike_id":"e9461f55-7e42-465e-ba90-31c941943249","system_id":"levelo_inurba_marseille","lat":43.30777,"lon":5.37649,"is_reserved":false,"is_disabled":false,"rental_uris":{"android":"levelo://app?vid=e9461f55-7e42-465e-ba90-31c941943249","ios":"levelo://app?vid=e9461f55-7e42-465e-ba90-31c941943249"},"vehicle_type_id":"4","last_reported":1727507243,"current_range_meters":38800,"station_id":"ce4bgv92rcd13ifvqcq0","pricing_plan_id":"cebpf4jnsgd1na2vs0mg"},{"bike_id":"4bec3a7d-69b5-4087-96f4-4e0bbed86a87","system_id":"levelo_inurba_marseille","lat":43.31279,"lon":5.40175,"is_reserved":false,"is_disabled":false,"rental_uris":{"android":"levelo://app?vid=4bec3a7d-69b5-4087-96f4-4e0bbed86a87","ios":"levelo://app?vid=4bec3a7d-69b5-4087-96f4-4e0bbed86a87"},"vehicle_type_id":"4","last_reported":1727507243,"current_range_meters":25600,"station_id":"ce4bh092rcd13ifvqd30","pricing_plan_id":"cebpf4jnsgd1na2vs0mg"},{"bike_id":"6bbe7017-d8c4-4797-9de4-8c9de6239e13","system_id":"levelo_inurba_marseille","lat":43.25004,"lon":5.38924,"is_reserved":false,"is_disabled":false,"rental_uris":{"android":"levelo://app?vid=6bbe7017-d8c4-4797-9de4-8c9de6239e13","ios":"levelo://app?vid=6bbe7017-d8c4-4797-9de4-8c9de6239e13"},"vehicle_type_id":"4","last_reported":1727507243,"current_range_meters":36000,"station_id":"ce4bhgp2rcd13ifvqfd0","pricing_plan_id":"cebpf4jnsgd1na2vs0mg"},{"bike_id":"7ed6f110-8042-4b99-8d26-80b0b283f72c","system_id":"levelo_inurba_marseille","lat":43.24068,"lon":5.37755,"is_reserved":false,"is_disabled":false,"rental_uris":{"android":"levelo://app?vid=7ed6f110-8042-4b99-8d26-80b0b283f72c","ios":"levelo://app?vid=7ed6f110-8042-4b99-8d26-80b0b283f72c"},"vehicle_type_id":"4","last_reported":1727507243,"current_range_meters":8000,"station_id":"ce4bhnp2rcd13ifvqgvg","pricing_plan_id":"cebpf4jnsgd1na2vs0mg"},{"bike_id":"3b170ecf-4bbb-421f-886d-94818fba1de8","system_id":"levelo_inurba_marseille","lat":43.28482,"lon":5.40022,"is_reserved":false,"is_disabled":false,"rental_uris":{"android":"levelo://app?vid=3b170ecf-4bbb-421f-886d-94818fba1de8","ios":"levelo://app?vid=3b170ecf-4bbb-421f-886d-94818fba1de8"},"vehicle_type_id":"4","last_reported":1727507243,"current_range_meters":38000,"station_id":"ce4bh2h2rcd13ifvqdh0","pricing_plan_id":"cebpf4jnsgd1na2vs0mg"},{"bike_id":"da2fa278-1352-4cfa-b382-4097daee9562","system_id":"levelo_inurba_marseille","lat":43.28672,"lon":5.386693,"is_reserved":false,"is_disabled":false,"rental_uris":{"android":"levelo://app?vid=da2fa278-1352-4cfa-b382-4097daee9562","ios":"levelo://app?vid=da2fa278-1352-4cfa-b382-4097daee9562"},"vehicle_type_id":"4","last_reported":1727507243,"current_range_meters":39200,"station_id":"ce4bh492rcd13ifvqdug","pricing_plan_id":"cebpf4jnsgd1na2vs0mg"},{"bike_id":"1cdc4127-8f6d-41c3-99c1-d40f844257b8","system_id":"levelo_inurba_marseille","lat":43.304596,"lon":5.37905,"is_reserved":false,"is_disabled":false,"rental_uris":{"android":"levelo://app?vid=1cdc4127-8f6d-41c3-99c1-d40f844257b8","ios":"levelo://app?vid=1cdc4127-8f6d-41c3-99c1-d40f844257b8"},"vehicle_type_id":"4","last_reported":1727507243,"current_range_meters":37600,"station_id":"ce4bgup2rcd13ifvqcn0","pricing_plan_id":"cebpf4jnsgd1na2vs0mg"},{"bike_id":"207ffe99-f2e2-4d11-a577-0100f424763e","system_id":"levelo_inurba_marseille","lat":43.32037,"lon":5.41561,"is_reserved":false,"is_disabled":false,"rental_uris":{"android":"levelo://app?vid=207ffe99-f2e2-4d11-a577-0100f424763e","ios":"levelo://app?vid=207ffe99-f2e2-4d11-a577-0100f424763e"},"vehicle_type_id":"4","last_reported":1727507243,"current_range_meters":22000,"station_id":"ce4bhq92rcd13ifvqhkg","pricing_plan_id":"cebpf4jnsgd1na2vs0mg"},{"bike_id":"d923db62-1c24-463c-80b0-c324bd56b0fd","system_id":"levelo_inurba_marseille","lat":43.28434,"lon":5.39182,"is_reserved":false,"is_disabled":false,"rental_uris":{"android":"levelo://app?vid=d923db62-1c24-463c-80b0-c324bd56b0fd","ios":"levelo://app?vid=d923db62-1c24-463c-80b0-c324bd56b0fd"},"vehicle_type_id":"4","last_reported":1727507243,"current_range_meters":39200,"station_id":"ce4bhoh2rcd13ifvqh5g","pricing_plan_id":"cebpf4jnsgd1na2vs0mg"},{"bike_id":"0233e76c-9a4b-4972-880a-18372680d64a","system_id":"levelo_inurba_marseille","lat":43.319963,"lon":5.38151,"is_reserved":false,"is_disabled":false,"rental_uris":{"android":"levelo://app?vid=0233e76c-9a4b-4972-880a-18372680d64a","ios":"levelo://app?vid=0233e76c-9a4b-4972-880a-18372680d64a"},"vehicle_type_id":"4","last_reported":1727507243,"current_range_meters":36800,"station_id":"ce4bhr12rcd13ifvqhpg","pricing_plan_id":"cebpf4jnsgd1na2vs0mg"},{"bike_id":"384d6582-d630-40a7-afa7-0c8976683a5b","system_id":"levelo_inurba_marseille","lat":43.28937,"lon":5.39638,"is_reserved":false,"is_disabled":false,"rental_uris":{"android":"levelo://app?vid=384d6582-d630-40a7-afa7-0c8976683a5b","ios":"levelo://app?vid=384d6582-d630-40a7-afa7-0c8976683a5b"},"vehicle_type_id":"4","last_reported":1727507243,"current_range_meters":20800,"station_id":"ce4bh3h2rcd13ifvqdn0","pricing_plan_id":"cebpf4jnsgd1na2vs0mg"},{"bike_id":"d39210b3-a40b-4413-9d2a-e861998a3aad","system_id":"levelo_inurba_marseille","lat":43.25822,"lon":5.39428,"is_reserved":false,"is_disabled":false,"rental_uris":{"android":"levelo://app?vid=d39210b3-a40b-4413-9d2a-e861998a3aad","ios":"levelo://app?vid=d39210b3-a40b-4413-9d2a-e861998a3aad"},"vehicle_type_id":"4","last_reported":1727507243,"current_range_meters":39200,"station_id":"ce4bhip2rcd13ifvqft0","pricing_plan_id":"cebpf4jnsgd1na2vs0mg"},{"bike_id":"4915f018-35a4-41ab-8f17-b1de5745ad2a","system_id":"levelo_inurba_marseille","lat":43.3188,"lon":5.40738,"is_reserved":false,"is_disabled":false,"rental_uris":{"android":"levelo://app?vid=4915f018-35a4-41ab-8f17-b1de5745ad2a","ios":"levelo://app?vid=4915f018-35a4-41ab-8f17-b1de5745ad2a"},"vehicle_type_id":"4","last_reported":1727507243,"current_range_meters":16400,"station_id":"ce4bhq12rcd13ifvqhig","pricing_plan_id":"cebpf4jnsgd1na2vs0mg"},{"bike_id":"442c13db-d66d-4c6e-b7f9-88cd85796804","system_id":"levelo_inurba_marseille","lat":43.28353,"lon":5.38127,"is_reserved":false,"is_disabled":false,"rental_uris":{"android":"levelo://app?vid=442c13db-d66d-4c6e-b7f9-88cd85796804","ios":"levelo://app?vid=442c13db-d66d-4c6e-b7f9-88cd85796804"},"vehicle_type_id":"4","last_reported":1727507243,"current_range_meters":37600,"station_id":"ce4bh412rcd13ifvqdr0","pricing_plan_id":"cebpf4jnsgd1na2vs0mg"},{"bike_id":"eb40660b-9cba-4839-95b5-e1a88988e1c0","system_id":"levelo_inurba_marseille","lat":43.29845,"lon":5.36272,"is_reserved":false,"is_disabled":false,"rental_uris":{"android":"levelo://app?vid=eb40660b-9cba-4839-95b5-e1a88988e1c0","ios":"levelo://app?vid=eb40660b-9cba-4839-95b5-e1a88988e1c0"},"vehicle_type_id":"4","last_reported":1727507243,"current_range_meters":38000,"station_id":"ce4bgpp2rcd13ifvqc3g","pricing_plan_id":"cebpf4jnsgd1na2vs0mg"},{"bike_id":"28fd6afa-8ab7-494a-b25a-1a23b319519f","system_id":"levelo_inurba_marseille","lat":43.3171,"lon":5.43708,"is_reserved":false,"is_disabled":false,"rental_uris":{"android":"levelo://app?vid=28fd6afa-8ab7-494a-b25a-1a23b319519f","ios":"levelo://app?vid=28fd6afa-8ab7-494a-b25a-1a23b319519f"},"vehicle_type_id":"4","last_reported":1727507243,"current_range_meters":38000,"station_id":"ce4bhp92rcd13ifvqhcg","pricing_plan_id":"cebpf4jnsgd1na2vs0mg"},{"bike_id":"d93d186f-a360-4aa4-b076-95a5f56ba36c","system_id":"levelo_inurba_marseille","lat":43.28479,"lon":5.38419,"is_reserved":false,"is_disabled":false,"rental_uris":{"android":"levelo://app?vid=d93d186f-a360-4aa4-b076-95a5f56ba36c","ios":"levelo://app?vid=d93d186f-a360-4aa4-b076-95a5f56ba36c"},"vehicle_type_id":"4","last_reported":1727507243,"current_range_meters":32800,"station_id":"ce4bh512rcd13ifvqe3g","pricing_plan_id":"cebpf4jnsgd1na2vs0mg"},{"bike_id":"00f70b26-33ce-4d56-aa58-17dc092ae0eb","system_id":"levelo_inurba_marseille","lat":43.27321,"lon":5.391,"is_reserved":false,"is_disabled":false,"rental_uris":{"android":"levelo://app?vid=00f70b26-33ce-4d56-aa58-17dc092ae0eb","ios":"levelo://app?vid=00f70b26-33ce-4d56-aa58-17dc092ae0eb"},"vehicle_type_id":"4","last_reported":1727507243,"current_range_meters":4000,"station_id":"ce4bhgp2rcd13ifvqfe0","pricing_plan_id":"cebpf4jnsgd1na2vs0mg"},{"bike_id":"97daa811-3025-4716-9a34-1d4a7c252695","system_id":"levelo_inurba_marseille","lat":43.30432,"lon":5.38892,"is_reserved":false,"is_disabled":false,"rental_uris":{"android":"levelo://app?vid=97daa811-3025-4716-9a34-1d4a7c252695","ios":"levelo://app?vid=97daa811-3025-4716-9a34-1d4a7c252695"},"vehicle_type_id":"4","last_reported":1727507243,"current_range_meters":10000,"station_id":"ce4bgk12rcd13ifvqbi0","pricing_plan_id":"cebpf4jnsgd1na2vs0mg"},{"bike_id":"b9f1b200-8a3a-43a5-aab8-2bc1f80429bf","system_id":"levelo_inurba_marseille","lat":43.29601,"lon":5.38105,"is_reserved":false,"is_disabled":false,"rental_uris":{"android":"levelo://app?vid=b9f1b200-8a3a-43a5-aab8-2bc1f80429bf","ios":"levelo://app?vid=b9f1b200-8a3a-43a5-aab8-2bc1f80429bf"},"vehicle_type_id":"4","last_reported":1727507243,"current_range_meters":36800,"station_id":"ce4bgl12rcd13ifvqbo0","pricing_plan_id":"cebpf4jnsgd1na2vs0mg"},{"bike_id":"03e8b385-e3e3-4831-b70e-8615ef15136c","system_id":"levelo_inurba_marseille","lat":43.32335,"lon":5.40621,"is_reserved":false,"is_disabled":false,"rental_uris":{"android":"levelo://app?vid=03e8b385-e3e3-4831-b70e-8615ef15136c","ios":"levelo://app?vid=03e8b385-e3e3-4831-b70e-8615ef15136c"},"vehicle_type_id":"4","last_reported":1727507243,"current_range_meters":18800,"station_id":"ce4bhq92rcd13ifvqhjg","pricing_plan_id":"cebpf4jnsgd1na2vs0mg"},{"bike_id":"31d9581d-789e-483b-ab43-a3d81f0839cd","system_id":"levelo_inurba_marseille","lat":43.23153,"lon":5.43697,"is_reserved":false,"is_disabled":false,"rental_uris":{"android":"levelo://app?vid=31d9581d-789e-483b-ab43-a3d81f0839cd","ios":"levelo://app?vid=31d9581d-789e-483b-ab43-a3d81f0839cd"},"vehicle_type_id":"4","last_reported":1727507243,"current_range_meters":16800,"station_id":"ce4bhmp2rcd13ifvqgog","pricing_plan_id":"cebpf4jnsgd1na2vs0mg"},{"bike_id":"f3954dee-1559-4c2a-9e8c-a5f06c8d39f1","system_id":"levelo_inurba_marseille","lat":43.29607,"lon":5.381,"is_reserved":false,"is_disabled":false,"rental_uris":{"android":"levelo://app?vid=f3954dee-1559-4c2a-9e8c-a5f06c8d39f1","ios":"levelo://app?vid=f3954dee-1559-4c2a-9e8c-a5f06c8d39f1"},"vehicle_type_id":"4","last_reported":1727507243,"current_range_meters":29600,"station_id":"ce4bgl12rcd13ifvqbo0","pricing_plan_id":"cebpf4jnsgd1na2vs0mg"},{"bike_id":"84a5db13-483a-4bd1-be71-8719b9977afe","system_id":"levelo_inurba_marseille","lat":43.28724,"lon":5.36085,"is_reserved":false,"is_disabled":false,"rental_uris":{"android":"levelo://app?vid=84a5db13-483a-4bd1-be71-8719b9977afe","ios":"levelo://app?vid=84a5db13-483a-4bd1-be71-8719b9977afe"},"vehicle_type_id":"4","last_reported":1727507243,"current_range_meters":33200,"station_id":"cki0cbj6b192h4jlfktg","pricing_plan_id":"cebpf4jnsgd1na2vs0mg"},{"bike_id":"11738bfd-608f-40fc-82d1-7fd832783990","system_id":"levelo_inurba_marseille","lat":43.298106,"lon":5.404056,"is_reserved":false,"is_disabled":false,"rental_uris":{"android":"levelo://app?vid=11738bfd-608f-40fc-82d1-7fd832783990","ios":"levelo://app?vid=11738bfd-608f-40fc-82d1-7fd832783990"},"vehicle_type_id":"4","last_reported":1727507243,"current_range_meters":38800,"station_id":"ce4bh112rcd13ifvqd90","pricing_plan_id":"cebpf4jnsgd1na2vs0mg"},{"bike_id":"235f8823-b50d-492d-a832-69fe30775e84","system_id":"levelo_inurba_marseille","lat":43.294449,"lon":5.39751,"is_reserved":false,"is_disabled":false,"rental_uris":{"android":"levelo://app?vid=235f8823-b50d-492d-a832-69fe30775e84","ios":"levelo://app?vid=235f8823-b50d-492d-a832-69fe30775e84"},"vehicle_type_id":"4","last_reported":1727507243,"current_range_meters":39200,"station_id":"ce4bh3h2rcd13ifvqdo0","pricing_plan_id":"cebpf4jnsgd1na2vs0mg"},{"bike_id":"8aafcc38-52e6-4c9b-b7e2-481c9db22dac","system_id":"levelo_inurba_marseille","lat":43.26198,"lon":5.3793,"is_reserved":false,"is_disabled":false,"rental_uris":{"android":"levelo://app?vid=8aafcc38-52e6-4c9b-b7e2-481c9db22dac","ios":"levelo://app?vid=8aafcc38-52e6-4c9b-b7e2-481c9db22dac"},"vehicle_type_id":"4","last_reported":1727507243,"current_range_meters":39200,"station_id":"ce4bhjp2rcd13ifvqg90","pricing_plan_id":"cebpf4jnsgd1na2vs0mg"},{"bike_id":"ceda1303-8e1d-4d6f-8792-80ce6a3025d5","system_id":"levelo_inurba_marseille","lat":43.31715,"lon":5.43707,"is_reserved":false,"is_disabled":false,"rental_uris":{"android":"levelo://app?vid=ceda1303-8e1d-4d6f-8792-80ce6a3025d5","ios":"levelo://app?vid=ceda1303-8e1d-4d6f-8792-80ce6a3025d5"},"vehicle_type_id":"4","last_reported":1727507243,"current_range_meters":7200,"station_id":"ce4bhp92rcd13ifvqhcg","pricing_plan_id":"cebpf4jnsgd1na2vs0mg"},{"bike_id":"c0b39f4c-0a5a-4514-b5f0-de9aa3033218","system_id":"levelo_inurba_marseille","lat":43.30307,"lon":5.36908,"is_reserved":false,"is_disabled":false,"rental_uris":{"android":"levelo://app?vid=c0b39f4c-0a5a-4514-b5f0-de9aa3033218","ios":"levelo://app?vid=c0b39f4c-0a5a-4514-b5f0-de9aa3033218"},"vehicle_type_id":"4","last_reported":1727507243,"current_range_meters":36400,"station_id":"ce4bgqh2rcd13ifvqc5g","pricing_plan_id":"cebpf4jnsgd1na2vs0mg"},{"bike_id":"403999e6-396e-4ef4-99d3-c76a06c6f1a0","system_id":"levelo_inurba_marseille","lat":43.25496,"lon":5.37646,"is_reserved":false,"is_disabled":false,"rental_uris":{"android":"levelo://app?vid=403999e6-396e-4ef4-99d3-c76a06c6f1a0","ios":"levelo://app?vid=403999e6-396e-4ef4-99d3-c76a06c6f1a0"},"vehicle_type_id":"4","last_reported":1727507243,"current_range_meters":18000,"station_id":"ce4bhh12rcd13ifvqff0","pricing_plan_id":"cebpf4jnsgd1na2vs0mg"},{"bike_id":"a4ab644b-cbfb-4cb1-9455-b1f9da480836","system_id":"levelo_inurba_marseille","lat":43.27495,"lon":5.42451,"is_reserved":false,"is_disabled":false,"rental_uris":{"android":"levelo://app?vid=a4ab644b-cbfb-4cb1-9455-b1f9da480836","ios":"levelo://app?vid=a4ab644b-cbfb-4cb1-9455-b1f9da480836"},"vehicle_type_id":"4","last_reported":1727507243,"current_range_meters":28000,"station_id":"ce4bhn92rcd13ifvqgrg","pricing_plan_id":"cebpf4jnsgd1na2vs0mg"},{"bike_id":"c049a602-ba08-44c1-a4f9-1cbd185f086f","system_id":"levelo_inurba_marseille","lat":43.22933,"lon":5.35375,"is_reserved":false,"is_disabled":false,"rental_uris":{"android":"levelo://app?vid=c049a602-ba08-44c1-a4f9-1cbd185f086f","ios":"levelo://app?vid=c049a602-ba08-44c1-a4f9-1cbd185f086f"},"vehicle_type_id":"4","last_reported":1727507243,"current_range_meters":6800,"station_id":"cpo3532slgdg3j2ikp40","pricing_plan_id":"cebpf4jnsgd1na2vs0mg"},{"bike_id":"528091cb-cb75-4939-b1ac-1b00b7ffc91f","system_id":"levelo_inurba_marseille","lat":43.30932,"lon":5.40143,"is_reserved":false,"is_disabled":false,"rental_uris":{"android":"levelo://app?vid=528091cb-cb75-4939-b1ac-1b00b7ffc91f","ios":"levelo://app?vid=528091cb-cb75-4939-b1ac-1b00b7ffc91f"},"vehicle_type_id":"4","last_reported":1727507243,"current_range_meters":16400,"station_id":"ce4bgvp2rcd13ifvqct0","pricing_plan_id":"cebpf4jnsgd1na2vs0mg"},{"bike_id":"501139bd-0b6b-40af-9494-7e812e7b3314","system_id":"levelo_inurba_marseille","lat":43.30928,"lon":5.4014,"is_reserved":false,"is_disabled":false,"rental_uris":{"android":"levelo://app?vid=501139bd-0b6b-40af-9494-7e812e7b3314","ios":"levelo://app?vid=501139bd-0b6b-40af-9494-7e812e7b3314"},"vehicle_type_id":"4","last_reported":1727507243,"current_range_meters":3600,"station_id":"ce4bgvp2rcd13ifvqct0","pricing_plan_id":"cebpf4jnsgd1na2vs0mg"},{"bike_id":"55f29fbc-4112-4272-b91e-1942ae505eab","system_id":"levelo_inurba_marseille","lat":43.28498,"lon":5.3859,"is_reserved":false,"is_disabled":false,"rental_uris":{"android":"levelo://app?vid=55f29fbc-4112-4272-b91e-1942ae505eab","ios":"levelo://app?vid=55f29fbc-4112-4272-b91e-1942ae505eab"},"vehicle_type_id":"4","last_reported":1727507243,"current_range_meters":31200,"station_id":"ce4bh8p2rcd13ifvqeb0","pricing_plan_id":"cebpf4jnsgd1na2vs0mg"},{"bike_id":"2c010b88-6cac-4f11-a9f6-a6e4d3a476f6","system_id":"levelo_inurba_marseille","lat":43.2952,"lon":5.37489,"is_reserved":false,"is_disabled":false,"rental_uris":{"android":"levelo://app?vid=2c010b88-6cac-4f11-a9f6-a6e4d3a476f6","ios":"levelo://app?vid=2c010b88-6cac-4f11-a9f6-a6e4d3a476f6"},"vehicle_type_id":"4","last_reported":1727507243,"current_range_meters":30000,"station_id":"ce4bgkp2rcd13ifvqbmg","pricing_plan_id":"cebpf4jnsgd1na2vs0mg"},{"bike_id":"eab435e6-b89d-4cdf-aa0e-050a5dab33ea","system_id":"levelo_inurba_marseille","lat":43.2795,"lon":5.41052,"is_reserved":false,"is_disabled":false,"rental_uris":{"android":"levelo://app?vid=eab435e6-b89d-4cdf-aa0e-050a5dab33ea","ios":"levelo://app?vid=eab435e6-b89d-4cdf-aa0e-050a5dab33ea"},"vehicle_type_id":"4","last_reported":1727507243,"current_range_meters":37600,"station_id":"ce4bhnp2rcd13ifvqh0g","pricing_plan_id":"cebpf4jnsgd1na2vs0mg"},{"bike_id":"652c3354-7fab-47d5-9b50-2d7a4e96974b","system_id":"levelo_inurba_marseille","lat":43.27492,"lon":5.42463,"is_reserved":false,"is_disabled":false,"rental_uris":{"android":"levelo://app?vid=652c3354-7fab-47d5-9b50-2d7a4e96974b","ios":"levelo://app?vid=652c3354-7fab-47d5-9b50-2d7a4e96974b"},"vehicle_type_id":"4","last_reported":1727507243,"current_range_meters":32400,"station_id":"ce4bhn92rcd13ifvqgrg","pricing_plan_id":"cebpf4jnsgd1na2vs0mg"},{"bike_id":"183637c8-96f2-4375-a372-983687934bb1","system_id":"levelo_inurba_marseille","lat":43.28704,"lon":5.37392,"is_reserved":false,"is_disabled":false,"rental_uris":{"android":"levelo://app?vid=183637c8-96f2-4375-a372-983687934bb1","ios":"levelo://app?vid=183637c8-96f2-4375-a372-983687934bb1"},"vehicle_type_id":"4","last_reported":1727507243,"current_range_meters":34800,"station_id":"ce4bh3p2rcd13ifvqdq0","pricing_plan_id":"cebpf4jnsgd1na2vs0mg"},{"bike_id":"1c82b9c1-e09f-43c3-8166-9c82b0f4dcef","system_id":"levelo_inurba_marseille","lat":43.29631,"lon":5.40597,"is_reserved":false,"is_disabled":false,"rental_uris":{"android":"levelo://app?vid=1c82b9c1-e09f-43c3-8166-9c82b0f4dcef","ios":"levelo://app?vid=1c82b9c1-e09f-43c3-8166-9c82b0f4dcef"},"vehicle_type_id":"4","last_reported":1727507243,"current_range_meters":40000,"station_id":"ce4bh0h2rcd13ifvqd60","pricing_plan_id":"cebpf4jnsgd1na2vs0mg"},{"bike_id":"b13ca00a-e6ef-493d-9ec2-5f3979e8f17d","system_id":"levelo_inurba_marseille","lat":43.31121,"lon":5.37766,"is_reserved":false,"is_disabled":false,"rental_uris":{"android":"levelo://app?vid=b13ca00a-e6ef-493d-9ec2-5f3979e8f17d","ios":"levelo://app?vid=b13ca00a-e6ef-493d-9ec2-5f3979e8f17d"},"vehicle_type_id":"4","last_reported":1727507243,"current_range_meters":39200,"station_id":"ce4bgt92rcd13ifvqcg0","pricing_plan_id":"cebpf4jnsgd1na2vs0mg"},{"bike_id":"8ce4806c-bb9d-4fca-8f7a-c7ad41f52108","system_id":"levelo_inurba_marseille","lat":43.30146,"lon":5.38078,"is_reserved":false,"is_disabled":false,"rental_uris":{"android":"levelo://app?vid=8ce4806c-bb9d-4fca-8f7a-c7ad41f52108","ios":"levelo://app?vid=8ce4806c-bb9d-4fca-8f7a-c7ad41f52108"},"vehicle_type_id":"4","last_reported":1727507243,"current_range_meters":19600,"station_id":"ce4bgjp2rcd13ifvqbh0","pricing_plan_id":"cebpf4jnsgd1na2vs0mg"},{"bike_id":"8601292a-7b4c-4e94-8c9e-c1c4b87d9e02","system_id":"levelo_inurba_marseille","lat":43.24996,"lon":5.38935,"is_reserved":false,"is_disabled":false,"rental_uris":{"android":"levelo://app?vid=8601292a-7b4c-4e94-8c9e-c1c4b87d9e02","ios":"levelo://app?vid=8601292a-7b4c-4e94-8c9e-c1c4b87d9e02"},"vehicle_type_id":"4","last_reported":1727507243,"current_range_meters":21600,"station_id":"ce4bhgp2rcd13ifvqfd0","pricing_plan_id":"cebpf4jnsgd1na2vs0mg"},{"bike_id":"bfd55688-20c9-4730-b520-b99f0ebc45af","system_id":"levelo_inurba_marseille","lat":43.28377,"lon":5.38643,"is_reserved":false,"is_disabled":false,"rental_uris":{"android":"levelo://app?vid=bfd55688-20c9-4730-b520-b99f0ebc45af","ios":"levelo://app?vid=bfd55688-20c9-4730-b520-b99f0ebc45af"},"vehicle_type_id":"4","last_reported":1727507243,"current_range_meters":28000,"station_id":"ce4bh492rcd13ifvqdvg","pricing_plan_id":"cebpf4jnsgd1na2vs0mg"},{"bike_id":"e9776310-b20e-4114-a6b6-30f9f0cfe653","system_id":"levelo_inurba_marseille","lat":43.26024,"lon":5.3755,"is_reserved":false,"is_disabled":false,"rental_uris":{"android":"levelo://app?vid=e9776310-b20e-4114-a6b6-30f9f0cfe653","ios":"levelo://app?vid=e9776310-b20e-4114-a6b6-30f9f0cfe653"},"vehicle_type_id":"4","last_reported":1727507243,"current_range_meters":38800,"station_id":"ce4bhgh2rcd13ifvqfa0","pricing_plan_id":"cebpf4jnsgd1na2vs0mg"},{"bike_id":"d9b76706-e826-4a7c-aebc-5d53252d4306","system_id":"levelo_inurba_marseille","lat":43.24076,"lon":5.37744,"is_reserved":false,"is_disabled":false,"rental_uris":{"android":"levelo://app?vid=d9b76706-e826-4a7c-aebc-5d53252d4306","ios":"levelo://app?vid=d9b76706-e826-4a7c-aebc-5d53252d4306"},"vehicle_type_id":"4","last_reported":1727507243,"current_range_meters":14800,"station_id":"ce4bhnp2rcd13ifvqgvg","pricing_plan_id":"cebpf4jnsgd1na2vs0mg"},{"bike_id":"a322cdaa-fd0f-42de-8778-05415af2c882","system_id":"levelo_inurba_marseille","lat":43.28928,"lon":5.36385,"is_reserved":false,"is_disabled":false,"rental_uris":{"android":"levelo://app?vid=a322cdaa-fd0f-42de-8778-05415af2c882","ios":"levelo://app?vid=a322cdaa-fd0f-42de-8778-05415af2c882"},"vehicle_type_id":"4","last_reported":1727507243,"current_range_meters":38400,"station_id":"ce4bhc92rcd13ifvqetg","pricing_plan_id":"cebpf4jnsgd1na2vs0mg"},{"bike_id":"9e376e4e-65aa-4662-9b69-3208173b899e","system_id":"levelo_inurba_marseille","lat":43.31085,"lon":5.42435,"is_reserved":false,"is_disabled":false,"rental_uris":{"android":"levelo://app?vid=9e376e4e-65aa-4662-9b69-3208173b899e","ios":"levelo://app?vid=9e376e4e-65aa-4662-9b69-3208173b899e"},"vehicle_type_id":"4","last_reported":1727507243,"current_range_meters":32000,"station_id":"ce4bhp92rcd13ifvqhag","pricing_plan_id":"cebpf4jnsgd1na2vs0mg"},{"bike_id":"0701cf2a-674c-4c9d-af1e-6650acbaaf74","system_id":"levelo_inurba_marseille","lat":43.28382,"lon":5.37299,"is_reserved":false,"is_disabled":false,"rental_uris":{"android":"levelo://app?vid=0701cf2a-674c-4c9d-af1e-6650acbaaf74","ios":"levelo://app?vid=0701cf2a-674c-4c9d-af1e-6650acbaaf74"},"vehicle_type_id":"4","last_reported":1727507243,"current_range_meters":17200,"station_id":"","pricing_plan_id":"cebpf4jnsgd1na2vs0mg"},{"bike_id":"ea164bf3-2888-4fbb-b022-bd6ff776ad99","system_id":"levelo_inurba_marseille","lat":43.27905,"lon":5.38,"is_reserved":false,"is_disabled":false,"rental_uris":{"android":"levelo://app?vid=ea164bf3-2888-4fbb-b022-bd6ff776ad99","ios":"levelo://app?vid=ea164bf3-2888-4fbb-b022-bd6ff776ad99"},"vehicle_type_id":"4","last_reported":1727507243,"current_range_meters":30800,"station_id":"ce4bhf92rcd13ifvqf50","pricing_plan_id":"cebpf4jnsgd1na2vs0mg"},{"bike_id":"80159180-ec73-41b2-958f-918df6404d23","system_id":"levelo_inurba_marseille","lat":43.28722,"lon":5.36087,"is_reserved":false,"is_disabled":false,"rental_uris":{"android":"levelo://app?vid=80159180-ec73-41b2-958f-918df6404d23","ios":"levelo://app?vid=80159180-ec73-41b2-958f-918df6404d23"},"vehicle_type_id":"4","last_reported":1727507243,"current_range_meters":38800,"station_id":"cki0cbj6b192h4jlfktg","pricing_plan_id":"cebpf4jnsgd1na2vs0mg"},{"bike_id":"fe3b9572-5252-4889-b7d9-9488e5125850","system_id":"levelo_inurba_marseille","lat":43.3053,"lon":5.36535,"is_reserved":false,"is_disabled":false,"rental_uris":{"android":"levelo://app?vid=fe3b9572-5252-4889-b7d9-9488e5125850","ios":"levelo://app?vid=fe3b9572-5252-4889-b7d9-9488e5125850"},"vehicle_type_id":"4","last_reported":1727507243,"current_range_meters":37600,"station_id":"ce4bgs12rcd13ifvqcag","pricing_plan_id":"cebpf4jnsgd1na2vs0mg"},{"bike_id":"0400e28f-c23a-4608-a90c-dbabc8a0dd7d","system_id":"levelo_inurba_marseille","lat":43.29553,"lon":5.42282,"is_reserved":false,"is_disabled":false,"rental_uris":{"android":"levelo://app?vid=0400e28f-c23a-4608-a90c-dbabc8a0dd7d","ios":"levelo://app?vid=0400e28f-c23a-4608-a90c-dbabc8a0dd7d"},"vehicle_type_id":"4","last_reported":1727507243,"current_range_meters":39200,"station_id":"ce4bhph2rcd13ifvqhdg","pricing_plan_id":"cebpf4jnsgd1na2vs0mg"},{"bike_id":"a6903808-354a-4aed-8af8-b4a5f29db99f","system_id":"levelo_inurba_marseille","lat":43.27956,"lon":5.41056,"is_reserved":false,"is_disabled":false,"rental_uris":{"android":"levelo://app?vid=a6903808-354a-4aed-8af8-b4a5f29db99f","ios":"levelo://app?vid=a6903808-354a-4aed-8af8-b4a5f29db99f"},"vehicle_type_id":"4","last_reported":1727507243,"current_range_meters":18800,"station_id":"ce4bhnp2rcd13ifvqh0g","pricing_plan_id":"cebpf4jnsgd1na2vs0mg"},{"bike_id":"afb281a8-72f1-420e-885f-b26b997985af","system_id":"levelo_inurba_marseille","lat":43.31691,"lon":5.40475,"is_reserved":false,"is_disabled":false,"rental_uris":{"android":"levelo://app?vid=afb281a8-72f1-420e-885f-b26b997985af","ios":"levelo://app?vid=afb281a8-72f1-420e-885f-b26b997985af"},"vehicle_type_id":"4","last_reported":1727507243,"current_range_meters":32400,"station_id":"ce4bh012rcd13ifvqd00","pricing_plan_id":"cebpf4jnsgd1na2vs0mg"},{"bike_id":"6cdca13d-24d1-4302-912a-54d18c748242","system_id":"levelo_inurba_marseille","lat":43.31083,"lon":5.40132,"is_reserved":false,"is_disabled":false,"rental_uris":{"android":"levelo://app?vid=6cdca13d-24d1-4302-912a-54d18c748242","ios":"levelo://app?vid=6cdca13d-24d1-4302-912a-54d18c748242"},"vehicle_type_id":"4","last_reported":1727507243,"current_range_meters":10000,"station_id":"","pricing_plan_id":"cebpf4jnsgd1na2vs0mg"},{"bike_id":"5be5c2cd-3f9f-486f-a58b-98a7040b04e7","system_id":"levelo_inurba_marseille","lat":43.28865,"lon":5.35862,"is_reserved":false,"is_disabled":false,"rental_uris":{"android":"levelo://app?vid=5be5c2cd-3f9f-486f-a58b-98a7040b04e7","ios":"levelo://app?vid=5be5c2cd-3f9f-486f-a58b-98a7040b04e7"},"vehicle_type_id":"4","last_reported":1727507243,"current_range_meters":27600,"station_id":"ce4bhb12rcd13ifvqem0","pricing_plan_id":"cebpf4jnsgd1na2vs0mg"},{"bike_id":"093c990c-4ffd-449c-ac18-aeecffb3b446","system_id":"levelo_inurba_marseille","lat":43.30931,"lon":5.40146,"is_reserved":false,"is_disabled":false,"rental_uris":{"android":"levelo://app?vid=093c990c-4ffd-449c-ac18-aeecffb3b446","ios":"levelo://app?vid=093c990c-4ffd-449c-ac18-aeecffb3b446"},"vehicle_type_id":"4","last_reported":1727507243,"current_range_meters":34000,"station_id":"ce4bgvp2rcd13ifvqct0","pricing_plan_id":"cebpf4jnsgd1na2vs0mg"},{"bike_id":"80772028-8c3e-4d06-b5a5-47d20bb2da13","system_id":"levelo_inurba_marseille","lat":43.30154,"lon":5.38073,"is_reserved":false,"is_disabled":false,"rental_uris":{"android":"levelo://app?vid=80772028-8c3e-4d06-b5a5-47d20bb2da13","ios":"levelo://app?vid=80772028-8c3e-4d06-b5a5-47d20bb2da13"},"vehicle_type_id":"4","last_reported":1727507243,"current_range_meters":36400,"station_id":"ce4bgjp2rcd13ifvqbh0","pricing_plan_id":"cebpf4jnsgd1na2vs0mg"},{"bike_id":"11b3a547-b40b-41c3-abfd-120f3879726f","system_id":"levelo_inurba_marseille","lat":43.29108,"lon":5.38155,"is_reserved":false,"is_disabled":false,"rental_uris":{"android":"levelo://app?vid=11b3a547-b40b-41c3-abfd-120f3879726f","ios":"levelo://app?vid=11b3a547-b40b-41c3-abfd-120f3879726f"},"vehicle_type_id":"4","last_reported":1727507243,"current_range_meters":8800,"station_id":"ce4bh512rcd13ifvqe2g","pricing_plan_id":"cebpf4jnsgd1na2vs0mg"},{"bike_id":"7f31b7c3-4a3b-43de-afc0-d4cf26796b63","system_id":"levelo_inurba_marseille","lat":43.279423,"lon":5.410453,"is_reserved":false,"is_disabled":false,"rental_uris":{"android":"levelo://app?vid=7f31b7c3-4a3b-43de-afc0-d4cf26796b63","ios":"levelo://app?vid=7f31b7c3-4a3b-43de-afc0-d4cf26796b63"},"vehicle_type_id":"4","last_reported":1727507243,"current_range_meters":34000,"station_id":"ce4bhnp2rcd13ifvqh0g","pricing_plan_id":"cebpf4jnsgd1na2vs0mg"},{"bike_id":"da2e7afb-45a7-4193-9960-716c0aa1657b","system_id":"levelo_inurba_marseille","lat":43.32286,"lon":5.38268,"is_reserved":false,"is_disabled":false,"rental_uris":{"android":"levelo://app?vid=da2e7afb-45a7-4193-9960-716c0aa1657b","ios":"levelo://app?vid=da2e7afb-45a7-4193-9960-716c0aa1657b"},"vehicle_type_id":"4","last_reported":1727507243,"current_range_meters":38400,"station_id":"ce4bhr12rcd13ifvqhqg","pricing_plan_id":"cebpf4jnsgd1na2vs0mg"},{"bike_id":"b64089c7-13ae-46ba-b29e-4e00e75820e1","system_id":"levelo_inurba_marseille","lat":43.30151,"lon":5.38074,"is_reserved":false,"is_disabled":false,"rental_uris":{"android":"levelo://app?vid=b64089c7-13ae-46ba-b29e-4e00e75820e1","ios":"levelo://app?vid=b64089c7-13ae-46ba-b29e-4e00e75820e1"},"vehicle_type_id":"4","last_reported":1727507243,"current_range_meters":37600,"station_id":"ce4bgjp2rcd13ifvqbh0","pricing_plan_id":"cebpf4jnsgd1na2vs0mg"},{"bike_id":"d151f664-7832-4381-b6dd-7d7b186a5d22","system_id":"levelo_inurba_marseille","lat":43.24075,"lon":5.37755,"is_reserved":false,"is_disabled":false,"rental_uris":{"android":"levelo://app?vid=d151f664-7832-4381-b6dd-7d7b186a5d22","ios":"levelo://app?vid=d151f664-7832-4381-b6dd-7d7b186a5d22"},"vehicle_type_id":"4","last_reported":1727507243,"current_range_meters":27200,"station_id":"ce4bhnp2rcd13ifvqgvg","pricing_plan_id":"cebpf4jnsgd1na2vs0mg"},{"bike_id":"dbab5e16-0de9-4389-932d-06a62d667144","system_id":"levelo_inurba_marseille","lat":43.25831,"lon":5.39418,"is_reserved":false,"is_disabled":false,"rental_uris":{"android":"levelo://app?vid=dbab5e16-0de9-4389-932d-06a62d667144","ios":"levelo://app?vid=dbab5e16-0de9-4389-932d-06a62d667144"},"vehicle_type_id":"4","last_reported":1727507243,"current_range_meters":38000,"station_id":"ce4bhip2rcd13ifvqft0","pricing_plan_id":"cebpf4jnsgd1na2vs0mg"},{"bike_id":"808e2a76-3583-4020-998e-63ef8bb4f2f9","system_id":"levelo_inurba_marseille","lat":43.31995,"lon":5.38152,"is_reserved":false,"is_disabled":false,"rental_uris":{"android":"levelo://app?vid=808e2a76-3583-4020-998e-63ef8bb4f2f9","ios":"levelo://app?vid=808e2a76-3583-4020-998e-63ef8bb4f2f9"},"vehicle_type_id":"4","last_reported":1727507243,"current_range_meters":24000,"station_id":"ce4bhr12rcd13ifvqhpg","pricing_plan_id":"cebpf4jnsgd1na2vs0mg"},{"bike_id":"b9cd4885-6618-49ae-b6e3-10480ada383c","system_id":"levelo_inurba_marseille","lat":43.28278,"lon":5.35069,"is_reserved":false,"is_disabled":false,"rental_uris":{"android":"levelo://app?vid=b9cd4885-6618-49ae-b6e3-10480ada383c","ios":"levelo://app?vid=b9cd4885-6618-49ae-b6e3-10480ada383c"},"vehicle_type_id":"4","last_reported":1727507243,"current_range_meters":39200,"station_id":"ce4bhbp2rcd13ifvqerg","pricing_plan_id":"cebpf4jnsgd1na2vs0mg"},{"bike_id":"6a2f08cc-9150-438d-81da-fa7401719320","system_id":"levelo_inurba_marseille","lat":43.28402,"lon":5.37519,"is_reserved":false,"is_disabled":false,"rental_uris":{"android":"levelo://app?vid=6a2f08cc-9150-438d-81da-fa7401719320","ios":"levelo://app?vid=6a2f08cc-9150-438d-81da-fa7401719320"},"vehicle_type_id":"4","last_reported":1727507243,"current_range_meters":15200,"station_id":"ce4bh412rcd13ifvqds0","pricing_plan_id":"cebpf4jnsgd1na2vs0mg"},{"bike_id":"3407da71-e9f5-4375-9956-506983640a2f","system_id":"levelo_inurba_marseille","lat":43.29003,"lon":5.37601,"is_reserved":false,"is_disabled":false,"rental_uris":{"android":"levelo://app?vid=3407da71-e9f5-4375-9956-506983640a2f","ios":"levelo://app?vid=3407da71-e9f5-4375-9956-506983640a2f"},"vehicle_type_id":"4","last_reported":1727507243,"current_range_meters":29600,"station_id":"ce4bh692rcd13ifvqe90","pricing_plan_id":"cebpf4jnsgd1na2vs0mg"},{"bike_id":"99a90317-629f-4ac3-b221-a0cc2a72036a","system_id":"levelo_inurba_marseille","lat":43.29275,"lon":5.3685,"is_reserved":false,"is_disabled":false,"rental_uris":{"android":"levelo://app?vid=99a90317-629f-4ac3-b221-a0cc2a72036a","ios":"levelo://app?vid=99a90317-629f-4ac3-b221-a0cc2a72036a"},"vehicle_type_id":"4","last_reported":1727507243,"current_range_meters":32800,"station_id":"ce4bhbp2rcd13ifvqesg","pricing_plan_id":"cebpf4jnsgd1na2vs0mg"},{"bike_id":"aee71614-34c8-4461-92c5-12ca6455e1bd","system_id":"levelo_inurba_marseille","lat":43.25824,"lon":5.39434,"is_reserved":false,"is_disabled":false,"rental_uris":{"android":"levelo://app?vid=aee71614-34c8-4461-92c5-12ca6455e1bd","ios":"levelo://app?vid=aee71614-34c8-4461-92c5-12ca6455e1bd"},"vehicle_type_id":"4","last_reported":1727507243,"current_range_meters":31200,"station_id":"ce4bhip2rcd13ifvqft0","pricing_plan_id":"cebpf4jnsgd1na2vs0mg"},{"bike_id":"1ba81657-6719-4d6b-ae22-29d9a461c846","system_id":"levelo_inurba_marseille","lat":43.2872,"lon":5.37404,"is_reserved":false,"is_disabled":false,"rental_uris":{"android":"levelo://app?vid=1ba81657-6719-4d6b-ae22-29d9a461c846","ios":"levelo://app?vid=1ba81657-6719-4d6b-ae22-29d9a461c846"},"vehicle_type_id":"4","last_reported":1727507243,"current_range_meters":17200,"station_id":"ce4bh3p2rcd13ifvqdq0","pricing_plan_id":"cebpf4jnsgd1na2vs0mg"},{"bike_id":"a7bee9ae-54ab-4a82-bdc5-9f85919258dd","system_id":"levelo_inurba_marseille","lat":43.25504,"lon":5.37648,"is_reserved":false,"is_disabled":false,"rental_uris":{"android":"levelo://app?vid=a7bee9ae-54ab-4a82-bdc5-9f85919258dd","ios":"levelo://app?vid=a7bee9ae-54ab-4a82-bdc5-9f85919258dd"},"vehicle_type_id":"4","last_reported":1727507243,"current_range_meters":36400,"station_id":"ce4bhh12rcd13ifvqff0","pricing_plan_id":"cebpf4jnsgd1na2vs0mg"},{"bike_id":"e3ee7d5b-bd0b-4d4d-a3e6-11e8cd23caf2","system_id":"levelo_inurba_marseille","lat":43.28155,"lon":5.42636,"is_reserved":false,"is_disabled":false,"rental_uris":{"android":"levelo://app?vid=e3ee7d5b-bd0b-4d4d-a3e6-11e8cd23caf2","ios":"levelo://app?vid=e3ee7d5b-bd0b-4d4d-a3e6-11e8cd23caf2"},"vehicle_type_id":"4","last_reported":1727507243,"current_range_meters":34800,"station_id":"ce4bhnh2rcd13ifvqgug","pricing_plan_id":"cebpf4jnsgd1na2vs0mg"},{"bike_id":"2750ce0e-46f1-450c-9305-c442489af021","system_id":"levelo_inurba_marseille","lat":43.28987,"lon":5.37852,"is_reserved":false,"is_disabled":false,"rental_uris":{"android":"levelo://app?vid=2750ce0e-46f1-450c-9305-c442489af021","ios":"levelo://app?vid=2750ce0e-46f1-450c-9305-c442489af021"},"vehicle_type_id":"4","last_reported":1727507243,"current_range_meters":38000,"station_id":"ce4bh9p2rcd13ifvqed0","pricing_plan_id":"cebpf4jnsgd1na2vs0mg"},{"bike_id":"ddd3400b-618a-48cf-a3f2-c37dd01ba9b9","system_id":"levelo_inurba_marseille","lat":43.3093,"lon":5.40148,"is_reserved":false,"is_disabled":false,"rental_uris":{"android":"levelo://app?vid=ddd3400b-618a-48cf-a3f2-c37dd01ba9b9","ios":"levelo://app?vid=ddd3400b-618a-48cf-a3f2-c37dd01ba9b9"},"vehicle_type_id":"4","last_reported":1727507243,"current_range_meters":16400,"station_id":"ce4bgvp2rcd13ifvqct0","pricing_plan_id":"cebpf4jnsgd1na2vs0mg"},{"bike_id":"b25975a2-4789-471d-bf7d-ec59dfff3ec3","system_id":"levelo_inurba_marseille","lat":43.2953,"lon":5.3749,"is_reserved":false,"is_disabled":false,"rental_uris":{"android":"levelo://app?vid=b25975a2-4789-471d-bf7d-ec59dfff3ec3","ios":"levelo://app?vid=b25975a2-4789-471d-bf7d-ec59dfff3ec3"},"vehicle_type_id":"4","last_reported":1727507243,"current_range_meters":19200,"station_id":"ce4bgkp2rcd13ifvqbmg","pricing_plan_id":"cebpf4jnsgd1na2vs0mg"},{"bike_id":"d5adb0e7-a184-462e-8337-990c66f58ad7","system_id":"levelo_inurba_marseille","lat":43.33025,"lon":5.39043,"is_reserved":false,"is_disabled":false,"rental_uris":{"android":"levelo://app?vid=d5adb0e7-a184-462e-8337-990c66f58ad7","ios":"levelo://app?vid=d5adb0e7-a184-462e-8337-990c66f58ad7"},"vehicle_type_id":"4","last_reported":1727507243,"current_range_meters":33600,"station_id":"ce4bhr92rcd13ifvqhrg","pricing_plan_id":"cebpf4jnsgd1na2vs0mg"},{"bike_id":"da3d8f0d-0f47-455d-bf44-fb306bfeadf4","system_id":"levelo_inurba_marseille","lat":43.30148,"lon":5.38081,"is_reserved":false,"is_disabled":false,"rental_uris":{"android":"levelo://app?vid=da3d8f0d-0f47-455d-bf44-fb306bfeadf4","ios":"levelo://app?vid=da3d8f0d-0f47-455d-bf44-fb306bfeadf4"},"vehicle_type_id":"4","last_reported":1727507243,"current_range_meters":27600,"station_id":"ce4bgjp2rcd13ifvqbh0","pricing_plan_id":"cebpf4jnsgd1na2vs0mg"},{"bike_id":"8ea9f69c-c973-4f0e-ad2f-0d79dac49d16","system_id":"levelo_inurba_marseille","lat":43.29963,"lon":5.38496,"is_reserved":false,"is_disabled":false,"rental_uris":{"android":"levelo://app?vid=8ea9f69c-c973-4f0e-ad2f-0d79dac49d16","ios":"levelo://app?vid=8ea9f69c-c973-4f0e-ad2f-0d79dac49d16"},"vehicle_type_id":"4","last_reported":1727507243,"current_range_meters":38800,"station_id":"ce4bgj92rcd13ifvqbd0","pricing_plan_id":"cebpf4jnsgd1na2vs0mg"},{"bike_id":"ad3b0bd4-9b25-499c-8916-114fd32a0904","system_id":"levelo_inurba_marseille","lat":43.304718,"lon":5.389838,"is_reserved":false,"is_disabled":false,"rental_uris":{"android":"levelo://app?vid=ad3b0bd4-9b25-499c-8916-114fd32a0904","ios":"levelo://app?vid=ad3b0bd4-9b25-499c-8916-114fd32a0904"},"vehicle_type_id":"4","last_reported":1727507243,"current_range_meters":30800,"station_id":"ce4bhlh2rcd13ifvqgig","pricing_plan_id":"cebpf4jnsgd1na2vs0mg"},{"bike_id":"e91ba66d-f732-4e7e-ace3-faaa088642a7","system_id":"levelo_inurba_marseille","lat":43.2963,"lon":5.40599,"is_reserved":false,"is_disabled":false,"rental_uris":{"android":"levelo://app?vid=e91ba66d-f732-4e7e-ace3-faaa088642a7","ios":"levelo://app?vid=e91ba66d-f732-4e7e-ace3-faaa088642a7"},"vehicle_type_id":"4","last_reported":1727507243,"current_range_meters":39200,"station_id":"ce4bh0h2rcd13ifvqd60","pricing_plan_id":"cebpf4jnsgd1na2vs0mg"},{"bike_id":"2385a768-acc4-4bca-b380-589c0719e15d","system_id":"levelo_inurba_marseille","lat":43.28458,"lon":5.35897,"is_reserved":false,"is_disabled":false,"rental_uris":{"android":"levelo://app?vid=2385a768-acc4-4bca-b380-589c0719e15d","ios":"levelo://app?vid=2385a768-acc4-4bca-b380-589c0719e15d"},"vehicle_type_id":"4","last_reported":1727507243,"current_range_meters":38800,"station_id":"ce4bhah2rcd13ifvqei0","pricing_plan_id":"cebpf4jnsgd1na2vs0mg"},{"bike_id":"e70e8252-4776-489c-b71e-9dfda14555b2","system_id":"levelo_inurba_marseille","lat":43.28103,"lon":5.37844,"is_reserved":false,"is_disabled":false,"rental_uris":{"android":"levelo://app?vid=e70e8252-4776-489c-b71e-9dfda14555b2","ios":"levelo://app?vid=e70e8252-4776-489c-b71e-9dfda14555b2"},"vehicle_type_id":"4","last_reported":1727507243,"current_range_meters":7200,"station_id":"ce4bha12rcd13ifvqee0","pricing_plan_id":"cebpf4jnsgd1na2vs0mg"},{"bike_id":"2d79c7e6-a03e-45fe-b335-3078291f8f45","system_id":"levelo_inurba_marseille","lat":43.29304,"lon":5.37441,"is_reserved":false,"is_disabled":false,"rental_uris":{"android":"levelo://app?vid=2d79c7e6-a03e-45fe-b335-3078291f8f45","ios":"levelo://app?vid=2d79c7e6-a03e-45fe-b335-3078291f8f45"},"vehicle_type_id":"4","last_reported":1727507243,"current_range_meters":39200,"station_id":"ce4bgi12rcd13ifvqb70","pricing_plan_id":"cebpf4jnsgd1na2vs0mg"},{"bike_id":"0c3f0369-7cdf-4cba-a0db-09435ab8c8da","system_id":"levelo_inurba_marseille","lat":43.23189,"lon":5.39989,"is_reserved":false,"is_disabled":false,"rental_uris":{"android":"levelo://app?vid=0c3f0369-7cdf-4cba-a0db-09435ab8c8da","ios":"levelo://app?vid=0c3f0369-7cdf-4cba-a0db-09435ab8c8da"},"vehicle_type_id":"4","last_reported":1727507243,"current_range_meters":32400,"station_id":"ce4bhn12rcd13ifvqgqg","pricing_plan_id":"cebpf4jnsgd1na2vs0mg"},{"bike_id":"27fb3ff7-6c22-4845-a062-d71b8d0c8e22","system_id":"levelo_inurba_marseille","lat":43.336087,"lon":5.41024,"is_reserved":false,"is_disabled":false,"rental_uris":{"android":"levelo://app?vid=27fb3ff7-6c22-4845-a062-d71b8d0c8e22","ios":"levelo://app?vid=27fb3ff7-6c22-4845-a062-d71b8d0c8e22"},"vehicle_type_id":"4","last_reported":1727507243,"current_range_meters":39200,"station_id":"ce4bhqh2rcd13ifvqhmg","pricing_plan_id":"cebpf4jnsgd1na2vs0mg"},{"bike_id":"5bbd2505-51dc-451e-8388-5c62e078114a","system_id":"levelo_inurba_marseille","lat":43.241753,"lon":5.397333,"is_reserved":false,"is_disabled":false,"rental_uris":{"android":"levelo://app?vid=5bbd2505-51dc-451e-8388-5c62e078114a","ios":"levelo://app?vid=5bbd2505-51dc-451e-8388-5c62e078114a"},"vehicle_type_id":"4","last_reported":1727507243,"current_range_meters":40000,"station_id":"ce4bhn12rcd13ifvqgpg","pricing_plan_id":"cebpf4jnsgd1na2vs0mg"},{"bike_id":"8cc6420e-9ed0-4fab-ae82-860344d30ea8","system_id":"levelo_inurba_marseille","lat":43.31754,"lon":5.39023,"is_reserved":false,"is_disabled":false,"rental_uris":{"android":"levelo://app?vid=8cc6420e-9ed0-4fab-ae82-860344d30ea8","ios":"levelo://app?vid=8cc6420e-9ed0-4fab-ae82-860344d30ea8"},"vehicle_type_id":"4","last_reported":1727507243,"current_range_meters":38000,"station_id":"ce4bhqp2rcd13ifvqhng","pricing_plan_id":"cebpf4jnsgd1na2vs0mg"},{"bike_id":"bc20af5c-be7b-4c51-b09b-2e170ca1b5b9","system_id":"levelo_inurba_marseille","lat":43.25487,"lon":5.37647,"is_reserved":false,"is_disabled":false,"rental_uris":{"android":"levelo://app?vid=bc20af5c-be7b-4c51-b09b-2e170ca1b5b9","ios":"levelo://app?vid=bc20af5c-be7b-4c51-b09b-2e170ca1b5b9"},"vehicle_type_id":"4","last_reported":1727507243,"current_range_meters":38000,"station_id":"ce4bhh12rcd13ifvqff0","pricing_plan_id":"cebpf4jnsgd1na2vs0mg"},{"bike_id":"03af8350-a5f2-42f1-9a40-a313e4daf477","system_id":"levelo_inurba_marseille","lat":43.231875,"lon":5.399882,"is_reserved":false,"is_disabled":false,"rental_uris":{"android":"levelo://app?vid=03af8350-a5f2-42f1-9a40-a313e4daf477","ios":"levelo://app?vid=03af8350-a5f2-42f1-9a40-a313e4daf477"},"vehicle_type_id":"4","last_reported":1727507243,"current_range_meters":9600,"station_id":"ce4bhn12rcd13ifvqgqg","pricing_plan_id":"cebpf4jnsgd1na2vs0mg"},{"bike_id":"242970b0-1372-463d-8314-94d3c92d90a4","system_id":"levelo_inurba_marseille","lat":43.26209,"lon":5.37443,"is_reserved":false,"is_disabled":false,"rental_uris":{"android":"levelo://app?vid=242970b0-1372-463d-8314-94d3c92d90a4","ios":"levelo://app?vid=242970b0-1372-463d-8314-94d3c92d90a4"},"vehicle_type_id":"4","last_reported":1727507243,"current_range_meters":35200,"station_id":"ce4bhgp2rcd13ifvqfc0","pricing_plan_id":"cebpf4jnsgd1na2vs0mg"},{"bike_id":"d8e32f1c-4c32-4777-922d-4d90b15b71c7","system_id":"levelo_inurba_marseille","lat":43.30863,"lon":5.3685,"is_reserved":false,"is_disabled":false,"rental_uris":{"android":"levelo://app?vid=d8e32f1c-4c32-4777-922d-4d90b15b71c7","ios":"levelo://app?vid=d8e32f1c-4c32-4777-922d-4d90b15b71c7"},"vehicle_type_id":"4","last_reported":1727507243,"current_range_meters":10800,"station_id":"ce4bgn92rcd13ifvqbvg","pricing_plan_id":"cebpf4jnsgd1na2vs0mg"},{"bike_id":"06f62eff-144c-42e8-9cda-03a811e02320","system_id":"levelo_inurba_marseille","lat":43.27488,"lon":5.42457,"is_reserved":false,"is_disabled":false,"rental_uris":{"android":"levelo://app?vid=06f62eff-144c-42e8-9cda-03a811e02320","ios":"levelo://app?vid=06f62eff-144c-42e8-9cda-03a811e02320"},"vehicle_type_id":"4","last_reported":1727507243,"current_range_meters":36000,"station_id":"ce4bhn92rcd13ifvqgrg","pricing_plan_id":"cebpf4jnsgd1na2vs0mg"},{"bike_id":"b470945e-f45c-4291-ac95-d7061c9aab44","system_id":"levelo_inurba_marseille","lat":43.27366,"lon":5.41216,"is_reserved":false,"is_disabled":false,"rental_uris":{"android":"levelo://app?vid=b470945e-f45c-4291-ac95-d7061c9aab44","ios":"levelo://app?vid=b470945e-f45c-4291-ac95-d7061c9aab44"},"vehicle_type_id":"4","last_reported":1727507243,"current_range_meters":28800,"station_id":"","pricing_plan_id":"cebpf4jnsgd1na2vs0mg"},{"bike_id":"138bc1bf-c994-49f5-b6a9-e5f6fdac4480","system_id":"levelo_inurba_marseille","lat":43.28723,"lon":5.36092,"is_reserved":false,"is_disabled":false,"rental_uris":{"android":"levelo://app?vid=138bc1bf-c994-49f5-b6a9-e5f6fdac4480","ios":"levelo://app?vid=138bc1bf-c994-49f5-b6a9-e5f6fdac4480"},"vehicle_type_id":"4","last_reported":1727507243,"current_range_meters":4000,"station_id":"cki0cbj6b192h4jlfktg","pricing_plan_id":"cebpf4jnsgd1na2vs0mg"},{"bike_id":"7b094b27-c226-4735-ad93-a86b2a5de02d","system_id":"levelo_inurba_marseille","lat":43.26688,"lon":5.38279,"is_reserved":false,"is_disabled":false,"rental_uris":{"android":"levelo://app?vid=7b094b27-c226-4735-ad93-a86b2a5de02d","ios":"levelo://app?vid=7b094b27-c226-4735-ad93-a86b2a5de02d"},"vehicle_type_id":"4","last_reported":1727507243,"current_range_meters":38400,"station_id":"ce4bhg92rcd13ifvqf90","pricing_plan_id":"cebpf4jnsgd1na2vs0mg"},{"bike_id":"b6193e94-c93a-43a4-a4e8-8cb0195103ca","system_id":"levelo_inurba_marseille","lat":43.27995,"lon":5.40034,"is_reserved":false,"is_disabled":false,"rental_uris":{"android":"levelo://app?vid=b6193e94-c93a-43a4-a4e8-8cb0195103ca","ios":"levelo://app?vid=b6193e94-c93a-43a4-a4e8-8cb0195103ca"},"vehicle_type_id":"4","last_reported":1727507243,"current_range_meters":39200,"station_id":"ce4bho92rcd13ifvqh4g","pricing_plan_id":"cebpf4jnsgd1na2vs0mg"},{"bike_id":"23718270-4e74-46b6-8713-922dcb881082","system_id":"levelo_inurba_marseille","lat":43.30467,"lon":5.37899,"is_reserved":false,"is_disabled":false,"rental_uris":{"android":"levelo://app?vid=23718270-4e74-46b6-8713-922dcb881082","ios":"levelo://app?vid=23718270-4e74-46b6-8713-922dcb881082"},"vehicle_type_id":"4","last_reported":1727507243,"current_range_meters":31200,"station_id":"ce4bgup2rcd13ifvqcn0","pricing_plan_id":"cebpf4jnsgd1na2vs0mg"},{"bike_id":"1a20ea9f-ac93-42d3-aa28-127e314df036","system_id":"levelo_inurba_marseille","lat":43.26945,"lon":5.38637,"is_reserved":false,"is_disabled":false,"rental_uris":{"android":"levelo://app?vid=1a20ea9f-ac93-42d3-aa28-127e314df036","ios":"levelo://app?vid=1a20ea9f-ac93-42d3-aa28-127e314df036"},"vehicle_type_id":"4","last_reported":1727507243,"current_range_meters":38000,"station_id":"ce4bhh92rcd13ifvqfh0","pricing_plan_id":"cebpf4jnsgd1na2vs0mg"},{"bike_id":"45109e24-5153-4141-bafb-b7dcead09240","system_id":"levelo_inurba_marseille","lat":43.22934,"lon":5.3538,"is_reserved":false,"is_disabled":false,"rental_uris":{"android":"levelo://app?vid=45109e24-5153-4141-bafb-b7dcead09240","ios":"levelo://app?vid=45109e24-5153-4141-bafb-b7dcead09240"},"vehicle_type_id":"4","last_reported":1727507243,"current_range_meters":34000,"station_id":"cpo3532slgdg3j2ikp40","pricing_plan_id":"cebpf4jnsgd1na2vs0mg"},{"bike_id":"e4361fa2-90d9-45ff-9d8a-e7b112f4e011","system_id":"levelo_inurba_marseille","lat":43.28529,"lon":5.3914,"is_reserved":false,"is_disabled":false,"rental_uris":{"android":"levelo://app?vid=e4361fa2-90d9-45ff-9d8a-e7b112f4e011","ios":"levelo://app?vid=e4361fa2-90d9-45ff-9d8a-e7b112f4e011"},"vehicle_type_id":"4","last_reported":1727507243,"current_range_meters":34800,"station_id":"ce4bh3p2rcd13ifvqdp0","pricing_plan_id":"cebpf4jnsgd1na2vs0mg"},