{"last_updated":1740921170,"ttl":60,"version":"2.2","data":{"bikes":[{"bike_id":"498c2ace-4821-4676-a9ac-9368b02a49b6","system_id":"levelo_inurba_marseille","lat":43.33799,"lon":5.37386,"is_reserved":false,"is_disabled":false,"rental_uris":{"android":"levelo://app?vid=498c2ace-4821-4676-a9ac-9368b02a49b6","ios":"levelo://app?vid=498c2ace-4821-4676-a9ac-9368b02a49b6"},"vehicle_type_id":"4","last_reported":1740921170,"current_range_meters":25600,"station_id":"","pricing_plan_id":"cebpf4jnsgd1na2vs0mg"},{"bike_id":"819fc6fd-4768-4c11-82f9-0b5fd0b62d4a","system_id":"levelo_inurba_marseille","lat":43.34246,"lon":5.37798,"is_reserved":false,"is_disabled":true,"rental_uris":{"android":"levelo://app?vid=819fc6fd-4768-4c11-82f9-0b5fd0b62d4a","ios":"levelo://app?vid=819fc6fd-4768-4c11-82f9-0b5fd0b62d4a"},"vehicle_type_id":"4","last_reported":1740921170,"current_range_meters":0,"station_id":"","pricing_plan_id":"cebpf4jnsgd1na2vs0mg"},{"bike_id":"303c2b96-5131-48b9-8dd0-e5a82865f4bc","system_id":"levelo_inurba_marseille","lat":43.35343,"lon":5.36548,"is_reserved":false,"is_disabled":true,"rental_uris":{"android":"levelo://app?vid=303c2b96-5131-48b9-8dd0-e5a82865f4bc","ios":"levelo://app?vid=303c2b96-5131-48b9-8dd0-e5a82865f4bc"},"vehicle_type_id":"4","last_reported":1740921170,"current_range_meters":0,"station_id":"","pricing_plan_id":"cebpf4jnsgd1na2vs0mg"},{"bike_id":"d5458f89-73a3-43f1-9894-000389f52995","system_id":"levelo_inurba_marseille","lat":43.2762,"lon":5.4149,"is_reserved":false,"is_disabled":true,"rental_uris":{"android":"levelo://app?vid=d5458f89-73a3-43f1-9894-000389f52995","ios":"levelo://app?vid=d5458f89-73a3-43f1-9894-000389f52995"},"vehicle_type_id":"4","last_reported":1740921170,"current_range_meters":0,"station_id":"","pricing_plan_id":"cebpf4jnsgd1na2vs0mg"},{"bike_id":"afcec8eb-28d8-4889-8879-0897cb5957e3","system_id":"levelo_inurba_marseille","lat":43.279916,"lon":5.405708,"is_reserved":false,"is_disabled":true,"rental_uris":{"android":"levelo://app?vid=afcec8eb-28d8-4889-8879-0897cb5957e3","ios":"levelo://app?vid=afcec8eb-28d8-4889-8879-0897cb5957e3"},"vehicle_type_id":"4","last_reported":1740921170,"current_range_meters":0,"station_id":"","pricing_plan_id":"cebpf4jnsgd1na2vs0mg"},{"bike_id":"fedd5b93-b549-41c1-9b3e-7973979d0fd5","system_id":"levelo_inurba_marseille","lat":43.3055,"lon":5.36554,"is_reserved":false,"is_disabled":true,"rental_uris":{"android":"levelo://app?vid=fedd5b93-b549-41c1-9b3e-7973979d0fd5","ios":"levelo://app?vid=fedd5b93-b549-41c1-9b3e-7973979d0fd5"},"vehicle_type_id":"4","last_reported":1740921170,"current_range_meters":0,"station_id":"ce4bgs12rcd13ifvqcag","pricing_plan_id":"cebpf4jnsgd1na2vs0mg"},{"bike_id":"ec5423e6-f183-49e9-b9d6-9f5650463f91","system_id":"levelo_inurba_marseille","lat":43.30541,"lon":5.36559,"is_reserved":false,"is_disabled":true,"rental_uris":{"android":"levelo://app?vid=ec5423e6-f183-49e9-b9d6-9f5650463f91","ios":"levelo://app?vid=ec5423e6-f183-49e9-b9d6-9f5650463f91"},"vehicle_type_id":"4","last_reported":1740921170,"current_range_meters":0,"station_id":"ce4bgs12rcd13ifvqcag","pricing_plan_id":"cebpf4jnsgd1na2vs0mg"},{"bike_id":"22724367-c464-4927-9751-8c0b76a246e1","system_id":"levelo_inurba_marseille","lat":43.28945,"lon":5.36374,"is_reserved":false,"is_disabled":true,"rental_uris":{"android":"levelo://app?vid=22724367-c464-4927-9751-8c0b76a246e1","ios":"levelo://app?vid=22724367-c464-4927-9751-8c0b76a246e1"},"vehicle_type_id":"4","last_reported":1740921170,"current_range_meters":0,"station_id":"ce4bhc92rcd13ifvqetg","pricing_plan_id":"cebpf4jnsgd1na2vs0mg"},{"bike_id":"00fc0730-fa7e-4df1-8631-599c4f02be4c","system_id":"levelo_inurba_marseille","lat":43.26197,"lon":5.37451,"is_reserved":false,"is_disabled":true,"rental_uris":{"android":"levelo://app?vid=00fc0730-fa7e-4df1-8631-599c4f02be4c","ios":"levelo://app?vid=00fc0730-fa7e-4df1-8631-599c4f02be4c"},"vehicle_type_id":"4","last_reported":1740921170,"current_range_meters":0,"station_id":"ce4bhgp2rcd13ifvqfc0","pricing_plan_id":"cebpf4jnsgd1na2vs0mg"},{"bike_id":"65dc4f52-8ddc-4f40-aed5-ebfe6c210851","system_id":"levelo_inurba_marseille","lat":43.26795,"lon":5.39427,"is_reserved":false,"is_disabled":true,"rental_uris":{"android":"levelo://app?vid=65dc4f52-8ddc-4f40-aed5-ebfe6c210851","ios":"levelo://app?vid=65dc4f52-8ddc-4f40-aed5-ebfe6c210851"},"vehicle_type_id":"4","last_reported":1740921170,"current_range_meters":0,"station_id":"ce4bhh12rcd13ifvqfg0","pricing_plan_id":"cebpf4jnsgd1na2vs0mg"},{"bike_id":"0876d7e8-3284-4bd9-a1ea-49eadafff38d","system_id":"levelo_inurba_marseille","lat":43.25091,"lon":5.3952,"is_reserved":false,"is_disabled":true,"rental_uris":{"android":"levelo://app?vid=0876d7e8-3284-4bd9-a1ea-49eadafff38d","ios":"levelo://app?vid=0876d7e8-3284-4bd9-a1ea-49eadafff38d"},"vehicle_type_id":"4","last_reported":1740921170,"current_range_meters":0,"station_id":"ce4bhm12rcd13ifvqgkg","pricing_plan_id":"cebpf4jnsgd1na2vs0mg"},{"bike_id":"9162ded2-f721-44a1-8b3a-5d109577d12c","system_id":"levelo_inurba_marseille","lat":43.23143,"lon":5.43705,"is_reserved":false,"is_disabled":true,"rental_uris":{"android":"levelo://app?vid=9162ded2-f721-44a1-8b3a-5d109577d12c","ios":"levelo://app?vid=9162ded2-f721-44a1-8b3a-5d109577d12c"},"vehicle_type_id":"4","last_reported":1740921170,"current_range_meters":0,"station_id":"ce4bhmp2rcd13ifvqgog","pricing_plan_id":"cebpf4jnsgd1na2vs0mg"},{"bike_id":"fb6c5a28-8cca-4e0c-9948-1e157f7268ef","system_id":"levelo_inurba_marseille","lat":43.23131,"lon":5.43701,"is_reserved":false,"is_disabled":true,"rental_uris":{"android":"levelo://app?vid=fb6c5a28-8cca-4e0c-9948-1e157f7268ef","ios":"levelo://app?vid=fb6c5a28-8cca-4e0c-9948-1e157f7268ef"},"vehicle_type_id":"4","last_reported":1740921170,"current_range_meters":0,"station_id":"ce4bhmp2rcd13ifvqgog","pricing_plan_id":"cebpf4jnsgd1na2vs0mg"},{"bike_id":"e997f5ad-927d-46c3-acf7-e43efc9addfe","system_id":"levelo_inurba_marseille","lat":43.23157,"lon":5.43706,"is_reserved":false,"is_disabled":true,"rental_uris":{"android":"levelo://app?vid=e997f5ad-927d-46c3-acf7-e43efc9addfe","ios":"levelo://app?vid=e997f5ad-927d-46c3-acf7-e43efc9addfe"},"vehicle_type_id":"4","last_reported":1740921170,"current_range_meters":0,"station_id":"ce4bhmp2rcd13ifvqgog","pricing_plan_id":"cebpf4jnsgd1na2vs0mg"},{"bike_id":"974b5ef5-d53b-441e-ad24-9688b3173855","system_id":"levelo_inurba_marseille","lat":43.22926,"lon":5.3537,"is_reserved":false,"is_disabled":true,"rental_uris":{"android":"levelo://app?vid=974b5ef5-d53b-441e-ad24-9688b3173855","ios":"levelo://app?vid=974b5ef5-d53b-441e-ad24-9688b3173855"},"vehicle_type_id":"4","last_reported":1740921170,"current_range_meters":0,"station_id":"cpo3532slgdg3j2ikp40","pricing_plan_id":"cebpf4jnsgd1na2vs0mg"},{"bike_id":"b3321c15-2dbe-4551-9954-d09253a4f390","system_id":"levelo_inurba_marseille","lat":43.27372,"lon":5.36254,"is_reserved":false,"is_disabled":true,"rental_uris":{"android":"levelo://app?vid=b3321c15-2dbe-4551-9954-d09253a4f390","ios":"levelo://app?vid=b3321c15-2dbe-4551-9954-d09253a4f390"},"vehicle_type_id":"4","last_reported":1740921170,"current_range_meters":400,"station_id":"ce4bhbh2rcd13ifvqeo0","pricing_plan_id":"cebpf4jnsgd1na2vs0mg"},{"bike_id":"a143e44e-792f-45ec-84cf-1cc9f71bb81b","system_id":"levelo_inurba_marseille","lat":43.28079,"lon":5.39649,"is_reserved":false,"is_disabled":true,"rental_uris":{"android":"levelo://app?vid=a143e44e-792f-45ec-84cf-1cc9f71bb81b","ios":"levelo://app?vid=a143e44e-792f-45ec-84cf-1cc9f71bb81b"},"vehicle_type_id":"4","last_reported":1740921170,"current_range_meters":400,"station_id":"ce4bho12rcd13ifvqh2g","pricing_plan_id":"cebpf4jnsgd1na2vs0mg"},{"bike_id":"70d8c7b3-610a-419e-b50d-afe9250d43ba","system_id":"levelo_inurba_marseille","lat":43.29553,"lon":5.42271,"is_reserved":false,"is_disabled":true,"rental_uris":{"android":"levelo://app?vid=70d8c7b3-610a-419e-b50d-afe9250d43ba","ios":"levelo://app?vid=70d8c7b3-610a-419e-b50d-afe9250d43ba"},"vehicle_type_id":"4","last_reported":1740921170,"current_range_meters":400,"station_id":"ce4bhph2rcd13ifvqhdg","pricing_plan_id":"cebpf4jnsgd1na2vs0mg"},{"bike_id":"00df4f11-b05e-4107-85fe-c3bab9b776d0","system_id":"levelo_inurba_marseille","lat":43.29901,"lon":5.43679,"is_reserved":false,"is_disabled":true,"rental_uris":{"android":"levelo://app?vid=00df4f11-b05e-4107-85fe-c3bab9b776d0","ios":"levelo://app?vid=00df4f11-b05e-4107-85fe-c3bab9b776d0"},"vehicle_type_id":"4","last_reported":1740921170,"current_range_meters":400,"station_id":"ce4bhpp2rcd13ifvqhfg","pricing_plan_id":"cebpf4jnsgd1na2vs0mg"},{"bike_id":"a3d85792-4517-440d-9b39-6590618dd6be","system_id":"levelo_inurba_marseille","lat":43.26219,"lon":5.37438,"is_reserved":false,"is_disabled":true,"rental_uris":{"android":"levelo://app?vid=a3d85792-4517-440d-9b39-6590618dd6be","ios":"levelo://app?vid=a3d85792-4517-440d-9b39-6590618dd6be"},"vehicle_type_id":"4","last_reported":1740921170,"current_range_meters":800,"station_id":"ce4bhgp2rcd13ifvqfc0","pricing_plan_id":"cebpf4jnsgd1na2vs0mg"},{"bike_id":"2a083bf2-3c8c-4878-8621-2511b9d8f792","system_id":"levelo_inurba_marseille","lat":43.25492,"lon":5.37648,"is_reserved":false,"is_disabled":true,"rental_uris":{"android":"levelo://app?vid=2a083bf2-3c8c-4878-8621-2511b9d8f792","ios":"levelo://app?vid=2a083bf2-3c8c-4878-8621-2511b9d8f792"},"vehicle_type_id":"4","last_reported":1740921170,"current_range_meters":800,"station_id":"ce4bhh12rcd13ifvqff0","pricing_plan_id":"cebpf4jnsgd1na2vs0mg"},{"bike_id":"7e7ef5bd-8d77-4745-b0e3-5ef737a5a05c","system_id":"levelo_inurba_marseille","lat":43.30533,"lon":5.36714,"is_reserved":false,"is_disabled":false,"rental_uris":{"android":"levelo://app?vid=7e7ef5bd-8d77-4745-b0e3-5ef737a5a05c","ios":"levelo://app?vid=7e7ef5bd-8d77-4745-b0e3-5ef737a5a05c"},"vehicle_type_id":"4","last_reported":1740921170,"current_range_meters":1200,"station_id":"ce4bgrp2rcd13ifvqc9g","pricing_plan_id":"cebpf4jnsgd1na2vs0mg"},{"bike_id":"8d60cb63-0743-4a6f-bf1c-a7dcf34e1350","system_id":"levelo_inurba_marseille","lat":43.27567,"lon":5.3842,"is_reserved":false,"is_disabled":true,"rental_uris":{"android":"levelo://app?vid=8d60cb63-0743-4a6f-bf1c-a7dcf34e1350","ios":"levelo://app?vid=8d60cb63-0743-4a6f-bf1c-a7dcf34e1350"},"vehicle_type_id":"4","last_reported":1740921170,"current_range_meters":1200,"station_id":"ce4bhh92rcd13ifvqfi0","pricing_plan_id":"cebpf4jnsgd1na2vs0mg"},{"bike_id":"38d764e0-6344-4ff4-a50b-e24febd9d3ca","system_id":"levelo_inurba_marseille","lat":43.2315,"lon":5.4371,"is_reserved":false,"is_disabled":true,"rental_uris":{"android":"levelo://app?vid=38d764e0-6344-4ff4-a50b-e24febd9d3ca","ios":"levelo://app?vid=38d764e0-6344-4ff4-a50b-e24febd9d3ca"},"vehicle_type_id":"4","last_reported":1740921170,"current_range_meters":1600,"station_id":"ce4bhmp2rcd13ifvqgog","pricing_plan_id":"cebpf4jnsgd1na2vs0mg"},{"bike_id":"a65cb524-c756-42a0-9639-a6505770c05b","system_id":"levelo_inurba_marseille","lat":43.35053,"lon":5.36624,"is_reserved":false,"is_disabled":true,"rental_uris":{"android":"levelo://app?vid=a65cb524-c756-42a0-9639-a6505770c05b","ios":"levelo://app?vid=a65cb524-c756-42a0-9639-a6505770c05b"},"vehicle_type_id":"4","last_reported":1740921170,"current_range_meters":2000,"station_id":"","pricing_plan_id":"cebpf4jnsgd1na2vs0mg"},{"bike_id":"58d9ca45-fa80-4375-8d6e-236cabfe7ffa","system_id":"levelo_inurba_marseille","lat":43.26213,"lon":5.37445,"is_reserved":false,"is_disabled":true,"rental_uris":{"android":"levelo://app?vid=58d9ca45-fa80-4375-8d6e-236cabfe7ffa","ios":"levelo://app?vid=58d9ca45-fa80-4375-8d6e-236cabfe7ffa"},"vehicle_type_id":"4","last_reported":1740921170,"current_range_meters":2000,"station_id":"ce4bhgp2rcd13ifvqfc0","pricing_plan_id":"cebpf4jnsgd1na2vs0mg"},{"bike_id":"e0ad619c-d593-44aa-8a5e-5fc0cfa651a3","system_id":"levelo_inurba_marseille","lat":43.26937,"lon":5.40251,"is_reserved":false,"is_disabled":true,"rental_uris":{"android":"levelo://app?vid=e0ad619c-d593-44aa-8a5e-5fc0cfa651a3","ios":"levelo://app?vid=e0ad619c-d593-44aa-8a5e-5fc0cfa651a3"},"vehicle_type_id":"4","last_reported":1740921170,"current_range_meters":2000,"station_id":"cjm6bp8fraef2m0cb0m0","pricing_plan_id":"cebpf4jnsgd1na2vs0mg"},{"bike_id":"7ef7ac43-0eab-4d6d-b040-181e2e2d7919","system_id":"levelo_inurba_marseille","lat":43.25006,"lon":5.38916,"is_reserved":false,"is_disabled":false,"rental_uris":{"android":"levelo://app?vid=7ef7ac43-0eab-4d6d-b040-181e2e2d7919","ios":"levelo://app?vid=7ef7ac43-0eab-4d6d-b040-181e2e2d7919"},"vehicle_type_id":"4","last_reported":1740921170,"current_range_meters":2800,"station_id":"ce4bhgp2rcd13ifvqfd0","pricing_plan_id":"cebpf4jnsgd1na2vs0mg"},{"bike_id":"53fea310-ea07-4aa0-a5d3-47d7615cc442","system_id":"levelo_inurba_marseille","lat":43.2316,"lon":5.43699,"is_reserved":false,"is_disabled":false,"rental_uris":{"android":"levelo://app?vid=53fea310-ea07-4aa0-a5d3-47d7615cc442","ios":"levelo://app?vid=53fea310-ea07-4aa0-a5d3-47d7615cc442"},"vehicle_type_id":"4","last_reported":1740921170,"current_range_meters":2800,"station_id":"ce4bhmp2rcd13ifvqgog","pricing_plan_id":"cebpf4jnsgd1na2vs0mg"},{"bike_id":"4a0120f8-ba05-4f66-af7e-b9ebbc7f601a","system_id":"levelo_inurba_marseille","lat":43.23148,"lon":5.4372,"is_reserved":false,"is_disabled":false,"rental_uris":{"android":"levelo://app?vid=4a0120f8-ba05-4f66-af7e-b9ebbc7f601a","ios":"levelo://app?vid=4a0120f8-ba05-4f66-af7e-b9ebbc7f601a"},"vehicle_type_id":"4","last_reported":1740921170,"current_range_meters":2800,"station_id":"ce4bhmp2rcd13ifvqgog","pricing_plan_id":"cebpf4jnsgd1na2vs0mg"},{"bike_id":"6953c4b1-6b7b-43dd-8895-ec26508521e7","system_id":"levelo_inurba_marseille","lat":43.26211,"lon":5.3744,"is_reserved":false,"is_disabled":false,"rental_uris":{"android":"levelo://app?vid=6953c4b1-6b7b-43dd-8895-ec26508521e7","ios":"levelo://app?vid=6953c4b1-6b7b-43dd-8895-ec26508521e7"},"vehicle_type_id":"4","last_reported":1740921170,"current_range_meters":3200,"station_id":"ce4bhgp2rcd13ifvqfc0","pricing_plan_id":"cebpf4jnsgd1na2vs0mg"},{"bike_id":"302986fb-e112-4474-b697-d4c55351fa18","system_id":"levelo_inurba_marseille","lat":43.24388,"lon":5.37057,"is_reserved":false,"is_disabled":false,"rental_uris":{"android":"levelo://app?vid=302986fb-e112-4474-b697-d4c55351fa18","ios":"levelo://app?vid=302986fb-e112-4474-b697-d4c55351fa18"},"vehicle_type_id":"4","last_reported":1740921170,"current_range_meters":3200,"station_id":"ce4bhhh2rcd13ifvqfk0","pricing_plan_id":"cebpf4jnsgd1na2vs0mg"},{"bike_id":"e6d70a82-7bd4-46af-a819-79d673275705","system_id":"levelo_inurba_marseille","lat":43.23068,"lon":5.35484,"is_reserved":false,"is_disabled":false,"rental_uris":{"android":"levelo://app?vid=e6d70a82-7bd4-46af-a819-79d673275705","ios":"levelo://app?vid=e6d70a82-7bd4-46af-a819-79d673275705"},"vehicle_type_id":"4","last_reported":1740921170,"current_range_meters":3600,"station_id":"cpo3342slgdg3j2ifvpg","pricing_plan_id":"cebpf4jnsgd1na2vs0mg"},{"bike_id":"7546fe6c-53c4-408c-8605-3aaa2db65475","system_id":"levelo_inurba_marseille","lat":43.25067,"lon":5.37559,"is_reserved":false,"is_disabled":false,"rental_uris":{"android":"levelo://app?vid=7546fe6c-53c4-408c-8605-3aaa2db65475","ios":"levelo://app?vid=7546fe6c-53c4-408c-8605-3aaa2db65475"},"vehicle_type_id":"4","last_reported":1740921170,"current_range_meters":4000,"station_id":"","pricing_plan_id":"cebpf4jnsgd1na2vs0mg"},{"bike_id":"7468c268-bcb4-4d13-8b5e-44f8d92b43d5","system_id":"levelo_inurba_marseille","lat":43.31219,"lon":5.36852,"is_reserved":false,"is_disabled":false,"rental_uris":{"android":"levelo://app?vid=7468c268-bcb4-4d13-8b5e-44f8d92b43d5","ios":"levelo://app?vid=7468c268-bcb4-4d13-8b5e-44f8d92b43d5"},"vehicle_type_id":"4","last_reported":1740921170,"current_range_meters":4000,"station_id":"ce4bgl92rcd13ifvqbq0","pricing_plan_id":"cebpf4jnsgd1na2vs0mg"},{"bike_id":"6c253be7-8ff3-4d3f-9cc8-4f74232499ff","system_id":"levelo_inurba_marseille","lat":43.29897,"lon":5.43666,"is_reserved":false,"is_disabled":false,"rental_uris":{"android":"levelo://app?vid=6c253be7-8ff3-4d3f-9cc8-4f74232499ff","ios":"levelo://app?vid=6c253be7-8ff3-4d3f-9cc8-4f74232499ff"},"vehicle_type_id":"4","last_reported":1740921170,"current_range_meters":4000,"station_id":"ce4bhpp2rcd13ifvqhfg","pricing_plan_id":"cebpf4jnsgd1na2vs0mg"},{"bike_id":"439e6abd-83c2-4a26-b109-3f4147de09a6","system_id":"levelo_inurba_marseille","lat":43.22929,"lon":5.35373,"is_reserved":false,"is_disabled":false,"rental_uris":{"android":"levelo://app?vid=439e6abd-83c2-4a26-b109-3f4147de09a6","ios":"levelo://app?vid=439e6abd-83c2-4a26-b109-3f4147de09a6"},"vehicle_type_id":"4","last_reported":1740921170,"current_range_meters":4000,"station_id":"cpo3532slgdg3j2ikp40","pricing_plan_id":"cebpf4jnsgd1na2vs0mg"},{"bike_id":"b7dd8c2d-9b2a-4427-8e16-208defb5a450","system_id":"levelo_inurba_marseille","lat":43.24801,"lon":5.37457,"is_reserved":false,"is_disabled":false,"rental_uris":{"android":"levelo://app?vid=b7dd8c2d-9b2a-4427-8e16-208defb5a450","ios":"levelo://app?vid=b7dd8c2d-9b2a-4427-8e16-208defb5a450"},"vehicle_type_id":"4","last_reported":1740921170,"current_range_meters":4400,"station_id":"ce4bhgh2rcd13ifvqfb0","pricing_plan_id":"cebpf4jnsgd1na2vs0mg"},{"bike_id":"95229cca-0c4e-4ef8-b54b-b42e33b1ceac","system_id":"levelo_inurba_marseille","lat":43.30948,"lon":5.39024,"is_reserved":false,"is_disabled":false,"rental_uris":{"android":"levelo://app?vid=95229cca-0c4e-4ef8-b54b-b42e33b1ceac","ios":"levelo://app?vid=95229cca-0c4e-4ef8-b54b-b42e33b1ceac"},"vehicle_type_id":"4","last_reported":1740921170,"current_range_meters":4800,"station_id":"ce4bgup2rcd13ifvqco0","pricing_plan_id":"cebpf4jnsgd1na2vs0mg"},{"bike_id":"2cd6375a-c54d-4d57-83e2-a2aa55e8bf7b","system_id":"levelo_inurba_marseille","lat":43.29002,"lon":5.35612,"is_reserved":false,"is_disabled":false,"rental_uris":{"android":"levelo://app?vid=2cd6375a-c54d-4d57-83e2-a2aa55e8bf7b","ios":"levelo://app?vid=2cd6375a-c54d-4d57-83e2-a2aa55e8bf7b"},"vehicle_type_id":"4","last_reported":1740921170,"current_range_meters":4800,"station_id":"ce4bhb92rcd13ifvqen0","pricing_plan_id":"cebpf4jnsgd1na2vs0mg"},{"bike_id":"8a110a71-1af8-437c-a733-b624e71734ef","system_id":"levelo_inurba_marseille","lat":43.26556,"lon":5.3728,"is_reserved":false,"is_disabled":false,"rental_uris":{"android":"levelo://app?vid=8a110a71-1af8-437c-a733-b624e71734ef","ios":"levelo://app?vid=8a110a71-1af8-437c-a733-b624e71734ef"},"vehicle_type_id":"4","last_reported":1740921170,"current_range_meters":4800,"station_id":"ce4bhg12rcd13ifvqf70","pricing_plan_id":"cebpf4jnsgd1na2vs0mg"},{"bike_id":"ec745fb6-1f01-4dbd-a921-0b45e04d23ad","system_id":"levelo_inurba_marseille","lat":43.24393,"lon":5.37058,"is_reserved":false,"is_disabled":false,"rental_uris":{"android":"levelo://app?vid=ec745fb6-1f01-4dbd-a921-0b45e04d23ad","ios":"levelo://app?vid=ec745fb6-1f01-4dbd-a921-0b45e04d23ad"},"vehicle_type_id":"4","last_reported":1740921170,"current_range_meters":4800,"station_id":"ce4bhhh2rcd13ifvqfk0","pricing_plan_id":"cebpf4jnsgd1na2vs0mg"},{"bike_id":"935762c9-d9ae-4dd7-a397-c4ebd5ff2ac0","system_id":"levelo_inurba_marseille","lat":43.240735,"lon":5.377655,"is_reserved":false,"is_disabled":false,"rental_uris":{"android":"levelo://app?vid=935762c9-d9ae-4dd7-a397-c4ebd5ff2ac0","ios":"levelo://app?vid=935762c9-d9ae-4dd7-a397-c4ebd5ff2ac0"},"vehicle_type_id":"4","last_reported":1740921170,"current_range_meters":4800,"station_id":"ce4bhnp2rcd13ifvqgvg","pricing_plan_id":"cebpf4jnsgd1na2vs0mg"},{"bike_id":"c7cf275d-b038-41c3-a806-d51bddf560da","system_id":"levelo_inurba_marseille","lat":43.30605,"lon":5.3723,"is_reserved":false,"is_disabled":false,"rental_uris":{"android":"levelo://app?vid=c7cf275d-b038-41c3-a806-d51bddf560da","ios":"levelo://app?vid=c7cf275d-b038-41c3-a806-d51bddf560da"},"vehicle_type_id":"4","last_reported":1740921170,"current_range_meters":5600,"station_id":"ce4bgqh2rcd13ifvqc4g","pricing_plan_id":"cebpf4jnsgd1na2vs0mg"},{"bike_id":"7c1baacd-12e3-4bff-9a1d-988428ed35e0","system_id":"levelo_inurba_marseille","lat":43.30424,"lon":5.39741,"is_reserved":false,"is_disabled":false,"rental_uris":{"android":"levelo://app?vid=7c1baacd-12e3-4bff-9a1d-988428ed35e0","ios":"levelo://app?vid=7c1baacd-12e3-4bff-9a1d-988428ed35e0"},"vehicle_type_id":"4","last_reported":1740921170,"current_range_meters":5600,"station_id":"ce4bh092rcd13ifvqd20","pricing_plan_id":"cebpf4jnsgd1na2vs0mg"},{"bike_id":"cde93b05-23cc-4e96-8cae-ba10331be054","system_id":"levelo_inurba_marseille","lat":43.2306,"lon":5.35488,"is_reserved":false,"is_disabled":false,"rental_uris":{"android":"levelo://app?vid=cde93b05-23cc-4e96-8cae-ba10331be054","ios":"levelo://app?vid=cde93b05-23cc-4e96-8cae-ba10331be054"},"vehicle_type_id":"4","last_reported":1740921170,"current_range_meters":6000,"station_id":"cpo3342slgdg3j2ifvpg","pricing_plan_id":"cebpf4jnsgd1na2vs0mg"},{"bike_id":"572d17e3-95aa-433f-abe0-38d340ef9dbe","system_id":"levelo_inurba_marseille","lat":43.26227,"lon":5.37419,"is_reserved":false,"is_disabled":false,"rental_uris":{"android":"levelo://app?vid=572d17e3-95aa-433f-abe0-38d340ef9dbe","ios":"levelo://app?vid=572d17e3-95aa-433f-abe0-38d340ef9dbe"},"vehicle_type_id":"4","last_reported":1740921170,"current_range_meters":6400,"station_id":"","pricing_plan_id":"cebpf4jnsgd1na2vs0mg"},{"bike_id":"10fbfd3b-6f96-4c88-b19e-352ff0caadda","system_id":"levelo_inurba_marseille","lat":43.27569,"lon":5.38421,"is_reserved":false,"is_disabled":false,"rental_uris":{"android":"levelo://app?vid=10fbfd3b-6f96-4c88-b19e-352ff0caadda","ios":"levelo://app?vid=10fbfd3b-6f96-4c88-b19e-352ff0caadda"},"vehicle_type_id":"4","last_reported":1740921170,"current_range_meters":6400,"station_id":"ce4bhh92rcd13ifvqfi0","pricing_plan_id":"cebpf4jnsgd1na2vs0mg"},{"bike_id":"bc661d6a-40b3-4714-91b7-2122a333c51f","system_id":"levelo_inurba_marseille","lat":43.23151,"lon":5.4371,"is_reserved":false,"is_disabled":false,"rental_uris":{"android":"levelo://app?vid=bc661d6a-40b3-4714-91b7-2122a333c51f","ios":"levelo://app?vid=bc661d6a-40b3-4714-91b7-2122a333c51f"},"vehicle_type_id":"4","last_reported":1740921170,"current_range_meters":6800,"station_id":"ce4bhmp2rcd13ifvqgog","pricing_plan_id":"cebpf4jnsgd1na2vs0mg"},{"bike_id":"2cb3cfa4-b757-41a6-8ef2-f76009a1db5e","system_id":"levelo_inurba_marseille","lat":43.22933,"lon":5.35378,"is_reserved":false,"is_disabled":false,"rental_uris":{"android":"levelo://app?vid=2cb3cfa4-b757-41a6-8ef2-f76009a1db5e","ios":"levelo://app?vid=2cb3cfa4-b757-41a6-8ef2-f76009a1db5e"},"vehicle_type_id":"4","last_reported":1740921170,"current_range_meters":6800,"station_id":"cpo3532slgdg3j2ikp40","pricing_plan_id":"cebpf4jnsgd1na2vs0mg"},{"bike_id":"53ebed9a-fd1a-4d94-96e3-0c8bc5887ace","system_id":"levelo_inurba_marseille","lat":43.31418,"lon":5.39381,"is_reserved":false,"is_disabled":false,"rental_uris":{"android":"levelo://app?vid=53ebed9a-fd1a-4d94-96e3-0c8bc5887ace","ios":"levelo://app?vid=53ebed9a-fd1a-4d94-96e3-0c8bc5887ace"},"vehicle_type_id":"4","last_reported":1740921170,"current_range_meters":7200,"station_id":"","pricing_plan_id":"cebpf4jnsgd1na2vs0mg"},{"bike_id":"a0c99e9e-fa7e-4677-985a-ae4a328964d7","system_id":"levelo_inurba_marseille","lat":43.243915,"lon":5.371064,"is_reserved":false,"is_disabled":false,"rental_uris":{"android":"levelo://app?vid=a0c99e9e-fa7e-4677-985a-ae4a328964d7","ios":"levelo://app?vid=a0c99e9e-fa7e-4677-985a-ae4a328964d7"},"vehicle_type_id":"4","last_reported":1740921170,"current_range_meters":7200,"station_id":"ce4bh192rcd13ifvqdb0","pricing_plan_id":"cebpf4jnsgd1na2vs0mg"},{"bike_id":"fd4ceb47-7745-40bf-b9f8-cbc3ab65ca1f","system_id":"levelo_inurba_marseille","lat":43.23201,"lon":5.4,"is_reserved":false,"is_disabled":false,"rental_uris":{"android":"levelo://app?vid=fd4ceb47-7745-40bf-b9f8-cbc3ab65ca1f","ios":"levelo://app?vid=fd4ceb47-7745-40bf-b9f8-cbc3ab65ca1f"},"vehicle_type_id":"4","last_reported":1740921170,"current_range_meters":7200,"station_id":"ce4bhn12rcd13ifvqgqg","pricing_plan_id":"cebpf4jnsgd1na2vs0mg"},{"bike_id":"24b426ec-114a-4cca-b485-1331408dda43","system_id":"levelo_inurba_marseille","lat":43.24078,"lon":5.37742,"is_reserved":false,"is_disabled":false,"rental_uris":{"android":"levelo://app?vid=24b426ec-114a-4cca-b485-1331408dda43","ios":"levelo://app?vid=24b426ec-114a-4cca-b485-1331408dda43"},"vehicle_type_id":"4","last_reported":1740921170,"current_range_meters":7200,"station_id":"ce4bhnp2rcd13ifvqgvg","pricing_plan_id":"cebpf4jnsgd1na2vs0mg"},{"bike_id":"d7421281-dcf2-404f-a7e5-16e574081a97","system_id":"levelo_inurba_marseille","lat":43.28932,"lon":5.38394,"is_reserved":false,"is_disabled":false,"rental_uris":{"android":"levelo://app?vid=d7421281-dcf2-404f-a7e5-16e574081a97","ios":"levelo://app?vid=d7421281-dcf2-404f-a7e5-16e574081a97"},"vehicle_type_id":"4","last_reported":1740921170,"current_range_meters":8000,"station_id":"ce4bh612rcd13ifvqe6g","pricing_plan_id":"cebpf4jnsgd1na2vs0mg"},{"bike_id":"b811c60a-6933-40a7-84ba-ba9cab9803d2","system_id":"levelo_inurba_marseille","lat":43.2501,"lon":5.3893,"is_reserved":false,"is_disabled":false,"rental_uris":{"android":"levelo://app?vid=b811c60a-6933-40a7-84ba-ba9cab9803d2","ios":"levelo://app?vid=b811c60a-6933-40a7-84ba-ba9cab9803d2"},"vehicle_type_id":"4","last_reported":1740921170,"current_range_meters":8000,"station_id":"ce4bhgp2rcd13ifvqfd0","pricing_plan_id":"cebpf4jnsgd1na2vs0mg"},{"bike_id":"56897654-dffd-4982-b509-dc5e9a4550f5","system_id":"levelo_inurba_marseille","lat":43.23159,"lon":5.43718,"is_reserved":false,"is_disabled":false,"rental_uris":{"android":"levelo://app?vid=56897654-dffd-4982-b509-dc5e9a4550f5","ios":"levelo://app?vid=56897654-dffd-4982-b509-dc5e9a4550f5"},"vehicle_type_id":"4","last_reported":1740921170,"current_range_meters":8000,"station_id":"ce4bhmp2rcd13ifvqgog","pricing_plan_id":"cebpf4jnsgd1na2vs0mg"},{"bike_id":"d9c1bcf1-4f4d-4f65-bf7a-b9d26e029a11","system_id":"levelo_inurba_marseille","lat":43.2318,"lon":5.39987,"is_reserved":false,"is_disabled":false,"rental_uris":{"android":"levelo://app?vid=d9c1bcf1-4f4d-4f65-bf7a-b9d26e029a11","ios":"levelo://app?vid=d9c1bcf1-4f4d-4f65-bf7a-b9d26e029a11"},"vehicle_type_id":"4","last_reported":1740921170,"current_range_meters":8000,"station_id":"ce4bhn12rcd13ifvqgqg","pricing_plan_id":"cebpf4jnsgd1na2vs0mg"},{"bike_id":"20c9bbd7-e325-4f7a-bedc-61305b9bbcc2","system_id":"levelo_inurba_marseille","lat":43.28606,"lon":5.37065,"is_reserved":false,"is_disabled":false,"rental_uris":{"android":"levelo://app?vid=20c9bbd7-e325-4f7a-bedc-61305b9bbcc2","ios":"levelo://app?vid=20c9bbd7-e325-4f7a-bedc-61305b9bbcc2"},"vehicle_type_id":"4","last_reported":1740921170,"current_range_meters":8000,"station_id":"ce4bht12rcd13ifvqi60","pricing_plan_id":"cebpf4jnsgd1na2vs0mg"},{"bike_id":"4a01e614-9a34-4e70-9e02-4e744008ae90","system_id":"levelo_inurba_marseille","lat":43.31385,"lon":5.39189,"is_reserved":false,"is_disabled":false,"rental_uris":{"android":"levelo://app?vid=4a01e614-9a34-4e70-9e02-4e744008ae90","ios":"levelo://app?vid=4a01e614-9a34-4e70-9e02-4e744008ae90"},"vehicle_type_id":"4","last_reported":1740921170,"current_range_meters":8400,"station_id":"","pricing_plan_id":"cebpf4jnsgd1na2vs0mg"},{"bike_id":"0307281f-870c-4f06-aad7-73b173b0b033","system_id":"levelo_inurba_marseille","lat":43.30603,"lon":5.37222,"is_reserved":false,"is_disabled":false,"rental_uris":{"android":"levelo://app?vid=0307281f-870c-4f06-aad7-73b173b0b033","ios":"levelo://app?vid=0307281f-870c-4f06-aad7-73b173b0b033"},"vehicle_type_id":"4","last_reported":1740921170,"current_range_meters":8400,"station_id":"ce4bgqh2rcd13ifvqc4g","pricing_plan_id":"cebpf4jnsgd1na2vs0mg"},{"bike_id":"39236a78-7e48-4da4-8143-c502bdcb23d8","system_id":"levelo_inurba_marseille","lat":43.30634,"lon":5.40095,"is_reserved":false,"is_disabled":false,"rental_uris":{"android":"levelo://app?vid=39236a78-7e48-4da4-8143-c502bdcb23d8","ios":"levelo://app?vid=39236a78-7e48-4da4-8143-c502bdcb23d8"},"vehicle_type_id":"4","last_reported":1740921170,"current_range_meters":8400,"station_id":"ce4bh112rcd13ifvqda0","pricing_plan_id":"cebpf4jnsgd1na2vs0mg"},{"bike_id":"f8aa2ef7-5ce9-4c71-95f4-fea53b5d9bb7","system_id":"levelo_inurba_marseille","lat":43.29895,"lon":5.43668,"is_reserved":false,"is_disabled":false,"rental_uris":{"android":"levelo://app?vid=f8aa2ef7-5ce9-4c71-95f4-fea53b5d9bb7","ios":"levelo://app?vid=f8aa2ef7-5ce9-4c71-95f4-fea53b5d9bb7"},"vehicle_type_id":"4","last_reported":1740921170,"current_range_meters":8400,"station_id":"ce4bhpp2rcd13ifvqhfg","pricing_plan_id":"cebpf4jnsgd1na2vs0mg"},{"bike_id":"eafe4694-db55-4cde-85aa-971c3787bde8","system_id":"levelo_inurba_marseille","lat":43.2417,"lon":5.36395,"is_reserved":false,"is_disabled":false,"rental_uris":{"android":"levelo://app?vid=eafe4694-db55-4cde-85aa-971c3787bde8","ios":"levelo://app?vid=eafe4694-db55-4cde-85aa-971c3787bde8"},"vehicle_type_id":"4","last_reported":1740921170,"current_range_meters":8400,"station_id":"cpo36qri1sfpv3e86is0","pricing_plan_id":"cebpf4jnsgd1na2vs0mg"},{"bike_id":"406c1c3a-efca-403c-bcad-b6e6bc3ad624","system_id":"levelo_inurba_marseille","lat":43.29977,"lon":5.37176,"is_reserved":false,"is_disabled":false,"rental_uris":{"android":"levelo://app?vid=406c1c3a-efca-403c-bcad-b6e6bc3ad624","ios":"levelo://app?vid=406c1c3a-efca-403c-bcad-b6e6bc3ad624"},"vehicle_type_id":"4","last_reported":1740921170,"current_range_meters":8800,"station_id":"ce4bgr92rcd13ifvqc7g","pricing_plan_id":"cebpf4jnsgd1na2vs0mg"},{"bike_id":"857042ff-2b99-4095-bc82-38d9d760d41b","system_id":"levelo_inurba_marseille","lat":43.28409,"lon":5.34976,"is_reserved":false,"is_disabled":false,"rental_uris":{"android":"levelo://app?vid=857042ff-2b99-4095-bc82-38d9d760d41b","ios":"levelo://app?vid=857042ff-2b99-4095-bc82-38d9d760d41b"},"vehicle_type_id":"4","last_reported":1740921170,"current_range_meters":8800,"station_id":"ce4bhbh2rcd13ifvqepg","pricing_plan_id":"cebpf4jnsgd1na2vs0mg"},{"bike_id":"f079c64d-286b-4107-a1c4-6b1e456a2df3","system_id":"levelo_inurba_marseille","lat":43.26204,"lon":5.37458,"is_reserved":false,"is_disabled":false,"rental_uris":{"android":"levelo://app?vid=f079c64d-286b-4107-a1c4-6b1e456a2df3","ios":"levelo://app?vid=f079c64d-286b-4107-a1c4-6b1e456a2df3"},"vehicle_type_id":"4","last_reported":1740921170,"current_range_meters":8800,"station_id":"ce4bhgp2rcd13ifvqfc0","pricing_plan_id":"cebpf4jnsgd1na2vs0mg"},{"bike_id":"564c8ccb-3cfe-4949-a5a7-04e221ae7567","system_id":"levelo_inurba_marseille","lat":43.29902,"lon":5.43665,"is_reserved":false,"is_disabled":false,"rental_uris":{"android":"levelo://app?vid=564c8ccb-3cfe-4949-a5a7-04e221ae7567","ios":"levelo://app?vid=564c8ccb-3cfe-4949-a5a7-04e221ae7567"},"vehicle_type_id":"4","last_reported":1740921170,"current_range_meters":8800,"station_id":"ce4bhpp2rcd13ifvqhfg","pricing_plan_id":"cebpf4jnsgd1na2vs0mg"},{"bike_id":"0b98e7e8-dc07-4ea0-a7b9-18759bfad524","system_id":"levelo_inurba_marseille","lat":43.23066,"lon":5.35491,"is_reserved":false,"is_disabled":false,"rental_uris":{"android":"levelo://app?vid=0b98e7e8-dc07-4ea0-a7b9-18759bfad524","ios":"levelo://app?vid=0b98e7e8-dc07-4ea0-a7b9-18759bfad524"},"vehicle_type_id":"4","last_reported":1740921170,"current_range_meters":8800,"station_id":"cpo3342slgdg3j2ifvpg","pricing_plan_id":"cebpf4jnsgd1na2vs0mg"},{"bike_id":"0e4d5d36-7d5d-4fbf-9597-759cc9a1b223","system_id":"levelo_inurba_marseille","lat":43.30563,"lon":5.37246,"is_reserved":false,"is_disabled":false,"rental_uris":{"android":"levelo://app?vid=0e4d5d36-7d5d-4fbf-9597-759cc9a1b223","ios":"levelo://app?vid=0e4d5d36-7d5d-4fbf-9597-759cc9a1b223"},"vehicle_type_id":"4","last_reported":1740921170,"current_range_meters":9200,"station_id":"","pricing_plan_id":"cebpf4jnsgd1na2vs0mg"},{"bike_id":"1a895981-1cc7-4d29-9a82-51c9c8eb806c","system_id":"levelo_inurba_marseille","lat":43.29627,"lon":5.37739,"is_reserved":false,"is_disabled":false,"rental_uris":{"android":"levelo://app?vid=1a895981-1cc7-4d29-9a82-51c9c8eb806c","ios":"levelo://app?vid=1a895981-1cc7-4d29-9a82-51c9c8eb806c"},"vehicle_type_id":"4","last_reported":1740921170,"current_range_meters":9200,"station_id":"ce4bgi92rcd13ifvqb90","pricing_plan_id":"cebpf4jnsgd1na2vs0mg"},{"bike_id":"94fa0b73-5864-4665-bdbb-eb6df01414c8","system_id":"levelo_inurba_marseille","lat":43.24683,"lon":5.38153,"is_reserved":false,"is_disabled":false,"rental_uris":{"android":"levelo://app?vid=94fa0b73-5864-4665-bdbb-eb6df01414c8","ios":"levelo://app?vid=94fa0b73-5864-4665-bdbb-eb6df01414c8"},"vehicle_type_id":"4","last_reported":1740921170,"current_range_meters":9200,"station_id":"ce4bhih2rcd13ifvqfr0","pricing_plan_id":"cebpf4jnsgd1na2vs0mg"},{"bike_id":"1697087c-3a15-4d2b-8fbc-57126afe45c3","system_id":"levelo_inurba_marseille","lat":43.23158,"lon":5.437,"is_reserved":false,"is_disabled":false,"rental_uris":{"android":"levelo://app?vid=1697087c-3a15-4d2b-8fbc-57126afe45c3","ios":"levelo://app?vid=1697087c-3a15-4d2b-8fbc-57126afe45c3"},"vehicle_type_id":"4","last_reported":1740921170,"current_range_meters":9200,"station_id":"ce4bhmp2rcd13ifvqgog","pricing_plan_id":"cebpf4jnsgd1na2vs0mg"},{"bike_id":"5a93161c-e5c0-48ca-8037-39920e07dd69","system_id":"levelo_inurba_marseille","lat":43.23162,"lon":5.43718,"is_reserved":false,"is_disabled":false,"rental_uris":{"android":"levelo://app?vid=5a93161c-e5c0-48ca-8037-39920e07dd69","ios":"levelo://app?vid=5a93161c-e5c0-48ca-8037-39920e07dd69"},"vehicle_type_id":"4","last_reported":1740921170,"current_range_meters":9200,"station_id":"ce4bhmp2rcd13ifvqgog","pricing_plan_id":"cebpf4jnsgd1na2vs0mg"},{"bike_id":"43fc25eb-994d-4d6d-90bf-dce0957bf871","system_id":"levelo_inurba_marseille","lat":43.23058,"lon":5.35494,"is_reserved":false,"is_disabled":false,"rental_uris":{"android":"levelo://app?vid=43fc25eb-994d-4d6d-90bf-dce0957bf871","ios":"levelo://app?vid=43fc25eb-994d-4d6d-90bf-dce0957bf871"},"vehicle_type_id":"4","last_reported":1740921170,"current_range_meters":9200,"station_id":"cpo3342slgdg3j2ifvpg","pricing_plan_id":"cebpf4jnsgd1na2vs0mg"},{"bike_id":"5d34db1e-338f-4da1-bfb0-ce7dd9dafcb7","system_id":"levelo_inurba_marseille","lat":43.23058,"lon":5.35499,"is_reserved":false,"is_disabled":false,"rental_uris":{"android":"levelo://app?vid=5d34db1e-338f-4da1-bfb0-ce7dd9dafcb7","ios":"levelo://app?vid=5d34db1e-338f-4da1-bfb0-ce7dd9dafcb7"},"vehicle_type_id":"4","last_reported":1740921170,"current_range_meters":9200,"station_id":"cpo3342slgdg3j2ifvpg","pricing_plan_id":"cebpf4jnsgd1na2vs0mg"},{"bike_id":"0693b9d6-4a9d-4e38-bfa2-80f934bcc2e3","system_id":"levelo_inurba_marseille","lat":43.24168,"lon":5.36401,"is_reserved":false,"is_disabled":false,"rental_uris":{"android":"levelo://app?vid=0693b9d6-4a9d-4e38-bfa2-80f934bcc2e3","ios":"levelo://app?vid=0693b9d6-4a9d-4e38-bfa2-80f934bcc2e3"},"vehicle_type_id":"4","last_reported":1740921170,"current_range_meters":9200,"station_id":"cpo36qri1sfpv3e86is0","pricing_plan_id":"cebpf4jnsgd1na2vs0mg"},{"bike_id":"0c9fcd16-2979-4838-8bcd-c9ed4ba34af2","system_id":"levelo_inurba_marseille","lat":43.27829,"lon":5.40692,"is_reserved":false,"is_disabled":false,"rental_uris":{"android":"levelo://app?vid=0c9fcd16-2979-4838-8bcd-c9ed4ba34af2","ios":"levelo://app?vid=0c9fcd16-2979-4838-8bcd-c9ed4ba34af2"},"vehicle_type_id":"4","last_reported":1740921170,"current_range_meters":9600,"station_id":"ce4bhnh2rcd13ifvqgtg","pricing_plan_id":"cebpf4jnsgd1na2vs0mg"},{"bike_id":"fedf393a-32d2-4044-8fef-687eefafaca6","system_id":"levelo_inurba_marseille","lat":43.29902,"lon":5.43673,"is_reserved":false,"is_disabled":false,"rental_uris":{"android":"levelo://app?vid=fedf393a-32d2-4044-8fef-687eefafaca6","ios":"levelo://app?vid=fedf393a-32d2-4044-8fef-687eefafaca6"},"vehicle_type_id":"4","last_reported":1740921170,"current_range_meters":9600,"station_id":"ce4bhpp2rcd13ifvqhfg","pricing_plan_id":"cebpf4jnsgd1na2vs0mg"},{"bike_id":"6d56352d-b599-405b-812c-cff82b78bb6e","system_id":"levelo_inurba_marseille","lat":43.33757,"lon":5.37457,"is_reserved":false,"is_disabled":false,"rental_uris":{"android":"levelo://app?vid=6d56352d-b599-405b-812c-cff82b78bb6e","ios":"levelo://app?vid=6d56352d-b599-405b-812c-cff82b78bb6e"},"vehicle_type_id":"4","last_reported":1740921170,"current_range_meters":10000,"station_id":"","pricing_plan_id":"cebpf4jnsgd1na2vs0mg"},{"bike_id":"cbeff9af-2821-498e-8353-cbbe4b72cc62","system_id":"levelo_inurba_marseille","lat":43.25013,"lon":5.38942,"is_reserved":false,"is_disabled":false,"rental_uris":{"android":"levelo://app?vid=cbeff9af-2821-498e-8353-cbbe4b72cc62","ios":"levelo://app?vid=cbeff9af-2821-498e-8353-cbbe4b72cc62"},"vehicle_type_id":"4","last_reported":1740921170,"current_range_meters":10000,"station_id":"ce4bhgp2rcd13ifvqfd0","pricing_plan_id":"cebpf4jnsgd1na2vs0mg"},{"bike_id":"f711a177-8c95-4e96-bcaf-e6e0dc33f59e","system_id":"levelo_inurba_marseille","lat":43.24405,"lon":5.3705,"is_reserved":false,"is_disabled":false,"rental_uris":{"android":"levelo://app?vid=f711a177-8c95-4e96-bcaf-e6e0dc33f59e","ios":"levelo://app?vid=f711a177-8c95-4e96-bcaf-e6e0dc33f59e"},"vehicle_type_id":"4","last_reported":1740921170,"current_range_meters":10000,"station_id":"ce4bhhh2rcd13ifvqfk0","pricing_plan_id":"cebpf4jnsgd1na2vs0mg"},{"bike_id":"b8729eab-79d9-460b-90d1-aaf7a92e0614","system_id":"levelo_inurba_marseille","lat":43.23958,"lon":5.36633,"is_reserved":false,"is_disabled":false,"rental_uris":{"android":"levelo://app?vid=b8729eab-79d9-460b-90d1-aaf7a92e0614","ios":"levelo://app?vid=b8729eab-79d9-460b-90d1-aaf7a92e0614"},"vehicle_type_id":"4","last_reported":1740921170,"current_range_meters":10000,"station_id":"ce4bhi12rcd13ifvqfp0","pricing_plan_id":"cebpf4jnsgd1na2vs0mg"},{"bike_id":"dca47370-0af2-4b83-9276-f3814af3b64b","system_id":"levelo_inurba_marseille","lat":43.24553,"lon":5.3953,"is_reserved":false,"is_disabled":false,"rental_uris":{"android":"levelo://app?vid=dca47370-0af2-4b83-9276-f3814af3b64b","ios":"levelo://app?vid=dca47370-0af2-4b83-9276-f3814af3b64b"},"vehicle_type_id":"4","last_reported":1740921170,"current_range_meters":10000,"station_id":"ce4bhlp2rcd13ifvqgjg","pricing_plan_id":"cebpf4jnsgd1na2vs0mg"},{"bike_id":"f4af2fc5-12b1-413f-b3e8-70775a52b007","system_id":"levelo_inurba_marseille","lat":43.241843,"lon":5.397269,"is_reserved":false,"is_disabled":false,"rental_uris":{"android":"levelo://app?vid=f4af2fc5-12b1-413f-b3e8-70775a52b007","ios":"levelo://app?vid=f4af2fc5-12b1-413f-b3e8-70775a52b007"},"vehicle_type_id":"4","last_reported":1740921170,"current_range_meters":10000,"station_id":"ce4bhn12rcd13ifvqgpg","pricing_plan_id":"cebpf4jnsgd1na2vs0mg"},{"bike_id":"79e33670-35cf-4351-9d50-9b0309fc9adb","system_id":"levelo_inurba_marseille","lat":43.23056,"lon":5.35495,"is_reserved":false,"is_disabled":false,"rental_uris":{"android":"levelo://app?vid=79e33670-35cf-4351-9d50-9b0309fc9adb","ios":"levelo://app?vid=79e33670-35cf-4351-9d50-9b0309fc9adb"},"vehicle_type_id":"4","last_reported":1740921170,"current_range_meters":10000,"station_id":"cpo3342slgdg3j2ifvpg","pricing_plan_id":"cebpf4jnsgd1na2vs0mg"},{"bike_id":"d2c363b3-bacf-4359-85f2-7dc9f8b4aa4d","system_id":"levelo_inurba_marseille","lat":43.31684,"lon":5.40467,"is_reserved":false,"is_disabled":false,"rental_uris":{"android":"levelo://app?vid=d2c363b3-bacf-4359-85f2-7dc9f8b4aa4d","ios":"levelo://app?vid=d2c363b3-bacf-4359-85f2-7dc9f8b4aa4d"},"vehicle_type_id":"4","last_reported":1740921170,"current_range_meters":10800,"station_id":"ce4bh012rcd13ifvqd00","pricing_plan_id":"cebpf4jnsgd1na2vs0mg"},{"bike_id":"10f746a9-5a94-4f57-ae07-76e73917a288","system_id":"levelo_inurba_marseille","lat":43.23141,"lon":5.43723,"is_reserved":false,"is_disabled":false,"rental_uris":{"android":"levelo://app?vid=10f746a9-5a94-4f57-ae07-76e73917a288","ios":"levelo://app?vid=10f746a9-5a94-4f57-ae07-76e73917a288"},"vehicle_type_id":"4","last_reported":1740921170,"current_range_meters":10800,"station_id":"ce4bhmp2rcd13ifvqgog","pricing_plan_id":"cebpf4jnsgd1na2vs0mg"},{"bike_id":"e43f4f71-054c-410e-9efa-c6d5ef79ac61","system_id":"levelo_inurba_marseille","lat":43.241681,"lon":5.397346,"is_reserved":false,"is_disabled":false,"rental_uris":{"android":"levelo://app?vid=e43f4f71-054c-410e-9efa-c6d5ef79ac61","ios":"levelo://app?vid=e43f4f71-054c-410e-9efa-c6d5ef79ac61"},"vehicle_type_id":"4","last_reported":1740921170,"current_range_meters":10800,"station_id":"ce4bhn12rcd13ifvqgpg","pricing_plan_id":"cebpf4jnsgd1na2vs0mg"},{"bike_id":"d40bd3ed-f9b3-4cdc-aad9-29c926f844ab","system_id":"levelo_inurba_marseille","lat":43.24075,"lon":5.3776,"is_reserved":false,"is_disabled":false,"rental_uris":{"android":"levelo://app?vid=d40bd3ed-f9b3-4cdc-aad9-29c926f844ab","ios":"levelo://app?vid=d40bd3ed-f9b3-4cdc-aad9-29c926f844ab"},"vehicle_type_id":"4","last_reported":1740921170,"current_range_meters":10800,"station_id":"ce4bhnp2rcd13ifvqgvg","pricing_plan_id":"cebpf4jnsgd1na2vs0mg"},{"bike_id":"27d57ba8-cb2b-4da3-bcfc-1efd3956d0fa","system_id":"levelo_inurba_marseille","lat":43.29553,"lon":5.42277,"is_reserved":false,"is_disabled":false,"rental_uris":{"android":"levelo://app?vid=27d57ba8-cb2b-4da3-bcfc-1efd3956d0fa","ios":"levelo://app?vid=27d57ba8-cb2b-4da3-bcfc-1efd3956d0fa"},"vehicle_type_id":"4","last_reported":1740921170,"current_range_meters":10800,"station_id":"ce4bhph2rcd13ifvqhdg","pricing_plan_id":"cebpf4jnsgd1na2vs0mg"},{"bike_id":"abdce9a5-165a-430d-93c6-b1980bc72eea","system_id":"levelo_inurba_marseille","lat":43.31326,"lon":5.39692,"is_reserved":false,"is_disabled":false,"rental_uris":{"android":"levelo://app?vid=abdce9a5-165a-430d-93c6-b1980bc72eea","ios":"levelo://app?vid=abdce9a5-165a-430d-93c6-b1980bc72eea"},"vehicle_type_id":"4","last_reported":1740921170,"current_range_meters":11600,"station_id":"ce4bgvp2rcd13ifvqcu0","pricing_plan_id":"cebpf4jnsgd1na2vs0mg"},{"bike_id":"cc867663-4d67-4efa-90da-e85a68112246","system_id":"levelo_inurba_marseille","lat":43.33719,"lon":5.39181,"is_reserved":false,"is_disabled":false,"rental_uris":{"android":"levelo://app?vid=cc867663-4d67-4efa-90da-e85a68112246","ios":"levelo://app?vid=cc867663-4d67-4efa-90da-e85a68112246"},"vehicle_type_id":"4","last_reported":1740921170,"current_range_meters":11600,"station_id":"ce4bhr92rcd13ifvqhsg","pricing_plan_id":"cebpf4jnsgd1na2vs0mg"},{"bike_id":"bc2c3e11-15ac-40ff-afa8-75edcaa45f4b","system_id":"levelo_inurba_marseille","lat":43.29892,"lon":5.43718,"is_reserved":false,"is_disabled":false,"rental_uris":{"android":"levelo://app?vid=bc2c3e11-15ac-40ff-afa8-75edcaa45f4b","ios":"levelo://app?vid=bc2c3e11-15ac-40ff-afa8-75edcaa45f4b"},"vehicle_type_id":"4","last_reported":1740921170,"current_range_meters":12000,"station_id":"","pricing_plan_id":"cebpf4jnsgd1na2vs0mg"},{"bike_id":"b7992443-8e68-40d9-ab23-1a5ece5fbee5","system_id":"levelo_inurba_marseille","lat":43.24821,"lon":5.41856,"is_reserved":false,"is_disabled":false,"rental_uris":{"android":"levelo://app?vid=b7992443-8e68-40d9-ab23-1a5ece5fbee5","ios":"levelo://app?vid=b7992443-8e68-40d9-ab23-1a5ece5fbee5"},"vehicle_type_id":"4","last_reported":1740921170,"current_range_meters":12000,"station_id":"","pricing_plan_id":"cebpf4jnsgd1na2vs0mg"},{"bike_id":"e769149f-c0d7-4ca8-bb82-41afd3083bd0","system_id":"levelo_inurba_marseille","lat":43.28615,"lon":5.35114,"is_reserved":false,"is_disabled":false,"rental_uris":{"android":"levelo://app?vid=e769149f-c0d7-4ca8-bb82-41afd3083bd0","ios":"levelo://app?vid=e769149f-c0d7-4ca8-bb82-41afd3083bd0"},"vehicle_type_id":"4","last_reported":1740921170,"current_range_meters":12000,"station_id":"ce4bhch2rcd13ifvqeug","pricing_plan_id":"cebpf4jnsgd1na2vs0mg"},{"bike_id":"ccab9dd3-2745-4c8d-9831-6d29bb2ae6f8","system_id":"levelo_inurba_marseille","lat":43.24668,"lon":5.38166,"is_reserved":false,"is_disabled":false,"rental_uris":{"android":"levelo://app?vid=ccab9dd3-2745-4c8d-9831-6d29bb2ae6f8","ios":"levelo://app?vid=ccab9dd3-2745-4c8d-9831-6d29bb2ae6f8"},"vehicle_type_id":"4","last_reported":1740921170,"current_range_meters":12000,"station_id":"ce4bhih2rcd13ifvqfr0","pricing_plan_id":"cebpf4jnsgd1na2vs0mg"},{"bike_id":"ea5ee4be-9b05-410d-9346-f5fcdfd194f1","system_id":"levelo_inurba_marseille","lat":43.287,"lon":5.39989,"is_reserved":false,"is_disabled":false,"rental_uris":{"android":"levelo://app?vid=ea5ee4be-9b05-410d-9346-f5fcdfd194f1","ios":"levelo://app?vid=ea5ee4be-9b05-410d-9346-f5fcdfd194f1"},"vehicle_type_id":"4","last_reported":1740921170,"current_range_meters":12000,"station_id":"ce4bho92rcd13ifvqh3g","pricing_plan_id":"cebpf4jnsgd1na2vs0mg"},{"bike_id":"fc4fbbc4-3ba4-429f-8121-8efe16b3448e","system_id":"levelo_inurba_marseille","lat":43.23057,"lon":5.35489,"is_reserved":false,"is_disabled":false,"rental_uris":{"android":"levelo://app?vid=fc4fbbc4-3ba4-429f-8121-8efe16b3448e","ios":"levelo://app?vid=fc4fbbc4-3ba4-429f-8121-8efe16b3448e"},"vehicle_type_id":"4","last_reported":1740921170,"current_range_meters":12000,"station_id":"cpo3342slgdg3j2ifvpg","pricing_plan_id":"cebpf4jnsgd1na2vs0mg"},{"bike_id":"ea3bde6a-a1d6-47b7-9b31-244d32e9b0a9","system_id":"levelo_inurba_marseille","lat":43.22935,"lon":5.35383,"is_reserved":false,"is_disabled":false,"rental_uris":{"android":"levelo://app?vid=ea3bde6a-a1d6-47b7-9b31-244d32e9b0a9","ios":"levelo://app?vid=ea3bde6a-a1d6-47b7-9b31-244d32e9b0a9"},"vehicle_type_id":"4","last_reported":1740921170,"current_range_meters":12000,"station_id":"cpo3532slgdg3j2ikp40","pricing_plan_id":"cebpf4jnsgd1na2vs0mg"},{"bike_id":"f9f7484b-981e-458e-be99-9584e920b10c","system_id":"levelo_inurba_marseille","lat":43.22935,"lon":5.35375,"is_reserved":false,"is_disabled":false,"rental_uris":{"android":"levelo://app?vid=f9f7484b-981e-458e-be99-9584e920b10c","ios":"levelo://app?vid=f9f7484b-981e-458e-be99-9584e920b10c"},"vehicle_type_id":"4","last_reported":1740921170,"current_range_meters":12000,"station_id":"cpo3532slgdg3j2ikp40","pricing_plan_id":"cebpf4jnsgd1na2vs0mg"},{"bike_id":"aecd8a8b-4d9d-46f2-bda7-7d48d4d903b2","system_id":"levelo_inurba_marseille","lat":43.22931,"lon":5.35381,"is_reserved":false,"is_disabled":false,"rental_uris":{"android":"levelo://app?vid=aecd8a8b-4d9d-46f2-bda7-7d48d4d903b2","ios":"levelo://app?vid=aecd8a8b-4d9d-46f2-bda7-7d48d4d903b2"},"vehicle_type_id":"4","last_reported":1740921170,"current_range_meters":12000,"station_id":"cpo3532slgdg3j2ikp40","pricing_plan_id":"cebpf4jnsgd1na2vs0mg"},{"bike_id":"3c9c65ff-a2a8-4c52-a6f4-62bcc77556ef","system_id":"levelo_inurba_marseille","lat":43.24162,"lon":5.36406,"is_reserved":false,"is_disabled":false,"rental_uris":{"android":"levelo://app?vid=3c9c65ff-a2a8-4c52-a6f4-62bcc77556ef","ios":"levelo://app?vid=3c9c65ff-a2a8-4c52-a6f4-62bcc77556ef"},"vehicle_type_id":"4","last_reported":1740921170,"current_range_meters":12000,"station_id":"cpo36qri1sfpv3e86is0","pricing_plan_id":"cebpf4jnsgd1na2vs0mg"},{"bike_id":"88d09cbc-1497-4fea-99b9-c1fe29ff58f0","system_id":"levelo_inurba_marseille","lat":43.28035,"lon":5.36615,"is_reserved":false,"is_disabled":false,"rental_uris":{"android":"levelo://app?vid=88d09cbc-1497-4fea-99b9-c1fe29ff58f0","ios":"levelo://app?vid=88d09cbc-1497-4fea-99b9-c1fe29ff58f0"},"vehicle_type_id":"4","last_reported":1740921170,"current_range_meters":12400,"station_id":"","pricing_plan_id":"cebpf4jnsgd1na2vs0mg"},{"bike_id":"8c528749-43df-40d6-b9b4-e80d7e8bda23","system_id":"levelo_inurba_marseille","lat":43.26547,"lon":5.37303,"is_reserved":false,"is_disabled":false,"rental_uris":{"android":"levelo://app?vid=8c528749-43df-40d6-b9b4-e80d7e8bda23","ios":"levelo://app?vid=8c528749-43df-40d6-b9b4-e80d7e8bda23"},"vehicle_type_id":"4","last_reported":1740921170,"current_range_meters":12400,"station_id":"ce4bhg12rcd13ifvqf70","pricing_plan_id":"cebpf4jnsgd1na2vs0mg"},{"bike_id":"9f2bbafd-9a89-4d79-a69a-a929085d6a4e","system_id":"levelo_inurba_marseille","lat":43.24809,"lon":5.3745,"is_reserved":false,"is_disabled":false,"rental_uris":{"android":"levelo://app?vid=9f2bbafd-9a89-4d79-a69a-a929085d6a4e","ios":"levelo://app?vid=9f2bbafd-9a89-4d79-a69a-a929085d6a4e"},"vehicle_type_id":"4","last_reported":1740921170,"current_range_meters":12400,"station_id":"ce4bhgh2rcd13ifvqfb0","pricing_plan_id":"cebpf4jnsgd1na2vs0mg"},{"bike_id":"6396678d-da48-44d7-8bd0-6c292c3ea872","system_id":"levelo_inurba_marseille","lat":43.25087,"lon":5.39518,"is_reserved":false,"is_disabled":false,"rental_uris":{"android":"levelo://app?vid=6396678d-da48-44d7-8bd0-6c292c3ea872","ios":"levelo://app?vid=6396678d-da48-44d7-8bd0-6c292c3ea872"},"vehicle_type_id":"4","last_reported":1740921170,"current_range_meters":12400,"station_id":"ce4bhm12rcd13ifvqgkg","pricing_plan_id":"cebpf4jnsgd1na2vs0mg"},{"bike_id":"ed8bb562-d048-4d97-a62c-052cc210d3b2","system_id":"levelo_inurba_marseille","lat":43.317253,"lon":5.437109,"is_reserved":false,"is_disabled":false,"rental_uris":{"android":"levelo://app?vid=ed8bb562-d048-4d97-a62c-052cc210d3b2","ios":"levelo://app?vid=ed8bb562-d048-4d97-a62c-052cc210d3b2"},"vehicle_type_id":"4","last_reported":1740921170,"current_range_meters":12400,"station_id":"ce4bhp92rcd13ifvqhcg","pricing_plan_id":"cebpf4jnsgd1na2vs0mg"},{"bike_id":"84af6a80-8cfd-4afe-8e5a-36b0ccbd5eba","system_id":"levelo_inurba_marseille","lat":43.22931,"lon":5.35374,"is_reserved":false,"is_disabled":false,"rental_uris":{"android":"levelo://app?vid=84af6a80-8cfd-4afe-8e5a-36b0ccbd5eba","ios":"levelo://app?vid=84af6a80-8cfd-4afe-8e5a-36b0ccbd5eba"},"vehicle_type_id":"4","last_reported":1740921170,"current_range_meters":12400,"station_id":"cpo3532slgdg3j2ikp40","pricing_plan_id":"cebpf4jnsgd1na2vs0mg"},{"bike_id":"63e0c8c1-1ce1-494e-b239-dc8011265a44","system_id":"levelo_inurba_marseille","lat":43.2953,"lon":5.37501,"is_reserved":false,"is_disabled":false,"rental_uris":{"android":"levelo://app?vid=63e0c8c1-1ce1-494e-b239-dc8011265a44","ios":"levelo://app?vid=63e0c8c1-1ce1-494e-b239-dc8011265a44"},"vehicle_type_id":"4","last_reported":1740921170,"current_range_meters":12800,"station_id":"ce4bgkp2rcd13ifvqbmg","pricing_plan_id":"cebpf4jnsgd1na2vs0mg"},{"bike_id":"147de317-0f8c-4ed0-b039-c0815746afb6","system_id":"levelo_inurba_marseille","lat":43.31714,"lon":5.37741,"is_reserved":false,"is_disabled":false,"rental_uris":{"android":"levelo://app?vid=147de317-0f8c-4ed0-b039-c0815746afb6","ios":"levelo://app?vid=147de317-0f8c-4ed0-b039-c0815746afb6"},"vehicle_type_id":"4","last_reported":1740921170,"current_range_meters":12800,"station_id":"ce4bgth2rcd13ifvqch0","pricing_plan_id":"cebpf4jnsgd1na2vs0mg"},{"bike_id":"2e9c27d3-7345-4cf1-8b14-d9496e0e96ab","system_id":"levelo_inurba_marseille","lat":43.3088,"lon":5.39643,"is_reserved":false,"is_disabled":false,"rental_uris":{"android":"levelo://app?vid=2e9c27d3-7345-4cf1-8b14-d9496e0e96ab","ios":"levelo://app?vid=2e9c27d3-7345-4cf1-8b14-d9496e0e96ab"},"vehicle_type_id":"4","last_reported":1740921170,"current_range_meters":12800,"station_id":"ce4bh012rcd13ifvqcv0","pricing_plan_id":"cebpf4jnsgd1na2vs0mg"},{"bike_id":"04374387-317f-463f-bfc7-2e3d3c3c7b98","system_id":"levelo_inurba_marseille","lat":43.24183,"lon":5.39747,"is_reserved":false,"is_disabled":false,"rental_uris":{"android":"levelo://app?vid=04374387-317f-463f-bfc7-2e3d3c3c7b98","ios":"levelo://app?vid=04374387-317f-463f-bfc7-2e3d3c3c7b98"},"vehicle_type_id":"4","last_reported":1740921170,"current_range_meters":12800,"station_id":"ce4bhn12rcd13ifvqgpg","pricing_plan_id":"cebpf4jnsgd1na2vs0mg"},{"bike_id":"0e37a980-00c1-4d93-96e8-ebfff90a65df","system_id":"levelo_inurba_marseille","lat":43.23051,"lon":5.35493,"is_reserved":false,"is_disabled":false,"rental_uris":{"android":"levelo://app?vid=0e37a980-00c1-4d93-96e8-ebfff90a65df","ios":"levelo://app?vid=0e37a980-00c1-4d93-96e8-ebfff90a65df"},"vehicle_type_id":"4","last_reported":1740921170,"current_range_meters":12800,"station_id":"cpo3342slgdg3j2ifvpg","pricing_plan_id":"cebpf4jnsgd1na2vs0mg"},{"bike_id":"b89b9e97-65c4-4473-a19f-c73995b54f7e","system_id":"levelo_inurba_marseille","lat":43.23059,"lon":5.35494,"is_reserved":false,"is_disabled":false,"rental_uris":{"android":"levelo://app?vid=b89b9e97-65c4-4473-a19f-c73995b54f7e","ios":"levelo://app?vid=b89b9e97-65c4-4473-a19f-c73995b54f7e"},"vehicle_type_id":"4","last_reported":1740921170,"current_range_meters":12800,"station_id":"cpo3342slgdg3j2ifvpg","pricing_plan_id":"cebpf4jnsgd1na2vs0mg"},{"bike_id":"a31c1d2a-f82f-49f3-a02b-72326b291f47","system_id":"levelo_inurba_marseille","lat":43.22925,"lon":5.35374,"is_reserved":false,"is_disabled":false,"rental_uris":{"android":"levelo://app?vid=a31c1d2a-f82f-49f3-a02b-72326b291f47","ios":"levelo://app?vid=a31c1d2a-f82f-49f3-a02b-72326b291f47"},"vehicle_type_id":"4","last_reported":1740921170,"current_range_meters":12800,"station_id":"cpo3532slgdg3j2ikp40","pricing_plan_id":"cebpf4jnsgd1na2vs0mg"},{"bike_id":"acf37b8b-cefc-4715-ac3e-786b32c15d23","system_id":"levelo_inurba_marseille","lat":43.24165,"lon":5.36389,"is_reserved":false,"is_disabled":false,"rental_uris":{"android":"levelo://app?vid=acf37b8b-cefc-4715-ac3e-786b32c15d23","ios":"levelo://app?vid=acf37b8b-cefc-4715-ac3e-786b32c15d23"},"vehicle_type_id":"4","last_reported":1740921170,"current_range_meters":12800,"station_id":"cpo36qri1sfpv3e86is0","pricing_plan_id":"cebpf4jnsgd1na2vs0mg"},{"bike_id":"55cee592-86af-4e8a-904e-41f499d8ca8f","system_id":"levelo_inurba_marseille","lat":43.28617,"lon":5.35101,"is_reserved":false,"is_disabled":false,"rental_uris":{"android":"levelo://app?vid=55cee592-86af-4e8a-904e-41f499d8ca8f","ios":"levelo://app?vid=55cee592-86af-4e8a-904e-41f499d8ca8f"},"vehicle_type_id":"4","last_reported":1740921170,"current_range_meters":13600,"station_id":"ce4bhch2rcd13ifvqeug","pricing_plan_id":"cebpf4jnsgd1na2vs0mg"},{"bike_id":"d582d420-ad76-4943-9aaa-ec3ad66c7cfa","system_id":"levelo_inurba_marseille","lat":43.24101,"lon":5.37736,"is_reserved":false,"is_disabled":false,"rental_uris":{"android":"levelo://app?vid=d582d420-ad76-4943-9aaa-ec3ad66c7cfa","ios":"levelo://app?vid=d582d420-ad76-4943-9aaa-ec3ad66c7cfa"},"vehicle_type_id":"4","last_reported":1740921170,"current_range_meters":13600,"station_id":"ce4bhnp2rcd13ifvqgvg","pricing_plan_id":"cebpf4jnsgd1na2vs0mg"},{"bike_id":"61e3c74e-7012-4cb6-8ef4-17db5d82fdf7","system_id":"levelo_inurba_marseille","lat":43.25307,"lon":5.39288,"is_reserved":false,"is_disabled":false,"rental_uris":{"android":"levelo://app?vid=61e3c74e-7012-4cb6-8ef4-17db5d82fdf7","ios":"levelo://app?vid=61e3c74e-7012-4cb6-8ef4-17db5d82fdf7"},"vehicle_type_id":"4","last_reported":1740921170,"current_range_meters":14000,"station_id":"","pricing_plan_id":"cebpf4jnsgd1na2vs0mg"},{"bike_id":"871223f2-aa36-4649-b9b6-9a0a67a41e39","system_id":"levelo_inurba_marseille","lat":43.29605,"lon":5.38092,"is_reserved":false,"is_disabled":false,"rental_uris":{"android":"levelo://app?vid=871223f2-aa36-4649-b9b6-9a0a67a41e39","ios":"levelo://app?vid=871223f2-aa36-4649-b9b6-9a0a67a41e39"},"vehicle_type_id":"4","last_reported":1740921170,"current_range_meters":14000,"station_id":"ce4bgl12rcd13ifvqbo0","pricing_plan_id":"cebpf4jnsgd1na2vs0mg"},{"bike_id":"b0b6c7d7-4ba7-4268-85f8-90e9ae85d8c1","system_id":"levelo_inurba_marseille","lat":43.301369,"lon":5.374252,"is_reserved":false,"is_disabled":false,"rental_uris":{"android":"levelo://app?vid=b0b6c7d7-4ba7-4268-85f8-90e9ae85d8c1","ios":"levelo://app?vid=b0b6c7d7-4ba7-4268-85f8-90e9ae85d8c1"},"vehicle_type_id":"4","last_reported":1740921170,"current_range_meters":14000,"station_id":"ce4bgs92rcd13ifvqcc0","pricing_plan_id":"cebpf4jnsgd1na2vs0mg"},{"bike_id":"fb0ede04-be52-4841-979e-19d97a6dd065","system_id":"levelo_inurba_marseille","lat":43.31494,"lon":5.37311,"is_reserved":false,"is_disabled":false,"rental_uris":{"android":"levelo://app?vid=fb0ede04-be52-4841-979e-19d97a6dd065","ios":"levelo://app?vid=fb0ede04-be52-4841-979e-19d97a6dd065"},"vehicle_type_id":"4","last_reported":1740921170,"current_range_meters":14000,"station_id":"ce4bgt12rcd13ifvqcd0","pricing_plan_id":"cebpf4jnsgd1na2vs0mg"},{"bike_id":"2e04267e-38a2-4f84-a266-a4dcfca80315","system_id":"levelo_inurba_marseille","lat":43.26687,"lon":5.38267,"is_reserved":false,"is_disabled":false,"rental_uris":{"android":"levelo://app?vid=2e04267e-38a2-4f84-a266-a4dcfca80315","ios":"levelo://app?vid=2e04267e-38a2-4f84-a266-a4dcfca80315"},"vehicle_type_id":"4","last_reported":1740921170,"current_range_meters":14000,"station_id":"ce4bhg92rcd13ifvqf90","pricing_plan_id":"cebpf4jnsgd1na2vs0mg"},{"bike_id":"fd52364b-51e2-4dfe-a157-8694d87b8ead","system_id":"levelo_inurba_marseille","lat":43.25004,"lon":5.38915,"is_reserved":false,"is_disabled":false,"rental_uris":{"android":"levelo://app?vid=fd52364b-51e2-4dfe-a157-8694d87b8ead","ios":"levelo://app?vid=fd52364b-51e2-4dfe-a157-8694d87b8ead"},"vehicle_type_id":"4","last_reported":1740921170,"current_range_meters":14000,"station_id":"ce4bhgp2rcd13ifvqfd0","pricing_plan_id":"cebpf4jnsgd1na2vs0mg"},{"bike_id":"0f05a555-e598-43c7-bb27-5b9b48daab9f","system_id":"levelo_inurba_marseille","lat":43.24402,"lon":5.37041,"is_reserved":false,"is_disabled":false,"rental_uris":{"android":"levelo://app?vid=0f05a555-e598-43c7-bb27-5b9b48daab9f","ios":"levelo://app?vid=0f05a555-e598-43c7-bb27-5b9b48daab9f"},"vehicle_type_id":"4","last_reported":1740921170,"current_range_meters":14000,"station_id":"ce4bhhh2rcd13ifvqfk0","pricing_plan_id":"cebpf4jnsgd1na2vs0mg"},{"bike_id":"a4fa36b4-7a41-4d3b-8edc-0027bce1b33c","system_id":"levelo_inurba_marseille","lat":43.25369,"lon":5.4137,"is_reserved":false,"is_disabled":false,"rental_uris":{"android":"levelo://app?vid=a4fa36b4-7a41-4d3b-8edc-0027bce1b33c","ios":"levelo://app?vid=a4fa36b4-7a41-4d3b-8edc-0027bce1b33c"},"vehicle_type_id":"4","last_reported":1740921170,"current_range_meters":14400,"station_id":"","pricing_plan_id":"cebpf4jnsgd1na2vs0mg"},{"bike_id":"dba38656-fbff-47d7-a408-6004ebc6bbd2","system_id":"levelo_inurba_marseille","lat":43.26193,"lon":5.37451,"is_reserved":false,"is_disabled":false,"rental_uris":{"android":"levelo://app?vid=dba38656-fbff-47d7-a408-6004ebc6bbd2","ios":"levelo://app?vid=dba38656-fbff-47d7-a408-6004ebc6bbd2"},"vehicle_type_id":"4","last_reported":1740921170,"current_range_meters":14400,"station_id":"ce4bhgp2rcd13ifvqfc0","pricing_plan_id":"cebpf4jnsgd1na2vs0mg"},{"bike_id":"7ee8b473-5f24-443c-b1a9-185831e40175","system_id":"levelo_inurba_marseille","lat":43.24388,"lon":5.37058,"is_reserved":false,"is_disabled":false,"rental_uris":{"android":"levelo://app?vid=7ee8b473-5f24-443c-b1a9-185831e40175","ios":"levelo://app?vid=7ee8b473-5f24-443c-b1a9-185831e40175"},"vehicle_type_id":"4","last_reported":1740921170,"current_range_meters":14400,"station_id":"ce4bhhh2rcd13ifvqfk0","pricing_plan_id":"cebpf4jnsgd1na2vs0mg"},{"bike_id":"ff3b523a-27bb-49ef-b928-c8d0b1515c6f","system_id":"levelo_inurba_marseille","lat":43.24546,"lon":5.39533,"is_reserved":false,"is_disabled":false,"rental_uris":{"android":"levelo://app?vid=ff3b523a-27bb-49ef-b928-c8d0b1515c6f","ios":"levelo://app?vid=ff3b523a-27bb-49ef-b928-c8d0b1515c6f"},"vehicle_type_id":"4","last_reported":1740921170,"current_range_meters":14400,"station_id":"ce4bhlp2rcd13ifvqgjg","pricing_plan_id":"cebpf4jnsgd1na2vs0mg"},{"bike_id":"e5a52438-cfdc-4d2c-bea9-c3ac740c704b","system_id":"levelo_inurba_marseille","lat":43.2315,"lon":5.4371,"is_reserved":false,"is_disabled":false,"rental_uris":{"android":"levelo://app?vid=e5a52438-cfdc-4d2c-bea9-c3ac740c704b","ios":"levelo://app?vid=e5a52438-cfdc-4d2c-bea9-c3ac740c704b"},"vehicle_type_id":"4","last_reported":1740921170,"current_range_meters":14400,"station_id":"ce4bhmp2rcd13ifvqgog","pricing_plan_id":"cebpf4jnsgd1na2vs0mg"},{"bike_id":"8458a053-d906-4ecf-8852-a0caf121a1e5","system_id":"levelo_inurba_marseille","lat":43.23149,"lon":5.43714,"is_reserved":false,"is_disabled":false,"rental_uris":{"android":"levelo://app?vid=8458a053-d906-4ecf-8852-a0caf121a1e5","ios":"levelo://app?vid=8458a053-d906-4ecf-8852-a0caf121a1e5"},"vehicle_type_id":"4","last_reported":1740921170,"current_range_meters":14400,"station_id":"ce4bhmp2rcd13ifvqgog","pricing_plan_id":"cebpf4jnsgd1na2vs0mg"},{"bike_id":"74bbf4d0-5b94-4ac2-b23b-6b95a441bef8","system_id":"levelo_inurba_marseille","lat":43.27501,"lon":5.42441,"is_reserved":false,"is_disabled":false,"rental_uris":{"android":"levelo://app?vid=74bbf4d0-5b94-4ac2-b23b-6b95a441bef8","ios":"levelo://app?vid=74bbf4d0-5b94-4ac2-b23b-6b95a441bef8"},"vehicle_type_id":"4","last_reported":1740921170,"current_range_meters":14400,"station_id":"ce4bhn92rcd13ifvqgrg","pricing_plan_id":"cebpf4jnsgd1na2vs0mg"},{"bike_id":"dc07e06d-0854-459d-a227-3d6eb13e343d","system_id":"levelo_inurba_marseille","lat":43.23192,"lon":5.35559,"is_reserved":false,"is_disabled":false,"rental_uris":{"android":"levelo://app?vid=dc07e06d-0854-459d-a227-3d6eb13e343d","ios":"levelo://app?vid=dc07e06d-0854-459d-a227-3d6eb13e343d"},"vehicle_type_id":"4","last_reported":1740921170,"current_range_meters":14400,"station_id":"ce4bhu92rcd13ifvqi70","pricing_plan_id":"cebpf4jnsgd1na2vs0mg"},{"bike_id":"96090500-e92b-4618-a8ce-3e71815df01c","system_id":"levelo_inurba_marseille","lat":43.310711,"lon":5.382466,"is_reserved":false,"is_disabled":false,"rental_uris":{"android":"levelo://app?vid=96090500-e92b-4618-a8ce-3e71815df01c","ios":"levelo://app?vid=96090500-e92b-4618-a8ce-3e71815df01c"},"vehicle_type_id":"4","last_reported":1740921170,"current_range_meters":14800,"station_id":"","pricing_plan_id":"cebpf4jnsgd1na2vs0mg"},{"bike_id":"09e7b03d-b6ce-4df7-9c5a-62e2d2054c70","system_id":"levelo_inurba_marseille","lat":43.30552,"lon":5.36541,"is_reserved":false,"is_disabled":false,"rental_uris":{"android":"levelo://app?vid=09e7b03d-b6ce-4df7-9c5a-62e2d2054c70","ios":"levelo://app?vid=09e7b03d-b6ce-4df7-9c5a-62e2d2054c70"},"vehicle_type_id":"4","last_reported":1740921170,"current_range_meters":14800,"station_id":"ce4bgs12rcd13ifvqcag","pricing_plan_id":"cebpf4jnsgd1na2vs0mg"},{"bike_id":"b18cd12d-f7f4-4fe1-aad8-800a36bfd2b5","system_id":"levelo_inurba_marseille","lat":43.30285,"lon":5.37714,"is_reserved":false,"is_disabled":false,"rental_uris":{"android":"levelo://app?vid=b18cd12d-f7f4-4fe1-aad8-800a36bfd2b5","ios":"levelo://app?vid=b18cd12d-f7f4-4fe1-aad8-800a36bfd2b5"},"vehicle_type_id":"4","last_reported":1740921170,"current_range_meters":14800,"station_id":"ce4bguh2rcd13ifvqcj0","pricing_plan_id":"cebpf4jnsgd1na2vs0mg"},{"bike_id":"00139f85-45a1-418c-8eae-e1db3d0d2be9","system_id":"levelo_inurba_marseille","lat":43.27376,"lon":5.36255,"is_reserved":false,"is_disabled":false,"rental_uris":{"android":"levelo://app?vid=00139f85-45a1-418c-8eae-e1db3d0d2be9","ios":"levelo://app?vid=00139f85-45a1-418c-8eae-e1db3d0d2be9"},"vehicle_type_id":"4","last_reported":1740921170,"current_range_meters":14800,"station_id":"ce4bhbh2rcd13ifvqeo0","pricing_plan_id":"cebpf4jnsgd1na2vs0mg"},{"bike_id":"2d92b9c5-d3a5-4f07-9c56-c3245dba2d90","system_id":"levelo_inurba_marseille","lat":43.28269,"lon":5.35062,"is_reserved":false,"is_disabled":false,"rental_uris":{"android":"levelo://app?vid=2d92b9c5-d3a5-4f07-9c56-c3245dba2d90","ios":"levelo://app?vid=2d92b9c5-d3a5-4f07-9c56-c3245dba2d90"},"vehicle_type_id":"4","last_reported":1740921170,"current_range_meters":14800,"station_id":"ce4bhbp2rcd13ifvqerg","pricing_plan_id":"cebpf4jnsgd1na2vs0mg"},{"bike_id":"95cd5fee-78de-4f04-9458-0bcee2561cff","system_id":"levelo_inurba_marseille","lat":43.28622,"lon":5.35109,"is_reserved":false,"is_disabled":false,"rental_uris":{"android":"levelo://app?vid=95cd5fee-78de-4f04-9458-0bcee2561cff","ios":"levelo://app?vid=95cd5fee-78de-4f04-9458-0bcee2561cff"},"vehicle_type_id":"4","last_reported":1740921170,"current_range_meters":14800,"station_id":"ce4bhch2rcd13ifvqeug","pricing_plan_id":"cebpf4jnsgd1na2vs0mg"},{"bike_id":"a278b34c-ef9c-47a5-a926-50af530f9eaa","system_id":"levelo_inurba_marseille","lat":43.29954,"lon":5.41319,"is_reserved":false,"is_disabled":false,"rental_uris":{"android":"levelo://app?vid=a278b34c-ef9c-47a5-a926-50af530f9eaa","ios":"levelo://app?vid=a278b34c-ef9c-47a5-a926-50af530f9eaa"},"vehicle_type_id":"4","last_reported":1740921170,"current_range_meters":14800,"station_id":"ce4bhp12rcd13ifvqh9g","pricing_plan_id":"cebpf4jnsgd1na2vs0mg"},{"bike_id":"b8f80b09-0bd1-439f-8733-42dea0cc63f9","system_id":"levelo_inurba_marseille","lat":43.32338,"lon":5.4061,"is_reserved":false,"is_disabled":false,"rental_uris":{"android":"levelo://app?vid=b8f80b09-0bd1-439f-8733-42dea0cc63f9","ios":"levelo://app?vid=b8f80b09-0bd1-439f-8733-42dea0cc63f9"},"vehicle_type_id":"4","last_reported":1740921170,"current_range_meters":14800,"station_id":"ce4bhq92rcd13ifvqhjg","pricing_plan_id":"cebpf4jnsgd1na2vs0mg"},{"bike_id":"a3607db7-1b41-4090-97c0-c225cbe86d56","system_id":"levelo_inurba_marseille","lat":43.22932,"lon":5.35378,"is_reserved":false,"is_disabled":false,"rental_uris":{"android":"levelo://app?vid=a3607db7-1b41-4090-97c0-c225cbe86d56","ios":"levelo://app?vid=a3607db7-1b41-4090-97c0-c225cbe86d56"},"vehicle_type_id":"4","last_reported":1740921170,"current_range_meters":14800,"station_id":"cpo3532slgdg3j2ikp40","pricing_plan_id":"cebpf4jnsgd1na2vs0mg"},{"bike_id":"59641082-9b64-4965-8eaa-ec5a7e85597a","system_id":"levelo_inurba_marseille","lat":43.26208,"lon":5.37442,"is_reserved":false,"is_disabled":false,"rental_uris":{"android":"levelo://app?vid=59641082-9b64-4965-8eaa-ec5a7e85597a","ios":"levelo://app?vid=59641082-9b64-4965-8eaa-ec5a7e85597a"},"vehicle_type_id":"4","last_reported":1740921170,"current_range_meters":15200,"station_id":"ce4bhgp2rcd13ifvqfc0","pricing_plan_id":"cebpf4jnsgd1na2vs0mg"},{"bike_id":"cef15519-d6e0-4a57-bbbd-5471fa8f034f","system_id":"levelo_inurba_marseille","lat":43.23965,"lon":5.36636,"is_reserved":false,"is_disabled":false,"rental_uris":{"android":"levelo://app?vid=cef15519-d6e0-4a57-bbbd-5471fa8f034f","ios":"levelo://app?vid=cef15519-d6e0-4a57-bbbd-5471fa8f034f"},"vehicle_type_id":"4","last_reported":1740921170,"current_range_meters":15200,"station_id":"ce4bhi12rcd13ifvqfp0","pricing_plan_id":"cebpf4jnsgd1na2vs0mg"},{"bike_id":"cbc49db8-4cfb-45b9-8d87-9162bd6455fa","system_id":"levelo_inurba_marseille","lat":43.23963,"lon":5.36636,"is_reserved":false,"is_disabled":false,"rental_uris":{"android":"levelo://app?vid=cbc49db8-4cfb-45b9-8d87-9162bd6455fa","ios":"levelo://app?vid=cbc49db8-4cfb-45b9-8d87-9162bd6455fa"},"vehicle_type_id":"4","last_reported":1740921170,"current_range_meters":15200,"station_id":"ce4bhi12rcd13ifvqfp0","pricing_plan_id":"cebpf4jnsgd1na2vs0mg"},{"bike_id":"18ed809a-93be-4ceb-a90d-b4661309b51d","system_id":"levelo_inurba_marseille","lat":43.30948,"lon":5.3745,"is_reserved":false,"is_disabled":false,"rental_uris":{"android":"levelo://app?vid=18ed809a-93be-4ceb-a90d-b4661309b51d","ios":"levelo://app?vid=18ed809a-93be-4ceb-a90d-b4661309b51d"},"vehicle_type_id":"4","last_reported":1740921170,"current_range_meters":16000,"station_id":"","pricing_plan_id":"cebpf4jnsgd1na2vs0mg"},{"bike_id":"2e7014ec-594f-41fd-bc84-2658c00a317b","system_id":"levelo_inurba_marseille","lat":43.29975,"lon":5.37171,"is_reserved":false,"is_disabled":false,"rental_uris":{"android":"levelo://app?vid=2e7014ec-594f-41fd-bc84-2658c00a317b","ios":"levelo://app?vid=2e7014ec-594f-41fd-bc84-2658c00a317b"},"vehicle_type_id":"4","last_reported":1740921170,"current_range_meters":16000,"station_id":"ce4bgr92rcd13ifvqc7g","pricing_plan_id":"cebpf4jnsgd1na2vs0mg"},{"bike_id":"478c10ad-8744-45a3-9314-9a000a1d9b3c","system_id":"levelo_inurba_marseille","lat":43.25683,"lon":5.41084,"is_reserved":false,"is_disabled":false,"rental_uris":{"android":"levelo://app?vid=478c10ad-8744-45a3-9314-9a000a1d9b3c","ios":"levelo://app?vid=478c10ad-8744-45a3-9314-9a000a1d9b3c"},"vehicle_type_id":"4","last_reported":1740921170,"current_range_meters":16000,"station_id":"ce4bhkp2rcd13ifvqgd0","pricing_plan_id":"cebpf4jnsgd1na2vs0mg"},{"bike_id":"bc4280f5-b2fd-49da-a32f-2f559655c314","system_id":"levelo_inurba_marseille","lat":43.30412,"lon":5.41274,"is_reserved":false,"is_disabled":false,"rental_uris":{"android":"levelo://app?vid=bc4280f5-b2fd-49da-a32f-2f559655c314","ios":"levelo://app?vid=bc4280f5-b2fd-49da-a32f-2f559655c314"},"vehicle_type_id":"4","last_reported":1740921170,"current_range_meters":16000,"station_id":"ce4bhop2rcd13ifvqh8g","pricing_plan_id":"cebpf4jnsgd1na2vs0mg"},{"bike_id":"c5b35fc3-133b-4fcd-9bc1-000b1b46221f","system_id":"levelo_inurba_marseille","lat":43.24163,"lon":5.36407,"is_reserved":false,"is_disabled":false,"rental_uris":{"android":"levelo://app?vid=c5b35fc3-133b-4fcd-9bc1-000b1b46221f","ios":"levelo://app?vid=c5b35fc3-133b-4fcd-9bc1-000b1b46221f"},"vehicle_type_id":"4","last_reported":1740921170,"current_range_meters":16000,"station_id":"cpo36qri1sfpv3e86is0","pricing_plan_id":"cebpf4jnsgd1na2vs0mg"},{"bike_id":"d29e82e5-442b-4177-903e-3742ab7d0a8c","system_id":"levelo_inurba_marseille","lat":43.30032,"lon":5.374211,"is_reserved":false,"is_disabled":false,"rental_uris":{"android":"levelo://app?vid=d29e82e5-442b-4177-903e-3742ab7d0a8c","ios":"levelo://app?vid=d29e82e5-442b-4177-903e-3742ab7d0a8c"},"vehicle_type_id":"4","last_reported":1740921170,"current_range_meters":16400,"station_id":"","pricing_plan_id":"cebpf4jnsgd1na2vs0mg"},{"bike_id":"cc836fe0-3cfd-4fe9-beb4-1fec15d76872","system_id":"levelo_inurba_marseille","lat":43.30432,"lon":5.37318,"is_reserved":false,"is_disabled":false,"rental_uris":{"android":"levelo://app?vid=cc836fe0-3cfd-4fe9-beb4-1fec15d76872","ios":"levelo://app?vid=cc836fe0-3cfd-4fe9-beb4-1fec15d76872"},"vehicle_type_id":"4","last_reported":1740921170,"current_range_meters":16400,"station_id":"","pricing_plan_id":"cebpf4jnsgd1na2vs0mg"},{"bike_id":"70e7491f-9544-426c-be8b-5525fa03e029","system_id":"levelo_inurba_marseille","lat":43.27902,"lon":5.38004,"is_reserved":false,"is_disabled":false,"rental_uris":{"android":"levelo://app?vid=70e7491f-9544-426c-be8b-5525fa03e029","ios":"levelo://app?vid=70e7491f-9544-426c-be8b-5525fa03e029"},"vehicle_type_id":"4","last_reported":1740921170,"current_range_meters":16400,"station_id":"ce4bhf92rcd13ifvqf50","pricing_plan_id":"cebpf4jnsgd1na2vs0mg"},{"bike_id":"35de5d9e-453d-4b6e-a49a-d72de279088a","system_id":"levelo_inurba_marseille","lat":43.26185,"lon":5.37485,"is_reserved":false,"is_disabled":false,"rental_uris":{"android":"levelo://app?vid=35de5d9e-453d-4b6e-a49a-d72de279088a","ios":"levelo://app?vid=35de5d9e-453d-4b6e-a49a-d72de279088a"},"vehicle_type_id":"4","last_reported":1740921170,"current_range_meters":16400,"station_id":"ce4bhgp2rcd13ifvqfc0","pricing_plan_id":"cebpf4jnsgd1na2vs0mg"},{"bike_id":"46b42730-9dd3-44c5-91a9-d6d931f385c3","system_id":"levelo_inurba_marseille","lat":43.254887,"lon":5.376622,"is_reserved":false,"is_disabled":false,"rental_uris":{"android":"levelo://app?vid=46b42730-9dd3-44c5-91a9-d6d931f385c3","ios":"levelo://app?vid=46b42730-9dd3-44c5-91a9-d6d931f385c3"},"vehicle_type_id":"4","last_reported":1740921170,"current_range_meters":16400,"station_id":"ce4bhh12rcd13ifvqff0","pricing_plan_id":"cebpf4jnsgd1na2vs0mg"},{"bike_id":"dacffe94-3abd-43e6-a4cd-55598b78581b","system_id":"levelo_inurba_marseille","lat":43.26931,"lon":5.38922,"is_reserved":false,"is_disabled":false,"rental_uris":{"android":"levelo://app?vid=dacffe94-3abd-43e6-a4cd-55598b78581b","ios":"levelo://app?vid=dacffe94-3abd-43e6-a4cd-55598b78581b"},"vehicle_type_id":"4","last_reported":1740921170,"current_range_meters":16400,"station_id":"ce4bhhh2rcd13ifvqfl0","pricing_plan_id":"cebpf4jnsgd1na2vs0mg"},{"bike_id":"03dcf697-bb4a-4c4f-9bd4-03c6e13d47d4","system_id":"levelo_inurba_marseille","lat":43.24177,"lon":5.39726,"is_reserved":false,"is_disabled":false,"rental_uris":{"android":"levelo://app?vid=03dcf697-bb4a-4c4f-9bd4-03c6e13d47d4","ios":"levelo://app?vid=03dcf697-bb4a-4c4f-9bd4-03c6e13d47d4"},"vehicle_type_id":"4","last_reported":1740921170,"current_range_meters":16400,"station_id":"ce4bhn12rcd13ifvqgpg","pricing_plan_id":"cebpf4jnsgd1na2vs0mg"},{"bike_id":"982a6c2e-2f14-45e6-81c3-569abb57b097","system_id":"levelo_inurba_marseille","lat":43.23066,"lon":5.35493,"is_reserved":false,"is_disabled":false,"rental_uris":{"android":"levelo://app?vid=982a6c2e-2f14-45e6-81c3-569abb57b097","ios":"levelo://app?vid=982a6c2e-2f14-45e6-81c3-569abb57b097"},"vehicle_type_id":"4","last_reported":1740921170,"current_range_meters":16400,"station_id":"cpo3342slgdg3j2ifvpg","pricing_plan_id":"cebpf4jnsgd1na2vs0mg"},{"bike_id":"f5ace16b-5927-4aa3-a56f-a2f4b6f53741","system_id":"levelo_inurba_marseille","lat":43.337444,"lon":5.374475,"is_reserved":false,"is_disabled":false,"rental_uris":{"android":"levelo://app?vid=f5ace16b-5927-4aa3-a56f-a2f4b6f53741","ios":"levelo://app?vid=f5ace16b-5927-4aa3-a56f-a2f4b6f53741"},"vehicle_type_id":"4","last_reported":1740921170,"current_range_meters":16800,"station_id":"","pricing_plan_id":"cebpf4jnsgd1na2vs0mg"},{"bike_id":"7e6b71f3-10ef-4cca-a877-c7e90946667d","system_id":"levelo_inurba_marseille","lat":43.27372,"lon":5.36256,"is_reserved":false,"is_disabled":false,"rental_uris":{"android":"levelo://app?vid=7e6b71f3-10ef-4cca-a877-c7e90946667d","ios":"levelo://app?vid=7e6b71f3-10ef-4cca-a877-c7e90946667d"},"vehicle_type_id":"4","last_reported":1740921170,"current_range_meters":16800,"station_id":"ce4bhbh2rcd13ifvqeo0","pricing_plan_id":"cebpf4jnsgd1na2vs0mg"},{"bike_id":"8c418afa-4a43-45d0-83c2-1c17c420fa81","system_id":"levelo_inurba_marseille","lat":43.26212,"lon":5.37448,"is_reserved":false,"is_disabled":false,"rental_uris":{"android":"levelo://app?vid=8c418afa-4a43-45d0-83c2-1c17c420fa81","ios":"levelo://app?vid=8c418afa-4a43-45d0-83c2-1c17c420fa81"},"vehicle_type_id":"4","last_reported":1740921170,"current_range_meters":16800,"station_id":"ce4bhgp2rcd13ifvqfc0","pricing_plan_id":"cebpf4jnsgd1na2vs0mg"},{"bike_id":"fb3e2014-1721-49c8-b7c4-18987a8f6c21","system_id":"levelo_inurba_marseille","lat":43.26213,"lon":5.3744,"is_reserved":false,"is_disabled":false,"rental_uris":{"android":"levelo://app?vid=fb3e2014-1721-49c8-b7c4-18987a8f6c21","ios":"levelo://app?vid=fb3e2014-1721-49c8-b7c4-18987a8f6c21"},"vehicle_type_id":"4","last_reported":1740921170,"current_range_meters":16800,"station_id":"ce4bhgp2rcd13ifvqfc0","pricing_plan_id":"cebpf4jnsgd1na2vs0mg"},{"bike_id":"670122a3-157a-4ef1-82d1-a5574649dac0","system_id":"levelo_inurba_marseille","lat":43.23955,"lon":5.36636,"is_reserved":false,"is_disabled":false,"rental_uris":{"android":"levelo://app?vid=670122a3-157a-4ef1-82d1-a5574649dac0","ios":"levelo://app?vid=670122a3-157a-4ef1-82d1-a5574649dac0"},"vehicle_type_id":"4","last_reported":1740921170,"current_range_meters":16800,"station_id":"ce4bhi12rcd13ifvqfp0","pricing_plan_id":"cebpf4jnsgd1na2vs0mg"},{"bike_id":"0b85d778-5f42-41f6-99e6-93c2062ce94d","system_id":"levelo_inurba_marseille","lat":43.31706,"lon":5.43713,"is_reserved":false,"is_disabled":false,"rental_uris":{"android":"levelo://app?vid=0b85d778-5f42-41f6-99e6-93c2062ce94d","ios":"levelo://app?vid=0b85d778-5f42-41f6-99e6-93c2062ce94d"},"vehicle_type_id":"4","last_reported":1740921170,"current_range_meters":16800,"station_id":"ce4bhp92rcd13ifvqhcg","pricing_plan_id":"cebpf4jnsgd1na2vs0mg"},{"bike_id":"ed3fdd04-4f01-4dec-bae0-dc817c8e7da9","system_id":"levelo_inurba_marseille","lat":43.30632,"lon":5.37175,"is_reserved":false,"is_disabled":false,"rental_uris":{"android":"levelo://app?vid=ed3fdd04-4f01-4dec-bae0-dc817c8e7da9","ios":"levelo://app?vid=ed3fdd04-4f01-4dec-bae0-dc817c8e7da9"},"vehicle_type_id":"4","last_reported":1740921170,"current_range_meters":17200,"station_id":"","pricing_plan_id":"cebpf4jnsgd1na2vs0mg"},{"bike_id":"417fbd7d-d6d8-4c3a-98dd-ce0156edb9f1","system_id":"levelo_inurba_marseille","lat":43.28417,"lon":5.34993,"is_reserved":false,"is_disabled":false,"rental_uris":{"android":"levelo://app?vid=417fbd7d-d6d8-4c3a-98dd-ce0156edb9f1","ios":"levelo://app?vid=417fbd7d-d6d8-4c3a-98dd-ce0156edb9f1"},"vehicle_type_id":"4","last_reported":1740921170,"current_range_meters":17200,"station_id":"ce4bhbh2rcd13ifvqepg","pricing_plan_id":"cebpf4jnsgd1na2vs0mg"},{"bike_id":"3a391c63-e41e-4f8f-9e7e-c3dcb0081315","system_id":"levelo_inurba_marseille","lat":43.25491,"lon":5.37647,"is_reserved":false,"is_disabled":false,"rental_uris":{"android":"levelo://app?vid=3a391c63-e41e-4f8f-9e7e-c3dcb0081315","ios":"levelo://app?vid=3a391c63-e41e-4f8f-9e7e-c3dcb0081315"},"vehicle_type_id":"4","last_reported":1740921170,"current_range_meters":17200,"station_id":"ce4bhh12rcd13ifvqff0","pricing_plan_id":"cebpf4jnsgd1na2vs0mg"},{"bike_id":"0a2c78d7-2453-45d7-bc3d-d29130aa7835","system_id":"levelo_inurba_marseille","lat":43.2707,"lon":5.42277,"is_reserved":false,"is_disabled":false,"rental_uris":{"android":"levelo://app?vid=0a2c78d7-2453-45d7-bc3d-d29130aa7835","ios":"levelo://app?vid=0a2c78d7-2453-45d7-bc3d-d29130aa7835"},"vehicle_type_id":"4","last_reported":1740921170,"current_range_meters":17200,"station_id":"ce4bhk92rcd13ifvqgb0","pricing_plan_id":"cebpf4jnsgd1na2vs0mg"},{"bike_id":"17313945-a8de-4f0c-957b-b3ac27c8964b","system_id":"levelo_inurba_marseille","lat":43.25721,"lon":5.41073,"is_reserved":false,"is_disabled":false,"rental_uris":{"android":"levelo://app?vid=17313945-a8de-4f0c-957b-b3ac27c8964b","ios":"levelo://app?vid=17313945-a8de-4f0c-957b-b3ac27c8964b"},"vehicle_type_id":"4","last_reported":1740921170,"current_range_meters":17200,"station_id":"ce4bhkp2rcd13ifvqgd0","pricing_plan_id":"cebpf4jnsgd1na2vs0mg"},{"bike_id":"84a21489-e7c4-40fb-8156-acb06b20eaff","system_id":"levelo_inurba_marseille","lat":43.23146,"lon":5.43721,"is_reserved":false,"is_disabled":false,"rental_uris":{"android":"levelo://app?vid=84a21489-e7c4-40fb-8156-acb06b20eaff","ios":"levelo://app?vid=84a21489-e7c4-40fb-8156-acb06b20eaff"},"vehicle_type_id":"4","last_reported":1740921170,"current_range_meters":17200,"station_id":"ce4bhmp2rcd13ifvqgog","pricing_plan_id":"cebpf4jnsgd1na2vs0mg"},{"bike_id":"803ced7a-60d3-4f68-a71d-19a5cba39b57","system_id":"levelo_inurba_marseille","lat":43.231558,"lon":5.43705,"is_reserved":false,"is_disabled":false,"rental_uris":{"android":"levelo://app?vid=803ced7a-60d3-4f68-a71d-19a5cba39b57","ios":"levelo://app?vid=803ced7a-60d3-4f68-a71d-19a5cba39b57"},"vehicle_type_id":"4","last_reported":1740921170,"current_range_meters":17200,"station_id":"ce4bhmp2rcd13ifvqgog","pricing_plan_id":"cebpf4jnsgd1na2vs0mg"},{"bike_id":"85346c29-5844-4127-99cb-bf12070b4c18","system_id":"levelo_inurba_marseille","lat":43.22935,"lon":5.3538,"is_reserved":false,"is_disabled":false,"rental_uris":{"android":"levelo://app?vid=85346c29-5844-4127-99cb-bf12070b4c18","ios":"levelo://app?vid=85346c29-5844-4127-99cb-bf12070b4c18"},"vehicle_type_id":"4","last_reported":1740921170,"current_range_meters":17200,"station_id":"cpo3532slgdg3j2ikp40","pricing_plan_id":"cebpf4jnsgd1na2vs0mg"},{"bike_id":"c2297c59-6090-49d7-9338-d688b3ca1276","system_id":"levelo_inurba_marseille","lat":43.22932,"lon":5.35379,"is_reserved":false,"is_disabled":false,"rental_uris":{"android":"levelo://app?vid=c2297c59-6090-49d7-9338-d688b3ca1276","ios":"levelo://app?vid=c2297c59-6090-49d7-9338-d688b3ca1276"},"vehicle_type_id":"4","last_reported":1740921170,"current_range_meters":17200,"station_id":"cpo3532slgdg3j2ikp40","pricing_plan_id":"cebpf4jnsgd1na2vs0mg"},{"bike_id":"d7455ef1-0ce2-47d7-a2ab-1379fc9a165f","system_id":"levelo_inurba_marseille","lat":43.2761,"lon":5.36112,"is_reserved":false,"is_disabled":false,"rental_uris":{"android":"levelo://app?vid=d7455ef1-0ce2-47d7-a2ab-1379fc9a165f","ios":"levelo://app?vid=d7455ef1-0ce2-47d7-a2ab-1379fc9a165f"},"vehicle_type_id":"4","last_reported":1740921170,"current_range_meters":17600,"station_id":"ce4bgj92rcd13ifvqbe0","pricing_plan_id":"cebpf4jnsgd1na2vs0mg"},{"bike_id":"05da1163-62f6-4540-9775-48d3bf7d78f8","system_id":"levelo_inurba_marseille","lat":43.30883,"lon":5.37186,"is_reserved":false,"is_disabled":false,"rental_uris":{"android":"levelo://app?vid=05da1163-62f6-4540-9775-48d3bf7d78f8","ios":"levelo://app?vid=05da1163-62f6-4540-9775-48d3bf7d78f8"},"vehicle_type_id":"4","last_reported":1740921170,"current_range_meters":17600,"station_id":"ce4bguh2rcd13ifvqckg","pricing_plan_id":"cebpf4jnsgd1na2vs0mg"},{"bike_id":"a0203017-7af2-42d1-8cbe-20465dd07b9e","system_id":"levelo_inurba_marseille","lat":43.31688,"lon":5.40461,"is_reserved":false,"is_disabled":false,"rental_uris":{"android":"levelo://app?vid=a0203017-7af2-42d1-8cbe-20465dd07b9e","ios":"levelo://app?vid=a0203017-7af2-42d1-8cbe-20465dd07b9e"},"vehicle_type_id":"4","last_reported":1740921170,"current_range_meters":17600,"station_id":"ce4bh012rcd13ifvqd00","pricing_plan_id":"cebpf4jnsgd1na2vs0mg"},{"bike_id":"a4bd3ee5-9c57-4240-801e-19f5571ebe94","system_id":"levelo_inurba_marseille","lat":43.26224,"lon":5.37438,"is_reserved":false,"is_disabled":false,"rental_uris":{"android":"levelo://app?vid=a4bd3ee5-9c57-4240-801e-19f5571ebe94","ios":"levelo://app?vid=a4bd3ee5-9c57-4240-801e-19f5571ebe94"},"vehicle_type_id":"4","last_reported":1740921170,"current_range_meters":17600,"station_id":"ce4bhgp2rcd13ifvqfc0","pricing_plan_id":"cebpf4jnsgd1na2vs0mg"},{"bike_id":"df09361b-aeb4-4df1-9b27-6cb636bc8169","system_id":"levelo_inurba_marseille","lat":43.26208,"lon":5.37443,"is_reserved":false,"is_disabled":false,"rental_uris":{"android":"levelo://app?vid=df09361b-aeb4-4df1-9b27-6cb636bc8169","ios":"levelo://app?vid=df09361b-aeb4-4df1-9b27-6cb636bc8169"},"vehicle_type_id":"4","last_reported":1740921170,"current_range_meters":17600,"station_id":"ce4bhgp2rcd13ifvqfc0","pricing_plan_id":"cebpf4jnsgd1na2vs0mg"},{"bike_id":"3962e274-cfd3-41fc-b7f3-5fc4be4b123b","system_id":"levelo_inurba_marseille","lat":43.255,"lon":5.37648,"is_reserved":false,"is_disabled":false,"rental_uris":{"android":"levelo://app?vid=3962e274-cfd3-41fc-b7f3-5fc4be4b123b","ios":"levelo://app?vid=3962e274-cfd3-41fc-b7f3-5fc4be4b123b"},"vehicle_type_id":"4","last_reported":1740921170,"current_range_meters":17600,"station_id":"ce4bhh12rcd13ifvqff0","pricing_plan_id":"cebpf4jnsgd1na2vs0mg"},{"bike_id":"ab34b05a-3e12-4f6f-983f-007358280f71","system_id":"levelo_inurba_marseille","lat":43.29891,"lon":5.43657,"is_reserved":false,"is_disabled":false,"rental_uris":{"android":"levelo://app?vid=ab34b05a-3e12-4f6f-983f-007358280f71","ios":"levelo://app?vid=ab34b05a-3e12-4f6f-983f-007358280f71"},"vehicle_type_id":"4","last_reported":1740921170,"current_range_meters":17600,"station_id":"ce4bhpp2rcd13ifvqhfg","pricing_plan_id":"cebpf4jnsgd1na2vs0mg"},{"bike_id":"815d7400-5b5f-493d-b032-6bb79e6a8b09","system_id":"levelo_inurba_marseille","lat":43.33022,"lon":5.39045,"is_reserved":false,"is_disabled":false,"rental_uris":{"android":"levelo://app?vid=815d7400-5b5f-493d-b032-6bb79e6a8b09","ios":"levelo://app?vid=815d7400-5b5f-493d-b032-6bb79e6a8b09"},"vehicle_type_id":"4","last_reported":1740921170,"current_range_meters":17600,"station_id":"ce4bhr92rcd13ifvqhrg","pricing_plan_id":"cebpf4jnsgd1na2vs0mg"},{"bike_id":"5cce8611-7cbc-432c-b268-2ea5e8ebf09a","system_id":"levelo_inurba_marseille","lat":43.23192,"lon":5.35549,"is_reserved":false,"is_disabled":false,"rental_uris":{"android":"levelo://app?vid=5cce8611-7cbc-432c-b268-2ea5e8ebf09a","ios":"levelo://app?vid=5cce8611-7cbc-432c-b268-2ea5e8ebf09a"},"vehicle_type_id":"4","last_reported":1740921170,"current_range_meters":17600,"station_id":"ce4bhu92rcd13ifvqi70","pricing_plan_id":"cebpf4jnsgd1na2vs0mg"},{"bike_id":"45da9329-950b-4e61-aabd-6259b731dc14","system_id":"levelo_inurba_marseille","lat":43.23058,"lon":5.35497,"is_reserved":false,"is_disabled":false,"rental_uris":{"android":"levelo://app?vid=45da9329-950b-4e61-aabd-6259b731dc14","ios":"levelo://app?vid=45da9329-950b-4e61-aabd-6259b731dc14"},"vehicle_type_id":"4","last_reported":1740921170,"current_range_meters":17600,"station_id":"cpo3342slgdg3j2ifvpg","pricing_plan_id":"cebpf4jnsgd1na2vs0mg"},{"bike_id":"453068aa-c17d-43bf-9cdd-03e2ddd93a1e","system_id":"levelo_inurba_marseille","lat":43.309,"lon":5.36869,"is_reserved":false,"is_disabled":false,"rental_uris":{"android":"levelo://app?vid=453068aa-c17d-43bf-9cdd-03e2ddd93a1e","ios":"levelo://app?vid=453068aa-c17d-43bf-9cdd-03e2ddd93a1e"},"vehicle_type_id":"4","last_reported":1740921170,"current_range_meters":18000,"station_id":"ce4bgn92rcd13ifvqbvg","pricing_plan_id":"cebpf4jnsgd1na2vs0mg"},{"bike_id":"7d3ca1ff-9ab9-4ac9-b2eb-56f9481f9556","system_id":"levelo_inurba_marseille","lat":43.30547,"lon":5.36535,"is_reserved":false,"is_disabled":false,"rental_uris":{"android":"levelo://app?vid=7d3ca1ff-9ab9-4ac9-b2eb-56f9481f9556","ios":"levelo://app?vid=7d3ca1ff-9ab9-4ac9-b2eb-56f9481f9556"},"vehicle_type_id":"4","last_reported":1740921170,"current_range_meters":18000,"station_id":"ce4bgs12rcd13ifvqcag","pricing_plan_id":"cebpf4jnsgd1na2vs0mg"},{"bike_id":"3b77ce11-c991-41c5-aaeb-e13aac4b5826","system_id":"levelo_inurba_marseille","lat":43.31697,"lon":5.40443,"is_reserved":false,"is_disabled":false,"rental_uris":{"android":"levelo://app?vid=3b77ce11-c991-41c5-aaeb-e13aac4b5826","ios":"levelo://app?vid=3b77ce11-c991-41c5-aaeb-e13aac4b5826"},"vehicle_type_id":"4","last_reported":1740921170,"current_range_meters":18000,"station_id":"ce4bh012rcd13ifvqd00","pricing_plan_id":"cebpf4jnsgd1na2vs0mg"},{"bike_id":"ab3cdf46-9068-40d7-8549-0df1260012c9","system_id":"levelo_inurba_marseille","lat":43.27374,"lon":5.36252,"is_reserved":false,"is_disabled":false,"rental_uris":{"android":"levelo://app?vid=ab3cdf46-9068-40d7-8549-0df1260012c9","ios":"levelo://app?vid=ab3cdf46-9068-40d7-8549-0df1260012c9"},"vehicle_type_id":"4","last_reported":1740921170,"current_range_meters":18000,"station_id":"ce4bhbh2rcd13ifvqeo0","pricing_plan_id":"cebpf4jnsgd1na2vs0mg"},{"bike_id":"eb5d9bae-61e9-40c0-9bed-5bb20f6ccc63","system_id":"levelo_inurba_marseille","lat":43.26219,"lon":5.37428,"is_reserved":false,"is_disabled":false,"rental_uris":{"android":"levelo://app?vid=eb5d9bae-61e9-40c0-9bed-5bb20f6ccc63","ios":"levelo://app?vid=eb5d9bae-61e9-40c0-9bed-5bb20f6ccc63"},"vehicle_type_id":"4","last_reported":1740921170,"current_range_meters":18000,"station_id":"ce4bhgp2rcd13ifvqfc0","pricing_plan_id":"cebpf4jnsgd1na2vs0mg"},{"bike_id":"32fae168-5de4-475a-bd55-4a77931437e4","system_id":"levelo_inurba_marseille","lat":43.24548,"lon":5.39511,"is_reserved":false,"is_disabled":false,"rental_uris":{"android":"levelo://app?vid=32fae168-5de4-475a-bd55-4a77931437e4","ios":"levelo://app?vid=32fae168-5de4-475a-bd55-4a77931437e4"},"vehicle_type_id":"4","last_reported":1740921170,"current_range_meters":18000,"station_id":"ce4bhlp2rcd13ifvqgjg","pricing_plan_id":"cebpf4jnsgd1na2vs0mg"},{"bike_id":"6f9f3f95-0161-4973-849a-64e64d8388fc","system_id":"levelo_inurba_marseille","lat":43.23185,"lon":5.35563,"is_reserved":false,"is_disabled":false,"rental_uris":{"android":"levelo://app?vid=6f9f3f95-0161-4973-849a-64e64d8388fc","ios":"levelo://app?vid=6f9f3f95-0161-4973-849a-64e64d8388fc"},"vehicle_type_id":"4","last_reported":1740921170,"current_range_meters":18000,"station_id":"ce4bhu92rcd13ifvqi70","pricing_plan_id":"cebpf4jnsgd1na2vs0mg"},{"bike_id":"76f0ecc2-74d2-4458-9089-c4bdf8553e65","system_id":"levelo_inurba_marseille","lat":43.27189,"lon":5.41901,"is_reserved":false,"is_disabled":false,"rental_uris":{"android":"levelo://app?vid=76f0ecc2-74d2-4458-9089-c4bdf8553e65","ios":"levelo://app?vid=76f0ecc2-74d2-4458-9089-c4bdf8553e65"},"vehicle_type_id":"4","last_reported":1740921170,"current_range_meters":18800,"station_id":"","pricing_plan_id":"cebpf4jnsgd1na2vs0mg"},{"bike_id":"d1c0e715-6329-4d33-8e66-23065f23123c","system_id":"levelo_inurba_marseille","lat":43.28425,"lon":5.349997,"is_reserved":false,"is_disabled":false,"rental_uris":{"android":"levelo://app?vid=d1c0e715-6329-4d33-8e66-23065f23123c","ios":"levelo://app?vid=d1c0e715-6329-4d33-8e66-23065f23123c"},"vehicle_type_id":"4","last_reported":1740921170,"current_range_meters":18800,"station_id":"ce4bhbh2rcd13ifvqepg","pricing_plan_id":"cebpf4jnsgd1na2vs0mg"},{"bike_id":"43522287-478c-4660-a53b-581dfa7dea06","system_id":"levelo_inurba_marseille","lat":43.26026,"lon":5.37558,"is_reserved":false,"is_disabled":false,"rental_uris":{"android":"levelo://app?vid=43522287-478c-4660-a53b-581dfa7dea06","ios":"levelo://app?vid=43522287-478c-4660-a53b-581dfa7dea06"},"vehicle_type_id":"4","last_reported":1740921170,"current_range_meters":18800,"station_id":"ce4bhgh2rcd13ifvqfa0","pricing_plan_id":"cebpf4jnsgd1na2vs0mg"},{"bike_id":"815fdc9d-d9ee-4f77-862c-eff2b5576338","system_id":"levelo_inurba_marseille","lat":43.24391,"lon":5.37062,"is_reserved":false,"is_disabled":false,"rental_uris":{"android":"levelo://app?vid=815fdc9d-d9ee-4f77-862c-eff2b5576338","ios":"levelo://app?vid=815fdc9d-d9ee-4f77-862c-eff2b5576338"},"vehicle_type_id":"4","last_reported":1740921170,"current_range_meters":18800,"station_id":"ce4bhhh2rcd13ifvqfk0","pricing_plan_id":"cebpf4jnsgd1na2vs0mg"},{"bike_id":"b9519b76-44b7-4b2a-8116-cf6f7949d079","system_id":"levelo_inurba_marseille","lat":43.2319,"lon":5.39988,"is_reserved":false,"is_disabled":false,"rental_uris":{"android":"levelo://app?vid=b9519b76-44b7-4b2a-8116-cf6f7949d079","ios":"levelo://app?vid=b9519b76-44b7-4b2a-8116-cf6f7949d079"},"vehicle_type_id":"4","last_reported":1740921170,"current_range_meters":18800,"station_id":"ce4bhn12rcd13ifvqgqg","pricing_plan_id":"cebpf4jnsgd1na2vs0mg"},{"bike_id":"c998d71d-70fb-4a65-865b-053b01eba41f","system_id":"levelo_inurba_marseille","lat":43.27489,"lon":5.42452,"is_reserved":false,"is_disabled":false,"rental_uris":{"android":"levelo://app?vid=c998d71d-70fb-4a65-865b-053b01eba41f","ios":"levelo://app?vid=c998d71d-70fb-4a65-865b-053b01eba41f"},"vehicle_type_id":"4","last_reported":1740921170,"current_range_meters":18800,"station_id":"ce4bhn92rcd13ifvqgrg","pricing_plan_id":"cebpf4jnsgd1na2vs0mg"},{"bike_id":"619b2925-dbb3-48e7-90c5-93b3a6d675f9","system_id":"levelo_inurba_marseille","lat":43.23189,"lon":5.3556,"is_reserved":false,"is_disabled":false,"rental_uris":{"android":"levelo://app?vid=619b2925-dbb3-48e7-90c5-93b3a6d675f9","ios":"levelo://app?vid=619b2925-dbb3-48e7-90c5-93b3a6d675f9"},"vehicle_type_id":"4","last_reported":1740921170,"current_range_meters":18800,"station_id":"ce4bhu92rcd13ifvqi70","pricing_plan_id":"cebpf4jnsgd1na2vs0mg"},{"bike_id":"c8a38c48-9067-4038-99dd-d2222998f1ee","system_id":"levelo_inurba_marseille","lat":43.23062,"lon":5.35497,"is_reserved":false,"is_disabled":false,"rental_uris":{"android":"levelo://app?vid=c8a38c48-9067-4038-99dd-d2222998f1ee","ios":"levelo://app?vid=c8a38c48-9067-4038-99dd-d2222998f1ee"},"vehicle_type_id":"4","last_reported":1740921170,"current_range_meters":18800,"station_id":"cpo3342slgdg3j2ifvpg","pricing_plan_id":"cebpf4jnsgd1na2vs0mg"},{"bike_id":"cf817c6e-dbb8-468f-90aa-3f0f78ebb8ff","system_id":"levelo_inurba_marseille","lat":43.23065,"lon":5.35493,"is_reserved":false,"is_disabled":false,"rental_uris":{"android":"levelo://app?vid=cf817c6e-dbb8-468f-90aa-3f0f78ebb8ff","ios":"levelo://app?vid=cf817c6e-dbb8-468f-90aa-3f0f78ebb8ff"},"vehicle_type_id":"4","last_reported":1740921170,"current_range_meters":18800,"station_id":"cpo3342slgdg3j2ifvpg","pricing_plan_id":"cebpf4jnsgd1na2vs0mg"},{"bike_id":"ee64b076-db53-4a07-8a61-f790fb3d7f18","system_id":"levelo_inurba_marseille","lat":43.29598,"lon":5.37335,"is_reserved":false,"is_disabled":false,"rental_uris":{"android":"levelo://app?vid=ee64b076-db53-4a07-8a61-f790fb3d7f18","ios":"levelo://app?vid=ee64b076-db53-4a07-8a61-f790fb3d7f18"},"vehicle_type_id":"4","last_reported":1740921170,"current_range_meters":19200,"station_id":"","pricing_plan_id":"cebpf4jnsgd1na2vs0mg"},{"bike_id":"19927be9-86ed-42b7-8daf-44a101a71b64","system_id":"levelo_inurba_marseille","lat":43.25484,"lon":5.37645,"is_reserved":false,"is_disabled":false,"rental_uris":{"android":"levelo://app?vid=19927be9-86ed-42b7-8daf-44a101a71b64","ios":"levelo://app?vid=19927be9-86ed-42b7-8daf-44a101a71b64"},"vehicle_type_id":"4","last_reported":1740921170,"current_range_meters":19200,"station_id":"ce4bhh12rcd13ifvqff0","pricing_plan_id":"cebpf4jnsgd1na2vs0mg"},{"bike_id":"51453599-2f62-4fac-9d57-fe8e056e3cd4","system_id":"levelo_inurba_marseille","lat":43.23963,"lon":5.36628,"is_reserved":false,"is_disabled":false,"rental_uris":{"android":"levelo://app?vid=51453599-2f62-4fac-9d57-fe8e056e3cd4","ios":"levelo://app?vid=51453599-2f62-4fac-9d57-fe8e056e3cd4"},"vehicle_type_id":"4","last_reported":1740921170,"current_range_meters":19200,"station_id":"ce4bhi12rcd13ifvqfp0","pricing_plan_id":"cebpf4jnsgd1na2vs0mg"},{"bike_id":"b66d4e9e-4be4-4262-bf2f-e6d1cbff9499","system_id":"levelo_inurba_marseille","lat":43.23194,"lon":5.39985,"is_reserved":false,"is_disabled":false,"rental_uris":{"android":"levelo://app?vid=b66d4e9e-4be4-4262-bf2f-e6d1cbff9499","ios":"levelo://app?vid=b66d4e9e-4be4-4262-bf2f-e6d1cbff9499"},"vehicle_type_id":"4","last_reported":1740921170,"current_range_meters":19200,"station_id":"ce4bhn12rcd13ifvqgqg","pricing_plan_id":"cebpf4jnsgd1na2vs0mg"},{"bike_id":"76394e5b-b5d3-409a-954a-e09b2559a295","system_id":"levelo_inurba_marseille","lat":43.23189,"lon":5.3556,"is_reserved":false,"is_disabled":false,"rental_uris":{"android":"levelo://app?vid=76394e5b-b5d3-409a-954a-e09b2559a295","ios":"levelo://app?vid=76394e5b-b5d3-409a-954a-e09b2559a295"},"vehicle_type_id":"4","last_reported":1740921170,"current_range_meters":19200,"station_id":"ce4bhu92rcd13ifvqi70","pricing_plan_id":"cebpf4jnsgd1na2vs0mg"},{"bike_id":"2cf9581d-7963-40b3-89ed-e3cb8b93da63","system_id":"levelo_inurba_marseille","lat":43.2293,"lon":5.35381,"is_reserved":false,"is_disabled":false,"rental_uris":{"android":"levelo://app?vid=2cf9581d-7963-40b3-89ed-e3cb8b93da63","ios":"levelo://app?vid=2cf9581d-7963-40b3-89ed-e3cb8b93da63"},"vehicle_type_id":"4","last_reported":1740921170,"current_range_meters":19200,"station_id":"cpo3532slgdg3j2ikp40","pricing_plan_id":"cebpf4jnsgd1na2vs0mg"},{"bike_id":"4cc6662e-0020-4c3a-a43e-c2ba023bb13e","system_id":"levelo_inurba_marseille","lat":43.22931,"lon":5.3537,"is_reserved":false,"is_disabled":false,"rental_uris":{"android":"levelo://app?vid=4cc6662e-0020-4c3a-a43e-c2ba023bb13e","ios":"levelo://app?vid=4cc6662e-0020-4c3a-a43e-c2ba023bb13e"},"vehicle_type_id":"4","last_reported":1740921170,"current_range_meters":19200,"station_id":"cpo3532slgdg3j2ikp40","pricing_plan_id":"cebpf4jnsgd1na2vs0mg"},{"bike_id":"2ffd675c-ff8d-4fbc-87cd-ce47b22a4850","system_id":"levelo_inurba_marseille","lat":43.2991,"lon":5.37473,"is_reserved":false,"is_disabled":false,"rental_uris":{"android":"levelo://app?vid=2ffd675c-ff8d-4fbc-87cd-ce47b22a4850","ios":"levelo://app?vid=2ffd675c-ff8d-4fbc-87cd-ce47b22a4850"},"vehicle_type_id":"4","last_reported":1740921170,"current_range_meters":19600,"station_id":"ce4bgjh2rcd13ifvqbg0","pricing_plan_id":"cebpf4jnsgd1na2vs0mg"},{"bike_id":"0fe59e21-1698-4b85-92bb-50a9f7129172","system_id":"levelo_inurba_marseille","lat":43.30633,"lon":5.40086,"is_reserved":false,"is_disabled":false,"rental_uris":{"android":"levelo://app?vid=0fe59e21-1698-4b85-92bb-50a9f7129172","ios":"levelo://app?vid=0fe59e21-1698-4b85-92bb-50a9f7129172"},"vehicle_type_id":"4","last_reported":1740921170,"current_range_meters":19600,"station_id":"ce4bh112rcd13ifvqda0","pricing_plan_id":"cebpf4jnsgd1na2vs0mg"},{"bike_id":"ff027643-889a-494e-a23c-f267fbc8fe26","system_id":"levelo_inurba_marseille","lat":43.28267,"lon":5.35074,"is_reserved":false,"is_disabled":false,"rental_uris":{"android":"levelo://app?vid=ff027643-889a-494e-a23c-f267fbc8fe26","ios":"levelo://app?vid=ff027643-889a-494e-a23c-f267fbc8fe26"},"vehicle_type_id":"4","last_reported":1740921170,"current_range_meters":19600,"station_id":"ce4bhbp2rcd13ifvqerg","pricing_plan_id":"cebpf4jnsgd1na2vs0mg"},{"bike_id":"360cb8fb-ae2d-4942-a777-0b20fe1843ea","system_id":"levelo_inurba_marseille","lat":43.26559,"lon":5.3729,"is_reserved":false,"is_disabled":false,"rental_uris":{"android":"levelo://app?vid=360cb8fb-ae2d-4942-a777-0b20fe1843ea","ios":"levelo://app?vid=360cb8fb-ae2d-4942-a777-0b20fe1843ea"},"vehicle_type_id":"4","last_reported":1740921170,"current_range_meters":19600,"station_id":"ce4bhg12rcd13ifvqf70","pricing_plan_id":"cebpf4jnsgd1na2vs0mg"},{"bike_id":"6894180e-dc2e-4ec2-b57c-8a9cf022f99f","system_id":"levelo_inurba_marseille","lat":43.27323,"lon":5.39128,"is_reserved":false,"is_disabled":false,"rental_uris":{"android":"levelo://app?vid=6894180e-dc2e-4ec2-b57c-8a9cf022f99f","ios":"levelo://app?vid=6894180e-dc2e-4ec2-b57c-8a9cf022f99f"},"vehicle_type_id":"4","last_reported":1740921170,"current_range_meters":19600,"station_id":"ce4bhgp2rcd13ifvqfe0","pricing_plan_id":"cebpf4jnsgd1na2vs0mg"},{"bike_id":"8325dad4-1989-447f-b883-aaa2a76a4725","system_id":"levelo_inurba_marseille","lat":43.24392,"lon":5.37058,"is_reserved":false,"is_disabled":false,"rental_uris":{"android":"levelo://app?vid=8325dad4-1989-447f-b883-aaa2a76a4725","ios":"levelo://app?vid=8325dad4-1989-447f-b883-aaa2a76a4725"},"vehicle_type_id":"4","last_reported":1740921170,"current_range_meters":19600,"station_id":"ce4bhhh2rcd13ifvqfk0","pricing_plan_id":"cebpf4jnsgd1na2vs0mg"},{"bike_id":"81389cd8-51fb-45ff-ad9c-7bca8b462d46","system_id":"levelo_inurba_marseille","lat":43.25854,"lon":5.40883,"is_reserved":false,"is_disabled":false,"rental_uris":{"android":"levelo://app?vid=81389cd8-51fb-45ff-ad9c-7bca8b462d46","ios":"levelo://app?vid=81389cd8-51fb-45ff-ad9c-7bca8b462d46"},"vehicle_type_id":"4","last_reported":1740921170,"current_range_meters":19600,"station_id":"ce4bhm92rcd13ifvqglg","pricing_plan_id":"cebpf4jnsgd1na2vs0mg"},{"bike_id":"eb3dac2a-ddc4-44d0-954a-687d2d7a0cea","system_id":"levelo_inurba_marseille","lat":43.23059,"lon":5.35489,"is_reserved":false,"is_disabled":false,"rental_uris":{"android":"levelo://app?vid=eb3dac2a-ddc4-44d0-954a-687d2d7a0cea","ios":"levelo://app?vid=eb3dac2a-ddc4-44d0-954a-687d2d7a0cea"},"vehicle_type_id":"4","last_reported":1740921170,"current_range_meters":19600,"station_id":"cpo3342slgdg3j2ifvpg","pricing_plan_id":"cebpf4jnsgd1na2vs0mg"},{"bike_id":"4fb82f53-d921-4e34-9bfd-63bd8822c151","system_id":"levelo_inurba_marseille","lat":43.30279,"lon":5.37694,"is_reserved":false,"is_disabled":false,"rental_uris":{"android":"levelo://app?vid=4fb82f53-d921-4e34-9bfd-63bd8822c151","ios":"levelo://app?vid=4fb82f53-d921-4e34-9bfd-63bd8822c151"},"vehicle_type_id":"4","last_reported":1740921170,"current_range_meters":20000,"station_id":"ce4bguh2rcd13ifvqcj0","pricing_plan_id":"cebpf4jnsgd1na2vs0mg"},{"bike_id":"a59dda4b-ff34-4dd4-ae02-7e259e46696e","system_id":"levelo_inurba_marseille","lat":43.28267,"lon":5.35064,"is_reserved":false,"is_disabled":false,"rental_uris":{"android":"levelo://app?vid=a59dda4b-ff34-4dd4-ae02-7e259e46696e","ios":"levelo://app?vid=a59dda4b-ff34-4dd4-ae02-7e259e46696e"},"vehicle_type_id":"4","last_reported":1740921170,"current_range_meters":20000,"station_id":"ce4bhbp2rcd13ifvqerg","pricing_plan_id":"cebpf4jnsgd1na2vs0mg"},{"bike_id":"b61d3879-8975-4537-9ab5-45439d3cf5f8","system_id":"levelo_inurba_marseille","lat":43.25006,"lon":5.38928,"is_reserved":false,"is_disabled":false,"rental_uris":{"android":"levelo://app?vid=b61d3879-8975-4537-9ab5-45439d3cf5f8","ios":"levelo://app?vid=b61d3879-8975-4537-9ab5-45439d3cf5f8"},"vehicle_type_id":"4","last_reported":1740921170,"current_range_meters":20000,"station_id":"ce4bhgp2rcd13ifvqfd0","pricing_plan_id":"cebpf4jnsgd1na2vs0mg"},{"bike_id":"123d5adf-8e93-46cc-93b8-80cd2a012f7c","system_id":"levelo_inurba_marseille","lat":43.27083,"lon":5.42245,"is_reserved":false,"is_disabled":false,"rental_uris":{"android":"levelo://app?vid=123d5adf-8e93-46cc-93b8-80cd2a012f7c","ios":"levelo://app?vid=123d5adf-8e93-46cc-93b8-80cd2a012f7c"},"vehicle_type_id":"4","last_reported":1740921170,"current_range_meters":20000,"station_id":"ce4bhk92rcd13ifvqgb0","pricing_plan_id":"cebpf4jnsgd1na2vs0mg"},{"bike_id":"b28485f4-de04-4b86-8d47-6740f57eb4e1","system_id":"levelo_inurba_marseille","lat":43.23123,"lon":5.43703,"is_reserved":false,"is_disabled":false,"rental_uris":{"android":"levelo://app?vid=b28485f4-de04-4b86-8d47-6740f57eb4e1","ios":"levelo://app?vid=b28485f4-de04-4b86-8d47-6740f57eb4e1"},"vehicle_type_id":"4","last_reported":1740921170,"current_range_meters":20000,"station_id":"ce4bhmp2rcd13ifvqgog","pricing_plan_id":"cebpf4jnsgd1na2vs0mg"},