{"last_updated":1726726420,"ttl":30,"version":"2.2","data":{"bikes":[{"bike_id":"53f85c0f-9bc3-428d-8e67-2607741aa3ee","system_id":"levelo_inurba_marseille","lat":43.3254,"lon":5.4144,"is_reserved":false,"is_disabled":false,"rental_uris":{"android":"levelo://app?vid=53f85c0f-9bc3-428d-8e67-2607741aa3ee","ios":"levelo://app?vid=53f85c0f-9bc3-428d-8e67-2607741aa3ee"},"vehicle_type_id":"4","last_reported":1726726420,"current_range_meters":14400,"station_id":"ce4bhq12rcd13ifvqhhg","pricing_plan_id":"cebpf4jnsgd1na2vs0mg"},{"bike_id":"27b5feec-eb49-4e6b-b8b5-eb0a9558e177","system_id":"levelo_inurba_marseille","lat":43.28942,"lon":5.36639,"is_reserved":false,"is_disabled":false,"rental_uris":{"android":"levelo://app?vid=27b5feec-eb49-4e6b-b8b5-eb0a9558e177","ios":"levelo://app?vid=27b5feec-eb49-4e6b-b8b5-eb0a9558e177"},"vehicle_type_id":"4","last_reported":1726726420,"current_range_meters":27600,"station_id":"ce4bhap2rcd13ifvqek0","pricing_plan_id":"cebpf4jnsgd1na2vs0mg"},{"bike_id":"0288d614-6e4f-4934-ad15-cf509b72b6b9","system_id":"levelo_inurba_marseille","lat":43.27491,"lon":5.42454,"is_reserved":false,"is_disabled":false,"rental_uris":{"android":"levelo://app?vid=0288d614-6e4f-4934-ad15-cf509b72b6b9","ios":"levelo://app?vid=0288d614-6e4f-4934-ad15-cf509b72b6b9"},"vehicle_type_id":"4","last_reported":1726726420,"current_range_meters":38400,"station_id":"ce4bhn92rcd13ifvqgrg","pricing_plan_id":"cebpf4jnsgd1na2vs0mg"},{"bike_id":"897a2a90-a513-4bc6-aa39-1ef51f15e559","system_id":"levelo_inurba_marseille","lat":43.26959,"lon":5.38629,"is_reserved":false,"is_disabled":false,"rental_uris":{"android":"levelo://app?vid=897a2a90-a513-4bc6-aa39-1ef51f15e559","ios":"levelo://app?vid=897a2a90-a513-4bc6-aa39-1ef51f15e559"},"vehicle_type_id":"4","last_reported":1726726420,"current_range_meters":27200,"station_id":"ce4bhh92rcd13ifvqfh0","pricing_plan_id":"cebpf4jnsgd1na2vs0mg"},{"bike_id":"fac5b0dc-1ffd-436a-9f74-542ca3c9333b","system_id":"levelo_inurba_marseille","lat":43.26957,"lon":5.38635,"is_reserved":false,"is_disabled":false,"rental_uris":{"android":"levelo://app?vid=fac5b0dc-1ffd-436a-9f74-542ca3c9333b","ios":"levelo://app?vid=fac5b0dc-1ffd-436a-9f74-542ca3c9333b"},"vehicle_type_id":"4","last_reported":1726726420,"current_range_meters":28000,"station_id":"ce4bhh92rcd13ifvqfh0","pricing_plan_id":"cebpf4jnsgd1na2vs0mg"},{"bike_id":"6a3ddc2a-1be4-4577-a233-5cc468852dcd","system_id":"levelo_inurba_marseille","lat":43.28673,"lon":5.36326,"is_reserved":false,"is_disabled":false,"rental_uris":{"android":"levelo://app?vid=6a3ddc2a-1be4-4577-a233-5cc468852dcd","ios":"levelo://app?vid=6a3ddc2a-1be4-4577-a233-5cc468852dcd"},"vehicle_type_id":"4","last_reported":1726726420,"current_range_meters":38800,"station_id":"ce4bhah2rcd13ifvqej0","pricing_plan_id":"cebpf4jnsgd1na2vs0mg"},{"bike_id":"6cb80f7a-647c-431f-af80-0a5fa80b3e12","system_id":"levelo_inurba_marseille","lat":43.31323,"lon":5.39706,"is_reserved":false,"is_disabled":false,"rental_uris":{"android":"levelo://app?vid=6cb80f7a-647c-431f-af80-0a5fa80b3e12","ios":"levelo://app?vid=6cb80f7a-647c-431f-af80-0a5fa80b3e12"},"vehicle_type_id":"4","last_reported":1726726420,"current_range_meters":12000,"station_id":"ce4bgvp2rcd13ifvqcu0","pricing_plan_id":"cebpf4jnsgd1na2vs0mg"},{"bike_id":"3a170ab9-ca3e-4de9-a51f-55e0a962f031","system_id":"levelo_inurba_marseille","lat":43.30433,"lon":5.38884,"is_reserved":false,"is_disabled":false,"rental_uris":{"android":"levelo://app?vid=3a170ab9-ca3e-4de9-a51f-55e0a962f031","ios":"levelo://app?vid=3a170ab9-ca3e-4de9-a51f-55e0a962f031"},"vehicle_type_id":"4","last_reported":1726726420,"current_range_meters":12800,"station_id":"ce4bgk12rcd13ifvqbi0","pricing_plan_id":"cebpf4jnsgd1na2vs0mg"},{"bike_id":"dd0d6c40-5bec-4397-8580-2628aae2ec2a","system_id":"levelo_inurba_marseille","lat":43.22926,"lon":5.3538,"is_reserved":false,"is_disabled":false,"rental_uris":{"android":"levelo://app?vid=dd0d6c40-5bec-4397-8580-2628aae2ec2a","ios":"levelo://app?vid=dd0d6c40-5bec-4397-8580-2628aae2ec2a"},"vehicle_type_id":"4","last_reported":1726726420,"current_range_meters":38000,"station_id":"cpo3532slgdg3j2ikp40","pricing_plan_id":"cebpf4jnsgd1na2vs0mg"},{"bike_id":"64c965d1-5882-4cc1-b789-3a68c462abe0","system_id":"levelo_inurba_marseille","lat":43.29887,"lon":5.43647,"is_reserved":false,"is_disabled":false,"rental_uris":{"android":"levelo://app?vid=64c965d1-5882-4cc1-b789-3a68c462abe0","ios":"levelo://app?vid=64c965d1-5882-4cc1-b789-3a68c462abe0"},"vehicle_type_id":"4","last_reported":1726726420,"current_range_meters":34800,"station_id":"ce4bhpp2rcd13ifvqhfg","pricing_plan_id":"cebpf4jnsgd1na2vs0mg"},{"bike_id":"de4527bc-e72a-4313-adf3-7c0fc4eb6404","system_id":"levelo_inurba_marseille","lat":43.26495,"lon":5.39547,"is_reserved":false,"is_disabled":false,"rental_uris":{"android":"levelo://app?vid=de4527bc-e72a-4313-adf3-7c0fc4eb6404","ios":"levelo://app?vid=de4527bc-e72a-4313-adf3-7c0fc4eb6404"},"vehicle_type_id":"4","last_reported":1726726420,"current_range_meters":18800,"station_id":"ce4bhi12rcd13ifvqfq0","pricing_plan_id":"cebpf4jnsgd1na2vs0mg"},{"bike_id":"0d1bc426-802a-417c-a284-12ea603100ea","system_id":"levelo_inurba_marseille","lat":43.31331,"lon":5.3969,"is_reserved":false,"is_disabled":false,"rental_uris":{"android":"levelo://app?vid=0d1bc426-802a-417c-a284-12ea603100ea","ios":"levelo://app?vid=0d1bc426-802a-417c-a284-12ea603100ea"},"vehicle_type_id":"4","last_reported":1726726420,"current_range_meters":22800,"station_id":"ce4bgvp2rcd13ifvqcu0","pricing_plan_id":"cebpf4jnsgd1na2vs0mg"},{"bike_id":"70cccf6a-6f9f-43b0-a4d2-80222d66e7df","system_id":"levelo_inurba_marseille","lat":43.3361,"lon":5.41034,"is_reserved":false,"is_disabled":false,"rental_uris":{"android":"levelo://app?vid=70cccf6a-6f9f-43b0-a4d2-80222d66e7df","ios":"levelo://app?vid=70cccf6a-6f9f-43b0-a4d2-80222d66e7df"},"vehicle_type_id":"4","last_reported":1726726420,"current_range_meters":7200,"station_id":"ce4bhqh2rcd13ifvqhmg","pricing_plan_id":"cebpf4jnsgd1na2vs0mg"},{"bike_id":"12ca8798-d15b-49cc-a8e7-75f7c34ba400","system_id":"levelo_inurba_marseille","lat":43.33026,"lon":5.39039,"is_reserved":false,"is_disabled":false,"rental_uris":{"android":"levelo://app?vid=12ca8798-d15b-49cc-a8e7-75f7c34ba400","ios":"levelo://app?vid=12ca8798-d15b-49cc-a8e7-75f7c34ba400"},"vehicle_type_id":"4","last_reported":1726726420,"current_range_meters":32000,"station_id":"ce4bhr92rcd13ifvqhrg","pricing_plan_id":"cebpf4jnsgd1na2vs0mg"},{"bike_id":"6cbf7334-272b-475e-b8aa-f44f29cebaae","system_id":"levelo_inurba_marseille","lat":43.30476,"lon":5.37899,"is_reserved":false,"is_disabled":false,"rental_uris":{"android":"levelo://app?vid=6cbf7334-272b-475e-b8aa-f44f29cebaae","ios":"levelo://app?vid=6cbf7334-272b-475e-b8aa-f44f29cebaae"},"vehicle_type_id":"4","last_reported":1726726420,"current_range_meters":38800,"station_id":"ce4bgup2rcd13ifvqcn0","pricing_plan_id":"cebpf4jnsgd1na2vs0mg"},{"bike_id":"ea518a3b-2ba6-4aef-8e8b-1da3cf82019a","system_id":"levelo_inurba_marseille","lat":43.27496,"lon":5.42454,"is_reserved":false,"is_disabled":false,"rental_uris":{"android":"levelo://app?vid=ea518a3b-2ba6-4aef-8e8b-1da3cf82019a","ios":"levelo://app?vid=ea518a3b-2ba6-4aef-8e8b-1da3cf82019a"},"vehicle_type_id":"4","last_reported":1726726420,"current_range_meters":6400,"station_id":"ce4bhn92rcd13ifvqgrg","pricing_plan_id":"cebpf4jnsgd1na2vs0mg"},{"bike_id":"e532fd53-ad12-4848-82ea-70ac934c1c37","system_id":"levelo_inurba_marseille","lat":43.337444,"lon":5.374475,"is_reserved":false,"is_disabled":false,"rental_uris":{"android":"levelo://app?vid=e532fd53-ad12-4848-82ea-70ac934c1c37","ios":"levelo://app?vid=e532fd53-ad12-4848-82ea-70ac934c1c37"},"vehicle_type_id":"4","last_reported":1726726420,"current_range_meters":16800,"station_id":"","pricing_plan_id":"cebpf4jnsgd1na2vs0mg"},{"bike_id":"16aff90c-07c9-446e-b8cf-7b04ea13322c","system_id":"levelo_inurba_marseille","lat":43.28152,"lon":5.42635,"is_reserved":false,"is_disabled":false,"rental_uris":{"android":"levelo://app?vid=16aff90c-07c9-446e-b8cf-7b04ea13322c","ios":"levelo://app?vid=16aff90c-07c9-446e-b8cf-7b04ea13322c"},"vehicle_type_id":"4","last_reported":1726726420,"current_range_meters":36000,"station_id":"ce4bhnh2rcd13ifvqgug","pricing_plan_id":"cebpf4jnsgd1na2vs0mg"},{"bike_id":"2f048414-45ce-4bf0-ad24-aafede5b49c6","system_id":"levelo_inurba_marseille","lat":43.316833,"lon":5.404765,"is_reserved":false,"is_disabled":false,"rental_uris":{"android":"levelo://app?vid=2f048414-45ce-4bf0-ad24-aafede5b49c6","ios":"levelo://app?vid=2f048414-45ce-4bf0-ad24-aafede5b49c6"},"vehicle_type_id":"4","last_reported":1726726420,"current_range_meters":19200,"station_id":"ce4bh0p2rcd13ifvqd80","pricing_plan_id":"cebpf4jnsgd1na2vs0mg"},{"bike_id":"9a7bef7e-aa27-4b3e-b3a0-16082888faf1","system_id":"levelo_inurba_marseille","lat":43.25935,"lon":5.40906,"is_reserved":false,"is_disabled":false,"rental_uris":{"android":"levelo://app?vid=9a7bef7e-aa27-4b3e-b3a0-16082888faf1","ios":"levelo://app?vid=9a7bef7e-aa27-4b3e-b3a0-16082888faf1"},"vehicle_type_id":"4","last_reported":1726726420,"current_range_meters":36000,"station_id":"ce4bhm92rcd13ifvqglg","pricing_plan_id":"cebpf4jnsgd1na2vs0mg"},{"bike_id":"11862177-2df7-4fd6-b90b-88f803e9e4cd","system_id":"levelo_inurba_marseille","lat":43.30219,"lon":5.39469,"is_reserved":false,"is_disabled":false,"rental_uris":{"android":"levelo://app?vid=11862177-2df7-4fd6-b90b-88f803e9e4cd","ios":"levelo://app?vid=11862177-2df7-4fd6-b90b-88f803e9e4cd"},"vehicle_type_id":"4","last_reported":1726726420,"current_range_meters":11200,"station_id":"ce4bh0p2rcd13ifvqd70","pricing_plan_id":"cebpf4jnsgd1na2vs0mg"},{"bike_id":"ab6b454d-e1a8-4eaf-8a0e-951053d26f42","system_id":"levelo_inurba_marseille","lat":43.30216,"lon":5.39484,"is_reserved":false,"is_disabled":false,"rental_uris":{"android":"levelo://app?vid=ab6b454d-e1a8-4eaf-8a0e-951053d26f42","ios":"levelo://app?vid=ab6b454d-e1a8-4eaf-8a0e-951053d26f42"},"vehicle_type_id":"4","last_reported":1726726420,"current_range_meters":24400,"station_id":"ce4bh0p2rcd13ifvqd70","pricing_plan_id":"cebpf4jnsgd1na2vs0mg"},{"bike_id":"2db44151-2f7b-460b-84e2-a13f0a535ee3","system_id":"levelo_inurba_marseille","lat":43.30146,"lon":5.37407,"is_reserved":false,"is_disabled":false,"rental_uris":{"android":"levelo://app?vid=2db44151-2f7b-460b-84e2-a13f0a535ee3","ios":"levelo://app?vid=2db44151-2f7b-460b-84e2-a13f0a535ee3"},"vehicle_type_id":"4","last_reported":1726726420,"current_range_meters":38800,"station_id":"ce4bgs92rcd13ifvqcc0","pricing_plan_id":"cebpf4jnsgd1na2vs0mg"},{"bike_id":"a48c0f10-3a7a-4fe8-8343-dded0834619f","system_id":"levelo_inurba_marseille","lat":43.240788,"lon":5.377555,"is_reserved":false,"is_disabled":false,"rental_uris":{"android":"levelo://app?vid=a48c0f10-3a7a-4fe8-8343-dded0834619f","ios":"levelo://app?vid=a48c0f10-3a7a-4fe8-8343-dded0834619f"},"vehicle_type_id":"4","last_reported":1726726420,"current_range_meters":7200,"station_id":"ce4bhnp2rcd13ifvqgvg","pricing_plan_id":"cebpf4jnsgd1na2vs0mg"},{"bike_id":"c109bc2a-cf6a-476f-8eb2-34e7b0300abd","system_id":"levelo_inurba_marseille","lat":43.2693,"lon":5.38927,"is_reserved":false,"is_disabled":false,"rental_uris":{"android":"levelo://app?vid=c109bc2a-cf6a-476f-8eb2-34e7b0300abd","ios":"levelo://app?vid=c109bc2a-cf6a-476f-8eb2-34e7b0300abd"},"vehicle_type_id":"4","last_reported":1726726420,"current_range_meters":36400,"station_id":"ce4bhhh2rcd13ifvqfl0","pricing_plan_id":"cebpf4jnsgd1na2vs0mg"},{"bike_id":"cf720852-d054-4808-8191-b09aa1798391","system_id":"levelo_inurba_marseille","lat":43.299741,"lon":5.385239,"is_reserved":false,"is_disabled":false,"rental_uris":{"android":"levelo://app?vid=cf720852-d054-4808-8191-b09aa1798391","ios":"levelo://app?vid=cf720852-d054-4808-8191-b09aa1798391"},"vehicle_type_id":"4","last_reported":1726726420,"current_range_meters":4000,"station_id":"ce4bgj92rcd13ifvqbd0","pricing_plan_id":"cebpf4jnsgd1na2vs0mg"},{"bike_id":"c07ce5f7-e052-45b9-afe9-86b052059808","system_id":"levelo_inurba_marseille","lat":43.284715,"lon":5.38416,"is_reserved":false,"is_disabled":false,"rental_uris":{"android":"levelo://app?vid=c07ce5f7-e052-45b9-afe9-86b052059808","ios":"levelo://app?vid=c07ce5f7-e052-45b9-afe9-86b052059808"},"vehicle_type_id":"4","last_reported":1726726420,"current_range_meters":27600,"station_id":"ce4bh512rcd13ifvqe3g","pricing_plan_id":"cebpf4jnsgd1na2vs0mg"},{"bike_id":"e4ceb45b-ebcb-439f-b679-86d44ef39fd9","system_id":"levelo_inurba_marseille","lat":43.2693,"lon":5.38927,"is_reserved":false,"is_disabled":false,"rental_uris":{"android":"levelo://app?vid=e4ceb45b-ebcb-439f-b679-86d44ef39fd9","ios":"levelo://app?vid=e4ceb45b-ebcb-439f-b679-86d44ef39fd9"},"vehicle_type_id":"4","last_reported":1726726420,"current_range_meters":35200,"station_id":"ce4bhhh2rcd13ifvqfl0","pricing_plan_id":"cebpf4jnsgd1na2vs0mg"},{"bike_id":"842c8263-4bea-4e1b-a67b-6ac721ca3f7a","system_id":"levelo_inurba_marseille","lat":43.23155,"lon":5.43716,"is_reserved":false,"is_disabled":false,"rental_uris":{"android":"levelo://app?vid=842c8263-4bea-4e1b-a67b-6ac721ca3f7a","ios":"levelo://app?vid=842c8263-4bea-4e1b-a67b-6ac721ca3f7a"},"vehicle_type_id":"4","last_reported":1726726420,"current_range_meters":37600,"station_id":"ce4bhmp2rcd13ifvqgog","pricing_plan_id":"cebpf4jnsgd1na2vs0mg"},{"bike_id":"08013191-0010-4df8-b4b6-2ae0e922e956","system_id":"levelo_inurba_marseille","lat":43.288574,"lon":5.358487,"is_reserved":false,"is_disabled":false,"rental_uris":{"android":"levelo://app?vid=08013191-0010-4df8-b4b6-2ae0e922e956","ios":"levelo://app?vid=08013191-0010-4df8-b4b6-2ae0e922e956"},"vehicle_type_id":"4","last_reported":1726726420,"current_range_meters":25600,"station_id":"ce4bhb12rcd13ifvqem0","pricing_plan_id":"cebpf4jnsgd1na2vs0mg"},{"bike_id":"cd22d8e8-2cc1-4209-9e3a-3735691770e6","system_id":"levelo_inurba_marseille","lat":43.24388,"lon":5.3706,"is_reserved":false,"is_disabled":false,"rental_uris":{"android":"levelo://app?vid=cd22d8e8-2cc1-4209-9e3a-3735691770e6","ios":"levelo://app?vid=cd22d8e8-2cc1-4209-9e3a-3735691770e6"},"vehicle_type_id":"4","last_reported":1726726420,"current_range_meters":29600,"station_id":"ce4bhhh2rcd13ifvqfk0","pricing_plan_id":"cebpf4jnsgd1na2vs0mg"},{"bike_id":"97ab6dd7-178d-4a04-b974-d241232e826a","system_id":"levelo_inurba_marseille","lat":43.309634,"lon":5.390245,"is_reserved":false,"is_disabled":false,"rental_uris":{"android":"levelo://app?vid=97ab6dd7-178d-4a04-b974-d241232e826a","ios":"levelo://app?vid=97ab6dd7-178d-4a04-b974-d241232e826a"},"vehicle_type_id":"4","last_reported":1726726420,"current_range_meters":33600,"station_id":"ce4bgup2rcd13ifvqco0","pricing_plan_id":"cebpf4jnsgd1na2vs0mg"},{"bike_id":"8985a7e5-d9b7-4ee6-9335-fd8939fcdf07","system_id":"levelo_inurba_marseille","lat":43.27496,"lon":5.4245,"is_reserved":false,"is_disabled":false,"rental_uris":{"android":"levelo://app?vid=8985a7e5-d9b7-4ee6-9335-fd8939fcdf07","ios":"levelo://app?vid=8985a7e5-d9b7-4ee6-9335-fd8939fcdf07"},"vehicle_type_id":"4","last_reported":1726726420,"current_range_meters":22800,"station_id":"ce4bhn92rcd13ifvqgrg","pricing_plan_id":"cebpf4jnsgd1na2vs0mg"},{"bike_id":"78cd0229-63f4-4790-99c6-4a9a185a91ac","system_id":"levelo_inurba_marseille","lat":43.26055,"lon":5.39393,"is_reserved":false,"is_disabled":false,"rental_uris":{"android":"levelo://app?vid=78cd0229-63f4-4790-99c6-4a9a185a91ac","ios":"levelo://app?vid=78cd0229-63f4-4790-99c6-4a9a185a91ac"},"vehicle_type_id":"4","last_reported":1726726420,"current_range_meters":38800,"station_id":"ce4bhh92rcd13ifvqfj0","pricing_plan_id":"cebpf4jnsgd1na2vs0mg"},{"bike_id":"5ee72852-9360-467f-8628-81c7887b89c6","system_id":"levelo_inurba_marseille","lat":43.24024,"lon":5.37779,"is_reserved":false,"is_disabled":false,"rental_uris":{"android":"levelo://app?vid=5ee72852-9360-467f-8628-81c7887b89c6","ios":"levelo://app?vid=5ee72852-9360-467f-8628-81c7887b89c6"},"vehicle_type_id":"4","last_reported":1726726420,"current_range_meters":19200,"station_id":"","pricing_plan_id":"cebpf4jnsgd1na2vs0mg"},{"bike_id":"503364ec-3315-4abd-a585-069a4f356547","system_id":"levelo_inurba_marseille","lat":43.28461,"lon":5.35883,"is_reserved":false,"is_disabled":false,"rental_uris":{"android":"levelo://app?vid=503364ec-3315-4abd-a585-069a4f356547","ios":"levelo://app?vid=503364ec-3315-4abd-a585-069a4f356547"},"vehicle_type_id":"4","last_reported":1726726420,"current_range_meters":38000,"station_id":"ce4bhah2rcd13ifvqei0","pricing_plan_id":"cebpf4jnsgd1na2vs0mg"},{"bike_id":"036ab25f-0c34-4c45-8e88-1fc9200da6fd","system_id":"levelo_inurba_marseille","lat":43.27181,"lon":5.42705,"is_reserved":false,"is_disabled":false,"rental_uris":{"android":"levelo://app?vid=036ab25f-0c34-4c45-8e88-1fc9200da6fd","ios":"levelo://app?vid=036ab25f-0c34-4c45-8e88-1fc9200da6fd"},"vehicle_type_id":"4","last_reported":1726726420,"current_range_meters":30400,"station_id":"","pricing_plan_id":"cebpf4jnsgd1na2vs0mg"},{"bike_id":"c2272d1c-de85-40c3-8a06-70b6bf4106b7","system_id":"levelo_inurba_marseille","lat":43.30802,"lon":5.43529,"is_reserved":false,"is_disabled":false,"rental_uris":{"android":"levelo://app?vid=c2272d1c-de85-40c3-8a06-70b6bf4106b7","ios":"levelo://app?vid=c2272d1c-de85-40c3-8a06-70b6bf4106b7"},"vehicle_type_id":"4","last_reported":1726726420,"current_range_meters":38000,"station_id":"ce4bhph2rcd13ifvqheg","pricing_plan_id":"cebpf4jnsgd1na2vs0mg"},{"bike_id":"216e77a5-6599-4123-9fad-4bcb1e96f8f7","system_id":"levelo_inurba_marseille","lat":43.27808,"lon":5.40703,"is_reserved":false,"is_disabled":false,"rental_uris":{"android":"levelo://app?vid=216e77a5-6599-4123-9fad-4bcb1e96f8f7","ios":"levelo://app?vid=216e77a5-6599-4123-9fad-4bcb1e96f8f7"},"vehicle_type_id":"4","last_reported":1726726420,"current_range_meters":37600,"station_id":"ce4bhnh2rcd13ifvqgtg","pricing_plan_id":"cebpf4jnsgd1na2vs0mg"},{"bike_id":"3a25a5b1-9593-4cec-86f9-39274f1b1719","system_id":"levelo_inurba_marseille","lat":43.2756,"lon":5.38414,"is_reserved":false,"is_disabled":false,"rental_uris":{"android":"levelo://app?vid=3a25a5b1-9593-4cec-86f9-39274f1b1719","ios":"levelo://app?vid=3a25a5b1-9593-4cec-86f9-39274f1b1719"},"vehicle_type_id":"4","last_reported":1726726420,"current_range_meters":32000,"station_id":"ce4bhh92rcd13ifvqfi0","pricing_plan_id":"cebpf4jnsgd1na2vs0mg"},{"bike_id":"6ac0eb2f-9542-4934-b248-49828bcb22c2","system_id":"levelo_inurba_marseille","lat":43.275,"lon":5.42449,"is_reserved":false,"is_disabled":false,"rental_uris":{"android":"levelo://app?vid=6ac0eb2f-9542-4934-b248-49828bcb22c2","ios":"levelo://app?vid=6ac0eb2f-9542-4934-b248-49828bcb22c2"},"vehicle_type_id":"4","last_reported":1726726420,"current_range_meters":20000,"station_id":"ce4bhn92rcd13ifvqgrg","pricing_plan_id":"cebpf4jnsgd1na2vs0mg"},{"bike_id":"5c20a958-d490-41db-84a7-f9730ee7ce03","system_id":"levelo_inurba_marseille","lat":43.29571,"lon":5.39955,"is_reserved":false,"is_disabled":false,"rental_uris":{"android":"levelo://app?vid=5c20a958-d490-41db-84a7-f9730ee7ce03","ios":"levelo://app?vid=5c20a958-d490-41db-84a7-f9730ee7ce03"},"vehicle_type_id":"4","last_reported":1726726420,"current_range_meters":19200,"station_id":"ce4bh312rcd13ifvqdj0","pricing_plan_id":"cebpf4jnsgd1na2vs0mg"},{"bike_id":"38b7aaaa-5299-4007-8e90-4889ff1d3ce7","system_id":"levelo_inurba_marseille","lat":43.23149,"lon":5.43719,"is_reserved":false,"is_disabled":false,"rental_uris":{"android":"levelo://app?vid=38b7aaaa-5299-4007-8e90-4889ff1d3ce7","ios":"levelo://app?vid=38b7aaaa-5299-4007-8e90-4889ff1d3ce7"},"vehicle_type_id":"4","last_reported":1726726420,"current_range_meters":38800,"station_id":"ce4bhmp2rcd13ifvqgog","pricing_plan_id":"cebpf4jnsgd1na2vs0mg"},{"bike_id":"ab8b1643-9e7f-47cc-b599-33f414e2c958","system_id":"levelo_inurba_marseille","lat":43.23192,"lon":5.39986,"is_reserved":false,"is_disabled":false,"rental_uris":{"android":"levelo://app?vid=ab8b1643-9e7f-47cc-b599-33f414e2c958","ios":"levelo://app?vid=ab8b1643-9e7f-47cc-b599-33f414e2c958"},"vehicle_type_id":"4","last_reported":1726726420,"current_range_meters":38000,"station_id":"ce4bhn12rcd13ifvqgqg","pricing_plan_id":"cebpf4jnsgd1na2vs0mg"},{"bike_id":"c2667222-5d26-4d9c-a938-761c480fe584","system_id":"levelo_inurba_marseille","lat":43.3302,"lon":5.39048,"is_reserved":false,"is_disabled":false,"rental_uris":{"android":"levelo://app?vid=c2667222-5d26-4d9c-a938-761c480fe584","ios":"levelo://app?vid=c2667222-5d26-4d9c-a938-761c480fe584"},"vehicle_type_id":"4","last_reported":1726726420,"current_range_meters":8000,"station_id":"ce4bhr92rcd13ifvqhrg","pricing_plan_id":"cebpf4jnsgd1na2vs0mg"},{"bike_id":"7c01414b-caf6-4ee1-85f1-2c9de71dff39","system_id":"levelo_inurba_marseille","lat":43.30956,"lon":5.39019,"is_reserved":false,"is_disabled":false,"rental_uris":{"android":"levelo://app?vid=7c01414b-caf6-4ee1-85f1-2c9de71dff39","ios":"levelo://app?vid=7c01414b-caf6-4ee1-85f1-2c9de71dff39"},"vehicle_type_id":"4","last_reported":1726726420,"current_range_meters":38400,"station_id":"ce4bgup2rcd13ifvqco0","pricing_plan_id":"cebpf4jnsgd1na2vs0mg"},{"bike_id":"ddca4962-c40e-46ba-8aef-4fa6c38b3949","system_id":"levelo_inurba_marseille","lat":43.30156,"lon":5.38082,"is_reserved":false,"is_disabled":false,"rental_uris":{"android":"levelo://app?vid=ddca4962-c40e-46ba-8aef-4fa6c38b3949","ios":"levelo://app?vid=ddca4962-c40e-46ba-8aef-4fa6c38b3949"},"vehicle_type_id":"4","last_reported":1726726420,"current_range_meters":22400,"station_id":"ce4bgjp2rcd13ifvqbh0","pricing_plan_id":"cebpf4jnsgd1na2vs0mg"},{"bike_id":"31674790-8365-40d2-bdef-19029206a5f3","system_id":"levelo_inurba_marseille","lat":43.30481,"lon":5.37903,"is_reserved":false,"is_disabled":false,"rental_uris":{"android":"levelo://app?vid=31674790-8365-40d2-bdef-19029206a5f3","ios":"levelo://app?vid=31674790-8365-40d2-bdef-19029206a5f3"},"vehicle_type_id":"4","last_reported":1726726420,"current_range_meters":35200,"station_id":"ce4bgup2rcd13ifvqcn0","pricing_plan_id":"cebpf4jnsgd1na2vs0mg"},{"bike_id":"b3d81444-f632-4a95-88b6-a30aa314cc07","system_id":"levelo_inurba_marseille","lat":43.28154,"lon":5.42645,"is_reserved":false,"is_disabled":false,"rental_uris":{"android":"levelo://app?vid=b3d81444-f632-4a95-88b6-a30aa314cc07","ios":"levelo://app?vid=b3d81444-f632-4a95-88b6-a30aa314cc07"},"vehicle_type_id":"4","last_reported":1726726420,"current_range_meters":28000,"station_id":"ce4bhnh2rcd13ifvqgug","pricing_plan_id":"cebpf4jnsgd1na2vs0mg"},{"bike_id":"93255a21-7eec-4678-9961-8d2c1b5f60b6","system_id":"levelo_inurba_marseille","lat":43.325378,"lon":5.414239,"is_reserved":false,"is_disabled":false,"rental_uris":{"android":"levelo://app?vid=93255a21-7eec-4678-9961-8d2c1b5f60b6","ios":"levelo://app?vid=93255a21-7eec-4678-9961-8d2c1b5f60b6"},"vehicle_type_id":"4","last_reported":1726726420,"current_range_meters":37600,"station_id":"ce4bhq12rcd13ifvqhhg","pricing_plan_id":"cebpf4jnsgd1na2vs0mg"},{"bike_id":"46c49fa3-4ea3-4747-b131-22aedac7130f","system_id":"levelo_inurba_marseille","lat":43.2465,"lon":5.38892,"is_reserved":false,"is_disabled":false,"rental_uris":{"android":"levelo://app?vid=46c49fa3-4ea3-4747-b131-22aedac7130f","ios":"levelo://app?vid=46c49fa3-4ea3-4747-b131-22aedac7130f"},"vehicle_type_id":"4","last_reported":1726726420,"current_range_meters":27200,"station_id":"ce4bhg12rcd13ifvqf60","pricing_plan_id":"cebpf4jnsgd1na2vs0mg"},{"bike_id":"cc37381e-9335-4b4e-a554-8ca8c7c27f92","system_id":"levelo_inurba_marseille","lat":43.27488,"lon":5.42454,"is_reserved":false,"is_disabled":false,"rental_uris":{"android":"levelo://app?vid=cc37381e-9335-4b4e-a554-8ca8c7c27f92","ios":"levelo://app?vid=cc37381e-9335-4b4e-a554-8ca8c7c27f92"},"vehicle_type_id":"4","last_reported":1726726420,"current_range_meters":8000,"station_id":"ce4bhn92rcd13ifvqgrg","pricing_plan_id":"cebpf4jnsgd1na2vs0mg"},{"bike_id":"888ff640-8b2d-4406-bb74-d69912626280","system_id":"levelo_inurba_marseille","lat":43.311187,"lon":5.377683,"is_reserved":false,"is_disabled":false,"rental_uris":{"android":"levelo://app?vid=888ff640-8b2d-4406-bb74-d69912626280","ios":"levelo://app?vid=888ff640-8b2d-4406-bb74-d69912626280"},"vehicle_type_id":"4","last_reported":1726726420,"current_range_meters":9600,"station_id":"ce4bgt92rcd13ifvqcg0","pricing_plan_id":"cebpf4jnsgd1na2vs0mg"},{"bike_id":"a7ba0621-91e3-4669-b4dd-c57703025c57","system_id":"levelo_inurba_marseille","lat":43.31355,"lon":5.3671,"is_reserved":false,"is_disabled":false,"rental_uris":{"android":"levelo://app?vid=a7ba0621-91e3-4669-b4dd-c57703025c57","ios":"levelo://app?vid=a7ba0621-91e3-4669-b4dd-c57703025c57"},"vehicle_type_id":"4","last_reported":1726726420,"current_range_meters":34800,"station_id":"ce4bgr92rcd13ifvqc6g","pricing_plan_id":"cebpf4jnsgd1na2vs0mg"},{"bike_id":"cea90d14-d4cd-44bb-a828-f022d2c2c276","system_id":"levelo_inurba_marseille","lat":43.26952,"lon":5.3863,"is_reserved":false,"is_disabled":false,"rental_uris":{"android":"levelo://app?vid=cea90d14-d4cd-44bb-a828-f022d2c2c276","ios":"levelo://app?vid=cea90d14-d4cd-44bb-a828-f022d2c2c276"},"vehicle_type_id":"4","last_reported":1726726420,"current_range_meters":38800,"station_id":"ce4bhh92rcd13ifvqfh0","pricing_plan_id":"cebpf4jnsgd1na2vs0mg"},{"bike_id":"215e1243-d773-4d5c-99dd-c9c39a44c76c","system_id":"levelo_inurba_marseille","lat":43.31272,"lon":5.4017,"is_reserved":false,"is_disabled":false,"rental_uris":{"android":"levelo://app?vid=215e1243-d773-4d5c-99dd-c9c39a44c76c","ios":"levelo://app?vid=215e1243-d773-4d5c-99dd-c9c39a44c76c"},"vehicle_type_id":"4","last_reported":1726726420,"current_range_meters":38800,"station_id":"ce4bh092rcd13ifvqd30","pricing_plan_id":"cebpf4jnsgd1na2vs0mg"},{"bike_id":"154787d4-03e2-4b4a-97d7-df4da2486b91","system_id":"levelo_inurba_marseille","lat":43.30478,"lon":5.37919,"is_reserved":false,"is_disabled":false,"rental_uris":{"android":"levelo://app?vid=154787d4-03e2-4b4a-97d7-df4da2486b91","ios":"levelo://app?vid=154787d4-03e2-4b4a-97d7-df4da2486b91"},"vehicle_type_id":"4","last_reported":1726726420,"current_range_meters":28800,"station_id":"ce4bgup2rcd13ifvqcn0","pricing_plan_id":"cebpf4jnsgd1na2vs0mg"},{"bike_id":"7b0e0d0e-650d-40d7-95d7-ab8fb85396b0","system_id":"levelo_inurba_marseille","lat":43.2407,"lon":5.37763,"is_reserved":false,"is_disabled":false,"rental_uris":{"android":"levelo://app?vid=7b0e0d0e-650d-40d7-95d7-ab8fb85396b0","ios":"levelo://app?vid=7b0e0d0e-650d-40d7-95d7-ab8fb85396b0"},"vehicle_type_id":"4","last_reported":1726726420,"current_range_meters":36000,"station_id":"ce4bhnp2rcd13ifvqgvg","pricing_plan_id":"cebpf4jnsgd1na2vs0mg"},{"bike_id":"a0ea4c20-eeae-4054-a4b5-699b69c4c176","system_id":"levelo_inurba_marseille","lat":43.29558,"lon":5.42287,"is_reserved":false,"is_disabled":false,"rental_uris":{"android":"levelo://app?vid=a0ea4c20-eeae-4054-a4b5-699b69c4c176","ios":"levelo://app?vid=a0ea4c20-eeae-4054-a4b5-699b69c4c176"},"vehicle_type_id":"4","last_reported":1726726420,"current_range_meters":15200,"station_id":"ce4bhph2rcd13ifvqhdg","pricing_plan_id":"cebpf4jnsgd1na2vs0mg"},{"bike_id":"f7f5db0e-acdc-46e3-a241-02bb5c5ee4fc","system_id":"levelo_inurba_marseille","lat":43.33606,"lon":5.4103,"is_reserved":false,"is_disabled":false,"rental_uris":{"android":"levelo://app?vid=f7f5db0e-acdc-46e3-a241-02bb5c5ee4fc","ios":"levelo://app?vid=f7f5db0e-acdc-46e3-a241-02bb5c5ee4fc"},"vehicle_type_id":"4","last_reported":1726726420,"current_range_meters":35600,"station_id":"ce4bhqh2rcd13ifvqhmg","pricing_plan_id":"cebpf4jnsgd1na2vs0mg"},{"bike_id":"471f5d2b-6054-4015-b2d1-3adfb1b3fc49","system_id":"levelo_inurba_marseille","lat":43.24069,"lon":5.3776,"is_reserved":false,"is_disabled":false,"rental_uris":{"android":"levelo://app?vid=471f5d2b-6054-4015-b2d1-3adfb1b3fc49","ios":"levelo://app?vid=471f5d2b-6054-4015-b2d1-3adfb1b3fc49"},"vehicle_type_id":"4","last_reported":1726726420,"current_range_meters":7200,"station_id":"ce4bhnp2rcd13ifvqgvg","pricing_plan_id":"cebpf4jnsgd1na2vs0mg"},{"bike_id":"2f8944d6-8b2a-464d-8a19-ec487b750fad","system_id":"levelo_inurba_marseille","lat":43.24078,"lon":5.37751,"is_reserved":false,"is_disabled":false,"rental_uris":{"android":"levelo://app?vid=2f8944d6-8b2a-464d-8a19-ec487b750fad","ios":"levelo://app?vid=2f8944d6-8b2a-464d-8a19-ec487b750fad"},"vehicle_type_id":"4","last_reported":1726726420,"current_range_meters":36400,"station_id":"ce4bhnp2rcd13ifvqgvg","pricing_plan_id":"cebpf4jnsgd1na2vs0mg"},{"bike_id":"065a2a60-4855-4dea-b7dd-2a45ee19806d","system_id":"levelo_inurba_marseille","lat":43.28927,"lon":5.36396,"is_reserved":false,"is_disabled":false,"rental_uris":{"android":"levelo://app?vid=065a2a60-4855-4dea-b7dd-2a45ee19806d","ios":"levelo://app?vid=065a2a60-4855-4dea-b7dd-2a45ee19806d"},"vehicle_type_id":"4","last_reported":1726726420,"current_range_meters":38000,"station_id":"ce4bhc92rcd13ifvqetg","pricing_plan_id":"cebpf4jnsgd1na2vs0mg"},{"bike_id":"3478db76-45d7-45d3-b887-36ba03898ebd","system_id":"levelo_inurba_marseille","lat":43.23152,"lon":5.43711,"is_reserved":false,"is_disabled":false,"rental_uris":{"android":"levelo://app?vid=3478db76-45d7-45d3-b887-36ba03898ebd","ios":"levelo://app?vid=3478db76-45d7-45d3-b887-36ba03898ebd"},"vehicle_type_id":"4","last_reported":1726726420,"current_range_meters":39200,"station_id":"ce4bhmp2rcd13ifvqgog","pricing_plan_id":"cebpf4jnsgd1na2vs0mg"},{"bike_id":"761a35a6-e907-418f-bd3d-0a17b37b4855","system_id":"levelo_inurba_marseille","lat":43.29787,"lon":5.37103,"is_reserved":false,"is_disabled":false,"rental_uris":{"android":"levelo://app?vid=761a35a6-e907-418f-bd3d-0a17b37b4855","ios":"levelo://app?vid=761a35a6-e907-418f-bd3d-0a17b37b4855"},"vehicle_type_id":"4","last_reported":1726726420,"current_range_meters":37600,"station_id":"ce4bgop2rcd13ifvqc1g","pricing_plan_id":"cebpf4jnsgd1na2vs0mg"},{"bike_id":"2ddac43b-c3bc-41d6-85d4-b443eb8a122b","system_id":"levelo_inurba_marseille","lat":43.3015,"lon":5.38097,"is_reserved":false,"is_disabled":false,"rental_uris":{"android":"levelo://app?vid=2ddac43b-c3bc-41d6-85d4-b443eb8a122b","ios":"levelo://app?vid=2ddac43b-c3bc-41d6-85d4-b443eb8a122b"},"vehicle_type_id":"4","last_reported":1726726420,"current_range_meters":10000,"station_id":"ce4bgjp2rcd13ifvqbh0","pricing_plan_id":"cebpf4jnsgd1na2vs0mg"},{"bike_id":"86d2fbbc-c469-4ea8-9619-326d1c533696","system_id":"levelo_inurba_marseille","lat":43.25488,"lon":5.37648,"is_reserved":false,"is_disabled":false,"rental_uris":{"android":"levelo://app?vid=86d2fbbc-c469-4ea8-9619-326d1c533696","ios":"levelo://app?vid=86d2fbbc-c469-4ea8-9619-326d1c533696"},"vehicle_type_id":"4","last_reported":1726726420,"current_range_meters":37600,"station_id":"ce4bhh12rcd13ifvqff0","pricing_plan_id":"cebpf4jnsgd1na2vs0mg"},{"bike_id":"67e3c1fd-cc33-408d-a8d2-3988da69d6ab","system_id":"levelo_inurba_marseille","lat":43.33612,"lon":5.41031,"is_reserved":false,"is_disabled":false,"rental_uris":{"android":"levelo://app?vid=67e3c1fd-cc33-408d-a8d2-3988da69d6ab","ios":"levelo://app?vid=67e3c1fd-cc33-408d-a8d2-3988da69d6ab"},"vehicle_type_id":"4","last_reported":1726726420,"current_range_meters":20000,"station_id":"ce4bhqh2rcd13ifvqhmg","pricing_plan_id":"cebpf4jnsgd1na2vs0mg"},{"bike_id":"a7ec649a-e17d-4f88-b0c2-2dd13506f258","system_id":"levelo_inurba_marseille","lat":43.28154,"lon":5.42631,"is_reserved":false,"is_disabled":false,"rental_uris":{"android":"levelo://app?vid=a7ec649a-e17d-4f88-b0c2-2dd13506f258","ios":"levelo://app?vid=a7ec649a-e17d-4f88-b0c2-2dd13506f258"},"vehicle_type_id":"4","last_reported":1726726420,"current_range_meters":20400,"station_id":"ce4bhnh2rcd13ifvqgug","pricing_plan_id":"cebpf4jnsgd1na2vs0mg"},{"bike_id":"0e243e9a-10d1-4e5c-b2ea-a305b4d44bb3","system_id":"levelo_inurba_marseille","lat":43.2693,"lon":5.38932,"is_reserved":false,"is_disabled":false,"rental_uris":{"android":"levelo://app?vid=0e243e9a-10d1-4e5c-b2ea-a305b4d44bb3","ios":"levelo://app?vid=0e243e9a-10d1-4e5c-b2ea-a305b4d44bb3"},"vehicle_type_id":"4","last_reported":1726726420,"current_range_meters":30000,"station_id":"ce4bhhh2rcd13ifvqfl0","pricing_plan_id":"cebpf4jnsgd1na2vs0mg"},{"bike_id":"d51e63c1-03b4-44e1-a886-acba0b39df00","system_id":"levelo_inurba_marseille","lat":43.25576,"lon":5.38236,"is_reserved":false,"is_disabled":false,"rental_uris":{"android":"levelo://app?vid=d51e63c1-03b4-44e1-a886-acba0b39df00","ios":"levelo://app?vid=d51e63c1-03b4-44e1-a886-acba0b39df00"},"vehicle_type_id":"4","last_reported":1726726420,"current_range_meters":36400,"station_id":"ce4bhih2rcd13ifvqfs0","pricing_plan_id":"cebpf4jnsgd1na2vs0mg"},{"bike_id":"8f63ed9f-0d3a-4ab5-baf2-ef0c4ac64707","system_id":"levelo_inurba_marseille","lat":43.29557,"lon":5.42283,"is_reserved":false,"is_disabled":false,"rental_uris":{"android":"levelo://app?vid=8f63ed9f-0d3a-4ab5-baf2-ef0c4ac64707","ios":"levelo://app?vid=8f63ed9f-0d3a-4ab5-baf2-ef0c4ac64707"},"vehicle_type_id":"4","last_reported":1726726420,"current_range_meters":38800,"station_id":"ce4bhph2rcd13ifvqhdg","pricing_plan_id":"cebpf4jnsgd1na2vs0mg"},{"bike_id":"4b48ec30-1de3-4632-bfe7-ccb540780500","system_id":"levelo_inurba_marseille","lat":43.27959,"lon":5.3871,"is_reserved":false,"is_disabled":false,"rental_uris":{"android":"levelo://app?vid=4b48ec30-1de3-4632-bfe7-ccb540780500","ios":"levelo://app?vid=4b48ec30-1de3-4632-bfe7-ccb540780500"},"vehicle_type_id":"4","last_reported":1726726420,"current_range_meters":38800,"station_id":"ce4bhg12rcd13ifvqf80","pricing_plan_id":"cebpf4jnsgd1na2vs0mg"},{"bike_id":"86d2afc3-1bd4-4fe5-b347-119a3a37d916","system_id":"levelo_inurba_marseille","lat":43.26809,"lon":5.40259,"is_reserved":false,"is_disabled":false,"rental_uris":{"android":"levelo://app?vid=86d2afc3-1bd4-4fe5-b347-119a3a37d916","ios":"levelo://app?vid=86d2afc3-1bd4-4fe5-b347-119a3a37d916"},"vehicle_type_id":"4","last_reported":1726726420,"current_range_meters":38800,"station_id":"ce501612rcd8frsf0b60","pricing_plan_id":"cebpf4jnsgd1na2vs0mg"},{"bike_id":"beb15bd0-b449-4862-b0ef-bc6b9508122c","system_id":"levelo_inurba_marseille","lat":43.27617,"lon":5.36109,"is_reserved":false,"is_disabled":false,"rental_uris":{"android":"levelo://app?vid=beb15bd0-b449-4862-b0ef-bc6b9508122c","ios":"levelo://app?vid=beb15bd0-b449-4862-b0ef-bc6b9508122c"},"vehicle_type_id":"4","last_reported":1726726420,"current_range_meters":4800,"station_id":"ce4bgj92rcd13ifvqbe0","pricing_plan_id":"cebpf4jnsgd1na2vs0mg"},{"bike_id":"cd968e42-393c-4e70-b2a3-3e3c0e94ef14","system_id":"levelo_inurba_marseille","lat":43.30594,"lon":5.39354,"is_reserved":false,"is_disabled":false,"rental_uris":{"android":"levelo://app?vid=cd968e42-393c-4e70-b2a3-3e3c0e94ef14","ios":"levelo://app?vid=cd968e42-393c-4e70-b2a3-3e3c0e94ef14"},"vehicle_type_id":"4","last_reported":1726726420,"current_range_meters":4400,"station_id":"ce4bh0p2rcd13ifvqd80","pricing_plan_id":"cebpf4jnsgd1na2vs0mg"},{"bike_id":"5d78b308-9505-4ed0-832a-dc6eb31a5971","system_id":"levelo_inurba_marseille","lat":43.25582,"lon":5.3824,"is_reserved":false,"is_disabled":false,"rental_uris":{"android":"levelo://app?vid=5d78b308-9505-4ed0-832a-dc6eb31a5971","ios":"levelo://app?vid=5d78b308-9505-4ed0-832a-dc6eb31a5971"},"vehicle_type_id":"4","last_reported":1726726420,"current_range_meters":21600,"station_id":"ce4bhih2rcd13ifvqfs0","pricing_plan_id":"cebpf4jnsgd1na2vs0mg"},{"bike_id":"a78358d4-2e0d-4d1b-9800-f677344b73bb","system_id":"levelo_inurba_marseille","lat":43.26956,"lon":5.38627,"is_reserved":false,"is_disabled":false,"rental_uris":{"android":"levelo://app?vid=a78358d4-2e0d-4d1b-9800-f677344b73bb","ios":"levelo://app?vid=a78358d4-2e0d-4d1b-9800-f677344b73bb"},"vehicle_type_id":"4","last_reported":1726726420,"current_range_meters":37600,"station_id":"ce4bhh92rcd13ifvqfh0","pricing_plan_id":"cebpf4jnsgd1na2vs0mg"},{"bike_id":"74875dfe-56f3-4674-9984-6b38cdebd68c","system_id":"levelo_inurba_marseille","lat":43.24651,"lon":5.38892,"is_reserved":false,"is_disabled":false,"rental_uris":{"android":"levelo://app?vid=74875dfe-56f3-4674-9984-6b38cdebd68c","ios":"levelo://app?vid=74875dfe-56f3-4674-9984-6b38cdebd68c"},"vehicle_type_id":"4","last_reported":1726726420,"current_range_meters":33600,"station_id":"ce4bhg12rcd13ifvqf60","pricing_plan_id":"cebpf4jnsgd1na2vs0mg"},{"bike_id":"c4c8acd1-ff3d-4806-8174-cea36604d882","system_id":"levelo_inurba_marseille","lat":43.29949,"lon":5.41318,"is_reserved":false,"is_disabled":false,"rental_uris":{"android":"levelo://app?vid=c4c8acd1-ff3d-4806-8174-cea36604d882","ios":"levelo://app?vid=c4c8acd1-ff3d-4806-8174-cea36604d882"},"vehicle_type_id":"4","last_reported":1726726420,"current_range_meters":32400,"station_id":"ce4bhp12rcd13ifvqh9g","pricing_plan_id":"cebpf4jnsgd1na2vs0mg"},{"bike_id":"7296939a-e07b-445c-bd52-40cde8ccbba2","system_id":"levelo_inurba_marseille","lat":43.26032,"lon":5.37548,"is_reserved":false,"is_disabled":false,"rental_uris":{"android":"levelo://app?vid=7296939a-e07b-445c-bd52-40cde8ccbba2","ios":"levelo://app?vid=7296939a-e07b-445c-bd52-40cde8ccbba2"},"vehicle_type_id":"4","last_reported":1726726420,"current_range_meters":38400,"station_id":"ce4bhgh2rcd13ifvqfa0","pricing_plan_id":"cebpf4jnsgd1na2vs0mg"},{"bike_id":"9ed9a460-9271-4e06-aa0c-9eb70f42c1a7","system_id":"levelo_inurba_marseille","lat":43.2996,"lon":5.41313,"is_reserved":false,"is_disabled":false,"rental_uris":{"android":"levelo://app?vid=9ed9a460-9271-4e06-aa0c-9eb70f42c1a7","ios":"levelo://app?vid=9ed9a460-9271-4e06-aa0c-9eb70f42c1a7"},"vehicle_type_id":"4","last_reported":1726726420,"current_range_meters":14800,"station_id":"ce4bhp12rcd13ifvqh9g","pricing_plan_id":"cebpf4jnsgd1na2vs0mg"},{"bike_id":"a84ccf15-a62f-4b0b-9163-e457f54dff33","system_id":"levelo_inurba_marseille","lat":43.28156,"lon":5.42637,"is_reserved":false,"is_disabled":false,"rental_uris":{"android":"levelo://app?vid=a84ccf15-a62f-4b0b-9163-e457f54dff33","ios":"levelo://app?vid=a84ccf15-a62f-4b0b-9163-e457f54dff33"},"vehicle_type_id":"4","last_reported":1726726420,"current_range_meters":10000,"station_id":"ce4bhnh2rcd13ifvqgug","pricing_plan_id":"cebpf4jnsgd1na2vs0mg"},{"bike_id":"0837e21b-0753-48ce-83a4-7328cfae4c5e","system_id":"levelo_inurba_marseille","lat":43.30611,"lon":5.37219,"is_reserved":false,"is_disabled":false,"rental_uris":{"android":"levelo://app?vid=0837e21b-0753-48ce-83a4-7328cfae4c5e","ios":"levelo://app?vid=0837e21b-0753-48ce-83a4-7328cfae4c5e"},"vehicle_type_id":"4","last_reported":1726726420,"current_range_meters":36400,"station_id":"ce4bgqh2rcd13ifvqc4g","pricing_plan_id":"cebpf4jnsgd1na2vs0mg"},{"bike_id":"51523a7c-bb1e-41a9-afc2-3721cc37c73c","system_id":"levelo_inurba_marseille","lat":43.2582,"lon":5.3943,"is_reserved":false,"is_disabled":false,"rental_uris":{"android":"levelo://app?vid=51523a7c-bb1e-41a9-afc2-3721cc37c73c","ios":"levelo://app?vid=51523a7c-bb1e-41a9-afc2-3721cc37c73c"},"vehicle_type_id":"4","last_reported":1726726420,"current_range_meters":37600,"station_id":"ce4bhip2rcd13ifvqft0","pricing_plan_id":"cebpf4jnsgd1na2vs0mg"},{"bike_id":"356cfe7d-8a0f-4d85-a739-7c2ea65146a0","system_id":"levelo_inurba_marseille","lat":43.24079,"lon":5.37757,"is_reserved":false,"is_disabled":false,"rental_uris":{"android":"levelo://app?vid=356cfe7d-8a0f-4d85-a739-7c2ea65146a0","ios":"levelo://app?vid=356cfe7d-8a0f-4d85-a739-7c2ea65146a0"},"vehicle_type_id":"4","last_reported":1726726420,"current_range_meters":25200,"station_id":"ce4bhnp2rcd13ifvqgvg","pricing_plan_id":"cebpf4jnsgd1na2vs0mg"},{"bike_id":"0c903ba0-b4e3-4fea-8c51-2aa3188cd2ff","system_id":"levelo_inurba_marseille","lat":43.27494,"lon":5.42448,"is_reserved":false,"is_disabled":false,"rental_uris":{"android":"levelo://app?vid=0c903ba0-b4e3-4fea-8c51-2aa3188cd2ff","ios":"levelo://app?vid=0c903ba0-b4e3-4fea-8c51-2aa3188cd2ff"},"vehicle_type_id":"4","last_reported":1726726420,"current_range_meters":28800,"station_id":"ce4bhn92rcd13ifvqgrg","pricing_plan_id":"cebpf4jnsgd1na2vs0mg"},{"bike_id":"62d88a18-9599-41b9-b69a-13ea0d5520d5","system_id":"levelo_inurba_marseille","lat":43.29615,"lon":5.37715,"is_reserved":false,"is_disabled":false,"rental_uris":{"android":"levelo://app?vid=62d88a18-9599-41b9-b69a-13ea0d5520d5","ios":"levelo://app?vid=62d88a18-9599-41b9-b69a-13ea0d5520d5"},"vehicle_type_id":"4","last_reported":1726726420,"current_range_meters":14400,"station_id":"ce4bgi92rcd13ifvqb90","pricing_plan_id":"cebpf4jnsgd1na2vs0mg"},{"bike_id":"347897f0-b613-4602-b560-73f4c94dd261","system_id":"levelo_inurba_marseille","lat":43.2407,"lon":5.37757,"is_reserved":false,"is_disabled":false,"rental_uris":{"android":"levelo://app?vid=347897f0-b613-4602-b560-73f4c94dd261","ios":"levelo://app?vid=347897f0-b613-4602-b560-73f4c94dd261"},"vehicle_type_id":"4","last_reported":1726726420,"current_range_meters":38000,"station_id":"ce4bhnp2rcd13ifvqgvg","pricing_plan_id":"cebpf4jnsgd1na2vs0mg"},{"bike_id":"4637f38a-faa6-4c8b-ae8d-2112023d8ec3","system_id":"levelo_inurba_marseille","lat":43.25579,"lon":5.38238,"is_reserved":false,"is_disabled":false,"rental_uris":{"android":"levelo://app?vid=4637f38a-faa6-4c8b-ae8d-2112023d8ec3","ios":"levelo://app?vid=4637f38a-faa6-4c8b-ae8d-2112023d8ec3"},"vehicle_type_id":"4","last_reported":1726726420,"current_range_meters":38800,"station_id":"ce4bhih2rcd13ifvqfs0","pricing_plan_id":"cebpf4jnsgd1na2vs0mg"},{"bike_id":"938a1d8e-8f7a-4dbb-a7f7-9b765b9ff51b","system_id":"levelo_inurba_marseille","lat":43.27617,"lon":5.36111,"is_reserved":false,"is_disabled":false,"rental_uris":{"android":"levelo://app?vid=938a1d8e-8f7a-4dbb-a7f7-9b765b9ff51b","ios":"levelo://app?vid=938a1d8e-8f7a-4dbb-a7f7-9b765b9ff51b"},"vehicle_type_id":"4","last_reported":1726726420,"current_range_meters":36800,"station_id":"ce4bgj92rcd13ifvqbe0","pricing_plan_id":"cebpf4jnsgd1na2vs0mg"},{"bike_id":"2abb2446-868d-48cd-9036-0885da71efa4","system_id":"levelo_inurba_marseille","lat":43.30471,"lon":5.37907,"is_reserved":false,"is_disabled":false,"rental_uris":{"android":"levelo://app?vid=2abb2446-868d-48cd-9036-0885da71efa4","ios":"levelo://app?vid=2abb2446-868d-48cd-9036-0885da71efa4"},"vehicle_type_id":"4","last_reported":1726726420,"current_range_meters":38800,"station_id":"ce4bgup2rcd13ifvqcn0","pricing_plan_id":"cebpf4jnsgd1na2vs0mg"},{"bike_id":"aaeae615-2194-47c5-84e0-363507d6e824","system_id":"levelo_inurba_marseille","lat":43.32288,"lon":5.382669,"is_reserved":false,"is_disabled":false,"rental_uris":{"android":"levelo://app?vid=aaeae615-2194-47c5-84e0-363507d6e824","ios":"levelo://app?vid=aaeae615-2194-47c5-84e0-363507d6e824"},"vehicle_type_id":"4","last_reported":1726726420,"current_range_meters":24000,"station_id":"ce4bhr12rcd13ifvqhqg","pricing_plan_id":"cebpf4jnsgd1na2vs0mg"},{"bike_id":"1397a30c-d848-4ca4-b952-1fb1c2bd8c48","system_id":"levelo_inurba_marseille","lat":43.30158,"lon":5.38075,"is_reserved":false,"is_disabled":false,"rental_uris":{"android":"levelo://app?vid=1397a30c-d848-4ca4-b952-1fb1c2bd8c48","ios":"levelo://app?vid=1397a30c-d848-4ca4-b952-1fb1c2bd8c48"},"vehicle_type_id":"4","last_reported":1726726420,"current_range_meters":15200,"station_id":"ce4bgjp2rcd13ifvqbh0","pricing_plan_id":"cebpf4jnsgd1na2vs0mg"},{"bike_id":"6bea07ff-b7cf-43d7-9614-efd55ed0f2d6","system_id":"levelo_inurba_marseille","lat":43.24649,"lon":5.38888,"is_reserved":false,"is_disabled":false,"rental_uris":{"android":"levelo://app?vid=6bea07ff-b7cf-43d7-9614-efd55ed0f2d6","ios":"levelo://app?vid=6bea07ff-b7cf-43d7-9614-efd55ed0f2d6"},"vehicle_type_id":"4","last_reported":1726726420,"current_range_meters":27600,"station_id":"ce4bhg12rcd13ifvqf60","pricing_plan_id":"cebpf4jnsgd1na2vs0mg"},{"bike_id":"b98cc236-ecfc-4f95-a0d2-c8d32e366fa1","system_id":"levelo_inurba_marseille","lat":43.28617,"lon":5.35106,"is_reserved":false,"is_disabled":false,"rental_uris":{"android":"levelo://app?vid=b98cc236-ecfc-4f95-a0d2-c8d32e366fa1","ios":"levelo://app?vid=b98cc236-ecfc-4f95-a0d2-c8d32e366fa1"},"vehicle_type_id":"4","last_reported":1726726420,"current_range_meters":30800,"station_id":"ce4bhch2rcd13ifvqeug","pricing_plan_id":"cebpf4jnsgd1na2vs0mg"},{"bike_id":"1889ec3f-8ea1-4b72-8a71-6e0afec0da58","system_id":"levelo_inurba_marseille","lat":43.30955,"lon":5.39034,"is_reserved":false,"is_disabled":false,"rental_uris":{"android":"levelo://app?vid=1889ec3f-8ea1-4b72-8a71-6e0afec0da58","ios":"levelo://app?vid=1889ec3f-8ea1-4b72-8a71-6e0afec0da58"},"vehicle_type_id":"4","last_reported":1726726420,"current_range_meters":38800,"station_id":"ce4bgup2rcd13ifvqco0","pricing_plan_id":"cebpf4jnsgd1na2vs0mg"},{"bike_id":"9be94feb-a495-4651-8693-da9a946157ae","system_id":"levelo_inurba_marseille","lat":43.25008,"lon":5.38919,"is_reserved":false,"is_disabled":false,"rental_uris":{"android":"levelo://app?vid=9be94feb-a495-4651-8693-da9a946157ae","ios":"levelo://app?vid=9be94feb-a495-4651-8693-da9a946157ae"},"vehicle_type_id":"4","last_reported":1726726420,"current_range_meters":16800,"station_id":"ce4bhgp2rcd13ifvqfd0","pricing_plan_id":"cebpf4jnsgd1na2vs0mg"},{"bike_id":"5140205b-3fbb-4899-899b-f0c86015351b","system_id":"levelo_inurba_marseille","lat":43.28938,"lon":5.36398,"is_reserved":false,"is_disabled":false,"rental_uris":{"android":"levelo://app?vid=5140205b-3fbb-4899-899b-f0c86015351b","ios":"levelo://app?vid=5140205b-3fbb-4899-899b-f0c86015351b"},"vehicle_type_id":"4","last_reported":1726726420,"current_range_meters":17200,"station_id":"ce4bhc92rcd13ifvqetg","pricing_plan_id":"cebpf4jnsgd1na2vs0mg"},{"bike_id":"f3b40b72-252f-4ea8-a838-f4021093cd20","system_id":"levelo_inurba_marseille","lat":43.30351,"lon":5.41876,"is_reserved":false,"is_disabled":false,"rental_uris":{"android":"levelo://app?vid=f3b40b72-252f-4ea8-a838-f4021093cd20","ios":"levelo://app?vid=f3b40b72-252f-4ea8-a838-f4021093cd20"},"vehicle_type_id":"4","last_reported":1726726420,"current_range_meters":8000,"station_id":"ce4bhop2rcd13ifvqh7g","pricing_plan_id":"cebpf4jnsgd1na2vs0mg"},{"bike_id":"5853071a-a7de-43ad-87c8-982495d79fa0","system_id":"levelo_inurba_marseille","lat":43.25009,"lon":5.38916,"is_reserved":false,"is_disabled":false,"rental_uris":{"android":"levelo://app?vid=5853071a-a7de-43ad-87c8-982495d79fa0","ios":"levelo://app?vid=5853071a-a7de-43ad-87c8-982495d79fa0"},"vehicle_type_id":"4","last_reported":1726726420,"current_range_meters":36400,"station_id":"ce4bhgp2rcd13ifvqfd0","pricing_plan_id":"cebpf4jnsgd1na2vs0mg"},{"bike_id":"316473a3-098e-4790-8abd-9617353ea0fa","system_id":"levelo_inurba_marseille","lat":43.29256,"lon":5.40913,"is_reserved":false,"is_disabled":false,"rental_uris":{"android":"levelo://app?vid=316473a3-098e-4790-8abd-9617353ea0fa","ios":"levelo://app?vid=316473a3-098e-4790-8abd-9617353ea0fa"},"vehicle_type_id":"4","last_reported":1726726420,"current_range_meters":38800,"station_id":"ce4bh192rcd13ifvqdc0","pricing_plan_id":"cebpf4jnsgd1na2vs0mg"},{"bike_id":"bb32fa81-fe19-44a2-aa6a-35c563523984","system_id":"levelo_inurba_marseille","lat":43.297913,"lon":5.393446,"is_reserved":false,"is_disabled":false,"rental_uris":{"android":"levelo://app?vid=bb32fa81-fe19-44a2-aa6a-35c563523984","ios":"levelo://app?vid=bb32fa81-fe19-44a2-aa6a-35c563523984"},"vehicle_type_id":"4","last_reported":1726726420,"current_range_meters":7200,"station_id":"chh1huq6cuj3fo74tm60","pricing_plan_id":"cebpf4jnsgd1na2vs0mg"},{"bike_id":"0c101ec3-357a-4678-af6b-2f0c2a8531d5","system_id":"levelo_inurba_marseille","lat":43.3119,"lon":5.38706,"is_reserved":false,"is_disabled":false,"rental_uris":{"android":"levelo://app?vid=0c101ec3-357a-4678-af6b-2f0c2a8531d5","ios":"levelo://app?vid=0c101ec3-357a-4678-af6b-2f0c2a8531d5"},"vehicle_type_id":"4","last_reported":1726726420,"current_range_meters":25600,"station_id":"ce4bgv12rcd13ifvqcp0","pricing_plan_id":"cebpf4jnsgd1na2vs0mg"},{"bike_id":"ad264040-f36d-4d24-971d-436e2a7964b5","system_id":"levelo_inurba_marseille","lat":43.29256,"lon":5.40903,"is_reserved":false,"is_disabled":false,"rental_uris":{"android":"levelo://app?vid=ad264040-f36d-4d24-971d-436e2a7964b5","ios":"levelo://app?vid=ad264040-f36d-4d24-971d-436e2a7964b5"},"vehicle_type_id":"4","last_reported":1726726420,"current_range_meters":7200,"station_id":"ce4bh192rcd13ifvqdc0","pricing_plan_id":"cebpf4jnsgd1na2vs0mg"},{"bike_id":"02bb3f37-0be5-4a53-8ab2-0ad1754d6f88","system_id":"levelo_inurba_marseille","lat":43.30282,"lon":5.377072,"is_reserved":false,"is_disabled":false,"rental_uris":{"android":"levelo://app?vid=02bb3f37-0be5-4a53-8ab2-0ad1754d6f88","ios":"levelo://app?vid=02bb3f37-0be5-4a53-8ab2-0ad1754d6f88"},"vehicle_type_id":"4","last_reported":1726726420,"current_range_meters":38000,"station_id":"ce4bguh2rcd13ifvqcj0","pricing_plan_id":"cebpf4jnsgd1na2vs0mg"},{"bike_id":"e0173d18-6c8e-483c-9db6-bd92135cda26","system_id":"levelo_inurba_marseille","lat":43.32,"lon":5.38148,"is_reserved":false,"is_disabled":false,"rental_uris":{"android":"levelo://app?vid=e0173d18-6c8e-483c-9db6-bd92135cda26","ios":"levelo://app?vid=e0173d18-6c8e-483c-9db6-bd92135cda26"},"vehicle_type_id":"4","last_reported":1726726420,"current_range_meters":20400,"station_id":"ce4bhr12rcd13ifvqhpg","pricing_plan_id":"cebpf4jnsgd1na2vs0mg"},{"bike_id":"e8c2a45b-33a1-460a-917a-92750b650692","system_id":"levelo_inurba_marseille","lat":43.28299,"lon":5.381157,"is_reserved":false,"is_disabled":false,"rental_uris":{"android":"levelo://app?vid=e8c2a45b-33a1-460a-917a-92750b650692","ios":"levelo://app?vid=e8c2a45b-33a1-460a-917a-92750b650692"},"vehicle_type_id":"4","last_reported":1726726420,"current_range_meters":24000,"station_id":"","pricing_plan_id":"cebpf4jnsgd1na2vs0mg"},{"bike_id":"32ce65b5-bada-4714-9bd4-395b418b9235","system_id":"levelo_inurba_marseille","lat":43.28713,"lon":5.37947,"is_reserved":false,"is_disabled":false,"rental_uris":{"android":"levelo://app?vid=32ce65b5-bada-4714-9bd4-395b418b9235","ios":"levelo://app?vid=32ce65b5-bada-4714-9bd4-395b418b9235"},"vehicle_type_id":"4","last_reported":1726726420,"current_range_meters":34800,"station_id":"ce4bh9p2rcd13ifvqec0","pricing_plan_id":"cebpf4jnsgd1na2vs0mg"},{"bike_id":"7f85c424-76bf-4e62-aa08-945834d9fa36","system_id":"levelo_inurba_marseille","lat":43.30469,"lon":5.379,"is_reserved":false,"is_disabled":false,"rental_uris":{"android":"levelo://app?vid=7f85c424-76bf-4e62-aa08-945834d9fa36","ios":"levelo://app?vid=7f85c424-76bf-4e62-aa08-945834d9fa36"},"vehicle_type_id":"4","last_reported":1726726420,"current_range_meters":38800,"station_id":"ce4bgup2rcd13ifvqcn0","pricing_plan_id":"cebpf4jnsgd1na2vs0mg"},{"bike_id":"2f6abd35-fb9d-404b-92d0-c2558bb7670a","system_id":"levelo_inurba_marseille","lat":43.30905,"lon":5.36842,"is_reserved":false,"is_disabled":false,"rental_uris":{"android":"levelo://app?vid=2f6abd35-fb9d-404b-92d0-c2558bb7670a","ios":"levelo://app?vid=2f6abd35-fb9d-404b-92d0-c2558bb7670a"},"vehicle_type_id":"4","last_reported":1726726420,"current_range_meters":1600,"station_id":"ce4bgn92rcd13ifvqbvg","pricing_plan_id":"cebpf4jnsgd1na2vs0mg"},{"bike_id":"55fed244-caf4-46e6-99fc-fcd916ddb5b7","system_id":"levelo_inurba_marseille","lat":43.23201,"lon":5.35545,"is_reserved":false,"is_disabled":false,"rental_uris":{"android":"levelo://app?vid=55fed244-caf4-46e6-99fc-fcd916ddb5b7","ios":"levelo://app?vid=55fed244-caf4-46e6-99fc-fcd916ddb5b7"},"vehicle_type_id":"4","last_reported":1726726420,"current_range_meters":20400,"station_id":"ce4bhu92rcd13ifvqi70","pricing_plan_id":"cebpf4jnsgd1na2vs0mg"},{"bike_id":"4d6f430e-a89c-4f5a-a87a-ca0e6d05c74c","system_id":"levelo_inurba_marseille","lat":43.25996,"lon":5.40817,"is_reserved":false,"is_disabled":false,"rental_uris":{"android":"levelo://app?vid=4d6f430e-a89c-4f5a-a87a-ca0e6d05c74c","ios":"levelo://app?vid=4d6f430e-a89c-4f5a-a87a-ca0e6d05c74c"},"vehicle_type_id":"4","last_reported":1726726420,"current_range_meters":31200,"station_id":"","pricing_plan_id":"cebpf4jnsgd1na2vs0mg"},{"bike_id":"6a9ed1b6-3c3d-41e1-b7dc-eae517b445a0","system_id":"levelo_inurba_marseille","lat":43.29625,"lon":5.37721,"is_reserved":false,"is_disabled":false,"rental_uris":{"android":"levelo://app?vid=6a9ed1b6-3c3d-41e1-b7dc-eae517b445a0","ios":"levelo://app?vid=6a9ed1b6-3c3d-41e1-b7dc-eae517b445a0"},"vehicle_type_id":"4","last_reported":1726726420,"current_range_meters":38800,"station_id":"ce4bgi92rcd13ifvqb90","pricing_plan_id":"cebpf4jnsgd1na2vs0mg"},{"bike_id":"080f94cd-b9ba-4839-83f7-bf5668e30024","system_id":"levelo_inurba_marseille","lat":43.24075,"lon":5.37761,"is_reserved":false,"is_disabled":false,"rental_uris":{"android":"levelo://app?vid=080f94cd-b9ba-4839-83f7-bf5668e30024","ios":"levelo://app?vid=080f94cd-b9ba-4839-83f7-bf5668e30024"},"vehicle_type_id":"4","last_reported":1726726420,"current_range_meters":38000,"station_id":"ce4bhnp2rcd13ifvqgvg","pricing_plan_id":"cebpf4jnsgd1na2vs0mg"},{"bike_id":"1f1ba851-9790-4bd3-8136-42afe5898492","system_id":"levelo_inurba_marseille","lat":43.30537,"lon":5.3671,"is_reserved":false,"is_disabled":false,"rental_uris":{"android":"levelo://app?vid=1f1ba851-9790-4bd3-8136-42afe5898492","ios":"levelo://app?vid=1f1ba851-9790-4bd3-8136-42afe5898492"},"vehicle_type_id":"4","last_reported":1726726420,"current_range_meters":25600,"station_id":"ce4bgrp2rcd13ifvqc9g","pricing_plan_id":"cebpf4jnsgd1na2vs0mg"},{"bike_id":"ee68800c-f319-4020-b038-a34d6349dff4","system_id":"levelo_inurba_marseille","lat":43.23154,"lon":5.43708,"is_reserved":false,"is_disabled":false,"rental_uris":{"android":"levelo://app?vid=ee68800c-f319-4020-b038-a34d6349dff4","ios":"levelo://app?vid=ee68800c-f319-4020-b038-a34d6349dff4"},"vehicle_type_id":"4","last_reported":1726726420,"current_range_meters":19600,"station_id":"ce4bhmp2rcd13ifvqgog","pricing_plan_id":"cebpf4jnsgd1na2vs0mg"},{"bike_id":"709f5786-68ec-4473-86db-9cc24001e5ee","system_id":"levelo_inurba_marseille","lat":43.2815,"lon":5.42643,"is_reserved":false,"is_disabled":false,"rental_uris":{"android":"levelo://app?vid=709f5786-68ec-4473-86db-9cc24001e5ee","ios":"levelo://app?vid=709f5786-68ec-4473-86db-9cc24001e5ee"},"vehicle_type_id":"4","last_reported":1726726420,"current_range_meters":26800,"station_id":"ce4bhnh2rcd13ifvqgug","pricing_plan_id":"cebpf4jnsgd1na2vs0mg"},{"bike_id":"b1d6a91f-837f-4163-af80-6d333d9c1c9e","system_id":"levelo_inurba_marseille","lat":43.32539,"lon":5.41422,"is_reserved":false,"is_disabled":false,"rental_uris":{"android":"levelo://app?vid=b1d6a91f-837f-4163-af80-6d333d9c1c9e","ios":"levelo://app?vid=b1d6a91f-837f-4163-af80-6d333d9c1c9e"},"vehicle_type_id":"4","last_reported":1726726420,"current_range_meters":17200,"station_id":"ce4bhq12rcd13ifvqhhg","pricing_plan_id":"cebpf4jnsgd1na2vs0mg"},{"bike_id":"677498c9-746b-4650-9a8e-2c7479635944","system_id":"levelo_inurba_marseille","lat":43.33019,"lon":5.39047,"is_reserved":false,"is_disabled":false,"rental_uris":{"android":"levelo://app?vid=677498c9-746b-4650-9a8e-2c7479635944","ios":"levelo://app?vid=677498c9-746b-4650-9a8e-2c7479635944"},"vehicle_type_id":"4","last_reported":1726726420,"current_range_meters":9600,"station_id":"ce4bhr92rcd13ifvqhrg","pricing_plan_id":"cebpf4jnsgd1na2vs0mg"},{"bike_id":"1527bcd7-b477-4c55-b288-ca7e379472e0","system_id":"levelo_inurba_marseille","lat":43.30146,"lon":5.37412,"is_reserved":false,"is_disabled":false,"rental_uris":{"android":"levelo://app?vid=1527bcd7-b477-4c55-b288-ca7e379472e0","ios":"levelo://app?vid=1527bcd7-b477-4c55-b288-ca7e379472e0"},"vehicle_type_id":"4","last_reported":1726726420,"current_range_meters":37600,"station_id":"ce4bgs92rcd13ifvqcc0","pricing_plan_id":"cebpf4jnsgd1na2vs0mg"},{"bike_id":"8e686db2-17e5-4ea3-90cb-a228528f83ae","system_id":"levelo_inurba_marseille","lat":43.29923,"lon":5.37477,"is_reserved":false,"is_disabled":false,"rental_uris":{"android":"levelo://app?vid=8e686db2-17e5-4ea3-90cb-a228528f83ae","ios":"levelo://app?vid=8e686db2-17e5-4ea3-90cb-a228528f83ae"},"vehicle_type_id":"4","last_reported":1726726420,"current_range_meters":12000,"station_id":"ce4bgjh2rcd13ifvqbg0","pricing_plan_id":"cebpf4jnsgd1na2vs0mg"},{"bike_id":"3e99e2ac-cdfd-4893-be50-20dbb5272dd6","system_id":"levelo_inurba_marseille","lat":43.30808,"lon":5.43522,"is_reserved":false,"is_disabled":false,"rental_uris":{"android":"levelo://app?vid=3e99e2ac-cdfd-4893-be50-20dbb5272dd6","ios":"levelo://app?vid=3e99e2ac-cdfd-4893-be50-20dbb5272dd6"},"vehicle_type_id":"4","last_reported":1726726420,"current_range_meters":38400,"station_id":"ce4bhph2rcd13ifvqheg","pricing_plan_id":"cebpf4jnsgd1na2vs0mg"},{"bike_id":"9ebfab2a-d3f1-4b95-9ad0-4e7f834e9bd3","system_id":"levelo_inurba_marseille","lat":43.2953,"lon":5.38543,"is_reserved":false,"is_disabled":false,"rental_uris":{"android":"levelo://app?vid=9ebfab2a-d3f1-4b95-9ad0-4e7f834e9bd3","ios":"levelo://app?vid=9ebfab2a-d3f1-4b95-9ad0-4e7f834e9bd3"},"vehicle_type_id":"4","last_reported":1726726420,"current_range_meters":32800,"station_id":"ce4bgih2rcd13ifvqba0","pricing_plan_id":"cebpf4jnsgd1na2vs0mg"},{"bike_id":"2cbb6dd5-2ec8-4ba5-808a-c5301f897d27","system_id":"levelo_inurba_marseille","lat":43.23957,"lon":5.36627,"is_reserved":false,"is_disabled":false,"rental_uris":{"android":"levelo://app?vid=2cbb6dd5-2ec8-4ba5-808a-c5301f897d27","ios":"levelo://app?vid=2cbb6dd5-2ec8-4ba5-808a-c5301f897d27"},"vehicle_type_id":"4","last_reported":1726726420,"current_range_meters":24400,"station_id":"ce4bhi12rcd13ifvqfp0","pricing_plan_id":"cebpf4jnsgd1na2vs0mg"},{"bike_id":"f5ddcaf2-4df3-4791-8314-9ff825829baa","system_id":"levelo_inurba_marseille","lat":43.28461,"lon":5.35883,"is_reserved":false,"is_disabled":false,"rental_uris":{"android":"levelo://app?vid=f5ddcaf2-4df3-4791-8314-9ff825829baa","ios":"levelo://app?vid=f5ddcaf2-4df3-4791-8314-9ff825829baa"},"vehicle_type_id":"4","last_reported":1726726420,"current_range_meters":24000,"station_id":"ce4bhah2rcd13ifvqei0","pricing_plan_id":"cebpf4jnsgd1na2vs0mg"},{"bike_id":"a271a571-7400-40e0-8e71-e83076131bee","system_id":"levelo_inurba_marseille","lat":43.24074,"lon":5.37745,"is_reserved":false,"is_disabled":false,"rental_uris":{"android":"levelo://app?vid=a271a571-7400-40e0-8e71-e83076131bee","ios":"levelo://app?vid=a271a571-7400-40e0-8e71-e83076131bee"},"vehicle_type_id":"4","last_reported":1726726420,"current_range_meters":35600,"station_id":"ce4bhnp2rcd13ifvqgvg","pricing_plan_id":"cebpf4jnsgd1na2vs0mg"},{"bike_id":"1478a44f-74d8-48d2-a01f-74a3a0b9df5a","system_id":"levelo_inurba_marseille","lat":43.31279,"lon":5.40177,"is_reserved":false,"is_disabled":false,"rental_uris":{"android":"levelo://app?vid=1478a44f-74d8-48d2-a01f-74a3a0b9df5a","ios":"levelo://app?vid=1478a44f-74d8-48d2-a01f-74a3a0b9df5a"},"vehicle_type_id":"4","last_reported":1726726420,"current_range_meters":38800,"station_id":"ce4bh092rcd13ifvqd30","pricing_plan_id":"cebpf4jnsgd1na2vs0mg"},{"bike_id":"3d933b8e-67b6-4b5d-be72-7523e1cd1af2","system_id":"levelo_inurba_marseille","lat":43.28466,"lon":5.35893,"is_reserved":false,"is_disabled":false,"rental_uris":{"android":"levelo://app?vid=3d933b8e-67b6-4b5d-be72-7523e1cd1af2","ios":"levelo://app?vid=3d933b8e-67b6-4b5d-be72-7523e1cd1af2"},"vehicle_type_id":"4","last_reported":1726726420,"current_range_meters":30000,"station_id":"ce4bhah2rcd13ifvqei0","pricing_plan_id":"cebpf4jnsgd1na2vs0mg"},{"bike_id":"4d2e3082-ef1f-4b0f-9852-5b1a552f6c39","system_id":"levelo_inurba_marseille","lat":43.26568,"lon":5.38998,"is_reserved":false,"is_disabled":false,"rental_uris":{"android":"levelo://app?vid=4d2e3082-ef1f-4b0f-9852-5b1a552f6c39","ios":"levelo://app?vid=4d2e3082-ef1f-4b0f-9852-5b1a552f6c39"},"vehicle_type_id":"4","last_reported":1726726420,"current_range_meters":38000,"station_id":"ce4bhe12rcd13ifvqf30","pricing_plan_id":"cebpf4jnsgd1na2vs0mg"},{"bike_id":"cbdee263-28c4-4479-ae53-620b05016a58","system_id":"levelo_inurba_marseille","lat":43.305603,"lon":5.392134,"is_reserved":false,"is_disabled":false,"rental_uris":{"android":"levelo://app?vid=cbdee263-28c4-4479-ae53-620b05016a58","ios":"levelo://app?vid=cbdee263-28c4-4479-ae53-620b05016a58"},"vehicle_type_id":"4","last_reported":1726726420,"current_range_meters":31200,"station_id":"","pricing_plan_id":"cebpf4jnsgd1na2vs0mg"},{"bike_id":"52fffaf1-dd98-4e0a-a39d-48011512624f","system_id":"levelo_inurba_marseille","lat":43.25498,"lon":5.3765,"is_reserved":false,"is_disabled":false,"rental_uris":{"android":"levelo://app?vid=52fffaf1-dd98-4e0a-a39d-48011512624f","ios":"levelo://app?vid=52fffaf1-dd98-4e0a-a39d-48011512624f"},"vehicle_type_id":"4","last_reported":1726726420,"current_range_meters":30400,"station_id":"ce4bhh12rcd13ifvqff0","pricing_plan_id":"cebpf4jnsgd1na2vs0mg"},{"bike_id":"998ddacb-a930-414c-8e03-6e6d234ecf40","system_id":"levelo_inurba_marseille","lat":43.30422,"lon":5.41268,"is_reserved":false,"is_disabled":false,"rental_uris":{"android":"levelo://app?vid=998ddacb-a930-414c-8e03-6e6d234ecf40","ios":"levelo://app?vid=998ddacb-a930-414c-8e03-6e6d234ecf40"},"vehicle_type_id":"4","last_reported":1726726420,"current_range_meters":36000,"station_id":"ce4bhop2rcd13ifvqh8g","pricing_plan_id":"cebpf4jnsgd1na2vs0mg"},{"bike_id":"37804655-3b91-46a3-b91b-1ceef89e4f83","system_id":"levelo_inurba_marseille","lat":43.28461,"lon":5.35887,"is_reserved":false,"is_disabled":false,"rental_uris":{"android":"levelo://app?vid=37804655-3b91-46a3-b91b-1ceef89e4f83","ios":"levelo://app?vid=37804655-3b91-46a3-b91b-1ceef89e4f83"},"vehicle_type_id":"4","last_reported":1726726420,"current_range_meters":4800,"station_id":"ce4bhah2rcd13ifvqei0","pricing_plan_id":"cebpf4jnsgd1na2vs0mg"},{"bike_id":"d37aa318-9eec-42e5-ad66-edcb803356f0","system_id":"levelo_inurba_marseille","lat":43.2781,"lon":5.42809,"is_reserved":false,"is_disabled":false,"rental_uris":{"android":"levelo://app?vid=d37aa318-9eec-42e5-ad66-edcb803356f0","ios":"levelo://app?vid=d37aa318-9eec-42e5-ad66-edcb803356f0"},"vehicle_type_id":"4","last_reported":1726726420,"current_range_meters":6400,"station_id":"","pricing_plan_id":"cebpf4jnsgd1na2vs0mg"},{"bike_id":"b51480c2-9b9c-41e3-9bfc-f3e2a0ce7444","system_id":"levelo_inurba_marseille","lat":43.23193,"lon":5.35547,"is_reserved":false,"is_disabled":false,"rental_uris":{"android":"levelo://app?vid=b51480c2-9b9c-41e3-9bfc-f3e2a0ce7444","ios":"levelo://app?vid=b51480c2-9b9c-41e3-9bfc-f3e2a0ce7444"},"vehicle_type_id":"4","last_reported":1726726420,"current_range_meters":38800,"station_id":"ce4bhu92rcd13ifvqi70","pricing_plan_id":"cebpf4jnsgd1na2vs0mg"},{"bike_id":"0d3b6246-958f-4cf8-97da-2a88493d0c87","system_id":"levelo_inurba_marseille","lat":43.30323,"lon":5.36897,"is_reserved":false,"is_disabled":false,"rental_uris":{"android":"levelo://app?vid=0d3b6246-958f-4cf8-97da-2a88493d0c87","ios":"levelo://app?vid=0d3b6246-958f-4cf8-97da-2a88493d0c87"},"vehicle_type_id":"4","last_reported":1726726420,"current_range_meters":28800,"station_id":"","pricing_plan_id":"cebpf4jnsgd1na2vs0mg"},{"bike_id":"6a2ddc38-0103-4f43-bce7-a87f29ec1c72","system_id":"levelo_inurba_marseille","lat":43.291718,"lon":5.400177,"is_reserved":false,"is_disabled":false,"rental_uris":{"android":"levelo://app?vid=6a2ddc38-0103-4f43-bce7-a87f29ec1c72","ios":"levelo://app?vid=6a2ddc38-0103-4f43-bce7-a87f29ec1c72"},"vehicle_type_id":"4","last_reported":1726726420,"current_range_meters":28000,"station_id":"ce4bh392rcd13ifvqdm0","pricing_plan_id":"cebpf4jnsgd1na2vs0mg"},{"bike_id":"011c3d55-2368-40f1-b590-0f25bc645971","system_id":"levelo_inurba_marseille","lat":43.301361,"lon":5.380837,"is_reserved":false,"is_disabled":false,"rental_uris":{"android":"levelo://app?vid=011c3d55-2368-40f1-b590-0f25bc645971","ios":"levelo://app?vid=011c3d55-2368-40f1-b590-0f25bc645971"},"vehicle_type_id":"4","last_reported":1726726420,"current_range_meters":33600,"station_id":"ce4bhqh2rcd13ifvqhmg","pricing_plan_id":"cebpf4jnsgd1na2vs0mg"},{"bike_id":"ff045d56-45cd-4679-b2fc-ac8a1632828f","system_id":"levelo_inurba_marseille","lat":43.30469,"lon":5.37904,"is_reserved":false,"is_disabled":false,"rental_uris":{"android":"levelo://app?vid=ff045d56-45cd-4679-b2fc-ac8a1632828f","ios":"levelo://app?vid=ff045d56-45cd-4679-b2fc-ac8a1632828f"},"vehicle_type_id":"4","last_reported":1726726420,"current_range_meters":38800,"station_id":"ce4bgup2rcd13ifvqcn0","pricing_plan_id":"cebpf4jnsgd1na2vs0mg"},{"bike_id":"2b714e73-49f8-4f26-bb6d-7d72ce23aabc","system_id":"levelo_inurba_marseille","lat":43.23054,"lon":5.35493,"is_reserved":false,"is_disabled":false,"rental_uris":{"android":"levelo://app?vid=2b714e73-49f8-4f26-bb6d-7d72ce23aabc","ios":"levelo://app?vid=2b714e73-49f8-4f26-bb6d-7d72ce23aabc"},"vehicle_type_id":"4","last_reported":1726726420,"current_range_meters":4400,"station_id":"cpo3342slgdg3j2ifvpg","pricing_plan_id":"cebpf4jnsgd1na2vs0mg"},{"bike_id":"82ea5869-7707-475a-a165-02c96a7daa9f","system_id":"levelo_inurba_marseille","lat":43.31482,"lon":5.37306,"is_reserved":false,"is_disabled":false,"rental_uris":{"android":"levelo://app?vid=82ea5869-7707-475a-a165-02c96a7daa9f","ios":"levelo://app?vid=82ea5869-7707-475a-a165-02c96a7daa9f"},"vehicle_type_id":"4","last_reported":1726726420,"current_range_meters":17200,"station_id":"ce4bgt12rcd13ifvqcd0","pricing_plan_id":"cebpf4jnsgd1na2vs0mg"},{"bike_id":"6abd6ed8-e9da-4163-9975-ae064d953b07","system_id":"levelo_inurba_marseille","lat":43.25937,"lon":5.40903,"is_reserved":false,"is_disabled":false,"rental_uris":{"android":"levelo://app?vid=6abd6ed8-e9da-4163-9975-ae064d953b07","ios":"levelo://app?vid=6abd6ed8-e9da-4163-9975-ae064d953b07"},"vehicle_type_id":"4","last_reported":1726726420,"current_range_meters":38000,"station_id":"ce4bhm92rcd13ifvqglg","pricing_plan_id":"cebpf4jnsgd1na2vs0mg"},{"bike_id":"87483675-10ba-4b90-9ed9-a62636228fd3","system_id":"levelo_inurba_marseille","lat":43.27057,"lon":5.40258,"is_reserved":false,"is_disabled":false,"rental_uris":{"android":"levelo://app?vid=87483675-10ba-4b90-9ed9-a62636228fd3","ios":"levelo://app?vid=87483675-10ba-4b90-9ed9-a62636228fd3"},"vehicle_type_id":"4","last_reported":1726726420,"current_range_meters":35200,"station_id":"ce4bhk92rcd13ifvqgc0","pricing_plan_id":"cebpf4jnsgd1na2vs0mg"},{"bike_id":"c22789b5-bef7-4401-a6d0-0c31df63a989","system_id":"levelo_inurba_marseille","lat":43.269517,"lon":5.38634,"is_reserved":false,"is_disabled":false,"rental_uris":{"android":"levelo://app?vid=c22789b5-bef7-4401-a6d0-0c31df63a989","ios":"levelo://app?vid=c22789b5-bef7-4401-a6d0-0c31df63a989"},"vehicle_type_id":"4","last_reported":1726726420,"current_range_meters":4400,"station_id":"ce4bhh92rcd13ifvqfh0","pricing_plan_id":"cebpf4jnsgd1na2vs0mg"},{"bike_id":"2e64ac77-37d0-42c4-9b89-df897b66197d","system_id":"levelo_inurba_marseille","lat":43.29964,"lon":5.41321,"is_reserved":false,"is_disabled":false,"rental_uris":{"android":"levelo://app?vid=2e64ac77-37d0-42c4-9b89-df897b66197d","ios":"levelo://app?vid=2e64ac77-37d0-42c4-9b89-df897b66197d"},"vehicle_type_id":"4","last_reported":1726726420,"current_range_meters":39200,"station_id":"ce4bhp12rcd13ifvqh9g","pricing_plan_id":"cebpf4jnsgd1na2vs0mg"},{"bike_id":"451cd4e6-d747-4d42-b652-d593351ccec4","system_id":"levelo_inurba_marseille","lat":43.24391,"lon":5.37055,"is_reserved":false,"is_disabled":false,"rental_uris":{"android":"levelo://app?vid=451cd4e6-d747-4d42-b652-d593351ccec4","ios":"levelo://app?vid=451cd4e6-d747-4d42-b652-d593351ccec4"},"vehicle_type_id":"4","last_reported":1726726420,"current_range_meters":36800,"station_id":"ce4bhhh2rcd13ifvqfk0","pricing_plan_id":"cebpf4jnsgd1na2vs0mg"},{"bike_id":"be7ef87f-6766-4b09-a6fb-422e60925bad","system_id":"levelo_inurba_marseille","lat":43.30588,"lon":5.39355,"is_reserved":false,"is_disabled":false,"rental_uris":{"android":"levelo://app?vid=be7ef87f-6766-4b09-a6fb-422e60925bad","ios":"levelo://app?vid=be7ef87f-6766-4b09-a6fb-422e60925bad"},"vehicle_type_id":"4","last_reported":1726726420,"current_range_meters":34000,"station_id":"ce4bh0p2rcd13ifvqd80","pricing_plan_id":"cebpf4jnsgd1na2vs0mg"},{"bike_id":"bd11211e-61f4-42a1-9415-ffedc0a841a7","system_id":"levelo_inurba_marseille","lat":43.28402,"lon":5.375127,"is_reserved":false,"is_disabled":false,"rental_uris":{"android":"levelo://app?vid=bd11211e-61f4-42a1-9415-ffedc0a841a7","ios":"levelo://app?vid=bd11211e-61f4-42a1-9415-ffedc0a841a7"},"vehicle_type_id":"4","last_reported":1726726420,"current_range_meters":12400,"station_id":"ce4bgk12rcd13ifvqbi0","pricing_plan_id":"cebpf4jnsgd1na2vs0mg"},{"bike_id":"af2bef4f-9caa-4eea-a587-3f3222bd844b","system_id":"levelo_inurba_marseille","lat":43.240362,"lon":5.378088,"is_reserved":false,"is_disabled":false,"rental_uris":{"android":"levelo://app?vid=af2bef4f-9caa-4eea-a587-3f3222bd844b","ios":"levelo://app?vid=af2bef4f-9caa-4eea-a587-3f3222bd844b"},"vehicle_type_id":"4","last_reported":1726726420,"current_range_meters":30000,"station_id":"ce4bhnp2rcd13ifvqgvg","pricing_plan_id":"cebpf4jnsgd1na2vs0mg"},{"bike_id":"2e0660eb-1d60-4818-a458-39fb48943a22","system_id":"levelo_inurba_marseille","lat":43.305606,"lon":5.365583,"is_reserved":false,"is_disabled":false,"rental_uris":{"android":"levelo://app?vid=2e0660eb-1d60-4818-a458-39fb48943a22","ios":"levelo://app?vid=2e0660eb-1d60-4818-a458-39fb48943a22"},"vehicle_type_id":"4","last_reported":1726726420,"current_range_meters":38000,"station_id":"ce4bgs12rcd13ifvqcag","pricing_plan_id":"cebpf4jnsgd1na2vs0mg"},{"bike_id":"b062988d-ac26-44ab-adba-f89dab0d6e62","system_id":"levelo_inurba_marseille","lat":43.26944,"lon":5.40252,"is_reserved":false,"is_disabled":false,"rental_uris":{"android":"levelo://app?vid=b062988d-ac26-44ab-adba-f89dab0d6e62","ios":"levelo://app?vid=b062988d-ac26-44ab-adba-f89dab0d6e62"},"vehicle_type_id":"4","last_reported":1726726420,"current_range_meters":30400,"station_id":"cjm6bp8fraef2m0cb0m0","pricing_plan_id":"cebpf4jnsgd1na2vs0mg"},{"bike_id":"bda43ea3-dbdd-4b08-a349-4b0d86fdb032","system_id":"levelo_inurba_marseille","lat":43.24079,"lon":5.37751,"is_reserved":false,"is_disabled":false,"rental_uris":{"android":"levelo://app?vid=bda43ea3-dbdd-4b08-a349-4b0d86fdb032","ios":"levelo://app?vid=bda43ea3-dbdd-4b08-a349-4b0d86fdb032"},"vehicle_type_id":"4","last_reported":1726726420,"current_range_meters":36400,"station_id":"ce4bhnp2rcd13ifvqgvg","pricing_plan_id":"cebpf4jnsgd1na2vs0mg"},{"bike_id":"cb5679a7-bfc0-4a39-bc79-284094285052","system_id":"levelo_inurba_marseille","lat":43.28685,"lon":5.38652,"is_reserved":false,"is_disabled":false,"rental_uris":{"android":"levelo://app?vid=cb5679a7-bfc0-4a39-bc79-284094285052","ios":"levelo://app?vid=cb5679a7-bfc0-4a39-bc79-284094285052"},"vehicle_type_id":"4","last_reported":1726726420,"current_range_meters":30400,"station_id":"ce4bh492rcd13ifvqdug","pricing_plan_id":"cebpf4jnsgd1na2vs0mg"},{"bike_id":"ec05964d-d663-4fec-b9e8-4e41de596dcf","system_id":"levelo_inurba_marseille","lat":43.30536,"lon":5.38426,"is_reserved":false,"is_disabled":false,"rental_uris":{"android":"levelo://app?vid=ec05964d-d663-4fec-b9e8-4e41de596dcf","ios":"levelo://app?vid=ec05964d-d663-4fec-b9e8-4e41de596dcf"},"vehicle_type_id":"4","last_reported":1726726420,"current_range_meters":38800,"station_id":"ce4bgg92rcd13ifvqb30","pricing_plan_id":"cebpf4jnsgd1na2vs0mg"},{"bike_id":"6ad4bd65-2018-415b-af44-c744844bc858","system_id":"levelo_inurba_marseille","lat":43.24077,"lon":5.37757,"is_reserved":false,"is_disabled":false,"rental_uris":{"android":"levelo://app?vid=6ad4bd65-2018-415b-af44-c744844bc858","ios":"levelo://app?vid=6ad4bd65-2018-415b-af44-c744844bc858"},"vehicle_type_id":"4","last_reported":1726726420,"current_range_meters":16000,"station_id":"ce4bhnp2rcd13ifvqgvg","pricing_plan_id":"cebpf4jnsgd1na2vs0mg"},{"bike_id":"02c639a4-fe62-499a-a69a-f474d98d7667","system_id":"levelo_inurba_marseille","lat":43.28464,"lon":5.35876,"is_reserved":false,"is_disabled":false,"rental_uris":{"android":"levelo://app?vid=02c639a4-fe62-499a-a69a-f474d98d7667","ios":"levelo://app?vid=02c639a4-fe62-499a-a69a-f474d98d7667"},"vehicle_type_id":"4","last_reported":1726726420,"current_range_meters":36800,"station_id":"ce4bhah2rcd13ifvqei0","pricing_plan_id":"cebpf4jnsgd1na2vs0mg"},{"bike_id":"83ca9bd0-3343-425c-8a8c-6e8a7e31c55f","system_id":"levelo_inurba_marseille","lat":43.31335,"lon":5.36721,"is_reserved":false,"is_disabled":false,"rental_uris":{"android":"levelo://app?vid=83ca9bd0-3343-425c-8a8c-6e8a7e31c55f","ios":"levelo://app?vid=83ca9bd0-3343-425c-8a8c-6e8a7e31c55f"},"vehicle_type_id":"4","last_reported":1726726420,"current_range_meters":25200,"station_id":"ce4bgr92rcd13ifvqc6g","pricing_plan_id":"cebpf4jnsgd1na2vs0mg"},{"bike_id":"6dd17a2f-59bb-4453-859d-2c09ab795824","system_id":"levelo_inurba_marseille","lat":43.33023,"lon":5.39049,"is_reserved":false,"is_disabled":false,"rental_uris":{"android":"levelo://app?vid=6dd17a2f-59bb-4453-859d-2c09ab795824","ios":"levelo://app?vid=6dd17a2f-59bb-4453-859d-2c09ab795824"},"vehicle_type_id":"4","last_reported":1726726420,"current_range_meters":19600,"station_id":"ce4bhr92rcd13ifvqhrg","pricing_plan_id":"cebpf4jnsgd1na2vs0mg"},{"bike_id":"4f919f83-7dbe-4201-ac26-e72c2935cb24","system_id":"levelo_inurba_marseille","lat":43.27071,"lon":5.42283,"is_reserved":false,"is_disabled":false,"rental_uris":{"android":"levelo://app?vid=4f919f83-7dbe-4201-ac26-e72c2935cb24","ios":"levelo://app?vid=4f919f83-7dbe-4201-ac26-e72c2935cb24"},"vehicle_type_id":"4","last_reported":1726726420,"current_range_meters":38400,"station_id":"ce4bhk92rcd13ifvqgb0","pricing_plan_id":"cebpf4jnsgd1na2vs0mg"},{"bike_id":"5c4240fb-258c-46fa-88e1-337a0cfb2b36","system_id":"levelo_inurba_marseille","lat":43.28455,"lon":5.35886,"is_reserved":false,"is_disabled":false,"rental_uris":{"android":"levelo://app?vid=5c4240fb-258c-46fa-88e1-337a0cfb2b36","ios":"levelo://app?vid=5c4240fb-258c-46fa-88e1-337a0cfb2b36"},"vehicle_type_id":"4","last_reported":1726726420,"current_range_meters":8000,"station_id":"ce4bhah2rcd13ifvqei0","pricing_plan_id":"cebpf4jnsgd1na2vs0mg"},{"bike_id":"f2c95146-36ce-4175-8035-0c4ee99efa92","system_id":"levelo_inurba_marseille","lat":43.23194,"lon":5.35557,"is_reserved":false,"is_disabled":false,"rental_uris":{"android":"levelo://app?vid=f2c95146-36ce-4175-8035-0c4ee99efa92","ios":"levelo://app?vid=f2c95146-36ce-4175-8035-0c4ee99efa92"},"vehicle_type_id":"4","last_reported":1726726420,"current_range_meters":8800,"station_id":"ce4bhu92rcd13ifvqi70","pricing_plan_id":"cebpf4jnsgd1na2vs0mg"},{"bike_id":"7c49ab02-d935-42f0-a704-2c753db1b46a","system_id":"levelo_inurba_marseille","lat":43.291963,"lon":5.358094,"is_reserved":false,"is_disabled":false,"rental_uris":{"android":"levelo://app?vid=7c49ab02-d935-42f0-a704-2c753db1b46a","ios":"levelo://app?vid=7c49ab02-d935-42f0-a704-2c753db1b46a"},"vehicle_type_id":"4","last_reported":1726726420,"current_range_meters":38400,"station_id":"ce4bhb12rcd13ifvqel0","pricing_plan_id":"cebpf4jnsgd1na2vs0mg"},{"bike_id":"41150dff-c898-4821-b985-761e42aa18c6","system_id":"levelo_inurba_marseille","lat":43.26567,"lon":5.39005,"is_reserved":false,"is_disabled":false,"rental_uris":{"android":"levelo://app?vid=41150dff-c898-4821-b985-761e42aa18c6","ios":"levelo://app?vid=41150dff-c898-4821-b985-761e42aa18c6"},"vehicle_type_id":"4","last_reported":1726726420,"current_range_meters":38400,"station_id":"ce4bhe12rcd13ifvqf30","pricing_plan_id":"cebpf4jnsgd1na2vs0mg"},{"bike_id":"39283666-9223-495f-93ec-aae9f8a17b45","system_id":"levelo_inurba_marseille","lat":43.28345,"lon":5.38103,"is_reserved":false,"is_disabled":false,"rental_uris":{"android":"levelo://app?vid=39283666-9223-495f-93ec-aae9f8a17b45","ios":"levelo://app?vid=39283666-9223-495f-93ec-aae9f8a17b45"},"vehicle_type_id":"4","last_reported":1726726420,"current_range_meters":30000,"station_id":"ce4bh412rcd13ifvqdr0","pricing_plan_id":"cebpf4jnsgd1na2vs0mg"},{"bike_id":"e0b9fde8-8bce-456d-bdb9-1dbe3347f9ce","system_id":"levelo_inurba_marseille","lat":43.23153,"lon":5.43719,"is_reserved":false,"is_disabled":false,"rental_uris":{"android":"levelo://app?vid=e0b9fde8-8bce-456d-bdb9-1dbe3347f9ce","ios":"levelo://app?vid=e0b9fde8-8bce-456d-bdb9-1dbe3347f9ce"},"vehicle_type_id":"4","last_reported":1726726420,"current_range_meters":8800,"station_id":"ce4bhmp2rcd13ifvqgog","pricing_plan_id":"cebpf4jnsgd1na2vs0mg"},{"bike_id":"a1dbd7d0-dbaf-45ef-8931-a3aa27205e8e","system_id":"levelo_inurba_marseille","lat":43.24072,"lon":5.37761,"is_reserved":false,"is_disabled":false,"rental_uris":{"android":"levelo://app?vid=a1dbd7d0-dbaf-45ef-8931-a3aa27205e8e","ios":"levelo://app?vid=a1dbd7d0-dbaf-45ef-8931-a3aa27205e8e"},"vehicle_type_id":"4","last_reported":1726726420,"current_range_meters":22400,"station_id":"ce4bhnp2rcd13ifvqgvg","pricing_plan_id":"cebpf4jnsgd1na2vs0mg"},{"bike_id":"db2065cc-f4bf-41e4-bd06-cfecb7d81477","system_id":"levelo_inurba_marseille","lat":43.26567,"lon":5.38988,"is_reserved":false,"is_disabled":false,"rental_uris":{"android":"levelo://app?vid=db2065cc-f4bf-41e4-bd06-cfecb7d81477","ios":"levelo://app?vid=db2065cc-f4bf-41e4-bd06-cfecb7d81477"},"vehicle_type_id":"4","last_reported":1726726420,"current_range_meters":36800,"station_id":"ce4bhe12rcd13ifvqf30","pricing_plan_id":"cebpf4jnsgd1na2vs0mg"},{"bike_id":"db5bed51-afb9-4548-98e9-7b7ae226c501","system_id":"levelo_inurba_marseille","lat":43.33756,"lon":5.37453,"is_reserved":false,"is_disabled":false,"rental_uris":{"android":"levelo://app?vid=db5bed51-afb9-4548-98e9-7b7ae226c501","ios":"levelo://app?vid=db5bed51-afb9-4548-98e9-7b7ae226c501"},"vehicle_type_id":"4","last_reported":1726726420,"current_range_meters":28800,"station_id":"","pricing_plan_id":"cebpf4jnsgd1na2vs0mg"},{"bike_id":"2d18bdf3-b839-4bd3-b0ec-633ade641185","system_id":"levelo_inurba_marseille","lat":43.29254,"lon":5.39923,"is_reserved":false,"is_disabled":false,"rental_uris":{"android":"levelo://app?vid=2d18bdf3-b839-4bd3-b0ec-633ade641185","ios":"levelo://app?vid=2d18bdf3-b839-4bd3-b0ec-633ade641185"},"vehicle_type_id":"4","last_reported":1726726420,"current_range_meters":38800,"station_id":"","pricing_plan_id":"cebpf4jnsgd1na2vs0mg"},{"bike_id":"6864a05c-76c0-4648-ae7c-db87fef70f83","system_id":"levelo_inurba_marseille","lat":43.2749,"lon":5.42454,"is_reserved":false,"is_disabled":false,"rental_uris":{"android":"levelo://app?vid=6864a05c-76c0-4648-ae7c-db87fef70f83","ios":"levelo://app?vid=6864a05c-76c0-4648-ae7c-db87fef70f83"},"vehicle_type_id":"4","last_reported":1726726420,"current_range_meters":4800,"station_id":"ce4bhn92rcd13ifvqgrg","pricing_plan_id":"cebpf4jnsgd1na2vs0mg"},{"bike_id":"f1925469-9217-450d-9259-fc5ba656a5ff","system_id":"levelo_inurba_marseille","lat":43.25934,"lon":5.40911,"is_reserved":false,"is_disabled":false,"rental_uris":{"android":"levelo://app?vid=f1925469-9217-450d-9259-fc5ba656a5ff","ios":"levelo://app?vid=f1925469-9217-450d-9259-fc5ba656a5ff"},"vehicle_type_id":"4","last_reported":1726726420,"current_range_meters":38400,"station_id":"ce4bhm92rcd13ifvqglg","pricing_plan_id":"cebpf4jnsgd1na2vs0mg"},{"bike_id":"69399783-5eae-4af9-ae4b-1495b2d249b1","system_id":"levelo_inurba_marseille","lat":43.24164,"lon":5.36392,"is_reserved":false,"is_disabled":false,"rental_uris":{"android":"levelo://app?vid=69399783-5eae-4af9-ae4b-1495b2d249b1","ios":"levelo://app?vid=69399783-5eae-4af9-ae4b-1495b2d249b1"},"vehicle_type_id":"4","last_reported":1726726420,"current_range_meters":34800,"station_id":"cpo36qri1sfpv3e86is0","pricing_plan_id":"cebpf4jnsgd1na2vs0mg"},{"bike_id":"3f513f49-e3b1-4c4c-bbdc-e5ae3b2b72d3","system_id":"levelo_inurba_marseille","lat":43.27492,"lon":5.42451,"is_reserved":false,"is_disabled":false,"rental_uris":{"android":"levelo://app?vid=3f513f49-e3b1-4c4c-bbdc-e5ae3b2b72d3","ios":"levelo://app?vid=3f513f49-e3b1-4c4c-bbdc-e5ae3b2b72d3"},"vehicle_type_id":"4","last_reported":1726726420,"current_range_meters":22400,"station_id":"ce4bhn92rcd13ifvqgrg","pricing_plan_id":"cebpf4jnsgd1na2vs0mg"},{"bike_id":"fb76a5ed-f83a-4b5c-85c3-22df3c00f7f4","system_id":"levelo_inurba_marseille","lat":43.2583,"lon":5.39432,"is_reserved":false,"is_disabled":false,"rental_uris":{"android":"levelo://app?vid=fb76a5ed-f83a-4b5c-85c3-22df3c00f7f4","ios":"levelo://app?vid=fb76a5ed-f83a-4b5c-85c3-22df3c00f7f4"},"vehicle_type_id":"4","last_reported":1726726420,"current_range_meters":37600,"station_id":"ce4bhip2rcd13ifvqft0","pricing_plan_id":"cebpf4jnsgd1na2vs0mg"},{"bike_id":"d06834b6-14ec-477c-92f7-a04b5630a0da","system_id":"levelo_inurba_marseille","lat":43.2655,"lon":5.37292,"is_reserved":false,"is_disabled":false,"rental_uris":{"android":"levelo://app?vid=d06834b6-14ec-477c-92f7-a04b5630a0da","ios":"levelo://app?vid=d06834b6-14ec-477c-92f7-a04b5630a0da"},"vehicle_type_id":"4","last_reported":1726726420,"current_range_meters":7200,"station_id":"ce4bhg12rcd13ifvqf70","pricing_plan_id":"cebpf4jnsgd1na2vs0mg"},{"bike_id":"5b118a87-dcbe-4b38-bcb0-a000399726ab","system_id":"levelo_inurba_marseille","lat":43.27666,"lon":5.38883,"is_reserved":false,"is_disabled":false,"rental_uris":{"android":"levelo://app?vid=5b118a87-dcbe-4b38-bcb0-a000399726ab","ios":"levelo://app?vid=5b118a87-dcbe-4b38-bcb0-a000399726ab"},"vehicle_type_id":"4","last_reported":1726726420,"current_range_meters":12800,"station_id":"ce4bhi12rcd13ifvqfo0","pricing_plan_id":"cebpf4jnsgd1na2vs0mg"},{"bike_id":"c07f4740-ebab-4d5c-b22e-deddf1ddd7da","system_id":"levelo_inurba_marseille","lat":43.2984,"lon":5.36266,"is_reserved":false,"is_disabled":false,"rental_uris":{"android":"levelo://app?vid=c07f4740-ebab-4d5c-b22e-deddf1ddd7da","ios":"levelo://app?vid=c07f4740-ebab-4d5c-b22e-deddf1ddd7da"},"vehicle_type_id":"4","last_reported":1726726420,"current_range_meters":23200,"station_id":"ce4bgpp2rcd13ifvqc3g","pricing_plan_id":"cebpf4jnsgd1na2vs0mg"},{"bike_id":"2a02a26f-7ad3-47bb-a66f-dad3d347c4c9","system_id":"levelo_inurba_marseille","lat":43.25107,"lon":5.40331,"is_reserved":false,"is_disabled":false,"rental_uris":{"android":"levelo://app?vid=2a02a26f-7ad3-47bb-a66f-dad3d347c4c9","ios":"levelo://app?vid=2a02a26f-7ad3-47bb-a66f-dad3d347c4c9"},"vehicle_type_id":"4","last_reported":1726726420,"current_range_meters":12800,"station_id":"ce4bhlh2rcd13ifvqgig","pricing_plan_id":"cebpf4jnsgd1na2vs0mg"},{"bike_id":"e5b0ee22-a192-442b-bfde-ae0c7d8bec85","system_id":"levelo_inurba_marseille","lat":43.31276,"lon":5.40159,"is_reserved":false,"is_disabled":false,"rental_uris":{"android":"levelo://app?vid=e5b0ee22-a192-442b-bfde-ae0c7d8bec85","ios":"levelo://app?vid=e5b0ee22-a192-442b-bfde-ae0c7d8bec85"},"vehicle_type_id":"4","last_reported":1726726420,"current_range_meters":38800,"station_id":"ce4bh092rcd13ifvqd30","pricing_plan_id":"cebpf4jnsgd1na2vs0mg"},{"bike_id":"a811345e-c046-4ee5-87fd-576f86d7c458","system_id":"levelo_inurba_marseille","lat":43.25932,"lon":5.40908,"is_reserved":false,"is_disabled":false,"rental_uris":{"android":"levelo://app?vid=a811345e-c046-4ee5-87fd-576f86d7c458","ios":"levelo://app?vid=a811345e-c046-4ee5-87fd-576f86d7c458"},"vehicle_type_id":"4","last_reported":1726726420,"current_range_meters":37600,"station_id":"ce4bhm92rcd13ifvqglg","pricing_plan_id":"cebpf4jnsgd1na2vs0mg"},{"bike_id":"884b4613-2a72-46e8-b1fd-814e1222921b","system_id":"levelo_inurba_marseille","lat":43.30547,"lon":5.36693,"is_reserved":false,"is_disabled":false,"rental_uris":{"android":"levelo://app?vid=884b4613-2a72-46e8-b1fd-814e1222921b","ios":"levelo://app?vid=884b4613-2a72-46e8-b1fd-814e1222921b"},"vehicle_type_id":"4","last_reported":1726726420,"current_range_meters":12400,"station_id":"ce4bgrp2rcd13ifvqc9g","pricing_plan_id":"cebpf4jnsgd1na2vs0mg"},{"bike_id":"430023ca-fb0c-43e8-9c3f-17f704bfe3ba","system_id":"levelo_inurba_marseille","lat":43.284576,"lon":5.358857,"is_reserved":false,"is_disabled":false,"rental_uris":{"android":"levelo://app?vid=430023ca-fb0c-43e8-9c3f-17f704bfe3ba","ios":"levelo://app?vid=430023ca-fb0c-43e8-9c3f-17f704bfe3ba"},"vehicle_type_id":"4","last_reported":1726726420,"current_range_meters":38800,"station_id":"ce4bhah2rcd13ifvqej0","pricing_plan_id":"cebpf4jnsgd1na2vs0mg"},{"bike_id":"58014cc6-4f39-4119-a8a0-cdc0e2507820","system_id":"levelo_inurba_marseille","lat":43.3229,"lon":5.38281,"is_reserved":false,"is_disabled":false,"rental_uris":{"android":"levelo://app?vid=58014cc6-4f39-4119-a8a0-cdc0e2507820","ios":"levelo://app?vid=58014cc6-4f39-4119-a8a0-cdc0e2507820"},"vehicle_type_id":"4","last_reported":1726726420,"current_range_meters":38800,"station_id":"ce4bhr12rcd13ifvqhqg","pricing_plan_id":"cebpf4jnsgd1na2vs0mg"},{"bike_id":"ecb1ba9f-0f40-462e-818b-566e669a18e1","system_id":"levelo_inurba_marseille","lat":43.26567,"lon":5.39002,"is_reserved":false,"is_disabled":false,"rental_uris":{"android":"levelo://app?vid=ecb1ba9f-0f40-462e-818b-566e669a18e1","ios":"levelo://app?vid=ecb1ba9f-0f40-462e-818b-566e669a18e1"},"vehicle_type_id":"4","last_reported":1726726420,"current_range_meters":38000,"station_id":"ce4bhe12rcd13ifvqf30","pricing_plan_id":"cebpf4jnsgd1na2vs0mg"},{"bike_id":"755d4ff9-c65b-43c9-b90f-44568e3a466b","system_id":"levelo_inurba_marseille","lat":43.29957,"lon":5.38503,"is_reserved":false,"is_disabled":false,"rental_uris":{"android":"levelo://app?vid=755d4ff9-c65b-43c9-b90f-44568e3a466b","ios":"levelo://app?vid=755d4ff9-c65b-43c9-b90f-44568e3a466b"},"vehicle_type_id":"4","last_reported":1726726420,"current_range_meters":38000,"station_id":"ce4bgj92rcd13ifvqbd0","pricing_plan_id":"cebpf4jnsgd1na2vs0mg"},{"bike_id":"67101e27-2fdd-4e84-bdf7-495c619879ab","system_id":"levelo_inurba_marseille","lat":43.32,"lon":5.38153,"is_reserved":false,"is_disabled":false,"rental_uris":{"android":"levelo://app?vid=67101e27-2fdd-4e84-bdf7-495c619879ab","ios":"levelo://app?vid=67101e27-2fdd-4e84-bdf7-495c619879ab"},"vehicle_type_id":"4","last_reported":1726726420,"current_range_meters":10000,"station_id":"ce4bhr12rcd13ifvqhpg","pricing_plan_id":"cebpf4jnsgd1na2vs0mg"},{"bike_id":"58a0977a-4560-4644-908f-41ef1eb01cb6","system_id":"levelo_inurba_marseille","lat":43.2695,"lon":5.38622,"is_reserved":false,"is_disabled":false,"rental_uris":{"android":"levelo://app?vid=58a0977a-4560-4644-908f-41ef1eb01cb6","ios":"levelo://app?vid=58a0977a-4560-4644-908f-41ef1eb01cb6"},"vehicle_type_id":"4","last_reported":1726726420,"current_range_meters":34800,"station_id":"ce4bhh92rcd13ifvqfh0","pricing_plan_id":"cebpf4jnsgd1na2vs0mg"},{"bike_id":"9de036c4-decb-465b-a775-32e663a8924f","system_id":"levelo_inurba_marseille","lat":43.33024,"lon":5.39039,"is_reserved":false,"is_disabled":false,"rental_uris":{"android":"levelo://app?vid=9de036c4-decb-465b-a775-32e663a8924f","ios":"levelo://app?vid=9de036c4-decb-465b-a775-32e663a8924f"},"vehicle_type_id":"4","last_reported":1726726420,"current_range_meters":38800,"station_id":"ce4bhr92rcd13ifvqhrg","pricing_plan_id":"cebpf4jnsgd1na2vs0mg"},{"bike_id":"3a643a13-d852-4164-b5f1-2086ca5ef5c3","system_id":"levelo_inurba_marseille","lat":43.30301,"lon":5.36959,"is_reserved":false,"is_disabled":false,"rental_uris":{"android":"levelo://app?vid=3a643a13-d852-4164-b5f1-2086ca5ef5c3","ios":"levelo://app?vid=3a643a13-d852-4164-b5f1-2086ca5ef5c3"},"vehicle_type_id":"4","last_reported":1726726420,"current_range_meters":16000,"station_id":"ce4bgqh2rcd13ifvqc5g","pricing_plan_id":"cebpf4jnsgd1na2vs0mg"},{"bike_id":"97cb0afe-eaff-4950-a324-43eacb96b98a","system_id":"levelo_inurba_marseille","lat":43.26946,"lon":5.40258,"is_reserved":false,"is_disabled":false,"rental_uris":{"android":"levelo://app?vid=97cb0afe-eaff-4950-a324-43eacb96b98a","ios":"levelo://app?vid=97cb0afe-eaff-4950-a324-43eacb96b98a"},"vehicle_type_id":"4","last_reported":1726726420,"current_range_meters":38000,"station_id":"cjm6bp8fraef2m0cb0m0","pricing_plan_id":"cebpf4jnsgd1na2vs0mg"},{"bike_id":"9d09d887-3abc-4ff6-9082-fcd0fbf42a9a","system_id":"levelo_inurba_marseille","lat":43.300323,"lon":5.365902,"is_reserved":false,"is_disabled":false,"rental_uris":{"android":"levelo://app?vid=9d09d887-3abc-4ff6-9082-fcd0fbf42a9a","ios":"levelo://app?vid=9d09d887-3abc-4ff6-9082-fcd0fbf42a9a"},"vehicle_type_id":"4","last_reported":1726726420,"current_range_meters":25600,"station_id":"ce4bgm92rcd13ifvqbr0","pricing_plan_id":"cebpf4jnsgd1na2vs0mg"},{"bike_id":"7b82eb41-42c7-4353-a151-8f2dbf8f025e","system_id":"levelo_inurba_marseille","lat":43.27052,"lon":5.40258,"is_reserved":false,"is_disabled":false,"rental_uris":{"android":"levelo://app?vid=7b82eb41-42c7-4353-a151-8f2dbf8f025e","ios":"levelo://app?vid=7b82eb41-42c7-4353-a151-8f2dbf8f025e"},"vehicle_type_id":"4","last_reported":1726726420,"current_range_meters":38400,"station_id":"ce4bhk92rcd13ifvqgc0","pricing_plan_id":"cebpf4jnsgd1na2vs0mg"},{"bike_id":"bdb174eb-f78d-4084-a274-bad92c5a701e","system_id":"levelo_inurba_marseille","lat":43.316883,"lon":5.404832,"is_reserved":false,"is_disabled":false,"rental_uris":{"android":"levelo://app?vid=bdb174eb-f78d-4084-a274-bad92c5a701e","ios":"levelo://app?vid=bdb174eb-f78d-4084-a274-bad92c5a701e"},"vehicle_type_id":"4","last_reported":1726726420,"current_range_meters":14400,"station_id":"ce4bh012rcd13ifvqd00","pricing_plan_id":"cebpf4jnsgd1na2vs0mg"},{"bike_id":"b1f51ce9-8c30-4281-804b-4c3643a2a65b","system_id":"levelo_inurba_marseille","lat":43.30278,"lon":5.37699,"is_reserved":false,"is_disabled":false,"rental_uris":{"android":"levelo://app?vid=b1f51ce9-8c30-4281-804b-4c3643a2a65b","ios":"levelo://app?vid=b1f51ce9-8c30-4281-804b-4c3643a2a65b"},"vehicle_type_id":"4","last_reported":1726726420,"current_range_meters":36800,"station_id":"ce4bguh2rcd13ifvqcj0","pricing_plan_id":"cebpf4jnsgd1na2vs0mg"},{"bike_id":"d8ea7c99-fdb2-43e1-9d83-b2af98b96a92","system_id":"levelo_inurba_marseille","lat":43.27492,"lon":5.42451,"is_reserved":false,"is_disabled":false,"rental_uris":{"android":"levelo://app?vid=d8ea7c99-fdb2-43e1-9d83-b2af98b96a92","ios":"levelo://app?vid=d8ea7c99-fdb2-43e1-9d83-b2af98b96a92"},"vehicle_type_id":"4","last_reported":1726726420,"current_range_meters":30800,"station_id":"ce4bhn92rcd13ifvqgrg","pricing_plan_id":"cebpf4jnsgd1na2vs0mg"},{"bike_id":"ae9b2c42-946f-4dd5-9c55-ce5a356bd4cc","system_id":"levelo_inurba_marseille","lat":43.28363,"lon":5.386348,"is_reserved":false,"is_disabled":false,"rental_uris":{"android":"levelo://app?vid=ae9b2c42-946f-4dd5-9c55-ce5a356bd4cc","ios":"levelo://app?vid=ae9b2c42-946f-4dd5-9c55-ce5a356bd4cc"},"vehicle_type_id":"4","last_reported":1726726420,"current_range_meters":33200,"station_id":"ce4bh492rcd13ifvqdvg","pricing_plan_id":"cebpf4jnsgd1na2vs0mg"},{"bike_id":"7d54046c-3cf1-4344-8137-17101feedbd5","system_id":"levelo_inurba_marseille","lat":43.32288,"lon":5.38268,"is_reserved":false,"is_disabled":false,"rental_uris":{"android":"levelo://app?vid=7d54046c-3cf1-4344-8137-17101feedbd5","ios":"levelo://app?vid=7d54046c-3cf1-4344-8137-17101feedbd5"},"vehicle_type_id":"4","last_reported":1726726420,"current_range_meters":37600,"station_id":"ce4bhr12rcd13ifvqhqg","pricing_plan_id":"cebpf4jnsgd1na2vs0mg"},{"bike_id":"0b3121c6-4682-4fa3-a41b-a550c575e43b","system_id":"levelo_inurba_marseille","lat":43.31174,"lon":5.38715,"is_reserved":false,"is_disabled":false,"rental_uris":{"android":"levelo://app?vid=0b3121c6-4682-4fa3-a41b-a550c575e43b","ios":"levelo://app?vid=0b3121c6-4682-4fa3-a41b-a550c575e43b"},"vehicle_type_id":"4","last_reported":1726726420,"current_range_meters":28000,"station_id":"ce4bgv12rcd13ifvqcp0","pricing_plan_id":"cebpf4jnsgd1na2vs0mg"},{"bike_id":"fb7a12b1-aa5b-49c3-93a9-dbd851929674","system_id":"levelo_inurba_marseille","lat":43.27494,"lon":5.42458,"is_reserved":false,"is_disabled":false,"rental_uris":{"android":"levelo://app?vid=fb7a12b1-aa5b-49c3-93a9-dbd851929674","ios":"levelo://app?vid=fb7a12b1-aa5b-49c3-93a9-dbd851929674"},"vehicle_type_id":"4","last_reported":1726726420,"current_range_meters":36000,"station_id":"ce4bhn92rcd13ifvqgrg","pricing_plan_id":"cebpf4jnsgd1na2vs0mg"},{"bike_id":"3266cb01-f9f2-4f5a-a17a-f9ee756665df","system_id":"levelo_inurba_marseille","lat":43.305834,"lon":5.393266,"is_reserved":false,"is_disabled":false,"rental_uris":{"android":"levelo://app?vid=3266cb01-f9f2-4f5a-a17a-f9ee756665df","ios":"levelo://app?vid=3266cb01-f9f2-4f5a-a17a-f9ee756665df"},"vehicle_type_id":"4","last_reported":1726726420,"current_range_meters":36800,"station_id":"ce4bh0p2rcd13ifvqd80","pricing_plan_id":"cebpf4jnsgd1na2vs0mg"},{"bike_id":"0d84c521-a137-44f2-b0a2-27a88a6fd11c","system_id":"levelo_inurba_marseille","lat":43.3054,"lon":5.36693,"is_reserved":false,"is_disabled":false,"rental_uris":{"android":"levelo://app?vid=0d84c521-a137-44f2-b0a2-27a88a6fd11c","ios":"levelo://app?vid=0d84c521-a137-44f2-b0a2-27a88a6fd11c"},"vehicle_type_id":"4","last_reported":1726726420,"current_range_meters":24800,"station_id":"ce4bgrp2rcd13ifvqc9g","pricing_plan_id":"cebpf4jnsgd1na2vs0mg"},{"bike_id":"fa2e946d-01fe-4bb4-a2b0-55af60a0bcec","system_id":"levelo_inurba_marseille","lat":43.33722,"lon":5.39178,"is_reserved":false,"is_disabled":false,"rental_uris":{"android":"levelo://app?vid=fa2e946d-01fe-4bb4-a2b0-55af60a0bcec","ios":"levelo://app?vid=fa2e946d-01fe-4bb4-a2b0-55af60a0bcec"},"vehicle_type_id":"4","last_reported":1726726420,"current_range_meters":38000,"station_id":"ce4bhr92rcd13ifvqhsg","pricing_plan_id":"cebpf4jnsgd1na2vs0mg"},{"bike_id":"8d8772bd-fcaf-45e3-b5d7-2229472729ca","system_id":"levelo_inurba_marseille","lat":43.29278,"lon":5.40132,"is_reserved":false,"is_disabled":false,"rental_uris":{"android":"levelo://app?vid=8d8772bd-fcaf-45e3-b5d7-2229472729ca","ios":"levelo://app?vid=8d8772bd-fcaf-45e3-b5d7-2229472729ca"},"vehicle_type_id":"4","last_reported":1726726420,"current_range_meters":38000,"station_id":"ce4bh312rcd13ifvqdk0","pricing_plan_id":"cebpf4jnsgd1na2vs0mg"},{"bike_id":"ba4475d2-dc26-48c6-81d7-f2405336a72a","system_id":"levelo_inurba_marseille","lat":43.26949,"lon":5.38636,"is_reserved":false,"is_disabled":false,"rental_uris":{"android":"levelo://app?vid=ba4475d2-dc26-48c6-81d7-f2405336a72a","ios":"levelo://app?vid=ba4475d2-dc26-48c6-81d7-f2405336a72a"},"vehicle_type_id":"4","last_reported":1726726420,"current_range_meters":26800,"station_id":"ce4bhh92rcd13ifvqfh0","pricing_plan_id":"cebpf4jnsgd1na2vs0mg"},{"bike_id":"6f25435d-a9fe-4de6-8921-4f4064a1c012","system_id":"levelo_inurba_marseille","lat":43.25933,"lon":5.40909,"is_reserved":false,"is_disabled":false,"rental_uris":{"android":"levelo://app?vid=6f25435d-a9fe-4de6-8921-4f4064a1c012","ios":"levelo://app?vid=6f25435d-a9fe-4de6-8921-4f4064a1c012"},"vehicle_type_id":"4","last_reported":1726726420,"current_range_meters":23200,"station_id":"ce4bhm92rcd13ifvqglg","pricing_plan_id":"cebpf4jnsgd1na2vs0mg"},{"bike_id":"149cdb4e-2460-4cfb-865c-f50a73d93d21","system_id":"levelo_inurba_marseille","lat":43.23963,"lon":5.36635,"is_reserved":false,"is_disabled":false,"rental_uris":{"android":"levelo://app?vid=149cdb4e-2460-4cfb-865c-f50a73d93d21","ios":"levelo://app?vid=149cdb4e-2460-4cfb-865c-f50a73d93d21"},"vehicle_type_id":"4","last_reported":1726726420,"current_range_meters":30800,"station_id":"ce4bhi12rcd13ifvqfp0","pricing_plan_id":"cebpf4jnsgd1na2vs0mg"},{"bike_id":"e61ab58d-d3aa-4087-b64f-ec21ade820d6","system_id":"levelo_inurba_marseille","lat":43.2834,"lon":5.38102,"is_reserved":false,"is_disabled":false,"rental_uris":{"android":"levelo://app?vid=e61ab58d-d3aa-4087-b64f-ec21ade820d6","ios":"levelo://app?vid=e61ab58d-d3aa-4087-b64f-ec21ade820d6"},"vehicle_type_id":"4","last_reported":1726726420,"current_range_meters":21600,"station_id":"ce4bh412rcd13ifvqdr0","pricing_plan_id":"cebpf4jnsgd1na2vs0mg"},{"bike_id":"2e0ce6c6-d229-4ab4-8b2a-053cf1691ba7","system_id":"levelo_inurba_marseille","lat":43.30472,"lon":5.37902,"is_reserved":false,"is_disabled":false,"rental_uris":{"android":"levelo://app?vid=2e0ce6c6-d229-4ab4-8b2a-053cf1691ba7","ios":"levelo://app?vid=2e0ce6c6-d229-4ab4-8b2a-053cf1691ba7"},"vehicle_type_id":"4","last_reported":1726726420,"current_range_meters":36400,"station_id":"ce4bgup2rcd13ifvqcn0","pricing_plan_id":"cebpf4jnsgd1na2vs0mg"},{"bike_id":"26d3b653-2a79-4aaa-94be-93912f8d6f6b","system_id":"levelo_inurba_marseille","lat":43.290158,"lon":5.368328,"is_reserved":false,"is_disabled":false,"rental_uris":{"android":"levelo://app?vid=26d3b653-2a79-4aaa-94be-93912f8d6f6b","ios":"levelo://app?vid=26d3b653-2a79-4aaa-94be-93912f8d6f6b"},"vehicle_type_id":"4","last_reported":1726726420,"current_range_meters":38000,"station_id":"ce4bhc92rcd13ifvqetg","pricing_plan_id":"cebpf4jnsgd1na2vs0mg"},{"bike_id":"f84c07cb-ff23-4dd7-9634-7c6d17498a94","system_id":"levelo_inurba_marseille","lat":43.28858,"lon":5.35828,"is_reserved":false,"is_disabled":false,"rental_uris":{"android":"levelo://app?vid=f84c07cb-ff23-4dd7-9634-7c6d17498a94","ios":"levelo://app?vid=f84c07cb-ff23-4dd7-9634-7c6d17498a94"},"vehicle_type_id":"4","last_reported":1726726420,"current_range_meters":2800,"station_id":"ce4bhb12rcd13ifvqem0","pricing_plan_id":"cebpf4jnsgd1na2vs0mg"},{"bike_id":"ba149568-0b07-4538-9718-605743e49ac6","system_id":"levelo_inurba_marseille","lat":43.29636,"lon":5.40585,"is_reserved":false,"is_disabled":false,"rental_uris":{"android":"levelo://app?vid=ba149568-0b07-4538-9718-605743e49ac6","ios":"levelo://app?vid=ba149568-0b07-4538-9718-605743e49ac6"},"vehicle_type_id":"4","last_reported":1726726420,"current_range_meters":8000,"station_id":"ce4bh0h2rcd13ifvqd60","pricing_plan_id":"cebpf4jnsgd1na2vs0mg"},{"bike_id":"328d45f9-980e-4811-97c0-47d761861509","system_id":"levelo_inurba_marseille","lat":43.29847,"lon":5.37836,"is_reserved":false,"is_disabled":false,"rental_uris":{"android":"levelo://app?vid=328d45f9-980e-4811-97c0-47d761861509","ios":"levelo://app?vid=328d45f9-980e-4811-97c0-47d761861509"},"vehicle_type_id":"4","last_reported":1726726420,"current_range_meters":8000,"station_id":"ce4bgkh2rcd13ifvqbl0","pricing_plan_id":"cebpf4jnsgd1na2vs0mg"},{"bike_id":"842a4bdb-1262-4d4d-96a5-9778493f31d8","system_id":"levelo_inurba_marseille","lat":43.28472,"lon":5.35886,"is_reserved":false,"is_disabled":false,"rental_uris":{"android":"levelo://app?vid=842a4bdb-1262-4d4d-96a5-9778493f31d8","ios":"levelo://app?vid=842a4bdb-1262-4d4d-96a5-9778493f31d8"},"vehicle_type_id":"4","last_reported":1726726420,"current_range_meters":20000,"station_id":"ce4bhah2rcd13ifvqei0","pricing_plan_id":"cebpf4jnsgd1na2vs0mg"},{"bike_id":"01cd51da-b961-4bd0-adee-b192b3b29a9f","system_id":"levelo_inurba_marseille","lat":43.258602,"lon":5.398982,"is_reserved":false,"is_disabled":false,"rental_uris":{"android":"levelo://app?vid=01cd51da-b961-4bd0-adee-b192b3b29a9f","ios":"levelo://app?vid=01cd51da-b961-4bd0-adee-b192b3b29a9f"},"vehicle_type_id":"4","last_reported":1726726420,"current_range_meters":35600,"station_id":"ce4bhl92rcd13ifvqghg","pricing_plan_id":"cebpf4jnsgd1na2vs0mg"},{"bike_id":"adbdb4b6-247b-4677-8835-76743df70dbc","system_id":"levelo_inurba_marseille","lat":43.30475,"lon":5.37914,"is_reserved":false,"is_disabled":false,"rental_uris":{"android":"levelo://app?vid=adbdb4b6-247b-4677-8835-76743df70dbc","ios":"levelo://app?vid=adbdb4b6-247b-4677-8835-76743df70dbc"},"vehicle_type_id":"4","last_reported":1726726420,"current_range_meters":38000,"station_id":"ce4bgup2rcd13ifvqcn0","pricing_plan_id":"cebpf4jnsgd1na2vs0mg"},{"bike_id":"3ea254c0-3269-492c-82ea-46ba9c81643b","system_id":"levelo_inurba_marseille","lat":43.2872,"lon":5.37931,"is_reserved":false,"is_disabled":false,"rental_uris":{"android":"levelo://app?vid=3ea254c0-3269-492c-82ea-46ba9c81643b","ios":"levelo://app?vid=3ea254c0-3269-492c-82ea-46ba9c81643b"},"vehicle_type_id":"4","last_reported":1726726420,"current_range_meters":38400,"station_id":"ce4bh9p2rcd13ifvqec0","pricing_plan_id":"cebpf4jnsgd1na2vs0mg"},{"bike_id":"d2072c85-e5af-46db-a487-0b7c12e02cec","system_id":"levelo_inurba_marseille","lat":43.26199,"lon":5.37934,"is_reserved":false,"is_disabled":false,"rental_uris":{"android":"levelo://app?vid=d2072c85-e5af-46db-a487-0b7c12e02cec","ios":"levelo://app?vid=d2072c85-e5af-46db-a487-0b7c12e02cec"},"vehicle_type_id":"4","last_reported":1726726420,"current_range_meters":39200,"station_id":"ce4bhjp2rcd13ifvqg90","pricing_plan_id":"cebpf4jnsgd1na2vs0mg"},{"bike_id":"fa690805-233a-4a70-a9f3-33f1b67cdb1f","system_id":"levelo_inurba_marseille","lat":43.32292,"lon":5.38249,"is_reserved":false,"is_disabled":false,"rental_uris":{"android":"levelo://app?vid=fa690805-233a-4a70-a9f3-33f1b67cdb1f","ios":"levelo://app?vid=fa690805-233a-4a70-a9f3-33f1b67cdb1f"},"vehicle_type_id":"4","last_reported":1726726420,"current_range_meters":24800,"station_id":"ce4bhr12rcd13ifvqhqg","pricing_plan_id":"cebpf4jnsgd1na2vs0mg"},