{"last_updated":1748877126,"ttl":60,"version":"2.2","data":{"bikes":[{"bike_id":"1dace7ea-26d9-4c85-9d01-671f021f08e4","system_id":"levelo_inurba_marseille","lat":43.25399,"lon":5.41503,"is_reserved":false,"is_disabled":false,"rental_uris":{"android":"levelo://app?vid=1dace7ea-26d9-4c85-9d01-671f021f08e4","ios":"levelo://app?vid=1dace7ea-26d9-4c85-9d01-671f021f08e4"},"vehicle_type_id":"4","last_reported":1748877126,"current_range_meters":2800,"station_id":"","pricing_plan_id":"cebpf4jnsgd1na2vs0mg"},{"bike_id":"856921fa-71f2-4879-a42b-58fd6d7b6a14","system_id":"levelo_inurba_marseille","lat":43.320069,"lon":5.394663,"is_reserved":false,"is_disabled":false,"rental_uris":{"android":"levelo://app?vid=856921fa-71f2-4879-a42b-58fd6d7b6a14","ios":"levelo://app?vid=856921fa-71f2-4879-a42b-58fd6d7b6a14"},"vehicle_type_id":"4","last_reported":1748877126,"current_range_meters":2800,"station_id":"","pricing_plan_id":"cebpf4jnsgd1na2vs0mg"},{"bike_id":"4d17502a-3a4e-486f-9575-39466179435e","system_id":"levelo_inurba_marseille","lat":43.29959,"lon":5.41319,"is_reserved":false,"is_disabled":false,"rental_uris":{"android":"levelo://app?vid=4d17502a-3a4e-486f-9575-39466179435e","ios":"levelo://app?vid=4d17502a-3a4e-486f-9575-39466179435e"},"vehicle_type_id":"4","last_reported":1748877126,"current_range_meters":2800,"station_id":"ce4bhp12rcd13ifvqh9g","pricing_plan_id":"cebpf4jnsgd1na2vs0mg"},{"bike_id":"970a5803-d888-409c-8abb-5bf8657b9fe5","system_id":"levelo_inurba_marseille","lat":43.29196,"lon":5.39312,"is_reserved":false,"is_disabled":false,"rental_uris":{"android":"levelo://app?vid=970a5803-d888-409c-8abb-5bf8657b9fe5","ios":"levelo://app?vid=970a5803-d888-409c-8abb-5bf8657b9fe5"},"vehicle_type_id":"4","last_reported":1748877126,"current_range_meters":3200,"station_id":"","pricing_plan_id":"cebpf4jnsgd1na2vs0mg"},{"bike_id":"ec130cc7-7c3e-4f6a-ae65-6adf4e5c82dc","system_id":"levelo_inurba_marseille","lat":43.265686,"lon":5.390279,"is_reserved":false,"is_disabled":false,"rental_uris":{"android":"levelo://app?vid=ec130cc7-7c3e-4f6a-ae65-6adf4e5c82dc","ios":"levelo://app?vid=ec130cc7-7c3e-4f6a-ae65-6adf4e5c82dc"},"vehicle_type_id":"4","last_reported":1748877126,"current_range_meters":800,"station_id":"","pricing_plan_id":"cebpf4jnsgd1na2vs0mg"},{"bike_id":"6fab51e6-a427-48b0-bce5-51e6de09b71b","system_id":"levelo_inurba_marseille","lat":43.3022,"lon":5.39459,"is_reserved":false,"is_disabled":false,"rental_uris":{"android":"levelo://app?vid=6fab51e6-a427-48b0-bce5-51e6de09b71b","ios":"levelo://app?vid=6fab51e6-a427-48b0-bce5-51e6de09b71b"},"vehicle_type_id":"4","last_reported":1748877126,"current_range_meters":4000,"station_id":"ce4bh0p2rcd13ifvqd70","pricing_plan_id":"cebpf4jnsgd1na2vs0mg"},{"bike_id":"cb06cd61-ecf3-4477-be71-9c674284f486","system_id":"levelo_inurba_marseille","lat":43.26947,"lon":5.40247,"is_reserved":false,"is_disabled":false,"rental_uris":{"android":"levelo://app?vid=cb06cd61-ecf3-4477-be71-9c674284f486","ios":"levelo://app?vid=cb06cd61-ecf3-4477-be71-9c674284f486"},"vehicle_type_id":"4","last_reported":1748877126,"current_range_meters":4800,"station_id":"cjm6bp8fraef2m0cb0m0","pricing_plan_id":"cebpf4jnsgd1na2vs0mg"},{"bike_id":"c534f9fd-0ef7-4daa-9949-2ffa9f22c156","system_id":"levelo_inurba_marseille","lat":43.2944,"lon":5.39751,"is_reserved":false,"is_disabled":false,"rental_uris":{"android":"levelo://app?vid=c534f9fd-0ef7-4daa-9949-2ffa9f22c156","ios":"levelo://app?vid=c534f9fd-0ef7-4daa-9949-2ffa9f22c156"},"vehicle_type_id":"4","last_reported":1748877126,"current_range_meters":4400,"station_id":"ce4bh3h2rcd13ifvqdo0","pricing_plan_id":"cebpf4jnsgd1na2vs0mg"},{"bike_id":"2c51bf75-a8fa-4375-940c-debae4af8f78","system_id":"levelo_inurba_marseille","lat":43.29188,"lon":5.39318,"is_reserved":false,"is_disabled":false,"rental_uris":{"android":"levelo://app?vid=2c51bf75-a8fa-4375-940c-debae4af8f78","ios":"levelo://app?vid=2c51bf75-a8fa-4375-940c-debae4af8f78"},"vehicle_type_id":"4","last_reported":1748877126,"current_range_meters":2000,"station_id":"ce4bh192rcd13ifvqdd0","pricing_plan_id":"cebpf4jnsgd1na2vs0mg"},{"bike_id":"933d6da7-141d-4d3b-893a-54fbd3b23378","system_id":"levelo_inurba_marseille","lat":43.27208,"lon":5.39184,"is_reserved":false,"is_disabled":false,"rental_uris":{"android":"levelo://app?vid=933d6da7-141d-4d3b-893a-54fbd3b23378","ios":"levelo://app?vid=933d6da7-141d-4d3b-893a-54fbd3b23378"},"vehicle_type_id":"4","last_reported":1748877126,"current_range_meters":4400,"station_id":"ce4bhhp2rcd13ifvqfm0","pricing_plan_id":"cebpf4jnsgd1na2vs0mg"},{"bike_id":"915d93bf-2668-4b8b-bed3-b1e316621e51","system_id":"levelo_inurba_marseille","lat":43.26943,"lon":5.40259,"is_reserved":false,"is_disabled":false,"rental_uris":{"android":"levelo://app?vid=915d93bf-2668-4b8b-bed3-b1e316621e51","ios":"levelo://app?vid=915d93bf-2668-4b8b-bed3-b1e316621e51"},"vehicle_type_id":"4","last_reported":1748877126,"current_range_meters":4800,"station_id":"cjm6bp8fraef2m0cb0m0","pricing_plan_id":"cebpf4jnsgd1na2vs0mg"},{"bike_id":"cbdfedbf-68bd-413b-8be7-6b657f9edb96","system_id":"levelo_inurba_marseille","lat":43.31169,"lon":5.38716,"is_reserved":false,"is_disabled":false,"rental_uris":{"android":"levelo://app?vid=cbdfedbf-68bd-413b-8be7-6b657f9edb96","ios":"levelo://app?vid=cbdfedbf-68bd-413b-8be7-6b657f9edb96"},"vehicle_type_id":"4","last_reported":1748877126,"current_range_meters":4800,"station_id":"ce4bgv12rcd13ifvqcp0","pricing_plan_id":"cebpf4jnsgd1na2vs0mg"},{"bike_id":"a741ba59-fb41-4fa8-92ee-351757fa6ad8","system_id":"levelo_inurba_marseille","lat":43.30887,"lon":5.39646,"is_reserved":false,"is_disabled":false,"rental_uris":{"android":"levelo://app?vid=a741ba59-fb41-4fa8-92ee-351757fa6ad8","ios":"levelo://app?vid=a741ba59-fb41-4fa8-92ee-351757fa6ad8"},"vehicle_type_id":"4","last_reported":1748877126,"current_range_meters":4400,"station_id":"ce4bh012rcd13ifvqcv0","pricing_plan_id":"cebpf4jnsgd1na2vs0mg"},{"bike_id":"c97038f3-4518-4c9d-afaa-4920937e02fa","system_id":"levelo_inurba_marseille","lat":43.24626,"lon":5.393185,"is_reserved":false,"is_disabled":false,"rental_uris":{"android":"levelo://app?vid=c97038f3-4518-4c9d-afaa-4920937e02fa","ios":"levelo://app?vid=c97038f3-4518-4c9d-afaa-4920937e02fa"},"vehicle_type_id":"4","last_reported":1748877126,"current_range_meters":5600,"station_id":"","pricing_plan_id":"cebpf4jnsgd1na2vs0mg"},{"bike_id":"bff91e46-d50f-47f4-abcc-a302e9440288","system_id":"levelo_inurba_marseille","lat":43.33052,"lon":5.39611,"is_reserved":false,"is_disabled":false,"rental_uris":{"android":"levelo://app?vid=bff91e46-d50f-47f4-abcc-a302e9440288","ios":"levelo://app?vid=bff91e46-d50f-47f4-abcc-a302e9440288"},"vehicle_type_id":"4","last_reported":1748877126,"current_range_meters":5600,"station_id":"","pricing_plan_id":"cebpf4jnsgd1na2vs0mg"},{"bike_id":"f496eb2e-c512-46cd-8b23-0707b2cf1d28","system_id":"levelo_inurba_marseille","lat":43.30888,"lon":5.39642,"is_reserved":false,"is_disabled":false,"rental_uris":{"android":"levelo://app?vid=f496eb2e-c512-46cd-8b23-0707b2cf1d28","ios":"levelo://app?vid=f496eb2e-c512-46cd-8b23-0707b2cf1d28"},"vehicle_type_id":"4","last_reported":1748877126,"current_range_meters":5600,"station_id":"ce4bh012rcd13ifvqcv0","pricing_plan_id":"cebpf4jnsgd1na2vs0mg"},{"bike_id":"63566ba0-f5e7-4d9c-b129-1c81a20a1fb4","system_id":"levelo_inurba_marseille","lat":43.30541,"lon":5.36563,"is_reserved":false,"is_disabled":false,"rental_uris":{"android":"levelo://app?vid=63566ba0-f5e7-4d9c-b129-1c81a20a1fb4","ios":"levelo://app?vid=63566ba0-f5e7-4d9c-b129-1c81a20a1fb4"},"vehicle_type_id":"4","last_reported":1748877126,"current_range_meters":6000,"station_id":"ce4bgs12rcd13ifvqcag","pricing_plan_id":"cebpf4jnsgd1na2vs0mg"},{"bike_id":"75ce62d9-418a-4253-a41f-177d82b26086","system_id":"levelo_inurba_marseille","lat":43.29901,"lon":5.4366,"is_reserved":false,"is_disabled":false,"rental_uris":{"android":"levelo://app?vid=75ce62d9-418a-4253-a41f-177d82b26086","ios":"levelo://app?vid=75ce62d9-418a-4253-a41f-177d82b26086"},"vehicle_type_id":"4","last_reported":1748877126,"current_range_meters":5600,"station_id":"ce4bhpp2rcd13ifvqhfg","pricing_plan_id":"cebpf4jnsgd1na2vs0mg"},{"bike_id":"aadb95fc-d156-41e0-9614-75d762b11d28","system_id":"levelo_inurba_marseille","lat":43.319568,"lon":5.440515,"is_reserved":false,"is_disabled":false,"rental_uris":{"android":"levelo://app?vid=aadb95fc-d156-41e0-9614-75d762b11d28","ios":"levelo://app?vid=aadb95fc-d156-41e0-9614-75d762b11d28"},"vehicle_type_id":"4","last_reported":1748877126,"current_range_meters":6000,"station_id":"","pricing_plan_id":"cebpf4jnsgd1na2vs0mg"},{"bike_id":"6c525348-9f77-4d43-98bc-d6fd6cad758a","system_id":"levelo_inurba_marseille","lat":43.29632,"lon":5.40598,"is_reserved":false,"is_disabled":false,"rental_uris":{"android":"levelo://app?vid=6c525348-9f77-4d43-98bc-d6fd6cad758a","ios":"levelo://app?vid=6c525348-9f77-4d43-98bc-d6fd6cad758a"},"vehicle_type_id":"4","last_reported":1748877126,"current_range_meters":6000,"station_id":"ce4bh0h2rcd13ifvqd60","pricing_plan_id":"cebpf4jnsgd1na2vs0mg"},{"bike_id":"220687d7-d31a-4695-91d3-565013b3816f","system_id":"levelo_inurba_marseille","lat":43.29375,"lon":5.37848,"is_reserved":false,"is_disabled":false,"rental_uris":{"android":"levelo://app?vid=220687d7-d31a-4695-91d3-565013b3816f","ios":"levelo://app?vid=220687d7-d31a-4695-91d3-565013b3816f"},"vehicle_type_id":"4","last_reported":1748877126,"current_range_meters":6400,"station_id":"ce4bgjh2rcd13ifvqbf0","pricing_plan_id":"cebpf4jnsgd1na2vs0mg"},{"bike_id":"bfc5ef3f-b45a-4475-9ae4-9a0465f66e15","system_id":"levelo_inurba_marseille","lat":43.251187,"lon":5.393573,"is_reserved":false,"is_disabled":false,"rental_uris":{"android":"levelo://app?vid=bfc5ef3f-b45a-4475-9ae4-9a0465f66e15","ios":"levelo://app?vid=bfc5ef3f-b45a-4475-9ae4-9a0465f66e15"},"vehicle_type_id":"4","last_reported":1748877126,"current_range_meters":6400,"station_id":"","pricing_plan_id":"cebpf4jnsgd1na2vs0mg"},{"bike_id":"f410595f-ba4b-4e8a-9ce3-26ed30b331f6","system_id":"levelo_inurba_marseille","lat":43.27819,"lon":5.40719,"is_reserved":false,"is_disabled":false,"rental_uris":{"android":"levelo://app?vid=f410595f-ba4b-4e8a-9ce3-26ed30b331f6","ios":"levelo://app?vid=f410595f-ba4b-4e8a-9ce3-26ed30b331f6"},"vehicle_type_id":"4","last_reported":1748877126,"current_range_meters":6400,"station_id":"ce4bhnh2rcd13ifvqgtg","pricing_plan_id":"cebpf4jnsgd1na2vs0mg"},{"bike_id":"1402a7c3-248d-4e50-9a09-448f8b9acc18","system_id":"levelo_inurba_marseille","lat":43.304247,"lon":5.412917,"is_reserved":false,"is_disabled":false,"rental_uris":{"android":"levelo://app?vid=1402a7c3-248d-4e50-9a09-448f8b9acc18","ios":"levelo://app?vid=1402a7c3-248d-4e50-9a09-448f8b9acc18"},"vehicle_type_id":"4","last_reported":1748877126,"current_range_meters":6800,"station_id":"ce4bhop2rcd13ifvqh8g","pricing_plan_id":"cebpf4jnsgd1na2vs0mg"},{"bike_id":"3847bbe1-7b34-4052-b33b-25d997e0183d","system_id":"levelo_inurba_marseille","lat":43.23198,"lon":5.35548,"is_reserved":false,"is_disabled":false,"rental_uris":{"android":"levelo://app?vid=3847bbe1-7b34-4052-b33b-25d997e0183d","ios":"levelo://app?vid=3847bbe1-7b34-4052-b33b-25d997e0183d"},"vehicle_type_id":"4","last_reported":1748877126,"current_range_meters":6800,"station_id":"ce4bhu92rcd13ifvqi70","pricing_plan_id":"cebpf4jnsgd1na2vs0mg"},{"bike_id":"3bb92c33-91d8-4f88-8f2c-672c7868f4ad","system_id":"levelo_inurba_marseille","lat":43.32866,"lon":5.40573,"is_reserved":false,"is_disabled":false,"rental_uris":{"android":"levelo://app?vid=3bb92c33-91d8-4f88-8f2c-672c7868f4ad","ios":"levelo://app?vid=3bb92c33-91d8-4f88-8f2c-672c7868f4ad"},"vehicle_type_id":"4","last_reported":1748877126,"current_range_meters":6800,"station_id":"","pricing_plan_id":"cebpf4jnsgd1na2vs0mg"},{"bike_id":"40b4286f-b6c2-4bfc-b841-edfe7aa5cce9","system_id":"levelo_inurba_marseille","lat":43.27565,"lon":5.3843,"is_reserved":false,"is_disabled":false,"rental_uris":{"android":"levelo://app?vid=40b4286f-b6c2-4bfc-b841-edfe7aa5cce9","ios":"levelo://app?vid=40b4286f-b6c2-4bfc-b841-edfe7aa5cce9"},"vehicle_type_id":"4","last_reported":1748877126,"current_range_meters":6800,"station_id":"ce4bhh92rcd13ifvqfi0","pricing_plan_id":"cebpf4jnsgd1na2vs0mg"},{"bike_id":"6c58d642-0f6d-4103-85ab-59d593919366","system_id":"levelo_inurba_marseille","lat":43.34163,"lon":5.40939,"is_reserved":false,"is_disabled":false,"rental_uris":{"android":"levelo://app?vid=6c58d642-0f6d-4103-85ab-59d593919366","ios":"levelo://app?vid=6c58d642-0f6d-4103-85ab-59d593919366"},"vehicle_type_id":"4","last_reported":1748877126,"current_range_meters":7200,"station_id":"ce4bhqh2rcd13ifvqhlg","pricing_plan_id":"cebpf4jnsgd1na2vs0mg"},{"bike_id":"43df8678-f7df-481c-9ada-60e3f3db1487","system_id":"levelo_inurba_marseille","lat":43.28339,"lon":5.35011,"is_reserved":false,"is_disabled":false,"rental_uris":{"android":"levelo://app?vid=43df8678-f7df-481c-9ada-60e3f3db1487","ios":"levelo://app?vid=43df8678-f7df-481c-9ada-60e3f3db1487"},"vehicle_type_id":"4","last_reported":1748877126,"current_range_meters":7200,"station_id":"","pricing_plan_id":"cebpf4jnsgd1na2vs0mg"},{"bike_id":"86b3e519-0266-4c04-9dbc-5a5713f913c6","system_id":"levelo_inurba_marseille","lat":43.23182,"lon":5.39996,"is_reserved":false,"is_disabled":false,"rental_uris":{"android":"levelo://app?vid=86b3e519-0266-4c04-9dbc-5a5713f913c6","ios":"levelo://app?vid=86b3e519-0266-4c04-9dbc-5a5713f913c6"},"vehicle_type_id":"4","last_reported":1748877126,"current_range_meters":7200,"station_id":"ce4bhn12rcd13ifvqgqg","pricing_plan_id":"cebpf4jnsgd1na2vs0mg"},{"bike_id":"e9c10b6e-993e-4045-b0cd-2ddfea388a4e","system_id":"levelo_inurba_marseille","lat":43.23189,"lon":5.35555,"is_reserved":false,"is_disabled":false,"rental_uris":{"android":"levelo://app?vid=e9c10b6e-993e-4045-b0cd-2ddfea388a4e","ios":"levelo://app?vid=e9c10b6e-993e-4045-b0cd-2ddfea388a4e"},"vehicle_type_id":"4","last_reported":1748877126,"current_range_meters":7200,"station_id":"ce4bhu92rcd13ifvqi70","pricing_plan_id":"cebpf4jnsgd1na2vs0mg"},{"bike_id":"036a3f84-6c04-4f85-bd69-c60fcc1a093a","system_id":"levelo_inurba_marseille","lat":43.3305,"lon":5.39733,"is_reserved":false,"is_disabled":false,"rental_uris":{"android":"levelo://app?vid=036a3f84-6c04-4f85-bd69-c60fcc1a093a","ios":"levelo://app?vid=036a3f84-6c04-4f85-bd69-c60fcc1a093a"},"vehicle_type_id":"4","last_reported":1748877126,"current_range_meters":7200,"station_id":"","pricing_plan_id":"cebpf4jnsgd1na2vs0mg"},{"bike_id":"7a915cad-0eb6-4b58-9f96-c0c82a56f71d","system_id":"levelo_inurba_marseille","lat":43.26555,"lon":5.37289,"is_reserved":false,"is_disabled":false,"rental_uris":{"android":"levelo://app?vid=7a915cad-0eb6-4b58-9f96-c0c82a56f71d","ios":"levelo://app?vid=7a915cad-0eb6-4b58-9f96-c0c82a56f71d"},"vehicle_type_id":"4","last_reported":1748877126,"current_range_meters":8000,"station_id":"ce4bhg12rcd13ifvqf70","pricing_plan_id":"cebpf4jnsgd1na2vs0mg"},{"bike_id":"6e8749e3-8a3c-4cc2-abd2-de6aca1a0f70","system_id":"levelo_inurba_marseille","lat":43.31337,"lon":5.36725,"is_reserved":false,"is_disabled":false,"rental_uris":{"android":"levelo://app?vid=6e8749e3-8a3c-4cc2-abd2-de6aca1a0f70","ios":"levelo://app?vid=6e8749e3-8a3c-4cc2-abd2-de6aca1a0f70"},"vehicle_type_id":"4","last_reported":1748877126,"current_range_meters":8000,"station_id":"ce4bgr92rcd13ifvqc6g","pricing_plan_id":"cebpf4jnsgd1na2vs0mg"},{"bike_id":"095440c8-c4ee-47dc-8d21-60e516d951ef","system_id":"levelo_inurba_marseille","lat":43.31713,"lon":5.3774,"is_reserved":false,"is_disabled":false,"rental_uris":{"android":"levelo://app?vid=095440c8-c4ee-47dc-8d21-60e516d951ef","ios":"levelo://app?vid=095440c8-c4ee-47dc-8d21-60e516d951ef"},"vehicle_type_id":"4","last_reported":1748877126,"current_range_meters":7200,"station_id":"ce4bgth2rcd13ifvqch0","pricing_plan_id":"cebpf4jnsgd1na2vs0mg"},{"bike_id":"77563c89-0ac2-4043-bd50-220ab97bc1f7","system_id":"levelo_inurba_marseille","lat":43.3233,"lon":5.38318,"is_reserved":false,"is_disabled":false,"rental_uris":{"android":"levelo://app?vid=77563c89-0ac2-4043-bd50-220ab97bc1f7","ios":"levelo://app?vid=77563c89-0ac2-4043-bd50-220ab97bc1f7"},"vehicle_type_id":"4","last_reported":1748877126,"current_range_meters":8000,"station_id":"","pricing_plan_id":"cebpf4jnsgd1na2vs0mg"},{"bike_id":"5dead81c-52cf-467b-885d-461d40fb80a5","system_id":"levelo_inurba_marseille","lat":43.25102,"lon":5.40963,"is_reserved":false,"is_disabled":false,"rental_uris":{"android":"levelo://app?vid=5dead81c-52cf-467b-885d-461d40fb80a5","ios":"levelo://app?vid=5dead81c-52cf-467b-885d-461d40fb80a5"},"vehicle_type_id":"4","last_reported":1748877126,"current_range_meters":8400,"station_id":"","pricing_plan_id":"cebpf4jnsgd1na2vs0mg"},{"bike_id":"5ba60d1f-a02c-4d47-a00b-4b05960fd282","system_id":"levelo_inurba_marseille","lat":43.30465,"lon":5.379,"is_reserved":false,"is_disabled":false,"rental_uris":{"android":"levelo://app?vid=5ba60d1f-a02c-4d47-a00b-4b05960fd282","ios":"levelo://app?vid=5ba60d1f-a02c-4d47-a00b-4b05960fd282"},"vehicle_type_id":"4","last_reported":1748877126,"current_range_meters":8000,"station_id":"ce4bgup2rcd13ifvqcn0","pricing_plan_id":"cebpf4jnsgd1na2vs0mg"},{"bike_id":"7490d5dc-735e-4375-8341-6d53750855b2","system_id":"levelo_inurba_marseille","lat":43.290507,"lon":5.37801,"is_reserved":false,"is_disabled":false,"rental_uris":{"android":"levelo://app?vid=7490d5dc-735e-4375-8341-6d53750855b2","ios":"levelo://app?vid=7490d5dc-735e-4375-8341-6d53750855b2"},"vehicle_type_id":"4","last_reported":1748877126,"current_range_meters":8400,"station_id":"","pricing_plan_id":"cebpf4jnsgd1na2vs0mg"},{"bike_id":"0b3654db-33dc-4a56-850c-0b6b7ac0b481","system_id":"levelo_inurba_marseille","lat":43.23084,"lon":5.40177,"is_reserved":false,"is_disabled":false,"rental_uris":{"android":"levelo://app?vid=0b3654db-33dc-4a56-850c-0b6b7ac0b481","ios":"levelo://app?vid=0b3654db-33dc-4a56-850c-0b6b7ac0b481"},"vehicle_type_id":"4","last_reported":1748877126,"current_range_meters":8400,"station_id":"","pricing_plan_id":"cebpf4jnsgd1na2vs0mg"},{"bike_id":"1cd3cb65-e4e6-4f9b-b340-27d5d9b7f8c0","system_id":"levelo_inurba_marseille","lat":43.281067,"lon":5.378429,"is_reserved":false,"is_disabled":false,"rental_uris":{"android":"levelo://app?vid=1cd3cb65-e4e6-4f9b-b340-27d5d9b7f8c0","ios":"levelo://app?vid=1cd3cb65-e4e6-4f9b-b340-27d5d9b7f8c0"},"vehicle_type_id":"4","last_reported":1748877126,"current_range_meters":8800,"station_id":"ce4bha12rcd13ifvqee0","pricing_plan_id":"cebpf4jnsgd1na2vs0mg"},{"bike_id":"a98be3f0-94f2-4463-b5be-36d1325bb18f","system_id":"levelo_inurba_marseille","lat":43.29309,"lon":5.3718,"is_reserved":false,"is_disabled":false,"rental_uris":{"android":"levelo://app?vid=a98be3f0-94f2-4463-b5be-36d1325bb18f","ios":"levelo://app?vid=a98be3f0-94f2-4463-b5be-36d1325bb18f"},"vehicle_type_id":"4","last_reported":1748877126,"current_range_meters":8400,"station_id":"ce4bgh92rcd13ifvqb40","pricing_plan_id":"cebpf4jnsgd1na2vs0mg"},{"bike_id":"192d9296-06ba-43ca-95c8-f8c427a0cd9a","system_id":"levelo_inurba_marseille","lat":43.28464,"lon":5.35889,"is_reserved":false,"is_disabled":false,"rental_uris":{"android":"levelo://app?vid=192d9296-06ba-43ca-95c8-f8c427a0cd9a","ios":"levelo://app?vid=192d9296-06ba-43ca-95c8-f8c427a0cd9a"},"vehicle_type_id":"4","last_reported":1748877126,"current_range_meters":8800,"station_id":"ce4bhah2rcd13ifvqei0","pricing_plan_id":"cebpf4jnsgd1na2vs0mg"},{"bike_id":"082c3033-90af-4660-9ab8-23e055d21e55","system_id":"levelo_inurba_marseille","lat":43.280296,"lon":5.369604,"is_reserved":false,"is_disabled":false,"rental_uris":{"android":"levelo://app?vid=082c3033-90af-4660-9ab8-23e055d21e55","ios":"levelo://app?vid=082c3033-90af-4660-9ab8-23e055d21e55"},"vehicle_type_id":"4","last_reported":1748877126,"current_range_meters":8800,"station_id":"ce4bha12rcd13ifvqef0","pricing_plan_id":"cebpf4jnsgd1na2vs0mg"},{"bike_id":"d72d5a5e-a033-4555-a5b7-2e9b101d2f01","system_id":"levelo_inurba_marseille","lat":43.24358,"lon":5.41151,"is_reserved":false,"is_disabled":false,"rental_uris":{"android":"levelo://app?vid=d72d5a5e-a033-4555-a5b7-2e9b101d2f01","ios":"levelo://app?vid=d72d5a5e-a033-4555-a5b7-2e9b101d2f01"},"vehicle_type_id":"4","last_reported":1748877126,"current_range_meters":8800,"station_id":"","pricing_plan_id":"cebpf4jnsgd1na2vs0mg"},{"bike_id":"bffde4dc-1ae4-47f4-a510-f93a051ac069","system_id":"levelo_inurba_marseille","lat":43.32364,"lon":5.38927,"is_reserved":false,"is_disabled":false,"rental_uris":{"android":"levelo://app?vid=bffde4dc-1ae4-47f4-a510-f93a051ac069","ios":"levelo://app?vid=bffde4dc-1ae4-47f4-a510-f93a051ac069"},"vehicle_type_id":"4","last_reported":1748877126,"current_range_meters":8800,"station_id":"ce4bhqp2rcd13ifvqhog","pricing_plan_id":"cebpf4jnsgd1na2vs0mg"},{"bike_id":"29477277-5f1a-4685-aa32-0550efaf57ce","system_id":"levelo_inurba_marseille","lat":43.24674,"lon":5.38165,"is_reserved":false,"is_disabled":false,"rental_uris":{"android":"levelo://app?vid=29477277-5f1a-4685-aa32-0550efaf57ce","ios":"levelo://app?vid=29477277-5f1a-4685-aa32-0550efaf57ce"},"vehicle_type_id":"4","last_reported":1748877126,"current_range_meters":8800,"station_id":"ce4bhih2rcd13ifvqfr0","pricing_plan_id":"cebpf4jnsgd1na2vs0mg"},{"bike_id":"73a4770d-0c02-48d5-a0f7-4d250b83527c","system_id":"levelo_inurba_marseille","lat":43.324747,"lon":5.424768,"is_reserved":false,"is_disabled":false,"rental_uris":{"android":"levelo://app?vid=73a4770d-0c02-48d5-a0f7-4d250b83527c","ios":"levelo://app?vid=73a4770d-0c02-48d5-a0f7-4d250b83527c"},"vehicle_type_id":"4","last_reported":1748877126,"current_range_meters":8800,"station_id":"","pricing_plan_id":"cebpf4jnsgd1na2vs0mg"},{"bike_id":"83ce62eb-58e6-431f-ab1d-3a1be43cf61d","system_id":"levelo_inurba_marseille","lat":43.26572,"lon":5.39015,"is_reserved":false,"is_disabled":false,"rental_uris":{"android":"levelo://app?vid=83ce62eb-58e6-431f-ab1d-3a1be43cf61d","ios":"levelo://app?vid=83ce62eb-58e6-431f-ab1d-3a1be43cf61d"},"vehicle_type_id":"4","last_reported":1748877126,"current_range_meters":9200,"station_id":"ce4bhe12rcd13ifvqf30","pricing_plan_id":"cebpf4jnsgd1na2vs0mg"},{"bike_id":"aa02ecc3-0174-452a-a499-158f0075f488","system_id":"levelo_inurba_marseille","lat":43.2959,"lon":5.36762,"is_reserved":false,"is_disabled":false,"rental_uris":{"android":"levelo://app?vid=aa02ecc3-0174-452a-a499-158f0075f488","ios":"levelo://app?vid=aa02ecc3-0174-452a-a499-158f0075f488"},"vehicle_type_id":"4","last_reported":1748877126,"current_range_meters":9200,"station_id":"ce4bgph2rcd13ifvqc2g","pricing_plan_id":"cebpf4jnsgd1na2vs0mg"},{"bike_id":"269fa9a4-087b-471f-ba7c-f36fc9fcf92d","system_id":"levelo_inurba_marseille","lat":43.30815,"lon":5.37645,"is_reserved":false,"is_disabled":false,"rental_uris":{"android":"levelo://app?vid=269fa9a4-087b-471f-ba7c-f36fc9fcf92d","ios":"levelo://app?vid=269fa9a4-087b-471f-ba7c-f36fc9fcf92d"},"vehicle_type_id":"4","last_reported":1748877126,"current_range_meters":9200,"station_id":"ce4bgv92rcd13ifvqcq0","pricing_plan_id":"cebpf4jnsgd1na2vs0mg"},{"bike_id":"bd3be324-18aa-4c24-8f4f-f14331d0a182","system_id":"levelo_inurba_marseille","lat":43.28039,"lon":5.36953,"is_reserved":false,"is_disabled":false,"rental_uris":{"android":"levelo://app?vid=bd3be324-18aa-4c24-8f4f-f14331d0a182","ios":"levelo://app?vid=bd3be324-18aa-4c24-8f4f-f14331d0a182"},"vehicle_type_id":"4","last_reported":1748877126,"current_range_meters":9200,"station_id":"ce4bha12rcd13ifvqef0","pricing_plan_id":"cebpf4jnsgd1na2vs0mg"},{"bike_id":"8e14470b-4bb5-4b2b-a452-bc23e6bdce40","system_id":"levelo_inurba_marseille","lat":43.31177,"lon":5.38705,"is_reserved":false,"is_disabled":false,"rental_uris":{"android":"levelo://app?vid=8e14470b-4bb5-4b2b-a452-bc23e6bdce40","ios":"levelo://app?vid=8e14470b-4bb5-4b2b-a452-bc23e6bdce40"},"vehicle_type_id":"4","last_reported":1748877126,"current_range_meters":9600,"station_id":"ce4bgv12rcd13ifvqcp0","pricing_plan_id":"cebpf4jnsgd1na2vs0mg"},{"bike_id":"8ea87a0d-69d4-40d5-b257-5cc21278759c","system_id":"levelo_inurba_marseille","lat":43.22946,"lon":5.35401,"is_reserved":false,"is_disabled":false,"rental_uris":{"android":"levelo://app?vid=8ea87a0d-69d4-40d5-b257-5cc21278759c","ios":"levelo://app?vid=8ea87a0d-69d4-40d5-b257-5cc21278759c"},"vehicle_type_id":"4","last_reported":1748877126,"current_range_meters":9600,"station_id":"cpo3532slgdg3j2ikp40","pricing_plan_id":"cebpf4jnsgd1na2vs0mg"},{"bike_id":"01faa626-655a-4183-ba2f-eacae8012c5b","system_id":"levelo_inurba_marseille","lat":43.292717,"lon":5.384376,"is_reserved":false,"is_disabled":false,"rental_uris":{"android":"levelo://app?vid=01faa626-655a-4183-ba2f-eacae8012c5b","ios":"levelo://app?vid=01faa626-655a-4183-ba2f-eacae8012c5b"},"vehicle_type_id":"4","last_reported":1748877126,"current_range_meters":9600,"station_id":"ce4bh692rcd13ifvqea0","pricing_plan_id":"cebpf4jnsgd1na2vs0mg"},{"bike_id":"afe42cf5-b493-4fb7-b710-2b3f0a107bae","system_id":"levelo_inurba_marseille","lat":43.31756,"lon":5.38757,"is_reserved":false,"is_disabled":false,"rental_uris":{"android":"levelo://app?vid=afe42cf5-b493-4fb7-b710-2b3f0a107bae","ios":"levelo://app?vid=afe42cf5-b493-4fb7-b710-2b3f0a107bae"},"vehicle_type_id":"4","last_reported":1748877126,"current_range_meters":9600,"station_id":"","pricing_plan_id":"cebpf4jnsgd1na2vs0mg"},{"bike_id":"6c842597-662d-4008-b404-86e67251dde8","system_id":"levelo_inurba_marseille","lat":43.28231,"lon":5.39083,"is_reserved":false,"is_disabled":false,"rental_uris":{"android":"levelo://app?vid=6c842597-662d-4008-b404-86e67251dde8","ios":"levelo://app?vid=6c842597-662d-4008-b404-86e67251dde8"},"vehicle_type_id":"4","last_reported":1748877126,"current_range_meters":9600,"station_id":"","pricing_plan_id":"cebpf4jnsgd1na2vs0mg"},{"bike_id":"75c664b5-8c32-42f6-9085-436c62fd99be","system_id":"levelo_inurba_marseille","lat":43.32397,"lon":5.36781,"is_reserved":false,"is_disabled":false,"rental_uris":{"android":"levelo://app?vid=75c664b5-8c32-42f6-9085-436c62fd99be","ios":"levelo://app?vid=75c664b5-8c32-42f6-9085-436c62fd99be"},"vehicle_type_id":"4","last_reported":1748877126,"current_range_meters":9600,"station_id":"","pricing_plan_id":"cebpf4jnsgd1na2vs0mg"},{"bike_id":"1f25d6a8-0883-40bc-86ef-561fa7f9c36d","system_id":"levelo_inurba_marseille","lat":43.28419,"lon":5.35,"is_reserved":false,"is_disabled":false,"rental_uris":{"android":"levelo://app?vid=1f25d6a8-0883-40bc-86ef-561fa7f9c36d","ios":"levelo://app?vid=1f25d6a8-0883-40bc-86ef-561fa7f9c36d"},"vehicle_type_id":"4","last_reported":1748877126,"current_range_meters":10000,"station_id":"ce4bhbh2rcd13ifvqepg","pricing_plan_id":"cebpf4jnsgd1na2vs0mg"},{"bike_id":"99d59ddb-ca3d-43a4-b2ac-7c92aea831a5","system_id":"levelo_inurba_marseille","lat":43.31355,"lon":5.36707,"is_reserved":false,"is_disabled":true,"rental_uris":{"android":"levelo://app?vid=99d59ddb-ca3d-43a4-b2ac-7c92aea831a5","ios":"levelo://app?vid=99d59ddb-ca3d-43a4-b2ac-7c92aea831a5"},"vehicle_type_id":"4","last_reported":1748877126,"current_range_meters":10000,"station_id":"ce4bgr92rcd13ifvqc6g","pricing_plan_id":"cebpf4jnsgd1na2vs0mg"},{"bike_id":"e9565f5c-a990-4582-bc2b-f570e46631f9","system_id":"levelo_inurba_marseille","lat":43.29194,"lon":5.39321,"is_reserved":false,"is_disabled":false,"rental_uris":{"android":"levelo://app?vid=e9565f5c-a990-4582-bc2b-f570e46631f9","ios":"levelo://app?vid=e9565f5c-a990-4582-bc2b-f570e46631f9"},"vehicle_type_id":"4","last_reported":1748877126,"current_range_meters":9600,"station_id":"ce4bh192rcd13ifvqdd0","pricing_plan_id":"cebpf4jnsgd1na2vs0mg"},{"bike_id":"4d332276-6667-40ed-865e-6fd34af22555","system_id":"levelo_inurba_marseille","lat":43.25115,"lon":5.40333,"is_reserved":false,"is_disabled":false,"rental_uris":{"android":"levelo://app?vid=4d332276-6667-40ed-865e-6fd34af22555","ios":"levelo://app?vid=4d332276-6667-40ed-865e-6fd34af22555"},"vehicle_type_id":"4","last_reported":1748877126,"current_range_meters":10000,"station_id":"ce4bhlh2rcd13ifvqgig","pricing_plan_id":"cebpf4jnsgd1na2vs0mg"},{"bike_id":"a0888236-4e90-4aeb-b880-7b9acc4d2d36","system_id":"levelo_inurba_marseille","lat":43.33026,"lon":5.39034,"is_reserved":false,"is_disabled":false,"rental_uris":{"android":"levelo://app?vid=a0888236-4e90-4aeb-b880-7b9acc4d2d36","ios":"levelo://app?vid=a0888236-4e90-4aeb-b880-7b9acc4d2d36"},"vehicle_type_id":"4","last_reported":1748877126,"current_range_meters":10000,"station_id":"ce4bhr92rcd13ifvqhrg","pricing_plan_id":"cebpf4jnsgd1na2vs0mg"},{"bike_id":"005bcc6c-5313-491c-af50-25a503840f66","system_id":"levelo_inurba_marseille","lat":43.217558,"lon":5.346019,"is_reserved":false,"is_disabled":false,"rental_uris":{"android":"levelo://app?vid=005bcc6c-5313-491c-af50-25a503840f66","ios":"levelo://app?vid=005bcc6c-5313-491c-af50-25a503840f66"},"vehicle_type_id":"4","last_reported":1748877126,"current_range_meters":10800,"station_id":"","pricing_plan_id":"cebpf4jnsgd1na2vs0mg"},{"bike_id":"c759cc67-2600-45b3-a714-716216519ed6","system_id":"levelo_inurba_marseille","lat":43.3013,"lon":5.39866,"is_reserved":false,"is_disabled":false,"rental_uris":{"android":"levelo://app?vid=c759cc67-2600-45b3-a714-716216519ed6","ios":"levelo://app?vid=c759cc67-2600-45b3-a714-716216519ed6"},"vehicle_type_id":"4","last_reported":1748877126,"current_range_meters":10800,"station_id":"ce4bh0h2rcd13ifvqd40","pricing_plan_id":"cebpf4jnsgd1na2vs0mg"},{"bike_id":"ca267b29-486d-4071-b7d8-46f0d3f35c35","system_id":"levelo_inurba_marseille","lat":43.28424,"lon":5.34983,"is_reserved":false,"is_disabled":false,"rental_uris":{"android":"levelo://app?vid=ca267b29-486d-4071-b7d8-46f0d3f35c35","ios":"levelo://app?vid=ca267b29-486d-4071-b7d8-46f0d3f35c35"},"vehicle_type_id":"4","last_reported":1748877126,"current_range_meters":10800,"station_id":"ce4bhbh2rcd13ifvqepg","pricing_plan_id":"cebpf4jnsgd1na2vs0mg"},{"bike_id":"a0e939b5-f6c3-451e-bae2-193e80cfa4b7","system_id":"levelo_inurba_marseille","lat":43.284197,"lon":5.349785,"is_reserved":false,"is_disabled":false,"rental_uris":{"android":"levelo://app?vid=a0e939b5-f6c3-451e-bae2-193e80cfa4b7","ios":"levelo://app?vid=a0e939b5-f6c3-451e-bae2-193e80cfa4b7"},"vehicle_type_id":"4","last_reported":1748877126,"current_range_meters":10800,"station_id":"ce4bhbh2rcd13ifvqepg","pricing_plan_id":"cebpf4jnsgd1na2vs0mg"},{"bike_id":"c36bd383-74a7-41fe-8c4e-b4e265509657","system_id":"levelo_inurba_marseille","lat":43.30191,"lon":5.3664,"is_reserved":false,"is_disabled":false,"rental_uris":{"android":"levelo://app?vid=c36bd383-74a7-41fe-8c4e-b4e265509657","ios":"levelo://app?vid=c36bd383-74a7-41fe-8c4e-b4e265509657"},"vehicle_type_id":"4","last_reported":1748877126,"current_range_meters":10800,"station_id":"ce4bgrh2rcd13ifvqc8g","pricing_plan_id":"cebpf4jnsgd1na2vs0mg"},{"bike_id":"b3702f9d-66cc-4f9e-a5c3-6bdcbacbe63a","system_id":"levelo_inurba_marseille","lat":43.29073,"lon":5.37165,"is_reserved":false,"is_disabled":false,"rental_uris":{"android":"levelo://app?vid=b3702f9d-66cc-4f9e-a5c3-6bdcbacbe63a","ios":"levelo://app?vid=b3702f9d-66cc-4f9e-a5c3-6bdcbacbe63a"},"vehicle_type_id":"4","last_reported":1748877126,"current_range_meters":10800,"station_id":"ce4bh5p2rcd13ifvqe4g","pricing_plan_id":"cebpf4jnsgd1na2vs0mg"},{"bike_id":"6eb4696e-ff7c-46d1-b911-1091dd510d69","system_id":"levelo_inurba_marseille","lat":43.30569,"lon":5.36537,"is_reserved":false,"is_disabled":false,"rental_uris":{"android":"levelo://app?vid=6eb4696e-ff7c-46d1-b911-1091dd510d69","ios":"levelo://app?vid=6eb4696e-ff7c-46d1-b911-1091dd510d69"},"vehicle_type_id":"4","last_reported":1748877126,"current_range_meters":11200,"station_id":"ce4bgs12rcd13ifvqcag","pricing_plan_id":"cebpf4jnsgd1na2vs0mg"},{"bike_id":"d54bad3a-7ff1-4a15-aeab-92cdac98e952","system_id":"levelo_inurba_marseille","lat":43.27882,"lon":5.3961,"is_reserved":false,"is_disabled":false,"rental_uris":{"android":"levelo://app?vid=d54bad3a-7ff1-4a15-aeab-92cdac98e952","ios":"levelo://app?vid=d54bad3a-7ff1-4a15-aeab-92cdac98e952"},"vehicle_type_id":"4","last_reported":1748877126,"current_range_meters":11200,"station_id":"","pricing_plan_id":"cebpf4jnsgd1na2vs0mg"},{"bike_id":"6f15d467-0f56-44da-8cbf-ab6994c38406","system_id":"levelo_inurba_marseille","lat":43.23184,"lon":5.3999,"is_reserved":false,"is_disabled":false,"rental_uris":{"android":"levelo://app?vid=6f15d467-0f56-44da-8cbf-ab6994c38406","ios":"levelo://app?vid=6f15d467-0f56-44da-8cbf-ab6994c38406"},"vehicle_type_id":"4","last_reported":1748877126,"current_range_meters":11600,"station_id":"ce4bhn12rcd13ifvqgqg","pricing_plan_id":"cebpf4jnsgd1na2vs0mg"},{"bike_id":"402dc227-a106-4373-a61d-d8b47e70d077","system_id":"levelo_inurba_marseille","lat":43.24073,"lon":5.37765,"is_reserved":false,"is_disabled":false,"rental_uris":{"android":"levelo://app?vid=402dc227-a106-4373-a61d-d8b47e70d077","ios":"levelo://app?vid=402dc227-a106-4373-a61d-d8b47e70d077"},"vehicle_type_id":"4","last_reported":1748877126,"current_range_meters":11600,"station_id":"ce4bhnp2rcd13ifvqgvg","pricing_plan_id":"cebpf4jnsgd1na2vs0mg"},{"bike_id":"dbaa25db-8d4d-40f9-95ed-8db9c227dff0","system_id":"levelo_inurba_marseille","lat":43.30596,"lon":5.37238,"is_reserved":false,"is_disabled":false,"rental_uris":{"android":"levelo://app?vid=dbaa25db-8d4d-40f9-95ed-8db9c227dff0","ios":"levelo://app?vid=dbaa25db-8d4d-40f9-95ed-8db9c227dff0"},"vehicle_type_id":"4","last_reported":1748877126,"current_range_meters":11200,"station_id":"ce4bgqh2rcd13ifvqc4g","pricing_plan_id":"cebpf4jnsgd1na2vs0mg"},{"bike_id":"569ee311-0d90-4f86-aecd-d0afa7bdb281","system_id":"levelo_inurba_marseille","lat":43.26577,"lon":5.39051,"is_reserved":false,"is_disabled":false,"rental_uris":{"android":"levelo://app?vid=569ee311-0d90-4f86-aecd-d0afa7bdb281","ios":"levelo://app?vid=569ee311-0d90-4f86-aecd-d0afa7bdb281"},"vehicle_type_id":"4","last_reported":1748877126,"current_range_meters":11600,"station_id":"ce4bhe12rcd13ifvqf30","pricing_plan_id":"cebpf4jnsgd1na2vs0mg"},{"bike_id":"d73bb055-483b-459f-a02f-8cba84a80cb5","system_id":"levelo_inurba_marseille","lat":43.28451,"lon":5.39206,"is_reserved":false,"is_disabled":false,"rental_uris":{"android":"levelo://app?vid=d73bb055-483b-459f-a02f-8cba84a80cb5","ios":"levelo://app?vid=d73bb055-483b-459f-a02f-8cba84a80cb5"},"vehicle_type_id":"4","last_reported":1748877126,"current_range_meters":11600,"station_id":"ce4bhoh2rcd13ifvqh5g","pricing_plan_id":"cebpf4jnsgd1na2vs0mg"},{"bike_id":"a274774c-6dd1-46a7-b769-33f768d679e7","system_id":"levelo_inurba_marseille","lat":43.28412,"lon":5.34988,"is_reserved":false,"is_disabled":false,"rental_uris":{"android":"levelo://app?vid=a274774c-6dd1-46a7-b769-33f768d679e7","ios":"levelo://app?vid=a274774c-6dd1-46a7-b769-33f768d679e7"},"vehicle_type_id":"4","last_reported":1748877126,"current_range_meters":11600,"station_id":"ce4bhbh2rcd13ifvqepg","pricing_plan_id":"cebpf4jnsgd1na2vs0mg"},{"bike_id":"0f30309f-7b66-4769-9810-8ca40cd81515","system_id":"levelo_inurba_marseille","lat":43.31067,"lon":5.38363,"is_reserved":false,"is_disabled":false,"rental_uris":{"android":"levelo://app?vid=0f30309f-7b66-4769-9810-8ca40cd81515","ios":"levelo://app?vid=0f30309f-7b66-4769-9810-8ca40cd81515"},"vehicle_type_id":"4","last_reported":1748877126,"current_range_meters":11600,"station_id":"ce4bgv92rcd13ifvqcr0","pricing_plan_id":"cebpf4jnsgd1na2vs0mg"},{"bike_id":"41ab561b-deed-4743-a96c-0360e4ec4d0e","system_id":"levelo_inurba_marseille","lat":43.298974,"lon":5.436692,"is_reserved":false,"is_disabled":false,"rental_uris":{"android":"levelo://app?vid=41ab561b-deed-4743-a96c-0360e4ec4d0e","ios":"levelo://app?vid=41ab561b-deed-4743-a96c-0360e4ec4d0e"},"vehicle_type_id":"4","last_reported":1748877126,"current_range_meters":11600,"station_id":"ce4bhpp2rcd13ifvqhfg","pricing_plan_id":"cebpf4jnsgd1na2vs0mg"},{"bike_id":"81c2008f-2738-425e-95bd-43caecc263c4","system_id":"levelo_inurba_marseille","lat":43.246604,"lon":5.381662,"is_reserved":false,"is_disabled":false,"rental_uris":{"android":"levelo://app?vid=81c2008f-2738-425e-95bd-43caecc263c4","ios":"levelo://app?vid=81c2008f-2738-425e-95bd-43caecc263c4"},"vehicle_type_id":"4","last_reported":1748877126,"current_range_meters":11200,"station_id":"ce4bhih2rcd13ifvqfr0","pricing_plan_id":"cebpf4jnsgd1na2vs0mg"},{"bike_id":"436a37bc-9dce-4f74-8596-de4f0b82c364","system_id":"levelo_inurba_marseille","lat":43.32337,"lon":5.40624,"is_reserved":false,"is_disabled":false,"rental_uris":{"android":"levelo://app?vid=436a37bc-9dce-4f74-8596-de4f0b82c364","ios":"levelo://app?vid=436a37bc-9dce-4f74-8596-de4f0b82c364"},"vehicle_type_id":"4","last_reported":1748877126,"current_range_meters":11600,"station_id":"ce4bhq92rcd13ifvqhjg","pricing_plan_id":"cebpf4jnsgd1na2vs0mg"},{"bike_id":"716ae743-21da-48ff-a8cd-4d872669e845","system_id":"levelo_inurba_marseille","lat":43.281023,"lon":5.378606,"is_reserved":false,"is_disabled":false,"rental_uris":{"android":"levelo://app?vid=716ae743-21da-48ff-a8cd-4d872669e845","ios":"levelo://app?vid=716ae743-21da-48ff-a8cd-4d872669e845"},"vehicle_type_id":"4","last_reported":1748877126,"current_range_meters":12000,"station_id":"ce4bha12rcd13ifvqee0","pricing_plan_id":"cebpf4jnsgd1na2vs0mg"},{"bike_id":"20e2a0de-1104-4272-be7a-1db9d5afc981","system_id":"levelo_inurba_marseille","lat":43.2721,"lon":5.3918,"is_reserved":false,"is_disabled":false,"rental_uris":{"android":"levelo://app?vid=20e2a0de-1104-4272-be7a-1db9d5afc981","ios":"levelo://app?vid=20e2a0de-1104-4272-be7a-1db9d5afc981"},"vehicle_type_id":"4","last_reported":1748877126,"current_range_meters":11600,"station_id":"ce4bhhp2rcd13ifvqfm0","pricing_plan_id":"cebpf4jnsgd1na2vs0mg"},{"bike_id":"2c64e4bc-106d-4a69-8474-903f360d4142","system_id":"levelo_inurba_marseille","lat":43.23193,"lon":5.40002,"is_reserved":false,"is_disabled":false,"rental_uris":{"android":"levelo://app?vid=2c64e4bc-106d-4a69-8474-903f360d4142","ios":"levelo://app?vid=2c64e4bc-106d-4a69-8474-903f360d4142"},"vehicle_type_id":"4","last_reported":1748877126,"current_range_meters":12000,"station_id":"ce4bhn12rcd13ifvqgqg","pricing_plan_id":"cebpf4jnsgd1na2vs0mg"},{"bike_id":"9873ea8e-c2af-49bc-9f62-b61d54c33967","system_id":"levelo_inurba_marseille","lat":43.28949,"lon":5.36403,"is_reserved":false,"is_disabled":false,"rental_uris":{"android":"levelo://app?vid=9873ea8e-c2af-49bc-9f62-b61d54c33967","ios":"levelo://app?vid=9873ea8e-c2af-49bc-9f62-b61d54c33967"},"vehicle_type_id":"4","last_reported":1748877126,"current_range_meters":12000,"station_id":"ce4bhc92rcd13ifvqetg","pricing_plan_id":"cebpf4jnsgd1na2vs0mg"},{"bike_id":"f1c8c7e1-3f34-4d38-a503-caa580ebde75","system_id":"levelo_inurba_marseille","lat":43.22511,"lon":5.3478,"is_reserved":false,"is_disabled":false,"rental_uris":{"android":"levelo://app?vid=f1c8c7e1-3f34-4d38-a503-caa580ebde75","ios":"levelo://app?vid=f1c8c7e1-3f34-4d38-a503-caa580ebde75"},"vehicle_type_id":"4","last_reported":1748877126,"current_range_meters":12400,"station_id":"st_cvj5dfep6f1abm77gieg","pricing_plan_id":"cebpf4jnsgd1na2vs0mg"},{"bike_id":"bdd5cb80-5c34-4cf3-b524-013cc8a7c406","system_id":"levelo_inurba_marseille","lat":43.30329,"lon":5.40431,"is_reserved":false,"is_disabled":false,"rental_uris":{"android":"levelo://app?vid=bdd5cb80-5c34-4cf3-b524-013cc8a7c406","ios":"levelo://app?vid=bdd5cb80-5c34-4cf3-b524-013cc8a7c406"},"vehicle_type_id":"4","last_reported":1748877126,"current_range_meters":12400,"station_id":"ce4bh012rcd13ifvqd10","pricing_plan_id":"cebpf4jnsgd1na2vs0mg"},{"bike_id":"633a2ba4-88a0-4c7f-8b55-77515440bdff","system_id":"levelo_inurba_marseille","lat":43.25117,"lon":5.4032,"is_reserved":false,"is_disabled":false,"rental_uris":{"android":"levelo://app?vid=633a2ba4-88a0-4c7f-8b55-77515440bdff","ios":"levelo://app?vid=633a2ba4-88a0-4c7f-8b55-77515440bdff"},"vehicle_type_id":"4","last_reported":1748877126,"current_range_meters":12400,"station_id":"ce4bhlh2rcd13ifvqgig","pricing_plan_id":"cebpf4jnsgd1na2vs0mg"},{"bike_id":"987c8303-1b0a-4b12-ade4-759b1d532ba6","system_id":"levelo_inurba_marseille","lat":43.29786,"lon":5.37104,"is_reserved":false,"is_disabled":false,"rental_uris":{"android":"levelo://app?vid=987c8303-1b0a-4b12-ade4-759b1d532ba6","ios":"levelo://app?vid=987c8303-1b0a-4b12-ade4-759b1d532ba6"},"vehicle_type_id":"4","last_reported":1748877126,"current_range_meters":12000,"station_id":"ce4bgop2rcd13ifvqc1g","pricing_plan_id":"cebpf4jnsgd1na2vs0mg"},{"bike_id":"54611373-835d-4057-a676-b80be8b61df6","system_id":"levelo_inurba_marseille","lat":43.28423,"lon":5.35001,"is_reserved":false,"is_disabled":false,"rental_uris":{"android":"levelo://app?vid=54611373-835d-4057-a676-b80be8b61df6","ios":"levelo://app?vid=54611373-835d-4057-a676-b80be8b61df6"},"vehicle_type_id":"4","last_reported":1748877126,"current_range_meters":12400,"station_id":"ce4bhbh2rcd13ifvqepg","pricing_plan_id":"cebpf4jnsgd1na2vs0mg"},{"bike_id":"5760e18b-b821-4854-b094-9f156949bec2","system_id":"levelo_inurba_marseille","lat":43.25828,"lon":5.3944,"is_reserved":false,"is_disabled":false,"rental_uris":{"android":"levelo://app?vid=5760e18b-b821-4854-b094-9f156949bec2","ios":"levelo://app?vid=5760e18b-b821-4854-b094-9f156949bec2"},"vehicle_type_id":"4","last_reported":1748877126,"current_range_meters":12400,"station_id":"ce4bhip2rcd13ifvqft0","pricing_plan_id":"cebpf4jnsgd1na2vs0mg"},{"bike_id":"a5ef64a0-9027-4826-813b-2620fd6750d1","system_id":"levelo_inurba_marseille","lat":43.31338,"lon":5.39693,"is_reserved":false,"is_disabled":false,"rental_uris":{"android":"levelo://app?vid=a5ef64a0-9027-4826-813b-2620fd6750d1","ios":"levelo://app?vid=a5ef64a0-9027-4826-813b-2620fd6750d1"},"vehicle_type_id":"4","last_reported":1748877126,"current_range_meters":12400,"station_id":"ce4bgvp2rcd13ifvqcu0","pricing_plan_id":"cebpf4jnsgd1na2vs0mg"},{"bike_id":"59de7ec4-5c22-4816-8015-438902d6b81f","system_id":"levelo_inurba_marseille","lat":43.31063,"lon":5.38363,"is_reserved":false,"is_disabled":false,"rental_uris":{"android":"levelo://app?vid=59de7ec4-5c22-4816-8015-438902d6b81f","ios":"levelo://app?vid=59de7ec4-5c22-4816-8015-438902d6b81f"},"vehicle_type_id":"4","last_reported":1748877126,"current_range_meters":12400,"station_id":"ce4bgv92rcd13ifvqcr0","pricing_plan_id":"cebpf4jnsgd1na2vs0mg"},{"bike_id":"82eb2f30-dbb4-4ba2-8e93-9cc7ba4b3d3c","system_id":"levelo_inurba_marseille","lat":43.2318,"lon":5.39993,"is_reserved":false,"is_disabled":false,"rental_uris":{"android":"levelo://app?vid=82eb2f30-dbb4-4ba2-8e93-9cc7ba4b3d3c","ios":"levelo://app?vid=82eb2f30-dbb4-4ba2-8e93-9cc7ba4b3d3c"},"vehicle_type_id":"4","last_reported":1748877126,"current_range_meters":12400,"station_id":"ce4bhn12rcd13ifvqgqg","pricing_plan_id":"cebpf4jnsgd1na2vs0mg"},{"bike_id":"339949a7-0d0e-47b9-a947-080b7c7dbf9c","system_id":"levelo_inurba_marseille","lat":43.31185,"lon":5.38733,"is_reserved":false,"is_disabled":false,"rental_uris":{"android":"levelo://app?vid=339949a7-0d0e-47b9-a947-080b7c7dbf9c","ios":"levelo://app?vid=339949a7-0d0e-47b9-a947-080b7c7dbf9c"},"vehicle_type_id":"4","last_reported":1748877126,"current_range_meters":12800,"station_id":"ce4bgv12rcd13ifvqcp0","pricing_plan_id":"cebpf4jnsgd1na2vs0mg"},{"bike_id":"ef2b50ef-6a76-4aef-a652-4cd34b3f82e5","system_id":"levelo_inurba_marseille","lat":43.26611,"lon":5.373087,"is_reserved":false,"is_disabled":false,"rental_uris":{"android":"levelo://app?vid=ef2b50ef-6a76-4aef-a652-4cd34b3f82e5","ios":"levelo://app?vid=ef2b50ef-6a76-4aef-a652-4cd34b3f82e5"},"vehicle_type_id":"4","last_reported":1748877126,"current_range_meters":12800,"station_id":"ce4bhg12rcd13ifvqf70","pricing_plan_id":"cebpf4jnsgd1na2vs0mg"},{"bike_id":"499fb29d-0d16-4a40-9c2e-e16e069b3a26","system_id":"levelo_inurba_marseille","lat":43.29576,"lon":5.37494,"is_reserved":false,"is_disabled":false,"rental_uris":{"android":"levelo://app?vid=499fb29d-0d16-4a40-9c2e-e16e069b3a26","ios":"levelo://app?vid=499fb29d-0d16-4a40-9c2e-e16e069b3a26"},"vehicle_type_id":"4","last_reported":1748877126,"current_range_meters":14000,"station_id":"ce4bgh92rcd13ifvqb50","pricing_plan_id":"cebpf4jnsgd1na2vs0mg"},{"bike_id":"0c11b441-cd79-40c0-bfd7-f68a34f41d8f","system_id":"levelo_inurba_marseille","lat":43.31344,"lon":5.36761,"is_reserved":false,"is_disabled":false,"rental_uris":{"android":"levelo://app?vid=0c11b441-cd79-40c0-bfd7-f68a34f41d8f","ios":"levelo://app?vid=0c11b441-cd79-40c0-bfd7-f68a34f41d8f"},"vehicle_type_id":"4","last_reported":1748877126,"current_range_meters":13600,"station_id":"ce4bgr92rcd13ifvqc6g","pricing_plan_id":"cebpf4jnsgd1na2vs0mg"},{"bike_id":"d1376fdb-bb8d-40aa-8de5-84acb3706c2e","system_id":"levelo_inurba_marseille","lat":43.323609,"lon":5.367627,"is_reserved":false,"is_disabled":false,"rental_uris":{"android":"levelo://app?vid=d1376fdb-bb8d-40aa-8de5-84acb3706c2e","ios":"levelo://app?vid=d1376fdb-bb8d-40aa-8de5-84acb3706c2e"},"vehicle_type_id":"4","last_reported":1748877126,"current_range_meters":13600,"station_id":"ce4bhsh2rcd13ifvqi2g","pricing_plan_id":"cebpf4jnsgd1na2vs0mg"},{"bike_id":"88f56cf6-a4b3-4175-a143-edaa94d0e20a","system_id":"levelo_inurba_marseille","lat":43.29043,"lon":5.35917,"is_reserved":false,"is_disabled":false,"rental_uris":{"android":"levelo://app?vid=88f56cf6-a4b3-4175-a143-edaa94d0e20a","ios":"levelo://app?vid=88f56cf6-a4b3-4175-a143-edaa94d0e20a"},"vehicle_type_id":"4","last_reported":1748877126,"current_range_meters":12800,"station_id":"ce4bha92rcd13ifvqeg0","pricing_plan_id":"cebpf4jnsgd1na2vs0mg"},{"bike_id":"f9ba8850-482d-43cd-93c6-da015477c7af","system_id":"levelo_inurba_marseille","lat":43.2862,"lon":5.38377,"is_reserved":false,"is_disabled":false,"rental_uris":{"android":"levelo://app?vid=f9ba8850-482d-43cd-93c6-da015477c7af","ios":"levelo://app?vid=f9ba8850-482d-43cd-93c6-da015477c7af"},"vehicle_type_id":"4","last_reported":1748877126,"current_range_meters":13600,"station_id":"","pricing_plan_id":"cebpf4jnsgd1na2vs0mg"},{"bike_id":"b30b25da-cbbe-4979-bb42-2992bfa23a7e","system_id":"levelo_inurba_marseille","lat":43.29994,"lon":5.37195,"is_reserved":false,"is_disabled":false,"rental_uris":{"android":"levelo://app?vid=b30b25da-cbbe-4979-bb42-2992bfa23a7e","ios":"levelo://app?vid=b30b25da-cbbe-4979-bb42-2992bfa23a7e"},"vehicle_type_id":"4","last_reported":1748877126,"current_range_meters":13600,"station_id":"ce4bgr92rcd13ifvqc7g","pricing_plan_id":"cebpf4jnsgd1na2vs0mg"},{"bike_id":"5b0c04c7-3e5d-4981-ba91-7d65704822b2","system_id":"levelo_inurba_marseille","lat":43.279041,"lon":5.380057,"is_reserved":false,"is_disabled":false,"rental_uris":{"android":"levelo://app?vid=5b0c04c7-3e5d-4981-ba91-7d65704822b2","ios":"levelo://app?vid=5b0c04c7-3e5d-4981-ba91-7d65704822b2"},"vehicle_type_id":"4","last_reported":1748877126,"current_range_meters":14000,"station_id":"ce4bhf92rcd13ifvqf50","pricing_plan_id":"cebpf4jnsgd1na2vs0mg"},{"bike_id":"41b007f2-55de-4218-b5bb-4782e4f0d33f","system_id":"levelo_inurba_marseille","lat":43.28467,"lon":5.35894,"is_reserved":false,"is_disabled":false,"rental_uris":{"android":"levelo://app?vid=41b007f2-55de-4218-b5bb-4782e4f0d33f","ios":"levelo://app?vid=41b007f2-55de-4218-b5bb-4782e4f0d33f"},"vehicle_type_id":"4","last_reported":1748877126,"current_range_meters":14000,"station_id":"ce4bhah2rcd13ifvqei0","pricing_plan_id":"cebpf4jnsgd1na2vs0mg"},{"bike_id":"fa62253e-e4db-42d1-9a63-6ab16922bf00","system_id":"levelo_inurba_marseille","lat":43.32024,"lon":5.36824,"is_reserved":false,"is_disabled":false,"rental_uris":{"android":"levelo://app?vid=fa62253e-e4db-42d1-9a63-6ab16922bf00","ios":"levelo://app?vid=fa62253e-e4db-42d1-9a63-6ab16922bf00"},"vehicle_type_id":"4","last_reported":1748877126,"current_range_meters":14400,"station_id":"","pricing_plan_id":"cebpf4jnsgd1na2vs0mg"},{"bike_id":"a6b229cb-c77a-4846-a635-72aa6ec1d9bb","system_id":"levelo_inurba_marseille","lat":43.29273,"lon":5.38445,"is_reserved":false,"is_disabled":false,"rental_uris":{"android":"levelo://app?vid=a6b229cb-c77a-4846-a635-72aa6ec1d9bb","ios":"levelo://app?vid=a6b229cb-c77a-4846-a635-72aa6ec1d9bb"},"vehicle_type_id":"4","last_reported":1748877126,"current_range_meters":14400,"station_id":"ce4bh692rcd13ifvqea0","pricing_plan_id":"cebpf4jnsgd1na2vs0mg"},{"bike_id":"bb3e7e63-6218-451d-a027-35b0a1d66d9c","system_id":"levelo_inurba_marseille","lat":43.29795,"lon":5.39337,"is_reserved":false,"is_disabled":false,"rental_uris":{"android":"levelo://app?vid=bb3e7e63-6218-451d-a027-35b0a1d66d9c","ios":"levelo://app?vid=bb3e7e63-6218-451d-a027-35b0a1d66d9c"},"vehicle_type_id":"4","last_reported":1748877126,"current_range_meters":14400,"station_id":"chh1huq6cuj3fo74tm60","pricing_plan_id":"cebpf4jnsgd1na2vs0mg"},{"bike_id":"cb31f4f9-6acb-47ea-a94a-1032e0e8edf3","system_id":"levelo_inurba_marseille","lat":43.30431,"lon":5.41298,"is_reserved":false,"is_disabled":false,"rental_uris":{"android":"levelo://app?vid=cb31f4f9-6acb-47ea-a94a-1032e0e8edf3","ios":"levelo://app?vid=cb31f4f9-6acb-47ea-a94a-1032e0e8edf3"},"vehicle_type_id":"4","last_reported":1748877126,"current_range_meters":14400,"station_id":"ce4bhop2rcd13ifvqh8g","pricing_plan_id":"cebpf4jnsgd1na2vs0mg"},{"bike_id":"7a4b831f-8637-44fd-a872-0fff0bff5736","system_id":"levelo_inurba_marseille","lat":43.28669,"lon":5.36355,"is_reserved":false,"is_disabled":false,"rental_uris":{"android":"levelo://app?vid=7a4b831f-8637-44fd-a872-0fff0bff5736","ios":"levelo://app?vid=7a4b831f-8637-44fd-a872-0fff0bff5736"},"vehicle_type_id":"4","last_reported":1748877126,"current_range_meters":14800,"station_id":"ce4bhah2rcd13ifvqej0","pricing_plan_id":"cebpf4jnsgd1na2vs0mg"},{"bike_id":"3082751b-d3f4-42ac-b6c0-bf946931c7e5","system_id":"levelo_inurba_marseille","lat":43.21194,"lon":5.3508,"is_reserved":false,"is_disabled":false,"rental_uris":{"android":"levelo://app?vid=3082751b-d3f4-42ac-b6c0-bf946931c7e5","ios":"levelo://app?vid=3082751b-d3f4-42ac-b6c0-bf946931c7e5"},"vehicle_type_id":"4","last_reported":1748877126,"current_range_meters":14800,"station_id":"st_cvj6sg6p6f1abm77japg","pricing_plan_id":"cebpf4jnsgd1na2vs0mg"},{"bike_id":"6540168e-ea6c-46a2-85b7-81ac5d6e14d2","system_id":"levelo_inurba_marseille","lat":43.279828,"lon":5.415889,"is_reserved":false,"is_disabled":false,"rental_uris":{"android":"levelo://app?vid=6540168e-ea6c-46a2-85b7-81ac5d6e14d2","ios":"levelo://app?vid=6540168e-ea6c-46a2-85b7-81ac5d6e14d2"},"vehicle_type_id":"4","last_reported":1748877126,"current_range_meters":14400,"station_id":"ce4bho12rcd13ifvqh1g","pricing_plan_id":"cebpf4jnsgd1na2vs0mg"},{"bike_id":"9464ac5b-f696-435b-aa12-e1967e7d98b8","system_id":"levelo_inurba_marseille","lat":43.25108,"lon":5.40322,"is_reserved":false,"is_disabled":false,"rental_uris":{"android":"levelo://app?vid=9464ac5b-f696-435b-aa12-e1967e7d98b8","ios":"levelo://app?vid=9464ac5b-f696-435b-aa12-e1967e7d98b8"},"vehicle_type_id":"4","last_reported":1748877126,"current_range_meters":14800,"station_id":"ce4bhlh2rcd13ifvqgig","pricing_plan_id":"cebpf4jnsgd1na2vs0mg"},{"bike_id":"7ff69d1f-8abe-4caf-bee9-a7ebb755d9b7","system_id":"levelo_inurba_marseille","lat":43.27911,"lon":5.38013,"is_reserved":false,"is_disabled":false,"rental_uris":{"android":"levelo://app?vid=7ff69d1f-8abe-4caf-bee9-a7ebb755d9b7","ios":"levelo://app?vid=7ff69d1f-8abe-4caf-bee9-a7ebb755d9b7"},"vehicle_type_id":"4","last_reported":1748877126,"current_range_meters":14800,"station_id":"ce4bhf92rcd13ifvqf50","pricing_plan_id":"cebpf4jnsgd1na2vs0mg"},{"bike_id":"e49b5379-4614-45b4-bb8d-eada4ed44351","system_id":"levelo_inurba_marseille","lat":43.265817,"lon":5.390077,"is_reserved":false,"is_disabled":false,"rental_uris":{"android":"levelo://app?vid=e49b5379-4614-45b4-bb8d-eada4ed44351","ios":"levelo://app?vid=e49b5379-4614-45b4-bb8d-eada4ed44351"},"vehicle_type_id":"4","last_reported":1748877126,"current_range_meters":14800,"station_id":"ce4bhe12rcd13ifvqf30","pricing_plan_id":"cebpf4jnsgd1na2vs0mg"},{"bike_id":"c4aea8e6-a6f2-4d96-830e-57e046402925","system_id":"levelo_inurba_marseille","lat":43.30534,"lon":5.36541,"is_reserved":false,"is_disabled":false,"rental_uris":{"android":"levelo://app?vid=c4aea8e6-a6f2-4d96-830e-57e046402925","ios":"levelo://app?vid=c4aea8e6-a6f2-4d96-830e-57e046402925"},"vehicle_type_id":"4","last_reported":1748877126,"current_range_meters":14800,"station_id":"ce4bgs12rcd13ifvqcag","pricing_plan_id":"cebpf4jnsgd1na2vs0mg"},{"bike_id":"785b29bf-51ae-4040-9bdd-89bcaf5fd7e6","system_id":"levelo_inurba_marseille","lat":43.27209,"lon":5.39183,"is_reserved":false,"is_disabled":false,"rental_uris":{"android":"levelo://app?vid=785b29bf-51ae-4040-9bdd-89bcaf5fd7e6","ios":"levelo://app?vid=785b29bf-51ae-4040-9bdd-89bcaf5fd7e6"},"vehicle_type_id":"4","last_reported":1748877126,"current_range_meters":14400,"station_id":"ce4bhhp2rcd13ifvqfm0","pricing_plan_id":"cebpf4jnsgd1na2vs0mg"},{"bike_id":"3e4186ae-5b22-49a2-ae0e-baf394e88501","system_id":"levelo_inurba_marseille","lat":43.29008,"lon":5.35618,"is_reserved":false,"is_disabled":false,"rental_uris":{"android":"levelo://app?vid=3e4186ae-5b22-49a2-ae0e-baf394e88501","ios":"levelo://app?vid=3e4186ae-5b22-49a2-ae0e-baf394e88501"},"vehicle_type_id":"4","last_reported":1748877126,"current_range_meters":14800,"station_id":"ce4bhb92rcd13ifvqen0","pricing_plan_id":"cebpf4jnsgd1na2vs0mg"},{"bike_id":"c18b6e23-d121-4327-bb02-afa1f404355f","system_id":"levelo_inurba_marseille","lat":43.25115,"lon":5.40342,"is_reserved":false,"is_disabled":false,"rental_uris":{"android":"levelo://app?vid=c18b6e23-d121-4327-bb02-afa1f404355f","ios":"levelo://app?vid=c18b6e23-d121-4327-bb02-afa1f404355f"},"vehicle_type_id":"4","last_reported":1748877126,"current_range_meters":15200,"station_id":"ce4bhlh2rcd13ifvqgig","pricing_plan_id":"cebpf4jnsgd1na2vs0mg"},{"bike_id":"826b2db6-1579-4beb-a849-09c1cda03041","system_id":"levelo_inurba_marseille","lat":43.279143,"lon":5.380148,"is_reserved":false,"is_disabled":false,"rental_uris":{"android":"levelo://app?vid=826b2db6-1579-4beb-a849-09c1cda03041","ios":"levelo://app?vid=826b2db6-1579-4beb-a849-09c1cda03041"},"vehicle_type_id":"4","last_reported":1748877126,"current_range_meters":15200,"station_id":"ce4bhf92rcd13ifvqf50","pricing_plan_id":"cebpf4jnsgd1na2vs0mg"},{"bike_id":"2ee68144-5055-4e3b-9533-852f881febb4","system_id":"levelo_inurba_marseille","lat":43.28422,"lon":5.35048,"is_reserved":false,"is_disabled":false,"rental_uris":{"android":"levelo://app?vid=2ee68144-5055-4e3b-9533-852f881febb4","ios":"levelo://app?vid=2ee68144-5055-4e3b-9533-852f881febb4"},"vehicle_type_id":"4","last_reported":1748877126,"current_range_meters":15200,"station_id":"ce4bhbh2rcd13ifvqepg","pricing_plan_id":"cebpf4jnsgd1na2vs0mg"},{"bike_id":"ac2caa47-de50-4eb2-a0a2-d67e53dc1071","system_id":"levelo_inurba_marseille","lat":43.301424,"lon":5.374193,"is_reserved":false,"is_disabled":false,"rental_uris":{"android":"levelo://app?vid=ac2caa47-de50-4eb2-a0a2-d67e53dc1071","ios":"levelo://app?vid=ac2caa47-de50-4eb2-a0a2-d67e53dc1071"},"vehicle_type_id":"4","last_reported":1748877126,"current_range_meters":16000,"station_id":"ce4bgs92rcd13ifvqcc0","pricing_plan_id":"cebpf4jnsgd1na2vs0mg"},{"bike_id":"238117b1-e345-4862-9d94-47e2784f29ed","system_id":"levelo_inurba_marseille","lat":43.29013,"lon":5.35622,"is_reserved":false,"is_disabled":false,"rental_uris":{"android":"levelo://app?vid=238117b1-e345-4862-9d94-47e2784f29ed","ios":"levelo://app?vid=238117b1-e345-4862-9d94-47e2784f29ed"},"vehicle_type_id":"4","last_reported":1748877126,"current_range_meters":16000,"station_id":"ce4bhb92rcd13ifvqen0","pricing_plan_id":"cebpf4jnsgd1na2vs0mg"},{"bike_id":"6b5f3840-2c38-4838-927e-76e55c3c19f2","system_id":"levelo_inurba_marseille","lat":43.298832,"lon":5.388994,"is_reserved":false,"is_disabled":false,"rental_uris":{"android":"levelo://app?vid=6b5f3840-2c38-4838-927e-76e55c3c19f2","ios":"levelo://app?vid=6b5f3840-2c38-4838-927e-76e55c3c19f2"},"vehicle_type_id":"4","last_reported":1748877126,"current_range_meters":16000,"station_id":"","pricing_plan_id":"cebpf4jnsgd1na2vs0mg"},{"bike_id":"d181378e-63f0-434d-ab37-12e8e8f0cb32","system_id":"levelo_inurba_marseille","lat":43.229339,"lon":5.353823,"is_reserved":false,"is_disabled":false,"rental_uris":{"android":"levelo://app?vid=d181378e-63f0-434d-ab37-12e8e8f0cb32","ios":"levelo://app?vid=d181378e-63f0-434d-ab37-12e8e8f0cb32"},"vehicle_type_id":"4","last_reported":1748877126,"current_range_meters":16000,"station_id":"cpo3532slgdg3j2ikp40","pricing_plan_id":"cebpf4jnsgd1na2vs0mg"},{"bike_id":"f68b568c-19c3-4299-b1fc-d195d756dfea","system_id":"levelo_inurba_marseille","lat":43.28273,"lon":5.35062,"is_reserved":false,"is_disabled":false,"rental_uris":{"android":"levelo://app?vid=f68b568c-19c3-4299-b1fc-d195d756dfea","ios":"levelo://app?vid=f68b568c-19c3-4299-b1fc-d195d756dfea"},"vehicle_type_id":"4","last_reported":1748877126,"current_range_meters":16000,"station_id":"ce4bhbp2rcd13ifvqerg","pricing_plan_id":"cebpf4jnsgd1na2vs0mg"},{"bike_id":"0fc4f835-2339-4b15-970f-d27b0d088aec","system_id":"levelo_inurba_marseille","lat":43.28439,"lon":5.35012,"is_reserved":false,"is_disabled":false,"rental_uris":{"android":"levelo://app?vid=0fc4f835-2339-4b15-970f-d27b0d088aec","ios":"levelo://app?vid=0fc4f835-2339-4b15-970f-d27b0d088aec"},"vehicle_type_id":"4","last_reported":1748877126,"current_range_meters":16400,"station_id":"ce4bhbh2rcd13ifvqepg","pricing_plan_id":"cebpf4jnsgd1na2vs0mg"},{"bike_id":"b639fb46-a914-4122-8da6-8dfd1426c940","system_id":"levelo_inurba_marseille","lat":43.30115,"lon":5.39898,"is_reserved":false,"is_disabled":false,"rental_uris":{"android":"levelo://app?vid=b639fb46-a914-4122-8da6-8dfd1426c940","ios":"levelo://app?vid=b639fb46-a914-4122-8da6-8dfd1426c940"},"vehicle_type_id":"4","last_reported":1748877126,"current_range_meters":16400,"station_id":"ce4bh0h2rcd13ifvqd40","pricing_plan_id":"cebpf4jnsgd1na2vs0mg"},{"bike_id":"3ea40a6e-072a-4403-92a8-bd68c0841f4f","system_id":"levelo_inurba_marseille","lat":43.30302,"lon":5.39222,"is_reserved":false,"is_disabled":false,"rental_uris":{"android":"levelo://app?vid=3ea40a6e-072a-4403-92a8-bd68c0841f4f","ios":"levelo://app?vid=3ea40a6e-072a-4403-92a8-bd68c0841f4f"},"vehicle_type_id":"4","last_reported":1748877126,"current_range_meters":16400,"station_id":"ce4bgkh2rcd13ifvqbk0","pricing_plan_id":"cebpf4jnsgd1na2vs0mg"},{"bike_id":"b832b527-bbff-415e-b5d3-27ff29a9bf76","system_id":"levelo_inurba_marseille","lat":43.2886,"lon":5.35858,"is_reserved":false,"is_disabled":false,"rental_uris":{"android":"levelo://app?vid=b832b527-bbff-415e-b5d3-27ff29a9bf76","ios":"levelo://app?vid=b832b527-bbff-415e-b5d3-27ff29a9bf76"},"vehicle_type_id":"4","last_reported":1748877126,"current_range_meters":16400,"station_id":"ce4bhb12rcd13ifvqem0","pricing_plan_id":"cebpf4jnsgd1na2vs0mg"},{"bike_id":"a688aa03-5584-43d6-8aef-3f6b47566496","system_id":"levelo_inurba_marseille","lat":43.28267,"lon":5.35075,"is_reserved":false,"is_disabled":false,"rental_uris":{"android":"levelo://app?vid=a688aa03-5584-43d6-8aef-3f6b47566496","ios":"levelo://app?vid=a688aa03-5584-43d6-8aef-3f6b47566496"},"vehicle_type_id":"4","last_reported":1748877126,"current_range_meters":16400,"station_id":"ce4bhbp2rcd13ifvqerg","pricing_plan_id":"cebpf4jnsgd1na2vs0mg"},{"bike_id":"def17d11-cb66-49eb-8e13-53cf9f7d0c8d","system_id":"levelo_inurba_marseille","lat":43.29204,"lon":5.3933,"is_reserved":false,"is_disabled":false,"rental_uris":{"android":"levelo://app?vid=def17d11-cb66-49eb-8e13-53cf9f7d0c8d","ios":"levelo://app?vid=def17d11-cb66-49eb-8e13-53cf9f7d0c8d"},"vehicle_type_id":"4","last_reported":1748877126,"current_range_meters":16400,"station_id":"ce4bh192rcd13ifvqdd0","pricing_plan_id":"cebpf4jnsgd1na2vs0mg"},{"bike_id":"363d42d1-8881-4cff-801b-87381b9f43fa","system_id":"levelo_inurba_marseille","lat":43.30567,"lon":5.36544,"is_reserved":false,"is_disabled":false,"rental_uris":{"android":"levelo://app?vid=363d42d1-8881-4cff-801b-87381b9f43fa","ios":"levelo://app?vid=363d42d1-8881-4cff-801b-87381b9f43fa"},"vehicle_type_id":"4","last_reported":1748877126,"current_range_meters":16800,"station_id":"ce4bgs12rcd13ifvqcag","pricing_plan_id":"cebpf4jnsgd1na2vs0mg"},{"bike_id":"6b319ea0-4595-4c63-90ba-efb07a765da7","system_id":"levelo_inurba_marseille","lat":43.28465,"lon":5.35889,"is_reserved":false,"is_disabled":false,"rental_uris":{"android":"levelo://app?vid=6b319ea0-4595-4c63-90ba-efb07a765da7","ios":"levelo://app?vid=6b319ea0-4595-4c63-90ba-efb07a765da7"},"vehicle_type_id":"4","last_reported":1748877126,"current_range_meters":16800,"station_id":"ce4bhah2rcd13ifvqei0","pricing_plan_id":"cebpf4jnsgd1na2vs0mg"},{"bike_id":"e31c84f5-c44b-48e2-adf2-52a2beace6c7","system_id":"levelo_inurba_marseille","lat":43.31732,"lon":5.37438,"is_reserved":false,"is_disabled":false,"rental_uris":{"android":"levelo://app?vid=e31c84f5-c44b-48e2-adf2-52a2beace6c7","ios":"levelo://app?vid=e31c84f5-c44b-48e2-adf2-52a2beace6c7"},"vehicle_type_id":"4","last_reported":1748877126,"current_range_meters":16800,"station_id":"","pricing_plan_id":"cebpf4jnsgd1na2vs0mg"},{"bike_id":"4a14a1d0-52a7-4c45-a1c7-407cd618ccbf","system_id":"levelo_inurba_marseille","lat":43.26554,"lon":5.37289,"is_reserved":false,"is_disabled":false,"rental_uris":{"android":"levelo://app?vid=4a14a1d0-52a7-4c45-a1c7-407cd618ccbf","ios":"levelo://app?vid=4a14a1d0-52a7-4c45-a1c7-407cd618ccbf"},"vehicle_type_id":"4","last_reported":1748877126,"current_range_meters":16800,"station_id":"ce4bhg12rcd13ifvqf70","pricing_plan_id":"cebpf4jnsgd1na2vs0mg"},{"bike_id":"9d3ec580-e658-4cac-bc1a-08e9b310634a","system_id":"levelo_inurba_marseille","lat":43.308024,"lon":5.435269,"is_reserved":false,"is_disabled":false,"rental_uris":{"android":"levelo://app?vid=9d3ec580-e658-4cac-bc1a-08e9b310634a","ios":"levelo://app?vid=9d3ec580-e658-4cac-bc1a-08e9b310634a"},"vehicle_type_id":"4","last_reported":1748877126,"current_range_meters":16800,"station_id":"ce4bhph2rcd13ifvqheg","pricing_plan_id":"cebpf4jnsgd1na2vs0mg"},{"bike_id":"49d8c1d3-42d0-49d5-aa51-c11ee75a8849","system_id":"levelo_inurba_marseille","lat":43.27383,"lon":5.36258,"is_reserved":false,"is_disabled":false,"rental_uris":{"android":"levelo://app?vid=49d8c1d3-42d0-49d5-aa51-c11ee75a8849","ios":"levelo://app?vid=49d8c1d3-42d0-49d5-aa51-c11ee75a8849"},"vehicle_type_id":"4","last_reported":1748877126,"current_range_meters":17200,"station_id":"ce4bhbh2rcd13ifvqeo0","pricing_plan_id":"cebpf4jnsgd1na2vs0mg"},{"bike_id":"6f27f025-b2d2-4b8a-8b6f-4c089cc30ad6","system_id":"levelo_inurba_marseille","lat":43.30185,"lon":5.36619,"is_reserved":false,"is_disabled":false,"rental_uris":{"android":"levelo://app?vid=6f27f025-b2d2-4b8a-8b6f-4c089cc30ad6","ios":"levelo://app?vid=6f27f025-b2d2-4b8a-8b6f-4c089cc30ad6"},"vehicle_type_id":"4","last_reported":1748877126,"current_range_meters":17200,"station_id":"ce4bgrh2rcd13ifvqc8g","pricing_plan_id":"cebpf4jnsgd1na2vs0mg"},{"bike_id":"2171c9f1-57c0-4bf3-b436-aee76219ed87","system_id":"levelo_inurba_marseille","lat":43.2783,"lon":5.40704,"is_reserved":false,"is_disabled":false,"rental_uris":{"android":"levelo://app?vid=2171c9f1-57c0-4bf3-b436-aee76219ed87","ios":"levelo://app?vid=2171c9f1-57c0-4bf3-b436-aee76219ed87"},"vehicle_type_id":"4","last_reported":1748877126,"current_range_meters":17200,"station_id":"ce4bhnh2rcd13ifvqgtg","pricing_plan_id":"cebpf4jnsgd1na2vs0mg"},{"bike_id":"fbd228c6-fc7b-4dce-91d9-931215d73166","system_id":"levelo_inurba_marseille","lat":43.284252,"lon":5.349817,"is_reserved":false,"is_disabled":false,"rental_uris":{"android":"levelo://app?vid=fbd228c6-fc7b-4dce-91d9-931215d73166","ios":"levelo://app?vid=fbd228c6-fc7b-4dce-91d9-931215d73166"},"vehicle_type_id":"4","last_reported":1748877126,"current_range_meters":17200,"station_id":"ce4bhbh2rcd13ifvqepg","pricing_plan_id":"cebpf4jnsgd1na2vs0mg"},{"bike_id":"9bab5004-737c-472f-9853-94ff0054500d","system_id":"levelo_inurba_marseille","lat":43.32118,"lon":5.36773,"is_reserved":false,"is_disabled":false,"rental_uris":{"android":"levelo://app?vid=9bab5004-737c-472f-9853-94ff0054500d","ios":"levelo://app?vid=9bab5004-737c-472f-9853-94ff0054500d"},"vehicle_type_id":"4","last_reported":1748877126,"current_range_meters":17200,"station_id":"ce4bhrh2rcd13ifvqhug","pricing_plan_id":"cebpf4jnsgd1na2vs0mg"},{"bike_id":"a79d1f14-488a-4717-9122-17153b9e053b","system_id":"levelo_inurba_marseille","lat":43.2173,"lon":5.34624,"is_reserved":false,"is_disabled":false,"rental_uris":{"android":"levelo://app?vid=a79d1f14-488a-4717-9122-17153b9e053b","ios":"levelo://app?vid=a79d1f14-488a-4717-9122-17153b9e053b"},"vehicle_type_id":"4","last_reported":1748877126,"current_range_meters":17200,"station_id":"st_cvj6r9ubvosntc0bgbag","pricing_plan_id":"cebpf4jnsgd1na2vs0mg"},{"bike_id":"4501ef29-c7e4-4354-b9e8-fe05b9e81f5c","system_id":"levelo_inurba_marseille","lat":43.29894,"lon":5.39736,"is_reserved":false,"is_disabled":false,"rental_uris":{"android":"levelo://app?vid=4501ef29-c7e4-4354-b9e8-fe05b9e81f5c","ios":"levelo://app?vid=4501ef29-c7e4-4354-b9e8-fe05b9e81f5c"},"vehicle_type_id":"4","last_reported":1748877126,"current_range_meters":17600,"station_id":"ce4bh0h2rcd13ifvqd50","pricing_plan_id":"cebpf4jnsgd1na2vs0mg"},{"bike_id":"bb36244a-68df-4f16-9e62-8d92fde65b5c","system_id":"levelo_inurba_marseille","lat":43.295166,"lon":5.394016,"is_reserved":false,"is_disabled":false,"rental_uris":{"android":"levelo://app?vid=bb36244a-68df-4f16-9e62-8d92fde65b5c","ios":"levelo://app?vid=bb36244a-68df-4f16-9e62-8d92fde65b5c"},"vehicle_type_id":"4","last_reported":1748877126,"current_range_meters":17600,"station_id":"ce4bh292rcd13ifvqdf0","pricing_plan_id":"cebpf4jnsgd1na2vs0mg"},{"bike_id":"64bb3847-00c9-4dc0-b6f3-d3ad704790d7","system_id":"levelo_inurba_marseille","lat":43.29181,"lon":5.3718,"is_reserved":false,"is_disabled":false,"rental_uris":{"android":"levelo://app?vid=64bb3847-00c9-4dc0-b6f3-d3ad704790d7","ios":"levelo://app?vid=64bb3847-00c9-4dc0-b6f3-d3ad704790d7"},"vehicle_type_id":"4","last_reported":1748877126,"current_range_meters":17600,"station_id":"ce4bha92rcd13ifvqeh0","pricing_plan_id":"cebpf4jnsgd1na2vs0mg"},{"bike_id":"b8e450ad-fb15-4427-baa7-f1a3eec9eba2","system_id":"levelo_inurba_marseille","lat":43.28709,"lon":5.39992,"is_reserved":false,"is_disabled":false,"rental_uris":{"android":"levelo://app?vid=b8e450ad-fb15-4427-baa7-f1a3eec9eba2","ios":"levelo://app?vid=b8e450ad-fb15-4427-baa7-f1a3eec9eba2"},"vehicle_type_id":"4","last_reported":1748877126,"current_range_meters":17600,"station_id":"ce4bho92rcd13ifvqh3g","pricing_plan_id":"cebpf4jnsgd1na2vs0mg"},{"bike_id":"261e0c18-c3ee-4674-862f-08aa5887ca25","system_id":"levelo_inurba_marseille","lat":43.29007,"lon":5.3562,"is_reserved":false,"is_disabled":false,"rental_uris":{"android":"levelo://app?vid=261e0c18-c3ee-4674-862f-08aa5887ca25","ios":"levelo://app?vid=261e0c18-c3ee-4674-862f-08aa5887ca25"},"vehicle_type_id":"4","last_reported":1748877126,"current_range_meters":17600,"station_id":"ce4bhb92rcd13ifvqen0","pricing_plan_id":"cebpf4jnsgd1na2vs0mg"},{"bike_id":"8e6ccee2-7b81-4c53-95ba-2ee352dea346","system_id":"levelo_inurba_marseille","lat":43.29259,"lon":5.40913,"is_reserved":false,"is_disabled":false,"rental_uris":{"android":"levelo://app?vid=8e6ccee2-7b81-4c53-95ba-2ee352dea346","ios":"levelo://app?vid=8e6ccee2-7b81-4c53-95ba-2ee352dea346"},"vehicle_type_id":"4","last_reported":1748877126,"current_range_meters":18000,"station_id":"ce4bh192rcd13ifvqdc0","pricing_plan_id":"cebpf4jnsgd1na2vs0mg"},{"bike_id":"201f5f67-ca9a-4a89-ae4d-63d51db011ce","system_id":"levelo_inurba_marseille","lat":43.26938,"lon":5.38925,"is_reserved":false,"is_disabled":false,"rental_uris":{"android":"levelo://app?vid=201f5f67-ca9a-4a89-ae4d-63d51db011ce","ios":"levelo://app?vid=201f5f67-ca9a-4a89-ae4d-63d51db011ce"},"vehicle_type_id":"4","last_reported":1748877126,"current_range_meters":18000,"station_id":"ce4bhhh2rcd13ifvqfl0","pricing_plan_id":"cebpf4jnsgd1na2vs0mg"},{"bike_id":"da55c3d0-5dbb-4a17-92a0-30d38d99ee8b","system_id":"levelo_inurba_marseille","lat":43.28262,"lon":5.3507,"is_reserved":false,"is_disabled":false,"rental_uris":{"android":"levelo://app?vid=da55c3d0-5dbb-4a17-92a0-30d38d99ee8b","ios":"levelo://app?vid=da55c3d0-5dbb-4a17-92a0-30d38d99ee8b"},"vehicle_type_id":"4","last_reported":1748877126,"current_range_meters":18000,"station_id":"ce4bhbp2rcd13ifvqerg","pricing_plan_id":"cebpf4jnsgd1na2vs0mg"},{"bike_id":"206735aa-cc71-47f7-9c67-d08fbdf682ee","system_id":"levelo_inurba_marseille","lat":43.25131,"lon":5.40383,"is_reserved":false,"is_disabled":false,"rental_uris":{"android":"levelo://app?vid=206735aa-cc71-47f7-9c67-d08fbdf682ee","ios":"levelo://app?vid=206735aa-cc71-47f7-9c67-d08fbdf682ee"},"vehicle_type_id":"4","last_reported":1748877126,"current_range_meters":18000,"station_id":"","pricing_plan_id":"cebpf4jnsgd1na2vs0mg"},{"bike_id":"0719e304-787d-4942-8ac7-f7e9c5a426ff","system_id":"levelo_inurba_marseille","lat":43.29694,"lon":5.36609,"is_reserved":false,"is_disabled":false,"rental_uris":{"android":"levelo://app?vid=0719e304-787d-4942-8ac7-f7e9c5a426ff","ios":"levelo://app?vid=0719e304-787d-4942-8ac7-f7e9c5a426ff"},"vehicle_type_id":"4","last_reported":1748877126,"current_range_meters":18000,"station_id":"ce4bgn12rcd13ifvqbt0","pricing_plan_id":"cebpf4jnsgd1na2vs0mg"},{"bike_id":"1cb7c0a1-48f8-49ab-9106-52040059037c","system_id":"levelo_inurba_marseille","lat":43.23049,"lon":5.35525,"is_reserved":false,"is_disabled":false,"rental_uris":{"android":"levelo://app?vid=1cb7c0a1-48f8-49ab-9106-52040059037c","ios":"levelo://app?vid=1cb7c0a1-48f8-49ab-9106-52040059037c"},"vehicle_type_id":"4","last_reported":1748877126,"current_range_meters":18000,"station_id":"cpo3342slgdg3j2ifvpg","pricing_plan_id":"cebpf4jnsgd1na2vs0mg"},{"bike_id":"56ebd079-5325-4146-a252-c6e09bfabc00","system_id":"levelo_inurba_marseille","lat":43.319006,"lon":5.40736,"is_reserved":false,"is_disabled":false,"rental_uris":{"android":"levelo://app?vid=56ebd079-5325-4146-a252-c6e09bfabc00","ios":"levelo://app?vid=56ebd079-5325-4146-a252-c6e09bfabc00"},"vehicle_type_id":"4","last_reported":1748877126,"current_range_meters":18000,"station_id":"ce4bhq12rcd13ifvqhig","pricing_plan_id":"cebpf4jnsgd1na2vs0mg"},{"bike_id":"62ebcf99-52d8-4ec8-a1af-b944e399c355","system_id":"levelo_inurba_marseille","lat":43.27377,"lon":5.36258,"is_reserved":false,"is_disabled":false,"rental_uris":{"android":"levelo://app?vid=62ebcf99-52d8-4ec8-a1af-b944e399c355","ios":"levelo://app?vid=62ebcf99-52d8-4ec8-a1af-b944e399c355"},"vehicle_type_id":"4","last_reported":1748877126,"current_range_meters":18000,"station_id":"ce4bhbh2rcd13ifvqeo0","pricing_plan_id":"cebpf4jnsgd1na2vs0mg"},{"bike_id":"6db8da9d-ed27-45cf-9935-6e37c99d0be9","system_id":"levelo_inurba_marseille","lat":43.26224,"lon":5.40149,"is_reserved":false,"is_disabled":false,"rental_uris":{"android":"levelo://app?vid=6db8da9d-ed27-45cf-9935-6e37c99d0be9","ios":"levelo://app?vid=6db8da9d-ed27-45cf-9935-6e37c99d0be9"},"vehicle_type_id":"4","last_reported":1748877126,"current_range_meters":18800,"station_id":"","pricing_plan_id":"cebpf4jnsgd1na2vs0mg"},{"bike_id":"1bebd82d-26c0-4e20-8f0a-10d3fd8e22f7","system_id":"levelo_inurba_marseille","lat":43.265783,"lon":5.390453,"is_reserved":false,"is_disabled":false,"rental_uris":{"android":"levelo://app?vid=1bebd82d-26c0-4e20-8f0a-10d3fd8e22f7","ios":"levelo://app?vid=1bebd82d-26c0-4e20-8f0a-10d3fd8e22f7"},"vehicle_type_id":"4","last_reported":1748877126,"current_range_meters":18800,"station_id":"ce4bhe12rcd13ifvqf30","pricing_plan_id":"cebpf4jnsgd1na2vs0mg"},{"bike_id":"5ba03271-83e5-4713-986d-af707940e504","system_id":"levelo_inurba_marseille","lat":43.29991,"lon":5.38554,"is_reserved":false,"is_disabled":false,"rental_uris":{"android":"levelo://app?vid=5ba03271-83e5-4713-986d-af707940e504","ios":"levelo://app?vid=5ba03271-83e5-4713-986d-af707940e504"},"vehicle_type_id":"4","last_reported":1748877126,"current_range_meters":18800,"station_id":"","pricing_plan_id":"cebpf4jnsgd1na2vs0mg"},{"bike_id":"226cad14-41c4-43e6-88ca-64af5a4138f3","system_id":"levelo_inurba_marseille","lat":43.28079,"lon":5.39665,"is_reserved":false,"is_disabled":false,"rental_uris":{"android":"levelo://app?vid=226cad14-41c4-43e6-88ca-64af5a4138f3","ios":"levelo://app?vid=226cad14-41c4-43e6-88ca-64af5a4138f3"},"vehicle_type_id":"4","last_reported":1748877126,"current_range_meters":18800,"station_id":"ce4bho12rcd13ifvqh2g","pricing_plan_id":"cebpf4jnsgd1na2vs0mg"},{"bike_id":"cec6c8d7-488a-4d69-860f-429583fefc3f","system_id":"levelo_inurba_marseille","lat":43.32397,"lon":5.36726,"is_reserved":false,"is_disabled":false,"rental_uris":{"android":"levelo://app?vid=cec6c8d7-488a-4d69-860f-429583fefc3f","ios":"levelo://app?vid=cec6c8d7-488a-4d69-860f-429583fefc3f"},"vehicle_type_id":"4","last_reported":1748877126,"current_range_meters":18800,"station_id":"ce4bhsh2rcd13ifvqi2g","pricing_plan_id":"cebpf4jnsgd1na2vs0mg"},{"bike_id":"fe719a31-043d-4762-aa13-0736c163cf9a","system_id":"levelo_inurba_marseille","lat":43.28627,"lon":5.37058,"is_reserved":false,"is_disabled":false,"rental_uris":{"android":"levelo://app?vid=fe719a31-043d-4762-aa13-0736c163cf9a","ios":"levelo://app?vid=fe719a31-043d-4762-aa13-0736c163cf9a"},"vehicle_type_id":"4","last_reported":1748877126,"current_range_meters":18800,"station_id":"ce4bht12rcd13ifvqi60","pricing_plan_id":"cebpf4jnsgd1na2vs0mg"},{"bike_id":"0707e808-bab6-4d42-a885-8c182304427e","system_id":"levelo_inurba_marseille","lat":43.27818,"lon":5.40706,"is_reserved":false,"is_disabled":false,"rental_uris":{"android":"levelo://app?vid=0707e808-bab6-4d42-a885-8c182304427e","ios":"levelo://app?vid=0707e808-bab6-4d42-a885-8c182304427e"},"vehicle_type_id":"4","last_reported":1748877126,"current_range_meters":18800,"station_id":"ce4bhnh2rcd13ifvqgtg","pricing_plan_id":"cebpf4jnsgd1na2vs0mg"},{"bike_id":"858b2c65-e9f5-40e3-9180-31316ebe8a89","system_id":"levelo_inurba_marseille","lat":43.29434,"lon":5.39758,"is_reserved":false,"is_disabled":false,"rental_uris":{"android":"levelo://app?vid=858b2c65-e9f5-40e3-9180-31316ebe8a89","ios":"levelo://app?vid=858b2c65-e9f5-40e3-9180-31316ebe8a89"},"vehicle_type_id":"4","last_reported":1748877126,"current_range_meters":18800,"station_id":"ce4bh3h2rcd13ifvqdo0","pricing_plan_id":"cebpf4jnsgd1na2vs0mg"},{"bike_id":"aaac5ed3-2744-4ef2-ab33-302a054871c6","system_id":"levelo_inurba_marseille","lat":43.30547,"lon":5.36714,"is_reserved":false,"is_disabled":false,"rental_uris":{"android":"levelo://app?vid=aaac5ed3-2744-4ef2-ab33-302a054871c6","ios":"levelo://app?vid=aaac5ed3-2744-4ef2-ab33-302a054871c6"},"vehicle_type_id":"4","last_reported":1748877126,"current_range_meters":18800,"station_id":"ce4bgrp2rcd13ifvqc9g","pricing_plan_id":"cebpf4jnsgd1na2vs0mg"},{"bike_id":"8e45c534-9f38-4aaf-bfc0-20831aa0c778","system_id":"levelo_inurba_marseille","lat":43.259626,"lon":5.394216,"is_reserved":false,"is_disabled":false,"rental_uris":{"android":"levelo://app?vid=8e45c534-9f38-4aaf-bfc0-20831aa0c778","ios":"levelo://app?vid=8e45c534-9f38-4aaf-bfc0-20831aa0c778"},"vehicle_type_id":"4","last_reported":1748877126,"current_range_meters":19200,"station_id":"","pricing_plan_id":"cebpf4jnsgd1na2vs0mg"},{"bike_id":"eb72deed-44e7-4a3e-982b-5b4df113534f","system_id":"levelo_inurba_marseille","lat":43.2177,"lon":5.34607,"is_reserved":false,"is_disabled":false,"rental_uris":{"android":"levelo://app?vid=eb72deed-44e7-4a3e-982b-5b4df113534f","ios":"levelo://app?vid=eb72deed-44e7-4a3e-982b-5b4df113534f"},"vehicle_type_id":"4","last_reported":1748877126,"current_range_meters":19200,"station_id":"st_cvj6r9ubvosntc0bgbag","pricing_plan_id":"cebpf4jnsgd1na2vs0mg"},{"bike_id":"64159b61-3465-4ebc-8e0a-59ddcf1c910d","system_id":"levelo_inurba_marseille","lat":43.29784,"lon":5.39334,"is_reserved":false,"is_disabled":false,"rental_uris":{"android":"levelo://app?vid=64159b61-3465-4ebc-8e0a-59ddcf1c910d","ios":"levelo://app?vid=64159b61-3465-4ebc-8e0a-59ddcf1c910d"},"vehicle_type_id":"4","last_reported":1748877126,"current_range_meters":19200,"station_id":"chh1huq6cuj3fo74tm60","pricing_plan_id":"cebpf4jnsgd1na2vs0mg"},{"bike_id":"b6c2a0b6-d943-461c-8022-f91b1c1f53c4","system_id":"levelo_inurba_marseille","lat":43.28674,"lon":5.38651,"is_reserved":false,"is_disabled":false,"rental_uris":{"android":"levelo://app?vid=b6c2a0b6-d943-461c-8022-f91b1c1f53c4","ios":"levelo://app?vid=b6c2a0b6-d943-461c-8022-f91b1c1f53c4"},"vehicle_type_id":"4","last_reported":1748877126,"current_range_meters":19200,"station_id":"ce4bh492rcd13ifvqdug","pricing_plan_id":"cebpf4jnsgd1na2vs0mg"},{"bike_id":"3b0e97b4-7c38-48f4-bda8-717b9ac659cd","system_id":"levelo_inurba_marseille","lat":43.26795,"lon":5.39436,"is_reserved":false,"is_disabled":false,"rental_uris":{"android":"levelo://app?vid=3b0e97b4-7c38-48f4-bda8-717b9ac659cd","ios":"levelo://app?vid=3b0e97b4-7c38-48f4-bda8-717b9ac659cd"},"vehicle_type_id":"4","last_reported":1748877126,"current_range_meters":19200,"station_id":"ce4bhh12rcd13ifvqfg0","pricing_plan_id":"cebpf4jnsgd1na2vs0mg"},{"bike_id":"fa54fc9c-bcb2-478b-ac53-5742e27815a2","system_id":"levelo_inurba_marseille","lat":43.30565,"lon":5.36693,"is_reserved":false,"is_disabled":false,"rental_uris":{"android":"levelo://app?vid=fa54fc9c-bcb2-478b-ac53-5742e27815a2","ios":"levelo://app?vid=fa54fc9c-bcb2-478b-ac53-5742e27815a2"},"vehicle_type_id":"4","last_reported":1748877126,"current_range_meters":19200,"station_id":"ce4bgrp2rcd13ifvqc9g","pricing_plan_id":"cebpf4jnsgd1na2vs0mg"},{"bike_id":"d2d33dc2-048f-4572-9ec5-1526a8bb9449","system_id":"levelo_inurba_marseille","lat":43.29878,"lon":5.39733,"is_reserved":false,"is_disabled":false,"rental_uris":{"android":"levelo://app?vid=d2d33dc2-048f-4572-9ec5-1526a8bb9449","ios":"levelo://app?vid=d2d33dc2-048f-4572-9ec5-1526a8bb9449"},"vehicle_type_id":"4","last_reported":1748877126,"current_range_meters":19600,"station_id":"ce4bh0h2rcd13ifvqd50","pricing_plan_id":"cebpf4jnsgd1na2vs0mg"},{"bike_id":"e073c3b9-579e-431b-8c54-b6a28caa0933","system_id":"levelo_inurba_marseille","lat":43.22933,"lon":5.35378,"is_reserved":false,"is_disabled":false,"rental_uris":{"android":"levelo://app?vid=e073c3b9-579e-431b-8c54-b6a28caa0933","ios":"levelo://app?vid=e073c3b9-579e-431b-8c54-b6a28caa0933"},"vehicle_type_id":"4","last_reported":1748877126,"current_range_meters":19600,"station_id":"cpo3532slgdg3j2ikp40","pricing_plan_id":"cebpf4jnsgd1na2vs0mg"},{"bike_id":"c438c09a-4384-44a0-a9e7-d44b94043ba8","system_id":"levelo_inurba_marseille","lat":43.28447,"lon":5.3919,"is_reserved":false,"is_disabled":false,"rental_uris":{"android":"levelo://app?vid=c438c09a-4384-44a0-a9e7-d44b94043ba8","ios":"levelo://app?vid=c438c09a-4384-44a0-a9e7-d44b94043ba8"},"vehicle_type_id":"4","last_reported":1748877126,"current_range_meters":19200,"station_id":"ce4bhoh2rcd13ifvqh5g","pricing_plan_id":"cebpf4jnsgd1na2vs0mg"},{"bike_id":"ecef8e30-16f3-430f-8ab6-6e24c247b55d","system_id":"levelo_inurba_marseille","lat":43.33721,"lon":5.39187,"is_reserved":false,"is_disabled":false,"rental_uris":{"android":"levelo://app?vid=ecef8e30-16f3-430f-8ab6-6e24c247b55d","ios":"levelo://app?vid=ecef8e30-16f3-430f-8ab6-6e24c247b55d"},"vehicle_type_id":"4","last_reported":1748877126,"current_range_meters":19600,"station_id":"ce4bhr92rcd13ifvqhsg","pricing_plan_id":"cebpf4jnsgd1na2vs0mg"},{"bike_id":"2ab4f400-0736-45dd-985d-7cf338435529","system_id":"levelo_inurba_marseille","lat":43.28096,"lon":5.37833,"is_reserved":false,"is_disabled":false,"rental_uris":{"android":"levelo://app?vid=2ab4f400-0736-45dd-985d-7cf338435529","ios":"levelo://app?vid=2ab4f400-0736-45dd-985d-7cf338435529"},"vehicle_type_id":"4","last_reported":1748877126,"current_range_meters":19200,"station_id":"ce4bha12rcd13ifvqee0","pricing_plan_id":"cebpf4jnsgd1na2vs0mg"},{"bike_id":"54a0fab2-5088-492a-b433-f8c4e0a11dfa","system_id":"levelo_inurba_marseille","lat":43.3014,"lon":5.39898,"is_reserved":false,"is_disabled":false,"rental_uris":{"android":"levelo://app?vid=54a0fab2-5088-492a-b433-f8c4e0a11dfa","ios":"levelo://app?vid=54a0fab2-5088-492a-b433-f8c4e0a11dfa"},"vehicle_type_id":"4","last_reported":1748877126,"current_range_meters":20000,"station_id":"ce4bh0h2rcd13ifvqd40","pricing_plan_id":"cebpf4jnsgd1na2vs0mg"},{"bike_id":"42aa21d8-f5c8-49d3-a568-158ab1177aff","system_id":"levelo_inurba_marseille","lat":43.313316,"lon":5.397013,"is_reserved":false,"is_disabled":false,"rental_uris":{"android":"levelo://app?vid=42aa21d8-f5c8-49d3-a568-158ab1177aff","ios":"levelo://app?vid=42aa21d8-f5c8-49d3-a568-158ab1177aff"},"vehicle_type_id":"4","last_reported":1748877126,"current_range_meters":20000,"station_id":"ce4bgvp2rcd13ifvqcu0","pricing_plan_id":"cebpf4jnsgd1na2vs0mg"},{"bike_id":"5b536054-600d-4e23-8558-f74f4f3ec365","system_id":"levelo_inurba_marseille","lat":43.330233,"lon":5.390453,"is_reserved":false,"is_disabled":false,"rental_uris":{"android":"levelo://app?vid=5b536054-600d-4e23-8558-f74f4f3ec365","ios":"levelo://app?vid=5b536054-600d-4e23-8558-f74f4f3ec365"},"vehicle_type_id":"4","last_reported":1748877126,"current_range_meters":20000,"station_id":"ce4bhr92rcd13ifvqhrg","pricing_plan_id":"cebpf4jnsgd1na2vs0mg"},{"bike_id":"4e17c123-8236-4a02-a8a2-a61cdc625d7e","system_id":"levelo_inurba_marseille","lat":43.30491,"lon":5.37104,"is_reserved":false,"is_disabled":false,"rental_uris":{"android":"levelo://app?vid=4e17c123-8236-4a02-a8a2-a61cdc625d7e","ios":"levelo://app?vid=4e17c123-8236-4a02-a8a2-a61cdc625d7e"},"vehicle_type_id":"4","last_reported":1748877126,"current_range_meters":20000,"station_id":"","pricing_plan_id":"cebpf4jnsgd1na2vs0mg"},{"bike_id":"553f1ef8-e21a-42b4-bb31-64cc2c39baac","system_id":"levelo_inurba_marseille","lat":43.30334,"lon":5.40441,"is_reserved":false,"is_disabled":false,"rental_uris":{"android":"levelo://app?vid=553f1ef8-e21a-42b4-bb31-64cc2c39baac","ios":"levelo://app?vid=553f1ef8-e21a-42b4-bb31-64cc2c39baac"},"vehicle_type_id":"4","last_reported":1748877126,"current_range_meters":19600,"station_id":"ce4bh012rcd13ifvqd10","pricing_plan_id":"cebpf4jnsgd1na2vs0mg"},{"bike_id":"218f6c8d-e3e4-4093-9e7b-4362ebcd001c","system_id":"levelo_inurba_marseille","lat":43.21791,"lon":5.34608,"is_reserved":false,"is_disabled":false,"rental_uris":{"android":"levelo://app?vid=218f6c8d-e3e4-4093-9e7b-4362ebcd001c","ios":"levelo://app?vid=218f6c8d-e3e4-4093-9e7b-4362ebcd001c"},"vehicle_type_id":"4","last_reported":1748877126,"current_range_meters":20000,"station_id":"","pricing_plan_id":"cebpf4jnsgd1na2vs0mg"},{"bike_id":"319bd584-ae0d-4b97-be88-477c160947c8","system_id":"levelo_inurba_marseille","lat":43.30183,"lon":5.39469,"is_reserved":false,"is_disabled":false,"rental_uris":{"android":"levelo://app?vid=319bd584-ae0d-4b97-be88-477c160947c8","ios":"levelo://app?vid=319bd584-ae0d-4b97-be88-477c160947c8"},"vehicle_type_id":"4","last_reported":1748877126,"current_range_meters":20000,"station_id":"ce4bh0p2rcd13ifvqd70","pricing_plan_id":"cebpf4jnsgd1na2vs0mg"},{"bike_id":"5282e982-5e94-494b-9005-2feb866a6575","system_id":"levelo_inurba_marseille","lat":43.2841,"lon":5.37508,"is_reserved":false,"is_disabled":false,"rental_uris":{"android":"levelo://app?vid=5282e982-5e94-494b-9005-2feb866a6575","ios":"levelo://app?vid=5282e982-5e94-494b-9005-2feb866a6575"},"vehicle_type_id":"4","last_reported":1748877126,"current_range_meters":20000,"station_id":"ce4bh412rcd13ifvqds0","pricing_plan_id":"cebpf4jnsgd1na2vs0mg"},{"bike_id":"31e20787-06ff-4200-ae07-fd54037f453a","system_id":"levelo_inurba_marseille","lat":43.26556,"lon":5.37288,"is_reserved":false,"is_disabled":false,"rental_uris":{"android":"levelo://app?vid=31e20787-06ff-4200-ae07-fd54037f453a","ios":"levelo://app?vid=31e20787-06ff-4200-ae07-fd54037f453a"},"vehicle_type_id":"4","last_reported":1748877126,"current_range_meters":20400,"station_id":"ce4bhg12rcd13ifvqf70","pricing_plan_id":"cebpf4jnsgd1na2vs0mg"},{"bike_id":"c30e3c54-4c25-4262-8e37-24bbcf7b592c","system_id":"levelo_inurba_marseille","lat":43.28083,"lon":5.39663,"is_reserved":false,"is_disabled":false,"rental_uris":{"android":"levelo://app?vid=c30e3c54-4c25-4262-8e37-24bbcf7b592c","ios":"levelo://app?vid=c30e3c54-4c25-4262-8e37-24bbcf7b592c"},"vehicle_type_id":"4","last_reported":1748877126,"current_range_meters":20400,"station_id":"ce4bho12rcd13ifvqh2g","pricing_plan_id":"cebpf4jnsgd1na2vs0mg"},{"bike_id":"d7a4deb1-d1c8-4aad-b115-06285fad5b9c","system_id":"levelo_inurba_marseille","lat":43.28431,"lon":5.35016,"is_reserved":false,"is_disabled":false,"rental_uris":{"android":"levelo://app?vid=d7a4deb1-d1c8-4aad-b115-06285fad5b9c","ios":"levelo://app?vid=d7a4deb1-d1c8-4aad-b115-06285fad5b9c"},"vehicle_type_id":"4","last_reported":1748877126,"current_range_meters":20400,"station_id":"ce4bhbh2rcd13ifvqepg","pricing_plan_id":"cebpf4jnsgd1na2vs0mg"},{"bike_id":"d12eb863-5fbe-4959-a329-c990b21db850","system_id":"levelo_inurba_marseille","lat":43.23203,"lon":5.39995,"is_reserved":false,"is_disabled":false,"rental_uris":{"android":"levelo://app?vid=d12eb863-5fbe-4959-a329-c990b21db850","ios":"levelo://app?vid=d12eb863-5fbe-4959-a329-c990b21db850"},"vehicle_type_id":"4","last_reported":1748877126,"current_range_meters":20400,"station_id":"ce4bhn12rcd13ifvqgqg","pricing_plan_id":"cebpf4jnsgd1na2vs0mg"},{"bike_id":"f30ce591-cc9d-412f-ad89-74da8b0e53c5","system_id":"levelo_inurba_marseille","lat":43.29002,"lon":5.37806,"is_reserved":false,"is_disabled":false,"rental_uris":{"android":"levelo://app?vid=f30ce591-cc9d-412f-ad89-74da8b0e53c5","ios":"levelo://app?vid=f30ce591-cc9d-412f-ad89-74da8b0e53c5"},"vehicle_type_id":"4","last_reported":1748877126,"current_range_meters":20800,"station_id":"ce4bh9p2rcd13ifvqed0","pricing_plan_id":"cebpf4jnsgd1na2vs0mg"},{"bike_id":"2d2b677d-41e9-464a-a541-a01046f208ca","system_id":"levelo_inurba_marseille","lat":43.33723,"lon":5.3919,"is_reserved":false,"is_disabled":false,"rental_uris":{"android":"levelo://app?vid=2d2b677d-41e9-464a-a541-a01046f208ca","ios":"levelo://app?vid=2d2b677d-41e9-464a-a541-a01046f208ca"},"vehicle_type_id":"4","last_reported":1748877126,"current_range_meters":20800,"station_id":"ce4bhr92rcd13ifvqhsg","pricing_plan_id":"cebpf4jnsgd1na2vs0mg"},{"bike_id":"a90529d8-805f-4fba-9cca-0edca7fe451c","system_id":"levelo_inurba_marseille","lat":43.32363,"lon":5.36754,"is_reserved":false,"is_disabled":false,"rental_uris":{"android":"levelo://app?vid=a90529d8-805f-4fba-9cca-0edca7fe451c","ios":"levelo://app?vid=a90529d8-805f-4fba-9cca-0edca7fe451c"},"vehicle_type_id":"4","last_reported":1748877126,"current_range_meters":20800,"station_id":"ce4bhsh2rcd13ifvqi2g","pricing_plan_id":"cebpf4jnsgd1na2vs0mg"},{"bike_id":"d165aa8b-b928-4839-86f1-d4f3da0a9d28","system_id":"levelo_inurba_marseille","lat":43.25112,"lon":5.40296,"is_reserved":false,"is_disabled":false,"rental_uris":{"android":"levelo://app?vid=d165aa8b-b928-4839-86f1-d4f3da0a9d28","ios":"levelo://app?vid=d165aa8b-b928-4839-86f1-d4f3da0a9d28"},"vehicle_type_id":"4","last_reported":1748877126,"current_range_meters":20800,"station_id":"ce4bhlh2rcd13ifvqgig","pricing_plan_id":"cebpf4jnsgd1na2vs0mg"},{"bike_id":"d8eeafc9-0289-4e56-ada6-a28a3796ea92","system_id":"levelo_inurba_marseille","lat":43.28415,"lon":5.34988,"is_reserved":false,"is_disabled":false,"rental_uris":{"android":"levelo://app?vid=d8eeafc9-0289-4e56-ada6-a28a3796ea92","ios":"levelo://app?vid=d8eeafc9-0289-4e56-ada6-a28a3796ea92"},"vehicle_type_id":"4","last_reported":1748877126,"current_range_meters":20800,"station_id":"ce4bhbh2rcd13ifvqepg","pricing_plan_id":"cebpf4jnsgd1na2vs0mg"},{"bike_id":"f74a73a6-340a-410c-9a23-993f38c2e216","system_id":"levelo_inurba_marseille","lat":43.29578,"lon":5.4,"is_reserved":false,"is_disabled":false,"rental_uris":{"android":"levelo://app?vid=f74a73a6-340a-410c-9a23-993f38c2e216","ios":"levelo://app?vid=f74a73a6-340a-410c-9a23-993f38c2e216"},"vehicle_type_id":"4","last_reported":1748877126,"current_range_meters":20400,"station_id":"ce4bh312rcd13ifvqdj0","pricing_plan_id":"cebpf4jnsgd1na2vs0mg"},{"bike_id":"bc335466-b9ce-4a8c-a180-c7d39a4dc5c8","system_id":"levelo_inurba_marseille","lat":43.29194,"lon":5.39342,"is_reserved":false,"is_disabled":false,"rental_uris":{"android":"levelo://app?vid=bc335466-b9ce-4a8c-a180-c7d39a4dc5c8","ios":"levelo://app?vid=bc335466-b9ce-4a8c-a180-c7d39a4dc5c8"},"vehicle_type_id":"4","last_reported":1748877126,"current_range_meters":20400,"station_id":"ce4bh192rcd13ifvqdd0","pricing_plan_id":"cebpf4jnsgd1na2vs0mg"},{"bike_id":"22f839c0-7837-49f4-b4b1-6cd233d79363","system_id":"levelo_inurba_marseille","lat":43.29893,"lon":5.43642,"is_reserved":false,"is_disabled":false,"rental_uris":{"android":"levelo://app?vid=22f839c0-7837-49f4-b4b1-6cd233d79363","ios":"levelo://app?vid=22f839c0-7837-49f4-b4b1-6cd233d79363"},"vehicle_type_id":"4","last_reported":1748877126,"current_range_meters":20800,"station_id":"ce4bhpp2rcd13ifvqhfg","pricing_plan_id":"cebpf4jnsgd1na2vs0mg"},{"bike_id":"db7e2130-ba0e-4c63-a819-b9d547d6c32e","system_id":"levelo_inurba_marseille","lat":43.2657,"lon":5.39008,"is_reserved":false,"is_disabled":false,"rental_uris":{"android":"levelo://app?vid=db7e2130-ba0e-4c63-a819-b9d547d6c32e","ios":"levelo://app?vid=db7e2130-ba0e-4c63-a819-b9d547d6c32e"},"vehicle_type_id":"4","last_reported":1748877126,"current_range_meters":21600,"station_id":"ce4bhe12rcd13ifvqf30","pricing_plan_id":"cebpf4jnsgd1na2vs0mg"},{"bike_id":"0ce29571-45c3-4ad8-bbe0-648fed70aa51","system_id":"levelo_inurba_marseille","lat":43.284638,"lon":5.358918,"is_reserved":false,"is_disabled":false,"rental_uris":{"android":"levelo://app?vid=0ce29571-45c3-4ad8-bbe0-648fed70aa51","ios":"levelo://app?vid=0ce29571-45c3-4ad8-bbe0-648fed70aa51"},"vehicle_type_id":"4","last_reported":1748877126,"current_range_meters":20800,"station_id":"ce4bhah2rcd13ifvqei0","pricing_plan_id":"cebpf4jnsgd1na2vs0mg"},{"bike_id":"e1b57a4a-12b9-4dc6-b8f5-4fda597f9e60","system_id":"levelo_inurba_marseille","lat":43.26575,"lon":5.39006,"is_reserved":false,"is_disabled":false,"rental_uris":{"android":"levelo://app?vid=e1b57a4a-12b9-4dc6-b8f5-4fda597f9e60","ios":"levelo://app?vid=e1b57a4a-12b9-4dc6-b8f5-4fda597f9e60"},"vehicle_type_id":"4","last_reported":1748877126,"current_range_meters":22000,"station_id":"ce4bhe12rcd13ifvqf30","pricing_plan_id":"cebpf4jnsgd1na2vs0mg"},{"bike_id":"5091a1ff-a510-4f3a-8f90-65f5bdc4a983","system_id":"levelo_inurba_marseille","lat":43.32058,"lon":5.41557,"is_reserved":false,"is_disabled":false,"rental_uris":{"android":"levelo://app?vid=5091a1ff-a510-4f3a-8f90-65f5bdc4a983","ios":"levelo://app?vid=5091a1ff-a510-4f3a-8f90-65f5bdc4a983"},"vehicle_type_id":"4","last_reported":1748877126,"current_range_meters":21600,"station_id":"ce4bhq92rcd13ifvqhkg","pricing_plan_id":"cebpf4jnsgd1na2vs0mg"},{"bike_id":"6515dd47-a246-47db-ad16-986f60f24bce","system_id":"levelo_inurba_marseille","lat":43.2657,"lon":5.39008,"is_reserved":false,"is_disabled":false,"rental_uris":{"android":"levelo://app?vid=6515dd47-a246-47db-ad16-986f60f24bce","ios":"levelo://app?vid=6515dd47-a246-47db-ad16-986f60f24bce"},"vehicle_type_id":"4","last_reported":1748877126,"current_range_meters":21600,"station_id":"ce4bhe12rcd13ifvqf30","pricing_plan_id":"cebpf4jnsgd1na2vs0mg"},{"bike_id":"87d2bb74-27d7-42ef-96cc-0762ec017a4b","system_id":"levelo_inurba_marseille","lat":43.21196,"lon":5.35082,"is_reserved":false,"is_disabled":false,"rental_uris":{"android":"levelo://app?vid=87d2bb74-27d7-42ef-96cc-0762ec017a4b","ios":"levelo://app?vid=87d2bb74-27d7-42ef-96cc-0762ec017a4b"},"vehicle_type_id":"4","last_reported":1748877126,"current_range_meters":21600,"station_id":"st_cvj6sg6p6f1abm77japg","pricing_plan_id":"cebpf4jnsgd1na2vs0mg"},{"bike_id":"eb03592d-1f4a-46e0-93be-fb8624fbf901","system_id":"levelo_inurba_marseille","lat":43.298,"lon":5.39338,"is_reserved":false,"is_disabled":false,"rental_uris":{"android":"levelo://app?vid=eb03592d-1f4a-46e0-93be-fb8624fbf901","ios":"levelo://app?vid=eb03592d-1f4a-46e0-93be-fb8624fbf901"},"vehicle_type_id":"4","last_reported":1748877126,"current_range_meters":21600,"station_id":"chh1huq6cuj3fo74tm60","pricing_plan_id":"cebpf4jnsgd1na2vs0mg"},{"bike_id":"355adbe3-25d0-438a-9753-7d3c3f803f07","system_id":"levelo_inurba_marseille","lat":43.29877,"lon":5.3973,"is_reserved":false,"is_disabled":false,"rental_uris":{"android":"levelo://app?vid=355adbe3-25d0-438a-9753-7d3c3f803f07","ios":"levelo://app?vid=355adbe3-25d0-438a-9753-7d3c3f803f07"},"vehicle_type_id":"4","last_reported":1748877126,"current_range_meters":21600,"station_id":"ce4bh0h2rcd13ifvqd50","pricing_plan_id":"cebpf4jnsgd1na2vs0mg"},{"bike_id":"de0ebf6f-ac67-4c0e-9982-8da5332658a5","system_id":"levelo_inurba_marseille","lat":43.28661,"lon":5.36356,"is_reserved":false,"is_disabled":false,"rental_uris":{"android":"levelo://app?vid=de0ebf6f-ac67-4c0e-9982-8da5332658a5","ios":"levelo://app?vid=de0ebf6f-ac67-4c0e-9982-8da5332658a5"},"vehicle_type_id":"4","last_reported":1748877126,"current_range_meters":21600,"station_id":"ce4bhah2rcd13ifvqej0","pricing_plan_id":"cebpf4jnsgd1na2vs0mg"},{"bike_id":"b80bfbf8-7c02-4eca-9f39-5696fc498a3b","system_id":"levelo_inurba_marseille","lat":43.23176,"lon":5.4001,"is_reserved":false,"is_disabled":false,"rental_uris":{"android":"levelo://app?vid=b80bfbf8-7c02-4eca-9f39-5696fc498a3b","ios":"levelo://app?vid=b80bfbf8-7c02-4eca-9f39-5696fc498a3b"},"vehicle_type_id":"4","last_reported":1748877126,"current_range_meters":22000,"station_id":"ce4bhn12rcd13ifvqgqg","pricing_plan_id":"cebpf4jnsgd1na2vs0mg"},{"bike_id":"d8673a6b-abc4-4447-80d9-a677c1e11ab7","system_id":"levelo_inurba_marseille","lat":43.28413,"lon":5.35,"is_reserved":false,"is_disabled":false,"rental_uris":{"android":"levelo://app?vid=d8673a6b-abc4-4447-80d9-a677c1e11ab7","ios":"levelo://app?vid=d8673a6b-abc4-4447-80d9-a677c1e11ab7"},"vehicle_type_id":"4","last_reported":1748877126,"current_range_meters":22000,"station_id":"ce4bhbh2rcd13ifvqepg","pricing_plan_id":"cebpf4jnsgd1na2vs0mg"},{"bike_id":"f0d34e7f-8103-46e9-a438-c85d36f28543","system_id":"levelo_inurba_marseille","lat":43.27871,"lon":5.35436,"is_reserved":false,"is_disabled":false,"rental_uris":{"android":"levelo://app?vid=f0d34e7f-8103-46e9-a438-c85d36f28543","ios":"levelo://app?vid=f0d34e7f-8103-46e9-a438-c85d36f28543"},"vehicle_type_id":"4","last_reported":1748877126,"current_range_meters":22000,"station_id":"","pricing_plan_id":"cebpf4jnsgd1na2vs0mg"},{"bike_id":"baf88571-9080-4570-bca0-50b74d32c8e8","system_id":"levelo_inurba_marseille","lat":43.292664,"lon":5.384327,"is_reserved":false,"is_disabled":false,"rental_uris":{"android":"levelo://app?vid=baf88571-9080-4570-bca0-50b74d32c8e8","ios":"levelo://app?vid=baf88571-9080-4570-bca0-50b74d32c8e8"},"vehicle_type_id":"4","last_reported":1748877126,"current_range_meters":21600,"station_id":"ce4bh692rcd13ifvqea0","pricing_plan_id":"cebpf4jnsgd1na2vs0mg"},{"bike_id":"ed68837a-4a56-4637-92d5-ca84644748d6","system_id":"levelo_inurba_marseille","lat":43.258639,"lon":5.398971,"is_reserved":false,"is_disabled":false,"rental_uris":{"android":"levelo://app?vid=ed68837a-4a56-4637-92d5-ca84644748d6","ios":"levelo://app?vid=ed68837a-4a56-4637-92d5-ca84644748d6"},"vehicle_type_id":"4","last_reported":1748877126,"current_range_meters":22400,"station_id":"","pricing_plan_id":"cebpf4jnsgd1na2vs0mg"},{"bike_id":"69533c1e-436e-44ce-ab4e-b207d3acb89a","system_id":"levelo_inurba_marseille","lat":43.29794,"lon":5.39335,"is_reserved":false,"is_disabled":false,"rental_uris":{"android":"levelo://app?vid=69533c1e-436e-44ce-ab4e-b207d3acb89a","ios":"levelo://app?vid=69533c1e-436e-44ce-ab4e-b207d3acb89a"},"vehicle_type_id":"4","last_reported":1748877126,"current_range_meters":22400,"station_id":"chh1huq6cuj3fo74tm60","pricing_plan_id":"cebpf4jnsgd1na2vs0mg"},{"bike_id":"98c734dd-e4aa-447d-891b-d6b331d7f13e","system_id":"levelo_inurba_marseille","lat":43.25818,"lon":5.39425,"is_reserved":false,"is_disabled":false,"rental_uris":{"android":"levelo://app?vid=98c734dd-e4aa-447d-891b-d6b331d7f13e","ios":"levelo://app?vid=98c734dd-e4aa-447d-891b-d6b331d7f13e"},"vehicle_type_id":"4","last_reported":1748877126,"current_range_meters":22400,"station_id":"ce4bhip2rcd13ifvqft0","pricing_plan_id":"cebpf4jnsgd1na2vs0mg"},{"bike_id":"3c78f1a4-63b5-41b0-a454-923af4e119f7","system_id":"levelo_inurba_marseille","lat":43.2997,"lon":5.36506,"is_reserved":false,"is_disabled":false,"rental_uris":{"android":"levelo://app?vid=3c78f1a4-63b5-41b0-a454-923af4e119f7","ios":"levelo://app?vid=3c78f1a4-63b5-41b0-a454-923af4e119f7"},"vehicle_type_id":"4","last_reported":1748877126,"current_range_meters":22400,"station_id":"ce4bgm92rcd13ifvqbr0","pricing_plan_id":"cebpf4jnsgd1na2vs0mg"},{"bike_id":"44a2ddf5-1e99-4874-9d27-fa069bc6bafa","system_id":"levelo_inurba_marseille","lat":43.29575,"lon":5.39979,"is_reserved":false,"is_disabled":false,"rental_uris":{"android":"levelo://app?vid=44a2ddf5-1e99-4874-9d27-fa069bc6bafa","ios":"levelo://app?vid=44a2ddf5-1e99-4874-9d27-fa069bc6bafa"},"vehicle_type_id":"4","last_reported":1748877126,"current_range_meters":22000,"station_id":"ce4bh312rcd13ifvqdj0","pricing_plan_id":"cebpf4jnsgd1na2vs0mg"},{"bike_id":"b3428974-7881-46c1-ae05-f65b024a95a6","system_id":"levelo_inurba_marseille","lat":43.28422,"lon":5.35011,"is_reserved":false,"is_disabled":false,"rental_uris":{"android":"levelo://app?vid=b3428974-7881-46c1-ae05-f65b024a95a6","ios":"levelo://app?vid=b3428974-7881-46c1-ae05-f65b024a95a6"},"vehicle_type_id":"4","last_reported":1748877126,"current_range_meters":22400,"station_id":"ce4bhbh2rcd13ifvqepg","pricing_plan_id":"cebpf4jnsgd1na2vs0mg"},{"bike_id":"b5a5c936-4039-48b2-a418-d1af32ce7571","system_id":"levelo_inurba_marseille","lat":43.29011,"lon":5.356,"is_reserved":false,"is_disabled":false,"rental_uris":{"android":"levelo://app?vid=b5a5c936-4039-48b2-a418-d1af32ce7571","ios":"levelo://app?vid=b5a5c936-4039-48b2-a418-d1af32ce7571"},"vehicle_type_id":"4","last_reported":1748877126,"current_range_meters":19600,"station_id":"ce4bhb92rcd13ifvqen0","pricing_plan_id":"cebpf4jnsgd1na2vs0mg"},{"bike_id":"a485572d-5f43-4d79-bdb7-7ed22a69fe70","system_id":"levelo_inurba_marseille","lat":43.29029,"lon":5.37572,"is_reserved":false,"is_disabled":false,"rental_uris":{"android":"levelo://app?vid=a485572d-5f43-4d79-bdb7-7ed22a69fe70","ios":"levelo://app?vid=a485572d-5f43-4d79-bdb7-7ed22a69fe70"},"vehicle_type_id":"4","last_reported":1748877126,"current_range_meters":22400,"station_id":"ce4bh692rcd13ifvqe90","pricing_plan_id":"cebpf4jnsgd1na2vs0mg"},{"bike_id":"c2e1d283-a417-4a2a-b2e7-7c87606a7a42","system_id":"levelo_inurba_marseille","lat":43.25096,"lon":5.40337,"is_reserved":false,"is_disabled":false,"rental_uris":{"android":"levelo://app?vid=c2e1d283-a417-4a2a-b2e7-7c87606a7a42","ios":"levelo://app?vid=c2e1d283-a417-4a2a-b2e7-7c87606a7a42"},"vehicle_type_id":"4","last_reported":1748877126,"current_range_meters":22400,"station_id":"ce4bhlh2rcd13ifvqgig","pricing_plan_id":"cebpf4jnsgd1na2vs0mg"},{"bike_id":"3109e96f-b5a7-49e9-b78e-4ba55cd6fbab","system_id":"levelo_inurba_marseille","lat":43.29422,"lon":5.3862,"is_reserved":false,"is_disabled":false,"rental_uris":{"android":"levelo://app?vid=3109e96f-b5a7-49e9-b78e-4ba55cd6fbab","ios":"levelo://app?vid=3109e96f-b5a7-49e9-b78e-4ba55cd6fbab"},"vehicle_type_id":"4","last_reported":1748877126,"current_range_meters":22400,"station_id":"ce4bh2h2rcd13ifvqdh0","pricing_plan_id":"cebpf4jnsgd1na2vs0mg"},{"bike_id":"3c9ea51f-76f6-4206-87fb-5235ed088437","system_id":"levelo_inurba_marseille","lat":43.2916,"lon":5.38613,"is_reserved":false,"is_disabled":false,"rental_uris":{"android":"levelo://app?vid=3c9ea51f-76f6-4206-87fb-5235ed088437","ios":"levelo://app?vid=3c9ea51f-76f6-4206-87fb-5235ed088437"},"vehicle_type_id":"4","last_reported":1748877126,"current_range_meters":22800,"station_id":"","pricing_plan_id":"cebpf4jnsgd1na2vs0mg"},{"bike_id":"310e70be-ee06-4ef6-b4e0-1a267f0af107","system_id":"levelo_inurba_marseille","lat":43.30618,"lon":5.36605,"is_reserved":false,"is_disabled":false,"rental_uris":{"android":"levelo://app?vid=310e70be-ee06-4ef6-b4e0-1a267f0af107","ios":"levelo://app?vid=310e70be-ee06-4ef6-b4e0-1a267f0af107"},"vehicle_type_id":"4","last_reported":1748877126,"current_range_meters":22400,"station_id":"","pricing_plan_id":"cebpf4jnsgd1na2vs0mg"},