{"last_updated":1746274692,"ttl":60,"version":"2.2","data":{"bikes":[{"bike_id":"aeec6cfa-5674-4fea-a71f-9cf77c749d53","system_id":"levelo_inurba_marseille","lat":43.26203,"lon":5.37925,"is_reserved":false,"is_disabled":false,"rental_uris":{"android":"levelo://app?vid=aeec6cfa-5674-4fea-a71f-9cf77c749d53","ios":"levelo://app?vid=aeec6cfa-5674-4fea-a71f-9cf77c749d53"},"vehicle_type_id":"4","last_reported":1746274692,"current_range_meters":2800,"station_id":"ce4bhjp2rcd13ifvqg90","pricing_plan_id":"cebpf4jnsgd1na2vs0mg"},{"bike_id":"58278118-6172-44c5-be5f-958d1869b878","system_id":"levelo_inurba_marseille","lat":43.28272,"lon":5.35062,"is_reserved":false,"is_disabled":false,"rental_uris":{"android":"levelo://app?vid=58278118-6172-44c5-be5f-958d1869b878","ios":"levelo://app?vid=58278118-6172-44c5-be5f-958d1869b878"},"vehicle_type_id":"4","last_reported":1746274692,"current_range_meters":2800,"station_id":"ce4bhbp2rcd13ifvqerg","pricing_plan_id":"cebpf4jnsgd1na2vs0mg"},{"bike_id":"1f6499cf-289a-420a-bf30-3b97ff0bba7a","system_id":"levelo_inurba_marseille","lat":43.30462,"lon":5.37904,"is_reserved":false,"is_disabled":false,"rental_uris":{"android":"levelo://app?vid=1f6499cf-289a-420a-bf30-3b97ff0bba7a","ios":"levelo://app?vid=1f6499cf-289a-420a-bf30-3b97ff0bba7a"},"vehicle_type_id":"4","last_reported":1746274692,"current_range_meters":2800,"station_id":"ce4bgup2rcd13ifvqcn0","pricing_plan_id":"cebpf4jnsgd1na2vs0mg"},{"bike_id":"dad68e18-b0c1-4401-be6c-2816e5c8c087","system_id":"levelo_inurba_marseille","lat":43.28718,"lon":5.37937,"is_reserved":false,"is_disabled":false,"rental_uris":{"android":"levelo://app?vid=dad68e18-b0c1-4401-be6c-2816e5c8c087","ios":"levelo://app?vid=dad68e18-b0c1-4401-be6c-2816e5c8c087"},"vehicle_type_id":"4","last_reported":1746274692,"current_range_meters":2800,"station_id":"ce4bh9p2rcd13ifvqec0","pricing_plan_id":"cebpf4jnsgd1na2vs0mg"},{"bike_id":"e061c4d8-30f4-4051-b9ce-28f1a30fc82f","system_id":"levelo_inurba_marseille","lat":43.29803,"lon":5.38099,"is_reserved":false,"is_disabled":false,"rental_uris":{"android":"levelo://app?vid=e061c4d8-30f4-4051-b9ce-28f1a30fc82f","ios":"levelo://app?vid=e061c4d8-30f4-4051-b9ce-28f1a30fc82f"},"vehicle_type_id":"4","last_reported":1746274692,"current_range_meters":3200,"station_id":"ce4bgip2rcd13ifvqbb0","pricing_plan_id":"cebpf4jnsgd1na2vs0mg"},{"bike_id":"5effd803-f357-4fde-becd-17f75de95209","system_id":"levelo_inurba_marseille","lat":43.28153,"lon":5.42637,"is_reserved":false,"is_disabled":false,"rental_uris":{"android":"levelo://app?vid=5effd803-f357-4fde-becd-17f75de95209","ios":"levelo://app?vid=5effd803-f357-4fde-becd-17f75de95209"},"vehicle_type_id":"4","last_reported":1746274692,"current_range_meters":3200,"station_id":"ce4bhnh2rcd13ifvqgug","pricing_plan_id":"cebpf4jnsgd1na2vs0mg"},{"bike_id":"2fe70925-1510-434c-8810-7db67bb491d4","system_id":"levelo_inurba_marseille","lat":43.27054,"lon":5.40256,"is_reserved":false,"is_disabled":false,"rental_uris":{"android":"levelo://app?vid=2fe70925-1510-434c-8810-7db67bb491d4","ios":"levelo://app?vid=2fe70925-1510-434c-8810-7db67bb491d4"},"vehicle_type_id":"4","last_reported":1746274692,"current_range_meters":3600,"station_id":"ce4bhk92rcd13ifvqgc0","pricing_plan_id":"cebpf4jnsgd1na2vs0mg"},{"bike_id":"1116c0e6-f53b-44da-a2c5-a0827fc8c635","system_id":"levelo_inurba_marseille","lat":43.26205,"lon":5.37926,"is_reserved":false,"is_disabled":false,"rental_uris":{"android":"levelo://app?vid=1116c0e6-f53b-44da-a2c5-a0827fc8c635","ios":"levelo://app?vid=1116c0e6-f53b-44da-a2c5-a0827fc8c635"},"vehicle_type_id":"4","last_reported":1746274692,"current_range_meters":3600,"station_id":"ce4bhjp2rcd13ifvqg90","pricing_plan_id":"cebpf4jnsgd1na2vs0mg"},{"bike_id":"2b95c467-abf5-4f96-801b-6559cd9d38ec","system_id":"levelo_inurba_marseille","lat":43.249991,"lon":5.389095,"is_reserved":false,"is_disabled":false,"rental_uris":{"android":"levelo://app?vid=2b95c467-abf5-4f96-801b-6559cd9d38ec","ios":"levelo://app?vid=2b95c467-abf5-4f96-801b-6559cd9d38ec"},"vehicle_type_id":"4","last_reported":1746274692,"current_range_meters":4000,"station_id":"ce4bhgp2rcd13ifvqfd0","pricing_plan_id":"cebpf4jnsgd1na2vs0mg"},{"bike_id":"4fcb94dd-7e2e-4c2b-a657-b8760b2238dc","system_id":"levelo_inurba_marseille","lat":43.259598,"lon":5.408878,"is_reserved":false,"is_disabled":false,"rental_uris":{"android":"levelo://app?vid=4fcb94dd-7e2e-4c2b-a657-b8760b2238dc","ios":"levelo://app?vid=4fcb94dd-7e2e-4c2b-a657-b8760b2238dc"},"vehicle_type_id":"4","last_reported":1746274692,"current_range_meters":3600,"station_id":"ce4bhm92rcd13ifvqglg","pricing_plan_id":"cebpf4jnsgd1na2vs0mg"},{"bike_id":"2be6c5ac-db75-4c9d-95c6-9c66882f14b8","system_id":"levelo_inurba_marseille","lat":43.27901,"lon":5.363,"is_reserved":false,"is_disabled":false,"rental_uris":{"android":"levelo://app?vid=2be6c5ac-db75-4c9d-95c6-9c66882f14b8","ios":"levelo://app?vid=2be6c5ac-db75-4c9d-95c6-9c66882f14b8"},"vehicle_type_id":"4","last_reported":1746274692,"current_range_meters":3600,"station_id":"","pricing_plan_id":"cebpf4jnsgd1na2vs0mg"},{"bike_id":"8ed438a4-6d33-445e-a016-f2c89a1c2d1e","system_id":"levelo_inurba_marseille","lat":43.29574,"lon":5.39963,"is_reserved":false,"is_disabled":false,"rental_uris":{"android":"levelo://app?vid=8ed438a4-6d33-445e-a016-f2c89a1c2d1e","ios":"levelo://app?vid=8ed438a4-6d33-445e-a016-f2c89a1c2d1e"},"vehicle_type_id":"4","last_reported":1746274692,"current_range_meters":3200,"station_id":"ce4bh312rcd13ifvqdj0","pricing_plan_id":"cebpf4jnsgd1na2vs0mg"},{"bike_id":"f73daf93-45c7-48c0-a61a-2d28ac89db8d","system_id":"levelo_inurba_marseille","lat":43.33944,"lon":5.42026,"is_reserved":false,"is_disabled":false,"rental_uris":{"android":"levelo://app?vid=f73daf93-45c7-48c0-a61a-2d28ac89db8d","ios":"levelo://app?vid=f73daf93-45c7-48c0-a61a-2d28ac89db8d"},"vehicle_type_id":"4","last_reported":1746274692,"current_range_meters":3600,"station_id":"","pricing_plan_id":"cebpf4jnsgd1na2vs0mg"},{"bike_id":"5842d920-20e2-4cc9-ab34-31daa3e5633a","system_id":"levelo_inurba_marseille","lat":43.30132,"lon":5.38774,"is_reserved":false,"is_disabled":false,"rental_uris":{"android":"levelo://app?vid=5842d920-20e2-4cc9-ab34-31daa3e5633a","ios":"levelo://app?vid=5842d920-20e2-4cc9-ab34-31daa3e5633a"},"vehicle_type_id":"4","last_reported":1746274692,"current_range_meters":4000,"station_id":"ce4bghh2rcd13ifvqb60","pricing_plan_id":"cebpf4jnsgd1na2vs0mg"},{"bike_id":"2d87f24b-bb92-4f5a-9c64-611905425c8d","system_id":"levelo_inurba_marseille","lat":43.23667,"lon":5.39143,"is_reserved":false,"is_disabled":false,"rental_uris":{"android":"levelo://app?vid=2d87f24b-bb92-4f5a-9c64-611905425c8d","ios":"levelo://app?vid=2d87f24b-bb92-4f5a-9c64-611905425c8d"},"vehicle_type_id":"4","last_reported":1746274692,"current_range_meters":4000,"station_id":"","pricing_plan_id":"cebpf4jnsgd1na2vs0mg"},{"bike_id":"1fc58f37-caed-4f25-a6c8-08455fae8a53","system_id":"levelo_inurba_marseille","lat":43.23182,"lon":5.39996,"is_reserved":false,"is_disabled":false,"rental_uris":{"android":"levelo://app?vid=1fc58f37-caed-4f25-a6c8-08455fae8a53","ios":"levelo://app?vid=1fc58f37-caed-4f25-a6c8-08455fae8a53"},"vehicle_type_id":"4","last_reported":1746274692,"current_range_meters":4000,"station_id":"ce4bhn12rcd13ifvqgqg","pricing_plan_id":"cebpf4jnsgd1na2vs0mg"},{"bike_id":"73739136-f5ea-4d02-a738-72ba542e062e","system_id":"levelo_inurba_marseille","lat":43.2119,"lon":5.35069,"is_reserved":false,"is_disabled":false,"rental_uris":{"android":"levelo://app?vid=73739136-f5ea-4d02-a738-72ba542e062e","ios":"levelo://app?vid=73739136-f5ea-4d02-a738-72ba542e062e"},"vehicle_type_id":"4","last_reported":1746274692,"current_range_meters":4400,"station_id":"st_cvj6sg6p6f1abm77japg","pricing_plan_id":"cebpf4jnsgd1na2vs0mg"},{"bike_id":"a6b49e0e-ca0e-4a98-b03c-8185fa1c7f3b","system_id":"levelo_inurba_marseille","lat":43.21177,"lon":5.35078,"is_reserved":false,"is_disabled":false,"rental_uris":{"android":"levelo://app?vid=a6b49e0e-ca0e-4a98-b03c-8185fa1c7f3b","ios":"levelo://app?vid=a6b49e0e-ca0e-4a98-b03c-8185fa1c7f3b"},"vehicle_type_id":"4","last_reported":1746274692,"current_range_meters":4400,"station_id":"st_cvj6sg6p6f1abm77japg","pricing_plan_id":"cebpf4jnsgd1na2vs0mg"},{"bike_id":"b6c63131-93e3-4769-a0ce-4f302fe16689","system_id":"levelo_inurba_marseille","lat":43.27995,"lon":5.40007,"is_reserved":false,"is_disabled":false,"rental_uris":{"android":"levelo://app?vid=b6c63131-93e3-4769-a0ce-4f302fe16689","ios":"levelo://app?vid=b6c63131-93e3-4769-a0ce-4f302fe16689"},"vehicle_type_id":"4","last_reported":1746274692,"current_range_meters":10800,"station_id":"ce4bho92rcd13ifvqh4g","pricing_plan_id":"cebpf4jnsgd1na2vs0mg"},{"bike_id":"0d6c5100-7db5-44d0-b9d6-cf2b96014798","system_id":"levelo_inurba_marseille","lat":43.31016,"lon":5.3747,"is_reserved":false,"is_disabled":false,"rental_uris":{"android":"levelo://app?vid=0d6c5100-7db5-44d0-b9d6-cf2b96014798","ios":"levelo://app?vid=0d6c5100-7db5-44d0-b9d6-cf2b96014798"},"vehicle_type_id":"4","last_reported":1746274692,"current_range_meters":4800,"station_id":"","pricing_plan_id":"cebpf4jnsgd1na2vs0mg"},{"bike_id":"1cda1b19-5d1e-4702-af92-9a7c9f7d71d1","system_id":"levelo_inurba_marseille","lat":43.23964,"lon":5.36629,"is_reserved":false,"is_disabled":false,"rental_uris":{"android":"levelo://app?vid=1cda1b19-5d1e-4702-af92-9a7c9f7d71d1","ios":"levelo://app?vid=1cda1b19-5d1e-4702-af92-9a7c9f7d71d1"},"vehicle_type_id":"4","last_reported":1746274692,"current_range_meters":4800,"station_id":"ce4bhi12rcd13ifvqfp0","pricing_plan_id":"cebpf4jnsgd1na2vs0mg"},{"bike_id":"56d9a613-04f6-4409-940f-6acd17d65c5a","system_id":"levelo_inurba_marseille","lat":43.30548,"lon":5.36546,"is_reserved":false,"is_disabled":false,"rental_uris":{"android":"levelo://app?vid=56d9a613-04f6-4409-940f-6acd17d65c5a","ios":"levelo://app?vid=56d9a613-04f6-4409-940f-6acd17d65c5a"},"vehicle_type_id":"4","last_reported":1746274692,"current_range_meters":4800,"station_id":"ce4bgs12rcd13ifvqcag","pricing_plan_id":"cebpf4jnsgd1na2vs0mg"},{"bike_id":"7971fe93-5f1d-4a59-8508-b415e64fcb18","system_id":"levelo_inurba_marseille","lat":43.30951,"lon":5.37321,"is_reserved":false,"is_disabled":false,"rental_uris":{"android":"levelo://app?vid=7971fe93-5f1d-4a59-8508-b415e64fcb18","ios":"levelo://app?vid=7971fe93-5f1d-4a59-8508-b415e64fcb18"},"vehicle_type_id":"4","last_reported":1746274692,"current_range_meters":4800,"station_id":"","pricing_plan_id":"cebpf4jnsgd1na2vs0mg"},{"bike_id":"ca3f9293-bc04-47ae-b435-f1a6e33d9bb2","system_id":"levelo_inurba_marseille","lat":43.30943,"lon":5.3904,"is_reserved":false,"is_disabled":false,"rental_uris":{"android":"levelo://app?vid=ca3f9293-bc04-47ae-b435-f1a6e33d9bb2","ios":"levelo://app?vid=ca3f9293-bc04-47ae-b435-f1a6e33d9bb2"},"vehicle_type_id":"4","last_reported":1746274692,"current_range_meters":6000,"station_id":"ce4bgup2rcd13ifvqco0","pricing_plan_id":"cebpf4jnsgd1na2vs0mg"},{"bike_id":"d6fca117-0b75-4d46-b112-e4517691aa07","system_id":"levelo_inurba_marseille","lat":43.23195,"lon":5.3555,"is_reserved":false,"is_disabled":false,"rental_uris":{"android":"levelo://app?vid=d6fca117-0b75-4d46-b112-e4517691aa07","ios":"levelo://app?vid=d6fca117-0b75-4d46-b112-e4517691aa07"},"vehicle_type_id":"4","last_reported":1746274692,"current_range_meters":5600,"station_id":"ce4bhu92rcd13ifvqi70","pricing_plan_id":"cebpf4jnsgd1na2vs0mg"},{"bike_id":"a69ccf4e-5743-4dc3-a630-b2344bf0c864","system_id":"levelo_inurba_marseille","lat":43.31738,"lon":5.3774,"is_reserved":false,"is_disabled":true,"rental_uris":{"android":"levelo://app?vid=a69ccf4e-5743-4dc3-a630-b2344bf0c864","ios":"levelo://app?vid=a69ccf4e-5743-4dc3-a630-b2344bf0c864"},"vehicle_type_id":"4","last_reported":1746274692,"current_range_meters":6400,"station_id":"ce4bgth2rcd13ifvqch0","pricing_plan_id":"cebpf4jnsgd1na2vs0mg"},{"bike_id":"73cf87fe-b8e3-478d-9ef0-d4a137afa86f","system_id":"levelo_inurba_marseille","lat":43.298443,"lon":5.362747,"is_reserved":false,"is_disabled":false,"rental_uris":{"android":"levelo://app?vid=73cf87fe-b8e3-478d-9ef0-d4a137afa86f","ios":"levelo://app?vid=73cf87fe-b8e3-478d-9ef0-d4a137afa86f"},"vehicle_type_id":"4","last_reported":1746274692,"current_range_meters":6400,"station_id":"ce4bgpp2rcd13ifvqc3g","pricing_plan_id":"cebpf4jnsgd1na2vs0mg"},{"bike_id":"0bb15cbe-0cb2-490f-8064-d7b82d7e3423","system_id":"levelo_inurba_marseille","lat":43.211951,"lon":5.350691,"is_reserved":false,"is_disabled":false,"rental_uris":{"android":"levelo://app?vid=0bb15cbe-0cb2-490f-8064-d7b82d7e3423","ios":"levelo://app?vid=0bb15cbe-0cb2-490f-8064-d7b82d7e3423"},"vehicle_type_id":"4","last_reported":1746274692,"current_range_meters":6400,"station_id":"st_cvj6sg6p6f1abm77japg","pricing_plan_id":"cebpf4jnsgd1na2vs0mg"},{"bike_id":"4e425707-5e10-4fe1-be39-d37c29278c0c","system_id":"levelo_inurba_marseille","lat":43.225035,"lon":5.347924,"is_reserved":false,"is_disabled":false,"rental_uris":{"android":"levelo://app?vid=4e425707-5e10-4fe1-be39-d37c29278c0c","ios":"levelo://app?vid=4e425707-5e10-4fe1-be39-d37c29278c0c"},"vehicle_type_id":"4","last_reported":1746274692,"current_range_meters":6400,"station_id":"st_cvj6r9ubvosntc0bgbag","pricing_plan_id":"cebpf4jnsgd1na2vs0mg"},{"bike_id":"3487fe67-fd71-489e-bded-0a849cdfd0b3","system_id":"levelo_inurba_marseille","lat":43.29797,"lon":5.38096,"is_reserved":false,"is_disabled":false,"rental_uris":{"android":"levelo://app?vid=3487fe67-fd71-489e-bded-0a849cdfd0b3","ios":"levelo://app?vid=3487fe67-fd71-489e-bded-0a849cdfd0b3"},"vehicle_type_id":"4","last_reported":1746274692,"current_range_meters":6800,"station_id":"ce4bgip2rcd13ifvqbb0","pricing_plan_id":"cebpf4jnsgd1na2vs0mg"},{"bike_id":"3694d090-d909-4d38-9eb1-31338c8af39e","system_id":"levelo_inurba_marseille","lat":43.26685,"lon":5.3827,"is_reserved":false,"is_disabled":true,"rental_uris":{"android":"levelo://app?vid=3694d090-d909-4d38-9eb1-31338c8af39e","ios":"levelo://app?vid=3694d090-d909-4d38-9eb1-31338c8af39e"},"vehicle_type_id":"4","last_reported":1746274692,"current_range_meters":6800,"station_id":"ce4bhg92rcd13ifvqf90","pricing_plan_id":"cebpf4jnsgd1na2vs0mg"},{"bike_id":"62b6a680-5f99-465a-98b6-0efe3ef83813","system_id":"levelo_inurba_marseille","lat":43.2319,"lon":5.35562,"is_reserved":false,"is_disabled":false,"rental_uris":{"android":"levelo://app?vid=62b6a680-5f99-465a-98b6-0efe3ef83813","ios":"levelo://app?vid=62b6a680-5f99-465a-98b6-0efe3ef83813"},"vehicle_type_id":"4","last_reported":1746274692,"current_range_meters":6800,"station_id":"ce4bhu92rcd13ifvqi70","pricing_plan_id":"cebpf4jnsgd1na2vs0mg"},{"bike_id":"a4ca8a14-b60f-4d93-8bdf-49d909871c32","system_id":"levelo_inurba_marseille","lat":43.279121,"lon":5.395936,"is_reserved":false,"is_disabled":false,"rental_uris":{"android":"levelo://app?vid=a4ca8a14-b60f-4d93-8bdf-49d909871c32","ios":"levelo://app?vid=a4ca8a14-b60f-4d93-8bdf-49d909871c32"},"vehicle_type_id":"4","last_reported":1746274692,"current_range_meters":7200,"station_id":"ce4bhf92rcd13ifvqf40","pricing_plan_id":"cebpf4jnsgd1na2vs0mg"},{"bike_id":"5b9238d4-b62f-479f-88db-255f8d78812c","system_id":"levelo_inurba_marseille","lat":43.23952,"lon":5.3664,"is_reserved":false,"is_disabled":false,"rental_uris":{"android":"levelo://app?vid=5b9238d4-b62f-479f-88db-255f8d78812c","ios":"levelo://app?vid=5b9238d4-b62f-479f-88db-255f8d78812c"},"vehicle_type_id":"4","last_reported":1746274692,"current_range_meters":7200,"station_id":"ce4bhi12rcd13ifvqfp0","pricing_plan_id":"cebpf4jnsgd1na2vs0mg"},{"bike_id":"78a75d3e-fc63-42ab-aff8-c55933ba4a90","system_id":"levelo_inurba_marseille","lat":43.286143,"lon":5.350978,"is_reserved":false,"is_disabled":false,"rental_uris":{"android":"levelo://app?vid=78a75d3e-fc63-42ab-aff8-c55933ba4a90","ios":"levelo://app?vid=78a75d3e-fc63-42ab-aff8-c55933ba4a90"},"vehicle_type_id":"4","last_reported":1746274692,"current_range_meters":7200,"station_id":"","pricing_plan_id":"cebpf4jnsgd1na2vs0mg"},{"bike_id":"72216c70-e53a-4657-a8fe-3307eba759af","system_id":"levelo_inurba_marseille","lat":43.28443,"lon":5.3921,"is_reserved":false,"is_disabled":false,"rental_uris":{"android":"levelo://app?vid=72216c70-e53a-4657-a8fe-3307eba759af","ios":"levelo://app?vid=72216c70-e53a-4657-a8fe-3307eba759af"},"vehicle_type_id":"4","last_reported":1746274692,"current_range_meters":6800,"station_id":"ce4bhoh2rcd13ifvqh5g","pricing_plan_id":"cebpf4jnsgd1na2vs0mg"},{"bike_id":"20ccbdaf-8a76-4cd4-87af-fb59c08e81dc","system_id":"levelo_inurba_marseille","lat":43.23195,"lon":5.35556,"is_reserved":false,"is_disabled":false,"rental_uris":{"android":"levelo://app?vid=20ccbdaf-8a76-4cd4-87af-fb59c08e81dc","ios":"levelo://app?vid=20ccbdaf-8a76-4cd4-87af-fb59c08e81dc"},"vehicle_type_id":"4","last_reported":1746274692,"current_range_meters":7200,"station_id":"ce4bhu92rcd13ifvqi70","pricing_plan_id":"cebpf4jnsgd1na2vs0mg"},{"bike_id":"23ae8b62-1e10-40b4-b8f5-3c76431ec208","system_id":"levelo_inurba_marseille","lat":43.29599,"lon":5.38101,"is_reserved":false,"is_disabled":false,"rental_uris":{"android":"levelo://app?vid=23ae8b62-1e10-40b4-b8f5-3c76431ec208","ios":"levelo://app?vid=23ae8b62-1e10-40b4-b8f5-3c76431ec208"},"vehicle_type_id":"4","last_reported":1746274692,"current_range_meters":7200,"station_id":"ce4bgl12rcd13ifvqbo0","pricing_plan_id":"cebpf4jnsgd1na2vs0mg"},{"bike_id":"8cb0aeec-f2e9-40fc-8119-16d6dde3aa45","system_id":"levelo_inurba_marseille","lat":43.257265,"lon":5.411097,"is_reserved":false,"is_disabled":false,"rental_uris":{"android":"levelo://app?vid=8cb0aeec-f2e9-40fc-8119-16d6dde3aa45","ios":"levelo://app?vid=8cb0aeec-f2e9-40fc-8119-16d6dde3aa45"},"vehicle_type_id":"4","last_reported":1746274692,"current_range_meters":8000,"station_id":"ce4bhkp2rcd13ifvqgd0","pricing_plan_id":"cebpf4jnsgd1na2vs0mg"},{"bike_id":"57d6aa59-5bf6-412b-a4c2-17e0c424e9c8","system_id":"levelo_inurba_marseille","lat":43.2306,"lon":5.35498,"is_reserved":false,"is_disabled":false,"rental_uris":{"android":"levelo://app?vid=57d6aa59-5bf6-412b-a4c2-17e0c424e9c8","ios":"levelo://app?vid=57d6aa59-5bf6-412b-a4c2-17e0c424e9c8"},"vehicle_type_id":"4","last_reported":1746274692,"current_range_meters":8000,"station_id":"cpo3342slgdg3j2ifvpg","pricing_plan_id":"cebpf4jnsgd1na2vs0mg"},{"bike_id":"7eb58677-7b3d-4a1d-8459-20ce26e9ee2a","system_id":"levelo_inurba_marseille","lat":43.2841,"lon":5.34995,"is_reserved":false,"is_disabled":false,"rental_uris":{"android":"levelo://app?vid=7eb58677-7b3d-4a1d-8459-20ce26e9ee2a","ios":"levelo://app?vid=7eb58677-7b3d-4a1d-8459-20ce26e9ee2a"},"vehicle_type_id":"4","last_reported":1746274692,"current_range_meters":8000,"station_id":"ce4bhbh2rcd13ifvqepg","pricing_plan_id":"cebpf4jnsgd1na2vs0mg"},{"bike_id":"cacfed3f-3722-488e-98b5-98e62d2b8801","system_id":"levelo_inurba_marseille","lat":43.25105,"lon":5.40323,"is_reserved":false,"is_disabled":false,"rental_uris":{"android":"levelo://app?vid=cacfed3f-3722-488e-98b5-98e62d2b8801","ios":"levelo://app?vid=cacfed3f-3722-488e-98b5-98e62d2b8801"},"vehicle_type_id":"4","last_reported":1746274692,"current_range_meters":8000,"station_id":"ce4bhlh2rcd13ifvqgig","pricing_plan_id":"cebpf4jnsgd1na2vs0mg"},{"bike_id":"5e1d765b-b55b-4be2-835f-928adb328dc1","system_id":"levelo_inurba_marseille","lat":43.23197,"lon":5.3555,"is_reserved":false,"is_disabled":false,"rental_uris":{"android":"levelo://app?vid=5e1d765b-b55b-4be2-835f-928adb328dc1","ios":"levelo://app?vid=5e1d765b-b55b-4be2-835f-928adb328dc1"},"vehicle_type_id":"4","last_reported":1746274692,"current_range_meters":8000,"station_id":"ce4bhu92rcd13ifvqi70","pricing_plan_id":"cebpf4jnsgd1na2vs0mg"},{"bike_id":"10664c03-6a56-4ff9-97c5-7c4b9fbea670","system_id":"levelo_inurba_marseille","lat":43.225035,"lon":5.347845,"is_reserved":false,"is_disabled":false,"rental_uris":{"android":"levelo://app?vid=10664c03-6a56-4ff9-97c5-7c4b9fbea670","ios":"levelo://app?vid=10664c03-6a56-4ff9-97c5-7c4b9fbea670"},"vehicle_type_id":"4","last_reported":1746274692,"current_range_meters":8000,"station_id":"st_cvj5dfep6f1abm77gieg","pricing_plan_id":"cebpf4jnsgd1na2vs0mg"},{"bike_id":"03f8f1a1-348f-43c1-810e-3f5bf3b4a5c6","system_id":"levelo_inurba_marseille","lat":43.24901,"lon":5.39407,"is_reserved":false,"is_disabled":false,"rental_uris":{"android":"levelo://app?vid=03f8f1a1-348f-43c1-810e-3f5bf3b4a5c6","ios":"levelo://app?vid=03f8f1a1-348f-43c1-810e-3f5bf3b4a5c6"},"vehicle_type_id":"4","last_reported":1746274692,"current_range_meters":8000,"station_id":"","pricing_plan_id":"cebpf4jnsgd1na2vs0mg"},{"bike_id":"026d2b86-a3f6-49e2-bbd5-9574b8e7ea54","system_id":"levelo_inurba_marseille","lat":43.24647,"lon":5.38882,"is_reserved":false,"is_disabled":false,"rental_uris":{"android":"levelo://app?vid=026d2b86-a3f6-49e2-bbd5-9574b8e7ea54","ios":"levelo://app?vid=026d2b86-a3f6-49e2-bbd5-9574b8e7ea54"},"vehicle_type_id":"4","last_reported":1746274692,"current_range_meters":8400,"station_id":"ce4bhg12rcd13ifvqf60","pricing_plan_id":"cebpf4jnsgd1na2vs0mg"},{"bike_id":"2bbe5234-b586-4662-b513-d9681ad5c688","system_id":"levelo_inurba_marseille","lat":43.260254,"lon":5.375437,"is_reserved":false,"is_disabled":false,"rental_uris":{"android":"levelo://app?vid=2bbe5234-b586-4662-b513-d9681ad5c688","ios":"levelo://app?vid=2bbe5234-b586-4662-b513-d9681ad5c688"},"vehicle_type_id":"4","last_reported":1746274692,"current_range_meters":8400,"station_id":"ce4bhgh2rcd13ifvqfa0","pricing_plan_id":"cebpf4jnsgd1na2vs0mg"},{"bike_id":"400c7f61-100c-4f5e-9bb0-52f77678d671","system_id":"levelo_inurba_marseille","lat":43.23155,"lon":5.43701,"is_reserved":false,"is_disabled":false,"rental_uris":{"android":"levelo://app?vid=400c7f61-100c-4f5e-9bb0-52f77678d671","ios":"levelo://app?vid=400c7f61-100c-4f5e-9bb0-52f77678d671"},"vehicle_type_id":"4","last_reported":1746274692,"current_range_meters":8000,"station_id":"ce4bhmp2rcd13ifvqgog","pricing_plan_id":"cebpf4jnsgd1na2vs0mg"},{"bike_id":"58b84c8d-3704-4b81-b1cc-0b1b9ca00e1c","system_id":"levelo_inurba_marseille","lat":43.28614,"lon":5.35082,"is_reserved":false,"is_disabled":false,"rental_uris":{"android":"levelo://app?vid=58b84c8d-3704-4b81-b1cc-0b1b9ca00e1c","ios":"levelo://app?vid=58b84c8d-3704-4b81-b1cc-0b1b9ca00e1c"},"vehicle_type_id":"4","last_reported":1746274692,"current_range_meters":8400,"station_id":"ce4bhch2rcd13ifvqeug","pricing_plan_id":"cebpf4jnsgd1na2vs0mg"},{"bike_id":"8c2bf052-9207-49ce-baaf-030747df128b","system_id":"levelo_inurba_marseille","lat":43.21747,"lon":5.34603,"is_reserved":false,"is_disabled":false,"rental_uris":{"android":"levelo://app?vid=8c2bf052-9207-49ce-baaf-030747df128b","ios":"levelo://app?vid=8c2bf052-9207-49ce-baaf-030747df128b"},"vehicle_type_id":"4","last_reported":1746274692,"current_range_meters":8400,"station_id":"st_cvj6r9ubvosntc0bgbag","pricing_plan_id":"cebpf4jnsgd1na2vs0mg"},{"bike_id":"6404b02f-abc8-46bc-a957-855b646aff21","system_id":"levelo_inurba_marseille","lat":43.29973,"lon":5.38498,"is_reserved":false,"is_disabled":false,"rental_uris":{"android":"levelo://app?vid=6404b02f-abc8-46bc-a957-855b646aff21","ios":"levelo://app?vid=6404b02f-abc8-46bc-a957-855b646aff21"},"vehicle_type_id":"4","last_reported":1746274692,"current_range_meters":8000,"station_id":"ce4bgj92rcd13ifvqbd0","pricing_plan_id":"cebpf4jnsgd1na2vs0mg"},{"bike_id":"e81ada2b-a298-4b22-bc0e-bb3bb8b918cb","system_id":"levelo_inurba_marseille","lat":43.29707,"lon":5.36611,"is_reserved":false,"is_disabled":false,"rental_uris":{"android":"levelo://app?vid=e81ada2b-a298-4b22-bc0e-bb3bb8b918cb","ios":"levelo://app?vid=e81ada2b-a298-4b22-bc0e-bb3bb8b918cb"},"vehicle_type_id":"4","last_reported":1746274692,"current_range_meters":8000,"station_id":"ce4bgn12rcd13ifvqbt0","pricing_plan_id":"cebpf4jnsgd1na2vs0mg"},{"bike_id":"fcd30bb1-a762-4694-87f1-8ef4db7b87dd","system_id":"levelo_inurba_marseille","lat":43.24068,"lon":5.37763,"is_reserved":false,"is_disabled":false,"rental_uris":{"android":"levelo://app?vid=fcd30bb1-a762-4694-87f1-8ef4db7b87dd","ios":"levelo://app?vid=fcd30bb1-a762-4694-87f1-8ef4db7b87dd"},"vehicle_type_id":"4","last_reported":1746274692,"current_range_meters":9600,"station_id":"ce4bhnp2rcd13ifvqgvg","pricing_plan_id":"cebpf4jnsgd1na2vs0mg"},{"bike_id":"2ec6dd80-93b4-435e-89c9-9ef2c5604b75","system_id":"levelo_inurba_marseille","lat":43.24189,"lon":5.39714,"is_reserved":false,"is_disabled":false,"rental_uris":{"android":"levelo://app?vid=2ec6dd80-93b4-435e-89c9-9ef2c5604b75","ios":"levelo://app?vid=2ec6dd80-93b4-435e-89c9-9ef2c5604b75"},"vehicle_type_id":"4","last_reported":1746274692,"current_range_meters":8800,"station_id":"ce4bhn12rcd13ifvqgpg","pricing_plan_id":"cebpf4jnsgd1na2vs0mg"},{"bike_id":"ceb7bbc0-0abe-4c68-8877-1b73485c0d71","system_id":"levelo_inurba_marseille","lat":43.27369,"lon":5.36258,"is_reserved":false,"is_disabled":false,"rental_uris":{"android":"levelo://app?vid=ceb7bbc0-0abe-4c68-8877-1b73485c0d71","ios":"levelo://app?vid=ceb7bbc0-0abe-4c68-8877-1b73485c0d71"},"vehicle_type_id":"4","last_reported":1746274692,"current_range_meters":8800,"station_id":"ce4bhbh2rcd13ifvqeo0","pricing_plan_id":"cebpf4jnsgd1na2vs0mg"},{"bike_id":"36506f41-f571-4891-ab7b-18263d91538b","system_id":"levelo_inurba_marseille","lat":43.28156,"lon":5.42648,"is_reserved":false,"is_disabled":false,"rental_uris":{"android":"levelo://app?vid=36506f41-f571-4891-ab7b-18263d91538b","ios":"levelo://app?vid=36506f41-f571-4891-ab7b-18263d91538b"},"vehicle_type_id":"4","last_reported":1746274692,"current_range_meters":8800,"station_id":"ce4bhnh2rcd13ifvqgug","pricing_plan_id":"cebpf4jnsgd1na2vs0mg"},{"bike_id":"5237e300-fe07-40f0-88aa-a514de803e1b","system_id":"levelo_inurba_marseille","lat":43.23152,"lon":5.43717,"is_reserved":false,"is_disabled":false,"rental_uris":{"android":"levelo://app?vid=5237e300-fe07-40f0-88aa-a514de803e1b","ios":"levelo://app?vid=5237e300-fe07-40f0-88aa-a514de803e1b"},"vehicle_type_id":"4","last_reported":1746274692,"current_range_meters":8400,"station_id":"ce4bhmp2rcd13ifvqgog","pricing_plan_id":"cebpf4jnsgd1na2vs0mg"},{"bike_id":"5efd1a68-fd20-4c8a-97a3-b207c3d5c9e9","system_id":"levelo_inurba_marseille","lat":43.24377,"lon":5.37062,"is_reserved":false,"is_disabled":false,"rental_uris":{"android":"levelo://app?vid=5efd1a68-fd20-4c8a-97a3-b207c3d5c9e9","ios":"levelo://app?vid=5efd1a68-fd20-4c8a-97a3-b207c3d5c9e9"},"vehicle_type_id":"4","last_reported":1746274692,"current_range_meters":8800,"station_id":"ce4bhhh2rcd13ifvqfk0","pricing_plan_id":"cebpf4jnsgd1na2vs0mg"},{"bike_id":"a2b5f75b-8b31-4025-975c-0028449e52cd","system_id":"levelo_inurba_marseille","lat":43.24177,"lon":5.39735,"is_reserved":false,"is_disabled":false,"rental_uris":{"android":"levelo://app?vid=a2b5f75b-8b31-4025-975c-0028449e52cd","ios":"levelo://app?vid=a2b5f75b-8b31-4025-975c-0028449e52cd"},"vehicle_type_id":"4","last_reported":1746274692,"current_range_meters":8800,"station_id":"ce4bhn12rcd13ifvqgpg","pricing_plan_id":"cebpf4jnsgd1na2vs0mg"},{"bike_id":"4d2fe1ca-70c8-4826-aba6-9aa47bdf7f8c","system_id":"levelo_inurba_marseille","lat":43.26194,"lon":5.37447,"is_reserved":false,"is_disabled":false,"rental_uris":{"android":"levelo://app?vid=4d2fe1ca-70c8-4826-aba6-9aa47bdf7f8c","ios":"levelo://app?vid=4d2fe1ca-70c8-4826-aba6-9aa47bdf7f8c"},"vehicle_type_id":"4","last_reported":1746274692,"current_range_meters":9200,"station_id":"ce4bhgp2rcd13ifvqfc0","pricing_plan_id":"cebpf4jnsgd1na2vs0mg"},{"bike_id":"06e4c8e5-8c2d-424d-bd8a-7dc3d072c8e1","system_id":"levelo_inurba_marseille","lat":43.217448,"lon":5.346033,"is_reserved":false,"is_disabled":false,"rental_uris":{"android":"levelo://app?vid=06e4c8e5-8c2d-424d-bd8a-7dc3d072c8e1","ios":"levelo://app?vid=06e4c8e5-8c2d-424d-bd8a-7dc3d072c8e1"},"vehicle_type_id":"4","last_reported":1746274692,"current_range_meters":9200,"station_id":"st_cvj6r9ubvosntc0bgbag","pricing_plan_id":"cebpf4jnsgd1na2vs0mg"},{"bike_id":"e27ce41e-d31e-4411-a762-387f29d91877","system_id":"levelo_inurba_marseille","lat":43.29562,"lon":5.42277,"is_reserved":false,"is_disabled":false,"rental_uris":{"android":"levelo://app?vid=e27ce41e-d31e-4411-a762-387f29d91877","ios":"levelo://app?vid=e27ce41e-d31e-4411-a762-387f29d91877"},"vehicle_type_id":"4","last_reported":1746274692,"current_range_meters":9200,"station_id":"ce4bhph2rcd13ifvqhdg","pricing_plan_id":"cebpf4jnsgd1na2vs0mg"},{"bike_id":"e0e163c0-b70c-478b-a240-966060226969","system_id":"levelo_inurba_marseille","lat":43.292323,"lon":5.362014,"is_reserved":false,"is_disabled":false,"rental_uris":{"android":"levelo://app?vid=e0e163c0-b70c-478b-a240-966060226969","ios":"levelo://app?vid=e0e163c0-b70c-478b-a240-966060226969"},"vehicle_type_id":"4","last_reported":1746274692,"current_range_meters":9200,"station_id":"","pricing_plan_id":"cebpf4jnsgd1na2vs0mg"},{"bike_id":"2cce8745-f47d-491d-9776-93cf9f036027","system_id":"levelo_inurba_marseille","lat":43.30817,"lon":5.43521,"is_reserved":false,"is_disabled":false,"rental_uris":{"android":"levelo://app?vid=2cce8745-f47d-491d-9776-93cf9f036027","ios":"levelo://app?vid=2cce8745-f47d-491d-9776-93cf9f036027"},"vehicle_type_id":"4","last_reported":1746274692,"current_range_meters":9200,"station_id":"ce4bhph2rcd13ifvqheg","pricing_plan_id":"cebpf4jnsgd1na2vs0mg"},{"bike_id":"d93f7e7c-70aa-48f7-b906-03e07b5ab351","system_id":"levelo_inurba_marseille","lat":43.31359,"lon":5.385,"is_reserved":false,"is_disabled":false,"rental_uris":{"android":"levelo://app?vid=d93f7e7c-70aa-48f7-b906-03e07b5ab351","ios":"levelo://app?vid=d93f7e7c-70aa-48f7-b906-03e07b5ab351"},"vehicle_type_id":"4","last_reported":1746274692,"current_range_meters":9200,"station_id":"ce4bgt92rcd13ifvqcf0","pricing_plan_id":"cebpf4jnsgd1na2vs0mg"},{"bike_id":"ff79280e-1855-4d0a-9416-0d33a2ce1c48","system_id":"levelo_inurba_marseille","lat":43.22926,"lon":5.353727,"is_reserved":false,"is_disabled":true,"rental_uris":{"android":"levelo://app?vid=ff79280e-1855-4d0a-9416-0d33a2ce1c48","ios":"levelo://app?vid=ff79280e-1855-4d0a-9416-0d33a2ce1c48"},"vehicle_type_id":"4","last_reported":1746274692,"current_range_meters":9600,"station_id":"cpo3532slgdg3j2ikp40","pricing_plan_id":"cebpf4jnsgd1na2vs0mg"},{"bike_id":"d24e36e0-e0aa-458e-9dc1-1d3e91441d9d","system_id":"levelo_inurba_marseille","lat":43.29009,"lon":5.38608,"is_reserved":false,"is_disabled":true,"rental_uris":{"android":"levelo://app?vid=d24e36e0-e0aa-458e-9dc1-1d3e91441d9d","ios":"levelo://app?vid=d24e36e0-e0aa-458e-9dc1-1d3e91441d9d"},"vehicle_type_id":"4","last_reported":1746274692,"current_range_meters":9600,"station_id":"ce4bh4p2rcd13ifvqe0g","pricing_plan_id":"cebpf4jnsgd1na2vs0mg"},{"bike_id":"6bcfafe9-e0dc-4830-a2ef-8fbcb15314a2","system_id":"levelo_inurba_marseille","lat":43.29566,"lon":5.42245,"is_reserved":false,"is_disabled":false,"rental_uris":{"android":"levelo://app?vid=6bcfafe9-e0dc-4830-a2ef-8fbcb15314a2","ios":"levelo://app?vid=6bcfafe9-e0dc-4830-a2ef-8fbcb15314a2"},"vehicle_type_id":"4","last_reported":1746274692,"current_range_meters":9600,"station_id":"ce4bhph2rcd13ifvqhdg","pricing_plan_id":"cebpf4jnsgd1na2vs0mg"},{"bike_id":"570b486c-50df-4f1f-97df-caa86c0d419e","system_id":"levelo_inurba_marseille","lat":43.33712,"lon":5.35591,"is_reserved":false,"is_disabled":false,"rental_uris":{"android":"levelo://app?vid=570b486c-50df-4f1f-97df-caa86c0d419e","ios":"levelo://app?vid=570b486c-50df-4f1f-97df-caa86c0d419e"},"vehicle_type_id":"4","last_reported":1746274692,"current_range_meters":9600,"station_id":"","pricing_plan_id":"cebpf4jnsgd1na2vs0mg"},{"bike_id":"d1425f8b-4ee2-4234-adf2-33ee09f6306d","system_id":"levelo_inurba_marseille","lat":43.23154,"lon":5.43698,"is_reserved":false,"is_disabled":false,"rental_uris":{"android":"levelo://app?vid=d1425f8b-4ee2-4234-adf2-33ee09f6306d","ios":"levelo://app?vid=d1425f8b-4ee2-4234-adf2-33ee09f6306d"},"vehicle_type_id":"4","last_reported":1746274692,"current_range_meters":10000,"station_id":"ce4bhmp2rcd13ifvqgog","pricing_plan_id":"cebpf4jnsgd1na2vs0mg"},{"bike_id":"0105c1ac-8124-4626-a137-07d3d89f7130","system_id":"levelo_inurba_marseille","lat":43.314635,"lon":5.373088,"is_reserved":false,"is_disabled":false,"rental_uris":{"android":"levelo://app?vid=0105c1ac-8124-4626-a137-07d3d89f7130","ios":"levelo://app?vid=0105c1ac-8124-4626-a137-07d3d89f7130"},"vehicle_type_id":"4","last_reported":1746274692,"current_range_meters":10000,"station_id":"ce4bgt12rcd13ifvqcd0","pricing_plan_id":"cebpf4jnsgd1na2vs0mg"},{"bike_id":"f8e7d0de-a086-43bc-9d01-1a2938a79fb2","system_id":"levelo_inurba_marseille","lat":43.22932,"lon":5.35378,"is_reserved":false,"is_disabled":false,"rental_uris":{"android":"levelo://app?vid=f8e7d0de-a086-43bc-9d01-1a2938a79fb2","ios":"levelo://app?vid=f8e7d0de-a086-43bc-9d01-1a2938a79fb2"},"vehicle_type_id":"4","last_reported":1746274692,"current_range_meters":10000,"station_id":"cpo3532slgdg3j2ikp40","pricing_plan_id":"cebpf4jnsgd1na2vs0mg"},{"bike_id":"371b7534-0d9b-4ab0-8f09-4f4cf8973b82","system_id":"levelo_inurba_marseille","lat":43.25106,"lon":5.40324,"is_reserved":false,"is_disabled":false,"rental_uris":{"android":"levelo://app?vid=371b7534-0d9b-4ab0-8f09-4f4cf8973b82","ios":"levelo://app?vid=371b7534-0d9b-4ab0-8f09-4f4cf8973b82"},"vehicle_type_id":"4","last_reported":1746274692,"current_range_meters":10000,"station_id":"ce4bhlh2rcd13ifvqgig","pricing_plan_id":"cebpf4jnsgd1na2vs0mg"},{"bike_id":"96a1d0d8-9fe7-464a-85ff-3c83d1648cc5","system_id":"levelo_inurba_marseille","lat":43.289644,"lon":5.364844,"is_reserved":false,"is_disabled":false,"rental_uris":{"android":"levelo://app?vid=96a1d0d8-9fe7-464a-85ff-3c83d1648cc5","ios":"levelo://app?vid=96a1d0d8-9fe7-464a-85ff-3c83d1648cc5"},"vehicle_type_id":"4","last_reported":1746274692,"current_range_meters":10000,"station_id":"ce4bh5p2rcd13ifvqe4g","pricing_plan_id":"cebpf4jnsgd1na2vs0mg"},{"bike_id":"f6136f00-b6b5-48ee-b9f8-5a00e87db14b","system_id":"levelo_inurba_marseille","lat":43.21748,"lon":5.34602,"is_reserved":false,"is_disabled":false,"rental_uris":{"android":"levelo://app?vid=f6136f00-b6b5-48ee-b9f8-5a00e87db14b","ios":"levelo://app?vid=f6136f00-b6b5-48ee-b9f8-5a00e87db14b"},"vehicle_type_id":"4","last_reported":1746274692,"current_range_meters":10000,"station_id":"st_cvj6r9ubvosntc0bgbag","pricing_plan_id":"cebpf4jnsgd1na2vs0mg"},{"bike_id":"44338dce-04ea-474f-b209-01413827126b","system_id":"levelo_inurba_marseille","lat":43.27374,"lon":5.36255,"is_reserved":false,"is_disabled":false,"rental_uris":{"android":"levelo://app?vid=44338dce-04ea-474f-b209-01413827126b","ios":"levelo://app?vid=44338dce-04ea-474f-b209-01413827126b"},"vehicle_type_id":"4","last_reported":1746274692,"current_range_meters":10000,"station_id":"ce4bhbh2rcd13ifvqeo0","pricing_plan_id":"cebpf4jnsgd1na2vs0mg"},{"bike_id":"9a4d9d6a-982e-474e-947f-4609f0b74308","system_id":"levelo_inurba_marseille","lat":43.26521,"lon":5.39024,"is_reserved":false,"is_disabled":false,"rental_uris":{"android":"levelo://app?vid=9a4d9d6a-982e-474e-947f-4609f0b74308","ios":"levelo://app?vid=9a4d9d6a-982e-474e-947f-4609f0b74308"},"vehicle_type_id":"4","last_reported":1746274692,"current_range_meters":10000,"station_id":"ce4bhe12rcd13ifvqf30","pricing_plan_id":"cebpf4jnsgd1na2vs0mg"},{"bike_id":"aab36647-a4f7-4b1c-ae21-454fbe0244f2","system_id":"levelo_inurba_marseille","lat":43.32118,"lon":5.36761,"is_reserved":false,"is_disabled":false,"rental_uris":{"android":"levelo://app?vid=aab36647-a4f7-4b1c-ae21-454fbe0244f2","ios":"levelo://app?vid=aab36647-a4f7-4b1c-ae21-454fbe0244f2"},"vehicle_type_id":"4","last_reported":1746274692,"current_range_meters":10800,"station_id":"ce4bhrh2rcd13ifvqhug","pricing_plan_id":"cebpf4jnsgd1na2vs0mg"},{"bike_id":"dfb3396e-96f5-457c-af11-f6f27dad33e9","system_id":"levelo_inurba_marseille","lat":43.271972,"lon":5.36473,"is_reserved":false,"is_disabled":false,"rental_uris":{"android":"levelo://app?vid=dfb3396e-96f5-457c-af11-f6f27dad33e9","ios":"levelo://app?vid=dfb3396e-96f5-457c-af11-f6f27dad33e9"},"vehicle_type_id":"4","last_reported":1746274692,"current_range_meters":10800,"station_id":"","pricing_plan_id":"cebpf4jnsgd1na2vs0mg"},{"bike_id":"56fed14c-c82f-471a-a395-e75bc569594e","system_id":"levelo_inurba_marseille","lat":43.28441,"lon":5.39203,"is_reserved":false,"is_disabled":false,"rental_uris":{"android":"levelo://app?vid=56fed14c-c82f-471a-a395-e75bc569594e","ios":"levelo://app?vid=56fed14c-c82f-471a-a395-e75bc569594e"},"vehicle_type_id":"4","last_reported":1746274692,"current_range_meters":10000,"station_id":"ce4bhoh2rcd13ifvqh5g","pricing_plan_id":"cebpf4jnsgd1na2vs0mg"},{"bike_id":"f1ffd2b9-91e9-4bf5-a319-6e95940b0de6","system_id":"levelo_inurba_marseille","lat":43.29555,"lon":5.42283,"is_reserved":false,"is_disabled":false,"rental_uris":{"android":"levelo://app?vid=f1ffd2b9-91e9-4bf5-a319-6e95940b0de6","ios":"levelo://app?vid=f1ffd2b9-91e9-4bf5-a319-6e95940b0de6"},"vehicle_type_id":"4","last_reported":1746274692,"current_range_meters":10800,"station_id":"ce4bhph2rcd13ifvqhdg","pricing_plan_id":"cebpf4jnsgd1na2vs0mg"},{"bike_id":"bfbce2b7-90dc-4d86-ac4d-8c8e5c9a17b3","system_id":"levelo_inurba_marseille","lat":43.295286,"lon":5.385567,"is_reserved":false,"is_disabled":false,"rental_uris":{"android":"levelo://app?vid=bfbce2b7-90dc-4d86-ac4d-8c8e5c9a17b3","ios":"levelo://app?vid=bfbce2b7-90dc-4d86-ac4d-8c8e5c9a17b3"},"vehicle_type_id":"4","last_reported":1746274692,"current_range_meters":11200,"station_id":"ce4bgih2rcd13ifvqba0","pricing_plan_id":"cebpf4jnsgd1na2vs0mg"},{"bike_id":"2e6965d3-9b5d-4ec1-a3a3-003adfe5560b","system_id":"levelo_inurba_marseille","lat":43.259329,"lon":5.409101,"is_reserved":false,"is_disabled":false,"rental_uris":{"android":"levelo://app?vid=2e6965d3-9b5d-4ec1-a3a3-003adfe5560b","ios":"levelo://app?vid=2e6965d3-9b5d-4ec1-a3a3-003adfe5560b"},"vehicle_type_id":"4","last_reported":1746274692,"current_range_meters":11200,"station_id":"ce4bhm92rcd13ifvqglg","pricing_plan_id":"cebpf4jnsgd1na2vs0mg"},{"bike_id":"be4f8dcc-ede3-4b09-aa57-5cd8bc7bcc23","system_id":"levelo_inurba_marseille","lat":43.27903,"lon":5.38009,"is_reserved":false,"is_disabled":false,"rental_uris":{"android":"levelo://app?vid=be4f8dcc-ede3-4b09-aa57-5cd8bc7bcc23","ios":"levelo://app?vid=be4f8dcc-ede3-4b09-aa57-5cd8bc7bcc23"},"vehicle_type_id":"4","last_reported":1746274692,"current_range_meters":10800,"station_id":"ce4bhf92rcd13ifvqf50","pricing_plan_id":"cebpf4jnsgd1na2vs0mg"},{"bike_id":"0c3fbeaa-55ff-4c7c-a66c-46f4ecc86aeb","system_id":"levelo_inurba_marseille","lat":43.229273,"lon":5.353777,"is_reserved":false,"is_disabled":true,"rental_uris":{"android":"levelo://app?vid=0c3fbeaa-55ff-4c7c-a66c-46f4ecc86aeb","ios":"levelo://app?vid=0c3fbeaa-55ff-4c7c-a66c-46f4ecc86aeb"},"vehicle_type_id":"4","last_reported":1746274692,"current_range_meters":11200,"station_id":"cpo3532slgdg3j2ikp40","pricing_plan_id":"cebpf4jnsgd1na2vs0mg"},{"bike_id":"fd2c3c67-23a6-4380-b7ca-8f23c8f78921","system_id":"levelo_inurba_marseille","lat":43.32369,"lon":5.36753,"is_reserved":false,"is_disabled":false,"rental_uris":{"android":"levelo://app?vid=fd2c3c67-23a6-4380-b7ca-8f23c8f78921","ios":"levelo://app?vid=fd2c3c67-23a6-4380-b7ca-8f23c8f78921"},"vehicle_type_id":"4","last_reported":1746274692,"current_range_meters":11200,"station_id":"ce4bhsh2rcd13ifvqi2g","pricing_plan_id":"cebpf4jnsgd1na2vs0mg"},{"bike_id":"3b3868cf-8e81-46d3-9b50-f45619fc3a5f","system_id":"levelo_inurba_marseille","lat":43.29005,"lon":5.35607,"is_reserved":false,"is_disabled":false,"rental_uris":{"android":"levelo://app?vid=3b3868cf-8e81-46d3-9b50-f45619fc3a5f","ios":"levelo://app?vid=3b3868cf-8e81-46d3-9b50-f45619fc3a5f"},"vehicle_type_id":"4","last_reported":1746274692,"current_range_meters":11600,"station_id":"ce4bhb92rcd13ifvqen0","pricing_plan_id":"cebpf4jnsgd1na2vs0mg"},{"bike_id":"6a468730-0d41-4472-9ece-6831ed07eb08","system_id":"levelo_inurba_marseille","lat":43.2315,"lon":5.43709,"is_reserved":false,"is_disabled":false,"rental_uris":{"android":"levelo://app?vid=6a468730-0d41-4472-9ece-6831ed07eb08","ios":"levelo://app?vid=6a468730-0d41-4472-9ece-6831ed07eb08"},"vehicle_type_id":"4","last_reported":1746274692,"current_range_meters":11600,"station_id":"ce4bhmp2rcd13ifvqgog","pricing_plan_id":"cebpf4jnsgd1na2vs0mg"},{"bike_id":"8fca9b0a-2183-4926-a363-7dadc068bd94","system_id":"levelo_inurba_marseille","lat":43.2319,"lon":5.35557,"is_reserved":false,"is_disabled":false,"rental_uris":{"android":"levelo://app?vid=8fca9b0a-2183-4926-a363-7dadc068bd94","ios":"levelo://app?vid=8fca9b0a-2183-4926-a363-7dadc068bd94"},"vehicle_type_id":"4","last_reported":1746274692,"current_range_meters":11600,"station_id":"ce4bhu92rcd13ifvqi70","pricing_plan_id":"cebpf4jnsgd1na2vs0mg"},{"bike_id":"dfb114fd-1585-4655-8386-c140132901c4","system_id":"levelo_inurba_marseille","lat":43.23147,"lon":5.43723,"is_reserved":false,"is_disabled":false,"rental_uris":{"android":"levelo://app?vid=dfb114fd-1585-4655-8386-c140132901c4","ios":"levelo://app?vid=dfb114fd-1585-4655-8386-c140132901c4"},"vehicle_type_id":"4","last_reported":1746274692,"current_range_meters":11600,"station_id":"ce4bhmp2rcd13ifvqgog","pricing_plan_id":"cebpf4jnsgd1na2vs0mg"},{"bike_id":"ac9268d6-f192-442f-8858-12e1f1b6f806","system_id":"levelo_inurba_marseille","lat":43.28858,"lon":5.35851,"is_reserved":false,"is_disabled":false,"rental_uris":{"android":"levelo://app?vid=ac9268d6-f192-442f-8858-12e1f1b6f806","ios":"levelo://app?vid=ac9268d6-f192-442f-8858-12e1f1b6f806"},"vehicle_type_id":"4","last_reported":1746274692,"current_range_meters":12000,"station_id":"ce4bhb12rcd13ifvqem0","pricing_plan_id":"cebpf4jnsgd1na2vs0mg"},{"bike_id":"3a96c710-1899-4809-bccf-cd7bd7dbb784","system_id":"levelo_inurba_marseille","lat":43.30558,"lon":5.36513,"is_reserved":false,"is_disabled":false,"rental_uris":{"android":"levelo://app?vid=3a96c710-1899-4809-bccf-cd7bd7dbb784","ios":"levelo://app?vid=3a96c710-1899-4809-bccf-cd7bd7dbb784"},"vehicle_type_id":"4","last_reported":1746274692,"current_range_meters":12000,"station_id":"ce4bgs12rcd13ifvqcag","pricing_plan_id":"cebpf4jnsgd1na2vs0mg"},{"bike_id":"65813696-6bd3-4671-a171-9e661d39552b","system_id":"levelo_inurba_marseille","lat":43.302551,"lon":5.400736,"is_reserved":false,"is_disabled":false,"rental_uris":{"android":"levelo://app?vid=65813696-6bd3-4671-a171-9e661d39552b","ios":"levelo://app?vid=65813696-6bd3-4671-a171-9e661d39552b"},"vehicle_type_id":"4","last_reported":1746274692,"current_range_meters":12000,"station_id":"ce4bgvh2rcd13ifvqcs0","pricing_plan_id":"cebpf4jnsgd1na2vs0mg"},{"bike_id":"1c1e9c26-8418-49da-8601-164ce147ec19","system_id":"levelo_inurba_marseille","lat":43.30572,"lon":5.36566,"is_reserved":false,"is_disabled":false,"rental_uris":{"android":"levelo://app?vid=1c1e9c26-8418-49da-8601-164ce147ec19","ios":"levelo://app?vid=1c1e9c26-8418-49da-8601-164ce147ec19"},"vehicle_type_id":"4","last_reported":1746274692,"current_range_meters":12000,"station_id":"ce4bgs12rcd13ifvqcag","pricing_plan_id":"cebpf4jnsgd1na2vs0mg"},{"bike_id":"14a68f7f-cea9-41a2-9e79-c1a92bd0e685","system_id":"levelo_inurba_marseille","lat":43.26026,"lon":5.37551,"is_reserved":false,"is_disabled":false,"rental_uris":{"android":"levelo://app?vid=14a68f7f-cea9-41a2-9e79-c1a92bd0e685","ios":"levelo://app?vid=14a68f7f-cea9-41a2-9e79-c1a92bd0e685"},"vehicle_type_id":"4","last_reported":1746274692,"current_range_meters":12000,"station_id":"ce4bhgh2rcd13ifvqfa0","pricing_plan_id":"cebpf4jnsgd1na2vs0mg"},{"bike_id":"47b96c63-b615-4346-9696-11b5e346196b","system_id":"levelo_inurba_marseille","lat":43.29836,"lon":5.36264,"is_reserved":false,"is_disabled":false,"rental_uris":{"android":"levelo://app?vid=47b96c63-b615-4346-9696-11b5e346196b","ios":"levelo://app?vid=47b96c63-b615-4346-9696-11b5e346196b"},"vehicle_type_id":"4","last_reported":1746274692,"current_range_meters":12000,"station_id":"ce4bgpp2rcd13ifvqc3g","pricing_plan_id":"cebpf4jnsgd1na2vs0mg"},{"bike_id":"a978adc6-201e-4b96-b42f-9c074698e1bc","system_id":"levelo_inurba_marseille","lat":43.23962,"lon":5.36627,"is_reserved":false,"is_disabled":false,"rental_uris":{"android":"levelo://app?vid=a978adc6-201e-4b96-b42f-9c074698e1bc","ios":"levelo://app?vid=a978adc6-201e-4b96-b42f-9c074698e1bc"},"vehicle_type_id":"4","last_reported":1746274692,"current_range_meters":12000,"station_id":"ce4bhi12rcd13ifvqfp0","pricing_plan_id":"cebpf4jnsgd1na2vs0mg"},{"bike_id":"80279788-182a-47cd-b625-101bc4a5aaf0","system_id":"levelo_inurba_marseille","lat":43.23062,"lon":5.35486,"is_reserved":false,"is_disabled":false,"rental_uris":{"android":"levelo://app?vid=80279788-182a-47cd-b625-101bc4a5aaf0","ios":"levelo://app?vid=80279788-182a-47cd-b625-101bc4a5aaf0"},"vehicle_type_id":"4","last_reported":1746274692,"current_range_meters":12400,"station_id":"cpo3342slgdg3j2ifvpg","pricing_plan_id":"cebpf4jnsgd1na2vs0mg"},{"bike_id":"e681fc37-2a7d-493a-80ff-abdba7d0024e","system_id":"levelo_inurba_marseille","lat":43.29279,"lon":5.40111,"is_reserved":false,"is_disabled":false,"rental_uris":{"android":"levelo://app?vid=e681fc37-2a7d-493a-80ff-abdba7d0024e","ios":"levelo://app?vid=e681fc37-2a7d-493a-80ff-abdba7d0024e"},"vehicle_type_id":"4","last_reported":1746274692,"current_range_meters":12400,"station_id":"ce4bh312rcd13ifvqdk0","pricing_plan_id":"cebpf4jnsgd1na2vs0mg"},{"bike_id":"56eae4c4-526a-44b8-9657-c7aa86c2ab4b","system_id":"levelo_inurba_marseille","lat":43.28262,"lon":5.35068,"is_reserved":false,"is_disabled":false,"rental_uris":{"android":"levelo://app?vid=56eae4c4-526a-44b8-9657-c7aa86c2ab4b","ios":"levelo://app?vid=56eae4c4-526a-44b8-9657-c7aa86c2ab4b"},"vehicle_type_id":"4","last_reported":1746274692,"current_range_meters":12400,"station_id":"ce4bhbp2rcd13ifvqerg","pricing_plan_id":"cebpf4jnsgd1na2vs0mg"},{"bike_id":"b67936d6-81f5-4a1a-ba4e-70e70cd59cfc","system_id":"levelo_inurba_marseille","lat":43.24162,"lon":5.36399,"is_reserved":false,"is_disabled":false,"rental_uris":{"android":"levelo://app?vid=b67936d6-81f5-4a1a-ba4e-70e70cd59cfc","ios":"levelo://app?vid=b67936d6-81f5-4a1a-ba4e-70e70cd59cfc"},"vehicle_type_id":"4","last_reported":1746274692,"current_range_meters":12400,"station_id":"cpo36qri1sfpv3e86is0","pricing_plan_id":"cebpf4jnsgd1na2vs0mg"},{"bike_id":"908a85ca-6588-40e9-a684-d255f01f3718","system_id":"levelo_inurba_marseille","lat":43.27918,"lon":5.39574,"is_reserved":false,"is_disabled":false,"rental_uris":{"android":"levelo://app?vid=908a85ca-6588-40e9-a684-d255f01f3718","ios":"levelo://app?vid=908a85ca-6588-40e9-a684-d255f01f3718"},"vehicle_type_id":"4","last_reported":1746274692,"current_range_meters":12400,"station_id":"ce4bhf92rcd13ifvqf40","pricing_plan_id":"cebpf4jnsgd1na2vs0mg"},{"bike_id":"85187e10-41c3-4790-955b-71e74ac5508b","system_id":"levelo_inurba_marseille","lat":43.29944,"lon":5.36567,"is_reserved":false,"is_disabled":false,"rental_uris":{"android":"levelo://app?vid=85187e10-41c3-4790-955b-71e74ac5508b","ios":"levelo://app?vid=85187e10-41c3-4790-955b-71e74ac5508b"},"vehicle_type_id":"4","last_reported":1746274692,"current_range_meters":12800,"station_id":"ce4bgm92rcd13ifvqbr0","pricing_plan_id":"cebpf4jnsgd1na2vs0mg"},{"bike_id":"4ae02176-31a4-48f7-825f-a587fefa23c2","system_id":"levelo_inurba_marseille","lat":43.30175,"lon":5.36647,"is_reserved":false,"is_disabled":false,"rental_uris":{"android":"levelo://app?vid=4ae02176-31a4-48f7-825f-a587fefa23c2","ios":"levelo://app?vid=4ae02176-31a4-48f7-825f-a587fefa23c2"},"vehicle_type_id":"4","last_reported":1746274692,"current_range_meters":12800,"station_id":"ce4bgrh2rcd13ifvqc8g","pricing_plan_id":"cebpf4jnsgd1na2vs0mg"},{"bike_id":"564da849-09b1-4fbb-a9b1-2fa27869dfc9","system_id":"levelo_inurba_marseille","lat":43.27177,"lon":5.40991,"is_reserved":false,"is_disabled":false,"rental_uris":{"android":"levelo://app?vid=564da849-09b1-4fbb-a9b1-2fa27869dfc9","ios":"levelo://app?vid=564da849-09b1-4fbb-a9b1-2fa27869dfc9"},"vehicle_type_id":"4","last_reported":1746274692,"current_range_meters":12800,"station_id":"ce4bhl12rcd13ifvqgf0","pricing_plan_id":"cebpf4jnsgd1na2vs0mg"},{"bike_id":"0c9d6c7c-fd78-4aeb-a3f8-af2c188466be","system_id":"levelo_inurba_marseille","lat":43.299133,"lon":5.381005,"is_reserved":false,"is_disabled":false,"rental_uris":{"android":"levelo://app?vid=0c9d6c7c-fd78-4aeb-a3f8-af2c188466be","ios":"levelo://app?vid=0c9d6c7c-fd78-4aeb-a3f8-af2c188466be"},"vehicle_type_id":"4","last_reported":1746274692,"current_range_meters":12800,"station_id":"","pricing_plan_id":"cebpf4jnsgd1na2vs0mg"},{"bike_id":"e80a8e18-d51a-47e5-8ece-9c6b1f0dc7dd","system_id":"levelo_inurba_marseille","lat":43.317574,"lon":5.390131,"is_reserved":false,"is_disabled":false,"rental_uris":{"android":"levelo://app?vid=e80a8e18-d51a-47e5-8ece-9c6b1f0dc7dd","ios":"levelo://app?vid=e80a8e18-d51a-47e5-8ece-9c6b1f0dc7dd"},"vehicle_type_id":"4","last_reported":1746274692,"current_range_meters":12800,"station_id":"","pricing_plan_id":"cebpf4jnsgd1na2vs0mg"},{"bike_id":"72789978-7665-4d5d-a341-ca7ee4b86745","system_id":"levelo_inurba_marseille","lat":43.23058,"lon":5.35487,"is_reserved":false,"is_disabled":false,"rental_uris":{"android":"levelo://app?vid=72789978-7665-4d5d-a341-ca7ee4b86745","ios":"levelo://app?vid=72789978-7665-4d5d-a341-ca7ee4b86745"},"vehicle_type_id":"4","last_reported":1746274692,"current_range_meters":13600,"station_id":"cpo3342slgdg3j2ifvpg","pricing_plan_id":"cebpf4jnsgd1na2vs0mg"},{"bike_id":"f1f1d9f2-438d-43aa-9146-c19d4a9cbea5","system_id":"levelo_inurba_marseille","lat":43.30575,"lon":5.36556,"is_reserved":false,"is_disabled":false,"rental_uris":{"android":"levelo://app?vid=f1f1d9f2-438d-43aa-9146-c19d4a9cbea5","ios":"levelo://app?vid=f1f1d9f2-438d-43aa-9146-c19d4a9cbea5"},"vehicle_type_id":"4","last_reported":1746274692,"current_range_meters":13600,"station_id":"ce4bgs12rcd13ifvqcag","pricing_plan_id":"cebpf4jnsgd1na2vs0mg"},{"bike_id":"ab5dc04d-2e0e-4337-a6f2-5065bbab015b","system_id":"levelo_inurba_marseille","lat":43.29708,"lon":5.377107,"is_reserved":false,"is_disabled":false,"rental_uris":{"android":"levelo://app?vid=ab5dc04d-2e0e-4337-a6f2-5065bbab015b","ios":"levelo://app?vid=ab5dc04d-2e0e-4337-a6f2-5065bbab015b"},"vehicle_type_id":"4","last_reported":1746274692,"current_range_meters":13600,"station_id":"ce4bgkh2rcd13ifvqbl0","pricing_plan_id":"cebpf4jnsgd1na2vs0mg"},{"bike_id":"8375a602-2984-4c43-8822-4a9ef47a3126","system_id":"levelo_inurba_marseille","lat":43.27372,"lon":5.3625,"is_reserved":false,"is_disabled":false,"rental_uris":{"android":"levelo://app?vid=8375a602-2984-4c43-8822-4a9ef47a3126","ios":"levelo://app?vid=8375a602-2984-4c43-8822-4a9ef47a3126"},"vehicle_type_id":"4","last_reported":1746274692,"current_range_meters":13600,"station_id":"ce4bhbh2rcd13ifvqeo0","pricing_plan_id":"cebpf4jnsgd1na2vs0mg"},{"bike_id":"cea18846-76d1-4529-8fe1-9c923f38a8ed","system_id":"levelo_inurba_marseille","lat":43.30592,"lon":5.37209,"is_reserved":false,"is_disabled":false,"rental_uris":{"android":"levelo://app?vid=cea18846-76d1-4529-8fe1-9c923f38a8ed","ios":"levelo://app?vid=cea18846-76d1-4529-8fe1-9c923f38a8ed"},"vehicle_type_id":"4","last_reported":1746274692,"current_range_meters":14000,"station_id":"ce4bgqh2rcd13ifvqc4g","pricing_plan_id":"cebpf4jnsgd1na2vs0mg"},{"bike_id":"f9fd9159-a7a1-4329-b200-077f3a6e2e7b","system_id":"levelo_inurba_marseille","lat":43.23154,"lon":5.43694,"is_reserved":false,"is_disabled":false,"rental_uris":{"android":"levelo://app?vid=f9fd9159-a7a1-4329-b200-077f3a6e2e7b","ios":"levelo://app?vid=f9fd9159-a7a1-4329-b200-077f3a6e2e7b"},"vehicle_type_id":"4","last_reported":1746274692,"current_range_meters":14000,"station_id":"ce4bhmp2rcd13ifvqgog","pricing_plan_id":"cebpf4jnsgd1na2vs0mg"},{"bike_id":"4333ab5b-d107-4181-a5f8-f3d3ebbd21f9","system_id":"levelo_inurba_marseille","lat":43.29803,"lon":5.38103,"is_reserved":false,"is_disabled":false,"rental_uris":{"android":"levelo://app?vid=4333ab5b-d107-4181-a5f8-f3d3ebbd21f9","ios":"levelo://app?vid=4333ab5b-d107-4181-a5f8-f3d3ebbd21f9"},"vehicle_type_id":"4","last_reported":1746274692,"current_range_meters":14000,"station_id":"ce4bgip2rcd13ifvqbb0","pricing_plan_id":"cebpf4jnsgd1na2vs0mg"},{"bike_id":"1daf98c3-24c4-4f82-994f-08559195532e","system_id":"levelo_inurba_marseille","lat":43.31754,"lon":5.3901,"is_reserved":false,"is_disabled":false,"rental_uris":{"android":"levelo://app?vid=1daf98c3-24c4-4f82-994f-08559195532e","ios":"levelo://app?vid=1daf98c3-24c4-4f82-994f-08559195532e"},"vehicle_type_id":"4","last_reported":1746274692,"current_range_meters":13600,"station_id":"ce4bhqp2rcd13ifvqhng","pricing_plan_id":"cebpf4jnsgd1na2vs0mg"},{"bike_id":"a4addd58-363a-4406-b7fd-3f2a7dc95ab6","system_id":"levelo_inurba_marseille","lat":43.24374,"lon":5.37055,"is_reserved":false,"is_disabled":false,"rental_uris":{"android":"levelo://app?vid=a4addd58-363a-4406-b7fd-3f2a7dc95ab6","ios":"levelo://app?vid=a4addd58-363a-4406-b7fd-3f2a7dc95ab6"},"vehicle_type_id":"4","last_reported":1746274692,"current_range_meters":14000,"station_id":"ce4bhhh2rcd13ifvqfk0","pricing_plan_id":"cebpf4jnsgd1na2vs0mg"},{"bike_id":"6acda826-be16-44ad-9a83-8e03fcf05fe4","system_id":"levelo_inurba_marseille","lat":43.23151,"lon":5.43699,"is_reserved":false,"is_disabled":false,"rental_uris":{"android":"levelo://app?vid=6acda826-be16-44ad-9a83-8e03fcf05fe4","ios":"levelo://app?vid=6acda826-be16-44ad-9a83-8e03fcf05fe4"},"vehicle_type_id":"4","last_reported":1746274692,"current_range_meters":14000,"station_id":"ce4bhmp2rcd13ifvqgog","pricing_plan_id":"cebpf4jnsgd1na2vs0mg"},{"bike_id":"503185c3-0d76-4716-9a21-96143ff68830","system_id":"levelo_inurba_marseille","lat":43.21191,"lon":5.35053,"is_reserved":false,"is_disabled":false,"rental_uris":{"android":"levelo://app?vid=503185c3-0d76-4716-9a21-96143ff68830","ios":"levelo://app?vid=503185c3-0d76-4716-9a21-96143ff68830"},"vehicle_type_id":"4","last_reported":1746274692,"current_range_meters":14000,"station_id":"st_cvj6sg6p6f1abm77japg","pricing_plan_id":"cebpf4jnsgd1na2vs0mg"},{"bike_id":"fb80c1da-d845-467b-9c3b-2f591f4d56ae","system_id":"levelo_inurba_marseille","lat":43.323406,"lon":5.37422,"is_reserved":false,"is_disabled":false,"rental_uris":{"android":"levelo://app?vid=fb80c1da-d845-467b-9c3b-2f591f4d56ae","ios":"levelo://app?vid=fb80c1da-d845-467b-9c3b-2f591f4d56ae"},"vehicle_type_id":"4","last_reported":1746274692,"current_range_meters":14400,"station_id":"","pricing_plan_id":"cebpf4jnsgd1na2vs0mg"},{"bike_id":"80c8c91e-4c05-489d-b7e4-27a43dbffa78","system_id":"levelo_inurba_marseille","lat":43.30887,"lon":5.39657,"is_reserved":false,"is_disabled":false,"rental_uris":{"android":"levelo://app?vid=80c8c91e-4c05-489d-b7e4-27a43dbffa78","ios":"levelo://app?vid=80c8c91e-4c05-489d-b7e4-27a43dbffa78"},"vehicle_type_id":"4","last_reported":1746274692,"current_range_meters":14000,"station_id":"ce4bh012rcd13ifvqcv0","pricing_plan_id":"cebpf4jnsgd1na2vs0mg"},{"bike_id":"aa9c1621-adf4-4b9f-a81d-3573f5dcb20d","system_id":"levelo_inurba_marseille","lat":43.29307,"lon":5.37176,"is_reserved":false,"is_disabled":false,"rental_uris":{"android":"levelo://app?vid=aa9c1621-adf4-4b9f-a81d-3573f5dcb20d","ios":"levelo://app?vid=aa9c1621-adf4-4b9f-a81d-3573f5dcb20d"},"vehicle_type_id":"4","last_reported":1746274692,"current_range_meters":13600,"station_id":"ce4bgh92rcd13ifvqb40","pricing_plan_id":"cebpf4jnsgd1na2vs0mg"},{"bike_id":"5b826206-4d35-483e-9723-70ff57ab60c5","system_id":"levelo_inurba_marseille","lat":43.21751,"lon":5.34608,"is_reserved":false,"is_disabled":false,"rental_uris":{"android":"levelo://app?vid=5b826206-4d35-483e-9723-70ff57ab60c5","ios":"levelo://app?vid=5b826206-4d35-483e-9723-70ff57ab60c5"},"vehicle_type_id":"4","last_reported":1746274692,"current_range_meters":14400,"station_id":"st_cvj6r9ubvosntc0bgbag","pricing_plan_id":"cebpf4jnsgd1na2vs0mg"},{"bike_id":"aedf206f-89f3-4f30-9da6-56fb7ff8915b","system_id":"levelo_inurba_marseille","lat":43.28098,"lon":5.40383,"is_reserved":false,"is_disabled":false,"rental_uris":{"android":"levelo://app?vid=aedf206f-89f3-4f30-9da6-56fb7ff8915b","ios":"levelo://app?vid=aedf206f-89f3-4f30-9da6-56fb7ff8915b"},"vehicle_type_id":"4","last_reported":1746274692,"current_range_meters":14800,"station_id":"","pricing_plan_id":"cebpf4jnsgd1na2vs0mg"},{"bike_id":"07b81537-05a2-469d-be5b-b16c8763a52b","system_id":"levelo_inurba_marseille","lat":43.229466,"lon":5.353872,"is_reserved":false,"is_disabled":false,"rental_uris":{"android":"levelo://app?vid=07b81537-05a2-469d-be5b-b16c8763a52b","ios":"levelo://app?vid=07b81537-05a2-469d-be5b-b16c8763a52b"},"vehicle_type_id":"4","last_reported":1746274692,"current_range_meters":14800,"station_id":"","pricing_plan_id":"cebpf4jnsgd1na2vs0mg"},{"bike_id":"cab0af69-f759-45a6-92e8-e89c7402bd01","system_id":"levelo_inurba_marseille","lat":43.26937,"lon":5.4022,"is_reserved":false,"is_disabled":false,"rental_uris":{"android":"levelo://app?vid=cab0af69-f759-45a6-92e8-e89c7402bd01","ios":"levelo://app?vid=cab0af69-f759-45a6-92e8-e89c7402bd01"},"vehicle_type_id":"4","last_reported":1746274692,"current_range_meters":14400,"station_id":"cjm6bp8fraef2m0cb0m0","pricing_plan_id":"cebpf4jnsgd1na2vs0mg"},{"bike_id":"56cfe584-f99e-4825-b430-aeeaf534ff33","system_id":"levelo_inurba_marseille","lat":43.26575,"lon":5.39034,"is_reserved":false,"is_disabled":false,"rental_uris":{"android":"levelo://app?vid=56cfe584-f99e-4825-b430-aeeaf534ff33","ios":"levelo://app?vid=56cfe584-f99e-4825-b430-aeeaf534ff33"},"vehicle_type_id":"4","last_reported":1746274692,"current_range_meters":14800,"station_id":"ce4bhe12rcd13ifvqf30","pricing_plan_id":"cebpf4jnsgd1na2vs0mg"},{"bike_id":"e3930e20-bff4-4af5-849d-e8c5e87e8407","system_id":"levelo_inurba_marseille","lat":43.26216,"lon":5.3743,"is_reserved":false,"is_disabled":false,"rental_uris":{"android":"levelo://app?vid=e3930e20-bff4-4af5-849d-e8c5e87e8407","ios":"levelo://app?vid=e3930e20-bff4-4af5-849d-e8c5e87e8407"},"vehicle_type_id":"4","last_reported":1746274692,"current_range_meters":14800,"station_id":"ce4bhgp2rcd13ifvqfc0","pricing_plan_id":"cebpf4jnsgd1na2vs0mg"},{"bike_id":"e929202d-3700-430a-ab3a-ed9a2c38c0bb","system_id":"levelo_inurba_marseille","lat":43.24385,"lon":5.37058,"is_reserved":false,"is_disabled":false,"rental_uris":{"android":"levelo://app?vid=e929202d-3700-430a-ab3a-ed9a2c38c0bb","ios":"levelo://app?vid=e929202d-3700-430a-ab3a-ed9a2c38c0bb"},"vehicle_type_id":"4","last_reported":1746274692,"current_range_meters":13600,"station_id":"ce4bhhh2rcd13ifvqfk0","pricing_plan_id":"cebpf4jnsgd1na2vs0mg"},{"bike_id":"f72e4edc-e658-4902-be5c-882b1f65b363","system_id":"levelo_inurba_marseille","lat":43.25904,"lon":5.40866,"is_reserved":false,"is_disabled":false,"rental_uris":{"android":"levelo://app?vid=f72e4edc-e658-4902-be5c-882b1f65b363","ios":"levelo://app?vid=f72e4edc-e658-4902-be5c-882b1f65b363"},"vehicle_type_id":"4","last_reported":1746274692,"current_range_meters":15200,"station_id":"ce4bhm92rcd13ifvqglg","pricing_plan_id":"cebpf4jnsgd1na2vs0mg"},{"bike_id":"fcdb348f-dfa5-42be-b950-1812227ecec0","system_id":"levelo_inurba_marseille","lat":43.28414,"lon":5.3498,"is_reserved":false,"is_disabled":false,"rental_uris":{"android":"levelo://app?vid=fcdb348f-dfa5-42be-b950-1812227ecec0","ios":"levelo://app?vid=fcdb348f-dfa5-42be-b950-1812227ecec0"},"vehicle_type_id":"4","last_reported":1746274692,"current_range_meters":16000,"station_id":"ce4bhbh2rcd13ifvqepg","pricing_plan_id":"cebpf4jnsgd1na2vs0mg"},{"bike_id":"f0062340-9d59-47a0-b5c4-eebc77cbdce6","system_id":"levelo_inurba_marseille","lat":43.23059,"lon":5.35489,"is_reserved":false,"is_disabled":false,"rental_uris":{"android":"levelo://app?vid=f0062340-9d59-47a0-b5c4-eebc77cbdce6","ios":"levelo://app?vid=f0062340-9d59-47a0-b5c4-eebc77cbdce6"},"vehicle_type_id":"4","last_reported":1746274692,"current_range_meters":15200,"station_id":"cpo3342slgdg3j2ifvpg","pricing_plan_id":"cebpf4jnsgd1na2vs0mg"},{"bike_id":"9eda8183-0cd8-42e1-84d6-8c8409f8d5ee","system_id":"levelo_inurba_marseille","lat":43.24175,"lon":5.39701,"is_reserved":false,"is_disabled":false,"rental_uris":{"android":"levelo://app?vid=9eda8183-0cd8-42e1-84d6-8c8409f8d5ee","ios":"levelo://app?vid=9eda8183-0cd8-42e1-84d6-8c8409f8d5ee"},"vehicle_type_id":"4","last_reported":1746274692,"current_range_meters":16000,"station_id":"ce4bhn12rcd13ifvqgpg","pricing_plan_id":"cebpf4jnsgd1na2vs0mg"},{"bike_id":"cd7c7093-f1ed-4d5e-80d3-26ee8770158f","system_id":"levelo_inurba_marseille","lat":43.299365,"lon":5.365505,"is_reserved":false,"is_disabled":false,"rental_uris":{"android":"levelo://app?vid=cd7c7093-f1ed-4d5e-80d3-26ee8770158f","ios":"levelo://app?vid=cd7c7093-f1ed-4d5e-80d3-26ee8770158f"},"vehicle_type_id":"4","last_reported":1746274692,"current_range_meters":16000,"station_id":"ce4bgm92rcd13ifvqbr0","pricing_plan_id":"cebpf4jnsgd1na2vs0mg"},{"bike_id":"0bb0a6cd-b8a5-41d3-88ec-e9648a03c7f5","system_id":"levelo_inurba_marseille","lat":43.25933,"lon":5.40898,"is_reserved":false,"is_disabled":true,"rental_uris":{"android":"levelo://app?vid=0bb0a6cd-b8a5-41d3-88ec-e9648a03c7f5","ios":"levelo://app?vid=0bb0a6cd-b8a5-41d3-88ec-e9648a03c7f5"},"vehicle_type_id":"4","last_reported":1746274692,"current_range_meters":16000,"station_id":"ce4bhm92rcd13ifvqglg","pricing_plan_id":"cebpf4jnsgd1na2vs0mg"},{"bike_id":"31c54918-ec32-4234-94e4-ab9da1be312c","system_id":"levelo_inurba_marseille","lat":43.24173,"lon":5.3638,"is_reserved":false,"is_disabled":false,"rental_uris":{"android":"levelo://app?vid=31c54918-ec32-4234-94e4-ab9da1be312c","ios":"levelo://app?vid=31c54918-ec32-4234-94e4-ab9da1be312c"},"vehicle_type_id":"4","last_reported":1746274692,"current_range_meters":16000,"station_id":"cpo36qri1sfpv3e86is0","pricing_plan_id":"cebpf4jnsgd1na2vs0mg"},{"bike_id":"f928c4c1-b7f7-4a47-bf3f-4fa29eb3ab13","system_id":"levelo_inurba_marseille","lat":43.28981,"lon":5.37825,"is_reserved":false,"is_disabled":false,"rental_uris":{"android":"levelo://app?vid=f928c4c1-b7f7-4a47-bf3f-4fa29eb3ab13","ios":"levelo://app?vid=f928c4c1-b7f7-4a47-bf3f-4fa29eb3ab13"},"vehicle_type_id":"4","last_reported":1746274692,"current_range_meters":16400,"station_id":"ce4bh9p2rcd13ifvqed0","pricing_plan_id":"cebpf4jnsgd1na2vs0mg"},{"bike_id":"e0ceefc0-61c9-406f-91eb-ef69db9dbe42","system_id":"levelo_inurba_marseille","lat":43.26126,"lon":5.41456,"is_reserved":false,"is_disabled":false,"rental_uris":{"android":"levelo://app?vid=e0ceefc0-61c9-406f-91eb-ef69db9dbe42","ios":"levelo://app?vid=e0ceefc0-61c9-406f-91eb-ef69db9dbe42"},"vehicle_type_id":"4","last_reported":1746274692,"current_range_meters":16400,"station_id":"","pricing_plan_id":"cebpf4jnsgd1na2vs0mg"},{"bike_id":"3102f720-32db-4af0-b5ac-a58b39f8d3b2","system_id":"levelo_inurba_marseille","lat":43.241776,"lon":5.397306,"is_reserved":false,"is_disabled":false,"rental_uris":{"android":"levelo://app?vid=3102f720-32db-4af0-b5ac-a58b39f8d3b2","ios":"levelo://app?vid=3102f720-32db-4af0-b5ac-a58b39f8d3b2"},"vehicle_type_id":"4","last_reported":1746274692,"current_range_meters":16400,"station_id":"ce4bhn12rcd13ifvqgpg","pricing_plan_id":"cebpf4jnsgd1na2vs0mg"},{"bike_id":"e8228dc8-f084-409b-824c-bfe4324d661a","system_id":"levelo_inurba_marseille","lat":43.24388,"lon":5.37047,"is_reserved":false,"is_disabled":false,"rental_uris":{"android":"levelo://app?vid=e8228dc8-f084-409b-824c-bfe4324d661a","ios":"levelo://app?vid=e8228dc8-f084-409b-824c-bfe4324d661a"},"vehicle_type_id":"4","last_reported":1746274692,"current_range_meters":13600,"station_id":"ce4bhhh2rcd13ifvqfk0","pricing_plan_id":"cebpf4jnsgd1na2vs0mg"},{"bike_id":"fba7fa7f-2ff0-4b89-891e-7817f2d3d68d","system_id":"levelo_inurba_marseille","lat":43.26205,"lon":5.37924,"is_reserved":false,"is_disabled":false,"rental_uris":{"android":"levelo://app?vid=fba7fa7f-2ff0-4b89-891e-7817f2d3d68d","ios":"levelo://app?vid=fba7fa7f-2ff0-4b89-891e-7817f2d3d68d"},"vehicle_type_id":"4","last_reported":1746274692,"current_range_meters":16000,"station_id":"ce4bhjp2rcd13ifvqg90","pricing_plan_id":"cebpf4jnsgd1na2vs0mg"},{"bike_id":"17d9f1ae-82f0-4ecc-bf40-f85a5eddebb3","system_id":"levelo_inurba_marseille","lat":43.24182,"lon":5.39725,"is_reserved":false,"is_disabled":false,"rental_uris":{"android":"levelo://app?vid=17d9f1ae-82f0-4ecc-bf40-f85a5eddebb3","ios":"levelo://app?vid=17d9f1ae-82f0-4ecc-bf40-f85a5eddebb3"},"vehicle_type_id":"4","last_reported":1746274692,"current_range_meters":16400,"station_id":"ce4bhn12rcd13ifvqgpg","pricing_plan_id":"cebpf4jnsgd1na2vs0mg"},{"bike_id":"e67d979b-9044-4bec-968f-d2ee9850d19d","system_id":"levelo_inurba_marseille","lat":43.29729,"lon":5.37685,"is_reserved":false,"is_disabled":false,"rental_uris":{"android":"levelo://app?vid=e67d979b-9044-4bec-968f-d2ee9850d19d","ios":"levelo://app?vid=e67d979b-9044-4bec-968f-d2ee9850d19d"},"vehicle_type_id":"4","last_reported":1746274692,"current_range_meters":16400,"station_id":"ce4bgkh2rcd13ifvqbl0","pricing_plan_id":"cebpf4jnsgd1na2vs0mg"},{"bike_id":"3f5b4948-55dd-4c61-800b-d5df5f7e4e3a","system_id":"levelo_inurba_marseille","lat":43.21192,"lon":5.35064,"is_reserved":false,"is_disabled":false,"rental_uris":{"android":"levelo://app?vid=3f5b4948-55dd-4c61-800b-d5df5f7e4e3a","ios":"levelo://app?vid=3f5b4948-55dd-4c61-800b-d5df5f7e4e3a"},"vehicle_type_id":"4","last_reported":1746274692,"current_range_meters":16400,"station_id":"st_cvj6sg6p6f1abm77japg","pricing_plan_id":"cebpf4jnsgd1na2vs0mg"},{"bike_id":"a4342359-f282-49ee-a353-c883ead521bd","system_id":"levelo_inurba_marseille","lat":43.2119,"lon":5.35072,"is_reserved":false,"is_disabled":false,"rental_uris":{"android":"levelo://app?vid=a4342359-f282-49ee-a353-c883ead521bd","ios":"levelo://app?vid=a4342359-f282-49ee-a353-c883ead521bd"},"vehicle_type_id":"4","last_reported":1746274692,"current_range_meters":16800,"station_id":"st_cvj6sg6p6f1abm77japg","pricing_plan_id":"cebpf4jnsgd1na2vs0mg"},{"bike_id":"a8f57f2b-dc8a-40c9-9d19-a8c7c5f83310","system_id":"levelo_inurba_marseille","lat":43.26931,"lon":5.40275,"is_reserved":false,"is_disabled":true,"rental_uris":{"android":"levelo://app?vid=a8f57f2b-dc8a-40c9-9d19-a8c7c5f83310","ios":"levelo://app?vid=a8f57f2b-dc8a-40c9-9d19-a8c7c5f83310"},"vehicle_type_id":"4","last_reported":1746274692,"current_range_meters":16800,"station_id":"cjm6bp8fraef2m0cb0m0","pricing_plan_id":"cebpf4jnsgd1na2vs0mg"},{"bike_id":"fcd37c6c-906b-475f-9657-c9d5885edc81","system_id":"levelo_inurba_marseille","lat":43.28271,"lon":5.3507,"is_reserved":false,"is_disabled":false,"rental_uris":{"android":"levelo://app?vid=fcd37c6c-906b-475f-9657-c9d5885edc81","ios":"levelo://app?vid=fcd37c6c-906b-475f-9657-c9d5885edc81"},"vehicle_type_id":"4","last_reported":1746274692,"current_range_meters":16800,"station_id":"ce4bhbp2rcd13ifvqerg","pricing_plan_id":"cebpf4jnsgd1na2vs0mg"},{"bike_id":"62cf4b7c-e989-4791-be24-64e8012dccc0","system_id":"levelo_inurba_marseille","lat":43.27376,"lon":5.3625,"is_reserved":false,"is_disabled":false,"rental_uris":{"android":"levelo://app?vid=62cf4b7c-e989-4791-be24-64e8012dccc0","ios":"levelo://app?vid=62cf4b7c-e989-4791-be24-64e8012dccc0"},"vehicle_type_id":"4","last_reported":1746274692,"current_range_meters":16800,"station_id":"ce4bhbh2rcd13ifvqeo0","pricing_plan_id":"cebpf4jnsgd1na2vs0mg"},{"bike_id":"a3bc2359-39e4-4d03-aa5e-8ffa409341e2","system_id":"levelo_inurba_marseille","lat":43.29902,"lon":5.43681,"is_reserved":false,"is_disabled":false,"rental_uris":{"android":"levelo://app?vid=a3bc2359-39e4-4d03-aa5e-8ffa409341e2","ios":"levelo://app?vid=a3bc2359-39e4-4d03-aa5e-8ffa409341e2"},"vehicle_type_id":"4","last_reported":1746274692,"current_range_meters":16800,"station_id":"ce4bhpp2rcd13ifvqhfg","pricing_plan_id":"cebpf4jnsgd1na2vs0mg"},{"bike_id":"1193cb96-d615-4773-8759-f081be70c3e7","system_id":"levelo_inurba_marseille","lat":43.25455,"lon":5.39426,"is_reserved":false,"is_disabled":false,"rental_uris":{"android":"levelo://app?vid=1193cb96-d615-4773-8759-f081be70c3e7","ios":"levelo://app?vid=1193cb96-d615-4773-8759-f081be70c3e7"},"vehicle_type_id":"4","last_reported":1746274692,"current_range_meters":16800,"station_id":"ce4bhi12rcd13ifvqfq0","pricing_plan_id":"cebpf4jnsgd1na2vs0mg"},{"bike_id":"4012b229-dcdd-4c53-a344-1288ed9f58b7","system_id":"levelo_inurba_marseille","lat":43.30956,"lon":5.39022,"is_reserved":false,"is_disabled":false,"rental_uris":{"android":"levelo://app?vid=4012b229-dcdd-4c53-a344-1288ed9f58b7","ios":"levelo://app?vid=4012b229-dcdd-4c53-a344-1288ed9f58b7"},"vehicle_type_id":"4","last_reported":1746274692,"current_range_meters":16800,"station_id":"ce4bgup2rcd13ifvqco0","pricing_plan_id":"cebpf4jnsgd1na2vs0mg"},{"bike_id":"9fe1eaeb-780e-48cd-98bf-fa4661e6fb9d","system_id":"levelo_inurba_marseille","lat":43.24169,"lon":5.36393,"is_reserved":false,"is_disabled":false,"rental_uris":{"android":"levelo://app?vid=9fe1eaeb-780e-48cd-98bf-fa4661e6fb9d","ios":"levelo://app?vid=9fe1eaeb-780e-48cd-98bf-fa4661e6fb9d"},"vehicle_type_id":"4","last_reported":1746274692,"current_range_meters":17200,"station_id":"cpo36qri1sfpv3e86is0","pricing_plan_id":"cebpf4jnsgd1na2vs0mg"},{"bike_id":"e676a96d-9b97-4b9e-829a-4923cfd72a25","system_id":"levelo_inurba_marseille","lat":43.29418,"lon":5.38625,"is_reserved":false,"is_disabled":false,"rental_uris":{"android":"levelo://app?vid=e676a96d-9b97-4b9e-829a-4923cfd72a25","ios":"levelo://app?vid=e676a96d-9b97-4b9e-829a-4923cfd72a25"},"vehicle_type_id":"4","last_reported":1746274692,"current_range_meters":16800,"station_id":"ce4bh2h2rcd13ifvqdh0","pricing_plan_id":"cebpf4jnsgd1na2vs0mg"},{"bike_id":"43580de2-2781-4103-8514-2bfafc9158a6","system_id":"levelo_inurba_marseille","lat":43.24173,"lon":5.36386,"is_reserved":false,"is_disabled":false,"rental_uris":{"android":"levelo://app?vid=43580de2-2781-4103-8514-2bfafc9158a6","ios":"levelo://app?vid=43580de2-2781-4103-8514-2bfafc9158a6"},"vehicle_type_id":"4","last_reported":1746274692,"current_range_meters":17200,"station_id":"cpo36qri1sfpv3e86is0","pricing_plan_id":"cebpf4jnsgd1na2vs0mg"},{"bike_id":"baec3a48-7832-428f-bfc2-0f9a06df3065","system_id":"levelo_inurba_marseille","lat":43.25928,"lon":5.40858,"is_reserved":false,"is_disabled":false,"rental_uris":{"android":"levelo://app?vid=baec3a48-7832-428f-bfc2-0f9a06df3065","ios":"levelo://app?vid=baec3a48-7832-428f-bfc2-0f9a06df3065"},"vehicle_type_id":"4","last_reported":1746274692,"current_range_meters":17200,"station_id":"ce4bhm92rcd13ifvqglg","pricing_plan_id":"cebpf4jnsgd1na2vs0mg"},{"bike_id":"952122e6-39bc-4299-bd60-94117abb2b66","system_id":"levelo_inurba_marseille","lat":43.23966,"lon":5.36632,"is_reserved":false,"is_disabled":false,"rental_uris":{"android":"levelo://app?vid=952122e6-39bc-4299-bd60-94117abb2b66","ios":"levelo://app?vid=952122e6-39bc-4299-bd60-94117abb2b66"},"vehicle_type_id":"4","last_reported":1746274692,"current_range_meters":17200,"station_id":"ce4bhi12rcd13ifvqfp0","pricing_plan_id":"cebpf4jnsgd1na2vs0mg"},{"bike_id":"115a5773-dcb1-4e15-b137-735268b549c6","system_id":"levelo_inurba_marseille","lat":43.24385,"lon":5.37054,"is_reserved":false,"is_disabled":false,"rental_uris":{"android":"levelo://app?vid=115a5773-dcb1-4e15-b137-735268b549c6","ios":"levelo://app?vid=115a5773-dcb1-4e15-b137-735268b549c6"},"vehicle_type_id":"4","last_reported":1746274692,"current_range_meters":17200,"station_id":"ce4bhhh2rcd13ifvqfk0","pricing_plan_id":"cebpf4jnsgd1na2vs0mg"},{"bike_id":"8322da17-5b8c-4f90-a6c3-a19c6780fba9","system_id":"levelo_inurba_marseille","lat":43.30582,"lon":5.37211,"is_reserved":false,"is_disabled":false,"rental_uris":{"android":"levelo://app?vid=8322da17-5b8c-4f90-a6c3-a19c6780fba9","ios":"levelo://app?vid=8322da17-5b8c-4f90-a6c3-a19c6780fba9"},"vehicle_type_id":"4","last_reported":1746274692,"current_range_meters":17200,"station_id":"","pricing_plan_id":"cebpf4jnsgd1na2vs0mg"},{"bike_id":"f53ef821-0651-4987-8d64-53cfda6edac9","system_id":"levelo_inurba_marseille","lat":43.23063,"lon":5.35486,"is_reserved":false,"is_disabled":false,"rental_uris":{"android":"levelo://app?vid=f53ef821-0651-4987-8d64-53cfda6edac9","ios":"levelo://app?vid=f53ef821-0651-4987-8d64-53cfda6edac9"},"vehicle_type_id":"4","last_reported":1746274692,"current_range_meters":17600,"station_id":"cpo3342slgdg3j2ifvpg","pricing_plan_id":"cebpf4jnsgd1na2vs0mg"},{"bike_id":"b51e8583-0fb2-49ca-9c11-9dbce28dfa5d","system_id":"levelo_inurba_marseille","lat":43.23191,"lon":5.35557,"is_reserved":false,"is_disabled":false,"rental_uris":{"android":"levelo://app?vid=b51e8583-0fb2-49ca-9c11-9dbce28dfa5d","ios":"levelo://app?vid=b51e8583-0fb2-49ca-9c11-9dbce28dfa5d"},"vehicle_type_id":"4","last_reported":1746274692,"current_range_meters":17600,"station_id":"ce4bhu92rcd13ifvqi70","pricing_plan_id":"cebpf4jnsgd1na2vs0mg"},{"bike_id":"b6ecfc91-4481-4bb2-bd1b-a33023a24a1b","system_id":"levelo_inurba_marseille","lat":43.21197,"lon":5.35064,"is_reserved":false,"is_disabled":false,"rental_uris":{"android":"levelo://app?vid=b6ecfc91-4481-4bb2-bd1b-a33023a24a1b","ios":"levelo://app?vid=b6ecfc91-4481-4bb2-bd1b-a33023a24a1b"},"vehicle_type_id":"4","last_reported":1746274692,"current_range_meters":17600,"station_id":"st_cvj6sg6p6f1abm77japg","pricing_plan_id":"cebpf4jnsgd1na2vs0mg"},{"bike_id":"0e89c1eb-0aa5-4202-9d43-0c2100d60cab","system_id":"levelo_inurba_marseille","lat":43.243635,"lon":5.370237,"is_reserved":false,"is_disabled":false,"rental_uris":{"android":"levelo://app?vid=0e89c1eb-0aa5-4202-9d43-0c2100d60cab","ios":"levelo://app?vid=0e89c1eb-0aa5-4202-9d43-0c2100d60cab"},"vehicle_type_id":"4","last_reported":1746274692,"current_range_meters":17600,"station_id":"ce4bhhh2rcd13ifvqfk0","pricing_plan_id":"cebpf4jnsgd1na2vs0mg"},{"bike_id":"ec6da0aa-0845-4bad-8a7b-8655154f5109","system_id":"levelo_inurba_marseille","lat":43.30786,"lon":5.43528,"is_reserved":false,"is_disabled":false,"rental_uris":{"android":"levelo://app?vid=ec6da0aa-0845-4bad-8a7b-8655154f5109","ios":"levelo://app?vid=ec6da0aa-0845-4bad-8a7b-8655154f5109"},"vehicle_type_id":"4","last_reported":1746274692,"current_range_meters":17600,"station_id":"ce4bhph2rcd13ifvqheg","pricing_plan_id":"cebpf4jnsgd1na2vs0mg"},{"bike_id":"8ef8e415-3a8e-4e37-94d1-5c69550e4819","system_id":"levelo_inurba_marseille","lat":43.286246,"lon":5.351082,"is_reserved":false,"is_disabled":false,"rental_uris":{"android":"levelo://app?vid=8ef8e415-3a8e-4e37-94d1-5c69550e4819","ios":"levelo://app?vid=8ef8e415-3a8e-4e37-94d1-5c69550e4819"},"vehicle_type_id":"4","last_reported":1746274692,"current_range_meters":17600,"station_id":"ce4bhch2rcd13ifvqeug","pricing_plan_id":"cebpf4jnsgd1na2vs0mg"},{"bike_id":"b5d4e3d3-c549-4a23-9151-5d11e349839d","system_id":"levelo_inurba_marseille","lat":43.211867,"lon":5.350756,"is_reserved":false,"is_disabled":false,"rental_uris":{"android":"levelo://app?vid=b5d4e3d3-c549-4a23-9151-5d11e349839d","ios":"levelo://app?vid=b5d4e3d3-c549-4a23-9151-5d11e349839d"},"vehicle_type_id":"4","last_reported":1746274692,"current_range_meters":18000,"station_id":"st_cvj6sg6p6f1abm77japg","pricing_plan_id":"cebpf4jnsgd1na2vs0mg"},{"bike_id":"2cd00fa1-aa9b-4b46-86ba-129fb9364ad2","system_id":"levelo_inurba_marseille","lat":43.23182,"lon":5.43686,"is_reserved":false,"is_disabled":false,"rental_uris":{"android":"levelo://app?vid=2cd00fa1-aa9b-4b46-86ba-129fb9364ad2","ios":"levelo://app?vid=2cd00fa1-aa9b-4b46-86ba-129fb9364ad2"},"vehicle_type_id":"4","last_reported":1746274692,"current_range_meters":18000,"station_id":"ce4bhmp2rcd13ifvqgog","pricing_plan_id":"cebpf4jnsgd1na2vs0mg"},{"bike_id":"924f2089-4f10-45af-979c-495264cd0cef","system_id":"levelo_inurba_marseille","lat":43.24169,"lon":5.36407,"is_reserved":false,"is_disabled":false,"rental_uris":{"android":"levelo://app?vid=924f2089-4f10-45af-979c-495264cd0cef","ios":"levelo://app?vid=924f2089-4f10-45af-979c-495264cd0cef"},"vehicle_type_id":"4","last_reported":1746274692,"current_range_meters":18000,"station_id":"cpo36qri1sfpv3e86is0","pricing_plan_id":"cebpf4jnsgd1na2vs0mg"},{"bike_id":"7d7d86ac-685e-4b36-90f5-e4e202b44170","system_id":"levelo_inurba_marseille","lat":43.29091,"lon":5.38108,"is_reserved":false,"is_disabled":false,"rental_uris":{"android":"levelo://app?vid=7d7d86ac-685e-4b36-90f5-e4e202b44170","ios":"levelo://app?vid=7d7d86ac-685e-4b36-90f5-e4e202b44170"},"vehicle_type_id":"4","last_reported":1746274692,"current_range_meters":17600,"station_id":"ce4bh512rcd13ifvqe2g","pricing_plan_id":"cebpf4jnsgd1na2vs0mg"},{"bike_id":"d65fe5d3-6dd5-4d8f-afb6-63d5e14acd1f","system_id":"levelo_inurba_marseille","lat":43.23062,"lon":5.35486,"is_reserved":false,"is_disabled":false,"rental_uris":{"android":"levelo://app?vid=d65fe5d3-6dd5-4d8f-afb6-63d5e14acd1f","ios":"levelo://app?vid=d65fe5d3-6dd5-4d8f-afb6-63d5e14acd1f"},"vehicle_type_id":"4","last_reported":1746274692,"current_range_meters":18000,"station_id":"cpo3342slgdg3j2ifvpg","pricing_plan_id":"cebpf4jnsgd1na2vs0mg"},{"bike_id":"92067278-e694-40c6-aa36-41233bda87c9","system_id":"levelo_inurba_marseille","lat":43.30604,"lon":5.37227,"is_reserved":false,"is_disabled":false,"rental_uris":{"android":"levelo://app?vid=92067278-e694-40c6-aa36-41233bda87c9","ios":"levelo://app?vid=92067278-e694-40c6-aa36-41233bda87c9"},"vehicle_type_id":"4","last_reported":1746274692,"current_range_meters":18000,"station_id":"ce4bgqh2rcd13ifvqc4g","pricing_plan_id":"cebpf4jnsgd1na2vs0mg"},{"bike_id":"4783d0f1-35ec-4f0c-86bf-8676e12761ee","system_id":"levelo_inurba_marseille","lat":43.2863,"lon":5.3511,"is_reserved":false,"is_disabled":false,"rental_uris":{"android":"levelo://app?vid=4783d0f1-35ec-4f0c-86bf-8676e12761ee","ios":"levelo://app?vid=4783d0f1-35ec-4f0c-86bf-8676e12761ee"},"vehicle_type_id":"4","last_reported":1746274692,"current_range_meters":18000,"station_id":"ce4bhch2rcd13ifvqeug","pricing_plan_id":"cebpf4jnsgd1na2vs0mg"},{"bike_id":"b3016e8f-dd22-4591-a8b4-19b3dd23a609","system_id":"levelo_inurba_marseille","lat":43.2987,"lon":5.39739,"is_reserved":false,"is_disabled":true,"rental_uris":{"android":"levelo://app?vid=b3016e8f-dd22-4591-a8b4-19b3dd23a609","ios":"levelo://app?vid=b3016e8f-dd22-4591-a8b4-19b3dd23a609"},"vehicle_type_id":"4","last_reported":1746274692,"current_range_meters":18000,"station_id":"ce4bh0h2rcd13ifvqd50","pricing_plan_id":"cebpf4jnsgd1na2vs0mg"},{"bike_id":"f9c0bb4a-c9a4-4e48-8b18-dcdf5012b593","system_id":"levelo_inurba_marseille","lat":43.337444,"lon":5.374475,"is_reserved":false,"is_disabled":false,"rental_uris":{"android":"levelo://app?vid=f9c0bb4a-c9a4-4e48-8b18-dcdf5012b593","ios":"levelo://app?vid=f9c0bb4a-c9a4-4e48-8b18-dcdf5012b593"},"vehicle_type_id":"4","last_reported":1746274692,"current_range_meters":18000,"station_id":"ce4bhb92rcd13ifvqen0","pricing_plan_id":"cebpf4jnsgd1na2vs0mg"},{"bike_id":"0842e345-e807-4626-9b56-c112ec555533","system_id":"levelo_inurba_marseille","lat":43.27053,"lon":5.40256,"is_reserved":false,"is_disabled":false,"rental_uris":{"android":"levelo://app?vid=0842e345-e807-4626-9b56-c112ec555533","ios":"levelo://app?vid=0842e345-e807-4626-9b56-c112ec555533"},"vehicle_type_id":"4","last_reported":1746274692,"current_range_meters":18000,"station_id":"ce4bhk92rcd13ifvqgc0","pricing_plan_id":"cebpf4jnsgd1na2vs0mg"},{"bike_id":"c8e16fcb-5510-4723-b6e7-2aa49c1b3b8d","system_id":"levelo_inurba_marseille","lat":43.31966,"lon":5.37058,"is_reserved":false,"is_disabled":false,"rental_uris":{"android":"levelo://app?vid=c8e16fcb-5510-4723-b6e7-2aa49c1b3b8d","ios":"levelo://app?vid=c8e16fcb-5510-4723-b6e7-2aa49c1b3b8d"},"vehicle_type_id":"4","last_reported":1746274692,"current_range_meters":18000,"station_id":"","pricing_plan_id":"cebpf4jnsgd1na2vs0mg"},{"bike_id":"2283c62b-5682-434e-97fa-c8fef36c6788","system_id":"levelo_inurba_marseille","lat":43.29889,"lon":5.38889,"is_reserved":false,"is_disabled":false,"rental_uris":{"android":"levelo://app?vid=2283c62b-5682-434e-97fa-c8fef36c6788","ios":"levelo://app?vid=2283c62b-5682-434e-97fa-c8fef36c6788"},"vehicle_type_id":"4","last_reported":1746274692,"current_range_meters":18800,"station_id":"ce4bh392rcd13ifvqdl0","pricing_plan_id":"cebpf4jnsgd1na2vs0mg"},{"bike_id":"fe03c2a6-a4dd-4b60-b2b8-e5e5cee6d8ab","system_id":"levelo_inurba_marseille","lat":43.29298,"lon":5.37461,"is_reserved":false,"is_disabled":false,"rental_uris":{"android":"levelo://app?vid=fe03c2a6-a4dd-4b60-b2b8-e5e5cee6d8ab","ios":"levelo://app?vid=fe03c2a6-a4dd-4b60-b2b8-e5e5cee6d8ab"},"vehicle_type_id":"4","last_reported":1746274692,"current_range_meters":18800,"station_id":"ce4bgi12rcd13ifvqb70","pricing_plan_id":"cebpf4jnsgd1na2vs0mg"},{"bike_id":"b07fb12b-e0f7-4ed3-8eff-8b03f8df1cfe","system_id":"levelo_inurba_marseille","lat":43.28275,"lon":5.35072,"is_reserved":false,"is_disabled":false,"rental_uris":{"android":"levelo://app?vid=b07fb12b-e0f7-4ed3-8eff-8b03f8df1cfe","ios":"levelo://app?vid=b07fb12b-e0f7-4ed3-8eff-8b03f8df1cfe"},"vehicle_type_id":"4","last_reported":1746274692,"current_range_meters":18800,"station_id":"ce4bhbp2rcd13ifvqerg","pricing_plan_id":"cebpf4jnsgd1na2vs0mg"},{"bike_id":"2ea79a3a-d95c-4feb-a49e-6a504206ce80","system_id":"levelo_inurba_marseille","lat":43.23151,"lon":5.43717,"is_reserved":false,"is_disabled":false,"rental_uris":{"android":"levelo://app?vid=2ea79a3a-d95c-4feb-a49e-6a504206ce80","ios":"levelo://app?vid=2ea79a3a-d95c-4feb-a49e-6a504206ce80"},"vehicle_type_id":"4","last_reported":1746274692,"current_range_meters":18800,"station_id":"ce4bhmp2rcd13ifvqgog","pricing_plan_id":"cebpf4jnsgd1na2vs0mg"},{"bike_id":"23bbb790-135e-454e-bad1-3bcec53976ba","system_id":"levelo_inurba_marseille","lat":43.26575,"lon":5.39009,"is_reserved":false,"is_disabled":false,"rental_uris":{"android":"levelo://app?vid=23bbb790-135e-454e-bad1-3bcec53976ba","ios":"levelo://app?vid=23bbb790-135e-454e-bad1-3bcec53976ba"},"vehicle_type_id":"4","last_reported":1746274692,"current_range_meters":18800,"station_id":"ce4bhe12rcd13ifvqf30","pricing_plan_id":"cebpf4jnsgd1na2vs0mg"},{"bike_id":"fe3402fa-010e-49a7-9738-90cf54be6235","system_id":"levelo_inurba_marseille","lat":43.27363,"lon":5.36247,"is_reserved":false,"is_disabled":false,"rental_uris":{"android":"levelo://app?vid=fe3402fa-010e-49a7-9738-90cf54be6235","ios":"levelo://app?vid=fe3402fa-010e-49a7-9738-90cf54be6235"},"vehicle_type_id":"4","last_reported":1746274692,"current_range_meters":18800,"station_id":"ce4bhbh2rcd13ifvqeo0","pricing_plan_id":"cebpf4jnsgd1na2vs0mg"},{"bike_id":"dfa9c123-0503-4df7-9f45-126883c9fa94","system_id":"levelo_inurba_marseille","lat":43.23152,"lon":5.43687,"is_reserved":false,"is_disabled":false,"rental_uris":{"android":"levelo://app?vid=dfa9c123-0503-4df7-9f45-126883c9fa94","ios":"levelo://app?vid=dfa9c123-0503-4df7-9f45-126883c9fa94"},"vehicle_type_id":"4","last_reported":1746274692,"current_range_meters":18800,"station_id":"ce4bhmp2rcd13ifvqgog","pricing_plan_id":"cebpf4jnsgd1na2vs0mg"},{"bike_id":"04126000-d66e-4afa-9fe2-de0916a5c993","system_id":"levelo_inurba_marseille","lat":43.30536,"lon":5.36551,"is_reserved":false,"is_disabled":false,"rental_uris":{"android":"levelo://app?vid=04126000-d66e-4afa-9fe2-de0916a5c993","ios":"levelo://app?vid=04126000-d66e-4afa-9fe2-de0916a5c993"},"vehicle_type_id":"4","last_reported":1746274692,"current_range_meters":19200,"station_id":"ce4bgs12rcd13ifvqcag","pricing_plan_id":"cebpf4jnsgd1na2vs0mg"},{"bike_id":"388a0577-5f49-4b24-a545-af93f66823a6","system_id":"levelo_inurba_marseille","lat":43.25867,"lon":5.39898,"is_reserved":false,"is_disabled":false,"rental_uris":{"android":"levelo://app?vid=388a0577-5f49-4b24-a545-af93f66823a6","ios":"levelo://app?vid=388a0577-5f49-4b24-a545-af93f66823a6"},"vehicle_type_id":"4","last_reported":1746274692,"current_range_meters":19200,"station_id":"ce4bhl92rcd13ifvqghg","pricing_plan_id":"cebpf4jnsgd1na2vs0mg"},{"bike_id":"a4226fa8-e8b8-434a-beb0-ca0b5be2d59b","system_id":"levelo_inurba_marseille","lat":43.31711,"lon":5.37751,"is_reserved":false,"is_disabled":false,"rental_uris":{"android":"levelo://app?vid=a4226fa8-e8b8-434a-beb0-ca0b5be2d59b","ios":"levelo://app?vid=a4226fa8-e8b8-434a-beb0-ca0b5be2d59b"},"vehicle_type_id":"4","last_reported":1746274692,"current_range_meters":18800,"station_id":"ce4bgth2rcd13ifvqch0","pricing_plan_id":"cebpf4jnsgd1na2vs0mg"},{"bike_id":"b44f9884-ad91-4c4f-8556-0c40c7f3c478","system_id":"levelo_inurba_marseille","lat":43.23192,"lon":5.35557,"is_reserved":false,"is_disabled":false,"rental_uris":{"android":"levelo://app?vid=b44f9884-ad91-4c4f-8556-0c40c7f3c478","ios":"levelo://app?vid=b44f9884-ad91-4c4f-8556-0c40c7f3c478"},"vehicle_type_id":"4","last_reported":1746274692,"current_range_meters":19200,"station_id":"ce4bhu92rcd13ifvqi70","pricing_plan_id":"cebpf4jnsgd1na2vs0mg"},{"bike_id":"3df1db5e-0882-4674-ba67-bd4cf285d535","system_id":"levelo_inurba_marseille","lat":43.28616,"lon":5.35101,"is_reserved":false,"is_disabled":false,"rental_uris":{"android":"levelo://app?vid=3df1db5e-0882-4674-ba67-bd4cf285d535","ios":"levelo://app?vid=3df1db5e-0882-4674-ba67-bd4cf285d535"},"vehicle_type_id":"4","last_reported":1746274692,"current_range_meters":19200,"station_id":"ce4bhch2rcd13ifvqeug","pricing_plan_id":"cebpf4jnsgd1na2vs0mg"},{"bike_id":"e27de63b-bde1-4b08-b41e-b32431a5ecc6","system_id":"levelo_inurba_marseille","lat":43.26021,"lon":5.39323,"is_reserved":false,"is_disabled":false,"rental_uris":{"android":"levelo://app?vid=e27de63b-bde1-4b08-b41e-b32431a5ecc6","ios":"levelo://app?vid=e27de63b-bde1-4b08-b41e-b32431a5ecc6"},"vehicle_type_id":"4","last_reported":1746274692,"current_range_meters":19200,"station_id":"ce4bhh92rcd13ifvqfj0","pricing_plan_id":"cebpf4jnsgd1na2vs0mg"},{"bike_id":"40fd19f4-44fe-44e9-821b-b3af5edff61f","system_id":"levelo_inurba_marseille","lat":43.211928,"lon":5.350692,"is_reserved":false,"is_disabled":false,"rental_uris":{"android":"levelo://app?vid=40fd19f4-44fe-44e9-821b-b3af5edff61f","ios":"levelo://app?vid=40fd19f4-44fe-44e9-821b-b3af5edff61f"},"vehicle_type_id":"4","last_reported":1746274692,"current_range_meters":19600,"station_id":"st_cvj6sg6p6f1abm77japg","pricing_plan_id":"cebpf4jnsgd1na2vs0mg"},{"bike_id":"48130552-5b1b-4f79-8718-7947de23d100","system_id":"levelo_inurba_marseille","lat":43.25582,"lon":5.38224,"is_reserved":false,"is_disabled":false,"rental_uris":{"android":"levelo://app?vid=48130552-5b1b-4f79-8718-7947de23d100","ios":"levelo://app?vid=48130552-5b1b-4f79-8718-7947de23d100"},"vehicle_type_id":"4","last_reported":1746274692,"current_range_meters":19200,"station_id":"ce4bhih2rcd13ifvqfs0","pricing_plan_id":"cebpf4jnsgd1na2vs0mg"},{"bike_id":"e01d7b5a-8641-4e7c-8e4a-f4f617a8df19","system_id":"levelo_inurba_marseille","lat":43.29583,"lon":5.36736,"is_reserved":false,"is_disabled":false,"rental_uris":{"android":"levelo://app?vid=e01d7b5a-8641-4e7c-8e4a-f4f617a8df19","ios":"levelo://app?vid=e01d7b5a-8641-4e7c-8e4a-f4f617a8df19"},"vehicle_type_id":"4","last_reported":1746274692,"current_range_meters":19600,"station_id":"ce4bgph2rcd13ifvqc2g","pricing_plan_id":"cebpf4jnsgd1na2vs0mg"},{"bike_id":"2bde9ebb-6535-45f0-8832-068da6b097b1","system_id":"levelo_inurba_marseille","lat":43.29914,"lon":5.37469,"is_reserved":false,"is_disabled":false,"rental_uris":{"android":"levelo://app?vid=2bde9ebb-6535-45f0-8832-068da6b097b1","ios":"levelo://app?vid=2bde9ebb-6535-45f0-8832-068da6b097b1"},"vehicle_type_id":"4","last_reported":1746274692,"current_range_meters":19600,"station_id":"ce4bgjh2rcd13ifvqbg0","pricing_plan_id":"cebpf4jnsgd1na2vs0mg"},{"bike_id":"a156a43b-a454-494b-9663-fdd53beb9caa","system_id":"levelo_inurba_marseille","lat":43.217479,"lon":5.346019,"is_reserved":false,"is_disabled":false,"rental_uris":{"android":"levelo://app?vid=a156a43b-a454-494b-9663-fdd53beb9caa","ios":"levelo://app?vid=a156a43b-a454-494b-9663-fdd53beb9caa"},"vehicle_type_id":"4","last_reported":1746274692,"current_range_meters":19600,"station_id":"st_cvj6r9ubvosntc0bgbag","pricing_plan_id":"cebpf4jnsgd1na2vs0mg"},{"bike_id":"e3bc48d3-90a2-4eb7-89f5-bb8d3f5f69b1","system_id":"levelo_inurba_marseille","lat":43.27373,"lon":5.36257,"is_reserved":false,"is_disabled":false,"rental_uris":{"android":"levelo://app?vid=e3bc48d3-90a2-4eb7-89f5-bb8d3f5f69b1","ios":"levelo://app?vid=e3bc48d3-90a2-4eb7-89f5-bb8d3f5f69b1"},"vehicle_type_id":"4","last_reported":1746274692,"current_range_meters":19600,"station_id":"ce4bhbh2rcd13ifvqeo0","pricing_plan_id":"cebpf4jnsgd1na2vs0mg"},{"bike_id":"ea323f1c-7f8c-48b2-90a0-72334cd920a4","system_id":"levelo_inurba_marseille","lat":43.29567,"lon":5.39961,"is_reserved":false,"is_disabled":true,"rental_uris":{"android":"levelo://app?vid=ea323f1c-7f8c-48b2-90a0-72334cd920a4","ios":"levelo://app?vid=ea323f1c-7f8c-48b2-90a0-72334cd920a4"},"vehicle_type_id":"4","last_reported":1746274692,"current_range_meters":19600,"station_id":"ce4bh312rcd13ifvqdj0","pricing_plan_id":"cebpf4jnsgd1na2vs0mg"},{"bike_id":"cb06b34a-ed36-47a6-8d09-45a1d4eda444","system_id":"levelo_inurba_marseille","lat":43.21195,"lon":5.35063,"is_reserved":false,"is_disabled":false,"rental_uris":{"android":"levelo://app?vid=cb06b34a-ed36-47a6-8d09-45a1d4eda444","ios":"levelo://app?vid=cb06b34a-ed36-47a6-8d09-45a1d4eda444"},"vehicle_type_id":"4","last_reported":1746274692,"current_range_meters":20000,"station_id":"st_cvj6sg6p6f1abm77japg","pricing_plan_id":"cebpf4jnsgd1na2vs0mg"},{"bike_id":"48b89a22-48a4-441f-8095-cafac174cc18","system_id":"levelo_inurba_marseille","lat":43.2396,"lon":5.36635,"is_reserved":false,"is_disabled":false,"rental_uris":{"android":"levelo://app?vid=48b89a22-48a4-441f-8095-cafac174cc18","ios":"levelo://app?vid=48b89a22-48a4-441f-8095-cafac174cc18"},"vehicle_type_id":"4","last_reported":1746274692,"current_range_meters":20000,"station_id":"ce4bhi12rcd13ifvqfp0","pricing_plan_id":"cebpf4jnsgd1na2vs0mg"},{"bike_id":"a5458895-9131-4244-ba88-4dbb78d9aaba","system_id":"levelo_inurba_marseille","lat":43.29175,"lon":5.37148,"is_reserved":false,"is_disabled":false,"rental_uris":{"android":"levelo://app?vid=a5458895-9131-4244-ba88-4dbb78d9aaba","ios":"levelo://app?vid=a5458895-9131-4244-ba88-4dbb78d9aaba"},"vehicle_type_id":"4","last_reported":1746274692,"current_range_meters":20000,"station_id":"ce4bha92rcd13ifvqeh0","pricing_plan_id":"cebpf4jnsgd1na2vs0mg"},{"bike_id":"633f4cac-9696-4e15-bb10-152509541b56","system_id":"levelo_inurba_marseille","lat":43.32358,"lon":5.36751,"is_reserved":false,"is_disabled":false,"rental_uris":{"android":"levelo://app?vid=633f4cac-9696-4e15-bb10-152509541b56","ios":"levelo://app?vid=633f4cac-9696-4e15-bb10-152509541b56"},"vehicle_type_id":"4","last_reported":1746274692,"current_range_meters":20000,"station_id":"ce4bhsh2rcd13ifvqi2g","pricing_plan_id":"cebpf4jnsgd1na2vs0mg"},{"bike_id":"e7cbd1f8-20ff-4b78-b937-2fa4fbb21bd5","system_id":"levelo_inurba_marseille","lat":43.29267,"lon":5.3763,"is_reserved":false,"is_disabled":false,"rental_uris":{"android":"levelo://app?vid=e7cbd1f8-20ff-4b78-b937-2fa4fbb21bd5","ios":"levelo://app?vid=e7cbd1f8-20ff-4b78-b937-2fa4fbb21bd5"},"vehicle_type_id":"4","last_reported":1746274692,"current_range_meters":20000,"station_id":"ce4bgi12rcd13ifvqb80","pricing_plan_id":"cebpf4jnsgd1na2vs0mg"},{"bike_id":"6b5c5d93-4d22-4d20-8961-09cde43d76d4","system_id":"levelo_inurba_marseille","lat":43.26203,"lon":5.37924,"is_reserved":false,"is_disabled":false,"rental_uris":{"android":"levelo://app?vid=6b5c5d93-4d22-4d20-8961-09cde43d76d4","ios":"levelo://app?vid=6b5c5d93-4d22-4d20-8961-09cde43d76d4"},"vehicle_type_id":"4","last_reported":1746274692,"current_range_meters":20000,"station_id":"ce4bhjp2rcd13ifvqg90","pricing_plan_id":"cebpf4jnsgd1na2vs0mg"},{"bike_id":"1a0b984a-5bb6-40c8-b8b0-68edd4b3d9bd","system_id":"levelo_inurba_marseille","lat":43.21751,"lon":5.34588,"is_reserved":false,"is_disabled":false,"rental_uris":{"android":"levelo://app?vid=1a0b984a-5bb6-40c8-b8b0-68edd4b3d9bd","ios":"levelo://app?vid=1a0b984a-5bb6-40c8-b8b0-68edd4b3d9bd"},"vehicle_type_id":"4","last_reported":1746274692,"current_range_meters":20400,"station_id":"st_cvj6r9ubvosntc0bgbag","pricing_plan_id":"cebpf4jnsgd1na2vs0mg"},{"bike_id":"fabf2925-9bd4-424b-868f-8f1d1e6774c1","system_id":"levelo_inurba_marseille","lat":43.21744,"lon":5.34597,"is_reserved":false,"is_disabled":false,"rental_uris":{"android":"levelo://app?vid=fabf2925-9bd4-424b-868f-8f1d1e6774c1","ios":"levelo://app?vid=fabf2925-9bd4-424b-868f-8f1d1e6774c1"},"vehicle_type_id":"4","last_reported":1746274692,"current_range_meters":20400,"station_id":"st_cvj6r9ubvosntc0bgbag","pricing_plan_id":"cebpf4jnsgd1na2vs0mg"},{"bike_id":"e8846b43-6087-4bdb-b85d-b351fe0a8b4d","system_id":"levelo_inurba_marseille","lat":43.21192,"lon":5.35068,"is_reserved":false,"is_disabled":false,"rental_uris":{"android":"levelo://app?vid=e8846b43-6087-4bdb-b85d-b351fe0a8b4d","ios":"levelo://app?vid=e8846b43-6087-4bdb-b85d-b351fe0a8b4d"},"vehicle_type_id":"4","last_reported":1746274692,"current_range_meters":20400,"station_id":"st_cvj6sg6p6f1abm77japg","pricing_plan_id":"cebpf4jnsgd1na2vs0mg"},{"bike_id":"899f1c13-7008-4f05-81eb-05e3064d591d","system_id":"levelo_inurba_marseille","lat":43.28507,"lon":5.35086,"is_reserved":false,"is_disabled":false,"rental_uris":{"android":"levelo://app?vid=899f1c13-7008-4f05-81eb-05e3064d591d","ios":"levelo://app?vid=899f1c13-7008-4f05-81eb-05e3064d591d"},"vehicle_type_id":"4","last_reported":1746274692,"current_range_meters":20400,"station_id":"","pricing_plan_id":"cebpf4jnsgd1na2vs0mg"},{"bike_id":"a90ef866-b993-4e4b-bc5a-23d3f76f0621","system_id":"levelo_inurba_marseille","lat":43.30249,"lon":5.400809,"is_reserved":false,"is_disabled":false,"rental_uris":{"android":"levelo://app?vid=a90ef866-b993-4e4b-bc5a-23d3f76f0621","ios":"levelo://app?vid=a90ef866-b993-4e4b-bc5a-23d3f76f0621"},"vehicle_type_id":"4","last_reported":1746274692,"current_range_meters":20000,"station_id":"ce4bgvh2rcd13ifvqcs0","pricing_plan_id":"cebpf4jnsgd1na2vs0mg"},{"bike_id":"478eea82-b413-46b8-98d5-a2b0b85050dc","system_id":"levelo_inurba_marseille","lat":43.21201,"lon":5.35062,"is_reserved":false,"is_disabled":false,"rental_uris":{"android":"levelo://app?vid=478eea82-b413-46b8-98d5-a2b0b85050dc","ios":"levelo://app?vid=478eea82-b413-46b8-98d5-a2b0b85050dc"},"vehicle_type_id":"4","last_reported":1746274692,"current_range_meters":20800,"station_id":"st_cvj6sg6p6f1abm77japg","pricing_plan_id":"cebpf4jnsgd1na2vs0mg"},{"bike_id":"2a1cf876-bb12-42c3-aae7-2608522ab343","system_id":"levelo_inurba_marseille","lat":43.29573,"lon":5.36752,"is_reserved":false,"is_disabled":false,"rental_uris":{"android":"levelo://app?vid=2a1cf876-bb12-42c3-aae7-2608522ab343","ios":"levelo://app?vid=2a1cf876-bb12-42c3-aae7-2608522ab343"},"vehicle_type_id":"4","last_reported":1746274692,"current_range_meters":20800,"station_id":"ce4bgph2rcd13ifvqc2g","pricing_plan_id":"cebpf4jnsgd1na2vs0mg"},{"bike_id":"43f220ab-0408-46b3-abe5-60437ce3bc1e","system_id":"levelo_inurba_marseille","lat":43.23187,"lon":5.35543,"is_reserved":false,"is_disabled":false,"rental_uris":{"android":"levelo://app?vid=43f220ab-0408-46b3-abe5-60437ce3bc1e","ios":"levelo://app?vid=43f220ab-0408-46b3-abe5-60437ce3bc1e"},"vehicle_type_id":"4","last_reported":1746274692,"current_range_meters":21600,"station_id":"ce4bhu92rcd13ifvqi70","pricing_plan_id":"cebpf4jnsgd1na2vs0mg"},{"bike_id":"574e711c-fa4e-4bf9-84b3-4ae402691bae","system_id":"levelo_inurba_marseille","lat":43.21193,"lon":5.35073,"is_reserved":false,"is_disabled":false,"rental_uris":{"android":"levelo://app?vid=574e711c-fa4e-4bf9-84b3-4ae402691bae","ios":"levelo://app?vid=574e711c-fa4e-4bf9-84b3-4ae402691bae"},"vehicle_type_id":"4","last_reported":1746274692,"current_range_meters":21600,"station_id":"st_cvj6sg6p6f1abm77japg","pricing_plan_id":"cebpf4jnsgd1na2vs0mg"},{"bike_id":"8b15557b-f483-41a9-8d21-73e44a2666f6","system_id":"levelo_inurba_marseille","lat":43.26025,"lon":5.37545,"is_reserved":false,"is_disabled":false,"rental_uris":{"android":"levelo://app?vid=8b15557b-f483-41a9-8d21-73e44a2666f6","ios":"levelo://app?vid=8b15557b-f483-41a9-8d21-73e44a2666f6"},"vehicle_type_id":"4","last_reported":1746274692,"current_range_meters":21600,"station_id":"ce4bhgh2rcd13ifvqfa0","pricing_plan_id":"cebpf4jnsgd1na2vs0mg"},{"bike_id":"516a3dea-b880-4486-a6eb-f63e3d11ee68","system_id":"levelo_inurba_marseille","lat":43.30556,"lon":5.365543,"is_reserved":false,"is_disabled":false,"rental_uris":{"android":"levelo://app?vid=516a3dea-b880-4486-a6eb-f63e3d11ee68","ios":"levelo://app?vid=516a3dea-b880-4486-a6eb-f63e3d11ee68"},"vehicle_type_id":"4","last_reported":1746274692,"current_range_meters":21600,"station_id":"ce4bgs12rcd13ifvqcag","pricing_plan_id":"cebpf4jnsgd1na2vs0mg"},{"bike_id":"dab12b6a-8e85-4773-8a98-0792c70cd514","system_id":"levelo_inurba_marseille","lat":43.21755,"lon":5.346,"is_reserved":false,"is_disabled":false,"rental_uris":{"android":"levelo://app?vid=dab12b6a-8e85-4773-8a98-0792c70cd514","ios":"levelo://app?vid=dab12b6a-8e85-4773-8a98-0792c70cd514"},"vehicle_type_id":"4","last_reported":1746274692,"current_range_meters":21600,"station_id":"st_cvj6r9ubvosntc0bgbag","pricing_plan_id":"cebpf4jnsgd1na2vs0mg"},{"bike_id":"60580699-eaea-4606-9c73-366301a31801","system_id":"levelo_inurba_marseille","lat":43.230656,"lon":5.354891,"is_reserved":false,"is_disabled":false,"rental_uris":{"android":"levelo://app?vid=60580699-eaea-4606-9c73-366301a31801","ios":"levelo://app?vid=60580699-eaea-4606-9c73-366301a31801"},"vehicle_type_id":"4","last_reported":1746274692,"current_range_meters":20800,"station_id":"cpo3342slgdg3j2ifvpg","pricing_plan_id":"cebpf4jnsgd1na2vs0mg"},{"bike_id":"9d0e8cba-6ad4-439b-a10f-4068cdfa0fc3","system_id":"levelo_inurba_marseille","lat":43.27074,"lon":5.42259,"is_reserved":false,"is_disabled":false,"rental_uris":{"android":"levelo://app?vid=9d0e8cba-6ad4-439b-a10f-4068cdfa0fc3","ios":"levelo://app?vid=9d0e8cba-6ad4-439b-a10f-4068cdfa0fc3"},"vehicle_type_id":"4","last_reported":1746274692,"current_range_meters":21600,"station_id":"ce4bhk92rcd13ifvqgb0","pricing_plan_id":"cebpf4jnsgd1na2vs0mg"},{"bike_id":"570b6dfd-f4f0-46da-af2f-fa566c247097","system_id":"levelo_inurba_marseille","lat":43.29593,"lon":5.38104,"is_reserved":false,"is_disabled":false,"rental_uris":{"android":"levelo://app?vid=570b6dfd-f4f0-46da-af2f-fa566c247097","ios":"levelo://app?vid=570b6dfd-f4f0-46da-af2f-fa566c247097"},"vehicle_type_id":"4","last_reported":1746274692,"current_range_meters":21600,"station_id":"ce4bgl12rcd13ifvqbo0","pricing_plan_id":"cebpf4jnsgd1na2vs0mg"},{"bike_id":"dd473096-1bbb-4af2-8bbe-d879aad45503","system_id":"levelo_inurba_marseille","lat":43.3032,"lon":5.40443,"is_reserved":false,"is_disabled":false,"rental_uris":{"android":"levelo://app?vid=dd473096-1bbb-4af2-8bbe-d879aad45503","ios":"levelo://app?vid=dd473096-1bbb-4af2-8bbe-d879aad45503"},"vehicle_type_id":"4","last_reported":1746274692,"current_range_meters":22000,"station_id":"ce4bh012rcd13ifvqd10","pricing_plan_id":"cebpf4jnsgd1na2vs0mg"},{"bike_id":"07c9a721-ccc4-435a-9bc7-2bafc396a4ac","system_id":"levelo_inurba_marseille","lat":43.24177,"lon":5.397,"is_reserved":false,"is_disabled":false,"rental_uris":{"android":"levelo://app?vid=07c9a721-ccc4-435a-9bc7-2bafc396a4ac","ios":"levelo://app?vid=07c9a721-ccc4-435a-9bc7-2bafc396a4ac"},"vehicle_type_id":"4","last_reported":1746274692,"current_range_meters":22000,"station_id":"ce4bhn12rcd13ifvqgpg","pricing_plan_id":"cebpf4jnsgd1na2vs0mg"},{"bike_id":"a3c5b29a-a6dc-4744-8f99-1444e228e509","system_id":"levelo_inurba_marseille","lat":43.27361,"lon":5.36247,"is_reserved":false,"is_disabled":false,"rental_uris":{"android":"levelo://app?vid=a3c5b29a-a6dc-4744-8f99-1444e228e509","ios":"levelo://app?vid=a3c5b29a-a6dc-4744-8f99-1444e228e509"},"vehicle_type_id":"4","last_reported":1746274692,"current_range_meters":22000,"station_id":"ce4bhbh2rcd13ifvqeo0","pricing_plan_id":"cebpf4jnsgd1na2vs0mg"},{"bike_id":"52f756d9-71b9-4af6-af71-94a87e4b4b38","system_id":"levelo_inurba_marseille","lat":43.26497,"lon":5.39534,"is_reserved":false,"is_disabled":false,"rental_uris":{"android":"levelo://app?vid=52f756d9-71b9-4af6-af71-94a87e4b4b38","ios":"levelo://app?vid=52f756d9-71b9-4af6-af71-94a87e4b4b38"},"vehicle_type_id":"4","last_reported":1746274692,"current_range_meters":21600,"station_id":"ce4bhi12rcd13ifvqfq0","pricing_plan_id":"cebpf4jnsgd1na2vs0mg"},