{"last_updated":1742559489,"ttl":60,"version":"2.2","data":{"bikes":[{"bike_id":"0e953253-4497-4abb-80ed-d67dea1a83c9","system_id":"levelo_inurba_marseille","lat":43.265588,"lon":5.372803,"is_reserved":false,"is_disabled":false,"rental_uris":{"android":"levelo://app?vid=0e953253-4497-4abb-80ed-d67dea1a83c9","ios":"levelo://app?vid=0e953253-4497-4abb-80ed-d67dea1a83c9"},"vehicle_type_id":"4","last_reported":1742559489,"current_range_meters":2800,"station_id":"ce4bhg12rcd13ifvqf60","pricing_plan_id":"cebpf4jnsgd1na2vs0mg"},{"bike_id":"d4cc922a-f554-41b3-8546-56a2bc9ab3cb","system_id":"levelo_inurba_marseille","lat":43.25142,"lon":5.40662,"is_reserved":false,"is_disabled":false,"rental_uris":{"android":"levelo://app?vid=d4cc922a-f554-41b3-8546-56a2bc9ab3cb","ios":"levelo://app?vid=d4cc922a-f554-41b3-8546-56a2bc9ab3cb"},"vehicle_type_id":"4","last_reported":1742559489,"current_range_meters":2000,"station_id":"ce4bhlh2rcd13ifvqgig","pricing_plan_id":"cebpf4jnsgd1na2vs0mg"},{"bike_id":"f594b79f-b6fe-4c8a-b6f1-88af12273f99","system_id":"levelo_inurba_marseille","lat":43.30148,"lon":5.38086,"is_reserved":false,"is_disabled":false,"rental_uris":{"android":"levelo://app?vid=f594b79f-b6fe-4c8a-b6f1-88af12273f99","ios":"levelo://app?vid=f594b79f-b6fe-4c8a-b6f1-88af12273f99"},"vehicle_type_id":"4","last_reported":1742559489,"current_range_meters":2800,"station_id":"ce4bgjp2rcd13ifvqbh0","pricing_plan_id":"cebpf4jnsgd1na2vs0mg"},{"bike_id":"a9cf5ff7-36bc-4131-a26a-d2a5701e8f33","system_id":"levelo_inurba_marseille","lat":43.26568,"lon":5.39071,"is_reserved":false,"is_disabled":true,"rental_uris":{"android":"levelo://app?vid=a9cf5ff7-36bc-4131-a26a-d2a5701e8f33","ios":"levelo://app?vid=a9cf5ff7-36bc-4131-a26a-d2a5701e8f33"},"vehicle_type_id":"4","last_reported":1742559489,"current_range_meters":2800,"station_id":"","pricing_plan_id":"cebpf4jnsgd1na2vs0mg"},{"bike_id":"5188b82b-8c44-42ff-93c4-bf85de5ec3b7","system_id":"levelo_inurba_marseille","lat":43.321,"lon":5.3681,"is_reserved":false,"is_disabled":false,"rental_uris":{"android":"levelo://app?vid=5188b82b-8c44-42ff-93c4-bf85de5ec3b7","ios":"levelo://app?vid=5188b82b-8c44-42ff-93c4-bf85de5ec3b7"},"vehicle_type_id":"4","last_reported":1742559489,"current_range_meters":2800,"station_id":"ce4bhrh2rcd13ifvqhug","pricing_plan_id":"cebpf4jnsgd1na2vs0mg"},{"bike_id":"9d26c008-8ec1-4269-9cd2-f45774f03ccb","system_id":"levelo_inurba_marseille","lat":43.27928,"lon":5.37947,"is_reserved":false,"is_disabled":true,"rental_uris":{"android":"levelo://app?vid=9d26c008-8ec1-4269-9cd2-f45774f03ccb","ios":"levelo://app?vid=9d26c008-8ec1-4269-9cd2-f45774f03ccb"},"vehicle_type_id":"4","last_reported":1742559489,"current_range_meters":2800,"station_id":"","pricing_plan_id":"cebpf4jnsgd1na2vs0mg"},{"bike_id":"8a5d712b-d1d1-41ce-be1c-cf30aa67d266","system_id":"levelo_inurba_marseille","lat":43.23964,"lon":5.36625,"is_reserved":false,"is_disabled":false,"rental_uris":{"android":"levelo://app?vid=8a5d712b-d1d1-41ce-be1c-cf30aa67d266","ios":"levelo://app?vid=8a5d712b-d1d1-41ce-be1c-cf30aa67d266"},"vehicle_type_id":"4","last_reported":1742559489,"current_range_meters":2800,"station_id":"ce4bhi12rcd13ifvqfp0","pricing_plan_id":"cebpf4jnsgd1na2vs0mg"},{"bike_id":"8106c1b0-7c48-4290-8853-432309dce2f1","system_id":"levelo_inurba_marseille","lat":43.29578,"lon":5.37523,"is_reserved":false,"is_disabled":false,"rental_uris":{"android":"levelo://app?vid=8106c1b0-7c48-4290-8853-432309dce2f1","ios":"levelo://app?vid=8106c1b0-7c48-4290-8853-432309dce2f1"},"vehicle_type_id":"4","last_reported":1742559489,"current_range_meters":3200,"station_id":"ce4bgh92rcd13ifvqb50","pricing_plan_id":"cebpf4jnsgd1na2vs0mg"},{"bike_id":"9bbb8857-e524-48fe-bf19-c533e83f93f6","system_id":"levelo_inurba_marseille","lat":43.28494,"lon":5.38418,"is_reserved":false,"is_disabled":false,"rental_uris":{"android":"levelo://app?vid=9bbb8857-e524-48fe-bf19-c533e83f93f6","ios":"levelo://app?vid=9bbb8857-e524-48fe-bf19-c533e83f93f6"},"vehicle_type_id":"4","last_reported":1742559489,"current_range_meters":3200,"station_id":"ce4bh512rcd13ifvqe3g","pricing_plan_id":"cebpf4jnsgd1na2vs0mg"},{"bike_id":"e90b4c8c-9c59-457c-a5c3-e0736c271adb","system_id":"levelo_inurba_marseille","lat":43.272081,"lon":5.391831,"is_reserved":false,"is_disabled":false,"rental_uris":{"android":"levelo://app?vid=e90b4c8c-9c59-457c-a5c3-e0736c271adb","ios":"levelo://app?vid=e90b4c8c-9c59-457c-a5c3-e0736c271adb"},"vehicle_type_id":"4","last_reported":1742559489,"current_range_meters":2800,"station_id":"ce4bhl12rcd13ifvqgf0","pricing_plan_id":"cebpf4jnsgd1na2vs0mg"},{"bike_id":"d1a01553-887e-48c9-aecd-ab026c3ae8ef","system_id":"levelo_inurba_marseille","lat":43.26805,"lon":5.4027,"is_reserved":false,"is_disabled":false,"rental_uris":{"android":"levelo://app?vid=d1a01553-887e-48c9-aecd-ab026c3ae8ef","ios":"levelo://app?vid=d1a01553-887e-48c9-aecd-ab026c3ae8ef"},"vehicle_type_id":"4","last_reported":1742559489,"current_range_meters":3200,"station_id":"ce501612rcd8frsf0b60","pricing_plan_id":"cebpf4jnsgd1na2vs0mg"},{"bike_id":"a6fdc312-2ae9-4e87-8704-b64a00d6ce60","system_id":"levelo_inurba_marseille","lat":43.29897,"lon":5.38901,"is_reserved":false,"is_disabled":false,"rental_uris":{"android":"levelo://app?vid=a6fdc312-2ae9-4e87-8704-b64a00d6ce60","ios":"levelo://app?vid=a6fdc312-2ae9-4e87-8704-b64a00d6ce60"},"vehicle_type_id":"4","last_reported":1742559489,"current_range_meters":3200,"station_id":"ce4bh392rcd13ifvqdl0","pricing_plan_id":"cebpf4jnsgd1na2vs0mg"},{"bike_id":"a8b8dae1-87ef-4f8a-a2c8-fe9fd9bf0f77","system_id":"levelo_inurba_marseille","lat":43.23655,"lon":5.37773,"is_reserved":false,"is_disabled":false,"rental_uris":{"android":"levelo://app?vid=a8b8dae1-87ef-4f8a-a2c8-fe9fd9bf0f77","ios":"levelo://app?vid=a8b8dae1-87ef-4f8a-a2c8-fe9fd9bf0f77"},"vehicle_type_id":"4","last_reported":1742559489,"current_range_meters":3600,"station_id":"","pricing_plan_id":"cebpf4jnsgd1na2vs0mg"},{"bike_id":"73bba5f0-af0d-42e1-ade8-4c4ae81ea2b6","system_id":"levelo_inurba_marseille","lat":43.31127,"lon":5.37051,"is_reserved":false,"is_disabled":false,"rental_uris":{"android":"levelo://app?vid=73bba5f0-af0d-42e1-ade8-4c4ae81ea2b6","ios":"levelo://app?vid=73bba5f0-af0d-42e1-ade8-4c4ae81ea2b6"},"vehicle_type_id":"4","last_reported":1742559489,"current_range_meters":3600,"station_id":"","pricing_plan_id":"cebpf4jnsgd1na2vs0mg"},{"bike_id":"b599efb9-e599-4a9e-8634-36c6c4d23491","system_id":"levelo_inurba_marseille","lat":43.2757,"lon":5.3842,"is_reserved":false,"is_disabled":false,"rental_uris":{"android":"levelo://app?vid=b599efb9-e599-4a9e-8634-36c6c4d23491","ios":"levelo://app?vid=b599efb9-e599-4a9e-8634-36c6c4d23491"},"vehicle_type_id":"4","last_reported":1742559489,"current_range_meters":3600,"station_id":"ce4bhh92rcd13ifvqfi0","pricing_plan_id":"cebpf4jnsgd1na2vs0mg"},{"bike_id":"2d486d9f-f65c-404b-b62e-d3d26abd9498","system_id":"levelo_inurba_marseille","lat":43.28001,"lon":5.40013,"is_reserved":false,"is_disabled":false,"rental_uris":{"android":"levelo://app?vid=2d486d9f-f65c-404b-b62e-d3d26abd9498","ios":"levelo://app?vid=2d486d9f-f65c-404b-b62e-d3d26abd9498"},"vehicle_type_id":"4","last_reported":1742559489,"current_range_meters":3600,"station_id":"ce4bho92rcd13ifvqh4g","pricing_plan_id":"cebpf4jnsgd1na2vs0mg"},{"bike_id":"0d87581c-e8a1-4ddc-bbdb-cc51556eba17","system_id":"levelo_inurba_marseille","lat":43.33604,"lon":5.41033,"is_reserved":false,"is_disabled":false,"rental_uris":{"android":"levelo://app?vid=0d87581c-e8a1-4ddc-bbdb-cc51556eba17","ios":"levelo://app?vid=0d87581c-e8a1-4ddc-bbdb-cc51556eba17"},"vehicle_type_id":"4","last_reported":1742559489,"current_range_meters":4000,"station_id":"ce4bhqh2rcd13ifvqhmg","pricing_plan_id":"cebpf4jnsgd1na2vs0mg"},{"bike_id":"0eea05cd-71a8-476d-bb6a-c62fd9e6e95f","system_id":"levelo_inurba_marseille","lat":43.27492,"lon":5.42453,"is_reserved":false,"is_disabled":false,"rental_uris":{"android":"levelo://app?vid=0eea05cd-71a8-476d-bb6a-c62fd9e6e95f","ios":"levelo://app?vid=0eea05cd-71a8-476d-bb6a-c62fd9e6e95f"},"vehicle_type_id":"4","last_reported":1742559489,"current_range_meters":1200,"station_id":"ce4bhn92rcd13ifvqgrg","pricing_plan_id":"cebpf4jnsgd1na2vs0mg"},{"bike_id":"b955ef26-e3d9-4989-8fa5-7ccef3e19562","system_id":"levelo_inurba_marseille","lat":43.27697,"lon":5.3892,"is_reserved":false,"is_disabled":true,"rental_uris":{"android":"levelo://app?vid=b955ef26-e3d9-4989-8fa5-7ccef3e19562","ios":"levelo://app?vid=b955ef26-e3d9-4989-8fa5-7ccef3e19562"},"vehicle_type_id":"4","last_reported":1742559489,"current_range_meters":4000,"station_id":"ce4bhi12rcd13ifvqfo0","pricing_plan_id":"cebpf4jnsgd1na2vs0mg"},{"bike_id":"efe7131f-354f-499b-9a39-150ca10ce161","system_id":"levelo_inurba_marseille","lat":43.29722,"lon":5.37705,"is_reserved":false,"is_disabled":false,"rental_uris":{"android":"levelo://app?vid=efe7131f-354f-499b-9a39-150ca10ce161","ios":"levelo://app?vid=efe7131f-354f-499b-9a39-150ca10ce161"},"vehicle_type_id":"4","last_reported":1742559489,"current_range_meters":4400,"station_id":"ce4bgkh2rcd13ifvqbl0","pricing_plan_id":"cebpf4jnsgd1na2vs0mg"},{"bike_id":"da498316-6ce8-435d-8371-734cab313f86","system_id":"levelo_inurba_marseille","lat":43.27317,"lon":5.3908,"is_reserved":false,"is_disabled":false,"rental_uris":{"android":"levelo://app?vid=da498316-6ce8-435d-8371-734cab313f86","ios":"levelo://app?vid=da498316-6ce8-435d-8371-734cab313f86"},"vehicle_type_id":"4","last_reported":1742559489,"current_range_meters":4400,"station_id":"ce4bhgp2rcd13ifvqfe0","pricing_plan_id":"cebpf4jnsgd1na2vs0mg"},{"bike_id":"4bf651d1-e6fa-4f14-b2a3-0fd77b2bf7e1","system_id":"levelo_inurba_marseille","lat":43.321,"lon":5.36784,"is_reserved":false,"is_disabled":false,"rental_uris":{"android":"levelo://app?vid=4bf651d1-e6fa-4f14-b2a3-0fd77b2bf7e1","ios":"levelo://app?vid=4bf651d1-e6fa-4f14-b2a3-0fd77b2bf7e1"},"vehicle_type_id":"4","last_reported":1742559489,"current_range_meters":4400,"station_id":"ce4bhrh2rcd13ifvqhug","pricing_plan_id":"cebpf4jnsgd1na2vs0mg"},{"bike_id":"6c1cb756-083e-48e2-9b41-764dc4a30c10","system_id":"levelo_inurba_marseille","lat":43.31164,"lon":5.38743,"is_reserved":false,"is_disabled":false,"rental_uris":{"android":"levelo://app?vid=6c1cb756-083e-48e2-9b41-764dc4a30c10","ios":"levelo://app?vid=6c1cb756-083e-48e2-9b41-764dc4a30c10"},"vehicle_type_id":"4","last_reported":1742559489,"current_range_meters":4400,"station_id":"ce4bgv12rcd13ifvqcp0","pricing_plan_id":"cebpf4jnsgd1na2vs0mg"},{"bike_id":"e035fe9f-fde1-4a14-97cf-51c027e72a42","system_id":"levelo_inurba_marseille","lat":43.25939,"lon":5.40904,"is_reserved":false,"is_disabled":false,"rental_uris":{"android":"levelo://app?vid=e035fe9f-fde1-4a14-97cf-51c027e72a42","ios":"levelo://app?vid=e035fe9f-fde1-4a14-97cf-51c027e72a42"},"vehicle_type_id":"4","last_reported":1742559489,"current_range_meters":4400,"station_id":"ce4bhm92rcd13ifvqglg","pricing_plan_id":"cebpf4jnsgd1na2vs0mg"},{"bike_id":"66833db3-0764-4f8e-9f72-bc230cf28b94","system_id":"levelo_inurba_marseille","lat":43.28156,"lon":5.42678,"is_reserved":false,"is_disabled":false,"rental_uris":{"android":"levelo://app?vid=66833db3-0764-4f8e-9f72-bc230cf28b94","ios":"levelo://app?vid=66833db3-0764-4f8e-9f72-bc230cf28b94"},"vehicle_type_id":"4","last_reported":1742559489,"current_range_meters":4400,"station_id":"ce4bhnh2rcd13ifvqgug","pricing_plan_id":"cebpf4jnsgd1na2vs0mg"},{"bike_id":"6ccb542d-5259-4eb1-860c-a2436d88687b","system_id":"levelo_inurba_marseille","lat":43.23069,"lon":5.35484,"is_reserved":false,"is_disabled":false,"rental_uris":{"android":"levelo://app?vid=6ccb542d-5259-4eb1-860c-a2436d88687b","ios":"levelo://app?vid=6ccb542d-5259-4eb1-860c-a2436d88687b"},"vehicle_type_id":"4","last_reported":1742559489,"current_range_meters":4400,"station_id":"cpo3342slgdg3j2ifvpg","pricing_plan_id":"cebpf4jnsgd1na2vs0mg"},{"bike_id":"5e25c065-6302-4aa1-89e0-67621b96b669","system_id":"levelo_inurba_marseille","lat":43.27985,"lon":5.41687,"is_reserved":false,"is_disabled":false,"rental_uris":{"android":"levelo://app?vid=5e25c065-6302-4aa1-89e0-67621b96b669","ios":"levelo://app?vid=5e25c065-6302-4aa1-89e0-67621b96b669"},"vehicle_type_id":"4","last_reported":1742559489,"current_range_meters":4800,"station_id":"ce4bho12rcd13ifvqh1g","pricing_plan_id":"cebpf4jnsgd1na2vs0mg"},{"bike_id":"671210b1-9e8f-4893-953f-985ab8b97e34","system_id":"levelo_inurba_marseille","lat":43.32125,"lon":5.3674,"is_reserved":false,"is_disabled":false,"rental_uris":{"android":"levelo://app?vid=671210b1-9e8f-4893-953f-985ab8b97e34","ios":"levelo://app?vid=671210b1-9e8f-4893-953f-985ab8b97e34"},"vehicle_type_id":"4","last_reported":1742559489,"current_range_meters":4800,"station_id":"ce4bhrh2rcd13ifvqhug","pricing_plan_id":"cebpf4jnsgd1na2vs0mg"},{"bike_id":"399b43de-a5c1-4bc6-9061-e12f52a9da37","system_id":"levelo_inurba_marseille","lat":43.26561,"lon":5.37306,"is_reserved":false,"is_disabled":false,"rental_uris":{"android":"levelo://app?vid=399b43de-a5c1-4bc6-9061-e12f52a9da37","ios":"levelo://app?vid=399b43de-a5c1-4bc6-9061-e12f52a9da37"},"vehicle_type_id":"4","last_reported":1742559489,"current_range_meters":4800,"station_id":"ce4bhg12rcd13ifvqf70","pricing_plan_id":"cebpf4jnsgd1na2vs0mg"},{"bike_id":"c0eb3e46-ff8d-4768-8dc4-346b25eb82e0","system_id":"levelo_inurba_marseille","lat":43.30312,"lon":5.36892,"is_reserved":false,"is_disabled":false,"rental_uris":{"android":"levelo://app?vid=c0eb3e46-ff8d-4768-8dc4-346b25eb82e0","ios":"levelo://app?vid=c0eb3e46-ff8d-4768-8dc4-346b25eb82e0"},"vehicle_type_id":"4","last_reported":1742559489,"current_range_meters":5600,"station_id":"ce4bgqh2rcd13ifvqc5g","pricing_plan_id":"cebpf4jnsgd1na2vs0mg"},{"bike_id":"1dba7d11-aa8b-424c-a49e-cca2ab6fa1b3","system_id":"levelo_inurba_marseille","lat":43.30569,"lon":5.36606,"is_reserved":false,"is_disabled":false,"rental_uris":{"android":"levelo://app?vid=1dba7d11-aa8b-424c-a49e-cca2ab6fa1b3","ios":"levelo://app?vid=1dba7d11-aa8b-424c-a49e-cca2ab6fa1b3"},"vehicle_type_id":"4","last_reported":1742559489,"current_range_meters":5600,"station_id":"ce4bgs12rcd13ifvqcag","pricing_plan_id":"cebpf4jnsgd1na2vs0mg"},{"bike_id":"9ef8a483-3d1f-42a2-b5c6-951b0fa17c23","system_id":"levelo_inurba_marseille","lat":43.27207,"lon":5.40984,"is_reserved":false,"is_disabled":false,"rental_uris":{"android":"levelo://app?vid=9ef8a483-3d1f-42a2-b5c6-951b0fa17c23","ios":"levelo://app?vid=9ef8a483-3d1f-42a2-b5c6-951b0fa17c23"},"vehicle_type_id":"4","last_reported":1742559489,"current_range_meters":5600,"station_id":"ce4bhl12rcd13ifvqgf0","pricing_plan_id":"cebpf4jnsgd1na2vs0mg"},{"bike_id":"9044461e-62db-4d23-b825-ab9c7ed1b440","system_id":"levelo_inurba_marseille","lat":43.27238,"lon":5.41061,"is_reserved":false,"is_disabled":false,"rental_uris":{"android":"levelo://app?vid=9044461e-62db-4d23-b825-ab9c7ed1b440","ios":"levelo://app?vid=9044461e-62db-4d23-b825-ab9c7ed1b440"},"vehicle_type_id":"4","last_reported":1742559489,"current_range_meters":5600,"station_id":"ce4bho12rcd13ifvqh1g","pricing_plan_id":"cebpf4jnsgd1na2vs0mg"},{"bike_id":"96d63dd4-1364-43c9-b8f3-637627235834","system_id":"levelo_inurba_marseille","lat":43.29884,"lon":5.39745,"is_reserved":false,"is_disabled":true,"rental_uris":{"android":"levelo://app?vid=96d63dd4-1364-43c9-b8f3-637627235834","ios":"levelo://app?vid=96d63dd4-1364-43c9-b8f3-637627235834"},"vehicle_type_id":"4","last_reported":1742559489,"current_range_meters":5600,"station_id":"ce4bh0h2rcd13ifvqd50","pricing_plan_id":"cebpf4jnsgd1na2vs0mg"},{"bike_id":"88235f40-31c6-4a2f-8946-34e3a8b8f4b1","system_id":"levelo_inurba_marseille","lat":43.29892,"lon":5.3976,"is_reserved":false,"is_disabled":false,"rental_uris":{"android":"levelo://app?vid=88235f40-31c6-4a2f-8946-34e3a8b8f4b1","ios":"levelo://app?vid=88235f40-31c6-4a2f-8946-34e3a8b8f4b1"},"vehicle_type_id":"4","last_reported":1742559489,"current_range_meters":5600,"station_id":"ce4bh0h2rcd13ifvqd50","pricing_plan_id":"cebpf4jnsgd1na2vs0mg"},{"bike_id":"cdf38bca-f3af-4bea-8f57-9b1f687d4c05","system_id":"levelo_inurba_marseille","lat":43.2781,"lon":5.40709,"is_reserved":false,"is_disabled":false,"rental_uris":{"android":"levelo://app?vid=cdf38bca-f3af-4bea-8f57-9b1f687d4c05","ios":"levelo://app?vid=cdf38bca-f3af-4bea-8f57-9b1f687d4c05"},"vehicle_type_id":"4","last_reported":1742559489,"current_range_meters":5600,"station_id":"ce4bhnh2rcd13ifvqgtg","pricing_plan_id":"cebpf4jnsgd1na2vs0mg"},{"bike_id":"79059261-ac37-47aa-b65f-8b8991f42fe6","system_id":"levelo_inurba_marseille","lat":43.32372,"lon":5.38889,"is_reserved":false,"is_disabled":false,"rental_uris":{"android":"levelo://app?vid=79059261-ac37-47aa-b65f-8b8991f42fe6","ios":"levelo://app?vid=79059261-ac37-47aa-b65f-8b8991f42fe6"},"vehicle_type_id":"4","last_reported":1742559489,"current_range_meters":5600,"station_id":"ce4bhqp2rcd13ifvqhog","pricing_plan_id":"cebpf4jnsgd1na2vs0mg"},{"bike_id":"7071d294-37bc-4577-b54b-804fe23d63ae","system_id":"levelo_inurba_marseille","lat":43.29619,"lon":5.3773,"is_reserved":false,"is_disabled":false,"rental_uris":{"android":"levelo://app?vid=7071d294-37bc-4577-b54b-804fe23d63ae","ios":"levelo://app?vid=7071d294-37bc-4577-b54b-804fe23d63ae"},"vehicle_type_id":"4","last_reported":1742559489,"current_range_meters":6000,"station_id":"ce4bgi92rcd13ifvqb90","pricing_plan_id":"cebpf4jnsgd1na2vs0mg"},{"bike_id":"e85049ae-1070-4596-84a6-556bfc96c20a","system_id":"levelo_inurba_marseille","lat":43.289542,"lon":5.364088,"is_reserved":false,"is_disabled":false,"rental_uris":{"android":"levelo://app?vid=e85049ae-1070-4596-84a6-556bfc96c20a","ios":"levelo://app?vid=e85049ae-1070-4596-84a6-556bfc96c20a"},"vehicle_type_id":"4","last_reported":1742559489,"current_range_meters":6000,"station_id":"ce4bhc92rcd13ifvqetg","pricing_plan_id":"cebpf4jnsgd1na2vs0mg"},{"bike_id":"234025ad-7c72-49de-a1aa-45ea3f6e014e","system_id":"levelo_inurba_marseille","lat":43.28935,"lon":5.39627,"is_reserved":false,"is_disabled":false,"rental_uris":{"android":"levelo://app?vid=234025ad-7c72-49de-a1aa-45ea3f6e014e","ios":"levelo://app?vid=234025ad-7c72-49de-a1aa-45ea3f6e014e"},"vehicle_type_id":"4","last_reported":1742559489,"current_range_meters":5600,"station_id":"ce4bh3h2rcd13ifvqdn0","pricing_plan_id":"cebpf4jnsgd1na2vs0mg"},{"bike_id":"18da5e6a-cee5-42b3-b6fc-ba5d7d10a7b8","system_id":"levelo_inurba_marseille","lat":43.30961,"lon":5.39032,"is_reserved":false,"is_disabled":false,"rental_uris":{"android":"levelo://app?vid=18da5e6a-cee5-42b3-b6fc-ba5d7d10a7b8","ios":"levelo://app?vid=18da5e6a-cee5-42b3-b6fc-ba5d7d10a7b8"},"vehicle_type_id":"4","last_reported":1742559489,"current_range_meters":6000,"station_id":"ce4bgup2rcd13ifvqco0","pricing_plan_id":"cebpf4jnsgd1na2vs0mg"},{"bike_id":"74b0b56f-24a0-435c-9dc1-7ecb53526a9d","system_id":"levelo_inurba_marseille","lat":43.26554,"lon":5.37287,"is_reserved":false,"is_disabled":false,"rental_uris":{"android":"levelo://app?vid=74b0b56f-24a0-435c-9dc1-7ecb53526a9d","ios":"levelo://app?vid=74b0b56f-24a0-435c-9dc1-7ecb53526a9d"},"vehicle_type_id":"4","last_reported":1742559489,"current_range_meters":6000,"station_id":"ce4bhg12rcd13ifvqf70","pricing_plan_id":"cebpf4jnsgd1na2vs0mg"},{"bike_id":"cba39fe4-ea49-4231-99cb-d0085e6b9129","system_id":"levelo_inurba_marseille","lat":43.3033,"lon":5.40423,"is_reserved":false,"is_disabled":false,"rental_uris":{"android":"levelo://app?vid=cba39fe4-ea49-4231-99cb-d0085e6b9129","ios":"levelo://app?vid=cba39fe4-ea49-4231-99cb-d0085e6b9129"},"vehicle_type_id":"4","last_reported":1742559489,"current_range_meters":6000,"station_id":"ce4bh012rcd13ifvqd10","pricing_plan_id":"cebpf4jnsgd1na2vs0mg"},{"bike_id":"502efc25-833b-4a51-8e05-70348c655779","system_id":"levelo_inurba_marseille","lat":43.29852,"lon":5.36289,"is_reserved":false,"is_disabled":false,"rental_uris":{"android":"levelo://app?vid=502efc25-833b-4a51-8e05-70348c655779","ios":"levelo://app?vid=502efc25-833b-4a51-8e05-70348c655779"},"vehicle_type_id":"4","last_reported":1742559489,"current_range_meters":6000,"station_id":"ce4bgpp2rcd13ifvqc3g","pricing_plan_id":"cebpf4jnsgd1na2vs0mg"},{"bike_id":"e2d44c57-a27d-483b-ad06-7050d944e5ad","system_id":"levelo_inurba_marseille","lat":43.26944,"lon":5.38642,"is_reserved":false,"is_disabled":false,"rental_uris":{"android":"levelo://app?vid=e2d44c57-a27d-483b-ad06-7050d944e5ad","ios":"levelo://app?vid=e2d44c57-a27d-483b-ad06-7050d944e5ad"},"vehicle_type_id":"4","last_reported":1742559489,"current_range_meters":6000,"station_id":"ce4bhh92rcd13ifvqfh0","pricing_plan_id":"cebpf4jnsgd1na2vs0mg"},{"bike_id":"cb6062cd-3cfa-4917-b79b-5707b99e3c03","system_id":"levelo_inurba_marseille","lat":43.321185,"lon":5.367534,"is_reserved":false,"is_disabled":false,"rental_uris":{"android":"levelo://app?vid=cb6062cd-3cfa-4917-b79b-5707b99e3c03","ios":"levelo://app?vid=cb6062cd-3cfa-4917-b79b-5707b99e3c03"},"vehicle_type_id":"4","last_reported":1742559489,"current_range_meters":6400,"station_id":"ce4bho92rcd13ifvqh3g","pricing_plan_id":"cebpf4jnsgd1na2vs0mg"},{"bike_id":"63e25349-5f30-48de-b4a8-310f738b85c1","system_id":"levelo_inurba_marseille","lat":43.26955,"lon":5.38631,"is_reserved":false,"is_disabled":false,"rental_uris":{"android":"levelo://app?vid=63e25349-5f30-48de-b4a8-310f738b85c1","ios":"levelo://app?vid=63e25349-5f30-48de-b4a8-310f738b85c1"},"vehicle_type_id":"4","last_reported":1742559489,"current_range_meters":6400,"station_id":"ce4bhh92rcd13ifvqfh0","pricing_plan_id":"cebpf4jnsgd1na2vs0mg"},{"bike_id":"acd83a82-4624-4f24-8f56-7735b60f9537","system_id":"levelo_inurba_marseille","lat":43.33018,"lon":5.39045,"is_reserved":false,"is_disabled":false,"rental_uris":{"android":"levelo://app?vid=acd83a82-4624-4f24-8f56-7735b60f9537","ios":"levelo://app?vid=acd83a82-4624-4f24-8f56-7735b60f9537"},"vehicle_type_id":"4","last_reported":1742559489,"current_range_meters":6400,"station_id":"ce4bhr92rcd13ifvqhrg","pricing_plan_id":"cebpf4jnsgd1na2vs0mg"},{"bike_id":"9ab9f94f-6119-4bc3-95bc-764c66670046","system_id":"levelo_inurba_marseille","lat":43.25121,"lon":5.40316,"is_reserved":false,"is_disabled":false,"rental_uris":{"android":"levelo://app?vid=9ab9f94f-6119-4bc3-95bc-764c66670046","ios":"levelo://app?vid=9ab9f94f-6119-4bc3-95bc-764c66670046"},"vehicle_type_id":"4","last_reported":1742559489,"current_range_meters":6400,"station_id":"ce4bhlh2rcd13ifvqgig","pricing_plan_id":"cebpf4jnsgd1na2vs0mg"},{"bike_id":"6a793b76-80e8-4694-878d-a530fdeb566d","system_id":"levelo_inurba_marseille","lat":43.26559,"lon":5.37285,"is_reserved":false,"is_disabled":false,"rental_uris":{"android":"levelo://app?vid=6a793b76-80e8-4694-878d-a530fdeb566d","ios":"levelo://app?vid=6a793b76-80e8-4694-878d-a530fdeb566d"},"vehicle_type_id":"4","last_reported":1742559489,"current_range_meters":6400,"station_id":"ce4bhg12rcd13ifvqf70","pricing_plan_id":"cebpf4jnsgd1na2vs0mg"},{"bike_id":"f9723e71-a44c-462d-8643-7da6b39a03cb","system_id":"levelo_inurba_marseille","lat":43.31364,"lon":5.38503,"is_reserved":false,"is_disabled":false,"rental_uris":{"android":"levelo://app?vid=f9723e71-a44c-462d-8643-7da6b39a03cb","ios":"levelo://app?vid=f9723e71-a44c-462d-8643-7da6b39a03cb"},"vehicle_type_id":"4","last_reported":1742559489,"current_range_meters":6400,"station_id":"ce4bgt92rcd13ifvqcf0","pricing_plan_id":"cebpf4jnsgd1na2vs0mg"},{"bike_id":"d6449a8a-8cb9-436e-8467-42213de18c90","system_id":"levelo_inurba_marseille","lat":43.25581,"lon":5.3823,"is_reserved":false,"is_disabled":false,"rental_uris":{"android":"levelo://app?vid=d6449a8a-8cb9-436e-8467-42213de18c90","ios":"levelo://app?vid=d6449a8a-8cb9-436e-8467-42213de18c90"},"vehicle_type_id":"4","last_reported":1742559489,"current_range_meters":6400,"station_id":"ce4bhih2rcd13ifvqfs0","pricing_plan_id":"cebpf4jnsgd1na2vs0mg"},{"bike_id":"9b2a4ae1-45d2-42a7-b1d8-970226b193d0","system_id":"levelo_inurba_marseille","lat":43.24193,"lon":5.39709,"is_reserved":false,"is_disabled":false,"rental_uris":{"android":"levelo://app?vid=9b2a4ae1-45d2-42a7-b1d8-970226b193d0","ios":"levelo://app?vid=9b2a4ae1-45d2-42a7-b1d8-970226b193d0"},"vehicle_type_id":"4","last_reported":1742559489,"current_range_meters":6400,"station_id":"ce4bhn12rcd13ifvqgpg","pricing_plan_id":"cebpf4jnsgd1na2vs0mg"},{"bike_id":"25ecc595-2e36-4eb0-83f8-05618a93e8ad","system_id":"levelo_inurba_marseille","lat":43.25823,"lon":5.3943,"is_reserved":false,"is_disabled":false,"rental_uris":{"android":"levelo://app?vid=25ecc595-2e36-4eb0-83f8-05618a93e8ad","ios":"levelo://app?vid=25ecc595-2e36-4eb0-83f8-05618a93e8ad"},"vehicle_type_id":"4","last_reported":1742559489,"current_range_meters":6400,"station_id":"ce4bhip2rcd13ifvqft0","pricing_plan_id":"cebpf4jnsgd1na2vs0mg"},{"bike_id":"d7645557-54c5-44ed-8c44-41e433a350da","system_id":"levelo_inurba_marseille","lat":43.2949,"lon":5.35547,"is_reserved":false,"is_disabled":false,"rental_uris":{"android":"levelo://app?vid=d7645557-54c5-44ed-8c44-41e433a350da","ios":"levelo://app?vid=d7645557-54c5-44ed-8c44-41e433a350da"},"vehicle_type_id":"4","last_reported":1742559489,"current_range_meters":6400,"station_id":"","pricing_plan_id":"cebpf4jnsgd1na2vs0mg"},{"bike_id":"b266faba-4e26-4c50-b078-a54d17773ddd","system_id":"levelo_inurba_marseille","lat":43.24549,"lon":5.3952,"is_reserved":false,"is_disabled":false,"rental_uris":{"android":"levelo://app?vid=b266faba-4e26-4c50-b078-a54d17773ddd","ios":"levelo://app?vid=b266faba-4e26-4c50-b078-a54d17773ddd"},"vehicle_type_id":"4","last_reported":1742559489,"current_range_meters":6800,"station_id":"ce4bhlp2rcd13ifvqgjg","pricing_plan_id":"cebpf4jnsgd1na2vs0mg"},{"bike_id":"fc4ccde3-0cb5-475f-b67c-23deb559197c","system_id":"levelo_inurba_marseille","lat":43.33614,"lon":5.41035,"is_reserved":false,"is_disabled":false,"rental_uris":{"android":"levelo://app?vid=fc4ccde3-0cb5-475f-b67c-23deb559197c","ios":"levelo://app?vid=fc4ccde3-0cb5-475f-b67c-23deb559197c"},"vehicle_type_id":"4","last_reported":1742559489,"current_range_meters":6800,"station_id":"ce4bhqh2rcd13ifvqhmg","pricing_plan_id":"cebpf4jnsgd1na2vs0mg"},{"bike_id":"2baeebe6-c331-419a-b2f8-3d5f697eddb1","system_id":"levelo_inurba_marseille","lat":43.31914,"lon":5.40797,"is_reserved":false,"is_disabled":false,"rental_uris":{"android":"levelo://app?vid=2baeebe6-c331-419a-b2f8-3d5f697eddb1","ios":"levelo://app?vid=2baeebe6-c331-419a-b2f8-3d5f697eddb1"},"vehicle_type_id":"4","last_reported":1742559489,"current_range_meters":6800,"station_id":"ce4bh112rcd13ifvqda0","pricing_plan_id":"cebpf4jnsgd1na2vs0mg"},{"bike_id":"b1284a13-6353-476b-8f7a-0133759f4d93","system_id":"levelo_inurba_marseille","lat":43.31093,"lon":5.42418,"is_reserved":false,"is_disabled":false,"rental_uris":{"android":"levelo://app?vid=b1284a13-6353-476b-8f7a-0133759f4d93","ios":"levelo://app?vid=b1284a13-6353-476b-8f7a-0133759f4d93"},"vehicle_type_id":"4","last_reported":1742559489,"current_range_meters":6800,"station_id":"ce4bhp92rcd13ifvqhag","pricing_plan_id":"cebpf4jnsgd1na2vs0mg"},{"bike_id":"4da38abe-63fe-44a7-abd3-4bad6629a678","system_id":"levelo_inurba_marseille","lat":43.29764,"lon":5.37463,"is_reserved":false,"is_disabled":false,"rental_uris":{"android":"levelo://app?vid=4da38abe-63fe-44a7-abd3-4bad6629a678","ios":"levelo://app?vid=4da38abe-63fe-44a7-abd3-4bad6629a678"},"vehicle_type_id":"4","last_reported":1742559489,"current_range_meters":6800,"station_id":"","pricing_plan_id":"cebpf4jnsgd1na2vs0mg"},{"bike_id":"e78aebb9-b8c1-4b48-b32b-9642a4858ade","system_id":"levelo_inurba_marseille","lat":43.27811,"lon":5.40708,"is_reserved":false,"is_disabled":false,"rental_uris":{"android":"levelo://app?vid=e78aebb9-b8c1-4b48-b32b-9642a4858ade","ios":"levelo://app?vid=e78aebb9-b8c1-4b48-b32b-9642a4858ade"},"vehicle_type_id":"4","last_reported":1742559489,"current_range_meters":6800,"station_id":"ce4bhnh2rcd13ifvqgtg","pricing_plan_id":"cebpf4jnsgd1na2vs0mg"},{"bike_id":"a1d4474e-dc54-4e96-8359-81b099ba1a93","system_id":"levelo_inurba_marseille","lat":43.23188,"lon":5.39989,"is_reserved":false,"is_disabled":false,"rental_uris":{"android":"levelo://app?vid=a1d4474e-dc54-4e96-8359-81b099ba1a93","ios":"levelo://app?vid=a1d4474e-dc54-4e96-8359-81b099ba1a93"},"vehicle_type_id":"4","last_reported":1742559489,"current_range_meters":7200,"station_id":"ce4bhn12rcd13ifvqgqg","pricing_plan_id":"cebpf4jnsgd1na2vs0mg"},{"bike_id":"93b15183-cc40-4acf-a9da-87d2df9029d6","system_id":"levelo_inurba_marseille","lat":43.28941,"lon":5.3665,"is_reserved":false,"is_disabled":false,"rental_uris":{"android":"levelo://app?vid=93b15183-cc40-4acf-a9da-87d2df9029d6","ios":"levelo://app?vid=93b15183-cc40-4acf-a9da-87d2df9029d6"},"vehicle_type_id":"4","last_reported":1742559489,"current_range_meters":7200,"station_id":"ce4bhap2rcd13ifvqek0","pricing_plan_id":"cebpf4jnsgd1na2vs0mg"},{"bike_id":"a0deeb6c-62a7-4efb-834c-1bec837aaba6","system_id":"levelo_inurba_marseille","lat":43.33664,"lon":5.37891,"is_reserved":false,"is_disabled":false,"rental_uris":{"android":"levelo://app?vid=a0deeb6c-62a7-4efb-834c-1bec837aaba6","ios":"levelo://app?vid=a0deeb6c-62a7-4efb-834c-1bec837aaba6"},"vehicle_type_id":"4","last_reported":1742559489,"current_range_meters":7200,"station_id":"","pricing_plan_id":"cebpf4jnsgd1na2vs0mg"},{"bike_id":"bd358072-6bfb-47dd-adcd-1cd7f675d4f7","system_id":"levelo_inurba_marseille","lat":43.2678,"lon":5.3942,"is_reserved":false,"is_disabled":false,"rental_uris":{"android":"levelo://app?vid=bd358072-6bfb-47dd-adcd-1cd7f675d4f7","ios":"levelo://app?vid=bd358072-6bfb-47dd-adcd-1cd7f675d4f7"},"vehicle_type_id":"4","last_reported":1742559489,"current_range_meters":7200,"station_id":"ce4bhh12rcd13ifvqfg0","pricing_plan_id":"cebpf4jnsgd1na2vs0mg"},{"bike_id":"ffbee1c9-ab8d-45ee-b606-c546ab78c5f2","system_id":"levelo_inurba_marseille","lat":43.29733,"lon":5.37789,"is_reserved":false,"is_disabled":false,"rental_uris":{"android":"levelo://app?vid=ffbee1c9-ab8d-45ee-b606-c546ab78c5f2","ios":"levelo://app?vid=ffbee1c9-ab8d-45ee-b606-c546ab78c5f2"},"vehicle_type_id":"4","last_reported":1742559489,"current_range_meters":7200,"station_id":"","pricing_plan_id":"cebpf4jnsgd1na2vs0mg"},{"bike_id":"24e7619e-1200-4ec6-9e20-bdc768c08f30","system_id":"levelo_inurba_marseille","lat":43.23189,"lon":5.35558,"is_reserved":false,"is_disabled":false,"rental_uris":{"android":"levelo://app?vid=24e7619e-1200-4ec6-9e20-bdc768c08f30","ios":"levelo://app?vid=24e7619e-1200-4ec6-9e20-bdc768c08f30"},"vehicle_type_id":"4","last_reported":1742559489,"current_range_meters":7200,"station_id":"ce4bhu92rcd13ifvqi70","pricing_plan_id":"cebpf4jnsgd1na2vs0mg"},{"bike_id":"eaa26bc4-0fa7-44e0-bbab-c38617ea2831","system_id":"levelo_inurba_marseille","lat":43.25133,"lon":5.40311,"is_reserved":false,"is_disabled":false,"rental_uris":{"android":"levelo://app?vid=eaa26bc4-0fa7-44e0-bbab-c38617ea2831","ios":"levelo://app?vid=eaa26bc4-0fa7-44e0-bbab-c38617ea2831"},"vehicle_type_id":"4","last_reported":1742559489,"current_range_meters":7200,"station_id":"ce4bhlh2rcd13ifvqgig","pricing_plan_id":"cebpf4jnsgd1na2vs0mg"},{"bike_id":"bb39998e-5536-4c01-9649-aa23c9e877a2","system_id":"levelo_inurba_marseille","lat":43.24546,"lon":5.39533,"is_reserved":false,"is_disabled":false,"rental_uris":{"android":"levelo://app?vid=bb39998e-5536-4c01-9649-aa23c9e877a2","ios":"levelo://app?vid=bb39998e-5536-4c01-9649-aa23c9e877a2"},"vehicle_type_id":"4","last_reported":1742559489,"current_range_meters":7200,"station_id":"ce4bhlp2rcd13ifvqgjg","pricing_plan_id":"cebpf4jnsgd1na2vs0mg"},{"bike_id":"b9e4bdd0-024c-4547-9a94-39d0c7923642","system_id":"levelo_inurba_marseille","lat":43.241715,"lon":5.363978,"is_reserved":false,"is_disabled":false,"rental_uris":{"android":"levelo://app?vid=b9e4bdd0-024c-4547-9a94-39d0c7923642","ios":"levelo://app?vid=b9e4bdd0-024c-4547-9a94-39d0c7923642"},"vehicle_type_id":"4","last_reported":1742559489,"current_range_meters":7200,"station_id":"cpo36qri1sfpv3e86is0","pricing_plan_id":"cebpf4jnsgd1na2vs0mg"},{"bike_id":"52ab18a4-f882-4322-900d-321ff324b268","system_id":"levelo_inurba_marseille","lat":43.29379,"lon":5.37843,"is_reserved":false,"is_disabled":false,"rental_uris":{"android":"levelo://app?vid=52ab18a4-f882-4322-900d-321ff324b268","ios":"levelo://app?vid=52ab18a4-f882-4322-900d-321ff324b268"},"vehicle_type_id":"4","last_reported":1742559489,"current_range_meters":7200,"station_id":"ce4bgjh2rcd13ifvqbf0","pricing_plan_id":"cebpf4jnsgd1na2vs0mg"},{"bike_id":"c5bb5dca-1dc9-450e-9a3d-9fa737cf345d","system_id":"levelo_inurba_marseille","lat":43.24653,"lon":5.38873,"is_reserved":false,"is_disabled":false,"rental_uris":{"android":"levelo://app?vid=c5bb5dca-1dc9-450e-9a3d-9fa737cf345d","ios":"levelo://app?vid=c5bb5dca-1dc9-450e-9a3d-9fa737cf345d"},"vehicle_type_id":"4","last_reported":1742559489,"current_range_meters":7200,"station_id":"ce4bhg12rcd13ifvqf60","pricing_plan_id":"cebpf4jnsgd1na2vs0mg"},{"bike_id":"74ca8f8e-770f-4c39-9bcc-04d356dfc1fe","system_id":"levelo_inurba_marseille","lat":43.32475,"lon":5.366,"is_reserved":false,"is_disabled":false,"rental_uris":{"android":"levelo://app?vid=74ca8f8e-770f-4c39-9bcc-04d356dfc1fe","ios":"levelo://app?vid=74ca8f8e-770f-4c39-9bcc-04d356dfc1fe"},"vehicle_type_id":"4","last_reported":1742559489,"current_range_meters":8000,"station_id":"ce4bhs12rcd13ifvqhvg","pricing_plan_id":"cebpf4jnsgd1na2vs0mg"},{"bike_id":"32e3927b-12d0-4b1a-9923-ea2f64ded6c1","system_id":"levelo_inurba_marseille","lat":43.28171,"lon":5.42625,"is_reserved":false,"is_disabled":false,"rental_uris":{"android":"levelo://app?vid=32e3927b-12d0-4b1a-9923-ea2f64ded6c1","ios":"levelo://app?vid=32e3927b-12d0-4b1a-9923-ea2f64ded6c1"},"vehicle_type_id":"4","last_reported":1742559489,"current_range_meters":8000,"station_id":"ce4bhnh2rcd13ifvqgug","pricing_plan_id":"cebpf4jnsgd1na2vs0mg"},{"bike_id":"461908e2-a1c7-43db-8d5e-a6f1e536cf5c","system_id":"levelo_inurba_marseille","lat":43.27837,"lon":5.39209,"is_reserved":false,"is_disabled":false,"rental_uris":{"android":"levelo://app?vid=461908e2-a1c7-43db-8d5e-a6f1e536cf5c","ios":"levelo://app?vid=461908e2-a1c7-43db-8d5e-a6f1e536cf5c"},"vehicle_type_id":"4","last_reported":1742559489,"current_range_meters":7200,"station_id":"ce4bhjp2rcd13ifvqga0","pricing_plan_id":"cebpf4jnsgd1na2vs0mg"},{"bike_id":"298094ff-1b8f-403e-b315-5326030acb86","system_id":"levelo_inurba_marseille","lat":43.28154,"lon":5.42649,"is_reserved":false,"is_disabled":false,"rental_uris":{"android":"levelo://app?vid=298094ff-1b8f-403e-b315-5326030acb86","ios":"levelo://app?vid=298094ff-1b8f-403e-b315-5326030acb86"},"vehicle_type_id":"4","last_reported":1742559489,"current_range_meters":8000,"station_id":"ce4bhnh2rcd13ifvqgug","pricing_plan_id":"cebpf4jnsgd1na2vs0mg"},{"bike_id":"1e736923-ea4a-4708-bf10-7f0da898f396","system_id":"levelo_inurba_marseille","lat":43.27944,"lon":5.41033,"is_reserved":false,"is_disabled":false,"rental_uris":{"android":"levelo://app?vid=1e736923-ea4a-4708-bf10-7f0da898f396","ios":"levelo://app?vid=1e736923-ea4a-4708-bf10-7f0da898f396"},"vehicle_type_id":"4","last_reported":1742559489,"current_range_meters":8000,"station_id":"ce4bhnp2rcd13ifvqh0g","pricing_plan_id":"cebpf4jnsgd1na2vs0mg"},{"bike_id":"1650c152-e083-415c-b118-5516ca869cbf","system_id":"levelo_inurba_marseille","lat":43.26952,"lon":5.38632,"is_reserved":false,"is_disabled":false,"rental_uris":{"android":"levelo://app?vid=1650c152-e083-415c-b118-5516ca869cbf","ios":"levelo://app?vid=1650c152-e083-415c-b118-5516ca869cbf"},"vehicle_type_id":"4","last_reported":1742559489,"current_range_meters":8000,"station_id":"ce4bhh92rcd13ifvqfh0","pricing_plan_id":"cebpf4jnsgd1na2vs0mg"},{"bike_id":"0927813d-4d6f-49fc-95c0-1b19a08eb19b","system_id":"levelo_inurba_marseille","lat":43.23165,"lon":5.43754,"is_reserved":false,"is_disabled":false,"rental_uris":{"android":"levelo://app?vid=0927813d-4d6f-49fc-95c0-1b19a08eb19b","ios":"levelo://app?vid=0927813d-4d6f-49fc-95c0-1b19a08eb19b"},"vehicle_type_id":"4","last_reported":1742559489,"current_range_meters":8000,"station_id":"","pricing_plan_id":"cebpf4jnsgd1na2vs0mg"},{"bike_id":"ad4b4d2f-b5da-44ee-a3fc-e2c606d797d6","system_id":"levelo_inurba_marseille","lat":43.29263,"lon":5.37618,"is_reserved":false,"is_disabled":false,"rental_uris":{"android":"levelo://app?vid=ad4b4d2f-b5da-44ee-a3fc-e2c606d797d6","ios":"levelo://app?vid=ad4b4d2f-b5da-44ee-a3fc-e2c606d797d6"},"vehicle_type_id":"4","last_reported":1742559489,"current_range_meters":8000,"station_id":"ce4bgi12rcd13ifvqb80","pricing_plan_id":"cebpf4jnsgd1na2vs0mg"},{"bike_id":"e617fadc-609d-4332-b29e-e6d16aa5ecb4","system_id":"levelo_inurba_marseille","lat":43.27823,"lon":5.40706,"is_reserved":false,"is_disabled":false,"rental_uris":{"android":"levelo://app?vid=e617fadc-609d-4332-b29e-e6d16aa5ecb4","ios":"levelo://app?vid=e617fadc-609d-4332-b29e-e6d16aa5ecb4"},"vehicle_type_id":"4","last_reported":1742559489,"current_range_meters":8000,"station_id":"ce4bhnh2rcd13ifvqgtg","pricing_plan_id":"cebpf4jnsgd1na2vs0mg"},{"bike_id":"d15c630a-acc1-4278-b4d1-feb375d3df70","system_id":"levelo_inurba_marseille","lat":43.30472,"lon":5.3792,"is_reserved":false,"is_disabled":false,"rental_uris":{"android":"levelo://app?vid=d15c630a-acc1-4278-b4d1-feb375d3df70","ios":"levelo://app?vid=d15c630a-acc1-4278-b4d1-feb375d3df70"},"vehicle_type_id":"4","last_reported":1742559489,"current_range_meters":8000,"station_id":"ce4bgup2rcd13ifvqcn0","pricing_plan_id":"cebpf4jnsgd1na2vs0mg"},{"bike_id":"caf327ee-0718-40f1-8a49-7a70f510b0a8","system_id":"levelo_inurba_marseille","lat":43.26957,"lon":5.38631,"is_reserved":false,"is_disabled":true,"rental_uris":{"android":"levelo://app?vid=caf327ee-0718-40f1-8a49-7a70f510b0a8","ios":"levelo://app?vid=caf327ee-0718-40f1-8a49-7a70f510b0a8"},"vehicle_type_id":"4","last_reported":1742559489,"current_range_meters":8000,"station_id":"ce4bhh92rcd13ifvqfh0","pricing_plan_id":"cebpf4jnsgd1na2vs0mg"},{"bike_id":"1d8daad7-9bb4-40dd-adfc-e589f483368c","system_id":"levelo_inurba_marseille","lat":43.25823,"lon":5.3944,"is_reserved":false,"is_disabled":false,"rental_uris":{"android":"levelo://app?vid=1d8daad7-9bb4-40dd-adfc-e589f483368c","ios":"levelo://app?vid=1d8daad7-9bb4-40dd-adfc-e589f483368c"},"vehicle_type_id":"4","last_reported":1742559489,"current_range_meters":8400,"station_id":"ce4bhip2rcd13ifvqft0","pricing_plan_id":"cebpf4jnsgd1na2vs0mg"},{"bike_id":"e5c14285-2e1d-41d9-bab9-ae38b8ffec63","system_id":"levelo_inurba_marseille","lat":43.33609,"lon":5.41018,"is_reserved":false,"is_disabled":false,"rental_uris":{"android":"levelo://app?vid=e5c14285-2e1d-41d9-bab9-ae38b8ffec63","ios":"levelo://app?vid=e5c14285-2e1d-41d9-bab9-ae38b8ffec63"},"vehicle_type_id":"4","last_reported":1742559489,"current_range_meters":8400,"station_id":"ce4bhqh2rcd13ifvqhmg","pricing_plan_id":"cebpf4jnsgd1na2vs0mg"},{"bike_id":"be38586b-e5dc-4232-ab17-bdf14f9705ea","system_id":"levelo_inurba_marseille","lat":43.28149,"lon":5.42634,"is_reserved":false,"is_disabled":false,"rental_uris":{"android":"levelo://app?vid=be38586b-e5dc-4232-ab17-bdf14f9705ea","ios":"levelo://app?vid=be38586b-e5dc-4232-ab17-bdf14f9705ea"},"vehicle_type_id":"4","last_reported":1742559489,"current_range_meters":8400,"station_id":"ce4bhnh2rcd13ifvqgug","pricing_plan_id":"cebpf4jnsgd1na2vs0mg"},{"bike_id":"295c917f-439b-4317-a3c5-c06ef1a33c47","system_id":"levelo_inurba_marseille","lat":43.27807,"lon":5.40718,"is_reserved":false,"is_disabled":false,"rental_uris":{"android":"levelo://app?vid=295c917f-439b-4317-a3c5-c06ef1a33c47","ios":"levelo://app?vid=295c917f-439b-4317-a3c5-c06ef1a33c47"},"vehicle_type_id":"4","last_reported":1742559489,"current_range_meters":8400,"station_id":"ce4bhnh2rcd13ifvqgtg","pricing_plan_id":"cebpf4jnsgd1na2vs0mg"},{"bike_id":"9426c1c3-156d-4ba8-b6b7-37c5a7501823","system_id":"levelo_inurba_marseille","lat":43.26811,"lon":5.40254,"is_reserved":false,"is_disabled":false,"rental_uris":{"android":"levelo://app?vid=9426c1c3-156d-4ba8-b6b7-37c5a7501823","ios":"levelo://app?vid=9426c1c3-156d-4ba8-b6b7-37c5a7501823"},"vehicle_type_id":"4","last_reported":1742559489,"current_range_meters":8400,"station_id":"ce501612rcd8frsf0b60","pricing_plan_id":"cebpf4jnsgd1na2vs0mg"},{"bike_id":"06a8fed1-a2dd-4968-b7d8-e4f251814522","system_id":"levelo_inurba_marseille","lat":43.2696,"lon":5.38633,"is_reserved":false,"is_disabled":false,"rental_uris":{"android":"levelo://app?vid=06a8fed1-a2dd-4968-b7d8-e4f251814522","ios":"levelo://app?vid=06a8fed1-a2dd-4968-b7d8-e4f251814522"},"vehicle_type_id":"4","last_reported":1742559489,"current_range_meters":8400,"station_id":"ce4bhh92rcd13ifvqfh0","pricing_plan_id":"cebpf4jnsgd1na2vs0mg"},{"bike_id":"d0d8572d-6eca-4176-a9dc-16547878fac8","system_id":"levelo_inurba_marseille","lat":43.28356,"lon":5.38641,"is_reserved":false,"is_disabled":false,"rental_uris":{"android":"levelo://app?vid=d0d8572d-6eca-4176-a9dc-16547878fac8","ios":"levelo://app?vid=d0d8572d-6eca-4176-a9dc-16547878fac8"},"vehicle_type_id":"4","last_reported":1742559489,"current_range_meters":8800,"station_id":"ce4bh492rcd13ifvqdvg","pricing_plan_id":"cebpf4jnsgd1na2vs0mg"},{"bike_id":"62bf2f5c-9819-4816-afad-4a268d7a76b8","system_id":"levelo_inurba_marseille","lat":43.24171,"lon":5.3639,"is_reserved":false,"is_disabled":false,"rental_uris":{"android":"levelo://app?vid=62bf2f5c-9819-4816-afad-4a268d7a76b8","ios":"levelo://app?vid=62bf2f5c-9819-4816-afad-4a268d7a76b8"},"vehicle_type_id":"4","last_reported":1742559489,"current_range_meters":8800,"station_id":"cpo36qri1sfpv3e86is0","pricing_plan_id":"cebpf4jnsgd1na2vs0mg"},{"bike_id":"04c1ea18-a0b0-40b9-97da-a40d123a7321","system_id":"levelo_inurba_marseille","lat":43.27934,"lon":5.41036,"is_reserved":false,"is_disabled":false,"rental_uris":{"android":"levelo://app?vid=04c1ea18-a0b0-40b9-97da-a40d123a7321","ios":"levelo://app?vid=04c1ea18-a0b0-40b9-97da-a40d123a7321"},"vehicle_type_id":"4","last_reported":1742559489,"current_range_meters":8800,"station_id":"ce4bhnp2rcd13ifvqh0g","pricing_plan_id":"cebpf4jnsgd1na2vs0mg"},{"bike_id":"11c23189-7dc3-44b2-ac27-9dc7f3510fb3","system_id":"levelo_inurba_marseille","lat":43.28419,"lon":5.37499,"is_reserved":false,"is_disabled":false,"rental_uris":{"android":"levelo://app?vid=11c23189-7dc3-44b2-ac27-9dc7f3510fb3","ios":"levelo://app?vid=11c23189-7dc3-44b2-ac27-9dc7f3510fb3"},"vehicle_type_id":"4","last_reported":1742559489,"current_range_meters":8800,"station_id":"ce4bh412rcd13ifvqds0","pricing_plan_id":"cebpf4jnsgd1na2vs0mg"},{"bike_id":"2678929a-312d-4089-b116-1e816de7db90","system_id":"levelo_inurba_marseille","lat":43.32121,"lon":5.36757,"is_reserved":false,"is_disabled":false,"rental_uris":{"android":"levelo://app?vid=2678929a-312d-4089-b116-1e816de7db90","ios":"levelo://app?vid=2678929a-312d-4089-b116-1e816de7db90"},"vehicle_type_id":"4","last_reported":1742559489,"current_range_meters":8800,"station_id":"ce4bhrh2rcd13ifvqhug","pricing_plan_id":"cebpf4jnsgd1na2vs0mg"},{"bike_id":"2538143b-ce35-4121-88d6-2a5bb3504c70","system_id":"levelo_inurba_marseille","lat":43.27814,"lon":5.40707,"is_reserved":false,"is_disabled":false,"rental_uris":{"android":"levelo://app?vid=2538143b-ce35-4121-88d6-2a5bb3504c70","ios":"levelo://app?vid=2538143b-ce35-4121-88d6-2a5bb3504c70"},"vehicle_type_id":"4","last_reported":1742559489,"current_range_meters":8800,"station_id":"ce4bhnh2rcd13ifvqgtg","pricing_plan_id":"cebpf4jnsgd1na2vs0mg"},{"bike_id":"037dbfe4-6d41-4ed0-a07d-0521a0c84e5d","system_id":"levelo_inurba_marseille","lat":43.26233,"lon":5.37422,"is_reserved":false,"is_disabled":false,"rental_uris":{"android":"levelo://app?vid=037dbfe4-6d41-4ed0-a07d-0521a0c84e5d","ios":"levelo://app?vid=037dbfe4-6d41-4ed0-a07d-0521a0c84e5d"},"vehicle_type_id":"4","last_reported":1742559489,"current_range_meters":8800,"station_id":"ce4bhgp2rcd13ifvqfc0","pricing_plan_id":"cebpf4jnsgd1na2vs0mg"},{"bike_id":"11fdf9cc-7711-455b-81a9-915749797290","system_id":"levelo_inurba_marseille","lat":43.30607,"lon":5.393743,"is_reserved":false,"is_disabled":false,"rental_uris":{"android":"levelo://app?vid=11fdf9cc-7711-455b-81a9-915749797290","ios":"levelo://app?vid=11fdf9cc-7711-455b-81a9-915749797290"},"vehicle_type_id":"4","last_reported":1742559489,"current_range_meters":8800,"station_id":"ce4bgjp2rcd13ifvqbh0","pricing_plan_id":"cebpf4jnsgd1na2vs0mg"},{"bike_id":"2b8fd97d-92e8-41f5-a38e-264c356c08a7","system_id":"levelo_inurba_marseille","lat":43.29527,"lon":5.38549,"is_reserved":false,"is_disabled":false,"rental_uris":{"android":"levelo://app?vid=2b8fd97d-92e8-41f5-a38e-264c356c08a7","ios":"levelo://app?vid=2b8fd97d-92e8-41f5-a38e-264c356c08a7"},"vehicle_type_id":"4","last_reported":1742559489,"current_range_meters":8800,"station_id":"ce4bgih2rcd13ifvqba0","pricing_plan_id":"cebpf4jnsgd1na2vs0mg"},{"bike_id":"1c3b5361-695c-4ccc-94f9-aca7f37b6d45","system_id":"levelo_inurba_marseille","lat":43.23183,"lon":5.35569,"is_reserved":false,"is_disabled":false,"rental_uris":{"android":"levelo://app?vid=1c3b5361-695c-4ccc-94f9-aca7f37b6d45","ios":"levelo://app?vid=1c3b5361-695c-4ccc-94f9-aca7f37b6d45"},"vehicle_type_id":"4","last_reported":1742559489,"current_range_meters":9200,"station_id":"ce4bhu92rcd13ifvqi70","pricing_plan_id":"cebpf4jnsgd1na2vs0mg"},{"bike_id":"9d87eaf5-326d-495f-a80f-e96261b34364","system_id":"levelo_inurba_marseille","lat":43.31352,"lon":5.36718,"is_reserved":false,"is_disabled":false,"rental_uris":{"android":"levelo://app?vid=9d87eaf5-326d-495f-a80f-e96261b34364","ios":"levelo://app?vid=9d87eaf5-326d-495f-a80f-e96261b34364"},"vehicle_type_id":"4","last_reported":1742559489,"current_range_meters":9200,"station_id":"ce4bgr92rcd13ifvqc6g","pricing_plan_id":"cebpf4jnsgd1na2vs0mg"},{"bike_id":"150a66cb-98a7-4843-8aec-45850596fd3a","system_id":"levelo_inurba_marseille","lat":43.283525,"lon":5.38112,"is_reserved":false,"is_disabled":true,"rental_uris":{"android":"levelo://app?vid=150a66cb-98a7-4843-8aec-45850596fd3a","ios":"levelo://app?vid=150a66cb-98a7-4843-8aec-45850596fd3a"},"vehicle_type_id":"4","last_reported":1742559489,"current_range_meters":9200,"station_id":"ce4bh412rcd13ifvqdr0","pricing_plan_id":"cebpf4jnsgd1na2vs0mg"},{"bike_id":"31ba5937-48f4-487d-85b0-bd6c0014621f","system_id":"levelo_inurba_marseille","lat":43.31486,"lon":5.37313,"is_reserved":false,"is_disabled":false,"rental_uris":{"android":"levelo://app?vid=31ba5937-48f4-487d-85b0-bd6c0014621f","ios":"levelo://app?vid=31ba5937-48f4-487d-85b0-bd6c0014621f"},"vehicle_type_id":"4","last_reported":1742559489,"current_range_meters":9200,"station_id":"ce4bgt12rcd13ifvqcd0","pricing_plan_id":"cebpf4jnsgd1na2vs0mg"},{"bike_id":"86859bc8-cdf3-4c55-a231-e1ff87943727","system_id":"levelo_inurba_marseille","lat":43.31502,"lon":5.3728,"is_reserved":false,"is_disabled":false,"rental_uris":{"android":"levelo://app?vid=86859bc8-cdf3-4c55-a231-e1ff87943727","ios":"levelo://app?vid=86859bc8-cdf3-4c55-a231-e1ff87943727"},"vehicle_type_id":"4","last_reported":1742559489,"current_range_meters":9600,"station_id":"ce4bgt12rcd13ifvqcd0","pricing_plan_id":"cebpf4jnsgd1na2vs0mg"},{"bike_id":"f2387910-c486-4275-a7ab-dbeb87afdc12","system_id":"levelo_inurba_marseille","lat":43.3373,"lon":5.39192,"is_reserved":false,"is_disabled":false,"rental_uris":{"android":"levelo://app?vid=f2387910-c486-4275-a7ab-dbeb87afdc12","ios":"levelo://app?vid=f2387910-c486-4275-a7ab-dbeb87afdc12"},"vehicle_type_id":"4","last_reported":1742559489,"current_range_meters":9600,"station_id":"ce4bhr92rcd13ifvqhsg","pricing_plan_id":"cebpf4jnsgd1na2vs0mg"},{"bike_id":"9fcb3f14-f368-4f79-aa70-01b27150c36b","system_id":"levelo_inurba_marseille","lat":43.30628,"lon":5.37227,"is_reserved":false,"is_disabled":false,"rental_uris":{"android":"levelo://app?vid=9fcb3f14-f368-4f79-aa70-01b27150c36b","ios":"levelo://app?vid=9fcb3f14-f368-4f79-aa70-01b27150c36b"},"vehicle_type_id":"4","last_reported":1742559489,"current_range_meters":9600,"station_id":"ce4bgqh2rcd13ifvqc4g","pricing_plan_id":"cebpf4jnsgd1na2vs0mg"},{"bike_id":"c7f0b1a9-d1cb-4001-8f4e-99b174944710","system_id":"levelo_inurba_marseille","lat":43.26574,"lon":5.38978,"is_reserved":false,"is_disabled":false,"rental_uris":{"android":"levelo://app?vid=c7f0b1a9-d1cb-4001-8f4e-99b174944710","ios":"levelo://app?vid=c7f0b1a9-d1cb-4001-8f4e-99b174944710"},"vehicle_type_id":"4","last_reported":1742559489,"current_range_meters":9600,"station_id":"ce4bhe12rcd13ifvqf30","pricing_plan_id":"cebpf4jnsgd1na2vs0mg"},{"bike_id":"ca38fcd6-3c68-4041-b15a-86267bca2e49","system_id":"levelo_inurba_marseille","lat":43.32497,"lon":5.36553,"is_reserved":false,"is_disabled":false,"rental_uris":{"android":"levelo://app?vid=ca38fcd6-3c68-4041-b15a-86267bca2e49","ios":"levelo://app?vid=ca38fcd6-3c68-4041-b15a-86267bca2e49"},"vehicle_type_id":"4","last_reported":1742559489,"current_range_meters":9600,"station_id":"ce4bhs12rcd13ifvqhvg","pricing_plan_id":"cebpf4jnsgd1na2vs0mg"},{"bike_id":"a67c54b6-5ce9-4632-8070-5ca7d5b7fc9e","system_id":"levelo_inurba_marseille","lat":43.23058,"lon":5.35503,"is_reserved":false,"is_disabled":false,"rental_uris":{"android":"levelo://app?vid=a67c54b6-5ce9-4632-8070-5ca7d5b7fc9e","ios":"levelo://app?vid=a67c54b6-5ce9-4632-8070-5ca7d5b7fc9e"},"vehicle_type_id":"4","last_reported":1742559489,"current_range_meters":9600,"station_id":"cpo3342slgdg3j2ifvpg","pricing_plan_id":"cebpf4jnsgd1na2vs0mg"},{"bike_id":"3a260712-d654-4076-bb8e-2d2c938680e2","system_id":"levelo_inurba_marseille","lat":43.33603,"lon":5.41027,"is_reserved":false,"is_disabled":false,"rental_uris":{"android":"levelo://app?vid=3a260712-d654-4076-bb8e-2d2c938680e2","ios":"levelo://app?vid=3a260712-d654-4076-bb8e-2d2c938680e2"},"vehicle_type_id":"4","last_reported":1742559489,"current_range_meters":9600,"station_id":"ce4bhqh2rcd13ifvqhmg","pricing_plan_id":"cebpf4jnsgd1na2vs0mg"},{"bike_id":"f46028db-639b-4ac9-a49b-cda41a7ceabc","system_id":"levelo_inurba_marseille","lat":43.28937,"lon":5.36388,"is_reserved":false,"is_disabled":false,"rental_uris":{"android":"levelo://app?vid=f46028db-639b-4ac9-a49b-cda41a7ceabc","ios":"levelo://app?vid=f46028db-639b-4ac9-a49b-cda41a7ceabc"},"vehicle_type_id":"4","last_reported":1742559489,"current_range_meters":9600,"station_id":"ce4bhc92rcd13ifvqetg","pricing_plan_id":"cebpf4jnsgd1na2vs0mg"},{"bike_id":"796673ce-b4a3-44d5-b6c5-461278dc1540","system_id":"levelo_inurba_marseille","lat":43.29031,"lon":5.38651,"is_reserved":false,"is_disabled":false,"rental_uris":{"android":"levelo://app?vid=796673ce-b4a3-44d5-b6c5-461278dc1540","ios":"levelo://app?vid=796673ce-b4a3-44d5-b6c5-461278dc1540"},"vehicle_type_id":"4","last_reported":1742559489,"current_range_meters":9600,"station_id":"ce4bh4p2rcd13ifvqe0g","pricing_plan_id":"cebpf4jnsgd1na2vs0mg"},{"bike_id":"aa998e82-ea1a-49f9-bf10-cbc4957eb9b9","system_id":"levelo_inurba_marseille","lat":43.23958,"lon":5.36625,"is_reserved":false,"is_disabled":false,"rental_uris":{"android":"levelo://app?vid=aa998e82-ea1a-49f9-bf10-cbc4957eb9b9","ios":"levelo://app?vid=aa998e82-ea1a-49f9-bf10-cbc4957eb9b9"},"vehicle_type_id":"4","last_reported":1742559489,"current_range_meters":9600,"station_id":"ce4bhi12rcd13ifvqfp0","pricing_plan_id":"cebpf4jnsgd1na2vs0mg"},{"bike_id":"a3251066-4c40-4122-a906-99c3befc3d95","system_id":"levelo_inurba_marseille","lat":43.31378,"lon":5.36684,"is_reserved":false,"is_disabled":false,"rental_uris":{"android":"levelo://app?vid=a3251066-4c40-4122-a906-99c3befc3d95","ios":"levelo://app?vid=a3251066-4c40-4122-a906-99c3befc3d95"},"vehicle_type_id":"4","last_reported":1742559489,"current_range_meters":10000,"station_id":"ce4bgr92rcd13ifvqc6g","pricing_plan_id":"cebpf4jnsgd1na2vs0mg"},{"bike_id":"a6dbdc31-7c1a-4eac-8ed1-7b139156d648","system_id":"levelo_inurba_marseille","lat":43.25872,"lon":5.39895,"is_reserved":false,"is_disabled":false,"rental_uris":{"android":"levelo://app?vid=a6dbdc31-7c1a-4eac-8ed1-7b139156d648","ios":"levelo://app?vid=a6dbdc31-7c1a-4eac-8ed1-7b139156d648"},"vehicle_type_id":"4","last_reported":1742559489,"current_range_meters":10000,"station_id":"ce4bhl92rcd13ifvqghg","pricing_plan_id":"cebpf4jnsgd1na2vs0mg"},{"bike_id":"899ab87e-4ea4-40e5-9304-e09f83aad3d0","system_id":"levelo_inurba_marseille","lat":43.23977,"lon":5.36619,"is_reserved":false,"is_disabled":false,"rental_uris":{"android":"levelo://app?vid=899ab87e-4ea4-40e5-9304-e09f83aad3d0","ios":"levelo://app?vid=899ab87e-4ea4-40e5-9304-e09f83aad3d0"},"vehicle_type_id":"4","last_reported":1742559489,"current_range_meters":10000,"station_id":"ce4bhi12rcd13ifvqfp0","pricing_plan_id":"cebpf4jnsgd1na2vs0mg"},{"bike_id":"bcf954c5-fa99-4795-b546-656bf3539c32","system_id":"levelo_inurba_marseille","lat":43.29613,"lon":5.37705,"is_reserved":false,"is_disabled":false,"rental_uris":{"android":"levelo://app?vid=bcf954c5-fa99-4795-b546-656bf3539c32","ios":"levelo://app?vid=bcf954c5-fa99-4795-b546-656bf3539c32"},"vehicle_type_id":"4","last_reported":1742559489,"current_range_meters":10000,"station_id":"ce4bgi92rcd13ifvqb90","pricing_plan_id":"cebpf4jnsgd1na2vs0mg"},{"bike_id":"8294ba95-4caa-488d-bd32-52d49262ead9","system_id":"levelo_inurba_marseille","lat":43.26953,"lon":5.38633,"is_reserved":false,"is_disabled":false,"rental_uris":{"android":"levelo://app?vid=8294ba95-4caa-488d-bd32-52d49262ead9","ios":"levelo://app?vid=8294ba95-4caa-488d-bd32-52d49262ead9"},"vehicle_type_id":"4","last_reported":1742559489,"current_range_meters":10000,"station_id":"ce4bhh92rcd13ifvqfh0","pricing_plan_id":"cebpf4jnsgd1na2vs0mg"},{"bike_id":"50bc48b3-9240-4933-9d6c-04bfce2d5021","system_id":"levelo_inurba_marseille","lat":43.2991,"lon":5.38141,"is_reserved":false,"is_disabled":false,"rental_uris":{"android":"levelo://app?vid=50bc48b3-9240-4933-9d6c-04bfce2d5021","ios":"levelo://app?vid=50bc48b3-9240-4933-9d6c-04bfce2d5021"},"vehicle_type_id":"4","last_reported":1742559489,"current_range_meters":10000,"station_id":"ce4bgj12rcd13ifvqbc0","pricing_plan_id":"cebpf4jnsgd1na2vs0mg"},{"bike_id":"fd63a192-a2ae-4c1d-aa3f-4b573664d6e9","system_id":"levelo_inurba_marseille","lat":43.31378,"lon":5.36693,"is_reserved":false,"is_disabled":false,"rental_uris":{"android":"levelo://app?vid=fd63a192-a2ae-4c1d-aa3f-4b573664d6e9","ios":"levelo://app?vid=fd63a192-a2ae-4c1d-aa3f-4b573664d6e9"},"vehicle_type_id":"4","last_reported":1742559489,"current_range_meters":10000,"station_id":"ce4bgr92rcd13ifvqc6g","pricing_plan_id":"cebpf4jnsgd1na2vs0mg"},{"bike_id":"bf5d7bdb-65a8-4310-b955-6a76e2cbd7fe","system_id":"levelo_inurba_marseille","lat":43.33711,"lon":5.39211,"is_reserved":false,"is_disabled":false,"rental_uris":{"android":"levelo://app?vid=bf5d7bdb-65a8-4310-b955-6a76e2cbd7fe","ios":"levelo://app?vid=bf5d7bdb-65a8-4310-b955-6a76e2cbd7fe"},"vehicle_type_id":"4","last_reported":1742559489,"current_range_meters":10000,"station_id":"ce4bhr92rcd13ifvqhsg","pricing_plan_id":"cebpf4jnsgd1na2vs0mg"},{"bike_id":"849ed778-563c-4385-b3a0-222c5dbfd0d6","system_id":"levelo_inurba_marseille","lat":43.25949,"lon":5.40905,"is_reserved":false,"is_disabled":false,"rental_uris":{"android":"levelo://app?vid=849ed778-563c-4385-b3a0-222c5dbfd0d6","ios":"levelo://app?vid=849ed778-563c-4385-b3a0-222c5dbfd0d6"},"vehicle_type_id":"4","last_reported":1742559489,"current_range_meters":10000,"station_id":"ce4bhm92rcd13ifvqglg","pricing_plan_id":"cebpf4jnsgd1na2vs0mg"},{"bike_id":"32c136b5-47bb-4db2-974c-debde23c849b","system_id":"levelo_inurba_marseille","lat":43.29252,"lon":5.37635,"is_reserved":false,"is_disabled":false,"rental_uris":{"android":"levelo://app?vid=32c136b5-47bb-4db2-974c-debde23c849b","ios":"levelo://app?vid=32c136b5-47bb-4db2-974c-debde23c849b"},"vehicle_type_id":"4","last_reported":1742559489,"current_range_meters":10000,"station_id":"ce4bgi12rcd13ifvqb80","pricing_plan_id":"cebpf4jnsgd1na2vs0mg"},{"bike_id":"da25a481-ec45-460d-8fd6-0e400f91c966","system_id":"levelo_inurba_marseille","lat":43.31399,"lon":5.36665,"is_reserved":false,"is_disabled":false,"rental_uris":{"android":"levelo://app?vid=da25a481-ec45-460d-8fd6-0e400f91c966","ios":"levelo://app?vid=da25a481-ec45-460d-8fd6-0e400f91c966"},"vehicle_type_id":"4","last_reported":1742559489,"current_range_meters":10000,"station_id":"","pricing_plan_id":"cebpf4jnsgd1na2vs0mg"},{"bike_id":"9bd37fa8-b6d2-43c7-a4d1-926b9ebab681","system_id":"levelo_inurba_marseille","lat":43.30152,"lon":5.38083,"is_reserved":false,"is_disabled":false,"rental_uris":{"android":"levelo://app?vid=9bd37fa8-b6d2-43c7-a4d1-926b9ebab681","ios":"levelo://app?vid=9bd37fa8-b6d2-43c7-a4d1-926b9ebab681"},"vehicle_type_id":"4","last_reported":1742559489,"current_range_meters":10800,"station_id":"ce4bgjp2rcd13ifvqbh0","pricing_plan_id":"cebpf4jnsgd1na2vs0mg"},{"bike_id":"95b8ad34-f4d5-41b1-a666-e142eedb7058","system_id":"levelo_inurba_marseille","lat":43.28619,"lon":5.35109,"is_reserved":false,"is_disabled":false,"rental_uris":{"android":"levelo://app?vid=95b8ad34-f4d5-41b1-a666-e142eedb7058","ios":"levelo://app?vid=95b8ad34-f4d5-41b1-a666-e142eedb7058"},"vehicle_type_id":"4","last_reported":1742559489,"current_range_meters":10800,"station_id":"ce4bhch2rcd13ifvqeug","pricing_plan_id":"cebpf4jnsgd1na2vs0mg"},{"bike_id":"963ff8f9-638b-485b-a515-2f6e5b36470a","system_id":"levelo_inurba_marseille","lat":43.31693,"lon":5.40469,"is_reserved":false,"is_disabled":false,"rental_uris":{"android":"levelo://app?vid=963ff8f9-638b-485b-a515-2f6e5b36470a","ios":"levelo://app?vid=963ff8f9-638b-485b-a515-2f6e5b36470a"},"vehicle_type_id":"4","last_reported":1742559489,"current_range_meters":10800,"station_id":"ce4bh012rcd13ifvqd00","pricing_plan_id":"cebpf4jnsgd1na2vs0mg"},{"bike_id":"a6bf477d-14cf-4ca5-b1d6-10c05eba3472","system_id":"levelo_inurba_marseille","lat":43.27981,"lon":5.38728,"is_reserved":false,"is_disabled":false,"rental_uris":{"android":"levelo://app?vid=a6bf477d-14cf-4ca5-b1d6-10c05eba3472","ios":"levelo://app?vid=a6bf477d-14cf-4ca5-b1d6-10c05eba3472"},"vehicle_type_id":"4","last_reported":1742559489,"current_range_meters":10800,"station_id":"ce4bhg12rcd13ifvqf80","pricing_plan_id":"cebpf4jnsgd1na2vs0mg"},{"bike_id":"1323d2cd-c4e0-4783-b4f1-4daaeb41faef","system_id":"levelo_inurba_marseille","lat":43.23961,"lon":5.36624,"is_reserved":false,"is_disabled":false,"rental_uris":{"android":"levelo://app?vid=1323d2cd-c4e0-4783-b4f1-4daaeb41faef","ios":"levelo://app?vid=1323d2cd-c4e0-4783-b4f1-4daaeb41faef"},"vehicle_type_id":"4","last_reported":1742559489,"current_range_meters":10800,"station_id":"ce4bhi12rcd13ifvqfp0","pricing_plan_id":"cebpf4jnsgd1na2vs0mg"},{"bike_id":"cff5c5d7-b2c2-4661-bcba-b7a09aa5def1","system_id":"levelo_inurba_marseille","lat":43.30314,"lon":5.36909,"is_reserved":false,"is_disabled":false,"rental_uris":{"android":"levelo://app?vid=cff5c5d7-b2c2-4661-bcba-b7a09aa5def1","ios":"levelo://app?vid=cff5c5d7-b2c2-4661-bcba-b7a09aa5def1"},"vehicle_type_id":"4","last_reported":1742559489,"current_range_meters":10800,"station_id":"ce4bgqh2rcd13ifvqc5g","pricing_plan_id":"cebpf4jnsgd1na2vs0mg"},{"bike_id":"1f2b047e-0969-41bf-921f-e9e71cccd624","system_id":"levelo_inurba_marseille","lat":43.29422,"lon":5.38625,"is_reserved":false,"is_disabled":false,"rental_uris":{"android":"levelo://app?vid=1f2b047e-0969-41bf-921f-e9e71cccd624","ios":"levelo://app?vid=1f2b047e-0969-41bf-921f-e9e71cccd624"},"vehicle_type_id":"4","last_reported":1742559489,"current_range_meters":10800,"station_id":"ce4bh2h2rcd13ifvqdh0","pricing_plan_id":"cebpf4jnsgd1na2vs0mg"},{"bike_id":"fb15ee11-b2b6-4fb7-9d7d-b32657ee284c","system_id":"levelo_inurba_marseille","lat":43.30314,"lon":5.36907,"is_reserved":false,"is_disabled":false,"rental_uris":{"android":"levelo://app?vid=fb15ee11-b2b6-4fb7-9d7d-b32657ee284c","ios":"levelo://app?vid=fb15ee11-b2b6-4fb7-9d7d-b32657ee284c"},"vehicle_type_id":"4","last_reported":1742559489,"current_range_meters":10800,"station_id":"ce4bgqh2rcd13ifvqc5g","pricing_plan_id":"cebpf4jnsgd1na2vs0mg"},{"bike_id":"70206586-04ae-42f2-9227-9dfa930ebaf2","system_id":"levelo_inurba_marseille","lat":43.31686,"lon":5.40472,"is_reserved":false,"is_disabled":false,"rental_uris":{"android":"levelo://app?vid=70206586-04ae-42f2-9227-9dfa930ebaf2","ios":"levelo://app?vid=70206586-04ae-42f2-9227-9dfa930ebaf2"},"vehicle_type_id":"4","last_reported":1742559489,"current_range_meters":10800,"station_id":"ce4bh012rcd13ifvqd00","pricing_plan_id":"cebpf4jnsgd1na2vs0mg"},{"bike_id":"95b3ab89-995f-40a3-9772-28d2d12fa6cc","system_id":"levelo_inurba_marseille","lat":43.29605,"lon":5.37718,"is_reserved":false,"is_disabled":false,"rental_uris":{"android":"levelo://app?vid=95b3ab89-995f-40a3-9772-28d2d12fa6cc","ios":"levelo://app?vid=95b3ab89-995f-40a3-9772-28d2d12fa6cc"},"vehicle_type_id":"4","last_reported":1742559489,"current_range_meters":10800,"station_id":"ce4bgi92rcd13ifvqb90","pricing_plan_id":"cebpf4jnsgd1na2vs0mg"},{"bike_id":"1535c0ac-2a2d-4791-a190-fa14a98c971f","system_id":"levelo_inurba_marseille","lat":43.29706,"lon":5.36612,"is_reserved":false,"is_disabled":false,"rental_uris":{"android":"levelo://app?vid=1535c0ac-2a2d-4791-a190-fa14a98c971f","ios":"levelo://app?vid=1535c0ac-2a2d-4791-a190-fa14a98c971f"},"vehicle_type_id":"4","last_reported":1742559489,"current_range_meters":10800,"station_id":"ce4bgn12rcd13ifvqbt0","pricing_plan_id":"cebpf4jnsgd1na2vs0mg"},{"bike_id":"06ea48e0-fb0b-44cc-8f2d-77baf82d3048","system_id":"levelo_inurba_marseille","lat":43.32094,"lon":5.36805,"is_reserved":false,"is_disabled":false,"rental_uris":{"android":"levelo://app?vid=06ea48e0-fb0b-44cc-8f2d-77baf82d3048","ios":"levelo://app?vid=06ea48e0-fb0b-44cc-8f2d-77baf82d3048"},"vehicle_type_id":"4","last_reported":1742559489,"current_range_meters":10800,"station_id":"ce4bhrh2rcd13ifvqhug","pricing_plan_id":"cebpf4jnsgd1na2vs0mg"},{"bike_id":"1f4b5356-d265-454a-aa48-2f7dec9d4d2a","system_id":"levelo_inurba_marseille","lat":43.33734,"lon":5.39189,"is_reserved":false,"is_disabled":false,"rental_uris":{"android":"levelo://app?vid=1f4b5356-d265-454a-aa48-2f7dec9d4d2a","ios":"levelo://app?vid=1f4b5356-d265-454a-aa48-2f7dec9d4d2a"},"vehicle_type_id":"4","last_reported":1742559489,"current_range_meters":11200,"station_id":"ce4bhr92rcd13ifvqhsg","pricing_plan_id":"cebpf4jnsgd1na2vs0mg"},{"bike_id":"e62dac40-44c1-4bd0-960d-9e1c5df60e4a","system_id":"levelo_inurba_marseille","lat":43.30321,"lon":5.36929,"is_reserved":false,"is_disabled":false,"rental_uris":{"android":"levelo://app?vid=e62dac40-44c1-4bd0-960d-9e1c5df60e4a","ios":"levelo://app?vid=e62dac40-44c1-4bd0-960d-9e1c5df60e4a"},"vehicle_type_id":"4","last_reported":1742559489,"current_range_meters":11200,"station_id":"ce4bgqh2rcd13ifvqc5g","pricing_plan_id":"cebpf4jnsgd1na2vs0mg"},{"bike_id":"a06df953-ee24-4eee-acd9-cfb685fc1c62","system_id":"levelo_inurba_marseille","lat":43.31408,"lon":5.37468,"is_reserved":false,"is_disabled":false,"rental_uris":{"android":"levelo://app?vid=a06df953-ee24-4eee-acd9-cfb685fc1c62","ios":"levelo://app?vid=a06df953-ee24-4eee-acd9-cfb685fc1c62"},"vehicle_type_id":"4","last_reported":1742559489,"current_range_meters":11600,"station_id":"","pricing_plan_id":"cebpf4jnsgd1na2vs0mg"},{"bike_id":"2f4bfce1-ac46-449f-aa0e-43693022e13a","system_id":"levelo_inurba_marseille","lat":43.30884,"lon":5.36798,"is_reserved":false,"is_disabled":false,"rental_uris":{"android":"levelo://app?vid=2f4bfce1-ac46-449f-aa0e-43693022e13a","ios":"levelo://app?vid=2f4bfce1-ac46-449f-aa0e-43693022e13a"},"vehicle_type_id":"4","last_reported":1742559489,"current_range_meters":11600,"station_id":"ce4bgn92rcd13ifvqbvg","pricing_plan_id":"cebpf4jnsgd1na2vs0mg"},{"bike_id":"52c16ac5-3447-4053-956c-78fc8bf0dc7c","system_id":"levelo_inurba_marseille","lat":43.32347,"lon":5.36764,"is_reserved":false,"is_disabled":false,"rental_uris":{"android":"levelo://app?vid=52c16ac5-3447-4053-956c-78fc8bf0dc7c","ios":"levelo://app?vid=52c16ac5-3447-4053-956c-78fc8bf0dc7c"},"vehicle_type_id":"4","last_reported":1742559489,"current_range_meters":11600,"station_id":"ce4bhsh2rcd13ifvqi2g","pricing_plan_id":"cebpf4jnsgd1na2vs0mg"},{"bike_id":"9f1c3e5c-869d-4869-b7c6-0c926f2da6bf","system_id":"levelo_inurba_marseille","lat":43.28371,"lon":5.3982,"is_reserved":false,"is_disabled":false,"rental_uris":{"android":"levelo://app?vid=9f1c3e5c-869d-4869-b7c6-0c926f2da6bf","ios":"levelo://app?vid=9f1c3e5c-869d-4869-b7c6-0c926f2da6bf"},"vehicle_type_id":"4","last_reported":1742559489,"current_range_meters":11600,"station_id":"","pricing_plan_id":"cebpf4jnsgd1na2vs0mg"},{"bike_id":"4267841d-5d94-44c6-8617-f314080e9a83","system_id":"levelo_inurba_marseille","lat":43.3247,"lon":5.36604,"is_reserved":false,"is_disabled":false,"rental_uris":{"android":"levelo://app?vid=4267841d-5d94-44c6-8617-f314080e9a83","ios":"levelo://app?vid=4267841d-5d94-44c6-8617-f314080e9a83"},"vehicle_type_id":"4","last_reported":1742559489,"current_range_meters":11600,"station_id":"ce4bhs12rcd13ifvqhvg","pricing_plan_id":"cebpf4jnsgd1na2vs0mg"},{"bike_id":"98c25f01-4d80-4e7b-be31-0ca06a4a645c","system_id":"levelo_inurba_marseille","lat":43.27215,"lon":5.39186,"is_reserved":false,"is_disabled":false,"rental_uris":{"android":"levelo://app?vid=98c25f01-4d80-4e7b-be31-0ca06a4a645c","ios":"levelo://app?vid=98c25f01-4d80-4e7b-be31-0ca06a4a645c"},"vehicle_type_id":"4","last_reported":1742559489,"current_range_meters":11200,"station_id":"ce4bhhp2rcd13ifvqfm0","pricing_plan_id":"cebpf4jnsgd1na2vs0mg"},{"bike_id":"db28d095-65d7-4b51-8efe-3700f885bd6f","system_id":"levelo_inurba_marseille","lat":43.30614,"lon":5.39339,"is_reserved":false,"is_disabled":false,"rental_uris":{"android":"levelo://app?vid=db28d095-65d7-4b51-8efe-3700f885bd6f","ios":"levelo://app?vid=db28d095-65d7-4b51-8efe-3700f885bd6f"},"vehicle_type_id":"4","last_reported":1742559489,"current_range_meters":11600,"station_id":"ce4bh0p2rcd13ifvqd80","pricing_plan_id":"cebpf4jnsgd1na2vs0mg"},{"bike_id":"09824664-e9c1-4534-b1ed-3992ea0f8f59","system_id":"levelo_inurba_marseille","lat":43.29923,"lon":5.37489,"is_reserved":false,"is_disabled":false,"rental_uris":{"android":"levelo://app?vid=09824664-e9c1-4534-b1ed-3992ea0f8f59","ios":"levelo://app?vid=09824664-e9c1-4534-b1ed-3992ea0f8f59"},"vehicle_type_id":"4","last_reported":1742559489,"current_range_meters":11600,"station_id":"ce4bgjh2rcd13ifvqbg0","pricing_plan_id":"cebpf4jnsgd1na2vs0mg"},{"bike_id":"81fe10f7-c822-4c1f-b162-a1d0fd44096d","system_id":"levelo_inurba_marseille","lat":43.2796,"lon":5.41021,"is_reserved":false,"is_disabled":false,"rental_uris":{"android":"levelo://app?vid=81fe10f7-c822-4c1f-b162-a1d0fd44096d","ios":"levelo://app?vid=81fe10f7-c822-4c1f-b162-a1d0fd44096d"},"vehicle_type_id":"4","last_reported":1742559489,"current_range_meters":11600,"station_id":"ce4bhnp2rcd13ifvqh0g","pricing_plan_id":"cebpf4jnsgd1na2vs0mg"},{"bike_id":"e713e59c-0fdd-42eb-97ec-a055f58ee34f","system_id":"levelo_inurba_marseille","lat":43.23203,"lon":5.35549,"is_reserved":false,"is_disabled":false,"rental_uris":{"android":"levelo://app?vid=e713e59c-0fdd-42eb-97ec-a055f58ee34f","ios":"levelo://app?vid=e713e59c-0fdd-42eb-97ec-a055f58ee34f"},"vehicle_type_id":"4","last_reported":1742559489,"current_range_meters":12000,"station_id":"ce4bhu92rcd13ifvqi70","pricing_plan_id":"cebpf4jnsgd1na2vs0mg"},{"bike_id":"db580c9f-490f-404d-81e0-34e8e3a2c2f2","system_id":"levelo_inurba_marseille","lat":43.23156,"lon":5.43717,"is_reserved":false,"is_disabled":false,"rental_uris":{"android":"levelo://app?vid=db580c9f-490f-404d-81e0-34e8e3a2c2f2","ios":"levelo://app?vid=db580c9f-490f-404d-81e0-34e8e3a2c2f2"},"vehicle_type_id":"4","last_reported":1742559489,"current_range_meters":12000,"station_id":"ce4bhmp2rcd13ifvqgog","pricing_plan_id":"cebpf4jnsgd1na2vs0mg"},{"bike_id":"4eed87ec-6ba8-4423-bb2a-902257d20a6d","system_id":"levelo_inurba_marseille","lat":43.23154,"lon":5.43714,"is_reserved":false,"is_disabled":false,"rental_uris":{"android":"levelo://app?vid=4eed87ec-6ba8-4423-bb2a-902257d20a6d","ios":"levelo://app?vid=4eed87ec-6ba8-4423-bb2a-902257d20a6d"},"vehicle_type_id":"4","last_reported":1742559489,"current_range_meters":12000,"station_id":"ce4bhmp2rcd13ifvqgog","pricing_plan_id":"cebpf4jnsgd1na2vs0mg"},{"bike_id":"01249a6f-1ca5-4116-b951-aead7b26b5b4","system_id":"levelo_inurba_marseille","lat":43.25579,"lon":5.38232,"is_reserved":false,"is_disabled":false,"rental_uris":{"android":"levelo://app?vid=01249a6f-1ca5-4116-b951-aead7b26b5b4","ios":"levelo://app?vid=01249a6f-1ca5-4116-b951-aead7b26b5b4"},"vehicle_type_id":"4","last_reported":1742559489,"current_range_meters":12000,"station_id":"ce4bhih2rcd13ifvqfs0","pricing_plan_id":"cebpf4jnsgd1na2vs0mg"},{"bike_id":"fbbb3028-b15b-4750-98dc-ac90972ecc9b","system_id":"levelo_inurba_marseille","lat":43.32101,"lon":5.36785,"is_reserved":false,"is_disabled":false,"rental_uris":{"android":"levelo://app?vid=fbbb3028-b15b-4750-98dc-ac90972ecc9b","ios":"levelo://app?vid=fbbb3028-b15b-4750-98dc-ac90972ecc9b"},"vehicle_type_id":"4","last_reported":1742559489,"current_range_meters":12000,"station_id":"ce4bhrh2rcd13ifvqhug","pricing_plan_id":"cebpf4jnsgd1na2vs0mg"},{"bike_id":"3a41ed60-982f-4370-b967-50c866ae5f2c","system_id":"levelo_inurba_marseille","lat":43.31051,"lon":5.37533,"is_reserved":false,"is_disabled":false,"rental_uris":{"android":"levelo://app?vid=3a41ed60-982f-4370-b967-50c866ae5f2c","ios":"levelo://app?vid=3a41ed60-982f-4370-b967-50c866ae5f2c"},"vehicle_type_id":"4","last_reported":1742559489,"current_range_meters":12000,"station_id":"","pricing_plan_id":"cebpf4jnsgd1na2vs0mg"},{"bike_id":"e7f0345e-ad22-4d21-8c45-d06dfb69dd51","system_id":"levelo_inurba_marseille","lat":43.28442,"lon":5.39203,"is_reserved":false,"is_disabled":false,"rental_uris":{"android":"levelo://app?vid=e7f0345e-ad22-4d21-8c45-d06dfb69dd51","ios":"levelo://app?vid=e7f0345e-ad22-4d21-8c45-d06dfb69dd51"},"vehicle_type_id":"4","last_reported":1742559489,"current_range_meters":12400,"station_id":"ce4bhoh2rcd13ifvqh5g","pricing_plan_id":"cebpf4jnsgd1na2vs0mg"},{"bike_id":"dc537980-6042-493d-8080-0667efb1d6ad","system_id":"levelo_inurba_marseille","lat":43.2455,"lon":5.39539,"is_reserved":false,"is_disabled":false,"rental_uris":{"android":"levelo://app?vid=dc537980-6042-493d-8080-0667efb1d6ad","ios":"levelo://app?vid=dc537980-6042-493d-8080-0667efb1d6ad"},"vehicle_type_id":"4","last_reported":1742559489,"current_range_meters":12400,"station_id":"ce4bhlp2rcd13ifvqgjg","pricing_plan_id":"cebpf4jnsgd1na2vs0mg"},{"bike_id":"35bacac1-b4b2-409a-a031-4fd05ba88bce","system_id":"levelo_inurba_marseille","lat":43.26953,"lon":5.38638,"is_reserved":false,"is_disabled":false,"rental_uris":{"android":"levelo://app?vid=35bacac1-b4b2-409a-a031-4fd05ba88bce","ios":"levelo://app?vid=35bacac1-b4b2-409a-a031-4fd05ba88bce"},"vehicle_type_id":"4","last_reported":1742559489,"current_range_meters":12400,"station_id":"ce4bhh92rcd13ifvqfh0","pricing_plan_id":"cebpf4jnsgd1na2vs0mg"},{"bike_id":"7cba45ff-f0e9-43f4-ac5d-8a41a8c9091f","system_id":"levelo_inurba_marseille","lat":43.26786,"lon":5.394126,"is_reserved":false,"is_disabled":false,"rental_uris":{"android":"levelo://app?vid=7cba45ff-f0e9-43f4-ac5d-8a41a8c9091f","ios":"levelo://app?vid=7cba45ff-f0e9-43f4-ac5d-8a41a8c9091f"},"vehicle_type_id":"4","last_reported":1742559489,"current_range_meters":12400,"station_id":"ce4bhh12rcd13ifvqfg0","pricing_plan_id":"cebpf4jnsgd1na2vs0mg"},{"bike_id":"8d8aa966-3f9a-4f7c-8370-35601cca72a6","system_id":"levelo_inurba_marseille","lat":43.30311,"lon":5.36905,"is_reserved":false,"is_disabled":false,"rental_uris":{"android":"levelo://app?vid=8d8aa966-3f9a-4f7c-8370-35601cca72a6","ios":"levelo://app?vid=8d8aa966-3f9a-4f7c-8370-35601cca72a6"},"vehicle_type_id":"4","last_reported":1742559489,"current_range_meters":12400,"station_id":"ce4bgqh2rcd13ifvqc5g","pricing_plan_id":"cebpf4jnsgd1na2vs0mg"},{"bike_id":"5eb2a65c-26d8-4182-819a-420bf0078105","system_id":"levelo_inurba_marseille","lat":43.26499,"lon":5.39536,"is_reserved":false,"is_disabled":false,"rental_uris":{"android":"levelo://app?vid=5eb2a65c-26d8-4182-819a-420bf0078105","ios":"levelo://app?vid=5eb2a65c-26d8-4182-819a-420bf0078105"},"vehicle_type_id":"4","last_reported":1742559489,"current_range_meters":12400,"station_id":"ce4bhi12rcd13ifvqfq0","pricing_plan_id":"cebpf4jnsgd1na2vs0mg"},{"bike_id":"257266cf-683b-4c8a-a350-70a5c3f41572","system_id":"levelo_inurba_marseille","lat":43.31167,"lon":5.38708,"is_reserved":false,"is_disabled":false,"rental_uris":{"android":"levelo://app?vid=257266cf-683b-4c8a-a350-70a5c3f41572","ios":"levelo://app?vid=257266cf-683b-4c8a-a350-70a5c3f41572"},"vehicle_type_id":"4","last_reported":1742559489,"current_range_meters":12800,"station_id":"ce4bgv12rcd13ifvqcp0","pricing_plan_id":"cebpf4jnsgd1na2vs0mg"},{"bike_id":"c79f9a2e-021e-42ea-bcf4-54e80e34fd14","system_id":"levelo_inurba_marseille","lat":43.28566,"lon":5.39497,"is_reserved":false,"is_disabled":false,"rental_uris":{"android":"levelo://app?vid=c79f9a2e-021e-42ea-bcf4-54e80e34fd14","ios":"levelo://app?vid=c79f9a2e-021e-42ea-bcf4-54e80e34fd14"},"vehicle_type_id":"4","last_reported":1742559489,"current_range_meters":12800,"station_id":"ce4bh292rcd13ifvqdg0","pricing_plan_id":"cebpf4jnsgd1na2vs0mg"},{"bike_id":"f7b19721-c68b-4280-b653-43eff6dbb1fd","system_id":"levelo_inurba_marseille","lat":43.32111,"lon":5.36775,"is_reserved":false,"is_disabled":false,"rental_uris":{"android":"levelo://app?vid=f7b19721-c68b-4280-b653-43eff6dbb1fd","ios":"levelo://app?vid=f7b19721-c68b-4280-b653-43eff6dbb1fd"},"vehicle_type_id":"4","last_reported":1742559489,"current_range_meters":12800,"station_id":"ce4bhrh2rcd13ifvqhug","pricing_plan_id":"cebpf4jnsgd1na2vs0mg"},{"bike_id":"766ed4e8-2a20-4bdb-8ea5-31983f4f3106","system_id":"levelo_inurba_marseille","lat":43.29856,"lon":5.36293,"is_reserved":false,"is_disabled":true,"rental_uris":{"android":"levelo://app?vid=766ed4e8-2a20-4bdb-8ea5-31983f4f3106","ios":"levelo://app?vid=766ed4e8-2a20-4bdb-8ea5-31983f4f3106"},"vehicle_type_id":"4","last_reported":1742559489,"current_range_meters":12800,"station_id":"ce4bgpp2rcd13ifvqc3g","pricing_plan_id":"cebpf4jnsgd1na2vs0mg"},{"bike_id":"b00a3a3b-b083-4d3d-8746-d8c2a9d4dd18","system_id":"levelo_inurba_marseille","lat":43.25721,"lon":5.42166,"is_reserved":false,"is_disabled":false,"rental_uris":{"android":"levelo://app?vid=b00a3a3b-b083-4d3d-8746-d8c2a9d4dd18","ios":"levelo://app?vid=b00a3a3b-b083-4d3d-8746-d8c2a9d4dd18"},"vehicle_type_id":"4","last_reported":1742559489,"current_range_meters":7200,"station_id":"","pricing_plan_id":"cebpf4jnsgd1na2vs0mg"},{"bike_id":"6a3576cc-8682-4eab-a5f2-d069939a9803","system_id":"levelo_inurba_marseille","lat":43.32047,"lon":5.41566,"is_reserved":false,"is_disabled":false,"rental_uris":{"android":"levelo://app?vid=6a3576cc-8682-4eab-a5f2-d069939a9803","ios":"levelo://app?vid=6a3576cc-8682-4eab-a5f2-d069939a9803"},"vehicle_type_id":"4","last_reported":1742559489,"current_range_meters":13600,"station_id":"ce4bhq92rcd13ifvqhkg","pricing_plan_id":"cebpf4jnsgd1na2vs0mg"},{"bike_id":"29c299a3-8deb-46e4-8cd6-c7a928ea34d7","system_id":"levelo_inurba_marseille","lat":43.26564,"lon":5.37286,"is_reserved":false,"is_disabled":false,"rental_uris":{"android":"levelo://app?vid=29c299a3-8deb-46e4-8cd6-c7a928ea34d7","ios":"levelo://app?vid=29c299a3-8deb-46e4-8cd6-c7a928ea34d7"},"vehicle_type_id":"4","last_reported":1742559489,"current_range_meters":13600,"station_id":"ce4bhg12rcd13ifvqf70","pricing_plan_id":"cebpf4jnsgd1na2vs0mg"},{"bike_id":"f857e3ee-7b86-4ccd-8116-6a58a1cacb60","system_id":"levelo_inurba_marseille","lat":43.33087,"lon":5.40823,"is_reserved":false,"is_disabled":false,"rental_uris":{"android":"levelo://app?vid=f857e3ee-7b86-4ccd-8116-6a58a1cacb60","ios":"levelo://app?vid=f857e3ee-7b86-4ccd-8116-6a58a1cacb60"},"vehicle_type_id":"4","last_reported":1742559489,"current_range_meters":13600,"station_id":"","pricing_plan_id":"cebpf4jnsgd1na2vs0mg"},{"bike_id":"f8515715-0c20-4ab3-8eea-6dac8a194e7b","system_id":"levelo_inurba_marseille","lat":43.28726,"lon":5.36092,"is_reserved":false,"is_disabled":false,"rental_uris":{"android":"levelo://app?vid=f8515715-0c20-4ab3-8eea-6dac8a194e7b","ios":"levelo://app?vid=f8515715-0c20-4ab3-8eea-6dac8a194e7b"},"vehicle_type_id":"4","last_reported":1742559489,"current_range_meters":12800,"station_id":"cki0cbj6b192h4jlfktg","pricing_plan_id":"cebpf4jnsgd1na2vs0mg"},{"bike_id":"c2f71bf9-7cff-4e06-8e42-7469a379dfc0","system_id":"levelo_inurba_marseille","lat":43.34146,"lon":5.40899,"is_reserved":false,"is_disabled":false,"rental_uris":{"android":"levelo://app?vid=c2f71bf9-7cff-4e06-8e42-7469a379dfc0","ios":"levelo://app?vid=c2f71bf9-7cff-4e06-8e42-7469a379dfc0"},"vehicle_type_id":"4","last_reported":1742559489,"current_range_meters":13600,"station_id":"ce4bhqh2rcd13ifvqhlg","pricing_plan_id":"cebpf4jnsgd1na2vs0mg"},{"bike_id":"a785db64-99ee-4138-853c-08a2096f09f0","system_id":"levelo_inurba_marseille","lat":43.27939,"lon":5.41043,"is_reserved":false,"is_disabled":false,"rental_uris":{"android":"levelo://app?vid=a785db64-99ee-4138-853c-08a2096f09f0","ios":"levelo://app?vid=a785db64-99ee-4138-853c-08a2096f09f0"},"vehicle_type_id":"4","last_reported":1742559489,"current_range_meters":13600,"station_id":"ce4bhnp2rcd13ifvqh0g","pricing_plan_id":"cebpf4jnsgd1na2vs0mg"},{"bike_id":"a2711e29-d135-489f-b141-5461ebd8875a","system_id":"levelo_inurba_marseille","lat":43.28079,"lon":5.39657,"is_reserved":false,"is_disabled":false,"rental_uris":{"android":"levelo://app?vid=a2711e29-d135-489f-b141-5461ebd8875a","ios":"levelo://app?vid=a2711e29-d135-489f-b141-5461ebd8875a"},"vehicle_type_id":"4","last_reported":1742559489,"current_range_meters":14000,"station_id":"ce4bho12rcd13ifvqh2g","pricing_plan_id":"cebpf4jnsgd1na2vs0mg"},{"bike_id":"3f2b86ab-bc0d-4f51-beff-1a28282c4d48","system_id":"levelo_inurba_marseille","lat":43.32288,"lon":5.38271,"is_reserved":false,"is_disabled":false,"rental_uris":{"android":"levelo://app?vid=3f2b86ab-bc0d-4f51-beff-1a28282c4d48","ios":"levelo://app?vid=3f2b86ab-bc0d-4f51-beff-1a28282c4d48"},"vehicle_type_id":"4","last_reported":1742559489,"current_range_meters":14000,"station_id":"ce4bhr12rcd13ifvqhqg","pricing_plan_id":"cebpf4jnsgd1na2vs0mg"},{"bike_id":"758d6121-2739-47f8-baa5-39507cb03d50","system_id":"levelo_inurba_marseille","lat":43.315,"lon":5.37285,"is_reserved":false,"is_disabled":false,"rental_uris":{"android":"levelo://app?vid=758d6121-2739-47f8-baa5-39507cb03d50","ios":"levelo://app?vid=758d6121-2739-47f8-baa5-39507cb03d50"},"vehicle_type_id":"4","last_reported":1742559489,"current_range_meters":14400,"station_id":"ce4bgt12rcd13ifvqcd0","pricing_plan_id":"cebpf4jnsgd1na2vs0mg"},{"bike_id":"995e5ffd-86f6-454c-899d-e51e5767ea47","system_id":"levelo_inurba_marseille","lat":43.29418,"lon":5.38629,"is_reserved":false,"is_disabled":false,"rental_uris":{"android":"levelo://app?vid=995e5ffd-86f6-454c-899d-e51e5767ea47","ios":"levelo://app?vid=995e5ffd-86f6-454c-899d-e51e5767ea47"},"vehicle_type_id":"4","last_reported":1742559489,"current_range_meters":14400,"station_id":"ce4bh2h2rcd13ifvqdh0","pricing_plan_id":"cebpf4jnsgd1na2vs0mg"},{"bike_id":"6c2d259d-cc39-462c-94d1-46efd2f019c7","system_id":"levelo_inurba_marseille","lat":43.29044,"lon":5.38123,"is_reserved":false,"is_disabled":false,"rental_uris":{"android":"levelo://app?vid=6c2d259d-cc39-462c-94d1-46efd2f019c7","ios":"levelo://app?vid=6c2d259d-cc39-462c-94d1-46efd2f019c7"},"vehicle_type_id":"4","last_reported":1742559489,"current_range_meters":14400,"station_id":"ce4bh4p2rcd13ifvqe1g","pricing_plan_id":"cebpf4jnsgd1na2vs0mg"},{"bike_id":"5c8a23a0-656b-41c5-bfff-8afcf3e95f66","system_id":"levelo_inurba_marseille","lat":43.31108,"lon":5.36941,"is_reserved":false,"is_disabled":false,"rental_uris":{"android":"levelo://app?vid=5c8a23a0-656b-41c5-bfff-8afcf3e95f66","ios":"levelo://app?vid=5c8a23a0-656b-41c5-bfff-8afcf3e95f66"},"vehicle_type_id":"4","last_reported":1742559489,"current_range_meters":14400,"station_id":"","pricing_plan_id":"cebpf4jnsgd1na2vs0mg"},{"bike_id":"d05aeab1-8008-476e-98e5-f7e1ec5a2322","system_id":"levelo_inurba_marseille","lat":43.29556,"lon":5.42288,"is_reserved":false,"is_disabled":false,"rental_uris":{"android":"levelo://app?vid=d05aeab1-8008-476e-98e5-f7e1ec5a2322","ios":"levelo://app?vid=d05aeab1-8008-476e-98e5-f7e1ec5a2322"},"vehicle_type_id":"4","last_reported":1742559489,"current_range_meters":14400,"station_id":"ce4bhph2rcd13ifvqhdg","pricing_plan_id":"cebpf4jnsgd1na2vs0mg"},{"bike_id":"79a7a938-6023-49ce-a042-f09de7f5ddd9","system_id":"levelo_inurba_marseille","lat":43.31351,"lon":5.36746,"is_reserved":false,"is_disabled":false,"rental_uris":{"android":"levelo://app?vid=79a7a938-6023-49ce-a042-f09de7f5ddd9","ios":"levelo://app?vid=79a7a938-6023-49ce-a042-f09de7f5ddd9"},"vehicle_type_id":"4","last_reported":1742559489,"current_range_meters":14400,"station_id":"ce4bgr92rcd13ifvqc6g","pricing_plan_id":"cebpf4jnsgd1na2vs0mg"},{"bike_id":"419d2089-4e01-4386-ba41-a0ff39c55862","system_id":"levelo_inurba_marseille","lat":43.313609,"lon":5.384876,"is_reserved":false,"is_disabled":false,"rental_uris":{"android":"levelo://app?vid=419d2089-4e01-4386-ba41-a0ff39c55862","ios":"levelo://app?vid=419d2089-4e01-4386-ba41-a0ff39c55862"},"vehicle_type_id":"4","last_reported":1742559489,"current_range_meters":14400,"station_id":"ce4bh112rcd13ifvqda0","pricing_plan_id":"cebpf4jnsgd1na2vs0mg"},{"bike_id":"d2596a72-0237-4ca9-bb94-94a100523ce0","system_id":"levelo_inurba_marseille","lat":43.29052,"lon":5.3996,"is_reserved":false,"is_disabled":false,"rental_uris":{"android":"levelo://app?vid=d2596a72-0237-4ca9-bb94-94a100523ce0","ios":"levelo://app?vid=d2596a72-0237-4ca9-bb94-94a100523ce0"},"vehicle_type_id":"4","last_reported":1742559489,"current_range_meters":14400,"station_id":"ce4bh392rcd13ifvqdm0","pricing_plan_id":"cebpf4jnsgd1na2vs0mg"},{"bike_id":"295b2b96-8a22-4b6f-a45b-df5a7ed58969","system_id":"levelo_inurba_marseille","lat":43.33735,"lon":5.3918,"is_reserved":false,"is_disabled":false,"rental_uris":{"android":"levelo://app?vid=295b2b96-8a22-4b6f-a45b-df5a7ed58969","ios":"levelo://app?vid=295b2b96-8a22-4b6f-a45b-df5a7ed58969"},"vehicle_type_id":"4","last_reported":1742559489,"current_range_meters":14800,"station_id":"ce4bhr92rcd13ifvqhsg","pricing_plan_id":"cebpf4jnsgd1na2vs0mg"},{"bike_id":"8550f580-0fc4-4e94-bbd6-bc5fe20fc1b3","system_id":"levelo_inurba_marseille","lat":43.23167,"lon":5.43713,"is_reserved":false,"is_disabled":false,"rental_uris":{"android":"levelo://app?vid=8550f580-0fc4-4e94-bbd6-bc5fe20fc1b3","ios":"levelo://app?vid=8550f580-0fc4-4e94-bbd6-bc5fe20fc1b3"},"vehicle_type_id":"4","last_reported":1742559489,"current_range_meters":14800,"station_id":"ce4bhmp2rcd13ifvqgog","pricing_plan_id":"cebpf4jnsgd1na2vs0mg"},{"bike_id":"8ae2b4ca-e5aa-46d6-9ce6-af931cb76caa","system_id":"levelo_inurba_marseille","lat":43.313303,"lon":5.396868,"is_reserved":false,"is_disabled":false,"rental_uris":{"android":"levelo://app?vid=8ae2b4ca-e5aa-46d6-9ce6-af931cb76caa","ios":"levelo://app?vid=8ae2b4ca-e5aa-46d6-9ce6-af931cb76caa"},"vehicle_type_id":"4","last_reported":1742559489,"current_range_meters":15200,"station_id":"ce4bh092rcd13ifvqd20","pricing_plan_id":"cebpf4jnsgd1na2vs0mg"},{"bike_id":"7442246c-2798-431d-84d3-acec834915be","system_id":"levelo_inurba_marseille","lat":43.31033,"lon":5.37133,"is_reserved":false,"is_disabled":false,"rental_uris":{"android":"levelo://app?vid=7442246c-2798-431d-84d3-acec834915be","ios":"levelo://app?vid=7442246c-2798-431d-84d3-acec834915be"},"vehicle_type_id":"4","last_reported":1742559489,"current_range_meters":15200,"station_id":"","pricing_plan_id":"cebpf4jnsgd1na2vs0mg"},{"bike_id":"9683555e-fe04-4de7-b706-7a9b0019a6a7","system_id":"levelo_inurba_marseille","lat":43.33753,"lon":5.37495,"is_reserved":false,"is_disabled":true,"rental_uris":{"android":"levelo://app?vid=9683555e-fe04-4de7-b706-7a9b0019a6a7","ios":"levelo://app?vid=9683555e-fe04-4de7-b706-7a9b0019a6a7"},"vehicle_type_id":"4","last_reported":1742559489,"current_range_meters":15200,"station_id":"ce4bh2h2rcd13ifvqdh0","pricing_plan_id":"cebpf4jnsgd1na2vs0mg"},{"bike_id":"8554844d-ad1f-4179-94b2-8ae283e549a0","system_id":"levelo_inurba_marseille","lat":43.3053,"lon":5.36552,"is_reserved":false,"is_disabled":false,"rental_uris":{"android":"levelo://app?vid=8554844d-ad1f-4179-94b2-8ae283e549a0","ios":"levelo://app?vid=8554844d-ad1f-4179-94b2-8ae283e549a0"},"vehicle_type_id":"4","last_reported":1742559489,"current_range_meters":15200,"station_id":"ce4bgs12rcd13ifvqcag","pricing_plan_id":"cebpf4jnsgd1na2vs0mg"},{"bike_id":"e8c26afe-2313-43db-80af-3e86328804d5","system_id":"levelo_inurba_marseille","lat":43.27836,"lon":5.407,"is_reserved":false,"is_disabled":false,"rental_uris":{"android":"levelo://app?vid=e8c26afe-2313-43db-80af-3e86328804d5","ios":"levelo://app?vid=e8c26afe-2313-43db-80af-3e86328804d5"},"vehicle_type_id":"4","last_reported":1742559489,"current_range_meters":15200,"station_id":"ce4bhnh2rcd13ifvqgtg","pricing_plan_id":"cebpf4jnsgd1na2vs0mg"},{"bike_id":"1c61da13-36a4-42ce-b6ad-aa57014d7892","system_id":"levelo_inurba_marseille","lat":43.308379,"lon":5.396458,"is_reserved":false,"is_disabled":false,"rental_uris":{"android":"levelo://app?vid=1c61da13-36a4-42ce-b6ad-aa57014d7892","ios":"levelo://app?vid=1c61da13-36a4-42ce-b6ad-aa57014d7892"},"vehicle_type_id":"4","last_reported":1742559489,"current_range_meters":15200,"station_id":"ce4bgj92rcd13ifvqbd0","pricing_plan_id":"cebpf4jnsgd1na2vs0mg"},{"bike_id":"38044645-ece5-4bcd-8d4d-db0d7b3b13cd","system_id":"levelo_inurba_marseille","lat":43.24547,"lon":5.39473,"is_reserved":false,"is_disabled":false,"rental_uris":{"android":"levelo://app?vid=38044645-ece5-4bcd-8d4d-db0d7b3b13cd","ios":"levelo://app?vid=38044645-ece5-4bcd-8d4d-db0d7b3b13cd"},"vehicle_type_id":"4","last_reported":1742559489,"current_range_meters":15200,"station_id":"ce4bhlp2rcd13ifvqgjg","pricing_plan_id":"cebpf4jnsgd1na2vs0mg"},{"bike_id":"9bfd0e53-292e-4fcd-b3c3-7cc1ea42d79b","system_id":"levelo_inurba_marseille","lat":43.27821,"lon":5.40709,"is_reserved":false,"is_disabled":false,"rental_uris":{"android":"levelo://app?vid=9bfd0e53-292e-4fcd-b3c3-7cc1ea42d79b","ios":"levelo://app?vid=9bfd0e53-292e-4fcd-b3c3-7cc1ea42d79b"},"vehicle_type_id":"4","last_reported":1742559489,"current_range_meters":16000,"station_id":"ce4bhnh2rcd13ifvqgtg","pricing_plan_id":"cebpf4jnsgd1na2vs0mg"},{"bike_id":"1941e1fe-aa74-4007-afde-fda9d78d046e","system_id":"levelo_inurba_marseille","lat":43.29273,"lon":5.37605,"is_reserved":false,"is_disabled":false,"rental_uris":{"android":"levelo://app?vid=1941e1fe-aa74-4007-afde-fda9d78d046e","ios":"levelo://app?vid=1941e1fe-aa74-4007-afde-fda9d78d046e"},"vehicle_type_id":"4","last_reported":1742559489,"current_range_meters":16000,"station_id":"ce4bgi12rcd13ifvqb80","pricing_plan_id":"cebpf4jnsgd1na2vs0mg"},{"bike_id":"f9c5da67-af4c-4ea9-8126-f81efc4d53b7","system_id":"levelo_inurba_marseille","lat":43.27173,"lon":5.40992,"is_reserved":false,"is_disabled":false,"rental_uris":{"android":"levelo://app?vid=f9c5da67-af4c-4ea9-8126-f81efc4d53b7","ios":"levelo://app?vid=f9c5da67-af4c-4ea9-8126-f81efc4d53b7"},"vehicle_type_id":"4","last_reported":1742559489,"current_range_meters":16000,"station_id":"ce4bhl12rcd13ifvqgf0","pricing_plan_id":"cebpf4jnsgd1na2vs0mg"},{"bike_id":"27370c4f-6644-4fae-a290-ff6e5f4fe8b8","system_id":"levelo_inurba_marseille","lat":43.24179,"lon":5.39719,"is_reserved":false,"is_disabled":false,"rental_uris":{"android":"levelo://app?vid=27370c4f-6644-4fae-a290-ff6e5f4fe8b8","ios":"levelo://app?vid=27370c4f-6644-4fae-a290-ff6e5f4fe8b8"},"vehicle_type_id":"4","last_reported":1742559489,"current_range_meters":16000,"station_id":"ce4bhn12rcd13ifvqgpg","pricing_plan_id":"cebpf4jnsgd1na2vs0mg"},{"bike_id":"d484cdcf-b921-4e6d-95a7-1179af4d4cd4","system_id":"levelo_inurba_marseille","lat":43.31282,"lon":5.40164,"is_reserved":false,"is_disabled":false,"rental_uris":{"android":"levelo://app?vid=d484cdcf-b921-4e6d-95a7-1179af4d4cd4","ios":"levelo://app?vid=d484cdcf-b921-4e6d-95a7-1179af4d4cd4"},"vehicle_type_id":"4","last_reported":1742559489,"current_range_meters":16000,"station_id":"ce4bh092rcd13ifvqd30","pricing_plan_id":"cebpf4jnsgd1na2vs0mg"},{"bike_id":"1d38a32a-ef1a-4b49-a7dd-cf323330d96c","system_id":"levelo_inurba_marseille","lat":43.30934,"lon":5.40152,"is_reserved":false,"is_disabled":true,"rental_uris":{"android":"levelo://app?vid=1d38a32a-ef1a-4b49-a7dd-cf323330d96c","ios":"levelo://app?vid=1d38a32a-ef1a-4b49-a7dd-cf323330d96c"},"vehicle_type_id":"4","last_reported":1742559489,"current_range_meters":16000,"station_id":"ce4bgvp2rcd13ifvqct0","pricing_plan_id":"cebpf4jnsgd1na2vs0mg"},{"bike_id":"f1c1254d-d9d6-4485-8910-4ae2a7c84bc0","system_id":"levelo_inurba_marseille","lat":43.23187,"lon":5.39983,"is_reserved":false,"is_disabled":false,"rental_uris":{"android":"levelo://app?vid=f1c1254d-d9d6-4485-8910-4ae2a7c84bc0","ios":"levelo://app?vid=f1c1254d-d9d6-4485-8910-4ae2a7c84bc0"},"vehicle_type_id":"4","last_reported":1742559489,"current_range_meters":16000,"station_id":"ce4bhn12rcd13ifvqgqg","pricing_plan_id":"cebpf4jnsgd1na2vs0mg"},{"bike_id":"6ea921f0-c589-411f-a557-bd20a90bcf67","system_id":"levelo_inurba_marseille","lat":43.31354,"lon":5.36724,"is_reserved":false,"is_disabled":false,"rental_uris":{"android":"levelo://app?vid=6ea921f0-c589-411f-a557-bd20a90bcf67","ios":"levelo://app?vid=6ea921f0-c589-411f-a557-bd20a90bcf67"},"vehicle_type_id":"4","last_reported":1742559489,"current_range_meters":16400,"station_id":"ce4bgr92rcd13ifvqc6g","pricing_plan_id":"cebpf4jnsgd1na2vs0mg"},{"bike_id":"ecef44e5-88c9-4bf3-9e69-cb5f84157e15","system_id":"levelo_inurba_marseille","lat":43.30269,"lon":5.37722,"is_reserved":false,"is_disabled":false,"rental_uris":{"android":"levelo://app?vid=ecef44e5-88c9-4bf3-9e69-cb5f84157e15","ios":"levelo://app?vid=ecef44e5-88c9-4bf3-9e69-cb5f84157e15"},"vehicle_type_id":"4","last_reported":1742559489,"current_range_meters":16400,"station_id":"ce4bguh2rcd13ifvqcj0","pricing_plan_id":"cebpf4jnsgd1na2vs0mg"},{"bike_id":"3824e06f-e6be-4a2a-8b0a-c044cd759fe7","system_id":"levelo_inurba_marseille","lat":43.30895,"lon":5.37194,"is_reserved":false,"is_disabled":false,"rental_uris":{"android":"levelo://app?vid=3824e06f-e6be-4a2a-8b0a-c044cd759fe7","ios":"levelo://app?vid=3824e06f-e6be-4a2a-8b0a-c044cd759fe7"},"vehicle_type_id":"4","last_reported":1742559489,"current_range_meters":16000,"station_id":"ce4bguh2rcd13ifvqckg","pricing_plan_id":"cebpf4jnsgd1na2vs0mg"},{"bike_id":"6736d6b1-a295-469b-bcc5-a1bbdfa00338","system_id":"levelo_inurba_marseille","lat":43.27966,"lon":5.41686,"is_reserved":false,"is_disabled":false,"rental_uris":{"android":"levelo://app?vid=6736d6b1-a295-469b-bcc5-a1bbdfa00338","ios":"levelo://app?vid=6736d6b1-a295-469b-bcc5-a1bbdfa00338"},"vehicle_type_id":"4","last_reported":1742559489,"current_range_meters":16000,"station_id":"ce4bho12rcd13ifvqh1g","pricing_plan_id":"cebpf4jnsgd1na2vs0mg"},{"bike_id":"a004da6e-e16f-4972-8b9c-4f62020e304b","system_id":"levelo_inurba_marseille","lat":43.27815,"lon":5.40713,"is_reserved":false,"is_disabled":false,"rental_uris":{"android":"levelo://app?vid=a004da6e-e16f-4972-8b9c-4f62020e304b","ios":"levelo://app?vid=a004da6e-e16f-4972-8b9c-4f62020e304b"},"vehicle_type_id":"4","last_reported":1742559489,"current_range_meters":16400,"station_id":"ce4bhnh2rcd13ifvqgtg","pricing_plan_id":"cebpf4jnsgd1na2vs0mg"},{"bike_id":"3c76c9e3-c3fa-40d8-994b-823daa7b3eb6","system_id":"levelo_inurba_marseille","lat":43.26936,"lon":5.38921,"is_reserved":false,"is_disabled":false,"rental_uris":{"android":"levelo://app?vid=3c76c9e3-c3fa-40d8-994b-823daa7b3eb6","ios":"levelo://app?vid=3c76c9e3-c3fa-40d8-994b-823daa7b3eb6"},"vehicle_type_id":"4","last_reported":1742559489,"current_range_meters":16400,"station_id":"ce4bhhh2rcd13ifvqfl0","pricing_plan_id":"cebpf4jnsgd1na2vs0mg"},{"bike_id":"f4ab34c3-fa93-4c87-a143-a7db6e9063a8","system_id":"levelo_inurba_marseille","lat":43.28464,"lon":5.38397,"is_reserved":false,"is_disabled":true,"rental_uris":{"android":"levelo://app?vid=f4ab34c3-fa93-4c87-a143-a7db6e9063a8","ios":"levelo://app?vid=f4ab34c3-fa93-4c87-a143-a7db6e9063a8"},"vehicle_type_id":"4","last_reported":1742559489,"current_range_meters":16400,"station_id":"ce4bh512rcd13ifvqe3g","pricing_plan_id":"cebpf4jnsgd1na2vs0mg"},{"bike_id":"923427b9-e80c-4504-ba6c-37eb5476ce10","system_id":"levelo_inurba_marseille","lat":43.29266,"lon":5.37621,"is_reserved":false,"is_disabled":false,"rental_uris":{"android":"levelo://app?vid=923427b9-e80c-4504-ba6c-37eb5476ce10","ios":"levelo://app?vid=923427b9-e80c-4504-ba6c-37eb5476ce10"},"vehicle_type_id":"4","last_reported":1742559489,"current_range_meters":16400,"station_id":"ce4bgi12rcd13ifvqb80","pricing_plan_id":"cebpf4jnsgd1na2vs0mg"},{"bike_id":"710413c8-e18d-41ef-8f8b-5fadde7038c8","system_id":"levelo_inurba_marseille","lat":43.31119,"lon":5.37756,"is_reserved":false,"is_disabled":false,"rental_uris":{"android":"levelo://app?vid=710413c8-e18d-41ef-8f8b-5fadde7038c8","ios":"levelo://app?vid=710413c8-e18d-41ef-8f8b-5fadde7038c8"},"vehicle_type_id":"4","last_reported":1742559489,"current_range_meters":16400,"station_id":"ce4bgt92rcd13ifvqcg0","pricing_plan_id":"cebpf4jnsgd1na2vs0mg"},{"bike_id":"4a477872-46bc-40a5-9717-74f0b07ffcb0","system_id":"levelo_inurba_marseille","lat":43.32336,"lon":5.4062,"is_reserved":false,"is_disabled":false,"rental_uris":{"android":"levelo://app?vid=4a477872-46bc-40a5-9717-74f0b07ffcb0","ios":"levelo://app?vid=4a477872-46bc-40a5-9717-74f0b07ffcb0"},"vehicle_type_id":"4","last_reported":1742559489,"current_range_meters":16800,"station_id":"ce4bhq92rcd13ifvqhjg","pricing_plan_id":"cebpf4jnsgd1na2vs0mg"},{"bike_id":"a6104e83-ef25-427b-b5ea-e882fea15e41","system_id":"levelo_inurba_marseille","lat":43.29906,"lon":5.38135,"is_reserved":false,"is_disabled":false,"rental_uris":{"android":"levelo://app?vid=a6104e83-ef25-427b-b5ea-e882fea15e41","ios":"levelo://app?vid=a6104e83-ef25-427b-b5ea-e882fea15e41"},"vehicle_type_id":"4","last_reported":1742559489,"current_range_meters":16800,"station_id":"ce4bgj12rcd13ifvqbc0","pricing_plan_id":"cebpf4jnsgd1na2vs0mg"},{"bike_id":"edc1baeb-73be-4a6d-a754-bec68ac1fc98","system_id":"levelo_inurba_marseille","lat":43.31322,"lon":5.39701,"is_reserved":false,"is_disabled":false,"rental_uris":{"android":"levelo://app?vid=edc1baeb-73be-4a6d-a754-bec68ac1fc98","ios":"levelo://app?vid=edc1baeb-73be-4a6d-a754-bec68ac1fc98"},"vehicle_type_id":"4","last_reported":1742559489,"current_range_meters":16800,"station_id":"ce4bgvp2rcd13ifvqcu0","pricing_plan_id":"cebpf4jnsgd1na2vs0mg"},{"bike_id":"750f347e-373f-4c98-8af1-4dfba1eb89e2","system_id":"levelo_inurba_marseille","lat":43.25807,"lon":5.39466,"is_reserved":false,"is_disabled":false,"rental_uris":{"android":"levelo://app?vid=750f347e-373f-4c98-8af1-4dfba1eb89e2","ios":"levelo://app?vid=750f347e-373f-4c98-8af1-4dfba1eb89e2"},"vehicle_type_id":"4","last_reported":1742559489,"current_range_meters":16800,"station_id":"ce4bhip2rcd13ifvqft0","pricing_plan_id":"cebpf4jnsgd1na2vs0mg"},{"bike_id":"90deafae-e380-4a2a-b84b-42a4bba9791b","system_id":"levelo_inurba_marseille","lat":43.3029,"lon":5.37704,"is_reserved":false,"is_disabled":false,"rental_uris":{"android":"levelo://app?vid=90deafae-e380-4a2a-b84b-42a4bba9791b","ios":"levelo://app?vid=90deafae-e380-4a2a-b84b-42a4bba9791b"},"vehicle_type_id":"4","last_reported":1742559489,"current_range_meters":16800,"station_id":"ce4bguh2rcd13ifvqcj0","pricing_plan_id":"cebpf4jnsgd1na2vs0mg"},{"bike_id":"72503a27-a949-4a46-b139-c44d4f416a58","system_id":"levelo_inurba_marseille","lat":43.23194,"lon":5.35545,"is_reserved":false,"is_disabled":false,"rental_uris":{"android":"levelo://app?vid=72503a27-a949-4a46-b139-c44d4f416a58","ios":"levelo://app?vid=72503a27-a949-4a46-b139-c44d4f416a58"},"vehicle_type_id":"4","last_reported":1742559489,"current_range_meters":16800,"station_id":"ce4bhu92rcd13ifvqi70","pricing_plan_id":"cebpf4jnsgd1na2vs0mg"},{"bike_id":"9befc9ce-74b4-4d4d-857a-99c80ca98233","system_id":"levelo_inurba_marseille","lat":43.30598,"lon":5.3936,"is_reserved":false,"is_disabled":false,"rental_uris":{"android":"levelo://app?vid=9befc9ce-74b4-4d4d-857a-99c80ca98233","ios":"levelo://app?vid=9befc9ce-74b4-4d4d-857a-99c80ca98233"},"vehicle_type_id":"4","last_reported":1742559489,"current_range_meters":16800,"station_id":"ce4bh0p2rcd13ifvqd80","pricing_plan_id":"cebpf4jnsgd1na2vs0mg"},{"bike_id":"be614a70-d6f3-4559-8616-ef2ff44b9eca","system_id":"levelo_inurba_marseille","lat":43.3031,"lon":5.36906,"is_reserved":false,"is_disabled":false,"rental_uris":{"android":"levelo://app?vid=be614a70-d6f3-4559-8616-ef2ff44b9eca","ios":"levelo://app?vid=be614a70-d6f3-4559-8616-ef2ff44b9eca"},"vehicle_type_id":"4","last_reported":1742559489,"current_range_meters":16800,"station_id":"ce4bgqh2rcd13ifvqc5g","pricing_plan_id":"cebpf4jnsgd1na2vs0mg"},{"bike_id":"824b5c8a-2273-46d6-b1c6-75e22d7e118f","system_id":"levelo_inurba_marseille","lat":43.29267,"lon":5.37598,"is_reserved":false,"is_disabled":false,"rental_uris":{"android":"levelo://app?vid=824b5c8a-2273-46d6-b1c6-75e22d7e118f","ios":"levelo://app?vid=824b5c8a-2273-46d6-b1c6-75e22d7e118f"},"vehicle_type_id":"4","last_reported":1742559489,"current_range_meters":16800,"station_id":"ce4bgi12rcd13ifvqb80","pricing_plan_id":"cebpf4jnsgd1na2vs0mg"},{"bike_id":"b66f8ee0-0e8d-4112-8a76-11bd9796bc3a","system_id":"levelo_inurba_marseille","lat":43.3032,"lon":5.36909,"is_reserved":false,"is_disabled":false,"rental_uris":{"android":"levelo://app?vid=b66f8ee0-0e8d-4112-8a76-11bd9796bc3a","ios":"levelo://app?vid=b66f8ee0-0e8d-4112-8a76-11bd9796bc3a"},"vehicle_type_id":"4","last_reported":1742559489,"current_range_meters":16800,"station_id":"ce4bgqh2rcd13ifvqc5g","pricing_plan_id":"cebpf4jnsgd1na2vs0mg"},{"bike_id":"9c6aca2f-ebf6-4e17-8d0c-cc9578f6b84d","system_id":"levelo_inurba_marseille","lat":43.32474,"lon":5.36567,"is_reserved":false,"is_disabled":false,"rental_uris":{"android":"levelo://app?vid=9c6aca2f-ebf6-4e17-8d0c-cc9578f6b84d","ios":"levelo://app?vid=9c6aca2f-ebf6-4e17-8d0c-cc9578f6b84d"},"vehicle_type_id":"4","last_reported":1742559489,"current_range_meters":16800,"station_id":"ce4bhs12rcd13ifvqhvg","pricing_plan_id":"cebpf4jnsgd1na2vs0mg"},{"bike_id":"a5235df1-0421-49c6-9ab1-d4066c968db2","system_id":"levelo_inurba_marseille","lat":43.31549,"lon":5.38924,"is_reserved":false,"is_disabled":false,"rental_uris":{"android":"levelo://app?vid=a5235df1-0421-49c6-9ab1-d4066c968db2","ios":"levelo://app?vid=a5235df1-0421-49c6-9ab1-d4066c968db2"},"vehicle_type_id":"4","last_reported":1742559489,"current_range_meters":16800,"station_id":"","pricing_plan_id":"cebpf4jnsgd1na2vs0mg"},{"bike_id":"a490f70e-3087-422b-974e-2c896f9f495c","system_id":"levelo_inurba_marseille","lat":43.3373,"lon":5.39178,"is_reserved":false,"is_disabled":false,"rental_uris":{"android":"levelo://app?vid=a490f70e-3087-422b-974e-2c896f9f495c","ios":"levelo://app?vid=a490f70e-3087-422b-974e-2c896f9f495c"},"vehicle_type_id":"4","last_reported":1742559489,"current_range_meters":16800,"station_id":"ce4bhr92rcd13ifvqhsg","pricing_plan_id":"cebpf4jnsgd1na2vs0mg"},{"bike_id":"5c69cd72-658a-4b38-9ba7-13da3857158e","system_id":"levelo_inurba_marseille","lat":43.28669,"lon":5.38681,"is_reserved":false,"is_disabled":false,"rental_uris":{"android":"levelo://app?vid=5c69cd72-658a-4b38-9ba7-13da3857158e","ios":"levelo://app?vid=5c69cd72-658a-4b38-9ba7-13da3857158e"},"vehicle_type_id":"4","last_reported":1742559489,"current_range_meters":17200,"station_id":"ce4bh492rcd13ifvqdug","pricing_plan_id":"cebpf4jnsgd1na2vs0mg"},{"bike_id":"21739df1-075a-48d0-a9d9-1cc32ec587bb","system_id":"levelo_inurba_marseille","lat":43.29418,"lon":5.38623,"is_reserved":false,"is_disabled":false,"rental_uris":{"android":"levelo://app?vid=21739df1-075a-48d0-a9d9-1cc32ec587bb","ios":"levelo://app?vid=21739df1-075a-48d0-a9d9-1cc32ec587bb"},"vehicle_type_id":"4","last_reported":1742559489,"current_range_meters":17200,"station_id":"ce4bh2h2rcd13ifvqdh0","pricing_plan_id":"cebpf4jnsgd1na2vs0mg"},{"bike_id":"fbb498fe-0420-4fc0-a001-6f20ac1d59dd","system_id":"levelo_inurba_marseille","lat":43.33613,"lon":5.41018,"is_reserved":false,"is_disabled":true,"rental_uris":{"android":"levelo://app?vid=fbb498fe-0420-4fc0-a001-6f20ac1d59dd","ios":"levelo://app?vid=fbb498fe-0420-4fc0-a001-6f20ac1d59dd"},