{"last_updated":1731804693,"ttl":60,"version":"2.2","data":{"bikes":[{"bike_id":"9c319bd8-1c7c-46bb-824e-2a1d218223bc","system_id":"levelo_inurba_marseille","lat":43.25114,"lon":5.40323,"is_reserved":false,"is_disabled":false,"rental_uris":{"android":"levelo://app?vid=9c319bd8-1c7c-46bb-824e-2a1d218223bc","ios":"levelo://app?vid=9c319bd8-1c7c-46bb-824e-2a1d218223bc"},"vehicle_type_id":"4","last_reported":1731804693,"current_range_meters":35200,"station_id":"ce4bhlh2rcd13ifvqgig","pricing_plan_id":"cebpf4jnsgd1na2vs0mg"},{"bike_id":"76a8f95d-fba3-4e61-b35f-abb37b9dfc38","system_id":"levelo_inurba_marseille","lat":43.31507,"lon":5.37296,"is_reserved":false,"is_disabled":false,"rental_uris":{"android":"levelo://app?vid=76a8f95d-fba3-4e61-b35f-abb37b9dfc38","ios":"levelo://app?vid=76a8f95d-fba3-4e61-b35f-abb37b9dfc38"},"vehicle_type_id":"4","last_reported":1731804693,"current_range_meters":39200,"station_id":"ce4bgt12rcd13ifvqcd0","pricing_plan_id":"cebpf4jnsgd1na2vs0mg"},{"bike_id":"8f64f783-a592-44e3-bbda-2c129afa1260","system_id":"levelo_inurba_marseille","lat":43.24657,"lon":5.38883,"is_reserved":false,"is_disabled":false,"rental_uris":{"android":"levelo://app?vid=8f64f783-a592-44e3-bbda-2c129afa1260","ios":"levelo://app?vid=8f64f783-a592-44e3-bbda-2c129afa1260"},"vehicle_type_id":"4","last_reported":1731804693,"current_range_meters":36800,"station_id":"ce4bhg12rcd13ifvqf60","pricing_plan_id":"cebpf4jnsgd1na2vs0mg"},{"bike_id":"a13d7bdc-98d8-490a-987b-0aa6e9786c96","system_id":"levelo_inurba_marseille","lat":43.2456,"lon":5.39545,"is_reserved":false,"is_disabled":false,"rental_uris":{"android":"levelo://app?vid=a13d7bdc-98d8-490a-987b-0aa6e9786c96","ios":"levelo://app?vid=a13d7bdc-98d8-490a-987b-0aa6e9786c96"},"vehicle_type_id":"4","last_reported":1731804693,"current_range_meters":28800,"station_id":"ce4bhlp2rcd13ifvqgjg","pricing_plan_id":"cebpf4jnsgd1na2vs0mg"},{"bike_id":"c3d9eb04-6e82-4e57-81fe-553846473615","system_id":"levelo_inurba_marseille","lat":43.28572,"lon":5.39504,"is_reserved":false,"is_disabled":false,"rental_uris":{"android":"levelo://app?vid=c3d9eb04-6e82-4e57-81fe-553846473615","ios":"levelo://app?vid=c3d9eb04-6e82-4e57-81fe-553846473615"},"vehicle_type_id":"4","last_reported":1731804693,"current_range_meters":36000,"station_id":"ce4bh292rcd13ifvqdg0","pricing_plan_id":"cebpf4jnsgd1na2vs0mg"},{"bike_id":"5fc65484-ca9d-4d04-abb0-59c0c73b1826","system_id":"levelo_inurba_marseille","lat":43.29554,"lon":5.4229,"is_reserved":false,"is_disabled":false,"rental_uris":{"android":"levelo://app?vid=5fc65484-ca9d-4d04-abb0-59c0c73b1826","ios":"levelo://app?vid=5fc65484-ca9d-4d04-abb0-59c0c73b1826"},"vehicle_type_id":"4","last_reported":1731804693,"current_range_meters":8000,"station_id":"ce4bhph2rcd13ifvqhdg","pricing_plan_id":"cebpf4jnsgd1na2vs0mg"},{"bike_id":"fe7748b6-9d91-4994-bdd2-fe51f904eb01","system_id":"levelo_inurba_marseille","lat":43.29963,"lon":5.37368,"is_reserved":false,"is_disabled":false,"rental_uris":{"android":"levelo://app?vid=fe7748b6-9d91-4994-bdd2-fe51f904eb01","ios":"levelo://app?vid=fe7748b6-9d91-4994-bdd2-fe51f904eb01"},"vehicle_type_id":"4","last_reported":1731804693,"current_range_meters":20400,"station_id":"ce4bgjh2rcd13ifvqbg0","pricing_plan_id":"cebpf4jnsgd1na2vs0mg"},{"bike_id":"6df0c975-b3ab-4352-bd55-ab3ae354a0e7","system_id":"levelo_inurba_marseille","lat":43.28681,"lon":5.38666,"is_reserved":false,"is_disabled":false,"rental_uris":{"android":"levelo://app?vid=6df0c975-b3ab-4352-bd55-ab3ae354a0e7","ios":"levelo://app?vid=6df0c975-b3ab-4352-bd55-ab3ae354a0e7"},"vehicle_type_id":"4","last_reported":1731804693,"current_range_meters":38800,"station_id":"ce4bh492rcd13ifvqdug","pricing_plan_id":"cebpf4jnsgd1na2vs0mg"},{"bike_id":"45c178a2-06a1-4784-9547-3194078b2f63","system_id":"levelo_inurba_marseille","lat":43.28714,"lon":5.37391,"is_reserved":false,"is_disabled":false,"rental_uris":{"android":"levelo://app?vid=45c178a2-06a1-4784-9547-3194078b2f63","ios":"levelo://app?vid=45c178a2-06a1-4784-9547-3194078b2f63"},"vehicle_type_id":"4","last_reported":1731804693,"current_range_meters":38000,"station_id":"ce4bh3p2rcd13ifvqdq0","pricing_plan_id":"cebpf4jnsgd1na2vs0mg"},{"bike_id":"0672d165-d197-4474-bbec-2df95543fd2f","system_id":"levelo_inurba_marseille","lat":43.29898,"lon":5.43667,"is_reserved":false,"is_disabled":false,"rental_uris":{"android":"levelo://app?vid=0672d165-d197-4474-bbec-2df95543fd2f","ios":"levelo://app?vid=0672d165-d197-4474-bbec-2df95543fd2f"},"vehicle_type_id":"4","last_reported":1731804693,"current_range_meters":9600,"station_id":"ce4bhpp2rcd13ifvqhfg","pricing_plan_id":"cebpf4jnsgd1na2vs0mg"},{"bike_id":"d9d8a7d9-cde4-4fab-ab69-fcee8fe6a6da","system_id":"levelo_inurba_marseille","lat":43.25013,"lon":5.38907,"is_reserved":false,"is_disabled":false,"rental_uris":{"android":"levelo://app?vid=d9d8a7d9-cde4-4fab-ab69-fcee8fe6a6da","ios":"levelo://app?vid=d9d8a7d9-cde4-4fab-ab69-fcee8fe6a6da"},"vehicle_type_id":"4","last_reported":1731804693,"current_range_meters":10800,"station_id":"ce4bhgp2rcd13ifvqfd0","pricing_plan_id":"cebpf4jnsgd1na2vs0mg"},{"bike_id":"083dbee0-0e04-4a5e-93ff-4f8789a778b7","system_id":"levelo_inurba_marseille","lat":43.22932,"lon":5.35373,"is_reserved":false,"is_disabled":false,"rental_uris":{"android":"levelo://app?vid=083dbee0-0e04-4a5e-93ff-4f8789a778b7","ios":"levelo://app?vid=083dbee0-0e04-4a5e-93ff-4f8789a778b7"},"vehicle_type_id":"4","last_reported":1731804693,"current_range_meters":39200,"station_id":"cpo3532slgdg3j2ikp40","pricing_plan_id":"cebpf4jnsgd1na2vs0mg"},{"bike_id":"fa4d3d6b-2f22-40c0-b10a-f7a96055bc74","system_id":"levelo_inurba_marseille","lat":43.28707,"lon":5.37385,"is_reserved":false,"is_disabled":false,"rental_uris":{"android":"levelo://app?vid=fa4d3d6b-2f22-40c0-b10a-f7a96055bc74","ios":"levelo://app?vid=fa4d3d6b-2f22-40c0-b10a-f7a96055bc74"},"vehicle_type_id":"4","last_reported":1731804693,"current_range_meters":38800,"station_id":"ce4bh3p2rcd13ifvqdq0","pricing_plan_id":"cebpf4jnsgd1na2vs0mg"},{"bike_id":"4543c786-8fc8-4b79-a2f5-ca90faccf506","system_id":"levelo_inurba_marseille","lat":43.24077,"lon":5.37755,"is_reserved":false,"is_disabled":false,"rental_uris":{"android":"levelo://app?vid=4543c786-8fc8-4b79-a2f5-ca90faccf506","ios":"levelo://app?vid=4543c786-8fc8-4b79-a2f5-ca90faccf506"},"vehicle_type_id":"4","last_reported":1731804693,"current_range_meters":28800,"station_id":"ce4bhnp2rcd13ifvqgvg","pricing_plan_id":"cebpf4jnsgd1na2vs0mg"},{"bike_id":"b361c1fc-f63b-4883-ac7d-1a695da9acca","system_id":"levelo_inurba_marseille","lat":43.2418,"lon":5.39729,"is_reserved":false,"is_disabled":false,"rental_uris":{"android":"levelo://app?vid=b361c1fc-f63b-4883-ac7d-1a695da9acca","ios":"levelo://app?vid=b361c1fc-f63b-4883-ac7d-1a695da9acca"},"vehicle_type_id":"4","last_reported":1731804693,"current_range_meters":35600,"station_id":"ce4bhn12rcd13ifvqgpg","pricing_plan_id":"cebpf4jnsgd1na2vs0mg"},{"bike_id":"2fa5cdaf-4701-4ccc-9961-be2b9abddd01","system_id":"levelo_inurba_marseille","lat":43.31172,"lon":5.38718,"is_reserved":false,"is_disabled":false,"rental_uris":{"android":"levelo://app?vid=2fa5cdaf-4701-4ccc-9961-be2b9abddd01","ios":"levelo://app?vid=2fa5cdaf-4701-4ccc-9961-be2b9abddd01"},"vehicle_type_id":"4","last_reported":1731804693,"current_range_meters":26000,"station_id":"ce4bgv12rcd13ifvqcp0","pricing_plan_id":"cebpf4jnsgd1na2vs0mg"},{"bike_id":"4c167bc3-2964-4625-adc0-c92e539ad80f","system_id":"levelo_inurba_marseille","lat":43.28276,"lon":5.40806,"is_reserved":false,"is_disabled":false,"rental_uris":{"android":"levelo://app?vid=4c167bc3-2964-4625-adc0-c92e539ad80f","ios":"levelo://app?vid=4c167bc3-2964-4625-adc0-c92e539ad80f"},"vehicle_type_id":"4","last_reported":1731804693,"current_range_meters":36800,"station_id":"","pricing_plan_id":"cebpf4jnsgd1na2vs0mg"},{"bike_id":"3e779d21-5afd-43ef-be25-bf4f828fec05","system_id":"levelo_inurba_marseille","lat":43.303256,"lon":5.404364,"is_reserved":false,"is_disabled":false,"rental_uris":{"android":"levelo://app?vid=3e779d21-5afd-43ef-be25-bf4f828fec05","ios":"levelo://app?vid=3e779d21-5afd-43ef-be25-bf4f828fec05"},"vehicle_type_id":"4","last_reported":1731804693,"current_range_meters":30000,"station_id":"ce4bh0p2rcd13ifvqd80","pricing_plan_id":"cebpf4jnsgd1na2vs0mg"},{"bike_id":"781c7183-c735-4169-a336-a40ae3946dee","system_id":"levelo_inurba_marseille","lat":43.29196,"lon":5.39316,"is_reserved":false,"is_disabled":false,"rental_uris":{"android":"levelo://app?vid=781c7183-c735-4169-a336-a40ae3946dee","ios":"levelo://app?vid=781c7183-c735-4169-a336-a40ae3946dee"},"vehicle_type_id":"4","last_reported":1731804693,"current_range_meters":38800,"station_id":"ce4bh192rcd13ifvqdd0","pricing_plan_id":"cebpf4jnsgd1na2vs0mg"},{"bike_id":"40a97675-88c7-4654-941f-612dc5d72fb0","system_id":"levelo_inurba_marseille","lat":43.31532,"lon":5.38022,"is_reserved":false,"is_disabled":false,"rental_uris":{"android":"levelo://app?vid=40a97675-88c7-4654-941f-612dc5d72fb0","ios":"levelo://app?vid=40a97675-88c7-4654-941f-612dc5d72fb0"},"vehicle_type_id":"4","last_reported":1731804693,"current_range_meters":38800,"station_id":"ce4bhsp2rcd13ifvqi50","pricing_plan_id":"cebpf4jnsgd1na2vs0mg"},{"bike_id":"6b0ea79e-cb12-4a50-9845-e4686b3cacc8","system_id":"levelo_inurba_marseille","lat":43.295751,"lon":5.399791,"is_reserved":false,"is_disabled":false,"rental_uris":{"android":"levelo://app?vid=6b0ea79e-cb12-4a50-9845-e4686b3cacc8","ios":"levelo://app?vid=6b0ea79e-cb12-4a50-9845-e4686b3cacc8"},"vehicle_type_id":"4","last_reported":1731804693,"current_range_meters":12000,"station_id":"","pricing_plan_id":"cebpf4jnsgd1na2vs0mg"},{"bike_id":"6b3b29cc-0d16-4209-baf0-d9aa368351c0","system_id":"levelo_inurba_marseille","lat":43.32537,"lon":5.4146,"is_reserved":false,"is_disabled":false,"rental_uris":{"android":"levelo://app?vid=6b3b29cc-0d16-4209-baf0-d9aa368351c0","ios":"levelo://app?vid=6b3b29cc-0d16-4209-baf0-d9aa368351c0"},"vehicle_type_id":"4","last_reported":1731804693,"current_range_meters":38800,"station_id":"ce4bhq12rcd13ifvqhhg","pricing_plan_id":"cebpf4jnsgd1na2vs0mg"},{"bike_id":"ab1e2336-b4d1-4295-8ba5-67ecc35322d1","system_id":"levelo_inurba_marseille","lat":43.24995,"lon":5.38931,"is_reserved":false,"is_disabled":false,"rental_uris":{"android":"levelo://app?vid=ab1e2336-b4d1-4295-8ba5-67ecc35322d1","ios":"levelo://app?vid=ab1e2336-b4d1-4295-8ba5-67ecc35322d1"},"vehicle_type_id":"4","last_reported":1731804693,"current_range_meters":12800,"station_id":"ce4bhgp2rcd13ifvqfd0","pricing_plan_id":"cebpf4jnsgd1na2vs0mg"},{"bike_id":"8791b2ea-d9ce-4798-b3a5-dc77081babb3","system_id":"levelo_inurba_marseille","lat":43.31077,"lon":5.3835,"is_reserved":false,"is_disabled":false,"rental_uris":{"android":"levelo://app?vid=8791b2ea-d9ce-4798-b3a5-dc77081babb3","ios":"levelo://app?vid=8791b2ea-d9ce-4798-b3a5-dc77081babb3"},"vehicle_type_id":"4","last_reported":1731804693,"current_range_meters":36000,"station_id":"ce4bgv92rcd13ifvqcr0","pricing_plan_id":"cebpf4jnsgd1na2vs0mg"},{"bike_id":"72499688-a320-4333-843e-c093213a74e4","system_id":"levelo_inurba_marseille","lat":43.23052,"lon":5.35495,"is_reserved":false,"is_disabled":false,"rental_uris":{"android":"levelo://app?vid=72499688-a320-4333-843e-c093213a74e4","ios":"levelo://app?vid=72499688-a320-4333-843e-c093213a74e4"},"vehicle_type_id":"4","last_reported":1731804693,"current_range_meters":7200,"station_id":"cpo3342slgdg3j2ifvpg","pricing_plan_id":"cebpf4jnsgd1na2vs0mg"},{"bike_id":"993d0f08-f943-4732-ba76-294cefb806b1","system_id":"levelo_inurba_marseille","lat":43.29976,"lon":5.37173,"is_reserved":false,"is_disabled":false,"rental_uris":{"android":"levelo://app?vid=993d0f08-f943-4732-ba76-294cefb806b1","ios":"levelo://app?vid=993d0f08-f943-4732-ba76-294cefb806b1"},"vehicle_type_id":"4","last_reported":1731804693,"current_range_meters":38000,"station_id":"ce4bgr92rcd13ifvqc7g","pricing_plan_id":"cebpf4jnsgd1na2vs0mg"},{"bike_id":"2dbb2de1-6b20-470a-a5a8-98f709fd3897","system_id":"levelo_inurba_marseille","lat":43.25002,"lon":5.38926,"is_reserved":false,"is_disabled":false,"rental_uris":{"android":"levelo://app?vid=2dbb2de1-6b20-470a-a5a8-98f709fd3897","ios":"levelo://app?vid=2dbb2de1-6b20-470a-a5a8-98f709fd3897"},"vehicle_type_id":"4","last_reported":1731804693,"current_range_meters":28400,"station_id":"ce4bhgp2rcd13ifvqfd0","pricing_plan_id":"cebpf4jnsgd1na2vs0mg"},{"bike_id":"cfb84728-fd61-4b96-a4bf-5bedd95d8ccb","system_id":"levelo_inurba_marseille","lat":43.32333,"lon":5.40618,"is_reserved":false,"is_disabled":false,"rental_uris":{"android":"levelo://app?vid=cfb84728-fd61-4b96-a4bf-5bedd95d8ccb","ios":"levelo://app?vid=cfb84728-fd61-4b96-a4bf-5bedd95d8ccb"},"vehicle_type_id":"4","last_reported":1731804693,"current_range_meters":38800,"station_id":"ce4bhq92rcd13ifvqhjg","pricing_plan_id":"cebpf4jnsgd1na2vs0mg"},{"bike_id":"7cf438d8-b1d8-49cd-a040-7a7802b38a16","system_id":"levelo_inurba_marseille","lat":43.28097,"lon":5.37847,"is_reserved":false,"is_disabled":false,"rental_uris":{"android":"levelo://app?vid=7cf438d8-b1d8-49cd-a040-7a7802b38a16","ios":"levelo://app?vid=7cf438d8-b1d8-49cd-a040-7a7802b38a16"},"vehicle_type_id":"4","last_reported":1731804693,"current_range_meters":37600,"station_id":"ce4bha12rcd13ifvqee0","pricing_plan_id":"cebpf4jnsgd1na2vs0mg"},{"bike_id":"0e1d2e7a-8318-45fe-af1b-31857eb1aac8","system_id":"levelo_inurba_marseille","lat":43.2396,"lon":5.36628,"is_reserved":false,"is_disabled":false,"rental_uris":{"android":"levelo://app?vid=0e1d2e7a-8318-45fe-af1b-31857eb1aac8","ios":"levelo://app?vid=0e1d2e7a-8318-45fe-af1b-31857eb1aac8"},"vehicle_type_id":"4","last_reported":1731804693,"current_range_meters":26800,"station_id":"ce4bhi12rcd13ifvqfp0","pricing_plan_id":"cebpf4jnsgd1na2vs0mg"},{"bike_id":"d3d6c01f-3a4b-4f9b-a5b9-2d9687fae2ab","system_id":"levelo_inurba_marseille","lat":43.2795,"lon":5.41049,"is_reserved":false,"is_disabled":false,"rental_uris":{"android":"levelo://app?vid=d3d6c01f-3a4b-4f9b-a5b9-2d9687fae2ab","ios":"levelo://app?vid=d3d6c01f-3a4b-4f9b-a5b9-2d9687fae2ab"},"vehicle_type_id":"4","last_reported":1731804693,"current_range_meters":36800,"station_id":"ce4bhnp2rcd13ifvqh0g","pricing_plan_id":"cebpf4jnsgd1na2vs0mg"},{"bike_id":"2bd3ae1c-22d2-4b0f-9fd7-42d6b84fc3a3","system_id":"levelo_inurba_marseille","lat":43.33601,"lon":5.41033,"is_reserved":false,"is_disabled":false,"rental_uris":{"android":"levelo://app?vid=2bd3ae1c-22d2-4b0f-9fd7-42d6b84fc3a3","ios":"levelo://app?vid=2bd3ae1c-22d2-4b0f-9fd7-42d6b84fc3a3"},"vehicle_type_id":"4","last_reported":1731804693,"current_range_meters":22800,"station_id":"ce4bhqh2rcd13ifvqhmg","pricing_plan_id":"cebpf4jnsgd1na2vs0mg"},{"bike_id":"79b76398-f4aa-422b-b325-2360d07a8784","system_id":"levelo_inurba_marseille","lat":43.33728,"lon":5.39185,"is_reserved":false,"is_disabled":false,"rental_uris":{"android":"levelo://app?vid=79b76398-f4aa-422b-b325-2360d07a8784","ios":"levelo://app?vid=79b76398-f4aa-422b-b325-2360d07a8784"},"vehicle_type_id":"4","last_reported":1731804693,"current_range_meters":38000,"station_id":"ce4bhr92rcd13ifvqhsg","pricing_plan_id":"cebpf4jnsgd1na2vs0mg"},{"bike_id":"6954d931-1cf2-4337-bbd5-1c9ac3ae6e04","system_id":"levelo_inurba_marseille","lat":43.31367,"lon":5.38491,"is_reserved":false,"is_disabled":false,"rental_uris":{"android":"levelo://app?vid=6954d931-1cf2-4337-bbd5-1c9ac3ae6e04","ios":"levelo://app?vid=6954d931-1cf2-4337-bbd5-1c9ac3ae6e04"},"vehicle_type_id":"4","last_reported":1731804693,"current_range_meters":39200,"station_id":"ce4bgt92rcd13ifvqcf0","pricing_plan_id":"cebpf4jnsgd1na2vs0mg"},{"bike_id":"87f4ca05-76ff-4730-92d8-e6ff014a6758","system_id":"levelo_inurba_marseille","lat":43.28516,"lon":5.35994,"is_reserved":false,"is_disabled":false,"rental_uris":{"android":"levelo://app?vid=87f4ca05-76ff-4730-92d8-e6ff014a6758","ios":"levelo://app?vid=87f4ca05-76ff-4730-92d8-e6ff014a6758"},"vehicle_type_id":"4","last_reported":1731804693,"current_range_meters":35200,"station_id":"ce4bhah2rcd13ifvqei0","pricing_plan_id":"cebpf4jnsgd1na2vs0mg"},{"bike_id":"efd07578-0d87-479b-a620-d02e7740eb0d","system_id":"levelo_inurba_marseille","lat":43.24391,"lon":5.37061,"is_reserved":false,"is_disabled":false,"rental_uris":{"android":"levelo://app?vid=efd07578-0d87-479b-a620-d02e7740eb0d","ios":"levelo://app?vid=efd07578-0d87-479b-a620-d02e7740eb0d"},"vehicle_type_id":"4","last_reported":1731804693,"current_range_meters":40000,"station_id":"ce4bhhh2rcd13ifvqfk0","pricing_plan_id":"cebpf4jnsgd1na2vs0mg"},{"bike_id":"c676e81e-a58e-49dc-901c-5c8139e11f12","system_id":"levelo_inurba_marseille","lat":43.31363,"lon":5.38494,"is_reserved":false,"is_disabled":false,"rental_uris":{"android":"levelo://app?vid=c676e81e-a58e-49dc-901c-5c8139e11f12","ios":"levelo://app?vid=c676e81e-a58e-49dc-901c-5c8139e11f12"},"vehicle_type_id":"4","last_reported":1731804693,"current_range_meters":6400,"station_id":"ce4bgt92rcd13ifvqcf0","pricing_plan_id":"cebpf4jnsgd1na2vs0mg"},{"bike_id":"7ab381ea-419e-4dd7-be48-e55550c20a7d","system_id":"levelo_inurba_marseille","lat":43.25863,"lon":5.39898,"is_reserved":false,"is_disabled":false,"rental_uris":{"android":"levelo://app?vid=7ab381ea-419e-4dd7-be48-e55550c20a7d","ios":"levelo://app?vid=7ab381ea-419e-4dd7-be48-e55550c20a7d"},"vehicle_type_id":"4","last_reported":1731804693,"current_range_meters":0,"station_id":"ce4bhl92rcd13ifvqghg","pricing_plan_id":"cebpf4jnsgd1na2vs0mg"},{"bike_id":"b5560b16-597a-41b4-b2cd-0225a9a00fc3","system_id":"levelo_inurba_marseille","lat":43.25584,"lon":5.38234,"is_reserved":false,"is_disabled":false,"rental_uris":{"android":"levelo://app?vid=b5560b16-597a-41b4-b2cd-0225a9a00fc3","ios":"levelo://app?vid=b5560b16-597a-41b4-b2cd-0225a9a00fc3"},"vehicle_type_id":"4","last_reported":1731804693,"current_range_meters":22400,"station_id":"ce4bhih2rcd13ifvqfs0","pricing_plan_id":"cebpf4jnsgd1na2vs0mg"},{"bike_id":"3fcbe528-45e3-439d-80db-ce667e24fe73","system_id":"levelo_inurba_marseille","lat":43.2306,"lon":5.35497,"is_reserved":false,"is_disabled":false,"rental_uris":{"android":"levelo://app?vid=3fcbe528-45e3-439d-80db-ce667e24fe73","ios":"levelo://app?vid=3fcbe528-45e3-439d-80db-ce667e24fe73"},"vehicle_type_id":"4","last_reported":1731804693,"current_range_meters":19200,"station_id":"cpo3342slgdg3j2ifvpg","pricing_plan_id":"cebpf4jnsgd1na2vs0mg"},{"bike_id":"43c36af0-c13f-42b5-8251-cc08a78635b2","system_id":"levelo_inurba_marseille","lat":43.31172,"lon":5.38723,"is_reserved":false,"is_disabled":false,"rental_uris":{"android":"levelo://app?vid=43c36af0-c13f-42b5-8251-cc08a78635b2","ios":"levelo://app?vid=43c36af0-c13f-42b5-8251-cc08a78635b2"},"vehicle_type_id":"4","last_reported":1731804693,"current_range_meters":24400,"station_id":"ce4bgv12rcd13ifvqcp0","pricing_plan_id":"cebpf4jnsgd1na2vs0mg"},{"bike_id":"b2f45d15-d036-4f36-a361-a492e289342e","system_id":"levelo_inurba_marseille","lat":43.22925,"lon":5.35374,"is_reserved":false,"is_disabled":false,"rental_uris":{"android":"levelo://app?vid=b2f45d15-d036-4f36-a361-a492e289342e","ios":"levelo://app?vid=b2f45d15-d036-4f36-a361-a492e289342e"},"vehicle_type_id":"4","last_reported":1731804693,"current_range_meters":37600,"station_id":"cpo3532slgdg3j2ikp40","pricing_plan_id":"cebpf4jnsgd1na2vs0mg"},{"bike_id":"a8e7bede-aa16-450c-baa0-2662d6a36dd8","system_id":"levelo_inurba_marseille","lat":43.257202,"lon":5.411127,"is_reserved":false,"is_disabled":false,"rental_uris":{"android":"levelo://app?vid=a8e7bede-aa16-450c-baa0-2662d6a36dd8","ios":"levelo://app?vid=a8e7bede-aa16-450c-baa0-2662d6a36dd8"},"vehicle_type_id":"4","last_reported":1731804693,"current_range_meters":12400,"station_id":"ce4bhkp2rcd13ifvqgd0","pricing_plan_id":"cebpf4jnsgd1na2vs0mg"},{"bike_id":"f2801993-1910-4607-8026-67d399720184","system_id":"levelo_inurba_marseille","lat":43.29554,"lon":5.42294,"is_reserved":false,"is_disabled":false,"rental_uris":{"android":"levelo://app?vid=f2801993-1910-4607-8026-67d399720184","ios":"levelo://app?vid=f2801993-1910-4607-8026-67d399720184"},"vehicle_type_id":"4","last_reported":1731804693,"current_range_meters":22800,"station_id":"ce4bhph2rcd13ifvqhdg","pricing_plan_id":"cebpf4jnsgd1na2vs0mg"},{"bike_id":"db0085fb-8c79-4ddd-9c9c-5f619ed839e1","system_id":"levelo_inurba_marseille","lat":43.27619,"lon":5.36117,"is_reserved":false,"is_disabled":false,"rental_uris":{"android":"levelo://app?vid=db0085fb-8c79-4ddd-9c9c-5f619ed839e1","ios":"levelo://app?vid=db0085fb-8c79-4ddd-9c9c-5f619ed839e1"},"vehicle_type_id":"4","last_reported":1731804693,"current_range_meters":34800,"station_id":"ce4bgj92rcd13ifvqbe0","pricing_plan_id":"cebpf4jnsgd1na2vs0mg"},{"bike_id":"94307bae-44c4-4eff-a108-62ec9c33e2e6","system_id":"levelo_inurba_marseille","lat":43.29896,"lon":5.43666,"is_reserved":false,"is_disabled":false,"rental_uris":{"android":"levelo://app?vid=94307bae-44c4-4eff-a108-62ec9c33e2e6","ios":"levelo://app?vid=94307bae-44c4-4eff-a108-62ec9c33e2e6"},"vehicle_type_id":"4","last_reported":1731804693,"current_range_meters":30000,"station_id":"ce4bhpp2rcd13ifvqhfg","pricing_plan_id":"cebpf4jnsgd1na2vs0mg"},{"bike_id":"af4eb732-706e-44bf-8285-9a12812ac693","system_id":"levelo_inurba_marseille","lat":43.24081,"lon":5.37753,"is_reserved":false,"is_disabled":false,"rental_uris":{"android":"levelo://app?vid=af4eb732-706e-44bf-8285-9a12812ac693","ios":"levelo://app?vid=af4eb732-706e-44bf-8285-9a12812ac693"},"vehicle_type_id":"4","last_reported":1731804693,"current_range_meters":38000,"station_id":"ce4bhnp2rcd13ifvqgvg","pricing_plan_id":"cebpf4jnsgd1na2vs0mg"},{"bike_id":"ceadba04-cf16-455e-81a6-6db7f9d246d9","system_id":"levelo_inurba_marseille","lat":43.2587,"lon":5.39892,"is_reserved":false,"is_disabled":false,"rental_uris":{"android":"levelo://app?vid=ceadba04-cf16-455e-81a6-6db7f9d246d9","ios":"levelo://app?vid=ceadba04-cf16-455e-81a6-6db7f9d246d9"},"vehicle_type_id":"4","last_reported":1731804693,"current_range_meters":33200,"station_id":"ce4bhl92rcd13ifvqghg","pricing_plan_id":"cebpf4jnsgd1na2vs0mg"},{"bike_id":"6d6a0dde-c067-4493-bad2-5ee0d9b9474d","system_id":"levelo_inurba_marseille","lat":43.292965,"lon":5.374649,"is_reserved":false,"is_disabled":false,"rental_uris":{"android":"levelo://app?vid=6d6a0dde-c067-4493-bad2-5ee0d9b9474d","ios":"levelo://app?vid=6d6a0dde-c067-4493-bad2-5ee0d9b9474d"},"vehicle_type_id":"4","last_reported":1731804693,"current_range_meters":33600,"station_id":"ce4bgi12rcd13ifvqb70","pricing_plan_id":"cebpf4jnsgd1na2vs0mg"},{"bike_id":"3e209b65-fea7-4c25-a65a-28d2c6cbb811","system_id":"levelo_inurba_marseille","lat":43.31351,"lon":5.36715,"is_reserved":false,"is_disabled":false,"rental_uris":{"android":"levelo://app?vid=3e209b65-fea7-4c25-a65a-28d2c6cbb811","ios":"levelo://app?vid=3e209b65-fea7-4c25-a65a-28d2c6cbb811"},"vehicle_type_id":"4","last_reported":1731804693,"current_range_meters":34000,"station_id":"ce4bgr92rcd13ifvqc6g","pricing_plan_id":"cebpf4jnsgd1na2vs0mg"},{"bike_id":"149b45a9-598f-4efd-9aad-83ce5d83bc07","system_id":"levelo_inurba_marseille","lat":43.28719,"lon":5.37951,"is_reserved":false,"is_disabled":false,"rental_uris":{"android":"levelo://app?vid=149b45a9-598f-4efd-9aad-83ce5d83bc07","ios":"levelo://app?vid=149b45a9-598f-4efd-9aad-83ce5d83bc07"},"vehicle_type_id":"4","last_reported":1731804693,"current_range_meters":38800,"station_id":"ce4bh9p2rcd13ifvqec0","pricing_plan_id":"cebpf4jnsgd1na2vs0mg"},{"bike_id":"8fc19385-158a-491b-b10f-9c5819f23bf2","system_id":"levelo_inurba_marseille","lat":43.32542,"lon":5.41453,"is_reserved":false,"is_disabled":false,"rental_uris":{"android":"levelo://app?vid=8fc19385-158a-491b-b10f-9c5819f23bf2","ios":"levelo://app?vid=8fc19385-158a-491b-b10f-9c5819f23bf2"},"vehicle_type_id":"4","last_reported":1731804693,"current_range_meters":21600,"station_id":"ce4bhq12rcd13ifvqhhg","pricing_plan_id":"cebpf4jnsgd1na2vs0mg"},{"bike_id":"17c1da7f-753a-419e-b420-c5c13659a37e","system_id":"levelo_inurba_marseille","lat":43.31993,"lon":5.38157,"is_reserved":false,"is_disabled":false,"rental_uris":{"android":"levelo://app?vid=17c1da7f-753a-419e-b420-c5c13659a37e","ios":"levelo://app?vid=17c1da7f-753a-419e-b420-c5c13659a37e"},"vehicle_type_id":"4","last_reported":1731804693,"current_range_meters":11600,"station_id":"ce4bhr12rcd13ifvqhpg","pricing_plan_id":"cebpf4jnsgd1na2vs0mg"},{"bike_id":"e68b8a9d-ff89-4855-aa4d-55e76bff1af1","system_id":"levelo_inurba_marseille","lat":43.3123,"lon":5.36863,"is_reserved":false,"is_disabled":false,"rental_uris":{"android":"levelo://app?vid=e68b8a9d-ff89-4855-aa4d-55e76bff1af1","ios":"levelo://app?vid=e68b8a9d-ff89-4855-aa4d-55e76bff1af1"},"vehicle_type_id":"4","last_reported":1731804693,"current_range_meters":35600,"station_id":"ce4bgl92rcd13ifvqbq0","pricing_plan_id":"cebpf4jnsgd1na2vs0mg"},{"bike_id":"b128a8d7-7942-4d37-9966-cfc17584ff0d","system_id":"levelo_inurba_marseille","lat":43.2807,"lon":5.407795,"is_reserved":false,"is_disabled":false,"rental_uris":{"android":"levelo://app?vid=b128a8d7-7942-4d37-9966-cfc17584ff0d","ios":"levelo://app?vid=b128a8d7-7942-4d37-9966-cfc17584ff0d"},"vehicle_type_id":"4","last_reported":1731804693,"current_range_meters":17600,"station_id":"","pricing_plan_id":"cebpf4jnsgd1na2vs0mg"},{"bike_id":"76115c9c-6a69-4b90-85b6-7213cbed9156","system_id":"levelo_inurba_marseille","lat":43.31166,"lon":5.38715,"is_reserved":false,"is_disabled":false,"rental_uris":{"android":"levelo://app?vid=76115c9c-6a69-4b90-85b6-7213cbed9156","ios":"levelo://app?vid=76115c9c-6a69-4b90-85b6-7213cbed9156"},"vehicle_type_id":"4","last_reported":1731804693,"current_range_meters":11600,"station_id":"ce4bgv12rcd13ifvqcp0","pricing_plan_id":"cebpf4jnsgd1na2vs0mg"},{"bike_id":"755dc9ed-0ea7-4550-8579-4432d0a4ac80","system_id":"levelo_inurba_marseille","lat":43.31174,"lon":5.38708,"is_reserved":false,"is_disabled":false,"rental_uris":{"android":"levelo://app?vid=755dc9ed-0ea7-4550-8579-4432d0a4ac80","ios":"levelo://app?vid=755dc9ed-0ea7-4550-8579-4432d0a4ac80"},"vehicle_type_id":"4","last_reported":1731804693,"current_range_meters":30800,"station_id":"ce4bgv12rcd13ifvqcp0","pricing_plan_id":"cebpf4jnsgd1na2vs0mg"},{"bike_id":"2d8463fd-c676-46a4-8e90-f98a398284de","system_id":"levelo_inurba_marseille","lat":43.29717,"lon":5.36614,"is_reserved":false,"is_disabled":false,"rental_uris":{"android":"levelo://app?vid=2d8463fd-c676-46a4-8e90-f98a398284de","ios":"levelo://app?vid=2d8463fd-c676-46a4-8e90-f98a398284de"},"vehicle_type_id":"4","last_reported":1731804693,"current_range_meters":8400,"station_id":"ce4bgn12rcd13ifvqbt0","pricing_plan_id":"cebpf4jnsgd1na2vs0mg"},{"bike_id":"57834c4a-44a4-482e-8ffb-0f1118195d30","system_id":"levelo_inurba_marseille","lat":43.29548,"lon":5.42278,"is_reserved":false,"is_disabled":false,"rental_uris":{"android":"levelo://app?vid=57834c4a-44a4-482e-8ffb-0f1118195d30","ios":"levelo://app?vid=57834c4a-44a4-482e-8ffb-0f1118195d30"},"vehicle_type_id":"4","last_reported":1731804693,"current_range_meters":16000,"station_id":"ce4bhph2rcd13ifvqhdg","pricing_plan_id":"cebpf4jnsgd1na2vs0mg"},{"bike_id":"5217a0fa-6488-44df-8292-eef033964837","system_id":"levelo_inurba_marseille","lat":43.27997,"lon":5.40015,"is_reserved":false,"is_disabled":false,"rental_uris":{"android":"levelo://app?vid=5217a0fa-6488-44df-8292-eef033964837","ios":"levelo://app?vid=5217a0fa-6488-44df-8292-eef033964837"},"vehicle_type_id":"4","last_reported":1731804693,"current_range_meters":17200,"station_id":"ce4bho92rcd13ifvqh4g","pricing_plan_id":"cebpf4jnsgd1na2vs0mg"},{"bike_id":"0d090cbd-7bd8-48ce-96b4-17fa666688e1","system_id":"levelo_inurba_marseille","lat":43.34147,"lon":5.40909,"is_reserved":false,"is_disabled":false,"rental_uris":{"android":"levelo://app?vid=0d090cbd-7bd8-48ce-96b4-17fa666688e1","ios":"levelo://app?vid=0d090cbd-7bd8-48ce-96b4-17fa666688e1"},"vehicle_type_id":"4","last_reported":1731804693,"current_range_meters":28000,"station_id":"ce4bhqh2rcd13ifvqhlg","pricing_plan_id":"cebpf4jnsgd1na2vs0mg"},{"bike_id":"a737b082-d05c-4a9b-a0cf-3a50ffd3d38b","system_id":"levelo_inurba_marseille","lat":43.30138,"lon":5.39868,"is_reserved":false,"is_disabled":false,"rental_uris":{"android":"levelo://app?vid=a737b082-d05c-4a9b-a0cf-3a50ffd3d38b","ios":"levelo://app?vid=a737b082-d05c-4a9b-a0cf-3a50ffd3d38b"},"vehicle_type_id":"4","last_reported":1731804693,"current_range_meters":35200,"station_id":"ce4bh0h2rcd13ifvqd40","pricing_plan_id":"cebpf4jnsgd1na2vs0mg"},{"bike_id":"654e2e94-6e04-4b1a-9fd5-d4aaeb93c3ad","system_id":"levelo_inurba_marseille","lat":43.31362,"lon":5.38493,"is_reserved":false,"is_disabled":false,"rental_uris":{"android":"levelo://app?vid=654e2e94-6e04-4b1a-9fd5-d4aaeb93c3ad","ios":"levelo://app?vid=654e2e94-6e04-4b1a-9fd5-d4aaeb93c3ad"},"vehicle_type_id":"4","last_reported":1731804693,"current_range_meters":36800,"station_id":"ce4bgt92rcd13ifvqcf0","pricing_plan_id":"cebpf4jnsgd1na2vs0mg"},{"bike_id":"75920a68-20af-4e25-8f9a-eebdafdde0c1","system_id":"levelo_inurba_marseille","lat":43.32339,"lon":5.40619,"is_reserved":false,"is_disabled":false,"rental_uris":{"android":"levelo://app?vid=75920a68-20af-4e25-8f9a-eebdafdde0c1","ios":"levelo://app?vid=75920a68-20af-4e25-8f9a-eebdafdde0c1"},"vehicle_type_id":"4","last_reported":1731804693,"current_range_meters":38800,"station_id":"ce4bhq92rcd13ifvqhjg","pricing_plan_id":"cebpf4jnsgd1na2vs0mg"},{"bike_id":"97effdf3-6415-487e-a3d6-f5e2de11f5c8","system_id":"levelo_inurba_marseille","lat":43.26684,"lon":5.38271,"is_reserved":false,"is_disabled":false,"rental_uris":{"android":"levelo://app?vid=97effdf3-6415-487e-a3d6-f5e2de11f5c8","ios":"levelo://app?vid=97effdf3-6415-487e-a3d6-f5e2de11f5c8"},"vehicle_type_id":"4","last_reported":1731804693,"current_range_meters":38000,"station_id":"ce4bhg92rcd13ifvqf90","pricing_plan_id":"cebpf4jnsgd1na2vs0mg"},{"bike_id":"95dc1d29-de6b-4b02-8633-320de4a8f602","system_id":"levelo_inurba_marseille","lat":43.28705,"lon":5.37389,"is_reserved":false,"is_disabled":false,"rental_uris":{"android":"levelo://app?vid=95dc1d29-de6b-4b02-8633-320de4a8f602","ios":"levelo://app?vid=95dc1d29-de6b-4b02-8633-320de4a8f602"},"vehicle_type_id":"4","last_reported":1731804693,"current_range_meters":28400,"station_id":"ce4bh3p2rcd13ifvqdq0","pricing_plan_id":"cebpf4jnsgd1na2vs0mg"},{"bike_id":"9009f4e7-5faa-4794-b377-a93f205b846e","system_id":"levelo_inurba_marseille","lat":43.29069,"lon":5.37166,"is_reserved":false,"is_disabled":false,"rental_uris":{"android":"levelo://app?vid=9009f4e7-5faa-4794-b377-a93f205b846e","ios":"levelo://app?vid=9009f4e7-5faa-4794-b377-a93f205b846e"},"vehicle_type_id":"4","last_reported":1731804693,"current_range_meters":36800,"station_id":"ce4bh5p2rcd13ifvqe4g","pricing_plan_id":"cebpf4jnsgd1na2vs0mg"},{"bike_id":"0b580216-b07f-4821-a19d-686462be0488","system_id":"levelo_inurba_marseille","lat":43.2293,"lon":5.35381,"is_reserved":false,"is_disabled":false,"rental_uris":{"android":"levelo://app?vid=0b580216-b07f-4821-a19d-686462be0488","ios":"levelo://app?vid=0b580216-b07f-4821-a19d-686462be0488"},"vehicle_type_id":"4","last_reported":1731804693,"current_range_meters":37600,"station_id":"cpo3532slgdg3j2ikp40","pricing_plan_id":"cebpf4jnsgd1na2vs0mg"},{"bike_id":"8ec12441-0a09-48b5-9b60-4ec15c08e11c","system_id":"levelo_inurba_marseille","lat":43.23208,"lon":5.39965,"is_reserved":false,"is_disabled":false,"rental_uris":{"android":"levelo://app?vid=8ec12441-0a09-48b5-9b60-4ec15c08e11c","ios":"levelo://app?vid=8ec12441-0a09-48b5-9b60-4ec15c08e11c"},"vehicle_type_id":"4","last_reported":1731804693,"current_range_meters":11200,"station_id":"ce4bhn12rcd13ifvqgqg","pricing_plan_id":"cebpf4jnsgd1na2vs0mg"},{"bike_id":"919c2b04-2f05-4beb-9728-c90882114e9c","system_id":"levelo_inurba_marseille","lat":43.32364,"lon":5.38879,"is_reserved":false,"is_disabled":false,"rental_uris":{"android":"levelo://app?vid=919c2b04-2f05-4beb-9728-c90882114e9c","ios":"levelo://app?vid=919c2b04-2f05-4beb-9728-c90882114e9c"},"vehicle_type_id":"4","last_reported":1731804693,"current_range_meters":19600,"station_id":"ce4bhqp2rcd13ifvqhog","pricing_plan_id":"cebpf4jnsgd1na2vs0mg"},{"bike_id":"6c09764b-b705-4bff-8274-3ff08e7b8ec5","system_id":"levelo_inurba_marseille","lat":43.25583,"lon":5.3822,"is_reserved":false,"is_disabled":false,"rental_uris":{"android":"levelo://app?vid=6c09764b-b705-4bff-8274-3ff08e7b8ec5","ios":"levelo://app?vid=6c09764b-b705-4bff-8274-3ff08e7b8ec5"},"vehicle_type_id":"4","last_reported":1731804693,"current_range_meters":38800,"station_id":"ce4bhih2rcd13ifvqfs0","pricing_plan_id":"cebpf4jnsgd1na2vs0mg"},{"bike_id":"4138345b-cc1d-40b0-8916-e8013770729a","system_id":"levelo_inurba_marseille","lat":43.24639,"lon":5.38894,"is_reserved":false,"is_disabled":false,"rental_uris":{"android":"levelo://app?vid=4138345b-cc1d-40b0-8916-e8013770729a","ios":"levelo://app?vid=4138345b-cc1d-40b0-8916-e8013770729a"},"vehicle_type_id":"4","last_reported":1731804693,"current_range_meters":38000,"station_id":"ce4bhg12rcd13ifvqf60","pricing_plan_id":"cebpf4jnsgd1na2vs0mg"},{"bike_id":"fd9420c1-2eaa-4137-b93c-afc5545251d8","system_id":"levelo_inurba_marseille","lat":43.29557,"lon":5.4229,"is_reserved":false,"is_disabled":false,"rental_uris":{"android":"levelo://app?vid=fd9420c1-2eaa-4137-b93c-afc5545251d8","ios":"levelo://app?vid=fd9420c1-2eaa-4137-b93c-afc5545251d8"},"vehicle_type_id":"4","last_reported":1731804693,"current_range_meters":3600,"station_id":"ce4bhph2rcd13ifvqhdg","pricing_plan_id":"cebpf4jnsgd1na2vs0mg"},{"bike_id":"9c16e19f-b952-452f-b4fc-f2aa9d923631","system_id":"levelo_inurba_marseille","lat":43.315342,"lon":5.380336,"is_reserved":false,"is_disabled":false,"rental_uris":{"android":"levelo://app?vid=9c16e19f-b952-452f-b4fc-f2aa9d923631","ios":"levelo://app?vid=9c16e19f-b952-452f-b4fc-f2aa9d923631"},"vehicle_type_id":"4","last_reported":1731804693,"current_range_meters":38800,"station_id":"ce4bhsp2rcd13ifvqi50","pricing_plan_id":"cebpf4jnsgd1na2vs0mg"},{"bike_id":"af4a97f1-58db-4817-bef5-45b90e619b0a","system_id":"levelo_inurba_marseille","lat":43.29541,"lon":5.392076,"is_reserved":false,"is_disabled":false,"rental_uris":{"android":"levelo://app?vid=af4a97f1-58db-4817-bef5-45b90e619b0a","ios":"levelo://app?vid=af4a97f1-58db-4817-bef5-45b90e619b0a"},"vehicle_type_id":"4","last_reported":1731804693,"current_range_meters":18000,"station_id":"ce4bh3p2rcd13ifvqdp0","pricing_plan_id":"cebpf4jnsgd1na2vs0mg"},{"bike_id":"deaffe6f-3d3a-4cc9-acc5-2632916739ab","system_id":"levelo_inurba_marseille","lat":43.2418,"lon":5.39724,"is_reserved":false,"is_disabled":false,"rental_uris":{"android":"levelo://app?vid=deaffe6f-3d3a-4cc9-acc5-2632916739ab","ios":"levelo://app?vid=deaffe6f-3d3a-4cc9-acc5-2632916739ab"},"vehicle_type_id":"4","last_reported":1731804693,"current_range_meters":34800,"station_id":"ce4bhn12rcd13ifvqgpg","pricing_plan_id":"cebpf4jnsgd1na2vs0mg"},{"bike_id":"4a91ae45-0681-4069-aae6-a6cf66f15ed4","system_id":"levelo_inurba_marseille","lat":43.32659,"lon":5.40987,"is_reserved":false,"is_disabled":false,"rental_uris":{"android":"levelo://app?vid=4a91ae45-0681-4069-aae6-a6cf66f15ed4","ios":"levelo://app?vid=4a91ae45-0681-4069-aae6-a6cf66f15ed4"},"vehicle_type_id":"4","last_reported":1731804693,"current_range_meters":24800,"station_id":"ce4bhpp2rcd13ifvqhgg","pricing_plan_id":"cebpf4jnsgd1na2vs0mg"},{"bike_id":"87119aad-ad8b-4504-8d03-d8d8d5751481","system_id":"levelo_inurba_marseille","lat":43.27912,"lon":5.41215,"is_reserved":false,"is_disabled":false,"rental_uris":{"android":"levelo://app?vid=87119aad-ad8b-4504-8d03-d8d8d5751481","ios":"levelo://app?vid=87119aad-ad8b-4504-8d03-d8d8d5751481"},"vehicle_type_id":"4","last_reported":1731804693,"current_range_meters":25600,"station_id":"","pricing_plan_id":"cebpf4jnsgd1na2vs0mg"},{"bike_id":"47b4c5f7-af8d-4ed4-934d-2257f0d3fe18","system_id":"levelo_inurba_marseille","lat":43.24067,"lon":5.37757,"is_reserved":false,"is_disabled":false,"rental_uris":{"android":"levelo://app?vid=47b4c5f7-af8d-4ed4-934d-2257f0d3fe18","ios":"levelo://app?vid=47b4c5f7-af8d-4ed4-934d-2257f0d3fe18"},"vehicle_type_id":"4","last_reported":1731804693,"current_range_meters":38800,"station_id":"ce4bhnp2rcd13ifvqgvg","pricing_plan_id":"cebpf4jnsgd1na2vs0mg"},{"bike_id":"ba57f1ef-3fbb-4816-9e62-2e0737689f5e","system_id":"levelo_inurba_marseille","lat":43.33608,"lon":5.41023,"is_reserved":false,"is_disabled":false,"rental_uris":{"android":"levelo://app?vid=ba57f1ef-3fbb-4816-9e62-2e0737689f5e","ios":"levelo://app?vid=ba57f1ef-3fbb-4816-9e62-2e0737689f5e"},"vehicle_type_id":"4","last_reported":1731804693,"current_range_meters":37600,"station_id":"ce4bhqh2rcd13ifvqhmg","pricing_plan_id":"cebpf4jnsgd1na2vs0mg"},{"bike_id":"4df96d24-58e7-4ba9-9234-e475332e4941","system_id":"levelo_inurba_marseille","lat":43.26058,"lon":5.39401,"is_reserved":false,"is_disabled":false,"rental_uris":{"android":"levelo://app?vid=4df96d24-58e7-4ba9-9234-e475332e4941","ios":"levelo://app?vid=4df96d24-58e7-4ba9-9234-e475332e4941"},"vehicle_type_id":"4","last_reported":1731804693,"current_range_meters":24800,"station_id":"ce4bhh92rcd13ifvqfj0","pricing_plan_id":"cebpf4jnsgd1na2vs0mg"},{"bike_id":"31aba007-d5c0-4235-87ad-39644604de95","system_id":"levelo_inurba_marseille","lat":43.3117,"lon":5.38718,"is_reserved":false,"is_disabled":false,"rental_uris":{"android":"levelo://app?vid=31aba007-d5c0-4235-87ad-39644604de95","ios":"levelo://app?vid=31aba007-d5c0-4235-87ad-39644604de95"},"vehicle_type_id":"4","last_reported":1731804693,"current_range_meters":38800,"station_id":"ce4bgv12rcd13ifvqcp0","pricing_plan_id":"cebpf4jnsgd1na2vs0mg"},{"bike_id":"6da298a1-b1e6-4ba8-a57a-5400211d4b87","system_id":"levelo_inurba_marseille","lat":43.27993,"lon":5.4166,"is_reserved":false,"is_disabled":false,"rental_uris":{"android":"levelo://app?vid=6da298a1-b1e6-4ba8-a57a-5400211d4b87","ios":"levelo://app?vid=6da298a1-b1e6-4ba8-a57a-5400211d4b87"},"vehicle_type_id":"4","last_reported":1731804693,"current_range_meters":30800,"station_id":"ce4bho12rcd13ifvqh1g","pricing_plan_id":"cebpf4jnsgd1na2vs0mg"},{"bike_id":"e229980f-b37c-40bf-84bb-056cc8aecd72","system_id":"levelo_inurba_marseille","lat":43.31997,"lon":5.38154,"is_reserved":false,"is_disabled":false,"rental_uris":{"android":"levelo://app?vid=e229980f-b37c-40bf-84bb-056cc8aecd72","ios":"levelo://app?vid=e229980f-b37c-40bf-84bb-056cc8aecd72"},"vehicle_type_id":"4","last_reported":1731804693,"current_range_meters":39200,"station_id":"ce4bhr12rcd13ifvqhpg","pricing_plan_id":"cebpf4jnsgd1na2vs0mg"},{"bike_id":"461b8f01-20f2-4b5b-be2f-179315653034","system_id":"levelo_inurba_marseille","lat":43.27071,"lon":5.42278,"is_reserved":false,"is_disabled":false,"rental_uris":{"android":"levelo://app?vid=461b8f01-20f2-4b5b-be2f-179315653034","ios":"levelo://app?vid=461b8f01-20f2-4b5b-be2f-179315653034"},"vehicle_type_id":"4","last_reported":1731804693,"current_range_meters":40000,"station_id":"ce4bhk92rcd13ifvqgb0","pricing_plan_id":"cebpf4jnsgd1na2vs0mg"},{"bike_id":"df224c69-5a43-4fd1-8307-db3393b5b5c0","system_id":"levelo_inurba_marseille","lat":43.31534,"lon":5.3803,"is_reserved":false,"is_disabled":false,"rental_uris":{"android":"levelo://app?vid=df224c69-5a43-4fd1-8307-db3393b5b5c0","ios":"levelo://app?vid=df224c69-5a43-4fd1-8307-db3393b5b5c0"},"vehicle_type_id":"4","last_reported":1731804693,"current_range_meters":38800,"station_id":"ce4bhsp2rcd13ifvqi50","pricing_plan_id":"cebpf4jnsgd1na2vs0mg"},{"bike_id":"c8f960ba-2944-4ef9-89a2-a6aae06a74fe","system_id":"levelo_inurba_marseille","lat":43.28439,"lon":5.39184,"is_reserved":false,"is_disabled":false,"rental_uris":{"android":"levelo://app?vid=c8f960ba-2944-4ef9-89a2-a6aae06a74fe","ios":"levelo://app?vid=c8f960ba-2944-4ef9-89a2-a6aae06a74fe"},"vehicle_type_id":"4","last_reported":1731804693,"current_range_meters":40000,"station_id":"ce4bhoh2rcd13ifvqh5g","pricing_plan_id":"cebpf4jnsgd1na2vs0mg"},{"bike_id":"12867844-fa2a-41b2-8d74-706d4ef15909","system_id":"levelo_inurba_marseille","lat":43.33773,"lon":5.37436,"is_reserved":false,"is_disabled":false,"rental_uris":{"android":"levelo://app?vid=12867844-fa2a-41b2-8d74-706d4ef15909","ios":"levelo://app?vid=12867844-fa2a-41b2-8d74-706d4ef15909"},"vehicle_type_id":"4","last_reported":1731804693,"current_range_meters":36400,"station_id":"","pricing_plan_id":"cebpf4jnsgd1na2vs0mg"},{"bike_id":"3455c789-2e35-4152-8de0-fa613ba872df","system_id":"levelo_inurba_marseille","lat":43.32363,"lon":5.38883,"is_reserved":false,"is_disabled":false,"rental_uris":{"android":"levelo://app?vid=3455c789-2e35-4152-8de0-fa613ba872df","ios":"levelo://app?vid=3455c789-2e35-4152-8de0-fa613ba872df"},"vehicle_type_id":"4","last_reported":1731804693,"current_range_meters":36000,"station_id":"ce4bhqp2rcd13ifvqhog","pricing_plan_id":"cebpf4jnsgd1na2vs0mg"},{"bike_id":"abfc64bf-6d3a-4c74-80d2-a8c64804c540","system_id":"levelo_inurba_marseille","lat":43.29269,"lon":5.40909,"is_reserved":false,"is_disabled":false,"rental_uris":{"android":"levelo://app?vid=abfc64bf-6d3a-4c74-80d2-a8c64804c540","ios":"levelo://app?vid=abfc64bf-6d3a-4c74-80d2-a8c64804c540"},"vehicle_type_id":"4","last_reported":1731804693,"current_range_meters":34000,"station_id":"ce4bh192rcd13ifvqdc0","pricing_plan_id":"cebpf4jnsgd1na2vs0mg"},{"bike_id":"0f94c962-6bca-4904-9b9e-b573544d963c","system_id":"levelo_inurba_marseille","lat":43.27618,"lon":5.36112,"is_reserved":false,"is_disabled":false,"rental_uris":{"android":"levelo://app?vid=0f94c962-6bca-4904-9b9e-b573544d963c","ios":"levelo://app?vid=0f94c962-6bca-4904-9b9e-b573544d963c"},"vehicle_type_id":"4","last_reported":1731804693,"current_range_meters":32000,"station_id":"ce4bgj92rcd13ifvqbe0","pricing_plan_id":"cebpf4jnsgd1na2vs0mg"},{"bike_id":"e5e782bb-c39c-4dbb-8178-2dffb0a59956","system_id":"levelo_inurba_marseille","lat":43.31162,"lon":5.38717,"is_reserved":false,"is_disabled":false,"rental_uris":{"android":"levelo://app?vid=e5e782bb-c39c-4dbb-8178-2dffb0a59956","ios":"levelo://app?vid=e5e782bb-c39c-4dbb-8178-2dffb0a59956"},"vehicle_type_id":"4","last_reported":1731804693,"current_range_meters":38800,"station_id":"ce4bgv12rcd13ifvqcp0","pricing_plan_id":"cebpf4jnsgd1na2vs0mg"},{"bike_id":"bbed7547-ba29-4341-8b31-71ec0414ac65","system_id":"levelo_inurba_marseille","lat":43.31231,"lon":5.36851,"is_reserved":false,"is_disabled":false,"rental_uris":{"android":"levelo://app?vid=bbed7547-ba29-4341-8b31-71ec0414ac65","ios":"levelo://app?vid=bbed7547-ba29-4341-8b31-71ec0414ac65"},"vehicle_type_id":"4","last_reported":1731804693,"current_range_meters":4800,"station_id":"ce4bgl92rcd13ifvqbq0","pricing_plan_id":"cebpf4jnsgd1na2vs0mg"},{"bike_id":"93029be8-c148-40c6-a98e-a5d31e4e4fd0","system_id":"levelo_inurba_marseille","lat":43.2835,"lon":5.38102,"is_reserved":false,"is_disabled":false,"rental_uris":{"android":"levelo://app?vid=93029be8-c148-40c6-a98e-a5d31e4e4fd0","ios":"levelo://app?vid=93029be8-c148-40c6-a98e-a5d31e4e4fd0"},"vehicle_type_id":"4","last_reported":1731804693,"current_range_meters":39200,"station_id":"ce4bh412rcd13ifvqdr0","pricing_plan_id":"cebpf4jnsgd1na2vs0mg"},{"bike_id":"7cadb4cf-c20e-49ae-a7c3-3a75db5f5ad2","system_id":"levelo_inurba_marseille","lat":43.31278,"lon":5.40166,"is_reserved":false,"is_disabled":false,"rental_uris":{"android":"levelo://app?vid=7cadb4cf-c20e-49ae-a7c3-3a75db5f5ad2","ios":"levelo://app?vid=7cadb4cf-c20e-49ae-a7c3-3a75db5f5ad2"},"vehicle_type_id":"4","last_reported":1731804693,"current_range_meters":38800,"station_id":"ce4bh092rcd13ifvqd30","pricing_plan_id":"cebpf4jnsgd1na2vs0mg"},{"bike_id":"08556236-18aa-48b5-821c-02152b23fea2","system_id":"levelo_inurba_marseille","lat":43.27074,"lon":5.42281,"is_reserved":false,"is_disabled":false,"rental_uris":{"android":"levelo://app?vid=08556236-18aa-48b5-821c-02152b23fea2","ios":"levelo://app?vid=08556236-18aa-48b5-821c-02152b23fea2"},"vehicle_type_id":"4","last_reported":1731804693,"current_range_meters":18800,"station_id":"ce4bhk92rcd13ifvqgb0","pricing_plan_id":"cebpf4jnsgd1na2vs0mg"},{"bike_id":"56428505-172c-4b4f-906d-8c6ca9064f2c","system_id":"levelo_inurba_marseille","lat":43.24388,"lon":5.37063,"is_reserved":false,"is_disabled":false,"rental_uris":{"android":"levelo://app?vid=56428505-172c-4b4f-906d-8c6ca9064f2c","ios":"levelo://app?vid=56428505-172c-4b4f-906d-8c6ca9064f2c"},"vehicle_type_id":"4","last_reported":1731804693,"current_range_meters":10000,"station_id":"ce4bhhh2rcd13ifvqfk0","pricing_plan_id":"cebpf4jnsgd1na2vs0mg"},{"bike_id":"89dddfc4-ec44-4327-b3aa-c350546d94f0","system_id":"levelo_inurba_marseille","lat":43.24814,"lon":5.3746,"is_reserved":false,"is_disabled":false,"rental_uris":{"android":"levelo://app?vid=89dddfc4-ec44-4327-b3aa-c350546d94f0","ios":"levelo://app?vid=89dddfc4-ec44-4327-b3aa-c350546d94f0"},"vehicle_type_id":"4","last_reported":1731804693,"current_range_meters":38800,"station_id":"ce4bhgh2rcd13ifvqfb0","pricing_plan_id":"cebpf4jnsgd1na2vs0mg"},{"bike_id":"16505cf6-43be-43b7-a163-1a421edfe04f","system_id":"levelo_inurba_marseille","lat":43.30797,"lon":5.43522,"is_reserved":false,"is_disabled":false,"rental_uris":{"android":"levelo://app?vid=16505cf6-43be-43b7-a163-1a421edfe04f","ios":"levelo://app?vid=16505cf6-43be-43b7-a163-1a421edfe04f"},"vehicle_type_id":"4","last_reported":1731804693,"current_range_meters":23200,"station_id":"ce4bhph2rcd13ifvqheg","pricing_plan_id":"cebpf4jnsgd1na2vs0mg"},{"bike_id":"197019d9-cb9a-40a3-8d0d-41e308275835","system_id":"levelo_inurba_marseille","lat":43.27812,"lon":5.4071,"is_reserved":false,"is_disabled":false,"rental_uris":{"android":"levelo://app?vid=197019d9-cb9a-40a3-8d0d-41e308275835","ios":"levelo://app?vid=197019d9-cb9a-40a3-8d0d-41e308275835"},"vehicle_type_id":"4","last_reported":1731804693,"current_range_meters":19200,"station_id":"ce4bhnh2rcd13ifvqgtg","pricing_plan_id":"cebpf4jnsgd1na2vs0mg"},{"bike_id":"6b76da8b-8346-4b5f-a49b-cdde5bffd08b","system_id":"levelo_inurba_marseille","lat":43.27804,"lon":5.40717,"is_reserved":false,"is_disabled":false,"rental_uris":{"android":"levelo://app?vid=6b76da8b-8346-4b5f-a49b-cdde5bffd08b","ios":"levelo://app?vid=6b76da8b-8346-4b5f-a49b-cdde5bffd08b"},"vehicle_type_id":"4","last_reported":1731804693,"current_range_meters":39200,"station_id":"ce4bhnh2rcd13ifvqgtg","pricing_plan_id":"cebpf4jnsgd1na2vs0mg"},{"bike_id":"29b4b37b-f701-47a6-a128-f3171ca95432","system_id":"levelo_inurba_marseille","lat":43.25875,"lon":5.399,"is_reserved":false,"is_disabled":false,"rental_uris":{"android":"levelo://app?vid=29b4b37b-f701-47a6-a128-f3171ca95432","ios":"levelo://app?vid=29b4b37b-f701-47a6-a128-f3171ca95432"},"vehicle_type_id":"4","last_reported":1731804693,"current_range_meters":38000,"station_id":"ce4bhl92rcd13ifvqghg","pricing_plan_id":"cebpf4jnsgd1na2vs0mg"},{"bike_id":"8216f57a-06ae-4f03-ad77-ce23f2d1436a","system_id":"levelo_inurba_marseille","lat":43.31321,"lon":5.39699,"is_reserved":false,"is_disabled":false,"rental_uris":{"android":"levelo://app?vid=8216f57a-06ae-4f03-ad77-ce23f2d1436a","ios":"levelo://app?vid=8216f57a-06ae-4f03-ad77-ce23f2d1436a"},"vehicle_type_id":"4","last_reported":1731804693,"current_range_meters":38800,"station_id":"ce4bgvp2rcd13ifvqcu0","pricing_plan_id":"cebpf4jnsgd1na2vs0mg"},{"bike_id":"9c8e7bae-0791-4566-84af-a98f37b91f81","system_id":"levelo_inurba_marseille","lat":43.31363,"lon":5.36714,"is_reserved":false,"is_disabled":false,"rental_uris":{"android":"levelo://app?vid=9c8e7bae-0791-4566-84af-a98f37b91f81","ios":"levelo://app?vid=9c8e7bae-0791-4566-84af-a98f37b91f81"},"vehicle_type_id":"4","last_reported":1731804693,"current_range_meters":38400,"station_id":"ce4bgr92rcd13ifvqc6g","pricing_plan_id":"cebpf4jnsgd1na2vs0mg"},{"bike_id":"9e93d881-f54b-4fd7-a93b-913bccb9d695","system_id":"levelo_inurba_marseille","lat":43.31079,"lon":5.38344,"is_reserved":false,"is_disabled":false,"rental_uris":{"android":"levelo://app?vid=9e93d881-f54b-4fd7-a93b-913bccb9d695","ios":"levelo://app?vid=9e93d881-f54b-4fd7-a93b-913bccb9d695"},"vehicle_type_id":"4","last_reported":1731804693,"current_range_meters":24800,"station_id":"ce4bgv92rcd13ifvqcr0","pricing_plan_id":"cebpf4jnsgd1na2vs0mg"},{"bike_id":"a34aee2a-d3b4-4d4e-9dc3-0a3a4fd05b0e","system_id":"levelo_inurba_marseille","lat":43.28273,"lon":5.3508,"is_reserved":false,"is_disabled":false,"rental_uris":{"android":"levelo://app?vid=a34aee2a-d3b4-4d4e-9dc3-0a3a4fd05b0e","ios":"levelo://app?vid=a34aee2a-d3b4-4d4e-9dc3-0a3a4fd05b0e"},"vehicle_type_id":"4","last_reported":1731804693,"current_range_meters":38400,"station_id":"ce4bhbp2rcd13ifvqerg","pricing_plan_id":"cebpf4jnsgd1na2vs0mg"},{"bike_id":"e0d7cd2f-1d96-449b-9dd4-c91aff8efd12","system_id":"levelo_inurba_marseille","lat":43.30465,"lon":5.37911,"is_reserved":false,"is_disabled":false,"rental_uris":{"android":"levelo://app?vid=e0d7cd2f-1d96-449b-9dd4-c91aff8efd12","ios":"levelo://app?vid=e0d7cd2f-1d96-449b-9dd4-c91aff8efd12"},"vehicle_type_id":"4","last_reported":1731804693,"current_range_meters":22800,"station_id":"ce4bgup2rcd13ifvqcn0","pricing_plan_id":"cebpf4jnsgd1na2vs0mg"},{"bike_id":"a2472f17-8be8-4e47-b766-66c9d1d07c21","system_id":"levelo_inurba_marseille","lat":43.24652,"lon":5.38895,"is_reserved":false,"is_disabled":false,"rental_uris":{"android":"levelo://app?vid=a2472f17-8be8-4e47-b766-66c9d1d07c21","ios":"levelo://app?vid=a2472f17-8be8-4e47-b766-66c9d1d07c21"},"vehicle_type_id":"4","last_reported":1731804693,"current_range_meters":4800,"station_id":"ce4bhg12rcd13ifvqf60","pricing_plan_id":"cebpf4jnsgd1na2vs0mg"},{"bike_id":"e60d228e-987d-48ff-bb46-fd40c5cef753","system_id":"levelo_inurba_marseille","lat":43.26682,"lon":5.38267,"is_reserved":false,"is_disabled":false,"rental_uris":{"android":"levelo://app?vid=e60d228e-987d-48ff-bb46-fd40c5cef753","ios":"levelo://app?vid=e60d228e-987d-48ff-bb46-fd40c5cef753"},"vehicle_type_id":"4","last_reported":1731804693,"current_range_meters":38000,"station_id":"ce4bhg92rcd13ifvqf90","pricing_plan_id":"cebpf4jnsgd1na2vs0mg"},{"bike_id":"38745989-9e9a-4946-859d-5aa430e9ea79","system_id":"levelo_inurba_marseille","lat":43.29557,"lon":5.42292,"is_reserved":false,"is_disabled":false,"rental_uris":{"android":"levelo://app?vid=38745989-9e9a-4946-859d-5aa430e9ea79","ios":"levelo://app?vid=38745989-9e9a-4946-859d-5aa430e9ea79"},"vehicle_type_id":"4","last_reported":1731804693,"current_range_meters":6000,"station_id":"ce4bhph2rcd13ifvqhdg","pricing_plan_id":"cebpf4jnsgd1na2vs0mg"},{"bike_id":"01bc35cd-26f4-49a9-a235-11681323c7dc","system_id":"levelo_inurba_marseille","lat":43.2467,"lon":5.38151,"is_reserved":false,"is_disabled":false,"rental_uris":{"android":"levelo://app?vid=01bc35cd-26f4-49a9-a235-11681323c7dc","ios":"levelo://app?vid=01bc35cd-26f4-49a9-a235-11681323c7dc"},"vehicle_type_id":"4","last_reported":1731804693,"current_range_meters":17600,"station_id":"ce4bhih2rcd13ifvqfr0","pricing_plan_id":"cebpf4jnsgd1na2vs0mg"},{"bike_id":"be21f7c8-1737-4a59-b62d-d83bd78d72ea","system_id":"levelo_inurba_marseille","lat":43.2856,"lon":5.39493,"is_reserved":false,"is_disabled":false,"rental_uris":{"android":"levelo://app?vid=be21f7c8-1737-4a59-b62d-d83bd78d72ea","ios":"levelo://app?vid=be21f7c8-1737-4a59-b62d-d83bd78d72ea"},"vehicle_type_id":"4","last_reported":1731804693,"current_range_meters":38000,"station_id":"ce4bh292rcd13ifvqdg0","pricing_plan_id":"cebpf4jnsgd1na2vs0mg"},{"bike_id":"d663e219-aed2-4e56-8788-d140d0f35f54","system_id":"levelo_inurba_marseille","lat":43.31331,"lon":5.39701,"is_reserved":false,"is_disabled":false,"rental_uris":{"android":"levelo://app?vid=d663e219-aed2-4e56-8788-d140d0f35f54","ios":"levelo://app?vid=d663e219-aed2-4e56-8788-d140d0f35f54"},"vehicle_type_id":"4","last_reported":1731804693,"current_range_meters":39200,"station_id":"ce4bgvp2rcd13ifvqcu0","pricing_plan_id":"cebpf4jnsgd1na2vs0mg"},{"bike_id":"c933bbc4-195c-448f-af58-aa9f39bdfe9e","system_id":"levelo_inurba_marseille","lat":43.289371,"lon":5.396231,"is_reserved":false,"is_disabled":false,"rental_uris":{"android":"levelo://app?vid=c933bbc4-195c-448f-af58-aa9f39bdfe9e","ios":"levelo://app?vid=c933bbc4-195c-448f-af58-aa9f39bdfe9e"},"vehicle_type_id":"4","last_reported":1731804693,"current_range_meters":38800,"station_id":"ce4bh3h2rcd13ifvqdn0","pricing_plan_id":"cebpf4jnsgd1na2vs0mg"},{"bike_id":"16e3de90-cdab-40a0-975d-f264f65e738c","system_id":"levelo_inurba_marseille","lat":43.28149,"lon":5.42641,"is_reserved":false,"is_disabled":false,"rental_uris":{"android":"levelo://app?vid=16e3de90-cdab-40a0-975d-f264f65e738c","ios":"levelo://app?vid=16e3de90-cdab-40a0-975d-f264f65e738c"},"vehicle_type_id":"4","last_reported":1731804693,"current_range_meters":36000,"station_id":"ce4bhnh2rcd13ifvqgug","pricing_plan_id":"cebpf4jnsgd1na2vs0mg"},{"bike_id":"e96d7966-af45-4601-964d-4b29131ec031","system_id":"levelo_inurba_marseille","lat":43.29797,"lon":5.37105,"is_reserved":false,"is_disabled":false,"rental_uris":{"android":"levelo://app?vid=e96d7966-af45-4601-964d-4b29131ec031","ios":"levelo://app?vid=e96d7966-af45-4601-964d-4b29131ec031"},"vehicle_type_id":"4","last_reported":1731804693,"current_range_meters":26000,"station_id":"ce4bgop2rcd13ifvqc1g","pricing_plan_id":"cebpf4jnsgd1na2vs0mg"},{"bike_id":"a005df12-ce78-479e-9f94-804652961b37","system_id":"levelo_inurba_marseille","lat":43.27813,"lon":5.40719,"is_reserved":false,"is_disabled":false,"rental_uris":{"android":"levelo://app?vid=a005df12-ce78-479e-9f94-804652961b37","ios":"levelo://app?vid=a005df12-ce78-479e-9f94-804652961b37"},"vehicle_type_id":"4","last_reported":1731804693,"current_range_meters":33600,"station_id":"ce4bhnh2rcd13ifvqgtg","pricing_plan_id":"cebpf4jnsgd1na2vs0mg"},{"bike_id":"0019aa8e-5465-41a8-83a2-1bdd40f8ac0b","system_id":"levelo_inurba_marseille","lat":43.29877,"lon":5.39732,"is_reserved":false,"is_disabled":false,"rental_uris":{"android":"levelo://app?vid=0019aa8e-5465-41a8-83a2-1bdd40f8ac0b","ios":"levelo://app?vid=0019aa8e-5465-41a8-83a2-1bdd40f8ac0b"},"vehicle_type_id":"4","last_reported":1731804693,"current_range_meters":36000,"station_id":"ce4bh0h2rcd13ifvqd50","pricing_plan_id":"cebpf4jnsgd1na2vs0mg"},{"bike_id":"5e98f026-3262-4078-85cf-cbcb53f8e78e","system_id":"levelo_inurba_marseille","lat":43.31361,"lon":5.36699,"is_reserved":false,"is_disabled":false,"rental_uris":{"android":"levelo://app?vid=5e98f026-3262-4078-85cf-cbcb53f8e78e","ios":"levelo://app?vid=5e98f026-3262-4078-85cf-cbcb53f8e78e"},"vehicle_type_id":"4","last_reported":1731804693,"current_range_meters":32000,"station_id":"ce4bgr92rcd13ifvqc6g","pricing_plan_id":"cebpf4jnsgd1na2vs0mg"},{"bike_id":"17d081be-279e-4b11-85bb-cf9660b5133f","system_id":"levelo_inurba_marseille","lat":43.31174,"lon":5.3871,"is_reserved":false,"is_disabled":false,"rental_uris":{"android":"levelo://app?vid=17d081be-279e-4b11-85bb-cf9660b5133f","ios":"levelo://app?vid=17d081be-279e-4b11-85bb-cf9660b5133f"},"vehicle_type_id":"4","last_reported":1731804693,"current_range_meters":17200,"station_id":"ce4bgv12rcd13ifvqcp0","pricing_plan_id":"cebpf4jnsgd1na2vs0mg"},{"bike_id":"b65c487f-1157-4039-8e7e-0b9ee139373a","system_id":"levelo_inurba_marseille","lat":43.26932,"lon":5.38914,"is_reserved":false,"is_disabled":false,"rental_uris":{"android":"levelo://app?vid=b65c487f-1157-4039-8e7e-0b9ee139373a","ios":"levelo://app?vid=b65c487f-1157-4039-8e7e-0b9ee139373a"},"vehicle_type_id":"4","last_reported":1731804693,"current_range_meters":29600,"station_id":"ce4bhhh2rcd13ifvqfl0","pricing_plan_id":"cebpf4jnsgd1na2vs0mg"},{"bike_id":"d9ab48a2-5870-4a07-8651-e8aff256aae6","system_id":"levelo_inurba_marseille","lat":43.25924,"lon":5.40907,"is_reserved":false,"is_disabled":false,"rental_uris":{"android":"levelo://app?vid=d9ab48a2-5870-4a07-8651-e8aff256aae6","ios":"levelo://app?vid=d9ab48a2-5870-4a07-8651-e8aff256aae6"},"vehicle_type_id":"4","last_reported":1731804693,"current_range_meters":37600,"station_id":"ce4bhm92rcd13ifvqglg","pricing_plan_id":"cebpf4jnsgd1na2vs0mg"},{"bike_id":"1fef4d56-dc4f-4084-91a6-e5b8d7e9c742","system_id":"levelo_inurba_marseille","lat":43.28665,"lon":5.36357,"is_reserved":false,"is_disabled":false,"rental_uris":{"android":"levelo://app?vid=1fef4d56-dc4f-4084-91a6-e5b8d7e9c742","ios":"levelo://app?vid=1fef4d56-dc4f-4084-91a6-e5b8d7e9c742"},"vehicle_type_id":"4","last_reported":1731804693,"current_range_meters":31200,"station_id":"ce4bhah2rcd13ifvqej0","pricing_plan_id":"cebpf4jnsgd1na2vs0mg"},{"bike_id":"90925457-87b8-44b0-a947-705f55ac3518","system_id":"levelo_inurba_marseille","lat":43.28276,"lon":5.35066,"is_reserved":false,"is_disabled":false,"rental_uris":{"android":"levelo://app?vid=90925457-87b8-44b0-a947-705f55ac3518","ios":"levelo://app?vid=90925457-87b8-44b0-a947-705f55ac3518"},"vehicle_type_id":"4","last_reported":1731804693,"current_range_meters":10000,"station_id":"ce4bhbp2rcd13ifvqerg","pricing_plan_id":"cebpf4jnsgd1na2vs0mg"},{"bike_id":"22729281-a652-4d0e-9935-de91a5d586ea","system_id":"levelo_inurba_marseille","lat":43.3207,"lon":5.41537,"is_reserved":false,"is_disabled":false,"rental_uris":{"android":"levelo://app?vid=22729281-a652-4d0e-9935-de91a5d586ea","ios":"levelo://app?vid=22729281-a652-4d0e-9935-de91a5d586ea"},"vehicle_type_id":"4","last_reported":1731804693,"current_range_meters":21600,"station_id":"ce4bhq92rcd13ifvqhkg","pricing_plan_id":"cebpf4jnsgd1na2vs0mg"},{"bike_id":"433949ed-544c-418f-a9f9-25e9b8a19fcf","system_id":"levelo_inurba_marseille","lat":43.28098,"lon":5.37845,"is_reserved":false,"is_disabled":false,"rental_uris":{"android":"levelo://app?vid=433949ed-544c-418f-a9f9-25e9b8a19fcf","ios":"levelo://app?vid=433949ed-544c-418f-a9f9-25e9b8a19fcf"},"vehicle_type_id":"4","last_reported":1731804693,"current_range_meters":37600,"station_id":"ce4bha12rcd13ifvqee0","pricing_plan_id":"cebpf4jnsgd1na2vs0mg"},{"bike_id":"9f92a7ac-738d-40f9-93b9-933c1f0ff525","system_id":"levelo_inurba_marseille","lat":43.32369,"lon":5.38885,"is_reserved":false,"is_disabled":false,"rental_uris":{"android":"levelo://app?vid=9f92a7ac-738d-40f9-93b9-933c1f0ff525","ios":"levelo://app?vid=9f92a7ac-738d-40f9-93b9-933c1f0ff525"},"vehicle_type_id":"4","last_reported":1731804693,"current_range_meters":22800,"station_id":"ce4bhqp2rcd13ifvqhog","pricing_plan_id":"cebpf4jnsgd1na2vs0mg"},{"bike_id":"e5b2dd91-6498-4dc7-9484-7e1da126be21","system_id":"levelo_inurba_marseille","lat":43.26191,"lon":5.37448,"is_reserved":false,"is_disabled":false,"rental_uris":{"android":"levelo://app?vid=e5b2dd91-6498-4dc7-9484-7e1da126be21","ios":"levelo://app?vid=e5b2dd91-6498-4dc7-9484-7e1da126be21"},"vehicle_type_id":"4","last_reported":1731804693,"current_range_meters":17200,"station_id":"ce4bhgp2rcd13ifvqfc0","pricing_plan_id":"cebpf4jnsgd1na2vs0mg"},{"bike_id":"22a37e33-57e3-4da1-9705-3ab00277c15e","system_id":"levelo_inurba_marseille","lat":43.30798,"lon":5.43522,"is_reserved":false,"is_disabled":false,"rental_uris":{"android":"levelo://app?vid=22a37e33-57e3-4da1-9705-3ab00277c15e","ios":"levelo://app?vid=22a37e33-57e3-4da1-9705-3ab00277c15e"},"vehicle_type_id":"4","last_reported":1731804693,"current_range_meters":8400,"station_id":"ce4bhph2rcd13ifvqheg","pricing_plan_id":"cebpf4jnsgd1na2vs0mg"},{"bike_id":"6ca50f38-f624-451f-aef4-bd741d4a3596","system_id":"levelo_inurba_marseille","lat":43.28665,"lon":5.36357,"is_reserved":false,"is_disabled":false,"rental_uris":{"android":"levelo://app?vid=6ca50f38-f624-451f-aef4-bd741d4a3596","ios":"levelo://app?vid=6ca50f38-f624-451f-aef4-bd741d4a3596"},"vehicle_type_id":"4","last_reported":1731804693,"current_range_meters":30400,"station_id":"ce4bhah2rcd13ifvqej0","pricing_plan_id":"cebpf4jnsgd1na2vs0mg"},{"bike_id":"85167628-989a-4080-8837-292697fc0035","system_id":"levelo_inurba_marseille","lat":43.27569,"lon":5.38414,"is_reserved":false,"is_disabled":false,"rental_uris":{"android":"levelo://app?vid=85167628-989a-4080-8837-292697fc0035","ios":"levelo://app?vid=85167628-989a-4080-8837-292697fc0035"},"vehicle_type_id":"4","last_reported":1731804693,"current_range_meters":24400,"station_id":"ce4bhh92rcd13ifvqfi0","pricing_plan_id":"cebpf4jnsgd1na2vs0mg"},{"bike_id":"d54f2dfa-2ad2-469a-8720-163ef98eb87d","system_id":"levelo_inurba_marseille","lat":43.2509,"lon":5.3951,"is_reserved":false,"is_disabled":false,"rental_uris":{"android":"levelo://app?vid=d54f2dfa-2ad2-469a-8720-163ef98eb87d","ios":"levelo://app?vid=d54f2dfa-2ad2-469a-8720-163ef98eb87d"},"vehicle_type_id":"4","last_reported":1731804693,"current_range_meters":21600,"station_id":"ce4bhm12rcd13ifvqgkg","pricing_plan_id":"cebpf4jnsgd1na2vs0mg"},{"bike_id":"b680c145-b5fd-48aa-9ba1-ac91fb57fda9","system_id":"levelo_inurba_marseille","lat":43.31356,"lon":5.36705,"is_reserved":false,"is_disabled":false,"rental_uris":{"android":"levelo://app?vid=b680c145-b5fd-48aa-9ba1-ac91fb57fda9","ios":"levelo://app?vid=b680c145-b5fd-48aa-9ba1-ac91fb57fda9"},"vehicle_type_id":"4","last_reported":1731804693,"current_range_meters":18000,"station_id":"ce4bgr92rcd13ifvqc6g","pricing_plan_id":"cebpf4jnsgd1na2vs0mg"},{"bike_id":"dedbe598-ac0c-4e22-af0a-2f5863148f4b","system_id":"levelo_inurba_marseille","lat":43.31079,"lon":5.38344,"is_reserved":false,"is_disabled":false,"rental_uris":{"android":"levelo://app?vid=dedbe598-ac0c-4e22-af0a-2f5863148f4b","ios":"levelo://app?vid=dedbe598-ac0c-4e22-af0a-2f5863148f4b"},"vehicle_type_id":"4","last_reported":1731804693,"current_range_meters":38400,"station_id":"ce4bgv92rcd13ifvqcr0","pricing_plan_id":"cebpf4jnsgd1na2vs0mg"},{"bike_id":"40131c97-5534-4979-8808-2f9e4d317ef9","system_id":"levelo_inurba_marseille","lat":43.32343,"lon":5.40621,"is_reserved":false,"is_disabled":false,"rental_uris":{"android":"levelo://app?vid=40131c97-5534-4979-8808-2f9e4d317ef9","ios":"levelo://app?vid=40131c97-5534-4979-8808-2f9e4d317ef9"},"vehicle_type_id":"4","last_reported":1731804693,"current_range_meters":10800,"station_id":"ce4bhq92rcd13ifvqhjg","pricing_plan_id":"cebpf4jnsgd1na2vs0mg"},{"bike_id":"162a2c2e-1079-4955-a796-4e8f50e6d984","system_id":"levelo_inurba_marseille","lat":43.28706,"lon":5.37372,"is_reserved":false,"is_disabled":false,"rental_uris":{"android":"levelo://app?vid=162a2c2e-1079-4955-a796-4e8f50e6d984","ios":"levelo://app?vid=162a2c2e-1079-4955-a796-4e8f50e6d984"},"vehicle_type_id":"4","last_reported":1731804693,"current_range_meters":24400,"station_id":"ce4bh3p2rcd13ifvqdq0","pricing_plan_id":"cebpf4jnsgd1na2vs0mg"},{"bike_id":"4f01fa73-c9c0-4fc0-986b-b2a94d270e4a","system_id":"levelo_inurba_marseille","lat":43.302519,"lon":5.400883,"is_reserved":false,"is_disabled":false,"rental_uris":{"android":"levelo://app?vid=4f01fa73-c9c0-4fc0-986b-b2a94d270e4a","ios":"levelo://app?vid=4f01fa73-c9c0-4fc0-986b-b2a94d270e4a"},"vehicle_type_id":"4","last_reported":1731804693,"current_range_meters":12400,"station_id":"ce4bgvh2rcd13ifvqcs0","pricing_plan_id":"cebpf4jnsgd1na2vs0mg"},{"bike_id":"6d757fef-4f26-43f9-ac2c-ffab39bf7dae","system_id":"levelo_inurba_marseille","lat":43.32249,"lon":5.36901,"is_reserved":false,"is_disabled":false,"rental_uris":{"android":"levelo://app?vid=6d757fef-4f26-43f9-ac2c-ffab39bf7dae","ios":"levelo://app?vid=6d757fef-4f26-43f9-ac2c-ffab39bf7dae"},"vehicle_type_id":"4","last_reported":1731804693,"current_range_meters":17200,"station_id":"","pricing_plan_id":"cebpf4jnsgd1na2vs0mg"},{"bike_id":"d61ade2d-2a62-45c7-aa0c-ad3400ec0ddf","system_id":"levelo_inurba_marseille","lat":43.29555,"lon":5.42292,"is_reserved":false,"is_disabled":false,"rental_uris":{"android":"levelo://app?vid=d61ade2d-2a62-45c7-aa0c-ad3400ec0ddf","ios":"levelo://app?vid=d61ade2d-2a62-45c7-aa0c-ad3400ec0ddf"},"vehicle_type_id":"4","last_reported":1731804693,"current_range_meters":40000,"station_id":"ce4bhph2rcd13ifvqhdg","pricing_plan_id":"cebpf4jnsgd1na2vs0mg"},{"bike_id":"172e75b7-2c27-416d-8cb9-e8c3a1cbb2e9","system_id":"levelo_inurba_marseille","lat":43.32364,"lon":5.38889,"is_reserved":false,"is_disabled":false,"rental_uris":{"android":"levelo://app?vid=172e75b7-2c27-416d-8cb9-e8c3a1cbb2e9","ios":"levelo://app?vid=172e75b7-2c27-416d-8cb9-e8c3a1cbb2e9"},"vehicle_type_id":"4","last_reported":1731804693,"current_range_meters":38800,"station_id":"ce4bhqp2rcd13ifvqhog","pricing_plan_id":"cebpf4jnsgd1na2vs0mg"},{"bike_id":"a7d3af66-8c7f-4ebd-ba3e-e8461b7db7b5","system_id":"levelo_inurba_marseille","lat":43.31689,"lon":5.40468,"is_reserved":false,"is_disabled":false,"rental_uris":{"android":"levelo://app?vid=a7d3af66-8c7f-4ebd-ba3e-e8461b7db7b5","ios":"levelo://app?vid=a7d3af66-8c7f-4ebd-ba3e-e8461b7db7b5"},"vehicle_type_id":"4","last_reported":1731804693,"current_range_meters":37600,"station_id":"ce4bh012rcd13ifvqd00","pricing_plan_id":"cebpf4jnsgd1na2vs0mg"},{"bike_id":"a2970aba-6f42-4bdf-9d29-da6ba8fdbf95","system_id":"levelo_inurba_marseille","lat":43.29972,"lon":5.38491,"is_reserved":false,"is_disabled":false,"rental_uris":{"android":"levelo://app?vid=a2970aba-6f42-4bdf-9d29-da6ba8fdbf95","ios":"levelo://app?vid=a2970aba-6f42-4bdf-9d29-da6ba8fdbf95"},"vehicle_type_id":"4","last_reported":1731804693,"current_range_meters":38800,"station_id":"ce4bgj92rcd13ifvqbd0","pricing_plan_id":"cebpf4jnsgd1na2vs0mg"},{"bike_id":"73bd00fd-e24f-4620-9eac-2e8eca166d0d","system_id":"levelo_inurba_marseille","lat":43.28477,"lon":5.38549,"is_reserved":false,"is_disabled":false,"rental_uris":{"android":"levelo://app?vid=73bd00fd-e24f-4620-9eac-2e8eca166d0d","ios":"levelo://app?vid=73bd00fd-e24f-4620-9eac-2e8eca166d0d"},"vehicle_type_id":"4","last_reported":1731804693,"current_range_meters":38800,"station_id":"ce4bh8p2rcd13ifvqeb0","pricing_plan_id":"cebpf4jnsgd1na2vs0mg"},{"bike_id":"c8ba25f2-3933-4d4f-8d20-03d75db8bd3e","system_id":"levelo_inurba_marseille","lat":43.2942,"lon":5.38616,"is_reserved":false,"is_disabled":false,"rental_uris":{"android":"levelo://app?vid=c8ba25f2-3933-4d4f-8d20-03d75db8bd3e","ios":"levelo://app?vid=c8ba25f2-3933-4d4f-8d20-03d75db8bd3e"},"vehicle_type_id":"4","last_reported":1731804693,"current_range_meters":35600,"station_id":"ce4bh2h2rcd13ifvqdh0","pricing_plan_id":"cebpf4jnsgd1na2vs0mg"},{"bike_id":"91598634-d907-45c9-a592-1f86ec6d84b7","system_id":"levelo_inurba_marseille","lat":43.26787,"lon":5.39413,"is_reserved":false,"is_disabled":false,"rental_uris":{"android":"levelo://app?vid=91598634-d907-45c9-a592-1f86ec6d84b7","ios":"levelo://app?vid=91598634-d907-45c9-a592-1f86ec6d84b7"},"vehicle_type_id":"4","last_reported":1731804693,"current_range_meters":19600,"station_id":"ce4bhh12rcd13ifvqfg0","pricing_plan_id":"cebpf4jnsgd1na2vs0mg"},{"bike_id":"3cb028b2-e9b4-4b5d-869e-e3723400af16","system_id":"levelo_inurba_marseille","lat":43.33022,"lon":5.39035,"is_reserved":false,"is_disabled":false,"rental_uris":{"android":"levelo://app?vid=3cb028b2-e9b4-4b5d-869e-e3723400af16","ios":"levelo://app?vid=3cb028b2-e9b4-4b5d-869e-e3723400af16"},"vehicle_type_id":"4","last_reported":1731804693,"current_range_meters":35600,"station_id":"ce4bhr92rcd13ifvqhrg","pricing_plan_id":"cebpf4jnsgd1na2vs0mg"},{"bike_id":"dbafefb7-6744-41ac-ba21-e08eb13be5fe","system_id":"levelo_inurba_marseille","lat":43.24075,"lon":5.37754,"is_reserved":false,"is_disabled":false,"rental_uris":{"android":"levelo://app?vid=dbafefb7-6744-41ac-ba21-e08eb13be5fe","ios":"levelo://app?vid=dbafefb7-6744-41ac-ba21-e08eb13be5fe"},"vehicle_type_id":"4","last_reported":1731804693,"current_range_meters":30400,"station_id":"ce4bhnp2rcd13ifvqgvg","pricing_plan_id":"cebpf4jnsgd1na2vs0mg"},{"bike_id":"a80c3cff-7fd8-4b59-b472-df43dbfa3544","system_id":"levelo_inurba_marseille","lat":43.287051,"lon":5.373789,"is_reserved":false,"is_disabled":false,"rental_uris":{"android":"levelo://app?vid=a80c3cff-7fd8-4b59-b472-df43dbfa3544","ios":"levelo://app?vid=a80c3cff-7fd8-4b59-b472-df43dbfa3544"},"vehicle_type_id":"4","last_reported":1731804693,"current_range_meters":28400,"station_id":"ce4bh3p2rcd13ifvqdq0","pricing_plan_id":"cebpf4jnsgd1na2vs0mg"},{"bike_id":"41d65b65-9c37-49eb-ace4-aa151d422e10","system_id":"levelo_inurba_marseille","lat":43.31181,"lon":5.38715,"is_reserved":false,"is_disabled":false,"rental_uris":{"android":"levelo://app?vid=41d65b65-9c37-49eb-ace4-aa151d422e10","ios":"levelo://app?vid=41d65b65-9c37-49eb-ace4-aa151d422e10"},"vehicle_type_id":"4","last_reported":1731804693,"current_range_meters":26000,"station_id":"ce4bgv12rcd13ifvqcp0","pricing_plan_id":"cebpf4jnsgd1na2vs0mg"},{"bike_id":"5a446d1f-13f5-4638-97b8-4e64dbda6db6","system_id":"levelo_inurba_marseille","lat":43.30315,"lon":5.39203,"is_reserved":false,"is_disabled":false,"rental_uris":{"android":"levelo://app?vid=5a446d1f-13f5-4638-97b8-4e64dbda6db6","ios":"levelo://app?vid=5a446d1f-13f5-4638-97b8-4e64dbda6db6"},"vehicle_type_id":"4","last_reported":1731804693,"current_range_meters":23200,"station_id":"ce4bgkh2rcd13ifvqbk0","pricing_plan_id":"cebpf4jnsgd1na2vs0mg"},{"bike_id":"a7f9b1ff-073c-4bb9-865b-47d795a80a25","system_id":"levelo_inurba_marseille","lat":43.27995,"lon":5.41659,"is_reserved":false,"is_disabled":false,"rental_uris":{"android":"levelo://app?vid=a7f9b1ff-073c-4bb9-865b-47d795a80a25","ios":"levelo://app?vid=a7f9b1ff-073c-4bb9-865b-47d795a80a25"},"vehicle_type_id":"4","last_reported":1731804693,"current_range_meters":23200,"station_id":"ce4bho12rcd13ifvqh1g","pricing_plan_id":"cebpf4jnsgd1na2vs0mg"},{"bike_id":"164fbc1d-42da-4045-a100-0c0898f1f976","system_id":"levelo_inurba_marseille","lat":43.28705,"lon":5.3739,"is_reserved":false,"is_disabled":false,"rental_uris":{"android":"levelo://app?vid=164fbc1d-42da-4045-a100-0c0898f1f976","ios":"levelo://app?vid=164fbc1d-42da-4045-a100-0c0898f1f976"},"vehicle_type_id":"4","last_reported":1731804693,"current_range_meters":38800,"station_id":"ce4bh3p2rcd13ifvqdq0","pricing_plan_id":"cebpf4jnsgd1na2vs0mg"},{"bike_id":"a4e8e96c-867e-4521-9861-087b3f6c78bd","system_id":"levelo_inurba_marseille","lat":43.24994,"lon":5.38929,"is_reserved":false,"is_disabled":false,"rental_uris":{"android":"levelo://app?vid=a4e8e96c-867e-4521-9861-087b3f6c78bd","ios":"levelo://app?vid=a4e8e96c-867e-4521-9861-087b3f6c78bd"},"vehicle_type_id":"4","last_reported":1731804693,"current_range_meters":39200,"station_id":"ce4bhgp2rcd13ifvqfd0","pricing_plan_id":"cebpf4jnsgd1na2vs0mg"},{"bike_id":"34086fed-aa86-4e74-a4e7-9fb1ff2b340d","system_id":"levelo_inurba_marseille","lat":43.27185,"lon":5.40986,"is_reserved":false,"is_disabled":false,"rental_uris":{"android":"levelo://app?vid=34086fed-aa86-4e74-a4e7-9fb1ff2b340d","ios":"levelo://app?vid=34086fed-aa86-4e74-a4e7-9fb1ff2b340d"},"vehicle_type_id":"4","last_reported":1731804693,"current_range_meters":37600,"station_id":"ce4bhl12rcd13ifvqgf0","pricing_plan_id":"cebpf4jnsgd1na2vs0mg"},{"bike_id":"9b255d94-ee94-41ce-968c-16898d9f52f3","system_id":"levelo_inurba_marseille","lat":43.23962,"lon":5.36637,"is_reserved":false,"is_disabled":false,"rental_uris":{"android":"levelo://app?vid=9b255d94-ee94-41ce-968c-16898d9f52f3","ios":"levelo://app?vid=9b255d94-ee94-41ce-968c-16898d9f52f3"},"vehicle_type_id":"4","last_reported":1731804693,"current_range_meters":38800,"station_id":"ce4bhi12rcd13ifvqfp0","pricing_plan_id":"cebpf4jnsgd1na2vs0mg"},{"bike_id":"693680f3-24ea-4d4e-87cf-4344e3551ab7","system_id":"levelo_inurba_marseille","lat":43.2586,"lon":5.399,"is_reserved":false,"is_disabled":false,"rental_uris":{"android":"levelo://app?vid=693680f3-24ea-4d4e-87cf-4344e3551ab7","ios":"levelo://app?vid=693680f3-24ea-4d4e-87cf-4344e3551ab7"},"vehicle_type_id":"4","last_reported":1731804693,"current_range_meters":8800,"station_id":"ce4bhl92rcd13ifvqghg","pricing_plan_id":"cebpf4jnsgd1na2vs0mg"},{"bike_id":"1f7ddd9a-7ae1-4f47-aa3a-c9c9bc8358da","system_id":"levelo_inurba_marseille","lat":43.25584,"lon":5.38239,"is_reserved":false,"is_disabled":false,"rental_uris":{"android":"levelo://app?vid=1f7ddd9a-7ae1-4f47-aa3a-c9c9bc8358da","ios":"levelo://app?vid=1f7ddd9a-7ae1-4f47-aa3a-c9c9bc8358da"},"vehicle_type_id":"4","last_reported":1731804693,"current_range_meters":39200,"station_id":"ce4bhih2rcd13ifvqfs0","pricing_plan_id":"cebpf4jnsgd1na2vs0mg"},{"bike_id":"972db6ff-b89e-4583-a33f-05e987ddd676","system_id":"levelo_inurba_marseille","lat":43.31712,"lon":5.43707,"is_reserved":false,"is_disabled":false,"rental_uris":{"android":"levelo://app?vid=972db6ff-b89e-4583-a33f-05e987ddd676","ios":"levelo://app?vid=972db6ff-b89e-4583-a33f-05e987ddd676"},"vehicle_type_id":"4","last_reported":1731804693,"current_range_meters":20400,"station_id":"ce4bhp92rcd13ifvqhcg","pricing_plan_id":"cebpf4jnsgd1na2vs0mg"},{"bike_id":"cc8f0397-cd92-46fd-9a26-a79b795ba590","system_id":"levelo_inurba_marseille","lat":43.28345,"lon":5.38105,"is_reserved":false,"is_disabled":false,"rental_uris":{"android":"levelo://app?vid=cc8f0397-cd92-46fd-9a26-a79b795ba590","ios":"levelo://app?vid=cc8f0397-cd92-46fd-9a26-a79b795ba590"},"vehicle_type_id":"4","last_reported":1731804693,"current_range_meters":38800,"station_id":"ce4bh412rcd13ifvqdr0","pricing_plan_id":"cebpf4jnsgd1na2vs0mg"},{"bike_id":"d4cf1962-c4fc-4987-82ad-e066e34a5012","system_id":"levelo_inurba_marseille","lat":43.34148,"lon":5.409,"is_reserved":false,"is_disabled":false,"rental_uris":{"android":"levelo://app?vid=d4cf1962-c4fc-4987-82ad-e066e34a5012","ios":"levelo://app?vid=d4cf1962-c4fc-4987-82ad-e066e34a5012"},"vehicle_type_id":"4","last_reported":1731804693,"current_range_meters":37600,"station_id":"ce4bhqh2rcd13ifvqhlg","pricing_plan_id":"cebpf4jnsgd1na2vs0mg"},{"bike_id":"0876f4fa-3b80-4ef8-a397-bcdc65be4124","system_id":"levelo_inurba_marseille","lat":43.29895,"lon":5.43671,"is_reserved":false,"is_disabled":false,"rental_uris":{"android":"levelo://app?vid=0876f4fa-3b80-4ef8-a397-bcdc65be4124","ios":"levelo://app?vid=0876f4fa-3b80-4ef8-a397-bcdc65be4124"},"vehicle_type_id":"4","last_reported":1731804693,"current_range_meters":39200,"station_id":"ce4bhpp2rcd13ifvqhfg","pricing_plan_id":"cebpf4jnsgd1na2vs0mg"},{"bike_id":"55de28cf-e37c-4724-b81f-8a648780c5b9","system_id":"levelo_inurba_marseille","lat":43.23193,"lon":5.35561,"is_reserved":false,"is_disabled":false,"rental_uris":{"android":"levelo://app?vid=55de28cf-e37c-4724-b81f-8a648780c5b9","ios":"levelo://app?vid=55de28cf-e37c-4724-b81f-8a648780c5b9"},"vehicle_type_id":"4","last_reported":1731804693,"current_range_meters":38000,"station_id":"ce4bhu92rcd13ifvqi70","pricing_plan_id":"cebpf4jnsgd1na2vs0mg"},{"bike_id":"8cab3727-75ce-4a12-b97e-f144906ce61f","system_id":"levelo_inurba_marseille","lat":43.28461,"lon":5.35896,"is_reserved":false,"is_disabled":false,"rental_uris":{"android":"levelo://app?vid=8cab3727-75ce-4a12-b97e-f144906ce61f","ios":"levelo://app?vid=8cab3727-75ce-4a12-b97e-f144906ce61f"},"vehicle_type_id":"4","last_reported":1731804693,"current_range_meters":38000,"station_id":"ce4bhah2rcd13ifvqei0","pricing_plan_id":"cebpf4jnsgd1na2vs0mg"},{"bike_id":"045314e2-0e68-4752-b7da-52a64599d146","system_id":"levelo_inurba_marseille","lat":43.3065,"lon":5.40094,"is_reserved":false,"is_disabled":false,"rental_uris":{"android":"levelo://app?vid=045314e2-0e68-4752-b7da-52a64599d146","ios":"levelo://app?vid=045314e2-0e68-4752-b7da-52a64599d146"},"vehicle_type_id":"4","last_reported":1731804693,"current_range_meters":35600,"station_id":"ce4bh112rcd13ifvqda0","pricing_plan_id":"cebpf4jnsgd1na2vs0mg"},{"bike_id":"38305c7f-707a-4b5f-8b27-363b1d1108ca","system_id":"levelo_inurba_marseille","lat":43.28076,"lon":5.39656,"is_reserved":false,"is_disabled":false,"rental_uris":{"android":"levelo://app?vid=38305c7f-707a-4b5f-8b27-363b1d1108ca","ios":"levelo://app?vid=38305c7f-707a-4b5f-8b27-363b1d1108ca"},"vehicle_type_id":"4","last_reported":1731804693,"current_range_meters":38800,"station_id":"ce4bho12rcd13ifvqh2g","pricing_plan_id":"cebpf4jnsgd1na2vs0mg"},{"bike_id":"9fae9d1c-40b2-4d1b-ba39-617e08a33530","system_id":"levelo_inurba_marseille","lat":43.31533,"lon":5.38031,"is_reserved":false,"is_disabled":false,"rental_uris":{"android":"levelo://app?vid=9fae9d1c-40b2-4d1b-ba39-617e08a33530","ios":"levelo://app?vid=9fae9d1c-40b2-4d1b-ba39-617e08a33530"},"vehicle_type_id":"4","last_reported":1731804693,"current_range_meters":10000,"station_id":"ce4bhsp2rcd13ifvqi50","pricing_plan_id":"cebpf4jnsgd1na2vs0mg"},{"bike_id":"b79639c8-f683-439e-96da-8387beb8a08f","system_id":"levelo_inurba_marseille","lat":43.31085,"lon":5.4243,"is_reserved":false,"is_disabled":false,"rental_uris":{"android":"levelo://app?vid=b79639c8-f683-439e-96da-8387beb8a08f","ios":"levelo://app?vid=b79639c8-f683-439e-96da-8387beb8a08f"},"vehicle_type_id":"4","last_reported":1731804693,"current_range_meters":18800,"station_id":"ce4bhp92rcd13ifvqhag","pricing_plan_id":"cebpf4jnsgd1na2vs0mg"},{"bike_id":"0096dac0-07b9-4fb1-885e-c11d86e6b711","system_id":"levelo_inurba_marseille","lat":43.30942,"lon":5.39027,"is_reserved":false,"is_disabled":false,"rental_uris":{"android":"levelo://app?vid=0096dac0-07b9-4fb1-885e-c11d86e6b711","ios":"levelo://app?vid=0096dac0-07b9-4fb1-885e-c11d86e6b711"},"vehicle_type_id":"4","last_reported":1731804693,"current_range_meters":38800,"station_id":"ce4bgup2rcd13ifvqco0","pricing_plan_id":"cebpf4jnsgd1na2vs0mg"},{"bike_id":"3905e1b4-bf26-4ca8-9579-5b18edaa8fe5","system_id":"levelo_inurba_marseille","lat":43.29567,"lon":5.3997,"is_reserved":false,"is_disabled":false,"rental_uris":{"android":"levelo://app?vid=3905e1b4-bf26-4ca8-9579-5b18edaa8fe5","ios":"levelo://app?vid=3905e1b4-bf26-4ca8-9579-5b18edaa8fe5"},"vehicle_type_id":"4","last_reported":1731804693,"current_range_meters":38800,"station_id":"ce4bh312rcd13ifvqdj0","pricing_plan_id":"cebpf4jnsgd1na2vs0mg"},{"bike_id":"cc7eaf9b-2c4d-496e-a8c3-41a4a3313bb9","system_id":"levelo_inurba_marseille","lat":43.32659,"lon":5.40994,"is_reserved":false,"is_disabled":false,"rental_uris":{"android":"levelo://app?vid=cc7eaf9b-2c4d-496e-a8c3-41a4a3313bb9","ios":"levelo://app?vid=cc7eaf9b-2c4d-496e-a8c3-41a4a3313bb9"},"vehicle_type_id":"4","last_reported":1731804693,"current_range_meters":10800,"station_id":"ce4bhpp2rcd13ifvqhgg","pricing_plan_id":"cebpf4jnsgd1na2vs0mg"},{"bike_id":"aaaf8aae-53a7-46f2-bc5a-7b42ea1053b6","system_id":"levelo_inurba_marseille","lat":43.2784,"lon":5.40727,"is_reserved":false,"is_disabled":false,"rental_uris":{"android":"levelo://app?vid=aaaf8aae-53a7-46f2-bc5a-7b42ea1053b6","ios":"levelo://app?vid=aaaf8aae-53a7-46f2-bc5a-7b42ea1053b6"},"vehicle_type_id":"4","last_reported":1731804693,"current_range_meters":40000,"station_id":"ce4bhnh2rcd13ifvqgtg","pricing_plan_id":"cebpf4jnsgd1na2vs0mg"},{"bike_id":"6926a87c-5739-4741-9d0f-4b148ee18c3c","system_id":"levelo_inurba_marseille","lat":43.27072,"lon":5.42276,"is_reserved":false,"is_disabled":false,"rental_uris":{"android":"levelo://app?vid=6926a87c-5739-4741-9d0f-4b148ee18c3c","ios":"levelo://app?vid=6926a87c-5739-4741-9d0f-4b148ee18c3c"},"vehicle_type_id":"4","last_reported":1731804693,"current_range_meters":4800,"station_id":"ce4bhk92rcd13ifvqgb0","pricing_plan_id":"cebpf4jnsgd1na2vs0mg"},{"bike_id":"3e079852-2d20-41f8-a170-e57081bdb116","system_id":"levelo_inurba_marseille","lat":43.3136,"lon":5.38502,"is_reserved":false,"is_disabled":false,"rental_uris":{"android":"levelo://app?vid=3e079852-2d20-41f8-a170-e57081bdb116","ios":"levelo://app?vid=3e079852-2d20-41f8-a170-e57081bdb116"},"vehicle_type_id":"4","last_reported":1731804693,"current_range_meters":28400,"station_id":"ce4bgt92rcd13ifvqcf0","pricing_plan_id":"cebpf4jnsgd1na2vs0mg"},{"bike_id":"eb9a84f5-6092-4dc4-a3c0-a07efb437c77","system_id":"levelo_inurba_marseille","lat":43.33761,"lon":5.3743,"is_reserved":false,"is_disabled":false,"rental_uris":{"android":"levelo://app?vid=eb9a84f5-6092-4dc4-a3c0-a07efb437c77","ios":"levelo://app?vid=eb9a84f5-6092-4dc4-a3c0-a07efb437c77"},"vehicle_type_id":"4","last_reported":1731804693,"current_range_meters":8400,"station_id":"","pricing_plan_id":"cebpf4jnsgd1na2vs0mg"},{"bike_id":"db5ce6e8-bb75-48c2-a390-a3f436007695","system_id":"levelo_inurba_marseille","lat":43.28854,"lon":5.35842,"is_reserved":false,"is_disabled":false,"rental_uris":{"android":"levelo://app?vid=db5ce6e8-bb75-48c2-a390-a3f436007695","ios":"levelo://app?vid=db5ce6e8-bb75-48c2-a390-a3f436007695"},"vehicle_type_id":"4","last_reported":1731804693,"current_range_meters":36000,"station_id":"ce4bhb12rcd13ifvqem0","pricing_plan_id":"cebpf4jnsgd1na2vs0mg"},{"bike_id":"cb069ee8-abe9-4959-8278-7d741596f171","system_id":"levelo_inurba_marseille","lat":43.3042,"lon":5.41286,"is_reserved":false,"is_disabled":false,"rental_uris":{"android":"levelo://app?vid=cb069ee8-abe9-4959-8278-7d741596f171","ios":"levelo://app?vid=cb069ee8-abe9-4959-8278-7d741596f171"},"vehicle_type_id":"4","last_reported":1731804693,"current_range_meters":26000,"station_id":"ce4bhop2rcd13ifvqh8g","pricing_plan_id":"cebpf4jnsgd1na2vs0mg"},{"bike_id":"d88b7fc7-f231-498f-9588-ffbda47921d6","system_id":"levelo_inurba_marseille","lat":43.30891,"lon":5.39639,"is_reserved":false,"is_disabled":false,"rental_uris":{"android":"levelo://app?vid=d88b7fc7-f231-498f-9588-ffbda47921d6","ios":"levelo://app?vid=d88b7fc7-f231-498f-9588-ffbda47921d6"},"vehicle_type_id":"4","last_reported":1731804693,"current_range_meters":24800,"station_id":"ce4bh012rcd13ifvqcv0","pricing_plan_id":"cebpf4jnsgd1na2vs0mg"},{"bike_id":"22ea48db-755d-43c3-a7d2-0beff01815d8","system_id":"levelo_inurba_marseille","lat":43.33771,"lon":5.37458,"is_reserved":false,"is_disabled":false,"rental_uris":{"android":"levelo://app?vid=22ea48db-755d-43c3-a7d2-0beff01815d8","ios":"levelo://app?vid=22ea48db-755d-43c3-a7d2-0beff01815d8"},"vehicle_type_id":"4","last_reported":1731804693,"current_range_meters":10000,"station_id":"","pricing_plan_id":"cebpf4jnsgd1na2vs0mg"},{"bike_id":"e572c8c8-2c29-468a-9de9-47bf2d2e9b00","system_id":"levelo_inurba_marseille","lat":43.27491,"lon":5.42459,"is_reserved":false,"is_disabled":false,"rental_uris":{"android":"levelo://app?vid=e572c8c8-2c29-468a-9de9-47bf2d2e9b00","ios":"levelo://app?vid=e572c8c8-2c29-468a-9de9-47bf2d2e9b00"},"vehicle_type_id":"4","last_reported":1731804693,"current_range_meters":30400,"station_id":"ce4bhn92rcd13ifvqgrg","pricing_plan_id":"cebpf4jnsgd1na2vs0mg"},{"bike_id":"103382d6-ae1b-4a2e-b6c9-db019482ab2a","system_id":"levelo_inurba_marseille","lat":43.31892,"lon":5.40728,"is_reserved":false,"is_disabled":false,"rental_uris":{"android":"levelo://app?vid=103382d6-ae1b-4a2e-b6c9-db019482ab2a","ios":"levelo://app?vid=103382d6-ae1b-4a2e-b6c9-db019482ab2a"},"vehicle_type_id":"4","last_reported":1731804693,"current_range_meters":37600,"station_id":"ce4bhq12rcd13ifvqhig","pricing_plan_id":"cebpf4jnsgd1na2vs0mg"},{"bike_id":"eacd9ebb-691f-4a83-85ee-81beefc74253","system_id":"levelo_inurba_marseille","lat":43.33725,"lon":5.39187,"is_reserved":false,"is_disabled":false,"rental_uris":{"android":"levelo://app?vid=eacd9ebb-691f-4a83-85ee-81beefc74253","ios":"levelo://app?vid=eacd9ebb-691f-4a83-85ee-81beefc74253"},"vehicle_type_id":"4","last_reported":1731804693,"current_range_meters":38800,"station_id":"ce4bhr92rcd13ifvqhsg","pricing_plan_id":"cebpf4jnsgd1na2vs0mg"},{"bike_id":"a1862017-f597-4949-a306-4d7c53cc8b86","system_id":"levelo_inurba_marseille","lat":43.24169,"lon":5.364,"is_reserved":false,"is_disabled":false,"rental_uris":{"android":"levelo://app?vid=a1862017-f597-4949-a306-4d7c53cc8b86","ios":"levelo://app?vid=a1862017-f597-4949-a306-4d7c53cc8b86"},"vehicle_type_id":"4","last_reported":1731804693,"current_range_meters":10800,"station_id":"cpo36qri1sfpv3e86is0","pricing_plan_id":"cebpf4jnsgd1na2vs0mg"},{"bike_id":"93d2376b-d24b-4c4a-bf7c-d9d7da5c25f0","system_id":"levelo_inurba_marseille","lat":43.23055,"lon":5.35493,"is_reserved":false,"is_disabled":false,"rental_uris":{"android":"levelo://app?vid=93d2376b-d24b-4c4a-bf7c-d9d7da5c25f0","ios":"levelo://app?vid=93d2376b-d24b-4c4a-bf7c-d9d7da5c25f0"},"vehicle_type_id":"4","last_reported":1731804693,"current_range_meters":15200,"station_id":"cpo3342slgdg3j2ifvpg","pricing_plan_id":"cebpf4jnsgd1na2vs0mg"},{"bike_id":"eb0b6258-25b5-4174-825d-16bccd206154","system_id":"levelo_inurba_marseille","lat":43.33022,"lon":5.39037,"is_reserved":false,"is_disabled":false,"rental_uris":{"android":"levelo://app?vid=eb0b6258-25b5-4174-825d-16bccd206154","ios":"levelo://app?vid=eb0b6258-25b5-4174-825d-16bccd206154"},"vehicle_type_id":"4","last_reported":1731804693,"current_range_meters":7200,"station_id":"ce4bhr92rcd13ifvqhrg","pricing_plan_id":"cebpf4jnsgd1na2vs0mg"},{"bike_id":"ca655f3b-8380-4045-b3f8-8acaa0e83ede","system_id":"levelo_inurba_marseille","lat":43.33739,"lon":5.37423,"is_reserved":false,"is_disabled":false,"rental_uris":{"android":"levelo://app?vid=ca655f3b-8380-4045-b3f8-8acaa0e83ede","ios":"levelo://app?vid=ca655f3b-8380-4045-b3f8-8acaa0e83ede"},"vehicle_type_id":"4","last_reported":1731804693,"current_range_meters":35200,"station_id":"","pricing_plan_id":"cebpf4jnsgd1na2vs0mg"},{"bike_id":"585290ff-90e5-4d51-8639-a8a5b13fcf3d","system_id":"levelo_inurba_marseille","lat":43.30121,"lon":5.39856,"is_reserved":false,"is_disabled":false,"rental_uris":{"android":"levelo://app?vid=585290ff-90e5-4d51-8639-a8a5b13fcf3d","ios":"levelo://app?vid=585290ff-90e5-4d51-8639-a8a5b13fcf3d"},"vehicle_type_id":"4","last_reported":1731804693,"current_range_meters":32800,"station_id":"ce4bh0h2rcd13ifvqd40","pricing_plan_id":"cebpf4jnsgd1na2vs0mg"},{"bike_id":"a6b8c285-acc9-4039-9531-1aae39136a33","system_id":"levelo_inurba_marseille","lat":43.312042,"lon":5.367348,"is_reserved":false,"is_disabled":false,"rental_uris":{"android":"levelo://app?vid=a6b8c285-acc9-4039-9531-1aae39136a33","ios":"levelo://app?vid=a6b8c285-acc9-4039-9531-1aae39136a33"},"vehicle_type_id":"4","last_reported":1731804693,"current_range_meters":12400,"station_id":"","pricing_plan_id":"cebpf4jnsgd1na2vs0mg"},{"bike_id":"04e579be-d930-46e5-bb29-40fdc45896e1","system_id":"levelo_inurba_marseille","lat":43.326433,"lon":5.362065,"is_reserved":false,"is_disabled":false,"rental_uris":{"android":"levelo://app?vid=04e579be-d930-46e5-bb29-40fdc45896e1","ios":"levelo://app?vid=04e579be-d930-46e5-bb29-40fdc45896e1"},"vehicle_type_id":"4","last_reported":1731804693,"current_range_meters":8000,"station_id":"","pricing_plan_id":"cebpf4jnsgd1na2vs0mg"},{"bike_id":"37b940f2-53f1-40b3-bcdc-a092eab2c248","system_id":"levelo_inurba_marseille","lat":43.23957,"lon":5.36629,"is_reserved":false,"is_disabled":false,"rental_uris":{"android":"levelo://app?vid=37b940f2-53f1-40b3-bcdc-a092eab2c248","ios":"levelo://app?vid=37b940f2-53f1-40b3-bcdc-a092eab2c248"},"vehicle_type_id":"4","last_reported":1731804693,"current_range_meters":24400,"station_id":"ce4bhi12rcd13ifvqfp0","pricing_plan_id":"cebpf4jnsgd1na2vs0mg"},{"bike_id":"f3460dc4-f8bd-4bf3-b998-545dbacad69e","system_id":"levelo_inurba_marseille","lat":43.26806,"lon":5.40267,"is_reserved":false,"is_disabled":false,"rental_uris":{"android":"levelo://app?vid=f3460dc4-f8bd-4bf3-b998-545dbacad69e","ios":"levelo://app?vid=f3460dc4-f8bd-4bf3-b998-545dbacad69e"},"vehicle_type_id":"4","last_reported":1731804693,"current_range_meters":27600,"station_id":"ce501612rcd8frsf0b60","pricing_plan_id":"cebpf4jnsgd1na2vs0mg"},{"bike_id":"e4e7e038-935b-4990-ae2a-9c99c27a3ef5","system_id":"levelo_inurba_marseille","lat":43.31179,"lon":5.3871,"is_reserved":false,"is_disabled":false,"rental_uris":{"android":"levelo://app?vid=e4e7e038-935b-4990-ae2a-9c99c27a3ef5","ios":"levelo://app?vid=e4e7e038-935b-4990-ae2a-9c99c27a3ef5"},"vehicle_type_id":"4","last_reported":1731804693,"current_range_meters":38400,"station_id":"ce4bgv12rcd13ifvqcp0","pricing_plan_id":"cebpf4jnsgd1na2vs0mg"},{"bike_id":"900707cc-26f2-4ea2-8fed-9690c6b8ed62","system_id":"levelo_inurba_marseille","lat":43.2558,"lon":5.38243,"is_reserved":false,"is_disabled":false,"rental_uris":{"android":"levelo://app?vid=900707cc-26f2-4ea2-8fed-9690c6b8ed62","ios":"levelo://app?vid=900707cc-26f2-4ea2-8fed-9690c6b8ed62"},"vehicle_type_id":"4","last_reported":1731804693,"current_range_meters":20400,"station_id":"ce4bhih2rcd13ifvqfs0","pricing_plan_id":"cebpf4jnsgd1na2vs0mg"},{"bike_id":"328f0c37-4af9-4374-b84d-3005bc6e5461","system_id":"levelo_inurba_marseille","lat":43.289823,"lon":5.399916,"is_reserved":false,"is_disabled":false,"rental_uris":{"android":"levelo://app?vid=328f0c37-4af9-4374-b84d-3005bc6e5461","ios":"levelo://app?vid=328f0c37-4af9-4374-b84d-3005bc6e5461"},"vehicle_type_id":"4","last_reported":1731804693,"current_range_meters":38000,"station_id":"ce4bh392rcd13ifvqdm0","pricing_plan_id":"cebpf4jnsgd1na2vs0mg"},{"bike_id":"25df00a3-26f1-4da2-be69-5750e60c4403","system_id":"levelo_inurba_marseille","lat":43.315,"lon":5.37298,"is_reserved":false,"is_disabled":false,"rental_uris":{"android":"levelo://app?vid=25df00a3-26f1-4da2-be69-5750e60c4403","ios":"levelo://app?vid=25df00a3-26f1-4da2-be69-5750e60c4403"},"vehicle_type_id":"4","last_reported":1731804693,"current_range_meters":37600,"station_id":"ce4bgt12rcd13ifvqcd0","pricing_plan_id":"cebpf4jnsgd1na2vs0mg"},{"bike_id":"3e3b2893-2700-445f-8ce1-a9e9bbe930d8","system_id":"levelo_inurba_marseille","lat":43.31079,"lon":5.38349,"is_reserved":false,"is_disabled":false,"rental_uris":{"android":"levelo://app?vid=3e3b2893-2700-445f-8ce1-a9e9bbe930d8","ios":"levelo://app?vid=3e3b2893-2700-445f-8ce1-a9e9bbe930d8"},"vehicle_type_id":"4","last_reported":1731804693,"current_range_meters":19200,"station_id":"ce4bgv92rcd13ifvqcr0","pricing_plan_id":"cebpf4jnsgd1na2vs0mg"},{"bike_id":"56075252-74df-41bd-8879-5a4ae6ac7900","system_id":"levelo_inurba_marseille","lat":43.24384,"lon":5.37057,"is_reserved":false,"is_disabled":false,"rental_uris":{"android":"levelo://app?vid=56075252-74df-41bd-8879-5a4ae6ac7900","ios":"levelo://app?vid=56075252-74df-41bd-8879-5a4ae6ac7900"},"vehicle_type_id":"4","last_reported":1731804693,"current_range_meters":16000,"station_id":"ce4bhhh2rcd13ifvqfk0","pricing_plan_id":"cebpf4jnsgd1na2vs0mg"},{"bike_id":"056a94b6-4f3f-4f91-8ff9-1afc6326f8f2","system_id":"levelo_inurba_marseille","lat":43.30644,"lon":5.40092,"is_reserved":false,"is_disabled":false,"rental_uris":{"android":"levelo://app?vid=056a94b6-4f3f-4f91-8ff9-1afc6326f8f2","ios":"levelo://app?vid=056a94b6-4f3f-4f91-8ff9-1afc6326f8f2"},"vehicle_type_id":"4","last_reported":1731804693,"current_range_meters":39200,"station_id":"ce4bh112rcd13ifvqda0","pricing_plan_id":"cebpf4jnsgd1na2vs0mg"},{"bike_id":"776c19bb-9271-4d1b-b450-71b28ade05f5","system_id":"levelo_inurba_marseille","lat":43.23188,"lon":5.35555,"is_reserved":false,"is_disabled":false,"rental_uris":{"android":"levelo://app?vid=776c19bb-9271-4d1b-b450-71b28ade05f5","ios":"levelo://app?vid=776c19bb-9271-4d1b-b450-71b28ade05f5"},"vehicle_type_id":"4","last_reported":1731804693,"current_range_meters":37600,"station_id":"ce4bhu92rcd13ifvqi70","pricing_plan_id":"cebpf4jnsgd1na2vs0mg"},{"bike_id":"3731846e-2218-45f1-ac96-76a41185ff9d","system_id":"levelo_inurba_marseille","lat":43.24169,"lon":5.36403,"is_reserved":false,"is_disabled":false,"rental_uris":{"android":"levelo://app?vid=3731846e-2218-45f1-ac96-76a41185ff9d","ios":"levelo://app?vid=3731846e-2218-45f1-ac96-76a41185ff9d"},"vehicle_type_id":"4","last_reported":1731804693,"current_range_meters":38000,"station_id":"cpo36qri1sfpv3e86is0","pricing_plan_id":"cebpf4jnsgd1na2vs0mg"},{"bike_id":"76f4890c-957d-48ca-a3e0-c7a9a9d95cd2","system_id":"levelo_inurba_marseille","lat":43.31995,"lon":5.38146,"is_reserved":false,"is_disabled":false,"rental_uris":{"android":"levelo://app?vid=76f4890c-957d-48ca-a3e0-c7a9a9d95cd2","ios":"levelo://app?vid=76f4890c-957d-48ca-a3e0-c7a9a9d95cd2"},"vehicle_type_id":"4","last_reported":1731804693,"current_range_meters":30800,"station_id":"ce4bhr12rcd13ifvqhpg","pricing_plan_id":"cebpf4jnsgd1na2vs0mg"},{"bike_id":"92ac4858-87d6-4ceb-8f6e-004635a816a8","system_id":"levelo_inurba_marseille","lat":43.27787,"lon":5.40722,"is_reserved":false,"is_disabled":false,"rental_uris":{"android":"levelo://app?vid=92ac4858-87d6-4ceb-8f6e-004635a816a8","ios":"levelo://app?vid=92ac4858-87d6-4ceb-8f6e-004635a816a8"},"vehicle_type_id":"4","last_reported":1731804693,"current_range_meters":28800,"station_id":"ce4bhnh2rcd13ifvqgtg","pricing_plan_id":"cebpf4jnsgd1na2vs0mg"},{"bike_id":"af712ab9-ece6-4723-8ff8-2d7fe5a88cad","system_id":"levelo_inurba_marseille","lat":43.31075,"lon":5.38351,"is_reserved":false,"is_disabled":false,"rental_uris":{"android":"levelo://app?vid=af712ab9-ece6-4723-8ff8-2d7fe5a88cad","ios":"levelo://app?vid=af712ab9-ece6-4723-8ff8-2d7fe5a88cad"},"vehicle_type_id":"4","last_reported":1731804693,"current_range_meters":30000,"station_id":"ce4bgv92rcd13ifvqcr0","pricing_plan_id":"cebpf4jnsgd1na2vs0mg"},{"bike_id":"1396ab55-0e44-4ee6-a17e-86cf36813da1","system_id":"levelo_inurba_marseille","lat":43.24185,"lon":5.3973,"is_reserved":false,"is_disabled":false,"rental_uris":{"android":"levelo://app?vid=1396ab55-0e44-4ee6-a17e-86cf36813da1","ios":"levelo://app?vid=1396ab55-0e44-4ee6-a17e-86cf36813da1"},"vehicle_type_id":"4","last_reported":1731804693,"current_range_meters":30400,"station_id":"ce4bhn12rcd13ifvqgpg","pricing_plan_id":"cebpf4jnsgd1na2vs0mg"},{"bike_id":"55dd19b5-7399-4bc9-a377-b11c12e17417","system_id":"levelo_inurba_marseille","lat":43.31382,"lon":5.384983,"is_reserved":false,"is_disabled":false,"rental_uris":{"android":"levelo://app?vid=55dd19b5-7399-4bc9-a377-b11c12e17417","ios":"levelo://app?vid=55dd19b5-7399-4bc9-a377-b11c12e17417"},"vehicle_type_id":"4","last_reported":1731804693,"current_range_meters":18800,"station_id":"ce4bgt92rcd13ifvqcf0","pricing_plan_id":"cebpf4jnsgd1na2vs0mg"},{"bike_id":"a2b165e7-8d8d-4922-9ef2-c24fcea2bf58","system_id":"levelo_inurba_marseille","lat":43.2707,"lon":5.42279,"is_reserved":false,"is_disabled":false,"rental_uris":{"android":"levelo://app?vid=a2b165e7-8d8d-4922-9ef2-c24fcea2bf58","ios":"levelo://app?vid=a2b165e7-8d8d-4922-9ef2-c24fcea2bf58"},"vehicle_type_id":"4","last_reported":1731804693,"current_range_meters":24000,"station_id":"ce4bhk92rcd13ifvqgb0","pricing_plan_id":"cebpf4jnsgd1na2vs0mg"},{"bike_id":"eb6275b4-cca5-4ded-8431-01aff44c3583","system_id":"levelo_inurba_marseille","lat":43.31496,"lon":5.37302,"is_reserved":false,"is_disabled":false,"rental_uris":{"android":"levelo://app?vid=eb6275b4-cca5-4ded-8431-01aff44c3583","ios":"levelo://app?vid=eb6275b4-cca5-4ded-8431-01aff44c3583"},"vehicle_type_id":"4","last_reported":1731804693,"current_range_meters":15200,"station_id":"ce4bgt12rcd13ifvqcd0","pricing_plan_id":"cebpf4jnsgd1na2vs0mg"},{"bike_id":"7ea59921-7b11-46c9-bc65-2a821b70874a","system_id":"levelo_inurba_marseille","lat":43.27621,"lon":5.36112,"is_reserved":false,"is_disabled":false,"rental_uris":{"android":"levelo://app?vid=7ea59921-7b11-46c9-bc65-2a821b70874a","ios":"levelo://app?vid=7ea59921-7b11-46c9-bc65-2a821b70874a"},"vehicle_type_id":"4","last_reported":1731804693,"current_range_meters":8400,"station_id":"ce4bgj92rcd13ifvqbe0","pricing_plan_id":"cebpf4jnsgd1na2vs0mg"},{"bike_id":"d4498861-3c60-4389-beb1-4767aeaaf2a0","system_id":"levelo_inurba_marseille","lat":43.28619,"lon":5.35102,"is_reserved":false,"is_disabled":false,"rental_uris":{"android":"levelo://app?vid=d4498861-3c60-4389-beb1-4767aeaaf2a0","ios":"levelo://app?vid=d4498861-3c60-4389-beb1-4767aeaaf2a0"},"vehicle_type_id":"4","last_reported":1731804693,"current_range_meters":8000,"station_id":"ce4bhch2rcd13ifvqeug","pricing_plan_id":"cebpf4jnsgd1na2vs0mg"},{"bike_id":"716deff2-644f-4891-837f-fd7c8996db74","system_id":"levelo_inurba_marseille","lat":43.32003,"lon":5.38154,"is_reserved":false,"is_disabled":false,"rental_uris":{"android":"levelo://app?vid=716deff2-644f-4891-837f-fd7c8996db74","ios":"levelo://app?vid=716deff2-644f-4891-837f-fd7c8996db74"},"vehicle_type_id":"4","last_reported":1731804693,"current_range_meters":20000,"station_id":"ce4bhr12rcd13ifvqhpg","pricing_plan_id":"cebpf4jnsgd1na2vs0mg"},{"bike_id":"4fc6748c-845f-43b3-a134-d0b5f8932b20","system_id":"levelo_inurba_marseille","lat":43.26933,"lon":5.38909,"is_reserved":false,"is_disabled":false,"rental_uris":{"android":"levelo://app?vid=4fc6748c-845f-43b3-a134-d0b5f8932b20","ios":"levelo://app?vid=4fc6748c-845f-43b3-a134-d0b5f8932b20"},"vehicle_type_id":"4","last_reported":1731804693,"current_range_meters":38000,"station_id":"ce4bhhh2rcd13ifvqfl0","pricing_plan_id":"cebpf4jnsgd1na2vs0mg"},{"bike_id":"538ff880-7009-4230-aa76-28de0d1a5a41","system_id":"levelo_inurba_marseille","lat":43.24388,"lon":5.37057,"is_reserved":false,"is_disabled":false,"rental_uris":{"android":"levelo://app?vid=538ff880-7009-4230-aa76-28de0d1a5a41","ios":"levelo://app?vid=538ff880-7009-4230-aa76-28de0d1a5a41"},"vehicle_type_id":"4","last_reported":1731804693,"current_range_meters":17200,"station_id":"ce4bhhh2rcd13ifvqfk0","pricing_plan_id":"cebpf4jnsgd1na2vs0mg"},{"bike_id":"a84f5389-258d-4508-9c0f-32ee5d326b43","system_id":"levelo_inurba_marseille","lat":43.33767,"lon":5.37475,"is_reserved":false,"is_disabled":false,"rental_uris":{"android":"levelo://app?vid=a84f5389-258d-4508-9c0f-32ee5d326b43","ios":"levelo://app?vid=a84f5389-258d-4508-9c0f-32ee5d326b43"},"vehicle_type_id":"4","last_reported":1731804693,"current_range_meters":32000,"station_id":"","pricing_plan_id":"cebpf4jnsgd1na2vs0mg"},{"bike_id":"4c74b5f5-43b1-4537-b65e-f81854d5e095","system_id":"levelo_inurba_marseille","lat":43.28416,"lon":5.34994,"is_reserved":false,"is_disabled":false,"rental_uris":{"android":"levelo://app?vid=4c74b5f5-43b1-4537-b65e-f81854d5e095","ios":"levelo://app?vid=4c74b5f5-43b1-4537-b65e-f81854d5e095"},"vehicle_type_id":"4","last_reported":1731804693,"current_range_meters":34000,"station_id":"ce4bhbh2rcd13ifvqepg","pricing_plan_id":"cebpf4jnsgd1na2vs0mg"},{"bike_id":"0279fde2-ea51-412c-bd9a-79996fcd3658","system_id":"levelo_inurba_marseille","lat":43.29418,"lon":5.38624,"is_reserved":false,"is_disabled":false,"rental_uris":{"android":"levelo://app?vid=0279fde2-ea51-412c-bd9a-79996fcd3658","ios":"levelo://app?vid=0279fde2-ea51-412c-bd9a-79996fcd3658"},"vehicle_type_id":"4","last_reported":1731804693,"current_range_meters":19600,"station_id":"ce4bh2h2rcd13ifvqdh0","pricing_plan_id":"cebpf4jnsgd1na2vs0mg"},{"bike_id":"e24fb8f9-7235-4a19-8e38-b334250c473d","system_id":"levelo_inurba_marseille","lat":43.31711,"lon":5.37742,"is_reserved":false,"is_disabled":false,"rental_uris":{"android":"levelo://app?vid=e24fb8f9-7235-4a19-8e38-b334250c473d","ios":"levelo://app?vid=e24fb8f9-7235-4a19-8e38-b334250c473d"},"vehicle_type_id":"4","last_reported":1731804693,"current_range_meters":40000,"station_id":"ce4bgth2rcd13ifvqch0","pricing_plan_id":"cebpf4jnsgd1na2vs0mg"},{"bike_id":"c4a46278-8a63-4223-87e1-5373903b9599","system_id":"levelo_inurba_marseille","lat":43.32365,"lon":5.38879,"is_reserved":false,"is_disabled":false,"rental_uris":{"android":"levelo://app?vid=c4a46278-8a63-4223-87e1-5373903b9599","ios":"levelo://app?vid=c4a46278-8a63-4223-87e1-5373903b9599"},"vehicle_type_id":"4","last_reported":1731804693,"current_range_meters":16400,"station_id":"ce4bhqp2rcd13ifvqhog","pricing_plan_id":"cebpf4jnsgd1na2vs0mg"},{"bike_id":"ed8cfcce-fcd3-4866-b7bb-3032e5fedbfd","system_id":"levelo_inurba_marseille","lat":43.32341,"lon":5.40621,"is_reserved":false,"is_disabled":false,"rental_uris":{"android":"levelo://app?vid=ed8cfcce-fcd3-4866-b7bb-3032e5fedbfd","ios":"levelo://app?vid=ed8cfcce-fcd3-4866-b7bb-3032e5fedbfd"},"vehicle_type_id":"4","last_reported":1731804693,"current_range_meters":28800,"station_id":"ce4bhq92rcd13ifvqhjg","pricing_plan_id":"cebpf4jnsgd1na2vs0mg"},{"bike_id":"50f52a7b-755c-48c2-9a91-73ebef190fd8","system_id":"levelo_inurba_marseille","lat":43.30533,"lon":5.3842,"is_reserved":false,"is_disabled":false,"rental_uris":{"android":"levelo://app?vid=50f52a7b-755c-48c2-9a91-73ebef190fd8","ios":"levelo://app?vid=50f52a7b-755c-48c2-9a91-73ebef190fd8"},"vehicle_type_id":"4","last_reported":1731804693,"current_range_meters":36800,"station_id":"ce4bgg92rcd13ifvqb30","pricing_plan_id":"cebpf4jnsgd1na2vs0mg"},{"bike_id":"8fe6ea7a-3559-41da-8c8c-2633ddddc39f","system_id":"levelo_inurba_marseille","lat":43.2795,"lon":5.41043,"is_reserved":false,"is_disabled":false,"rental_uris":{"android":"levelo://app?vid=8fe6ea7a-3559-41da-8c8c-2633ddddc39f","ios":"levelo://app?vid=8fe6ea7a-3559-41da-8c8c-2633ddddc39f"},"vehicle_type_id":"4","last_reported":1731804693,"current_range_meters":33200,"station_id":"ce4bhnp2rcd13ifvqh0g","pricing_plan_id":"cebpf4jnsgd1na2vs0mg"},