{"last_updated":1767687430,"ttl":60,"version":"2.2","data":{"bikes":[{"bike_id":"85e63a3c-0a42-4442-8bd8-e76297dfbb4f","system_id":"levelo_inurba_marseille","lat":43.26551,"lon":5.37281,"is_reserved":false,"is_disabled":false,"rental_uris":{"android":"levelo://app?vid=85e63a3c-0a42-4442-8bd8-e76297dfbb4f","ios":"levelo://app?vid=85e63a3c-0a42-4442-8bd8-e76297dfbb4f"},"vehicle_type_id":"4","last_reported":1767687431,"current_range_meters":2800,"station_id":"ce4bhg12rcd13ifvqf70","pricing_plan_id":"cebpf4jnsgd1na2vs0mg"},{"bike_id":"f3b4d634-902f-494f-ac75-5bbe54b9827c","system_id":"levelo_inurba_marseille","lat":43.293738,"lon":5.37856,"is_reserved":false,"is_disabled":false,"rental_uris":{"android":"levelo://app?vid=f3b4d634-902f-494f-ac75-5bbe54b9827c","ios":"levelo://app?vid=f3b4d634-902f-494f-ac75-5bbe54b9827c"},"vehicle_type_id":"4","last_reported":1767687431,"current_range_meters":2800,"station_id":"ce4bgjh2rcd13ifvqbf0","pricing_plan_id":"cebpf4jnsgd1na2vs0mg"},{"bike_id":"db0b190d-4e76-438b-b5d8-0202dc654fcb","system_id":"levelo_inurba_marseille","lat":43.26682,"lon":5.3826,"is_reserved":false,"is_disabled":false,"rental_uris":{"android":"levelo://app?vid=db0b190d-4e76-438b-b5d8-0202dc654fcb","ios":"levelo://app?vid=db0b190d-4e76-438b-b5d8-0202dc654fcb"},"vehicle_type_id":"4","last_reported":1767687431,"current_range_meters":2800,"station_id":"ce4bhg92rcd13ifvqf90","pricing_plan_id":"cebpf4jnsgd1na2vs0mg"},{"bike_id":"edbb502a-babb-4b56-b7b2-69e8e10c7c11","system_id":"levelo_inurba_marseille","lat":43.2852,"lon":5.48363,"is_reserved":false,"is_disabled":false,"rental_uris":{"android":"levelo://app?vid=edbb502a-babb-4b56-b7b2-69e8e10c7c11","ios":"levelo://app?vid=edbb502a-babb-4b56-b7b2-69e8e10c7c11"},"vehicle_type_id":"4","last_reported":1767687431,"current_range_meters":2800,"station_id":"","pricing_plan_id":"cebpf4jnsgd1na2vs0mg"},{"bike_id":"4c934ad7-7d5c-4241-b18e-77633604fb17","system_id":"levelo_inurba_marseille","lat":43.28944,"lon":5.39626,"is_reserved":false,"is_disabled":false,"rental_uris":{"android":"levelo://app?vid=4c934ad7-7d5c-4241-b18e-77633604fb17","ios":"levelo://app?vid=4c934ad7-7d5c-4241-b18e-77633604fb17"},"vehicle_type_id":"4","last_reported":1767687431,"current_range_meters":2800,"station_id":"ce4bh3h2rcd13ifvqdn0","pricing_plan_id":"cebpf4jnsgd1na2vs0mg"},{"bike_id":"c48b8ab0-3aed-485b-9e87-5ea8f52478d4","system_id":"levelo_inurba_marseille","lat":43.315973,"lon":5.384046,"is_reserved":false,"is_disabled":false,"rental_uris":{"android":"levelo://app?vid=c48b8ab0-3aed-485b-9e87-5ea8f52478d4","ios":"levelo://app?vid=c48b8ab0-3aed-485b-9e87-5ea8f52478d4"},"vehicle_type_id":"4","last_reported":1767687431,"current_range_meters":2800,"station_id":"","pricing_plan_id":"cebpf4jnsgd1na2vs0mg"},{"bike_id":"0f2a16b4-28f6-40da-abf8-f42243d20a0c","system_id":"levelo_inurba_marseille","lat":43.24076,"lon":5.37756,"is_reserved":false,"is_disabled":false,"rental_uris":{"android":"levelo://app?vid=0f2a16b4-28f6-40da-abf8-f42243d20a0c","ios":"levelo://app?vid=0f2a16b4-28f6-40da-abf8-f42243d20a0c"},"vehicle_type_id":"4","last_reported":1767687431,"current_range_meters":2800,"station_id":"ce4bhnp2rcd13ifvqgvg","pricing_plan_id":"cebpf4jnsgd1na2vs0mg"},{"bike_id":"527ca113-0d49-49b5-b4d1-125f41b8a927","system_id":"levelo_inurba_marseille","lat":43.25861,"lon":5.39904,"is_reserved":false,"is_disabled":false,"rental_uris":{"android":"levelo://app?vid=527ca113-0d49-49b5-b4d1-125f41b8a927","ios":"levelo://app?vid=527ca113-0d49-49b5-b4d1-125f41b8a927"},"vehicle_type_id":"4","last_reported":1767687431,"current_range_meters":2800,"station_id":"ce4bhl92rcd13ifvqghg","pricing_plan_id":"cebpf4jnsgd1na2vs0mg"},{"bike_id":"bbc52f9d-58c0-4a25-aafe-221d02bf47d5","system_id":"levelo_inurba_marseille","lat":43.31367,"lon":5.384998,"is_reserved":false,"is_disabled":false,"rental_uris":{"android":"levelo://app?vid=bbc52f9d-58c0-4a25-aafe-221d02bf47d5","ios":"levelo://app?vid=bbc52f9d-58c0-4a25-aafe-221d02bf47d5"},"vehicle_type_id":"4","last_reported":1767687431,"current_range_meters":2800,"station_id":"ce4bgt92rcd13ifvqcf0","pricing_plan_id":"cebpf4jnsgd1na2vs0mg"},{"bike_id":"22adb943-7bf4-4dd7-871c-aa479715dd09","system_id":"levelo_inurba_marseille","lat":43.29273,"lon":5.38438,"is_reserved":false,"is_disabled":false,"rental_uris":{"android":"levelo://app?vid=22adb943-7bf4-4dd7-871c-aa479715dd09","ios":"levelo://app?vid=22adb943-7bf4-4dd7-871c-aa479715dd09"},"vehicle_type_id":"4","last_reported":1767687431,"current_range_meters":2800,"station_id":"ce4bh692rcd13ifvqea0","pricing_plan_id":"cebpf4jnsgd1na2vs0mg"},{"bike_id":"dd4b26d8-542e-465e-b0ca-3dbc603d6928","system_id":"levelo_inurba_marseille","lat":43.24185,"lon":5.39723,"is_reserved":false,"is_disabled":false,"rental_uris":{"android":"levelo://app?vid=dd4b26d8-542e-465e-b0ca-3dbc603d6928","ios":"levelo://app?vid=dd4b26d8-542e-465e-b0ca-3dbc603d6928"},"vehicle_type_id":"4","last_reported":1767687431,"current_range_meters":3200,"station_id":"ce4bhn12rcd13ifvqgpg","pricing_plan_id":"cebpf4jnsgd1na2vs0mg"},{"bike_id":"9eb9f2a9-0def-423d-bc04-f48d9e280ab5","system_id":"levelo_inurba_marseille","lat":43.30537,"lon":5.36708,"is_reserved":false,"is_disabled":false,"rental_uris":{"android":"levelo://app?vid=9eb9f2a9-0def-423d-bc04-f48d9e280ab5","ios":"levelo://app?vid=9eb9f2a9-0def-423d-bc04-f48d9e280ab5"},"vehicle_type_id":"4","last_reported":1767687431,"current_range_meters":3200,"station_id":"ce4bgrp2rcd13ifvqc9g","pricing_plan_id":"cebpf4jnsgd1na2vs0mg"},{"bike_id":"ee777e48-7b1d-477a-8aa7-246572e50a4f","system_id":"levelo_inurba_marseille","lat":43.23797,"lon":5.36635,"is_reserved":false,"is_disabled":false,"rental_uris":{"android":"levelo://app?vid=ee777e48-7b1d-477a-8aa7-246572e50a4f","ios":"levelo://app?vid=ee777e48-7b1d-477a-8aa7-246572e50a4f"},"vehicle_type_id":"4","last_reported":1767687431,"current_range_meters":3200,"station_id":"st_d3nk18o9ro0c73en2l3g","pricing_plan_id":"cebpf4jnsgd1na2vs0mg"},{"bike_id":"23ca7298-0052-4695-b4d8-e4851bab8dd8","system_id":"levelo_inurba_marseille","lat":43.2973,"lon":5.37683,"is_reserved":false,"is_disabled":false,"rental_uris":{"android":"levelo://app?vid=23ca7298-0052-4695-b4d8-e4851bab8dd8","ios":"levelo://app?vid=23ca7298-0052-4695-b4d8-e4851bab8dd8"},"vehicle_type_id":"4","last_reported":1767687431,"current_range_meters":3200,"station_id":"ce4bgkh2rcd13ifvqbl0","pricing_plan_id":"cebpf4jnsgd1na2vs0mg"},{"bike_id":"e3aa32d8-6703-4bb5-89dd-c6404061fee0","system_id":"levelo_inurba_marseille","lat":43.31379,"lon":5.38038,"is_reserved":false,"is_disabled":false,"rental_uris":{"android":"levelo://app?vid=e3aa32d8-6703-4bb5-89dd-c6404061fee0","ios":"levelo://app?vid=e3aa32d8-6703-4bb5-89dd-c6404061fee0"},"vehicle_type_id":"4","last_reported":1767687431,"current_range_meters":3200,"station_id":"","pricing_plan_id":"cebpf4jnsgd1na2vs0mg"},{"bike_id":"1f247ba6-8b22-483d-be79-885fa88c6c01","system_id":"levelo_inurba_marseille","lat":43.304788,"lon":5.367206,"is_reserved":false,"is_disabled":false,"rental_uris":{"android":"levelo://app?vid=1f247ba6-8b22-483d-be79-885fa88c6c01","ios":"levelo://app?vid=1f247ba6-8b22-483d-be79-885fa88c6c01"},"vehicle_type_id":"4","last_reported":1767687431,"current_range_meters":3200,"station_id":"ce4bgrp2rcd13ifvqc9g","pricing_plan_id":"cebpf4jnsgd1na2vs0mg"},{"bike_id":"fd8f368a-790a-472f-8659-a02b635b9f3b","system_id":"levelo_inurba_marseille","lat":43.31074,"lon":5.37463,"is_reserved":false,"is_disabled":false,"rental_uris":{"android":"levelo://app?vid=fd8f368a-790a-472f-8659-a02b635b9f3b","ios":"levelo://app?vid=fd8f368a-790a-472f-8659-a02b635b9f3b"},"vehicle_type_id":"4","last_reported":1767687431,"current_range_meters":3200,"station_id":"","pricing_plan_id":"cebpf4jnsgd1na2vs0mg"},{"bike_id":"a37d40f7-6a7a-463a-8f5a-b25737a5a4f2","system_id":"levelo_inurba_marseille","lat":43.299,"lon":5.38004,"is_reserved":false,"is_disabled":false,"rental_uris":{"android":"levelo://app?vid=a37d40f7-6a7a-463a-8f5a-b25737a5a4f2","ios":"levelo://app?vid=a37d40f7-6a7a-463a-8f5a-b25737a5a4f2"},"vehicle_type_id":"4","last_reported":1767687431,"current_range_meters":3200,"station_id":"","pricing_plan_id":"cebpf4jnsgd1na2vs0mg"},{"bike_id":"55654a27-5cd8-4223-b844-2fc4c9f1600a","system_id":"levelo_inurba_marseille","lat":43.31361,"lon":5.3792,"is_reserved":false,"is_disabled":false,"rental_uris":{"android":"levelo://app?vid=55654a27-5cd8-4223-b844-2fc4c9f1600a","ios":"levelo://app?vid=55654a27-5cd8-4223-b844-2fc4c9f1600a"},"vehicle_type_id":"4","last_reported":1767687431,"current_range_meters":3200,"station_id":"","pricing_plan_id":"cebpf4jnsgd1na2vs0mg"},{"bike_id":"7409f8d2-dfa9-4964-9bc6-c3a46a1923df","system_id":"levelo_inurba_marseille","lat":43.27364,"lon":5.36232,"is_reserved":false,"is_disabled":false,"rental_uris":{"android":"levelo://app?vid=7409f8d2-dfa9-4964-9bc6-c3a46a1923df","ios":"levelo://app?vid=7409f8d2-dfa9-4964-9bc6-c3a46a1923df"},"vehicle_type_id":"4","last_reported":1767687431,"current_range_meters":3200,"station_id":"ce4bhbh2rcd13ifvqeo0","pricing_plan_id":"cebpf4jnsgd1na2vs0mg"},{"bike_id":"411b90f9-02e3-49c0-b8a4-0c2d7d219f81","system_id":"levelo_inurba_marseille","lat":43.29074,"lon":5.40034,"is_reserved":false,"is_disabled":false,"rental_uris":{"android":"levelo://app?vid=411b90f9-02e3-49c0-b8a4-0c2d7d219f81","ios":"levelo://app?vid=411b90f9-02e3-49c0-b8a4-0c2d7d219f81"},"vehicle_type_id":"4","last_reported":1767687431,"current_range_meters":3200,"station_id":"","pricing_plan_id":"cebpf4jnsgd1na2vs0mg"},{"bike_id":"2069baff-55a7-4e8c-b228-c6192f46c65f","system_id":"levelo_inurba_marseille","lat":43.25948,"lon":5.40894,"is_reserved":false,"is_disabled":false,"rental_uris":{"android":"levelo://app?vid=2069baff-55a7-4e8c-b228-c6192f46c65f","ios":"levelo://app?vid=2069baff-55a7-4e8c-b228-c6192f46c65f"},"vehicle_type_id":"4","last_reported":1767687431,"current_range_meters":3200,"station_id":"ce4bhm92rcd13ifvqglg","pricing_plan_id":"cebpf4jnsgd1na2vs0mg"},{"bike_id":"85f65327-244d-4e0f-989f-0ca631a03630","system_id":"levelo_inurba_marseille","lat":43.28162,"lon":5.42636,"is_reserved":false,"is_disabled":false,"rental_uris":{"android":"levelo://app?vid=85f65327-244d-4e0f-989f-0ca631a03630","ios":"levelo://app?vid=85f65327-244d-4e0f-989f-0ca631a03630"},"vehicle_type_id":"4","last_reported":1767687431,"current_range_meters":3600,"station_id":"ce4bhnh2rcd13ifvqgug","pricing_plan_id":"cebpf4jnsgd1na2vs0mg"},{"bike_id":"5c208eb7-cfe0-4db6-8dff-e4e21273e139","system_id":"levelo_inurba_marseille","lat":43.26936,"lon":5.40233,"is_reserved":false,"is_disabled":false,"rental_uris":{"android":"levelo://app?vid=5c208eb7-cfe0-4db6-8dff-e4e21273e139","ios":"levelo://app?vid=5c208eb7-cfe0-4db6-8dff-e4e21273e139"},"vehicle_type_id":"4","last_reported":1767687431,"current_range_meters":3600,"station_id":"cjm6bp8fraef2m0cb0m0","pricing_plan_id":"cebpf4jnsgd1na2vs0mg"},{"bike_id":"4d5b63b0-8081-4b4c-8fda-17d2f7e85dab","system_id":"levelo_inurba_marseille","lat":43.29565,"lon":5.37516,"is_reserved":false,"is_disabled":false,"rental_uris":{"android":"levelo://app?vid=4d5b63b0-8081-4b4c-8fda-17d2f7e85dab","ios":"levelo://app?vid=4d5b63b0-8081-4b4c-8fda-17d2f7e85dab"},"vehicle_type_id":"4","last_reported":1767687431,"current_range_meters":3600,"station_id":"ce4bgh92rcd13ifvqb50","pricing_plan_id":"cebpf4jnsgd1na2vs0mg"},{"bike_id":"5c752d77-7b25-48ba-99ef-9b278d0c9e59","system_id":"levelo_inurba_marseille","lat":43.24385,"lon":5.3706,"is_reserved":false,"is_disabled":false,"rental_uris":{"android":"levelo://app?vid=5c752d77-7b25-48ba-99ef-9b278d0c9e59","ios":"levelo://app?vid=5c752d77-7b25-48ba-99ef-9b278d0c9e59"},"vehicle_type_id":"4","last_reported":1767687431,"current_range_meters":3600,"station_id":"ce4bhhh2rcd13ifvqfk0","pricing_plan_id":"cebpf4jnsgd1na2vs0mg"},{"bike_id":"c5365846-c619-4f12-8c92-97c9f9725a15","system_id":"levelo_inurba_marseille","lat":43.29509,"lon":5.37927,"is_reserved":false,"is_disabled":false,"rental_uris":{"android":"levelo://app?vid=c5365846-c619-4f12-8c92-97c9f9725a15","ios":"levelo://app?vid=c5365846-c619-4f12-8c92-97c9f9725a15"},"vehicle_type_id":"4","last_reported":1767687431,"current_range_meters":3600,"station_id":"","pricing_plan_id":"cebpf4jnsgd1na2vs0mg"},{"bike_id":"6914d477-bcf8-41a3-9bc2-fb7bc286770f","system_id":"levelo_inurba_marseille","lat":43.30181,"lon":5.38103,"is_reserved":false,"is_disabled":false,"rental_uris":{"android":"levelo://app?vid=6914d477-bcf8-41a3-9bc2-fb7bc286770f","ios":"levelo://app?vid=6914d477-bcf8-41a3-9bc2-fb7bc286770f"},"vehicle_type_id":"4","last_reported":1767687431,"current_range_meters":3600,"station_id":"ce4bgjp2rcd13ifvqbh0","pricing_plan_id":"cebpf4jnsgd1na2vs0mg"},{"bike_id":"fd405a78-b5f6-4f7f-ade7-a9aff3727f56","system_id":"levelo_inurba_marseille","lat":43.29316,"lon":5.37163,"is_reserved":false,"is_disabled":false,"rental_uris":{"android":"levelo://app?vid=fd405a78-b5f6-4f7f-ade7-a9aff3727f56","ios":"levelo://app?vid=fd405a78-b5f6-4f7f-ade7-a9aff3727f56"},"vehicle_type_id":"4","last_reported":1767687431,"current_range_meters":3600,"station_id":"ce4bgh92rcd13ifvqb40","pricing_plan_id":"cebpf4jnsgd1na2vs0mg"},{"bike_id":"a1e1d310-c7a2-411c-8a40-2c6273374ea0","system_id":"levelo_inurba_marseille","lat":43.30787,"lon":5.37635,"is_reserved":false,"is_disabled":false,"rental_uris":{"android":"levelo://app?vid=a1e1d310-c7a2-411c-8a40-2c6273374ea0","ios":"levelo://app?vid=a1e1d310-c7a2-411c-8a40-2c6273374ea0"},"vehicle_type_id":"4","last_reported":1767687431,"current_range_meters":3600,"station_id":"ce4bgv92rcd13ifvqcq0","pricing_plan_id":"cebpf4jnsgd1na2vs0mg"},{"bike_id":"dca9a712-a982-44b1-8cbd-17efb24372eb","system_id":"levelo_inurba_marseille","lat":43.30186,"lon":5.36622,"is_reserved":false,"is_disabled":false,"rental_uris":{"android":"levelo://app?vid=dca9a712-a982-44b1-8cbd-17efb24372eb","ios":"levelo://app?vid=dca9a712-a982-44b1-8cbd-17efb24372eb"},"vehicle_type_id":"4","last_reported":1767687431,"current_range_meters":4000,"station_id":"ce4bgrh2rcd13ifvqc8g","pricing_plan_id":"cebpf4jnsgd1na2vs0mg"},{"bike_id":"78e16a91-b001-46fd-b5d6-b9da1c18843b","system_id":"levelo_inurba_marseille","lat":43.27841,"lon":5.3921,"is_reserved":false,"is_disabled":false,"rental_uris":{"android":"levelo://app?vid=78e16a91-b001-46fd-b5d6-b9da1c18843b","ios":"levelo://app?vid=78e16a91-b001-46fd-b5d6-b9da1c18843b"},"vehicle_type_id":"4","last_reported":1767687431,"current_range_meters":4000,"station_id":"ce4bhjp2rcd13ifvqga0","pricing_plan_id":"cebpf4jnsgd1na2vs0mg"},{"bike_id":"17fb56bd-aa64-4e3c-afd4-15d59f658bcc","system_id":"levelo_inurba_marseille","lat":43.31222,"lon":5.36851,"is_reserved":false,"is_disabled":false,"rental_uris":{"android":"levelo://app?vid=17fb56bd-aa64-4e3c-afd4-15d59f658bcc","ios":"levelo://app?vid=17fb56bd-aa64-4e3c-afd4-15d59f658bcc"},"vehicle_type_id":"4","last_reported":1767687431,"current_range_meters":4000,"station_id":"ce4bgl92rcd13ifvqbq0","pricing_plan_id":"cebpf4jnsgd1na2vs0mg"},{"bike_id":"f92007a1-ed4f-4932-8cee-f4e6aabda6f5","system_id":"levelo_inurba_marseille","lat":43.30463,"lon":5.37899,"is_reserved":false,"is_disabled":false,"rental_uris":{"android":"levelo://app?vid=f92007a1-ed4f-4932-8cee-f4e6aabda6f5","ios":"levelo://app?vid=f92007a1-ed4f-4932-8cee-f4e6aabda6f5"},"vehicle_type_id":"4","last_reported":1767687431,"current_range_meters":4000,"station_id":"ce4bgup2rcd13ifvqcn0","pricing_plan_id":"cebpf4jnsgd1na2vs0mg"},{"bike_id":"8d5771d0-afa2-415d-8bbf-8098b75db40e","system_id":"levelo_inurba_marseille","lat":43.30163,"lon":5.38097,"is_reserved":false,"is_disabled":false,"rental_uris":{"android":"levelo://app?vid=8d5771d0-afa2-415d-8bbf-8098b75db40e","ios":"levelo://app?vid=8d5771d0-afa2-415d-8bbf-8098b75db40e"},"vehicle_type_id":"4","last_reported":1767687431,"current_range_meters":4000,"station_id":"ce4bgjp2rcd13ifvqbh0","pricing_plan_id":"cebpf4jnsgd1na2vs0mg"},{"bike_id":"7f0effc9-a455-4ad1-9f50-585d68dccc8b","system_id":"levelo_inurba_marseille","lat":43.28811,"lon":5.36388,"is_reserved":false,"is_disabled":false,"rental_uris":{"android":"levelo://app?vid=7f0effc9-a455-4ad1-9f50-585d68dccc8b","ios":"levelo://app?vid=7f0effc9-a455-4ad1-9f50-585d68dccc8b"},"vehicle_type_id":"4","last_reported":1767687431,"current_range_meters":4000,"station_id":"","pricing_plan_id":"cebpf4jnsgd1na2vs0mg"},{"bike_id":"78b11bb5-5700-4fb6-b0c1-d37e13475e71","system_id":"levelo_inurba_marseille","lat":43.2938,"lon":5.37859,"is_reserved":false,"is_disabled":false,"rental_uris":{"android":"levelo://app?vid=78b11bb5-5700-4fb6-b0c1-d37e13475e71","ios":"levelo://app?vid=78b11bb5-5700-4fb6-b0c1-d37e13475e71"},"vehicle_type_id":"4","last_reported":1767687431,"current_range_meters":4000,"station_id":"ce4bgjh2rcd13ifvqbf0","pricing_plan_id":"cebpf4jnsgd1na2vs0mg"},{"bike_id":"d19e7d8f-8d39-4e32-b60a-b3305948b30b","system_id":"levelo_inurba_marseille","lat":43.24169,"lon":5.36394,"is_reserved":false,"is_disabled":false,"rental_uris":{"android":"levelo://app?vid=d19e7d8f-8d39-4e32-b60a-b3305948b30b","ios":"levelo://app?vid=d19e7d8f-8d39-4e32-b60a-b3305948b30b"},"vehicle_type_id":"4","last_reported":1767687431,"current_range_meters":4000,"station_id":"cpo36qri1sfpv3e86is0","pricing_plan_id":"cebpf4jnsgd1na2vs0mg"},{"bike_id":"9911b333-44a0-4c44-a3e8-a801d8d5f8b4","system_id":"levelo_inurba_marseille","lat":43.28668,"lon":5.38665,"is_reserved":false,"is_disabled":false,"rental_uris":{"android":"levelo://app?vid=9911b333-44a0-4c44-a3e8-a801d8d5f8b4","ios":"levelo://app?vid=9911b333-44a0-4c44-a3e8-a801d8d5f8b4"},"vehicle_type_id":"4","last_reported":1767687431,"current_range_meters":4000,"station_id":"ce4bh492rcd13ifvqdug","pricing_plan_id":"cebpf4jnsgd1na2vs0mg"},{"bike_id":"a346bc68-538a-4c08-a956-8c993271e9f9","system_id":"levelo_inurba_marseille","lat":43.31619,"lon":5.38469,"is_reserved":false,"is_disabled":false,"rental_uris":{"android":"levelo://app?vid=a346bc68-538a-4c08-a956-8c993271e9f9","ios":"levelo://app?vid=a346bc68-538a-4c08-a956-8c993271e9f9"},"vehicle_type_id":"4","last_reported":1767687431,"current_range_meters":4000,"station_id":"","pricing_plan_id":"cebpf4jnsgd1na2vs0mg"},{"bike_id":"eda2162e-547f-48cb-8c21-ee61809bbbb5","system_id":"levelo_inurba_marseille","lat":43.2848,"lon":5.38547,"is_reserved":false,"is_disabled":false,"rental_uris":{"android":"levelo://app?vid=eda2162e-547f-48cb-8c21-ee61809bbbb5","ios":"levelo://app?vid=eda2162e-547f-48cb-8c21-ee61809bbbb5"},"vehicle_type_id":"4","last_reported":1767687431,"current_range_meters":4000,"station_id":"ce4bh8p2rcd13ifvqeb0","pricing_plan_id":"cebpf4jnsgd1na2vs0mg"},{"bike_id":"a521f1e5-04a4-4f93-9ae1-8abfbfbd224d","system_id":"levelo_inurba_marseille","lat":43.30362,"lon":5.43064,"is_reserved":false,"is_disabled":false,"rental_uris":{"android":"levelo://app?vid=a521f1e5-04a4-4f93-9ae1-8abfbfbd224d","ios":"levelo://app?vid=a521f1e5-04a4-4f93-9ae1-8abfbfbd224d"},"vehicle_type_id":"4","last_reported":1767687431,"current_range_meters":4000,"station_id":"","pricing_plan_id":"cebpf4jnsgd1na2vs0mg"},{"bike_id":"506403bb-f5d1-4958-a710-37acfa7c195c","system_id":"levelo_inurba_marseille","lat":43.312469,"lon":5.381212,"is_reserved":false,"is_disabled":false,"rental_uris":{"android":"levelo://app?vid=506403bb-f5d1-4958-a710-37acfa7c195c","ios":"levelo://app?vid=506403bb-f5d1-4958-a710-37acfa7c195c"},"vehicle_type_id":"4","last_reported":1767687431,"current_range_meters":4000,"station_id":"","pricing_plan_id":"cebpf4jnsgd1na2vs0mg"},{"bike_id":"a7ddf1fe-a380-4005-be9c-254f57d4d0b0","system_id":"levelo_inurba_marseille","lat":43.337444,"lon":5.374475,"is_reserved":false,"is_disabled":true,"rental_uris":{"android":"levelo://app?vid=a7ddf1fe-a380-4005-be9c-254f57d4d0b0","ios":"levelo://app?vid=a7ddf1fe-a380-4005-be9c-254f57d4d0b0"},"vehicle_type_id":"4","last_reported":1767687431,"current_range_meters":4000,"station_id":"","pricing_plan_id":"cebpf4jnsgd1na2vs0mg"},{"bike_id":"8f3e537d-e514-408a-bb87-1ef66add8f2f","system_id":"levelo_inurba_marseille","lat":43.29236,"lon":5.36096,"is_reserved":false,"is_disabled":false,"rental_uris":{"android":"levelo://app?vid=8f3e537d-e514-408a-bb87-1ef66add8f2f","ios":"levelo://app?vid=8f3e537d-e514-408a-bb87-1ef66add8f2f"},"vehicle_type_id":"4","last_reported":1767687431,"current_range_meters":4000,"station_id":"ce4bhbh2rcd13ifvqeqg","pricing_plan_id":"cebpf4jnsgd1na2vs0mg"},{"bike_id":"bded8fdd-ec77-4f6c-ac80-640892e88778","system_id":"levelo_inurba_marseille","lat":43.27794,"lon":5.4074,"is_reserved":false,"is_disabled":false,"rental_uris":{"android":"levelo://app?vid=bded8fdd-ec77-4f6c-ac80-640892e88778","ios":"levelo://app?vid=bded8fdd-ec77-4f6c-ac80-640892e88778"},"vehicle_type_id":"4","last_reported":1767687431,"current_range_meters":4000,"station_id":"ce4bhnh2rcd13ifvqgtg","pricing_plan_id":"cebpf4jnsgd1na2vs0mg"},{"bike_id":"9a898d8c-cf91-4640-acfb-d3be64781fb9","system_id":"levelo_inurba_marseille","lat":43.28475,"lon":5.48409,"is_reserved":false,"is_disabled":false,"rental_uris":{"android":"levelo://app?vid=9a898d8c-cf91-4640-acfb-d3be64781fb9","ios":"levelo://app?vid=9a898d8c-cf91-4640-acfb-d3be64781fb9"},"vehicle_type_id":"4","last_reported":1767687431,"current_range_meters":4000,"station_id":"","pricing_plan_id":"cebpf4jnsgd1na2vs0mg"},{"bike_id":"7f88b5dd-ab85-4a5c-920a-8a2e6c74a3b8","system_id":"levelo_inurba_marseille","lat":43.2637,"lon":5.41082,"is_reserved":false,"is_disabled":false,"rental_uris":{"android":"levelo://app?vid=7f88b5dd-ab85-4a5c-920a-8a2e6c74a3b8","ios":"levelo://app?vid=7f88b5dd-ab85-4a5c-920a-8a2e6c74a3b8"},"vehicle_type_id":"4","last_reported":1767687431,"current_range_meters":4000,"station_id":"st_d4e5ca6na9uc73bfl5fg","pricing_plan_id":"cebpf4jnsgd1na2vs0mg"},{"bike_id":"1c773eba-2fa6-438f-8f52-8a107d61623c","system_id":"levelo_inurba_marseille","lat":43.285583,"lon":5.394964,"is_reserved":false,"is_disabled":false,"rental_uris":{"android":"levelo://app?vid=1c773eba-2fa6-438f-8f52-8a107d61623c","ios":"levelo://app?vid=1c773eba-2fa6-438f-8f52-8a107d61623c"},"vehicle_type_id":"4","last_reported":1767687431,"current_range_meters":4000,"station_id":"ce4bh292rcd13ifvqdg0","pricing_plan_id":"cebpf4jnsgd1na2vs0mg"},{"bike_id":"e3776115-62d1-4185-b6da-451c567ad14c","system_id":"levelo_inurba_marseille","lat":43.30463,"lon":5.37909,"is_reserved":false,"is_disabled":false,"rental_uris":{"android":"levelo://app?vid=e3776115-62d1-4185-b6da-451c567ad14c","ios":"levelo://app?vid=e3776115-62d1-4185-b6da-451c567ad14c"},"vehicle_type_id":"4","last_reported":1767687431,"current_range_meters":4000,"station_id":"ce4bgup2rcd13ifvqcn0","pricing_plan_id":"cebpf4jnsgd1na2vs0mg"},{"bike_id":"801e0e40-fac2-4fbc-9636-b8eb982b0989","system_id":"levelo_inurba_marseille","lat":43.23961,"lon":5.36621,"is_reserved":false,"is_disabled":false,"rental_uris":{"android":"levelo://app?vid=801e0e40-fac2-4fbc-9636-b8eb982b0989","ios":"levelo://app?vid=801e0e40-fac2-4fbc-9636-b8eb982b0989"},"vehicle_type_id":"4","last_reported":1767687431,"current_range_meters":4400,"station_id":"ce4bhi12rcd13ifvqfp0","pricing_plan_id":"cebpf4jnsgd1na2vs0mg"},{"bike_id":"a1de2a55-5d03-402c-a22c-6282fded2d27","system_id":"levelo_inurba_marseille","lat":43.23153,"lon":5.4371,"is_reserved":false,"is_disabled":false,"rental_uris":{"android":"levelo://app?vid=a1de2a55-5d03-402c-a22c-6282fded2d27","ios":"levelo://app?vid=a1de2a55-5d03-402c-a22c-6282fded2d27"},"vehicle_type_id":"4","last_reported":1767687431,"current_range_meters":4400,"station_id":"ce4bhmp2rcd13ifvqgog","pricing_plan_id":"cebpf4jnsgd1na2vs0mg"},{"bike_id":"09b220eb-a73a-4834-8da6-c36814873c01","system_id":"levelo_inurba_marseille","lat":43.2594,"lon":5.40925,"is_reserved":false,"is_disabled":true,"rental_uris":{"android":"levelo://app?vid=09b220eb-a73a-4834-8da6-c36814873c01","ios":"levelo://app?vid=09b220eb-a73a-4834-8da6-c36814873c01"},"vehicle_type_id":"4","last_reported":1767687431,"current_range_meters":4400,"station_id":"ce4bhm92rcd13ifvqglg","pricing_plan_id":"cebpf4jnsgd1na2vs0mg"},{"bike_id":"577a8429-e907-45de-a0fc-b8c3d38163f6","system_id":"levelo_inurba_marseille","lat":43.27911,"lon":5.38258,"is_reserved":false,"is_disabled":false,"rental_uris":{"android":"levelo://app?vid=577a8429-e907-45de-a0fc-b8c3d38163f6","ios":"levelo://app?vid=577a8429-e907-45de-a0fc-b8c3d38163f6"},"vehicle_type_id":"4","last_reported":1767687431,"current_range_meters":4400,"station_id":"","pricing_plan_id":"cebpf4jnsgd1na2vs0mg"},{"bike_id":"3bc81a12-c0cb-4985-a392-429354dc42f5","system_id":"levelo_inurba_marseille","lat":43.25938,"lon":5.409111,"is_reserved":false,"is_disabled":false,"rental_uris":{"android":"levelo://app?vid=3bc81a12-c0cb-4985-a392-429354dc42f5","ios":"levelo://app?vid=3bc81a12-c0cb-4985-a392-429354dc42f5"},"vehicle_type_id":"4","last_reported":1767687431,"current_range_meters":4400,"station_id":"ce4bhm92rcd13ifvqglg","pricing_plan_id":"cebpf4jnsgd1na2vs0mg"},{"bike_id":"bbdc9dfb-a153-4b07-b586-01bdcbb09109","system_id":"levelo_inurba_marseille","lat":43.29076,"lon":5.37176,"is_reserved":false,"is_disabled":false,"rental_uris":{"android":"levelo://app?vid=bbdc9dfb-a153-4b07-b586-01bdcbb09109","ios":"levelo://app?vid=bbdc9dfb-a153-4b07-b586-01bdcbb09109"},"vehicle_type_id":"4","last_reported":1767687431,"current_range_meters":4400,"station_id":"ce4bh5p2rcd13ifvqe4g","pricing_plan_id":"cebpf4jnsgd1na2vs0mg"},{"bike_id":"dc882e5a-76f8-438e-9375-34b56048da65","system_id":"levelo_inurba_marseille","lat":43.30954,"lon":5.39027,"is_reserved":false,"is_disabled":false,"rental_uris":{"android":"levelo://app?vid=dc882e5a-76f8-438e-9375-34b56048da65","ios":"levelo://app?vid=dc882e5a-76f8-438e-9375-34b56048da65"},"vehicle_type_id":"4","last_reported":1767687431,"current_range_meters":4400,"station_id":"ce4bgup2rcd13ifvqco0","pricing_plan_id":"cebpf4jnsgd1na2vs0mg"},{"bike_id":"dcc7c511-b714-4345-a05a-b4b35b739605","system_id":"levelo_inurba_marseille","lat":43.301346,"lon":5.374211,"is_reserved":false,"is_disabled":false,"rental_uris":{"android":"levelo://app?vid=dcc7c511-b714-4345-a05a-b4b35b739605","ios":"levelo://app?vid=dcc7c511-b714-4345-a05a-b4b35b739605"},"vehicle_type_id":"4","last_reported":1767687431,"current_range_meters":4800,"station_id":"ce4bgs92rcd13ifvqcc0","pricing_plan_id":"cebpf4jnsgd1na2vs0mg"},{"bike_id":"0f7eefdf-8972-4dc8-89aa-952cc1944736","system_id":"levelo_inurba_marseille","lat":43.27813,"lon":5.407306,"is_reserved":false,"is_disabled":false,"rental_uris":{"android":"levelo://app?vid=0f7eefdf-8972-4dc8-89aa-952cc1944736","ios":"levelo://app?vid=0f7eefdf-8972-4dc8-89aa-952cc1944736"},"vehicle_type_id":"4","last_reported":1767687431,"current_range_meters":4800,"station_id":"ce4bhnh2rcd13ifvqgtg","pricing_plan_id":"cebpf4jnsgd1na2vs0mg"},{"bike_id":"53599be4-fc59-4e3d-8f1d-87851fa394d3","system_id":"levelo_inurba_marseille","lat":43.313501,"lon":5.367021,"is_reserved":false,"is_disabled":false,"rental_uris":{"android":"levelo://app?vid=53599be4-fc59-4e3d-8f1d-87851fa394d3","ios":"levelo://app?vid=53599be4-fc59-4e3d-8f1d-87851fa394d3"},"vehicle_type_id":"4","last_reported":1767687431,"current_range_meters":4800,"station_id":"ce4bgr92rcd13ifvqc6g","pricing_plan_id":"cebpf4jnsgd1na2vs0mg"},{"bike_id":"32d9bd8d-51a9-4cbd-9fee-7a612bd49702","system_id":"levelo_inurba_marseille","lat":43.30528,"lon":5.36693,"is_reserved":false,"is_disabled":false,"rental_uris":{"android":"levelo://app?vid=32d9bd8d-51a9-4cbd-9fee-7a612bd49702","ios":"levelo://app?vid=32d9bd8d-51a9-4cbd-9fee-7a612bd49702"},"vehicle_type_id":"4","last_reported":1767687431,"current_range_meters":4800,"station_id":"ce4bgrp2rcd13ifvqc9g","pricing_plan_id":"cebpf4jnsgd1na2vs0mg"},{"bike_id":"624def88-3290-4b1b-8e34-827eb7187f9b","system_id":"levelo_inurba_marseille","lat":43.270649,"lon":5.422772,"is_reserved":false,"is_disabled":false,"rental_uris":{"android":"levelo://app?vid=624def88-3290-4b1b-8e34-827eb7187f9b","ios":"levelo://app?vid=624def88-3290-4b1b-8e34-827eb7187f9b"},"vehicle_type_id":"4","last_reported":1767687431,"current_range_meters":4800,"station_id":"ce4bhk92rcd13ifvqgb0","pricing_plan_id":"cebpf4jnsgd1na2vs0mg"},{"bike_id":"5f41e92e-fe81-43bb-9dea-d77536398744","system_id":"levelo_inurba_marseille","lat":43.240769,"lon":5.377517,"is_reserved":false,"is_disabled":false,"rental_uris":{"android":"levelo://app?vid=5f41e92e-fe81-43bb-9dea-d77536398744","ios":"levelo://app?vid=5f41e92e-fe81-43bb-9dea-d77536398744"},"vehicle_type_id":"4","last_reported":1767687431,"current_range_meters":4800,"station_id":"ce4bhnp2rcd13ifvqgvg","pricing_plan_id":"cebpf4jnsgd1na2vs0mg"},{"bike_id":"504c62db-8dc0-4d03-9c83-c1acce2e5fab","system_id":"levelo_inurba_marseille","lat":43.29147,"lon":5.37972,"is_reserved":false,"is_disabled":false,"rental_uris":{"android":"levelo://app?vid=504c62db-8dc0-4d03-9c83-c1acce2e5fab","ios":"levelo://app?vid=504c62db-8dc0-4d03-9c83-c1acce2e5fab"},"vehicle_type_id":"4","last_reported":1767687431,"current_range_meters":4800,"station_id":"","pricing_plan_id":"cebpf4jnsgd1na2vs0mg"},{"bike_id":"9bf9b64c-ea7e-4636-9645-29d6453bf380","system_id":"levelo_inurba_marseille","lat":43.31269,"lon":5.40165,"is_reserved":false,"is_disabled":false,"rental_uris":{"android":"levelo://app?vid=9bf9b64c-ea7e-4636-9645-29d6453bf380","ios":"levelo://app?vid=9bf9b64c-ea7e-4636-9645-29d6453bf380"},"vehicle_type_id":"4","last_reported":1767687431,"current_range_meters":4800,"station_id":"ce4bh092rcd13ifvqd30","pricing_plan_id":"cebpf4jnsgd1na2vs0mg"},{"bike_id":"2535426d-0146-4487-a806-947d60984375","system_id":"levelo_inurba_marseille","lat":43.25936,"lon":5.40902,"is_reserved":false,"is_disabled":false,"rental_uris":{"android":"levelo://app?vid=2535426d-0146-4487-a806-947d60984375","ios":"levelo://app?vid=2535426d-0146-4487-a806-947d60984375"},"vehicle_type_id":"4","last_reported":1767687431,"current_range_meters":4800,"station_id":"ce4bhm92rcd13ifvqglg","pricing_plan_id":"cebpf4jnsgd1na2vs0mg"},{"bike_id":"bb75d6fa-dacb-470c-ad2b-d2ba5a3de392","system_id":"levelo_inurba_marseille","lat":43.24069,"lon":5.37759,"is_reserved":false,"is_disabled":false,"rental_uris":{"android":"levelo://app?vid=bb75d6fa-dacb-470c-ad2b-d2ba5a3de392","ios":"levelo://app?vid=bb75d6fa-dacb-470c-ad2b-d2ba5a3de392"},"vehicle_type_id":"4","last_reported":1767687431,"current_range_meters":4800,"station_id":"ce4bhnp2rcd13ifvqgvg","pricing_plan_id":"cebpf4jnsgd1na2vs0mg"},{"bike_id":"4a914bdd-8eeb-4278-be90-15af1f37ab5a","system_id":"levelo_inurba_marseille","lat":43.29756,"lon":5.38196,"is_reserved":false,"is_disabled":false,"rental_uris":{"android":"levelo://app?vid=4a914bdd-8eeb-4278-be90-15af1f37ab5a","ios":"levelo://app?vid=4a914bdd-8eeb-4278-be90-15af1f37ab5a"},"vehicle_type_id":"4","last_reported":1767687431,"current_range_meters":5600,"station_id":"ce4bgip2rcd13ifvqbb0","pricing_plan_id":"cebpf4jnsgd1na2vs0mg"},{"bike_id":"49a70347-36ae-4442-a0c3-32c4ed4b4ff4","system_id":"levelo_inurba_marseille","lat":43.28856,"lon":5.42524,"is_reserved":false,"is_disabled":false,"rental_uris":{"android":"levelo://app?vid=49a70347-36ae-4442-a0c3-32c4ed4b4ff4","ios":"levelo://app?vid=49a70347-36ae-4442-a0c3-32c4ed4b4ff4"},"vehicle_type_id":"4","last_reported":1767687431,"current_range_meters":5600,"station_id":"st_d3b462108ojc7389ooeg","pricing_plan_id":"cebpf4jnsgd1na2vs0mg"},{"bike_id":"2ad11e8b-6525-4219-97fa-e942c570f9bd","system_id":"levelo_inurba_marseille","lat":43.27041,"lon":5.38317,"is_reserved":false,"is_disabled":false,"rental_uris":{"android":"levelo://app?vid=2ad11e8b-6525-4219-97fa-e942c570f9bd","ios":"levelo://app?vid=2ad11e8b-6525-4219-97fa-e942c570f9bd"},"vehicle_type_id":"4","last_reported":1767687431,"current_range_meters":5600,"station_id":"st_d3n2fo6cfp8s73cte1j0","pricing_plan_id":"cebpf4jnsgd1na2vs0mg"},{"bike_id":"e5080626-6fd3-465a-95fc-ffeeb81121ed","system_id":"levelo_inurba_marseille","lat":43.305293,"lon":5.367004,"is_reserved":false,"is_disabled":false,"rental_uris":{"android":"levelo://app?vid=e5080626-6fd3-465a-95fc-ffeeb81121ed","ios":"levelo://app?vid=e5080626-6fd3-465a-95fc-ffeeb81121ed"},"vehicle_type_id":"4","last_reported":1767687431,"current_range_meters":5600,"station_id":"ce4bgrp2rcd13ifvqc9g","pricing_plan_id":"cebpf4jnsgd1na2vs0mg"},{"bike_id":"dabf1915-fab5-496c-b5fe-9f24d11a0610","system_id":"levelo_inurba_marseille","lat":43.25864,"lon":5.39899,"is_reserved":false,"is_disabled":false,"rental_uris":{"android":"levelo://app?vid=dabf1915-fab5-496c-b5fe-9f24d11a0610","ios":"levelo://app?vid=dabf1915-fab5-496c-b5fe-9f24d11a0610"},"vehicle_type_id":"4","last_reported":1767687431,"current_range_meters":5600,"station_id":"ce4bhl92rcd13ifvqghg","pricing_plan_id":"cebpf4jnsgd1na2vs0mg"},{"bike_id":"9ddc0706-6968-43a3-a364-3991c1da5fdd","system_id":"levelo_inurba_marseille","lat":43.29169,"lon":5.37156,"is_reserved":false,"is_disabled":false,"rental_uris":{"android":"levelo://app?vid=9ddc0706-6968-43a3-a364-3991c1da5fdd","ios":"levelo://app?vid=9ddc0706-6968-43a3-a364-3991c1da5fdd"},"vehicle_type_id":"4","last_reported":1767687431,"current_range_meters":5600,"station_id":"ce4bha92rcd13ifvqeh0","pricing_plan_id":"cebpf4jnsgd1na2vs0mg"},{"bike_id":"9b6d4335-5c89-40cd-a57b-155467c3599f","system_id":"levelo_inurba_marseille","lat":43.28074,"lon":5.39662,"is_reserved":false,"is_disabled":false,"rental_uris":{"android":"levelo://app?vid=9b6d4335-5c89-40cd-a57b-155467c3599f","ios":"levelo://app?vid=9b6d4335-5c89-40cd-a57b-155467c3599f"},"vehicle_type_id":"4","last_reported":1767687431,"current_range_meters":5600,"station_id":"ce4bho12rcd13ifvqh2g","pricing_plan_id":"cebpf4jnsgd1na2vs0mg"},{"bike_id":"bf5aaa97-9258-436f-934d-edcef9bf7954","system_id":"levelo_inurba_marseille","lat":43.31684,"lon":5.4002,"is_reserved":false,"is_disabled":false,"rental_uris":{"android":"levelo://app?vid=bf5aaa97-9258-436f-934d-edcef9bf7954","ios":"levelo://app?vid=bf5aaa97-9258-436f-934d-edcef9bf7954"},"vehicle_type_id":"4","last_reported":1767687431,"current_range_meters":5600,"station_id":"","pricing_plan_id":"cebpf4jnsgd1na2vs0mg"},{"bike_id":"8674a0fb-2929-4fee-a4ac-adb3c958d8ee","system_id":"levelo_inurba_marseille","lat":43.29231,"lon":5.36052,"is_reserved":false,"is_disabled":false,"rental_uris":{"android":"levelo://app?vid=8674a0fb-2929-4fee-a4ac-adb3c958d8ee","ios":"levelo://app?vid=8674a0fb-2929-4fee-a4ac-adb3c958d8ee"},"vehicle_type_id":"4","last_reported":1767687431,"current_range_meters":5600,"station_id":"ce4bhbh2rcd13ifvqeqg","pricing_plan_id":"cebpf4jnsgd1na2vs0mg"},{"bike_id":"cfd96779-ac06-41e3-84f7-a5ca7fe9eaab","system_id":"levelo_inurba_marseille","lat":43.28488,"lon":5.48395,"is_reserved":false,"is_disabled":false,"rental_uris":{"android":"levelo://app?vid=cfd96779-ac06-41e3-84f7-a5ca7fe9eaab","ios":"levelo://app?vid=cfd96779-ac06-41e3-84f7-a5ca7fe9eaab"},"vehicle_type_id":"4","last_reported":1767687431,"current_range_meters":5600,"station_id":"","pricing_plan_id":"cebpf4jnsgd1na2vs0mg"},{"bike_id":"fde24df3-addb-4a7b-b0e7-f2e289c22e5d","system_id":"levelo_inurba_marseille","lat":43.31035,"lon":5.39373,"is_reserved":false,"is_disabled":false,"rental_uris":{"android":"levelo://app?vid=fde24df3-addb-4a7b-b0e7-f2e289c22e5d","ios":"levelo://app?vid=fde24df3-addb-4a7b-b0e7-f2e289c22e5d"},"vehicle_type_id":"4","last_reported":1767687431,"current_range_meters":5600,"station_id":"","pricing_plan_id":"cebpf4jnsgd1na2vs0mg"},{"bike_id":"c99bda4f-7f78-4750-8802-6438d5a7ff11","system_id":"levelo_inurba_marseille","lat":43.3136,"lon":5.36709,"is_reserved":false,"is_disabled":false,"rental_uris":{"android":"levelo://app?vid=c99bda4f-7f78-4750-8802-6438d5a7ff11","ios":"levelo://app?vid=c99bda4f-7f78-4750-8802-6438d5a7ff11"},"vehicle_type_id":"4","last_reported":1767687431,"current_range_meters":5600,"station_id":"ce4bgr92rcd13ifvqc6g","pricing_plan_id":"cebpf4jnsgd1na2vs0mg"},{"bike_id":"88cc61a2-2d18-4a75-a097-88cb9cbaaddb","system_id":"levelo_inurba_marseille","lat":43.32114,"lon":5.36788,"is_reserved":false,"is_disabled":false,"rental_uris":{"android":"levelo://app?vid=88cc61a2-2d18-4a75-a097-88cb9cbaaddb","ios":"levelo://app?vid=88cc61a2-2d18-4a75-a097-88cb9cbaaddb"},"vehicle_type_id":"4","last_reported":1767687431,"current_range_meters":5600,"station_id":"ce4bhrh2rcd13ifvqhug","pricing_plan_id":"cebpf4jnsgd1na2vs0mg"},{"bike_id":"531ba190-2d4e-4722-99ab-7185252e6433","system_id":"levelo_inurba_marseille","lat":43.22575,"lon":5.41608,"is_reserved":false,"is_disabled":false,"rental_uris":{"android":"levelo://app?vid=531ba190-2d4e-4722-99ab-7185252e6433","ios":"levelo://app?vid=531ba190-2d4e-4722-99ab-7185252e6433"},"vehicle_type_id":"4","last_reported":1767687431,"current_range_meters":5600,"station_id":"st_d2o4gvlbi1j2169b742g","pricing_plan_id":"cebpf4jnsgd1na2vs0mg"},{"bike_id":"78392da4-abaa-45b9-9ade-2b7295a9c51a","system_id":"levelo_inurba_marseille","lat":43.32489,"lon":5.36572,"is_reserved":false,"is_disabled":false,"rental_uris":{"android":"levelo://app?vid=78392da4-abaa-45b9-9ade-2b7295a9c51a","ios":"levelo://app?vid=78392da4-abaa-45b9-9ade-2b7295a9c51a"},"vehicle_type_id":"4","last_reported":1767687431,"current_range_meters":5600,"station_id":"ce4bhs12rcd13ifvqhvg","pricing_plan_id":"cebpf4jnsgd1na2vs0mg"},{"bike_id":"727fad67-7dc8-4a63-92b4-4d518fec4061","system_id":"levelo_inurba_marseille","lat":43.25871,"lon":5.39891,"is_reserved":false,"is_disabled":false,"rental_uris":{"android":"levelo://app?vid=727fad67-7dc8-4a63-92b4-4d518fec4061","ios":"levelo://app?vid=727fad67-7dc8-4a63-92b4-4d518fec4061"},"vehicle_type_id":"4","last_reported":1767687431,"current_range_meters":6000,"station_id":"ce4bhl92rcd13ifvqghg","pricing_plan_id":"cebpf4jnsgd1na2vs0mg"},{"bike_id":"093f3379-cf7d-4260-b2a9-7ae528f92dcb","system_id":"levelo_inurba_marseille","lat":43.29606,"lon":5.37729,"is_reserved":false,"is_disabled":false,"rental_uris":{"android":"levelo://app?vid=093f3379-cf7d-4260-b2a9-7ae528f92dcb","ios":"levelo://app?vid=093f3379-cf7d-4260-b2a9-7ae528f92dcb"},"vehicle_type_id":"4","last_reported":1767687431,"current_range_meters":6000,"station_id":"ce4bgi92rcd13ifvqb90","pricing_plan_id":"cebpf4jnsgd1na2vs0mg"},{"bike_id":"f97c9d69-08f3-4e6e-837a-e318a0cb9742","system_id":"levelo_inurba_marseille","lat":43.29297,"lon":5.36828,"is_reserved":false,"is_disabled":false,"rental_uris":{"android":"levelo://app?vid=f97c9d69-08f3-4e6e-837a-e318a0cb9742","ios":"levelo://app?vid=f97c9d69-08f3-4e6e-837a-e318a0cb9742"},"vehicle_type_id":"4","last_reported":1767687431,"current_range_meters":6000,"station_id":"ce4bhbp2rcd13ifvqesg","pricing_plan_id":"cebpf4jnsgd1na2vs0mg"},{"bike_id":"6d144e18-c317-45d2-a70f-5ce6eec5adda","system_id":"levelo_inurba_marseille","lat":43.267021,"lon":5.402156,"is_reserved":false,"is_disabled":false,"rental_uris":{"android":"levelo://app?vid=6d144e18-c317-45d2-a70f-5ce6eec5adda","ios":"levelo://app?vid=6d144e18-c317-45d2-a70f-5ce6eec5adda"},"vehicle_type_id":"4","last_reported":1767687431,"current_range_meters":6000,"station_id":"","pricing_plan_id":"cebpf4jnsgd1na2vs0mg"},{"bike_id":"19ae9f94-2604-4ea1-9b89-2cfef13f757c","system_id":"levelo_inurba_marseille","lat":43.25341,"lon":5.42152,"is_reserved":false,"is_disabled":false,"rental_uris":{"android":"levelo://app?vid=19ae9f94-2604-4ea1-9b89-2cfef13f757c","ios":"levelo://app?vid=19ae9f94-2604-4ea1-9b89-2cfef13f757c"},"vehicle_type_id":"4","last_reported":1767687431,"current_range_meters":6000,"station_id":"st_d2m65c5bi1j21697t3ng","pricing_plan_id":"cebpf4jnsgd1na2vs0mg"},{"bike_id":"39bf0acd-4f70-47d3-a144-ba9f5f687ddd","system_id":"levelo_inurba_marseille","lat":43.2553,"lon":5.37648,"is_reserved":false,"is_disabled":false,"rental_uris":{"android":"levelo://app?vid=39bf0acd-4f70-47d3-a144-ba9f5f687ddd","ios":"levelo://app?vid=39bf0acd-4f70-47d3-a144-ba9f5f687ddd"},"vehicle_type_id":"4","last_reported":1767687431,"current_range_meters":6000,"station_id":"ce4bhh12rcd13ifvqff0","pricing_plan_id":"cebpf4jnsgd1na2vs0mg"},{"bike_id":"e3a366e7-432a-4c86-8fda-c24791fb1ce5","system_id":"levelo_inurba_marseille","lat":43.2977,"lon":5.3775,"is_reserved":false,"is_disabled":false,"rental_uris":{"android":"levelo://app?vid=e3a366e7-432a-4c86-8fda-c24791fb1ce5","ios":"levelo://app?vid=e3a366e7-432a-4c86-8fda-c24791fb1ce5"},"vehicle_type_id":"4","last_reported":1767687431,"current_range_meters":6000,"station_id":"","pricing_plan_id":"cebpf4jnsgd1na2vs0mg"},{"bike_id":"8299be8b-6e8b-4ca4-ad90-3349d456df65","system_id":"levelo_inurba_marseille","lat":43.27185,"lon":5.40962,"is_reserved":false,"is_disabled":true,"rental_uris":{"android":"levelo://app?vid=8299be8b-6e8b-4ca4-ad90-3349d456df65","ios":"levelo://app?vid=8299be8b-6e8b-4ca4-ad90-3349d456df65"},"vehicle_type_id":"4","last_reported":1767687431,"current_range_meters":6000,"station_id":"ce4bhl12rcd13ifvqgf0","pricing_plan_id":"cebpf4jnsgd1na2vs0mg"},{"bike_id":"0e56497d-2fdb-4797-b5b0-2fbc698bc20a","system_id":"levelo_inurba_marseille","lat":43.293735,"lon":5.378661,"is_reserved":false,"is_disabled":false,"rental_uris":{"android":"levelo://app?vid=0e56497d-2fdb-4797-b5b0-2fbc698bc20a","ios":"levelo://app?vid=0e56497d-2fdb-4797-b5b0-2fbc698bc20a"},"vehicle_type_id":"4","last_reported":1767687431,"current_range_meters":6000,"station_id":"ce4bgjh2rcd13ifvqbf0","pricing_plan_id":"cebpf4jnsgd1na2vs0mg"},{"bike_id":"6978fec3-7553-4c88-b8a0-53d7a29ef142","system_id":"levelo_inurba_marseille","lat":43.26291,"lon":5.39783,"is_reserved":false,"is_disabled":false,"rental_uris":{"android":"levelo://app?vid=6978fec3-7553-4c88-b8a0-53d7a29ef142","ios":"levelo://app?vid=6978fec3-7553-4c88-b8a0-53d7a29ef142"},"vehicle_type_id":"4","last_reported":1767687431,"current_range_meters":6000,"station_id":"","pricing_plan_id":"cebpf4jnsgd1na2vs0mg"},{"bike_id":"e8d091b9-d833-4b38-9e34-4371056214ab","system_id":"levelo_inurba_marseille","lat":43.32117,"lon":5.36778,"is_reserved":false,"is_disabled":false,"rental_uris":{"android":"levelo://app?vid=e8d091b9-d833-4b38-9e34-4371056214ab","ios":"levelo://app?vid=e8d091b9-d833-4b38-9e34-4371056214ab"},"vehicle_type_id":"4","last_reported":1767687431,"current_range_meters":6000,"station_id":"ce4bhrh2rcd13ifvqhug","pricing_plan_id":"cebpf4jnsgd1na2vs0mg"},{"bike_id":"bd370c67-7ebd-4b98-b04e-decd496cefe6","system_id":"levelo_inurba_marseille","lat":43.30118,"lon":5.39076,"is_reserved":false,"is_disabled":true,"rental_uris":{"android":"levelo://app?vid=bd370c67-7ebd-4b98-b04e-decd496cefe6","ios":"levelo://app?vid=bd370c67-7ebd-4b98-b04e-decd496cefe6"},"vehicle_type_id":"4","last_reported":1767687431,"current_range_meters":6400,"station_id":"ce4bh192rcd13ifvqdb0","pricing_plan_id":"cebpf4jnsgd1na2vs0mg"},{"bike_id":"8c1916f3-9874-4eb0-8987-deefc3073e14","system_id":"levelo_inurba_marseille","lat":43.29096,"lon":5.38146,"is_reserved":false,"is_disabled":false,"rental_uris":{"android":"levelo://app?vid=8c1916f3-9874-4eb0-8987-deefc3073e14","ios":"levelo://app?vid=8c1916f3-9874-4eb0-8987-deefc3073e14"},"vehicle_type_id":"4","last_reported":1767687431,"current_range_meters":6400,"station_id":"ce4bh512rcd13ifvqe2g","pricing_plan_id":"cebpf4jnsgd1na2vs0mg"},{"bike_id":"ece91064-8675-490a-b853-1cfa2d016560","system_id":"levelo_inurba_marseille","lat":43.23968,"lon":5.36614,"is_reserved":false,"is_disabled":false,"rental_uris":{"android":"levelo://app?vid=ece91064-8675-490a-b853-1cfa2d016560","ios":"levelo://app?vid=ece91064-8675-490a-b853-1cfa2d016560"},"vehicle_type_id":"4","last_reported":1767687431,"current_range_meters":6400,"station_id":"ce4bhi12rcd13ifvqfp0","pricing_plan_id":"cebpf4jnsgd1na2vs0mg"},{"bike_id":"1e8f5205-973a-43e9-90dc-afde1e68dc83","system_id":"levelo_inurba_marseille","lat":43.31058,"lon":5.40104,"is_reserved":false,"is_disabled":false,"rental_uris":{"android":"levelo://app?vid=1e8f5205-973a-43e9-90dc-afde1e68dc83","ios":"levelo://app?vid=1e8f5205-973a-43e9-90dc-afde1e68dc83"},"vehicle_type_id":"4","last_reported":1767687431,"current_range_meters":6400,"station_id":"","pricing_plan_id":"cebpf4jnsgd1na2vs0mg"},{"bike_id":"d479a5e7-3cbe-4ebf-a3e1-182f6667dcef","system_id":"levelo_inurba_marseille","lat":43.24393,"lon":5.37071,"is_reserved":false,"is_disabled":false,"rental_uris":{"android":"levelo://app?vid=d479a5e7-3cbe-4ebf-a3e1-182f6667dcef","ios":"levelo://app?vid=d479a5e7-3cbe-4ebf-a3e1-182f6667dcef"},"vehicle_type_id":"4","last_reported":1767687431,"current_range_meters":6400,"station_id":"ce4bhhh2rcd13ifvqfk0","pricing_plan_id":"cebpf4jnsgd1na2vs0mg"},{"bike_id":"a414d67b-9afa-4a87-9fac-f67cdff12698","system_id":"levelo_inurba_marseille","lat":43.29451,"lon":5.37934,"is_reserved":false,"is_disabled":true,"rental_uris":{"android":"levelo://app?vid=a414d67b-9afa-4a87-9fac-f67cdff12698","ios":"levelo://app?vid=a414d67b-9afa-4a87-9fac-f67cdff12698"},"vehicle_type_id":"4","last_reported":1767687431,"current_range_meters":6400,"station_id":"","pricing_plan_id":"cebpf4jnsgd1na2vs0mg"},{"bike_id":"d247acba-7627-49c1-a3cc-c45ac2fb76ea","system_id":"levelo_inurba_marseille","lat":43.30521,"lon":5.36542,"is_reserved":false,"is_disabled":false,"rental_uris":{"android":"levelo://app?vid=d247acba-7627-49c1-a3cc-c45ac2fb76ea","ios":"levelo://app?vid=d247acba-7627-49c1-a3cc-c45ac2fb76ea"},"vehicle_type_id":"4","last_reported":1767687431,"current_range_meters":6400,"station_id":"ce4bgs12rcd13ifvqcag","pricing_plan_id":"cebpf4jnsgd1na2vs0mg"},{"bike_id":"00da6500-68b4-4b45-be1f-48d675212bd1","system_id":"levelo_inurba_marseille","lat":43.30538,"lon":5.36562,"is_reserved":false,"is_disabled":false,"rental_uris":{"android":"levelo://app?vid=00da6500-68b4-4b45-be1f-48d675212bd1","ios":"levelo://app?vid=00da6500-68b4-4b45-be1f-48d675212bd1"},"vehicle_type_id":"4","last_reported":1767687431,"current_range_meters":6400,"station_id":"ce4bgs12rcd13ifvqcag","pricing_plan_id":"cebpf4jnsgd1na2vs0mg"},{"bike_id":"a545db9a-ece3-48ee-9e4a-7fb8769ddb54","system_id":"levelo_inurba_marseille","lat":43.25936,"lon":5.40907,"is_reserved":false,"is_disabled":false,"rental_uris":{"android":"levelo://app?vid=a545db9a-ece3-48ee-9e4a-7fb8769ddb54","ios":"levelo://app?vid=a545db9a-ece3-48ee-9e4a-7fb8769ddb54"},"vehicle_type_id":"4","last_reported":1767687431,"current_range_meters":6400,"station_id":"ce4bhm92rcd13ifvqglg","pricing_plan_id":"cebpf4jnsgd1na2vs0mg"},{"bike_id":"1ae92490-659a-4b31-9282-3be4a846553c","system_id":"levelo_inurba_marseille","lat":43.316958,"lon":5.398537,"is_reserved":false,"is_disabled":false,"rental_uris":{"android":"levelo://app?vid=1ae92490-659a-4b31-9282-3be4a846553c","ios":"levelo://app?vid=1ae92490-659a-4b31-9282-3be4a846553c"},"vehicle_type_id":"4","last_reported":1767687431,"current_range_meters":6400,"station_id":"","pricing_plan_id":"cebpf4jnsgd1na2vs0mg"},{"bike_id":"c1694b41-e18e-46a6-ad0f-1cad09925867","system_id":"levelo_inurba_marseille","lat":43.28865,"lon":5.42508,"is_reserved":false,"is_disabled":false,"rental_uris":{"android":"levelo://app?vid=c1694b41-e18e-46a6-ad0f-1cad09925867","ios":"levelo://app?vid=c1694b41-e18e-46a6-ad0f-1cad09925867"},"vehicle_type_id":"4","last_reported":1767687431,"current_range_meters":6400,"station_id":"st_d3b462108ojc7389ooeg","pricing_plan_id":"cebpf4jnsgd1na2vs0mg"},{"bike_id":"aaf8f526-d023-4b38-bf56-10367dc9309b","system_id":"levelo_inurba_marseille","lat":43.27981,"lon":5.41657,"is_reserved":false,"is_disabled":false,"rental_uris":{"android":"levelo://app?vid=aaf8f526-d023-4b38-bf56-10367dc9309b","ios":"levelo://app?vid=aaf8f526-d023-4b38-bf56-10367dc9309b"},"vehicle_type_id":"4","last_reported":1767687431,"current_range_meters":6400,"station_id":"ce4bho12rcd13ifvqh1g","pricing_plan_id":"cebpf4jnsgd1na2vs0mg"},{"bike_id":"139e13a1-e72b-4a5d-ab11-5f421c44da57","system_id":"levelo_inurba_marseille","lat":43.30381,"lon":5.42544,"is_reserved":false,"is_disabled":false,"rental_uris":{"android":"levelo://app?vid=139e13a1-e72b-4a5d-ab11-5f421c44da57","ios":"levelo://app?vid=139e13a1-e72b-4a5d-ab11-5f421c44da57"},"vehicle_type_id":"4","last_reported":1767687431,"current_range_meters":6400,"station_id":"","pricing_plan_id":"cebpf4jnsgd1na2vs0mg"},{"bike_id":"6f46e1b4-663e-4c43-9cc4-4c8a983f164f","system_id":"levelo_inurba_marseille","lat":43.23165,"lon":5.43705,"is_reserved":false,"is_disabled":false,"rental_uris":{"android":"levelo://app?vid=6f46e1b4-663e-4c43-9cc4-4c8a983f164f","ios":"levelo://app?vid=6f46e1b4-663e-4c43-9cc4-4c8a983f164f"},"vehicle_type_id":"4","last_reported":1767687431,"current_range_meters":6400,"station_id":"ce4bhmp2rcd13ifvqgog","pricing_plan_id":"cebpf4jnsgd1na2vs0mg"},{"bike_id":"aff7ede2-d3c6-4426-827e-a4ce14157f34","system_id":"levelo_inurba_marseille","lat":43.30763,"lon":5.3815,"is_reserved":false,"is_disabled":false,"rental_uris":{"android":"levelo://app?vid=aff7ede2-d3c6-4426-827e-a4ce14157f34","ios":"levelo://app?vid=aff7ede2-d3c6-4426-827e-a4ce14157f34"},"vehicle_type_id":"4","last_reported":1767687431,"current_range_meters":6400,"station_id":"ce4bgt12rcd13ifvqce0","pricing_plan_id":"cebpf4jnsgd1na2vs0mg"},{"bike_id":"7c66cd5b-1ea7-4bc0-8234-30b50d6f8f8b","system_id":"levelo_inurba_marseille","lat":43.33153,"lon":5.37686,"is_reserved":false,"is_disabled":false,"rental_uris":{"android":"levelo://app?vid=7c66cd5b-1ea7-4bc0-8234-30b50d6f8f8b","ios":"levelo://app?vid=7c66cd5b-1ea7-4bc0-8234-30b50d6f8f8b"},"vehicle_type_id":"4","last_reported":1767687431,"current_range_meters":6400,"station_id":"st_d46cu089ee8s73dldbu0","pricing_plan_id":"cebpf4jnsgd1na2vs0mg"},{"bike_id":"28abf1e2-a38c-4481-b948-880e95850eb2","system_id":"levelo_inurba_marseille","lat":43.30541,"lon":5.36688,"is_reserved":false,"is_disabled":false,"rental_uris":{"android":"levelo://app?vid=28abf1e2-a38c-4481-b948-880e95850eb2","ios":"levelo://app?vid=28abf1e2-a38c-4481-b948-880e95850eb2"},"vehicle_type_id":"4","last_reported":1767687431,"current_range_meters":6400,"station_id":"ce4bgrp2rcd13ifvqc9g","pricing_plan_id":"cebpf4jnsgd1na2vs0mg"},{"bike_id":"8888b60a-8078-401c-9213-eda80077f961","system_id":"levelo_inurba_marseille","lat":43.28615,"lon":5.35125,"is_reserved":false,"is_disabled":false,"rental_uris":{"android":"levelo://app?vid=8888b60a-8078-401c-9213-eda80077f961","ios":"levelo://app?vid=8888b60a-8078-401c-9213-eda80077f961"},"vehicle_type_id":"4","last_reported":1767687431,"current_range_meters":6400,"station_id":"ce4bhch2rcd13ifvqeug","pricing_plan_id":"cebpf4jnsgd1na2vs0mg"},{"bike_id":"28fc6bcc-e465-48e9-ad1d-810f9d62680e","system_id":"levelo_inurba_marseille","lat":43.30297,"lon":5.36901,"is_reserved":false,"is_disabled":true,"rental_uris":{"android":"levelo://app?vid=28fc6bcc-e465-48e9-ad1d-810f9d62680e","ios":"levelo://app?vid=28fc6bcc-e465-48e9-ad1d-810f9d62680e"},"vehicle_type_id":"4","last_reported":1767687431,"current_range_meters":6400,"station_id":"ce4bgqh2rcd13ifvqc5g","pricing_plan_id":"cebpf4jnsgd1na2vs0mg"},{"bike_id":"e95ce2d0-07e6-408c-94e5-1989f12b6691","system_id":"levelo_inurba_marseille","lat":43.24394,"lon":5.37062,"is_reserved":false,"is_disabled":false,"rental_uris":{"android":"levelo://app?vid=e95ce2d0-07e6-408c-94e5-1989f12b6691","ios":"levelo://app?vid=e95ce2d0-07e6-408c-94e5-1989f12b6691"},"vehicle_type_id":"4","last_reported":1767687431,"current_range_meters":6400,"station_id":"ce4bhhh2rcd13ifvqfk0","pricing_plan_id":"cebpf4jnsgd1na2vs0mg"},{"bike_id":"08597d3b-78bf-4d1d-84e3-67cebc91408d","system_id":"levelo_inurba_marseille","lat":43.25582,"lon":5.38234,"is_reserved":false,"is_disabled":false,"rental_uris":{"android":"levelo://app?vid=08597d3b-78bf-4d1d-84e3-67cebc91408d","ios":"levelo://app?vid=08597d3b-78bf-4d1d-84e3-67cebc91408d"},"vehicle_type_id":"4","last_reported":1767687431,"current_range_meters":6400,"station_id":"ce4bhih2rcd13ifvqfs0","pricing_plan_id":"cebpf4jnsgd1na2vs0mg"},{"bike_id":"514049c7-80bf-454e-bcb3-4b719ea330d7","system_id":"levelo_inurba_marseille","lat":43.24955,"lon":5.40489,"is_reserved":false,"is_disabled":false,"rental_uris":{"android":"levelo://app?vid=514049c7-80bf-454e-bcb3-4b719ea330d7","ios":"levelo://app?vid=514049c7-80bf-454e-bcb3-4b719ea330d7"},"vehicle_type_id":"4","last_reported":1767687431,"current_range_meters":6400,"station_id":"st_d2ngiaodas8pm72gd1h0","pricing_plan_id":"cebpf4jnsgd1na2vs0mg"},{"bike_id":"00ebedf9-0c96-49ce-bb80-7f39d448d3e4","system_id":"levelo_inurba_marseille","lat":43.29196,"lon":5.35781,"is_reserved":false,"is_disabled":false,"rental_uris":{"android":"levelo://app?vid=00ebedf9-0c96-49ce-bb80-7f39d448d3e4","ios":"levelo://app?vid=00ebedf9-0c96-49ce-bb80-7f39d448d3e4"},"vehicle_type_id":"4","last_reported":1767687431,"current_range_meters":6400,"station_id":"ce4bhb12rcd13ifvqel0","pricing_plan_id":"cebpf4jnsgd1na2vs0mg"},{"bike_id":"d63adab8-fe33-47d0-bef7-72b9f680ef30","system_id":"levelo_inurba_marseille","lat":43.28863,"lon":5.42513,"is_reserved":false,"is_disabled":false,"rental_uris":{"android":"levelo://app?vid=d63adab8-fe33-47d0-bef7-72b9f680ef30","ios":"levelo://app?vid=d63adab8-fe33-47d0-bef7-72b9f680ef30"},"vehicle_type_id":"4","last_reported":1767687431,"current_range_meters":6400,"station_id":"st_d3b462108ojc7389ooeg","pricing_plan_id":"cebpf4jnsgd1na2vs0mg"},{"bike_id":"da033954-77a4-4a42-af93-ddd0b90806cb","system_id":"levelo_inurba_marseille","lat":43.31289,"lon":5.37365,"is_reserved":false,"is_disabled":false,"rental_uris":{"android":"levelo://app?vid=da033954-77a4-4a42-af93-ddd0b90806cb","ios":"levelo://app?vid=da033954-77a4-4a42-af93-ddd0b90806cb"},"vehicle_type_id":"4","last_reported":1767687431,"current_range_meters":6800,"station_id":"","pricing_plan_id":"cebpf4jnsgd1na2vs0mg"},{"bike_id":"b54e5aa3-f80c-415f-8398-f57ed95bfed2","system_id":"levelo_inurba_marseille","lat":43.22554,"lon":5.41638,"is_reserved":false,"is_disabled":false,"rental_uris":{"android":"levelo://app?vid=b54e5aa3-f80c-415f-8398-f57ed95bfed2","ios":"levelo://app?vid=b54e5aa3-f80c-415f-8398-f57ed95bfed2"},"vehicle_type_id":"4","last_reported":1767687431,"current_range_meters":6800,"station_id":"st_d2o4gvlbi1j2169b742g","pricing_plan_id":"cebpf4jnsgd1na2vs0mg"},{"bike_id":"f195a72e-e4f7-4129-808a-cab5b6257fad","system_id":"levelo_inurba_marseille","lat":43.21195,"lon":5.35072,"is_reserved":false,"is_disabled":false,"rental_uris":{"android":"levelo://app?vid=f195a72e-e4f7-4129-808a-cab5b6257fad","ios":"levelo://app?vid=f195a72e-e4f7-4129-808a-cab5b6257fad"},"vehicle_type_id":"4","last_reported":1767687431,"current_range_meters":6800,"station_id":"st_cvj6sg6p6f1abm77japg","pricing_plan_id":"cebpf4jnsgd1na2vs0mg"},{"bike_id":"1a6e1c7c-9ed2-4166-8162-ade6bcac84e8","system_id":"levelo_inurba_marseille","lat":43.23963,"lon":5.36613,"is_reserved":false,"is_disabled":false,"rental_uris":{"android":"levelo://app?vid=1a6e1c7c-9ed2-4166-8162-ade6bcac84e8","ios":"levelo://app?vid=1a6e1c7c-9ed2-4166-8162-ade6bcac84e8"},"vehicle_type_id":"4","last_reported":1767687431,"current_range_meters":6800,"station_id":"ce4bhi12rcd13ifvqfp0","pricing_plan_id":"cebpf4jnsgd1na2vs0mg"},{"bike_id":"e99ae78e-f27e-4d5f-a939-9d17f1de8fcf","system_id":"levelo_inurba_marseille","lat":43.30565,"lon":5.36565,"is_reserved":false,"is_disabled":false,"rental_uris":{"android":"levelo://app?vid=e99ae78e-f27e-4d5f-a939-9d17f1de8fcf","ios":"levelo://app?vid=e99ae78e-f27e-4d5f-a939-9d17f1de8fcf"},"vehicle_type_id":"4","last_reported":1767687431,"current_range_meters":6800,"station_id":"ce4bgs12rcd13ifvqcag","pricing_plan_id":"cebpf4jnsgd1na2vs0mg"},{"bike_id":"86472776-251b-4fb5-b478-7af760895798","system_id":"levelo_inurba_marseille","lat":43.2621,"lon":5.38835,"is_reserved":false,"is_disabled":false,"rental_uris":{"android":"levelo://app?vid=86472776-251b-4fb5-b478-7af760895798","ios":"levelo://app?vid=86472776-251b-4fb5-b478-7af760895798"},"vehicle_type_id":"4","last_reported":1767687431,"current_range_meters":6800,"station_id":"","pricing_plan_id":"cebpf4jnsgd1na2vs0mg"},{"bike_id":"3b2b9e81-3564-41a6-a499-dbc2efadac9e","system_id":"levelo_inurba_marseille","lat":43.26685,"lon":5.38264,"is_reserved":false,"is_disabled":false,"rental_uris":{"android":"levelo://app?vid=3b2b9e81-3564-41a6-a499-dbc2efadac9e","ios":"levelo://app?vid=3b2b9e81-3564-41a6-a499-dbc2efadac9e"},"vehicle_type_id":"4","last_reported":1767687431,"current_range_meters":6800,"station_id":"ce4bhg92rcd13ifvqf90","pricing_plan_id":"cebpf4jnsgd1na2vs0mg"},{"bike_id":"5aef9296-94c1-47d3-ae7b-7aa8773cfcd7","system_id":"levelo_inurba_marseille","lat":43.30912,"lon":5.3685,"is_reserved":false,"is_disabled":false,"rental_uris":{"android":"levelo://app?vid=5aef9296-94c1-47d3-ae7b-7aa8773cfcd7","ios":"levelo://app?vid=5aef9296-94c1-47d3-ae7b-7aa8773cfcd7"},"vehicle_type_id":"4","last_reported":1767687431,"current_range_meters":6800,"station_id":"ce4bgn92rcd13ifvqbvg","pricing_plan_id":"cebpf4jnsgd1na2vs0mg"},{"bike_id":"09dd03c7-b8fd-46b8-99cd-062943175452","system_id":"levelo_inurba_marseille","lat":43.23181,"lon":5.35564,"is_reserved":false,"is_disabled":false,"rental_uris":{"android":"levelo://app?vid=09dd03c7-b8fd-46b8-99cd-062943175452","ios":"levelo://app?vid=09dd03c7-b8fd-46b8-99cd-062943175452"},"vehicle_type_id":"4","last_reported":1767687431,"current_range_meters":6800,"station_id":"ce4bhu92rcd13ifvqi70","pricing_plan_id":"cebpf4jnsgd1na2vs0mg"},{"bike_id":"88aa47b2-bb5d-4800-8044-fed54a9971a4","system_id":"levelo_inurba_marseille","lat":43.26226,"lon":5.40447,"is_reserved":false,"is_disabled":false,"rental_uris":{"android":"levelo://app?vid=88aa47b2-bb5d-4800-8044-fed54a9971a4","ios":"levelo://app?vid=88aa47b2-bb5d-4800-8044-fed54a9971a4"},"vehicle_type_id":"4","last_reported":1767687431,"current_range_meters":6800,"station_id":"ce4bhmh2rcd13ifvqgmg","pricing_plan_id":"cebpf4jnsgd1na2vs0mg"},{"bike_id":"150aba92-ff82-4e7d-aa4f-4d9583997907","system_id":"levelo_inurba_marseille","lat":43.22932,"lon":5.35369,"is_reserved":false,"is_disabled":false,"rental_uris":{"android":"levelo://app?vid=150aba92-ff82-4e7d-aa4f-4d9583997907","ios":"levelo://app?vid=150aba92-ff82-4e7d-aa4f-4d9583997907"},"vehicle_type_id":"4","last_reported":1767687431,"current_range_meters":6800,"station_id":"cpo3532slgdg3j2ikp40","pricing_plan_id":"cebpf4jnsgd1na2vs0mg"},{"bike_id":"9ffd8e4e-6671-4e68-b198-26c59cc5e3d1","system_id":"levelo_inurba_marseille","lat":43.32652,"lon":5.41944,"is_reserved":false,"is_disabled":false,"rental_uris":{"android":"levelo://app?vid=9ffd8e4e-6671-4e68-b198-26c59cc5e3d1","ios":"levelo://app?vid=9ffd8e4e-6671-4e68-b198-26c59cc5e3d1"},"vehicle_type_id":"4","last_reported":1767687431,"current_range_meters":6800,"station_id":"","pricing_plan_id":"cebpf4jnsgd1na2vs0mg"},{"bike_id":"e99dab34-17f6-423d-b33b-48ac939b33ed","system_id":"levelo_inurba_marseille","lat":43.24014,"lon":5.40724,"is_reserved":false,"is_disabled":false,"rental_uris":{"android":"levelo://app?vid=e99dab34-17f6-423d-b33b-48ac939b33ed","ios":"levelo://app?vid=e99dab34-17f6-423d-b33b-48ac939b33ed"},"vehicle_type_id":"4","last_reported":1767687431,"current_range_meters":6800,"station_id":"","pricing_plan_id":"cebpf4jnsgd1na2vs0mg"},{"bike_id":"61f49521-8b5c-4174-93f3-ac307392a905","system_id":"levelo_inurba_marseille","lat":43.31362,"lon":5.37166,"is_reserved":false,"is_disabled":false,"rental_uris":{"android":"levelo://app?vid=61f49521-8b5c-4174-93f3-ac307392a905","ios":"levelo://app?vid=61f49521-8b5c-4174-93f3-ac307392a905"},"vehicle_type_id":"4","last_reported":1767687431,"current_range_meters":6800,"station_id":"","pricing_plan_id":"cebpf4jnsgd1na2vs0mg"},{"bike_id":"c4c257cb-97c7-4dee-b839-3603d55854e5","system_id":"levelo_inurba_marseille","lat":43.27214,"lon":5.39181,"is_reserved":false,"is_disabled":false,"rental_uris":{"android":"levelo://app?vid=c4c257cb-97c7-4dee-b839-3603d55854e5","ios":"levelo://app?vid=c4c257cb-97c7-4dee-b839-3603d55854e5"},"vehicle_type_id":"4","last_reported":1767687431,"current_range_meters":6800,"station_id":"ce4bhhp2rcd13ifvqfm0","pricing_plan_id":"cebpf4jnsgd1na2vs0mg"},{"bike_id":"8e8f96ba-3647-4489-a148-0cc73c7e9567","system_id":"levelo_inurba_marseille","lat":43.27218,"lon":5.39183,"is_reserved":false,"is_disabled":false,"rental_uris":{"android":"levelo://app?vid=8e8f96ba-3647-4489-a148-0cc73c7e9567","ios":"levelo://app?vid=8e8f96ba-3647-4489-a148-0cc73c7e9567"},"vehicle_type_id":"4","last_reported":1767687431,"current_range_meters":6800,"station_id":"ce4bhhp2rcd13ifvqfm0","pricing_plan_id":"cebpf4jnsgd1na2vs0mg"},{"bike_id":"e684172b-ec09-41ca-b7fc-943b8d49c82b","system_id":"levelo_inurba_marseille","lat":43.26544,"lon":5.39019,"is_reserved":false,"is_disabled":false,"rental_uris":{"android":"levelo://app?vid=e684172b-ec09-41ca-b7fc-943b8d49c82b","ios":"levelo://app?vid=e684172b-ec09-41ca-b7fc-943b8d49c82b"},"vehicle_type_id":"4","last_reported":1767687431,"current_range_meters":6800,"station_id":"ce4bhe12rcd13ifvqf30","pricing_plan_id":"cebpf4jnsgd1na2vs0mg"},{"bike_id":"f952fba5-be3b-446a-8bed-a0a73c2e50f1","system_id":"levelo_inurba_marseille","lat":43.285733,"lon":5.394957,"is_reserved":false,"is_disabled":false,"rental_uris":{"android":"levelo://app?vid=f952fba5-be3b-446a-8bed-a0a73c2e50f1","ios":"levelo://app?vid=f952fba5-be3b-446a-8bed-a0a73c2e50f1"},"vehicle_type_id":"4","last_reported":1767687431,"current_range_meters":6800,"station_id":"ce4bh292rcd13ifvqdg0","pricing_plan_id":"cebpf4jnsgd1na2vs0mg"},{"bike_id":"5ea8c758-8d88-4a0d-8adf-3234df9934ae","system_id":"levelo_inurba_marseille","lat":43.29767,"lon":5.37762,"is_reserved":false,"is_disabled":false,"rental_uris":{"android":"levelo://app?vid=5ea8c758-8d88-4a0d-8adf-3234df9934ae","ios":"levelo://app?vid=5ea8c758-8d88-4a0d-8adf-3234df9934ae"},"vehicle_type_id":"4","last_reported":1767687431,"current_range_meters":6800,"station_id":"","pricing_plan_id":"cebpf4jnsgd1na2vs0mg"},{"bike_id":"a8cd7802-144d-4c11-af29-be2259acf14c","system_id":"levelo_inurba_marseille","lat":43.24378,"lon":5.37065,"is_reserved":false,"is_disabled":false,"rental_uris":{"android":"levelo://app?vid=a8cd7802-144d-4c11-af29-be2259acf14c","ios":"levelo://app?vid=a8cd7802-144d-4c11-af29-be2259acf14c"},"vehicle_type_id":"4","last_reported":1767687431,"current_range_meters":6800,"station_id":"","pricing_plan_id":"cebpf4jnsgd1na2vs0mg"},{"bike_id":"8f32ebde-2612-4d9c-ac77-de7287807fd3","system_id":"levelo_inurba_marseille","lat":43.23156,"lon":5.43715,"is_reserved":false,"is_disabled":false,"rental_uris":{"android":"levelo://app?vid=8f32ebde-2612-4d9c-ac77-de7287807fd3","ios":"levelo://app?vid=8f32ebde-2612-4d9c-ac77-de7287807fd3"},"vehicle_type_id":"4","last_reported":1767687431,"current_range_meters":6800,"station_id":"ce4bhmp2rcd13ifvqgog","pricing_plan_id":"cebpf4jnsgd1na2vs0mg"},{"bike_id":"2690cc6b-fb54-4480-b8a5-920c6af52697","system_id":"levelo_inurba_marseille","lat":43.30956,"lon":5.39028,"is_reserved":false,"is_disabled":false,"rental_uris":{"android":"levelo://app?vid=2690cc6b-fb54-4480-b8a5-920c6af52697","ios":"levelo://app?vid=2690cc6b-fb54-4480-b8a5-920c6af52697"},"vehicle_type_id":"4","last_reported":1767687431,"current_range_meters":6800,"station_id":"ce4bgup2rcd13ifvqco0","pricing_plan_id":"cebpf4jnsgd1na2vs0mg"},{"bike_id":"7271105f-d31b-4d5a-b7f7-d803b6ec4e45","system_id":"levelo_inurba_marseille","lat":43.24093,"lon":5.37728,"is_reserved":false,"is_disabled":false,"rental_uris":{"android":"levelo://app?vid=7271105f-d31b-4d5a-b7f7-d803b6ec4e45","ios":"levelo://app?vid=7271105f-d31b-4d5a-b7f7-d803b6ec4e45"},"vehicle_type_id":"4","last_reported":1767687431,"current_range_meters":6800,"station_id":"ce4bhnp2rcd13ifvqgvg","pricing_plan_id":"cebpf4jnsgd1na2vs0mg"},{"bike_id":"f6c65bf9-9b55-420c-ab59-94a8cddd9cc0","system_id":"levelo_inurba_marseille","lat":43.27497,"lon":5.42445,"is_reserved":false,"is_disabled":false,"rental_uris":{"android":"levelo://app?vid=f6c65bf9-9b55-420c-ab59-94a8cddd9cc0","ios":"levelo://app?vid=f6c65bf9-9b55-420c-ab59-94a8cddd9cc0"},"vehicle_type_id":"4","last_reported":1767687431,"current_range_meters":6800,"station_id":"ce4bhn92rcd13ifvqgrg","pricing_plan_id":"cebpf4jnsgd1na2vs0mg"},{"bike_id":"7691ecae-e3bc-4c1e-bb4e-7b24a1d8adc3","system_id":"levelo_inurba_marseille","lat":43.23966,"lon":5.36618,"is_reserved":false,"is_disabled":false,"rental_uris":{"android":"levelo://app?vid=7691ecae-e3bc-4c1e-bb4e-7b24a1d8adc3","ios":"levelo://app?vid=7691ecae-e3bc-4c1e-bb4e-7b24a1d8adc3"},"vehicle_type_id":"4","last_reported":1767687431,"current_range_meters":6800,"station_id":"ce4bhi12rcd13ifvqfp0","pricing_plan_id":"cebpf4jnsgd1na2vs0mg"},{"bike_id":"c2760ed3-510d-4daa-98bf-27ac0ccb56f3","system_id":"levelo_inurba_marseille","lat":43.26372,"lon":5.41081,"is_reserved":false,"is_disabled":false,"rental_uris":{"android":"levelo://app?vid=c2760ed3-510d-4daa-98bf-27ac0ccb56f3","ios":"levelo://app?vid=c2760ed3-510d-4daa-98bf-27ac0ccb56f3"},"vehicle_type_id":"4","last_reported":1767687431,"current_range_meters":6800,"station_id":"st_d4e5ca6na9uc73bfl5fg","pricing_plan_id":"cebpf4jnsgd1na2vs0mg"},{"bike_id":"8f968c9d-e057-45ea-898c-8595b6240a39","system_id":"levelo_inurba_marseille","lat":43.29749,"lon":5.37905,"is_reserved":false,"is_disabled":false,"rental_uris":{"android":"levelo://app?vid=8f968c9d-e057-45ea-898c-8595b6240a39","ios":"levelo://app?vid=8f968c9d-e057-45ea-898c-8595b6240a39"},"vehicle_type_id":"4","last_reported":1767687431,"current_range_meters":7200,"station_id":"","pricing_plan_id":"cebpf4jnsgd1na2vs0mg"},{"bike_id":"fc24e154-126f-487a-abd8-81f2874cd1b6","system_id":"levelo_inurba_marseille","lat":43.271828,"lon":5.409933,"is_reserved":false,"is_disabled":false,"rental_uris":{"android":"levelo://app?vid=fc24e154-126f-487a-abd8-81f2874cd1b6","ios":"levelo://app?vid=fc24e154-126f-487a-abd8-81f2874cd1b6"},"vehicle_type_id":"4","last_reported":1767687431,"current_range_meters":7200,"station_id":"ce4bhl12rcd13ifvqgf0","pricing_plan_id":"cebpf4jnsgd1na2vs0mg"},{"bike_id":"e867cfd9-2ba6-4f31-8058-f523db311fd5","system_id":"levelo_inurba_marseille","lat":43.27054,"lon":5.42291,"is_reserved":false,"is_disabled":false,"rental_uris":{"android":"levelo://app?vid=e867cfd9-2ba6-4f31-8058-f523db311fd5","ios":"levelo://app?vid=e867cfd9-2ba6-4f31-8058-f523db311fd5"},"vehicle_type_id":"4","last_reported":1767687431,"current_range_meters":7200,"station_id":"ce4bhk92rcd13ifvqgb0","pricing_plan_id":"cebpf4jnsgd1na2vs0mg"},{"bike_id":"58327590-a8e0-4c00-9f2e-f934f6672946","system_id":"levelo_inurba_marseille","lat":43.27838,"lon":5.39226,"is_reserved":false,"is_disabled":false,"rental_uris":{"android":"levelo://app?vid=58327590-a8e0-4c00-9f2e-f934f6672946","ios":"levelo://app?vid=58327590-a8e0-4c00-9f2e-f934f6672946"},"vehicle_type_id":"4","last_reported":1767687431,"current_range_meters":7200,"station_id":"ce4bhjp2rcd13ifvqga0","pricing_plan_id":"cebpf4jnsgd1na2vs0mg"},{"bike_id":"363d24ec-7f56-48ba-afb4-d6a61684329e","system_id":"levelo_inurba_marseille","lat":43.30494,"lon":5.41049,"is_reserved":false,"is_disabled":false,"rental_uris":{"android":"levelo://app?vid=363d24ec-7f56-48ba-afb4-d6a61684329e","ios":"levelo://app?vid=363d24ec-7f56-48ba-afb4-d6a61684329e"},"vehicle_type_id":"4","last_reported":1767687431,"current_range_meters":7200,"station_id":"","pricing_plan_id":"cebpf4jnsgd1na2vs0mg"},{"bike_id":"a2705467-58d0-47d8-8aee-544b6d032199","system_id":"levelo_inurba_marseille","lat":43.24459,"lon":5.42545,"is_reserved":false,"is_disabled":false,"rental_uris":{"android":"levelo://app?vid=a2705467-58d0-47d8-8aee-544b6d032199","ios":"levelo://app?vid=a2705467-58d0-47d8-8aee-544b6d032199"},"vehicle_type_id":"4","last_reported":1767687431,"current_range_meters":7200,"station_id":"st_d4a3vfp97mjs738cd8kg","pricing_plan_id":"cebpf4jnsgd1na2vs0mg"},{"bike_id":"0e1237f5-c526-48aa-8d6e-d4762d4905eb","system_id":"levelo_inurba_marseille","lat":43.288853,"lon":5.425247,"is_reserved":false,"is_disabled":false,"rental_uris":{"android":"levelo://app?vid=0e1237f5-c526-48aa-8d6e-d4762d4905eb","ios":"levelo://app?vid=0e1237f5-c526-48aa-8d6e-d4762d4905eb"},"vehicle_type_id":"4","last_reported":1767687431,"current_range_meters":7200,"station_id":"st_d3b462108ojc7389ooeg","pricing_plan_id":"cebpf4jnsgd1na2vs0mg"},{"bike_id":"9c1f964b-63f3-482b-b8aa-946aa8840ac2","system_id":"levelo_inurba_marseille","lat":43.246343,"lon":5.431363,"is_reserved":false,"is_disabled":false,"rental_uris":{"android":"levelo://app?vid=9c1f964b-63f3-482b-b8aa-946aa8840ac2","ios":"levelo://app?vid=9c1f964b-63f3-482b-b8aa-946aa8840ac2"},"vehicle_type_id":"4","last_reported":1767687431,"current_range_meters":7200,"station_id":"st_d2m6c4gdas8pm72e190g","pricing_plan_id":"cebpf4jnsgd1na2vs0mg"},{"bike_id":"355c1d25-ff0d-43f2-abc7-da11db998286","system_id":"levelo_inurba_marseille","lat":43.23191,"lon":5.35554,"is_reserved":false,"is_disabled":false,"rental_uris":{"android":"levelo://app?vid=355c1d25-ff0d-43f2-abc7-da11db998286","ios":"levelo://app?vid=355c1d25-ff0d-43f2-abc7-da11db998286"},"vehicle_type_id":"4","last_reported":1767687431,"current_range_meters":7200,"station_id":"ce4bhu92rcd13ifvqi70","pricing_plan_id":"cebpf4jnsgd1na2vs0mg"},{"bike_id":"8b39bcd5-266c-4d94-8669-ff1b1b981636","system_id":"levelo_inurba_marseille","lat":43.29278,"lon":5.36839,"is_reserved":false,"is_disabled":false,"rental_uris":{"android":"levelo://app?vid=8b39bcd5-266c-4d94-8669-ff1b1b981636","ios":"levelo://app?vid=8b39bcd5-266c-4d94-8669-ff1b1b981636"},"vehicle_type_id":"4","last_reported":1767687431,"current_range_meters":7200,"station_id":"ce4bhbp2rcd13ifvqesg","pricing_plan_id":"cebpf4jnsgd1na2vs0mg"},{"bike_id":"69b54c5e-99fd-4b4a-a8fa-07e156c09108","system_id":"levelo_inurba_marseille","lat":43.27944,"lon":5.41046,"is_reserved":false,"is_disabled":false,"rental_uris":{"android":"levelo://app?vid=69b54c5e-99fd-4b4a-a8fa-07e156c09108","ios":"levelo://app?vid=69b54c5e-99fd-4b4a-a8fa-07e156c09108"},"vehicle_type_id":"4","last_reported":1767687431,"current_range_meters":7200,"station_id":"ce4bhnp2rcd13ifvqh0g","pricing_plan_id":"cebpf4jnsgd1na2vs0mg"},{"bike_id":"b88a5f83-6d0e-4804-847b-4e7d71d010ca","system_id":"levelo_inurba_marseille","lat":43.26946,"lon":5.38632,"is_reserved":false,"is_disabled":false,"rental_uris":{"android":"levelo://app?vid=b88a5f83-6d0e-4804-847b-4e7d71d010ca","ios":"levelo://app?vid=b88a5f83-6d0e-4804-847b-4e7d71d010ca"},"vehicle_type_id":"4","last_reported":1767687431,"current_range_meters":7200,"station_id":"ce4bhh92rcd13ifvqfh0","pricing_plan_id":"cebpf4jnsgd1na2vs0mg"},{"bike_id":"2375141c-46f9-4ef6-890b-4fbb983a553c","system_id":"levelo_inurba_marseille","lat":43.29316,"lon":5.37163,"is_reserved":false,"is_disabled":false,"rental_uris":{"android":"levelo://app?vid=2375141c-46f9-4ef6-890b-4fbb983a553c","ios":"levelo://app?vid=2375141c-46f9-4ef6-890b-4fbb983a553c"},"vehicle_type_id":"4","last_reported":1767687431,"current_range_meters":7200,"station_id":"ce4bgh92rcd13ifvqb40","pricing_plan_id":"cebpf4jnsgd1na2vs0mg"},{"bike_id":"3644cd0f-608b-4f9d-b97f-3c7483afa80f","system_id":"levelo_inurba_marseille","lat":43.31498,"lon":5.37313,"is_reserved":false,"is_disabled":false,"rental_uris":{"android":"levelo://app?vid=3644cd0f-608b-4f9d-b97f-3c7483afa80f","ios":"levelo://app?vid=3644cd0f-608b-4f9d-b97f-3c7483afa80f"},"vehicle_type_id":"4","last_reported":1767687431,"current_range_meters":7200,"station_id":"ce4bgt12rcd13ifvqcd0","pricing_plan_id":"cebpf4jnsgd1na2vs0mg"},{"bike_id":"d279c8f1-2aca-445d-9302-00d4fa05021b","system_id":"levelo_inurba_marseille","lat":43.31651,"lon":5.37455,"is_reserved":false,"is_disabled":false,"rental_uris":{"android":"levelo://app?vid=d279c8f1-2aca-445d-9302-00d4fa05021b","ios":"levelo://app?vid=d279c8f1-2aca-445d-9302-00d4fa05021b"},"vehicle_type_id":"4","last_reported":1767687431,"current_range_meters":7200,"station_id":"","pricing_plan_id":"cebpf4jnsgd1na2vs0mg"},{"bike_id":"3d8062de-4bd0-49c7-86a6-7bf3b5df4845","system_id":"levelo_inurba_marseille","lat":43.28453,"lon":5.48414,"is_reserved":false,"is_disabled":false,"rental_uris":{"android":"levelo://app?vid=3d8062de-4bd0-49c7-86a6-7bf3b5df4845","ios":"levelo://app?vid=3d8062de-4bd0-49c7-86a6-7bf3b5df4845"},"vehicle_type_id":"4","last_reported":1767687431,"current_range_meters":7200,"station_id":"","pricing_plan_id":"cebpf4jnsgd1na2vs0mg"},{"bike_id":"c733d77a-aaa0-42b8-a369-d71b9f6d9f13","system_id":"levelo_inurba_marseille","lat":43.24811,"lon":5.37455,"is_reserved":false,"is_disabled":false,"rental_uris":{"android":"levelo://app?vid=c733d77a-aaa0-42b8-a369-d71b9f6d9f13","ios":"levelo://app?vid=c733d77a-aaa0-42b8-a369-d71b9f6d9f13"},"vehicle_type_id":"4","last_reported":1767687431,"current_range_meters":7200,"station_id":"ce4bhgh2rcd13ifvqfb0","pricing_plan_id":"cebpf4jnsgd1na2vs0mg"},{"bike_id":"139516a7-897f-4de4-a59b-d1b4c0b438d2","system_id":"levelo_inurba_marseille","lat":43.28536,"lon":5.44093,"is_reserved":false,"is_disabled":false,"rental_uris":{"android":"levelo://app?vid=139516a7-897f-4de4-a59b-d1b4c0b438d2","ios":"levelo://app?vid=139516a7-897f-4de4-a59b-d1b4c0b438d2"},"vehicle_type_id":"4","last_reported":1767687431,"current_range_meters":7200,"station_id":"st_d3j3df2ikq2c7380ej80","pricing_plan_id":"cebpf4jnsgd1na2vs0mg"},{"bike_id":"1c218eb0-2b05-4b78-aab7-5771270479a2","system_id":"levelo_inurba_marseille","lat":43.28538,"lon":5.44101,"is_reserved":false,"is_disabled":false,"rental_uris":{"android":"levelo://app?vid=1c218eb0-2b05-4b78-aab7-5771270479a2","ios":"levelo://app?vid=1c218eb0-2b05-4b78-aab7-5771270479a2"},"vehicle_type_id":"4","last_reported":1767687431,"current_range_meters":7200,"station_id":"st_d3j3df2ikq2c7380ej80","pricing_plan_id":"cebpf4jnsgd1na2vs0mg"},{"bike_id":"5d5497ef-b65a-4cae-8f60-cff9661679f2","system_id":"levelo_inurba_marseille","lat":43.28303,"lon":5.38925,"is_reserved":false,"is_disabled":false,"rental_uris":{"android":"levelo://app?vid=5d5497ef-b65a-4cae-8f60-cff9661679f2","ios":"levelo://app?vid=5d5497ef-b65a-4cae-8f60-cff9661679f2"},"vehicle_type_id":"4","last_reported":1767687431,"current_range_meters":7200,"station_id":"","pricing_plan_id":"cebpf4jnsgd1na2vs0mg"},{"bike_id":"ca62b965-aa44-45f4-8af6-6631050856ac","system_id":"levelo_inurba_marseille","lat":43.28934,"lon":5.36387,"is_reserved":false,"is_disabled":false,"rental_uris":{"android":"levelo://app?vid=ca62b965-aa44-45f4-8af6-6631050856ac","ios":"levelo://app?vid=ca62b965-aa44-45f4-8af6-6631050856ac"},"vehicle_type_id":"4","last_reported":1767687431,"current_range_meters":8000,"station_id":"ce4bhc92rcd13ifvqetg","pricing_plan_id":"cebpf4jnsgd1na2vs0mg"},{"bike_id":"7d1bee54-33ad-4802-ab25-4afd91239f21","system_id":"levelo_inurba_marseille","lat":43.325215,"lon":5.382825,"is_reserved":false,"is_disabled":false,"rental_uris":{"android":"levelo://app?vid=7d1bee54-33ad-4802-ab25-4afd91239f21","ios":"levelo://app?vid=7d1bee54-33ad-4802-ab25-4afd91239f21"},"vehicle_type_id":"4","last_reported":1767687431,"current_range_meters":8000,"station_id":"st_d4asgbiv49dc73anf9m0","pricing_plan_id":"cebpf4jnsgd1na2vs0mg"},{"bike_id":"4935536b-bd9a-4a04-acc0-8338e8db4fa7","system_id":"levelo_inurba_marseille","lat":43.2782,"lon":5.40722,"is_reserved":false,"is_disabled":false,"rental_uris":{"android":"levelo://app?vid=4935536b-bd9a-4a04-acc0-8338e8db4fa7","ios":"levelo://app?vid=4935536b-bd9a-4a04-acc0-8338e8db4fa7"},"vehicle_type_id":"4","last_reported":1767687431,"current_range_meters":8000,"station_id":"ce4bhnh2rcd13ifvqgtg","pricing_plan_id":"cebpf4jnsgd1na2vs0mg"},{"bike_id":"8c36c95e-44f9-4494-942c-e8a98d6f94b4","system_id":"levelo_inurba_marseille","lat":43.24622,"lon":5.4316,"is_reserved":false,"is_disabled":false,"rental_uris":{"android":"levelo://app?vid=8c36c95e-44f9-4494-942c-e8a98d6f94b4","ios":"levelo://app?vid=8c36c95e-44f9-4494-942c-e8a98d6f94b4"},"vehicle_type_id":"4","last_reported":1767687431,"current_range_meters":8000,"station_id":"st_d2m6c4gdas8pm72e190g","pricing_plan_id":"cebpf4jnsgd1na2vs0mg"},{"bike_id":"b3210e81-09d9-486e-b51e-83859801ecb9","system_id":"levelo_inurba_marseille","lat":43.24626,"lon":5.43139,"is_reserved":false,"is_disabled":false,"rental_uris":{"android":"levelo://app?vid=b3210e81-09d9-486e-b51e-83859801ecb9","ios":"levelo://app?vid=b3210e81-09d9-486e-b51e-83859801ecb9"},"vehicle_type_id":"4","last_reported":1767687431,"current_range_meters":8000,"station_id":"st_d2m6c4gdas8pm72e190g","pricing_plan_id":"cebpf4jnsgd1na2vs0mg"},{"bike_id":"00389c66-d10b-4f85-8b89-cd1629e9774d","system_id":"levelo_inurba_marseille","lat":43.31498,"lon":5.38633,"is_reserved":false,"is_disabled":false,"rental_uris":{"android":"levelo://app?vid=00389c66-d10b-4f85-8b89-cd1629e9774d","ios":"levelo://app?vid=00389c66-d10b-4f85-8b89-cd1629e9774d"},"vehicle_type_id":"4","last_reported":1767687431,"current_range_meters":8000,"station_id":"","pricing_plan_id":"cebpf4jnsgd1na2vs0mg"},{"bike_id":"07f38209-1144-45ad-a507-80726df05fce","system_id":"levelo_inurba_marseille","lat":43.2931,"lon":5.37176,"is_reserved":false,"is_disabled":false,"rental_uris":{"android":"levelo://app?vid=07f38209-1144-45ad-a507-80726df05fce","ios":"levelo://app?vid=07f38209-1144-45ad-a507-80726df05fce"},"vehicle_type_id":"4","last_reported":1767687431,"current_range_meters":8000,"station_id":"ce4bgh92rcd13ifvqb40","pricing_plan_id":"cebpf4jnsgd1na2vs0mg"},{"bike_id":"3a8eae66-603b-4cc6-a47a-5e999d573fad","system_id":"levelo_inurba_marseille","lat":43.26998,"lon":5.38763,"is_reserved":false,"is_disabled":false,"rental_uris":{"android":"levelo://app?vid=3a8eae66-603b-4cc6-a47a-5e999d573fad","ios":"levelo://app?vid=3a8eae66-603b-4cc6-a47a-5e999d573fad"},"vehicle_type_id":"4","last_reported":1767687431,"current_range_meters":8000,"station_id":"","pricing_plan_id":"cebpf4jnsgd1na2vs0mg"},{"bike_id":"feaa8378-fac9-460d-b058-b1573970eace","system_id":"levelo_inurba_marseille","lat":43.29917,"lon":5.386,"is_reserved":false,"is_disabled":false,"rental_uris":{"android":"levelo://app?vid=feaa8378-fac9-460d-b058-b1573970eace","ios":"levelo://app?vid=feaa8378-fac9-460d-b058-b1573970eace"},"vehicle_type_id":"4","last_reported":1767687431,"current_range_meters":8000,"station_id":"","pricing_plan_id":"cebpf4jnsgd1na2vs0mg"},{"bike_id":"b0980a67-1a01-4ac3-8cf4-81a1cb81abd2","system_id":"levelo_inurba_marseille","lat":43.25814,"lon":5.39426,"is_reserved":false,"is_disabled":false,"rental_uris":{"android":"levelo://app?vid=b0980a67-1a01-4ac3-8cf4-81a1cb81abd2","ios":"levelo://app?vid=b0980a67-1a01-4ac3-8cf4-81a1cb81abd2"},"vehicle_type_id":"4","last_reported":1767687431,"current_range_meters":8000,"station_id":"ce4bhip2rcd13ifvqft0","pricing_plan_id":"cebpf4jnsgd1na2vs0mg"},{"bike_id":"49a51c2b-e6e9-4224-8a36-f6fcfb3bf9e7","system_id":"levelo_inurba_marseille","lat":43.28491,"lon":5.48368,"is_reserved":false,"is_disabled":false,"rental_uris":{"android":"levelo://app?vid=49a51c2b-e6e9-4224-8a36-f6fcfb3bf9e7","ios":"levelo://app?vid=49a51c2b-e6e9-4224-8a36-f6fcfb3bf9e7"},"vehicle_type_id":"4","last_reported":1767687431,"current_range_meters":8000,"station_id":"","pricing_plan_id":"cebpf4jnsgd1na2vs0mg"},{"bike_id":"164f98fd-2504-4730-963b-f92e6e9ccc92","system_id":"levelo_inurba_marseille","lat":43.29436,"lon":5.3975,"is_reserved":false,"is_disabled":false,"rental_uris":{"android":"levelo://app?vid=164f98fd-2504-4730-963b-f92e6e9ccc92","ios":"levelo://app?vid=164f98fd-2504-4730-963b-f92e6e9ccc92"},"vehicle_type_id":"4","last_reported":1767687431,"current_range_meters":8000,"station_id":"ce4bh3h2rcd13ifvqdo0","pricing_plan_id":"cebpf4jnsgd1na2vs0mg"},{"bike_id":"3b465cf0-7e0f-4919-8de2-76e493d53c54","system_id":"levelo_inurba_marseille","lat":43.272,"lon":5.40991,"is_reserved":false,"is_disabled":false,"rental_uris":{"android":"levelo://app?vid=3b465cf0-7e0f-4919-8de2-76e493d53c54","ios":"levelo://app?vid=3b465cf0-7e0f-4919-8de2-76e493d53c54"},"vehicle_type_id":"4","last_reported":1767687431,"current_range_meters":8000,"station_id":"ce4bhl12rcd13ifvqgf0","pricing_plan_id":"cebpf4jnsgd1na2vs0mg"},{"bike_id":"186f2fa8-9d13-45c5-bc32-0ad3d6ed2a48","system_id":"levelo_inurba_marseille","lat":43.25332,"lon":5.4217,"is_reserved":false,"is_disabled":false,"rental_uris":{"android":"levelo://app?vid=186f2fa8-9d13-45c5-bc32-0ad3d6ed2a48","ios":"levelo://app?vid=186f2fa8-9d13-45c5-bc32-0ad3d6ed2a48"},"vehicle_type_id":"4","last_reported":1767687431,"current_range_meters":8000,"station_id":"st_d2m65c5bi1j21697t3ng","pricing_plan_id":"cebpf4jnsgd1na2vs0mg"},{"bike_id":"efa425c6-cbf6-4941-b4e5-f9d843f1f6fe","system_id":"levelo_inurba_marseille","lat":43.2693,"lon":5.40246,"is_reserved":false,"is_disabled":false,"rental_uris":{"android":"levelo://app?vid=efa425c6-cbf6-4941-b4e5-f9d843f1f6fe","ios":"levelo://app?vid=efa425c6-cbf6-4941-b4e5-f9d843f1f6fe"},"vehicle_type_id":"4","last_reported":1767687431,"current_range_meters":8000,"station_id":"cjm6bp8fraef2m0cb0m0","pricing_plan_id":"cebpf4jnsgd1na2vs0mg"},{"bike_id":"ce79b3e9-06fe-482f-b77f-0988d8c5d0f2","system_id":"levelo_inurba_marseille","lat":43.31514,"lon":5.37289,"is_reserved":false,"is_disabled":false,"rental_uris":{"android":"levelo://app?vid=ce79b3e9-06fe-482f-b77f-0988d8c5d0f2","ios":"levelo://app?vid=ce79b3e9-06fe-482f-b77f-0988d8c5d0f2"},"vehicle_type_id":"4","last_reported":1767687431,"current_range_meters":8000,"station_id":"ce4bgt12rcd13ifvqcd0","pricing_plan_id":"cebpf4jnsgd1na2vs0mg"},{"bike_id":"d9af73a0-2f63-4b3e-8964-f0034091ca3d","system_id":"levelo_inurba_marseille","lat":43.273184,"lon":5.39068,"is_reserved":false,"is_disabled":false,"rental_uris":{"android":"levelo://app?vid=d9af73a0-2f63-4b3e-8964-f0034091ca3d","ios":"levelo://app?vid=d9af73a0-2f63-4b3e-8964-f0034091ca3d"},"vehicle_type_id":"4","last_reported":1767687431,"current_range_meters":8000,"station_id":"ce4bhgp2rcd13ifvqfe0","pricing_plan_id":"cebpf4jnsgd1na2vs0mg"},{"bike_id":"185a9e57-705a-4211-b642-4f93dd08ee85","system_id":"levelo_inurba_marseille","lat":43.28493,"lon":5.38572,"is_reserved":false,"is_disabled":false,"rental_uris":{"android":"levelo://app?vid=185a9e57-705a-4211-b642-4f93dd08ee85","ios":"levelo://app?vid=185a9e57-705a-4211-b642-4f93dd08ee85"},"vehicle_type_id":"4","last_reported":1767687431,"current_range_meters":8000,"station_id":"ce4bh8p2rcd13ifvqeb0","pricing_plan_id":"cebpf4jnsgd1na2vs0mg"},{"bike_id":"87ad74c9-6a6e-42a2-96a8-ed84f1428998","system_id":"levelo_inurba_marseille","lat":43.32155,"lon":5.36839,"is_reserved":false,"is_disabled":false,"rental_uris":{"android":"levelo://app?vid=87ad74c9-6a6e-42a2-96a8-ed84f1428998","ios":"levelo://app?vid=87ad74c9-6a6e-42a2-96a8-ed84f1428998"},"vehicle_type_id":"4","last_reported":1767687431,"current_range_meters":8000,"station_id":"ce4bhrh2rcd13ifvqhug","pricing_plan_id":"cebpf4jnsgd1na2vs0mg"},{"bike_id":"e85ee9b5-f42b-49c0-ae82-9060f3d9b986","system_id":"levelo_inurba_marseille","lat":43.29061,"lon":5.39956,"is_reserved":false,"is_disabled":false,"rental_uris":{"android":"levelo://app?vid=e85ee9b5-f42b-49c0-ae82-9060f3d9b986","ios":"levelo://app?vid=e85ee9b5-f42b-49c0-ae82-9060f3d9b986"},"vehicle_type_id":"4","last_reported":1767687431,"current_range_meters":8000,"station_id":"ce4bh392rcd13ifvqdm0","pricing_plan_id":"cebpf4jnsgd1na2vs0mg"},{"bike_id":"94e28fa6-a8ad-443d-96d0-87f0f916c30e","system_id":"levelo_inurba_marseille","lat":43.2871,"lon":5.36113,"is_reserved":false,"is_disabled":false,"rental_uris":{"android":"levelo://app?vid=94e28fa6-a8ad-443d-96d0-87f0f916c30e","ios":"levelo://app?vid=94e28fa6-a8ad-443d-96d0-87f0f916c30e"},"vehicle_type_id":"4","last_reported":1767687431,"current_range_meters":8400,"station_id":"cki0cbj6b192h4jlfktg","pricing_plan_id":"cebpf4jnsgd1na2vs0mg"},{"bike_id":"15146725-de08-4e0d-adeb-5883b023eca1","system_id":"levelo_inurba_marseille","lat":43.29585,"lon":5.36733,"is_reserved":false,"is_disabled":false,"rental_uris":{"android":"levelo://app?vid=15146725-de08-4e0d-adeb-5883b023eca1","ios":"levelo://app?vid=15146725-de08-4e0d-adeb-5883b023eca1"},"vehicle_type_id":"4","last_reported":1767687431,"current_range_meters":8400,"station_id":"ce4bgph2rcd13ifvqc2g","pricing_plan_id":"cebpf4jnsgd1na2vs0mg"},{"bike_id":"330d4ba7-c5f2-4d83-947c-8c0cc6747825","system_id":"levelo_inurba_marseille","lat":43.30547,"lon":5.3668,"is_reserved":false,"is_disabled":true,"rental_uris":{"android":"levelo://app?vid=330d4ba7-c5f2-4d83-947c-8c0cc6747825","ios":"levelo://app?vid=330d4ba7-c5f2-4d83-947c-8c0cc6747825"},"vehicle_type_id":"4","last_reported":1767687431,"current_range_meters":8400,"station_id":"ce4bgrp2rcd13ifvqc9g","pricing_plan_id":"cebpf4jnsgd1na2vs0mg"},{"bike_id":"787d7e25-1d4e-4b9b-9a41-18331fa60325","system_id":"levelo_inurba_marseille","lat":43.282667,"lon":5.350891,"is_reserved":false,"is_disabled":false,"rental_uris":{"android":"levelo://app?vid=787d7e25-1d4e-4b9b-9a41-18331fa60325","ios":"levelo://app?vid=787d7e25-1d4e-4b9b-9a41-18331fa60325"},"vehicle_type_id":"4","last_reported":1767687431,"current_range_meters":8400,"station_id":"ce4bhbp2rcd13ifvqerg","pricing_plan_id":"cebpf4jnsgd1na2vs0mg"},{"bike_id":"4d22c5d1-8740-4a81-80ad-bfbaa8b756eb","system_id":"levelo_inurba_marseille","lat":43.26496,"lon":5.39578,"is_reserved":false,"is_disabled":false,"rental_uris":{"android":"levelo://app?vid=4d22c5d1-8740-4a81-80ad-bfbaa8b756eb","ios":"levelo://app?vid=4d22c5d1-8740-4a81-80ad-bfbaa8b756eb"},"vehicle_type_id":"4","last_reported":1767687431,"current_range_meters":8400,"station_id":"ce4bhi12rcd13ifvqfq0","pricing_plan_id":"cebpf4jnsgd1na2vs0mg"},{"bike_id":"6362d2e9-b1aa-4dc0-b92d-936be0445a44","system_id":"levelo_inurba_marseille","lat":43.24818,"lon":5.37442,"is_reserved":false,"is_disabled":false,"rental_uris":{"android":"levelo://app?vid=6362d2e9-b1aa-4dc0-b92d-936be0445a44","ios":"levelo://app?vid=6362d2e9-b1aa-4dc0-b92d-936be0445a44"},"vehicle_type_id":"4","last_reported":1767687431,"current_range_meters":8400,"station_id":"ce4bhgh2rcd13ifvqfb0","pricing_plan_id":"cebpf4jnsgd1na2vs0mg"},{"bike_id":"08e7d044-a859-4a5a-90d4-366b263d7407","system_id":"levelo_inurba_marseille","lat":43.276842,"lon":5.420466,"is_reserved":false,"is_disabled":false,"rental_uris":{"android":"levelo://app?vid=08e7d044-a859-4a5a-90d4-366b263d7407","ios":"levelo://app?vid=08e7d044-a859-4a5a-90d4-366b263d7407"},"vehicle_type_id":"4","last_reported":1767687431,"current_range_meters":8400,"station_id":"","pricing_plan_id":"cebpf4jnsgd1na2vs0mg"},{"bike_id":"b67f4710-3d69-4d45-b21f-6b71ebaaeb7d","system_id":"levelo_inurba_marseille","lat":43.31331,"lon":5.36752,"is_reserved":false,"is_disabled":false,"rental_uris":{"android":"levelo://app?vid=b67f4710-3d69-4d45-b21f-6b71ebaaeb7d","ios":"levelo://app?vid=b67f4710-3d69-4d45-b21f-6b71ebaaeb7d"},"vehicle_type_id":"4","last_reported":1767687431,"current_range_meters":8400,"station_id":"ce4bgr92rcd13ifvqc6g","pricing_plan_id":"cebpf4jnsgd1na2vs0mg"},{"bike_id":"3e18d3c2-0e26-4ccd-8f3e-24c938dce9c0","system_id":"levelo_inurba_marseille","lat":43.284892,"lon":5.38574,"is_reserved":false,"is_disabled":false,"rental_uris":{"android":"levelo://app?vid=3e18d3c2-0e26-4ccd-8f3e-24c938dce9c0","ios":"levelo://app?vid=3e18d3c2-0e26-4ccd-8f3e-24c938dce9c0"},"vehicle_type_id":"4","last_reported":1767687431,"current_range_meters":8400,"station_id":"ce4bh8p2rcd13ifvqeb0","pricing_plan_id":"cebpf4jnsgd1na2vs0mg"},{"bike_id":"792e1e2e-f71f-47ee-9471-2778171764aa","system_id":"levelo_inurba_marseille","lat":43.27802,"lon":5.4073,"is_reserved":false,"is_disabled":true,"rental_uris":{"android":"levelo://app?vid=792e1e2e-f71f-47ee-9471-2778171764aa","ios":"levelo://app?vid=792e1e2e-f71f-47ee-9471-2778171764aa"},"vehicle_type_id":"4","last_reported":1767687431,"current_range_meters":8400,"station_id":"ce4bhnh2rcd13ifvqgtg","pricing_plan_id":"cebpf4jnsgd1na2vs0mg"},{"bike_id":"b2e816c5-9b60-4dbf-9f39-7c8d6a115207","system_id":"levelo_inurba_marseille","lat":43.32107,"lon":5.36781,"is_reserved":false,"is_disabled":false,"rental_uris":{"android":"levelo://app?vid=b2e816c5-9b60-4dbf-9f39-7c8d6a115207","ios":"levelo://app?vid=b2e816c5-9b60-4dbf-9f39-7c8d6a115207"},"vehicle_type_id":"4","last_reported":1767687431,"current_range_meters":8400,"station_id":"ce4bhrh2rcd13ifvqhug","pricing_plan_id":"cebpf4jnsgd1na2vs0mg"},{"bike_id":"8b14cd5a-7d76-43a2-a46e-a705820146ab","system_id":"levelo_inurba_marseille","lat":43.28077,"lon":5.3967,"is_reserved":false,"is_disabled":false,"rental_uris":{"android":"levelo://app?vid=8b14cd5a-7d76-43a2-a46e-a705820146ab","ios":"levelo://app?vid=8b14cd5a-7d76-43a2-a46e-a705820146ab"},"vehicle_type_id":"4","last_reported":1767687431,"current_range_meters":8400,"station_id":"ce4bho12rcd13ifvqh2g","pricing_plan_id":"cebpf4jnsgd1na2vs0mg"},{"bike_id":"ad50377a-7552-4540-b3a2-64867f58981e","system_id":"levelo_inurba_marseille","lat":43.29206,"lon":5.39541,"is_reserved":false,"is_disabled":false,"rental_uris":{"android":"levelo://app?vid=ad50377a-7552-4540-b3a2-64867f58981e","ios":"levelo://app?vid=ad50377a-7552-4540-b3a2-64867f58981e"},"vehicle_type_id":"4","last_reported":1767687431,"current_range_meters":8400,"station_id":"","pricing_plan_id":"cebpf4jnsgd1na2vs0mg"},{"bike_id":"8ee4b4d7-91ed-4f73-ba76-d3d52bc870c2","system_id":"levelo_inurba_marseille","lat":43.297818,"lon":5.37757,"is_reserved":false,"is_disabled":false,"rental_uris":{"android":"levelo://app?vid=8ee4b4d7-91ed-4f73-ba76-d3d52bc870c2","ios":"levelo://app?vid=8ee4b4d7-91ed-4f73-ba76-d3d52bc870c2"},"vehicle_type_id":"4","last_reported":1767687431,"current_range_meters":8400,"station_id":"","pricing_plan_id":"cebpf4jnsgd1na2vs0mg"},{"bike_id":"042aca96-0bcc-4b72-8a8d-ea43e5d85ee4","system_id":"levelo_inurba_marseille","lat":43.31275,"lon":5.37761,"is_reserved":false,"is_disabled":false,"rental_uris":{"android":"levelo://app?vid=042aca96-0bcc-4b72-8a8d-ea43e5d85ee4","ios":"levelo://app?vid=042aca96-0bcc-4b72-8a8d-ea43e5d85ee4"},"vehicle_type_id":"4","last_reported":1767687431,"current_range_meters":8400,"station_id":"","pricing_plan_id":"cebpf4jnsgd1na2vs0mg"},{"bike_id":"d67b210f-67cc-40d8-b12a-09ab202f8bb3","system_id":"levelo_inurba_marseille","lat":43.25791,"lon":5.41046,"is_reserved":false,"is_disabled":false,"rental_uris":{"android":"levelo://app?vid=d67b210f-67cc-40d8-b12a-09ab202f8bb3","ios":"levelo://app?vid=d67b210f-67cc-40d8-b12a-09ab202f8bb3"},"vehicle_type_id":"4","last_reported":1767687431,"current_range_meters":8400,"station_id":"","pricing_plan_id":"cebpf4jnsgd1na2vs0mg"},{"bike_id":"fa4546a7-c0d2-4019-be20-c06e93c6d8c4","system_id":"levelo_inurba_marseille","lat":43.25938,"lon":5.40903,"is_reserved":false,"is_disabled":false,"rental_uris":{"android":"levelo://app?vid=fa4546a7-c0d2-4019-be20-c06e93c6d8c4","ios":"levelo://app?vid=fa4546a7-c0d2-4019-be20-c06e93c6d8c4"},"vehicle_type_id":"4","last_reported":1767687431,"current_range_meters":8400,"station_id":"ce4bhm92rcd13ifvqglg","pricing_plan_id":"cebpf4jnsgd1na2vs0mg"},{"bike_id":"36183f39-48ec-41fb-87c0-b24e51b926cf","system_id":"levelo_inurba_marseille","lat":43.30467,"lon":5.37917,"is_reserved":false,"is_disabled":false,"rental_uris":{"android":"levelo://app?vid=36183f39-48ec-41fb-87c0-b24e51b926cf","ios":"levelo://app?vid=36183f39-48ec-41fb-87c0-b24e51b926cf"},"vehicle_type_id":"4","last_reported":1767687431,"current_range_meters":8400,"station_id":"ce4bgup2rcd13ifvqcn0","pricing_plan_id":"cebpf4jnsgd1na2vs0mg"},{"bike_id":"94b65cfe-edaf-4322-865d-06eff46e3ede","system_id":"levelo_inurba_marseille","lat":43.30032,"lon":5.37354,"is_reserved":false,"is_disabled":false,"rental_uris":{"android":"levelo://app?vid=94b65cfe-edaf-4322-865d-06eff46e3ede","ios":"levelo://app?vid=94b65cfe-edaf-4322-865d-06eff46e3ede"},"vehicle_type_id":"4","last_reported":1767687431,"current_range_meters":8400,"station_id":"","pricing_plan_id":"cebpf4jnsgd1na2vs0mg"},{"bike_id":"95eef2fc-be24-452d-b1ad-1286363d1af4","system_id":"levelo_inurba_marseille","lat":43.300969,"lon":5.369553,"is_reserved":false,"is_disabled":false,"rental_uris":{"android":"levelo://app?vid=95eef2fc-be24-452d-b1ad-1286363d1af4","ios":"levelo://app?vid=95eef2fc-be24-452d-b1ad-1286363d1af4"},"vehicle_type_id":"4","last_reported":1767687431,"current_range_meters":8400,"station_id":"","pricing_plan_id":"cebpf4jnsgd1na2vs0mg"},{"bike_id":"c0723a55-d0d0-493e-a4c5-9479bcaeff93","system_id":"levelo_inurba_marseille","lat":43.2848,"lon":5.48401,"is_reserved":false,"is_disabled":false,"rental_uris":{"android":"levelo://app?vid=c0723a55-d0d0-493e-a4c5-9479bcaeff93","ios":"levelo://app?vid=c0723a55-d0d0-493e-a4c5-9479bcaeff93"},"vehicle_type_id":"4","last_reported":1767687431,"current_range_meters":8400,"station_id":"st_d3svhcjqgbts73a3dn0g","pricing_plan_id":"cebpf4jnsgd1na2vs0mg"},{"bike_id":"9b6b7efc-b94d-4891-ad8f-12a39bd6f282","system_id":"levelo_inurba_marseille","lat":43.271751,"lon":5.409917,"is_reserved":false,"is_disabled":false,"rental_uris":{"android":"levelo://app?vid=9b6b7efc-b94d-4891-ad8f-12a39bd6f282","ios":"levelo://app?vid=9b6b7efc-b94d-4891-ad8f-12a39bd6f282"},"vehicle_type_id":"4","last_reported":1767687431,"current_range_meters":8400,"station_id":"ce4bhl12rcd13ifvqgf0","pricing_plan_id":"cebpf4jnsgd1na2vs0mg"},{"bike_id":"1ab87b03-b050-4230-809d-69fbeeb81b42","system_id":"levelo_inurba_marseille","lat":43.331497,"lon":5.376875,"is_reserved":false,"is_disabled":false,"rental_uris":{"android":"levelo://app?vid=1ab87b03-b050-4230-809d-69fbeeb81b42","ios":"levelo://app?vid=1ab87b03-b050-4230-809d-69fbeeb81b42"},"vehicle_type_id":"4","last_reported":1767687431,"current_range_meters":8400,"station_id":"st_d46cu089ee8s73dldbu0","pricing_plan_id":"cebpf4jnsgd1na2vs0mg"},{"bike_id":"a84fd1e4-4518-4212-a538-cc8cf2cc49f3","system_id":"levelo_inurba_marseille","lat":43.26196,"lon":5.37455,"is_reserved":false,"is_disabled":false,"rental_uris":{"android":"levelo://app?vid=a84fd1e4-4518-4212-a538-cc8cf2cc49f3","ios":"levelo://app?vid=a84fd1e4-4518-4212-a538-cc8cf2cc49f3"},"vehicle_type_id":"4","last_reported":1767687431,"current_range_meters":8400,"station_id":"ce4bhgp2rcd13ifvqfc0","pricing_plan_id":"cebpf4jnsgd1na2vs0mg"},{"bike_id":"2437c1ee-c390-4f3b-9da0-f586af6f1afc","system_id":"levelo_inurba_marseille","lat":43.28162,"lon":5.42633,"is_reserved":false,"is_disabled":false,"rental_uris":{"android":"levelo://app?vid=2437c1ee-c390-4f3b-9da0-f586af6f1afc","ios":"levelo://app?vid=2437c1ee-c390-4f3b-9da0-f586af6f1afc"},"vehicle_type_id":"4","last_reported":1767687431,"current_range_meters":8400,"station_id":"ce4bhnh2rcd13ifvqgug","pricing_plan_id":"cebpf4jnsgd1na2vs0mg"},{"bike_id":"f9c54d67-52ad-41a1-a71d-d18b594fec8c","system_id":"levelo_inurba_marseille","lat":43.239689,"lon":5.366086,"is_reserved":false,"is_disabled":false,"rental_uris":{"android":"levelo://app?vid=f9c54d67-52ad-41a1-a71d-d18b594fec8c","ios":"levelo://app?vid=f9c54d67-52ad-41a1-a71d-d18b594fec8c"},"vehicle_type_id":"4","last_reported":1767687431,"current_range_meters":8400,"station_id":"ce4bhi12rcd13ifvqfp0","pricing_plan_id":"cebpf4jnsgd1na2vs0mg"},{"bike_id":"c60e7c58-72a9-4de1-9081-df3a95a02550","system_id":"levelo_inurba_marseille","lat":43.24472,"lon":5.42559,"is_reserved":false,"is_disabled":false,"rental_uris":{"android":"levelo://app?vid=c60e7c58-72a9-4de1-9081-df3a95a02550","ios":"levelo://app?vid=c60e7c58-72a9-4de1-9081-df3a95a02550"},"vehicle_type_id":"4","last_reported":1767687431,"current_range_meters":8400,"station_id":"st_d4a3vfp97mjs738cd8kg","pricing_plan_id":"cebpf4jnsgd1na2vs0mg"},{"bike_id":"f303b37e-082c-4c78-b96e-ef3595108a30","system_id":"levelo_inurba_marseille","lat":43.30557,"lon":5.36713,"is_reserved":false,"is_disabled":false,"rental_uris":{"android":"levelo://app?vid=f303b37e-082c-4c78-b96e-ef3595108a30","ios":"levelo://app?vid=f303b37e-082c-4c78-b96e-ef3595108a30"},"vehicle_type_id":"4","last_reported":1767687431,"current_range_meters":8400,"station_id":"ce4bgrp2rcd13ifvqc9g","pricing_plan_id":"cebpf4jnsgd1na2vs0mg"},{"bike_id":"42484e9b-3440-415a-98a0-c23f4521a831","system_id":"levelo_inurba_marseille","lat":43.29772,"lon":5.42772,"is_reserved":false,"is_disabled":false,"rental_uris":{"android":"levelo://app?vid=42484e9b-3440-415a-98a0-c23f4521a831","ios":"levelo://app?vid=42484e9b-3440-415a-98a0-c23f4521a831"},"vehicle_type_id":"4","last_reported":1767687431,"current_range_meters":8400,"station_id":"st_d3md5207bmas73dh9klg","pricing_plan_id":"cebpf4jnsgd1na2vs0mg"},{"bike_id":"5240b73e-765a-49af-8220-e83769a91881","system_id":"levelo_inurba_marseille","lat":43.27327,"lon":5.39069,"is_reserved":false,"is_disabled":false,"rental_uris":{"android":"levelo://app?vid=5240b73e-765a-49af-8220-e83769a91881","ios":"levelo://app?vid=5240b73e-765a-49af-8220-e83769a91881"},"vehicle_type_id":"4","last_reported":1767687431,"current_range_meters":8800,"station_id":"ce4bhgp2rcd13ifvqfe0","pricing_plan_id":"cebpf4jnsgd1na2vs0mg"},{"bike_id":"4fcc5061-6201-4599-b93b-42ed4f5fc38a","system_id":"levelo_inurba_marseille","lat":43.28414,"lon":5.34991,"is_reserved":false,"is_disabled":false,"rental_uris":{"android":"levelo://app?vid=4fcc5061-6201-4599-b93b-42ed4f5fc38a","ios":"levelo://app?vid=4fcc5061-6201-4599-b93b-42ed4f5fc38a"},"vehicle_type_id":"4","last_reported":1767687431,"current_range_meters":8800,"station_id":"ce4bhbh2rcd13ifvqepg","pricing_plan_id":"cebpf4jnsgd1na2vs0mg"},{"bike_id":"a3598eba-2c45-4069-934f-7f420eaf7935","system_id":"levelo_inurba_marseille","lat":43.30162,"lon":5.38083,"is_reserved":false,"is_disabled":false,"rental_uris":{"android":"levelo://app?vid=a3598eba-2c45-4069-934f-7f420eaf7935","ios":"levelo://app?vid=a3598eba-2c45-4069-934f-7f420eaf7935"},"vehicle_type_id":"4","last_reported":1767687431,"current_range_meters":8800,"station_id":"ce4bgjp2rcd13ifvqbh0","pricing_plan_id":"cebpf4jnsgd1na2vs0mg"},{"bike_id":"e12b1b73-3293-4fb9-9b72-6bf73f7126be","system_id":"levelo_inurba_marseille","lat":43.279496,"lon":5.410398,"is_reserved":false,"is_disabled":false,"rental_uris":{"android":"levelo://app?vid=e12b1b73-3293-4fb9-9b72-6bf73f7126be","ios":"levelo://app?vid=e12b1b73-3293-4fb9-9b72-6bf73f7126be"},"vehicle_type_id":"4","last_reported":1767687431,"current_range_meters":8800,"station_id":"ce4bhnp2rcd13ifvqh0g","pricing_plan_id":"cebpf4jnsgd1na2vs0mg"},{"bike_id":"67d91d6d-c9b3-4e6d-b687-04b164d03f8b","system_id":"levelo_inurba_marseille","lat":43.295209,"lon":5.37509,"is_reserved":false,"is_disabled":false,"rental_uris":{"android":"levelo://app?vid=67d91d6d-c9b3-4e6d-b687-04b164d03f8b","ios":"levelo://app?vid=67d91d6d-c9b3-4e6d-b687-04b164d03f8b"},"vehicle_type_id":"4","last_reported":1767687431,"current_range_meters":8800,"station_id":"ce4bgkp2rcd13ifvqbmg","pricing_plan_id":"cebpf4jnsgd1na2vs0mg"},{"bike_id":"d524b089-628a-4d78-9683-770000750388","system_id":"levelo_inurba_marseille","lat":43.29905,"lon":5.38497,"is_reserved":false,"is_disabled":false,"rental_uris":{"android":"levelo://app?vid=d524b089-628a-4d78-9683-770000750388","ios":"levelo://app?vid=d524b089-628a-4d78-9683-770000750388"},"vehicle_type_id":"4","last_reported":1767687431,"current_range_meters":8800,"station_id":"","pricing_plan_id":"cebpf4jnsgd1na2vs0mg"},{"bike_id":"e4a72b42-982f-4f79-9895-e2717a2cdd31","system_id":"levelo_inurba_marseille","lat":43.255827,"lon":5.382427,"is_reserved":false,"is_disabled":false,"rental_uris":{"android":"levelo://app?vid=e4a72b42-982f-4f79-9895-e2717a2cdd31","ios":"levelo://app?vid=e4a72b42-982f-4f79-9895-e2717a2cdd31"},"vehicle_type_id":"4","last_reported":1767687431,"current_range_meters":8800,"station_id":"ce4bhih2rcd13ifvqfs0","pricing_plan_id":"cebpf4jnsgd1na2vs0mg"},{"bike_id":"c0a4f535-e870-4e6a-89ce-4533403bde0f","system_id":"levelo_inurba_marseille","lat":43.28616,"lon":5.35105,"is_reserved":false,"is_disabled":false,"rental_uris":{"android":"levelo://app?vid=c0a4f535-e870-4e6a-89ce-4533403bde0f","ios":"levelo://app?vid=c0a4f535-e870-4e6a-89ce-4533403bde0f"},"vehicle_type_id":"4","last_reported":1767687431,"current_range_meters":8800,"station_id":"ce4bhch2rcd13ifvqeug","pricing_plan_id":"cebpf4jnsgd1na2vs0mg"},{"bike_id":"9853dc61-b5ea-4470-a955-cadeb6ea0855","system_id":"levelo_inurba_marseille","lat":43.31872,"lon":5.37946,"is_reserved":false,"is_disabled":false,"rental_uris":{"android":"levelo://app?vid=9853dc61-b5ea-4470-a955-cadeb6ea0855","ios":"levelo://app?vid=9853dc61-b5ea-4470-a955-cadeb6ea0855"},"vehicle_type_id":"4","last_reported":1767687431,"current_range_meters":8800,"station_id":"","pricing_plan_id":"cebpf4jnsgd1na2vs0mg"},