{"last_updated":1748365771,"ttl":60,"version":"2.2","data":{"bikes":[{"bike_id":"ab485184-dee6-4278-8ed8-78cb97c31dd5","system_id":"levelo_inurba_marseille","lat":43.2921,"lon":5.35824,"is_reserved":false,"is_disabled":false,"rental_uris":{"android":"levelo://app?vid=ab485184-dee6-4278-8ed8-78cb97c31dd5","ios":"levelo://app?vid=ab485184-dee6-4278-8ed8-78cb97c31dd5"},"vehicle_type_id":"4","last_reported":1748365771,"current_range_meters":2800,"station_id":"","pricing_plan_id":"cebpf4jnsgd1na2vs0mg"},{"bike_id":"7bd5bad4-5f6c-4c1b-bf2b-471cc6d72042","system_id":"levelo_inurba_marseille","lat":43.33031,"lon":5.3902,"is_reserved":false,"is_disabled":false,"rental_uris":{"android":"levelo://app?vid=7bd5bad4-5f6c-4c1b-bf2b-471cc6d72042","ios":"levelo://app?vid=7bd5bad4-5f6c-4c1b-bf2b-471cc6d72042"},"vehicle_type_id":"4","last_reported":1748365771,"current_range_meters":2800,"station_id":"ce4bhr92rcd13ifvqhrg","pricing_plan_id":"cebpf4jnsgd1na2vs0mg"},{"bike_id":"d70b56fc-349d-497a-9947-92ceeac31abf","system_id":"levelo_inurba_marseille","lat":43.28669,"lon":5.38661,"is_reserved":false,"is_disabled":false,"rental_uris":{"android":"levelo://app?vid=d70b56fc-349d-497a-9947-92ceeac31abf","ios":"levelo://app?vid=d70b56fc-349d-497a-9947-92ceeac31abf"},"vehicle_type_id":"4","last_reported":1748365771,"current_range_meters":2800,"station_id":"ce4bh492rcd13ifvqdug","pricing_plan_id":"cebpf4jnsgd1na2vs0mg"},{"bike_id":"4ddde26d-4389-441d-b1d6-3bc0658787f5","system_id":"levelo_inurba_marseille","lat":43.22916,"lon":5.35384,"is_reserved":false,"is_disabled":true,"rental_uris":{"android":"levelo://app?vid=4ddde26d-4389-441d-b1d6-3bc0658787f5","ios":"levelo://app?vid=4ddde26d-4389-441d-b1d6-3bc0658787f5"},"vehicle_type_id":"4","last_reported":1748365771,"current_range_meters":2800,"station_id":"cpo3532slgdg3j2ikp40","pricing_plan_id":"cebpf4jnsgd1na2vs0mg"},{"bike_id":"82cddb6f-94cd-4d95-a464-9ba57ed0659b","system_id":"levelo_inurba_marseille","lat":43.30738,"lon":5.42437,"is_reserved":false,"is_disabled":false,"rental_uris":{"android":"levelo://app?vid=82cddb6f-94cd-4d95-a464-9ba57ed0659b","ios":"levelo://app?vid=82cddb6f-94cd-4d95-a464-9ba57ed0659b"},"vehicle_type_id":"4","last_reported":1748365771,"current_range_meters":2800,"station_id":"st_cvj6ca6bvosntc0bfgr0","pricing_plan_id":"cebpf4jnsgd1na2vs0mg"},{"bike_id":"6f0eda79-db5e-4957-8a06-e5945c9fc4c0","system_id":"levelo_inurba_marseille","lat":43.2957,"lon":5.3998,"is_reserved":false,"is_disabled":false,"rental_uris":{"android":"levelo://app?vid=6f0eda79-db5e-4957-8a06-e5945c9fc4c0","ios":"levelo://app?vid=6f0eda79-db5e-4957-8a06-e5945c9fc4c0"},"vehicle_type_id":"4","last_reported":1748365771,"current_range_meters":2800,"station_id":"ce4bh312rcd13ifvqdj0","pricing_plan_id":"cebpf4jnsgd1na2vs0mg"},{"bike_id":"32c64405-0296-4e01-abe2-f0e92d53cd9a","system_id":"levelo_inurba_marseille","lat":43.27051,"lon":5.40264,"is_reserved":false,"is_disabled":false,"rental_uris":{"android":"levelo://app?vid=32c64405-0296-4e01-abe2-f0e92d53cd9a","ios":"levelo://app?vid=32c64405-0296-4e01-abe2-f0e92d53cd9a"},"vehicle_type_id":"4","last_reported":1748365771,"current_range_meters":2800,"station_id":"ce4bhk92rcd13ifvqgc0","pricing_plan_id":"cebpf4jnsgd1na2vs0mg"},{"bike_id":"b96d9f6c-758e-4e74-892b-8c3e9bfdcef9","system_id":"levelo_inurba_marseille","lat":43.29797,"lon":5.38103,"is_reserved":false,"is_disabled":false,"rental_uris":{"android":"levelo://app?vid=b96d9f6c-758e-4e74-892b-8c3e9bfdcef9","ios":"levelo://app?vid=b96d9f6c-758e-4e74-892b-8c3e9bfdcef9"},"vehicle_type_id":"4","last_reported":1748365771,"current_range_meters":2800,"station_id":"ce4bgip2rcd13ifvqbb0","pricing_plan_id":"cebpf4jnsgd1na2vs0mg"},{"bike_id":"6263a777-0e2a-406d-b3bd-464b4f031f1c","system_id":"levelo_inurba_marseille","lat":43.2987,"lon":5.39736,"is_reserved":false,"is_disabled":false,"rental_uris":{"android":"levelo://app?vid=6263a777-0e2a-406d-b3bd-464b4f031f1c","ios":"levelo://app?vid=6263a777-0e2a-406d-b3bd-464b4f031f1c"},"vehicle_type_id":"4","last_reported":1748365771,"current_range_meters":3200,"station_id":"ce4bh0h2rcd13ifvqd50","pricing_plan_id":"cebpf4jnsgd1na2vs0mg"},{"bike_id":"e9496718-b841-4999-823d-28c5bee5d6f1","system_id":"levelo_inurba_marseille","lat":43.265362,"lon":5.390192,"is_reserved":false,"is_disabled":false,"rental_uris":{"android":"levelo://app?vid=e9496718-b841-4999-823d-28c5bee5d6f1","ios":"levelo://app?vid=e9496718-b841-4999-823d-28c5bee5d6f1"},"vehicle_type_id":"4","last_reported":1748365771,"current_range_meters":3200,"station_id":"ce4bhe12rcd13ifvqf30","pricing_plan_id":"cebpf4jnsgd1na2vs0mg"},{"bike_id":"668a343b-b4a8-4bf7-b474-e50a977491b8","system_id":"levelo_inurba_marseille","lat":43.2738,"lon":5.3626,"is_reserved":false,"is_disabled":false,"rental_uris":{"android":"levelo://app?vid=668a343b-b4a8-4bf7-b474-e50a977491b8","ios":"levelo://app?vid=668a343b-b4a8-4bf7-b474-e50a977491b8"},"vehicle_type_id":"4","last_reported":1748365771,"current_range_meters":3200,"station_id":"ce4bhbh2rcd13ifvqeo0","pricing_plan_id":"cebpf4jnsgd1na2vs0mg"},{"bike_id":"c67f6e07-09e9-4a9b-84ce-e2fd4a6a4005","system_id":"levelo_inurba_marseille","lat":43.27372,"lon":5.36247,"is_reserved":false,"is_disabled":false,"rental_uris":{"android":"levelo://app?vid=c67f6e07-09e9-4a9b-84ce-e2fd4a6a4005","ios":"levelo://app?vid=c67f6e07-09e9-4a9b-84ce-e2fd4a6a4005"},"vehicle_type_id":"4","last_reported":1748365771,"current_range_meters":3200,"station_id":"ce4bhbh2rcd13ifvqeo0","pricing_plan_id":"cebpf4jnsgd1na2vs0mg"},{"bike_id":"519f63d8-638b-4892-bac3-670498856c94","system_id":"levelo_inurba_marseille","lat":43.28857,"lon":5.39316,"is_reserved":false,"is_disabled":false,"rental_uris":{"android":"levelo://app?vid=519f63d8-638b-4892-bac3-670498856c94","ios":"levelo://app?vid=519f63d8-638b-4892-bac3-670498856c94"},"vehicle_type_id":"4","last_reported":1748365771,"current_range_meters":3200,"station_id":"ce4bh2p2rcd13ifvqdi0","pricing_plan_id":"cebpf4jnsgd1na2vs0mg"},{"bike_id":"403c4597-4ef1-4de4-99c8-a9a2dfb923b2","system_id":"levelo_inurba_marseille","lat":43.27969,"lon":5.38757,"is_reserved":false,"is_disabled":false,"rental_uris":{"android":"levelo://app?vid=403c4597-4ef1-4de4-99c8-a9a2dfb923b2","ios":"levelo://app?vid=403c4597-4ef1-4de4-99c8-a9a2dfb923b2"},"vehicle_type_id":"4","last_reported":1748365771,"current_range_meters":3200,"station_id":"ce4bhg12rcd13ifvqf80","pricing_plan_id":"cebpf4jnsgd1na2vs0mg"},{"bike_id":"0e4bf59a-ac33-4071-b8ce-3aeb994a6bba","system_id":"levelo_inurba_marseille","lat":43.28275,"lon":5.35074,"is_reserved":false,"is_disabled":false,"rental_uris":{"android":"levelo://app?vid=0e4bf59a-ac33-4071-b8ce-3aeb994a6bba","ios":"levelo://app?vid=0e4bf59a-ac33-4071-b8ce-3aeb994a6bba"},"vehicle_type_id":"4","last_reported":1748365771,"current_range_meters":3200,"station_id":"ce4bhbp2rcd13ifvqerg","pricing_plan_id":"cebpf4jnsgd1na2vs0mg"},{"bike_id":"973af48c-a046-4931-88a8-1d7e0c953248","system_id":"levelo_inurba_marseille","lat":43.299622,"lon":5.384896,"is_reserved":false,"is_disabled":false,"rental_uris":{"android":"levelo://app?vid=973af48c-a046-4931-88a8-1d7e0c953248","ios":"levelo://app?vid=973af48c-a046-4931-88a8-1d7e0c953248"},"vehicle_type_id":"4","last_reported":1748365771,"current_range_meters":3600,"station_id":"ce4bgj92rcd13ifvqbd0","pricing_plan_id":"cebpf4jnsgd1na2vs0mg"},{"bike_id":"4ba6a2fc-1d0b-4aa6-8fa5-49331b1e75f0","system_id":"levelo_inurba_marseille","lat":43.23199,"lon":5.39973,"is_reserved":false,"is_disabled":false,"rental_uris":{"android":"levelo://app?vid=4ba6a2fc-1d0b-4aa6-8fa5-49331b1e75f0","ios":"levelo://app?vid=4ba6a2fc-1d0b-4aa6-8fa5-49331b1e75f0"},"vehicle_type_id":"4","last_reported":1748365771,"current_range_meters":3600,"station_id":"ce4bhn12rcd13ifvqgqg","pricing_plan_id":"cebpf4jnsgd1na2vs0mg"},{"bike_id":"3cb73767-880c-4a59-884d-f59bc33ab77a","system_id":"levelo_inurba_marseille","lat":43.26565,"lon":5.40324,"is_reserved":false,"is_disabled":false,"rental_uris":{"android":"levelo://app?vid=3cb73767-880c-4a59-884d-f59bc33ab77a","ios":"levelo://app?vid=3cb73767-880c-4a59-884d-f59bc33ab77a"},"vehicle_type_id":"4","last_reported":1748365771,"current_range_meters":3600,"station_id":"","pricing_plan_id":"cebpf4jnsgd1na2vs0mg"},{"bike_id":"fb2f6a3d-c0ba-489e-91f4-1a9ae7c3713c","system_id":"levelo_inurba_marseille","lat":43.28572,"lon":5.39496,"is_reserved":false,"is_disabled":false,"rental_uris":{"android":"levelo://app?vid=fb2f6a3d-c0ba-489e-91f4-1a9ae7c3713c","ios":"levelo://app?vid=fb2f6a3d-c0ba-489e-91f4-1a9ae7c3713c"},"vehicle_type_id":"4","last_reported":1748365771,"current_range_meters":3600,"station_id":"ce4bh292rcd13ifvqdg0","pricing_plan_id":"cebpf4jnsgd1na2vs0mg"},{"bike_id":"acc21e84-6c22-49be-88c1-07080f5be8ef","system_id":"levelo_inurba_marseille","lat":43.30277,"lon":5.37689,"is_reserved":false,"is_disabled":false,"rental_uris":{"android":"levelo://app?vid=acc21e84-6c22-49be-88c1-07080f5be8ef","ios":"levelo://app?vid=acc21e84-6c22-49be-88c1-07080f5be8ef"},"vehicle_type_id":"4","last_reported":1748365771,"current_range_meters":3600,"station_id":"ce4bguh2rcd13ifvqcj0","pricing_plan_id":"cebpf4jnsgd1na2vs0mg"},{"bike_id":"4180968e-b568-4c73-82a1-fc280a07a2e4","system_id":"levelo_inurba_marseille","lat":43.29247,"lon":5.38447,"is_reserved":false,"is_disabled":false,"rental_uris":{"android":"levelo://app?vid=4180968e-b568-4c73-82a1-fc280a07a2e4","ios":"levelo://app?vid=4180968e-b568-4c73-82a1-fc280a07a2e4"},"vehicle_type_id":"4","last_reported":1748365771,"current_range_meters":2800,"station_id":"ce4bh692rcd13ifvqea0","pricing_plan_id":"cebpf4jnsgd1na2vs0mg"},{"bike_id":"cbed7f93-9f43-4d44-ac10-d01518880dbf","system_id":"levelo_inurba_marseille","lat":43.29273,"lon":5.36851,"is_reserved":false,"is_disabled":false,"rental_uris":{"android":"levelo://app?vid=cbed7f93-9f43-4d44-ac10-d01518880dbf","ios":"levelo://app?vid=cbed7f93-9f43-4d44-ac10-d01518880dbf"},"vehicle_type_id":"4","last_reported":1748365771,"current_range_meters":3600,"station_id":"ce4bhbp2rcd13ifvqesg","pricing_plan_id":"cebpf4jnsgd1na2vs0mg"},{"bike_id":"e4e25284-7c3b-41cb-ac4f-51b743afdfb2","system_id":"levelo_inurba_marseille","lat":43.28728,"lon":5.36096,"is_reserved":false,"is_disabled":false,"rental_uris":{"android":"levelo://app?vid=e4e25284-7c3b-41cb-ac4f-51b743afdfb2","ios":"levelo://app?vid=e4e25284-7c3b-41cb-ac4f-51b743afdfb2"},"vehicle_type_id":"4","last_reported":1748365771,"current_range_meters":4000,"station_id":"cki0cbj6b192h4jlfktg","pricing_plan_id":"cebpf4jnsgd1na2vs0mg"},{"bike_id":"28a8c99a-036c-4f81-a22b-754ea78d7fe7","system_id":"levelo_inurba_marseille","lat":43.26929,"lon":5.40253,"is_reserved":false,"is_disabled":false,"rental_uris":{"android":"levelo://app?vid=28a8c99a-036c-4f81-a22b-754ea78d7fe7","ios":"levelo://app?vid=28a8c99a-036c-4f81-a22b-754ea78d7fe7"},"vehicle_type_id":"4","last_reported":1748365771,"current_range_meters":4000,"station_id":"cjm6bp8fraef2m0cb0m0","pricing_plan_id":"cebpf4jnsgd1na2vs0mg"},{"bike_id":"96ebb28d-271d-425b-8056-fe684b43a797","system_id":"levelo_inurba_marseille","lat":43.27916,"lon":5.39603,"is_reserved":false,"is_disabled":false,"rental_uris":{"android":"levelo://app?vid=96ebb28d-271d-425b-8056-fe684b43a797","ios":"levelo://app?vid=96ebb28d-271d-425b-8056-fe684b43a797"},"vehicle_type_id":"4","last_reported":1748365771,"current_range_meters":4400,"station_id":"ce4bhf92rcd13ifvqf40","pricing_plan_id":"cebpf4jnsgd1na2vs0mg"},{"bike_id":"a4aef2b9-b7e8-4e2d-8340-592d28bc6c85","system_id":"levelo_inurba_marseille","lat":43.337654,"lon":5.37434,"is_reserved":false,"is_disabled":false,"rental_uris":{"android":"levelo://app?vid=a4aef2b9-b7e8-4e2d-8340-592d28bc6c85","ios":"levelo://app?vid=a4aef2b9-b7e8-4e2d-8340-592d28bc6c85"},"vehicle_type_id":"4","last_reported":1748365771,"current_range_meters":4400,"station_id":"","pricing_plan_id":"cebpf4jnsgd1na2vs0mg"},{"bike_id":"ecad3044-0073-41fd-b7ef-ba4541c0f14d","system_id":"levelo_inurba_marseille","lat":43.27617,"lon":5.36106,"is_reserved":false,"is_disabled":false,"rental_uris":{"android":"levelo://app?vid=ecad3044-0073-41fd-b7ef-ba4541c0f14d","ios":"levelo://app?vid=ecad3044-0073-41fd-b7ef-ba4541c0f14d"},"vehicle_type_id":"4","last_reported":1748365771,"current_range_meters":4400,"station_id":"ce4bgj92rcd13ifvqbe0","pricing_plan_id":"cebpf4jnsgd1na2vs0mg"},{"bike_id":"f0de5d5a-f3c5-4a93-a86a-2dbe8966781e","system_id":"levelo_inurba_marseille","lat":43.27376,"lon":5.36258,"is_reserved":false,"is_disabled":false,"rental_uris":{"android":"levelo://app?vid=f0de5d5a-f3c5-4a93-a86a-2dbe8966781e","ios":"levelo://app?vid=f0de5d5a-f3c5-4a93-a86a-2dbe8966781e"},"vehicle_type_id":"4","last_reported":1748365771,"current_range_meters":4400,"station_id":"ce4bhbh2rcd13ifvqeo0","pricing_plan_id":"cebpf4jnsgd1na2vs0mg"},{"bike_id":"fc56555b-396d-4667-b896-0ad86036e39e","system_id":"levelo_inurba_marseille","lat":43.25917,"lon":5.38053,"is_reserved":false,"is_disabled":false,"rental_uris":{"android":"levelo://app?vid=fc56555b-396d-4667-b896-0ad86036e39e","ios":"levelo://app?vid=fc56555b-396d-4667-b896-0ad86036e39e"},"vehicle_type_id":"4","last_reported":1748365771,"current_range_meters":4800,"station_id":"","pricing_plan_id":"cebpf4jnsgd1na2vs0mg"},{"bike_id":"3bc9f18b-01be-4b78-b10d-2678612ff346","system_id":"levelo_inurba_marseille","lat":43.28619,"lon":5.35097,"is_reserved":false,"is_disabled":false,"rental_uris":{"android":"levelo://app?vid=3bc9f18b-01be-4b78-b10d-2678612ff346","ios":"levelo://app?vid=3bc9f18b-01be-4b78-b10d-2678612ff346"},"vehicle_type_id":"4","last_reported":1748365771,"current_range_meters":4800,"station_id":"ce4bhch2rcd13ifvqeug","pricing_plan_id":"cebpf4jnsgd1na2vs0mg"},{"bike_id":"95ae048c-c2e9-4fd0-8fd7-eba6efc33e7c","system_id":"levelo_inurba_marseille","lat":43.276614,"lon":5.388795,"is_reserved":false,"is_disabled":false,"rental_uris":{"android":"levelo://app?vid=95ae048c-c2e9-4fd0-8fd7-eba6efc33e7c","ios":"levelo://app?vid=95ae048c-c2e9-4fd0-8fd7-eba6efc33e7c"},"vehicle_type_id":"4","last_reported":1748365771,"current_range_meters":4800,"station_id":"ce4bhgp2rcd13ifvqfe0","pricing_plan_id":"cebpf4jnsgd1na2vs0mg"},{"bike_id":"a3fdfab4-cb8b-4639-a8f9-ac99f398c758","system_id":"levelo_inurba_marseille","lat":43.24169,"lon":5.36397,"is_reserved":false,"is_disabled":false,"rental_uris":{"android":"levelo://app?vid=a3fdfab4-cb8b-4639-a8f9-ac99f398c758","ios":"levelo://app?vid=a3fdfab4-cb8b-4639-a8f9-ac99f398c758"},"vehicle_type_id":"4","last_reported":1748365771,"current_range_meters":4800,"station_id":"cpo36qri1sfpv3e86is0","pricing_plan_id":"cebpf4jnsgd1na2vs0mg"},{"bike_id":"1fceaeb1-89f8-4de8-badf-1c90b24bd4a6","system_id":"levelo_inurba_marseille","lat":43.2861,"lon":5.35107,"is_reserved":false,"is_disabled":false,"rental_uris":{"android":"levelo://app?vid=1fceaeb1-89f8-4de8-badf-1c90b24bd4a6","ios":"levelo://app?vid=1fceaeb1-89f8-4de8-badf-1c90b24bd4a6"},"vehicle_type_id":"4","last_reported":1748365771,"current_range_meters":4800,"station_id":"ce4bhch2rcd13ifvqeug","pricing_plan_id":"cebpf4jnsgd1na2vs0mg"},{"bike_id":"3f94f65e-ee76-4bca-9382-316d6b4e3127","system_id":"levelo_inurba_marseille","lat":43.29974,"lon":5.37178,"is_reserved":false,"is_disabled":false,"rental_uris":{"android":"levelo://app?vid=3f94f65e-ee76-4bca-9382-316d6b4e3127","ios":"levelo://app?vid=3f94f65e-ee76-4bca-9382-316d6b4e3127"},"vehicle_type_id":"4","last_reported":1748365771,"current_range_meters":5600,"station_id":"ce4bgr92rcd13ifvqc7g","pricing_plan_id":"cebpf4jnsgd1na2vs0mg"},{"bike_id":"b744080c-dd77-486d-9609-00c9cf60c1ad","system_id":"levelo_inurba_marseille","lat":43.23621,"lon":5.39188,"is_reserved":false,"is_disabled":false,"rental_uris":{"android":"levelo://app?vid=b744080c-dd77-486d-9609-00c9cf60c1ad","ios":"levelo://app?vid=b744080c-dd77-486d-9609-00c9cf60c1ad"},"vehicle_type_id":"4","last_reported":1748365771,"current_range_meters":5600,"station_id":"","pricing_plan_id":"cebpf4jnsgd1na2vs0mg"},{"bike_id":"fff6a872-04df-45be-9338-38c91d9c28f5","system_id":"levelo_inurba_marseille","lat":43.27377,"lon":5.36257,"is_reserved":false,"is_disabled":false,"rental_uris":{"android":"levelo://app?vid=fff6a872-04df-45be-9338-38c91d9c28f5","ios":"levelo://app?vid=fff6a872-04df-45be-9338-38c91d9c28f5"},"vehicle_type_id":"4","last_reported":1748365771,"current_range_meters":5600,"station_id":"ce4bhbh2rcd13ifvqeo0","pricing_plan_id":"cebpf4jnsgd1na2vs0mg"},{"bike_id":"07c2a194-3cd6-44ef-be20-a0319ef00f5a","system_id":"levelo_inurba_marseille","lat":43.29553,"lon":5.42293,"is_reserved":false,"is_disabled":false,"rental_uris":{"android":"levelo://app?vid=07c2a194-3cd6-44ef-be20-a0319ef00f5a","ios":"levelo://app?vid=07c2a194-3cd6-44ef-be20-a0319ef00f5a"},"vehicle_type_id":"4","last_reported":1748365771,"current_range_meters":6000,"station_id":"ce4bhph2rcd13ifvqhdg","pricing_plan_id":"cebpf4jnsgd1na2vs0mg"},{"bike_id":"af399137-1c32-4bc9-aaf0-d473b3fecc1a","system_id":"levelo_inurba_marseille","lat":43.28609,"lon":5.37068,"is_reserved":false,"is_disabled":false,"rental_uris":{"android":"levelo://app?vid=af399137-1c32-4bc9-aaf0-d473b3fecc1a","ios":"levelo://app?vid=af399137-1c32-4bc9-aaf0-d473b3fecc1a"},"vehicle_type_id":"4","last_reported":1748365771,"current_range_meters":6000,"station_id":"ce4bht12rcd13ifvqi60","pricing_plan_id":"cebpf4jnsgd1na2vs0mg"},{"bike_id":"bb0cbdc8-a298-4e38-85a9-32f4b0a1d86b","system_id":"levelo_inurba_marseille","lat":43.29194,"lon":5.35812,"is_reserved":false,"is_disabled":false,"rental_uris":{"android":"levelo://app?vid=bb0cbdc8-a298-4e38-85a9-32f4b0a1d86b","ios":"levelo://app?vid=bb0cbdc8-a298-4e38-85a9-32f4b0a1d86b"},"vehicle_type_id":"4","last_reported":1748365771,"current_range_meters":6000,"station_id":"ce4bhb12rcd13ifvqel0","pricing_plan_id":"cebpf4jnsgd1na2vs0mg"},{"bike_id":"459cf167-8b29-419d-94fb-935ed836a0db","system_id":"levelo_inurba_marseille","lat":43.2655,"lon":5.37284,"is_reserved":false,"is_disabled":false,"rental_uris":{"android":"levelo://app?vid=459cf167-8b29-419d-94fb-935ed836a0db","ios":"levelo://app?vid=459cf167-8b29-419d-94fb-935ed836a0db"},"vehicle_type_id":"4","last_reported":1748365771,"current_range_meters":6000,"station_id":"ce4bhg12rcd13ifvqf70","pricing_plan_id":"cebpf4jnsgd1na2vs0mg"},{"bike_id":"d1c28ead-4420-4c64-8da1-9ea623e2d0a1","system_id":"levelo_inurba_marseille","lat":43.28465,"lon":5.35886,"is_reserved":false,"is_disabled":false,"rental_uris":{"android":"levelo://app?vid=d1c28ead-4420-4c64-8da1-9ea623e2d0a1","ios":"levelo://app?vid=d1c28ead-4420-4c64-8da1-9ea623e2d0a1"},"vehicle_type_id":"4","last_reported":1748365771,"current_range_meters":6000,"station_id":"ce4bhah2rcd13ifvqei0","pricing_plan_id":"cebpf4jnsgd1na2vs0mg"},{"bike_id":"fd908bdf-5d81-4122-b313-442572d15912","system_id":"levelo_inurba_marseille","lat":43.29528,"lon":5.39411,"is_reserved":false,"is_disabled":true,"rental_uris":{"android":"levelo://app?vid=fd908bdf-5d81-4122-b313-442572d15912","ios":"levelo://app?vid=fd908bdf-5d81-4122-b313-442572d15912"},"vehicle_type_id":"4","last_reported":1748365771,"current_range_meters":6400,"station_id":"ce4bh292rcd13ifvqdf0","pricing_plan_id":"cebpf4jnsgd1na2vs0mg"},{"bike_id":"0749cbd9-945c-4bb5-b1d2-7d7a1cf506b0","system_id":"levelo_inurba_marseille","lat":43.29039,"lon":5.35928,"is_reserved":false,"is_disabled":false,"rental_uris":{"android":"levelo://app?vid=0749cbd9-945c-4bb5-b1d2-7d7a1cf506b0","ios":"levelo://app?vid=0749cbd9-945c-4bb5-b1d2-7d7a1cf506b0"},"vehicle_type_id":"4","last_reported":1748365771,"current_range_meters":6400,"station_id":"ce4bha92rcd13ifvqeg0","pricing_plan_id":"cebpf4jnsgd1na2vs0mg"},{"bike_id":"9b33e131-456f-4624-8691-a7cd4e3c6065","system_id":"levelo_inurba_marseille","lat":43.27384,"lon":5.36249,"is_reserved":false,"is_disabled":false,"rental_uris":{"android":"levelo://app?vid=9b33e131-456f-4624-8691-a7cd4e3c6065","ios":"levelo://app?vid=9b33e131-456f-4624-8691-a7cd4e3c6065"},"vehicle_type_id":"4","last_reported":1748365771,"current_range_meters":6400,"station_id":"ce4bhbh2rcd13ifvqeo0","pricing_plan_id":"cebpf4jnsgd1na2vs0mg"},{"bike_id":"5fa28183-8e04-4807-99b2-3582495ca1f1","system_id":"levelo_inurba_marseille","lat":43.28404,"lon":5.37514,"is_reserved":false,"is_disabled":false,"rental_uris":{"android":"levelo://app?vid=5fa28183-8e04-4807-99b2-3582495ca1f1","ios":"levelo://app?vid=5fa28183-8e04-4807-99b2-3582495ca1f1"},"vehicle_type_id":"4","last_reported":1748365771,"current_range_meters":6400,"station_id":"ce4bh412rcd13ifvqds0","pricing_plan_id":"cebpf4jnsgd1na2vs0mg"},{"bike_id":"7daadeeb-a57e-4603-b361-da02c3be6a72","system_id":"levelo_inurba_marseille","lat":43.2694,"lon":5.40254,"is_reserved":false,"is_disabled":false,"rental_uris":{"android":"levelo://app?vid=7daadeeb-a57e-4603-b361-da02c3be6a72","ios":"levelo://app?vid=7daadeeb-a57e-4603-b361-da02c3be6a72"},"vehicle_type_id":"4","last_reported":1748365771,"current_range_meters":6000,"station_id":"cjm6bp8fraef2m0cb0m0","pricing_plan_id":"cebpf4jnsgd1na2vs0mg"},{"bike_id":"9c31cb72-cb59-4364-a46a-842359c2e412","system_id":"levelo_inurba_marseille","lat":43.30887,"lon":5.3965,"is_reserved":false,"is_disabled":false,"rental_uris":{"android":"levelo://app?vid=9c31cb72-cb59-4364-a46a-842359c2e412","ios":"levelo://app?vid=9c31cb72-cb59-4364-a46a-842359c2e412"},"vehicle_type_id":"4","last_reported":1748365771,"current_range_meters":6400,"station_id":"ce4bh012rcd13ifvqcv0","pricing_plan_id":"cebpf4jnsgd1na2vs0mg"},{"bike_id":"f0b9e5bb-1243-40d0-b7ec-dbbccecb7bac","system_id":"levelo_inurba_marseille","lat":43.31326,"lon":5.39695,"is_reserved":false,"is_disabled":false,"rental_uris":{"android":"levelo://app?vid=f0b9e5bb-1243-40d0-b7ec-dbbccecb7bac","ios":"levelo://app?vid=f0b9e5bb-1243-40d0-b7ec-dbbccecb7bac"},"vehicle_type_id":"4","last_reported":1748365771,"current_range_meters":6800,"station_id":"ce4bgvp2rcd13ifvqcu0","pricing_plan_id":"cebpf4jnsgd1na2vs0mg"},{"bike_id":"64208e20-03bc-43f8-b4f1-217301f5cd95","system_id":"levelo_inurba_marseille","lat":43.27493,"lon":5.42446,"is_reserved":false,"is_disabled":false,"rental_uris":{"android":"levelo://app?vid=64208e20-03bc-43f8-b4f1-217301f5cd95","ios":"levelo://app?vid=64208e20-03bc-43f8-b4f1-217301f5cd95"},"vehicle_type_id":"4","last_reported":1748365771,"current_range_meters":6800,"station_id":"ce4bhn92rcd13ifvqgrg","pricing_plan_id":"cebpf4jnsgd1na2vs0mg"},{"bike_id":"747bb1a9-7697-489f-94b0-203d6313bffd","system_id":"levelo_inurba_marseille","lat":43.27383,"lon":5.3625,"is_reserved":false,"is_disabled":false,"rental_uris":{"android":"levelo://app?vid=747bb1a9-7697-489f-94b0-203d6313bffd","ios":"levelo://app?vid=747bb1a9-7697-489f-94b0-203d6313bffd"},"vehicle_type_id":"4","last_reported":1748365771,"current_range_meters":6800,"station_id":"ce4bhbh2rcd13ifvqeo0","pricing_plan_id":"cebpf4jnsgd1na2vs0mg"},{"bike_id":"eda2b6dc-29b3-4fa2-8996-e373e9b51a38","system_id":"levelo_inurba_marseille","lat":43.29262,"lon":5.38434,"is_reserved":false,"is_disabled":false,"rental_uris":{"android":"levelo://app?vid=eda2b6dc-29b3-4fa2-8996-e373e9b51a38","ios":"levelo://app?vid=eda2b6dc-29b3-4fa2-8996-e373e9b51a38"},"vehicle_type_id":"4","last_reported":1748365771,"current_range_meters":6800,"station_id":"ce4bh692rcd13ifvqea0","pricing_plan_id":"cebpf4jnsgd1na2vs0mg"},{"bike_id":"4fc7e9e7-d405-4b7d-bee6-511492573a57","system_id":"levelo_inurba_marseille","lat":43.24653,"lon":5.38896,"is_reserved":false,"is_disabled":false,"rental_uris":{"android":"levelo://app?vid=4fc7e9e7-d405-4b7d-bee6-511492573a57","ios":"levelo://app?vid=4fc7e9e7-d405-4b7d-bee6-511492573a57"},"vehicle_type_id":"4","last_reported":1748365771,"current_range_meters":6800,"station_id":"ce4bhg12rcd13ifvqf60","pricing_plan_id":"cebpf4jnsgd1na2vs0mg"},{"bike_id":"c9bbaf09-9237-45e5-9641-bc31c3e3a1b6","system_id":"levelo_inurba_marseille","lat":43.29058,"lon":5.37177,"is_reserved":false,"is_disabled":false,"rental_uris":{"android":"levelo://app?vid=c9bbaf09-9237-45e5-9641-bc31c3e3a1b6","ios":"levelo://app?vid=c9bbaf09-9237-45e5-9641-bc31c3e3a1b6"},"vehicle_type_id":"4","last_reported":1748365771,"current_range_meters":6800,"station_id":"ce4bh5p2rcd13ifvqe4g","pricing_plan_id":"cebpf4jnsgd1na2vs0mg"},{"bike_id":"c3a144ab-85ec-4786-a321-7c5bb1205492","system_id":"levelo_inurba_marseille","lat":43.25108,"lon":5.40327,"is_reserved":false,"is_disabled":false,"rental_uris":{"android":"levelo://app?vid=c3a144ab-85ec-4786-a321-7c5bb1205492","ios":"levelo://app?vid=c3a144ab-85ec-4786-a321-7c5bb1205492"},"vehicle_type_id":"4","last_reported":1748365771,"current_range_meters":6800,"station_id":"ce4bhlh2rcd13ifvqgig","pricing_plan_id":"cebpf4jnsgd1na2vs0mg"},{"bike_id":"c429b1ec-6814-46a9-92da-dfd1c375fcb9","system_id":"levelo_inurba_marseille","lat":43.28614,"lon":5.35104,"is_reserved":false,"is_disabled":false,"rental_uris":{"android":"levelo://app?vid=c429b1ec-6814-46a9-92da-dfd1c375fcb9","ios":"levelo://app?vid=c429b1ec-6814-46a9-92da-dfd1c375fcb9"},"vehicle_type_id":"4","last_reported":1748365771,"current_range_meters":6800,"station_id":"ce4bhch2rcd13ifvqeug","pricing_plan_id":"cebpf4jnsgd1na2vs0mg"},{"bike_id":"a1e7f76e-2a00-4db9-a82b-5b1fd1e7c94f","system_id":"levelo_inurba_marseille","lat":43.28272,"lon":5.35067,"is_reserved":false,"is_disabled":false,"rental_uris":{"android":"levelo://app?vid=a1e7f76e-2a00-4db9-a82b-5b1fd1e7c94f","ios":"levelo://app?vid=a1e7f76e-2a00-4db9-a82b-5b1fd1e7c94f"},"vehicle_type_id":"4","last_reported":1748365771,"current_range_meters":6800,"station_id":"ce4bhbp2rcd13ifvqerg","pricing_plan_id":"cebpf4jnsgd1na2vs0mg"},{"bike_id":"a7f52aa7-1f3f-41a2-80b5-3eb6f9b0d97f","system_id":"levelo_inurba_marseille","lat":43.270591,"lon":5.402572,"is_reserved":false,"is_disabled":false,"rental_uris":{"android":"levelo://app?vid=a7f52aa7-1f3f-41a2-80b5-3eb6f9b0d97f","ios":"levelo://app?vid=a7f52aa7-1f3f-41a2-80b5-3eb6f9b0d97f"},"vehicle_type_id":"4","last_reported":1748365771,"current_range_meters":6800,"station_id":"ce4bhk92rcd13ifvqgc0","pricing_plan_id":"cebpf4jnsgd1na2vs0mg"},{"bike_id":"ffb62584-bdba-4eff-b2b0-ac1ca5750d84","system_id":"levelo_inurba_marseille","lat":43.30885,"lon":5.372057,"is_reserved":false,"is_disabled":false,"rental_uris":{"android":"levelo://app?vid=ffb62584-bdba-4eff-b2b0-ac1ca5750d84","ios":"levelo://app?vid=ffb62584-bdba-4eff-b2b0-ac1ca5750d84"},"vehicle_type_id":"4","last_reported":1748365771,"current_range_meters":6800,"station_id":"ce4bguh2rcd13ifvqckg","pricing_plan_id":"cebpf4jnsgd1na2vs0mg"},{"bike_id":"b4688833-301d-42e2-8498-78a8d22d14ec","system_id":"levelo_inurba_marseille","lat":43.2558,"lon":5.38231,"is_reserved":false,"is_disabled":false,"rental_uris":{"android":"levelo://app?vid=b4688833-301d-42e2-8498-78a8d22d14ec","ios":"levelo://app?vid=b4688833-301d-42e2-8498-78a8d22d14ec"},"vehicle_type_id":"4","last_reported":1748365771,"current_range_meters":6800,"station_id":"ce4bhih2rcd13ifvqfs0","pricing_plan_id":"cebpf4jnsgd1na2vs0mg"},{"bike_id":"ba427878-d4b5-499c-9c37-5aebb61beb79","system_id":"levelo_inurba_marseille","lat":43.31355,"lon":5.38499,"is_reserved":false,"is_disabled":false,"rental_uris":{"android":"levelo://app?vid=ba427878-d4b5-499c-9c37-5aebb61beb79","ios":"levelo://app?vid=ba427878-d4b5-499c-9c37-5aebb61beb79"},"vehicle_type_id":"4","last_reported":1748365771,"current_range_meters":7200,"station_id":"ce4bgt92rcd13ifvqcf0","pricing_plan_id":"cebpf4jnsgd1na2vs0mg"},{"bike_id":"6fbbd879-609b-4138-9e4f-c53aaa2ce038","system_id":"levelo_inurba_marseille","lat":43.24809,"lon":5.374505,"is_reserved":false,"is_disabled":false,"rental_uris":{"android":"levelo://app?vid=6fbbd879-609b-4138-9e4f-c53aaa2ce038","ios":"levelo://app?vid=6fbbd879-609b-4138-9e4f-c53aaa2ce038"},"vehicle_type_id":"4","last_reported":1748365771,"current_range_meters":7200,"station_id":"ce4bhgh2rcd13ifvqfb0","pricing_plan_id":"cebpf4jnsgd1na2vs0mg"},{"bike_id":"f5462e11-e6bf-4dbf-b941-7276153f4ebe","system_id":"levelo_inurba_marseille","lat":43.26029,"lon":5.37552,"is_reserved":false,"is_disabled":false,"rental_uris":{"android":"levelo://app?vid=f5462e11-e6bf-4dbf-b941-7276153f4ebe","ios":"levelo://app?vid=f5462e11-e6bf-4dbf-b941-7276153f4ebe"},"vehicle_type_id":"4","last_reported":1748365771,"current_range_meters":7200,"station_id":"ce4bhgh2rcd13ifvqfa0","pricing_plan_id":"cebpf4jnsgd1na2vs0mg"},{"bike_id":"5799fbb3-ba74-4e75-b225-22ca9a278a72","system_id":"levelo_inurba_marseille","lat":43.28153,"lon":5.42648,"is_reserved":false,"is_disabled":false,"rental_uris":{"android":"levelo://app?vid=5799fbb3-ba74-4e75-b225-22ca9a278a72","ios":"levelo://app?vid=5799fbb3-ba74-4e75-b225-22ca9a278a72"},"vehicle_type_id":"4","last_reported":1748365771,"current_range_meters":7200,"station_id":"ce4bhnh2rcd13ifvqgug","pricing_plan_id":"cebpf4jnsgd1na2vs0mg"},{"bike_id":"c2b0a191-bf31-4e89-8dc5-11d646e535b1","system_id":"levelo_inurba_marseille","lat":43.254969,"lon":5.37649,"is_reserved":false,"is_disabled":false,"rental_uris":{"android":"levelo://app?vid=c2b0a191-bf31-4e89-8dc5-11d646e535b1","ios":"levelo://app?vid=c2b0a191-bf31-4e89-8dc5-11d646e535b1"},"vehicle_type_id":"4","last_reported":1748365771,"current_range_meters":7200,"station_id":"","pricing_plan_id":"cebpf4jnsgd1na2vs0mg"},{"bike_id":"4de9b7e5-eeb0-4157-a33c-ea0bec568ecd","system_id":"levelo_inurba_marseille","lat":43.26198,"lon":5.37915,"is_reserved":false,"is_disabled":false,"rental_uris":{"android":"levelo://app?vid=4de9b7e5-eeb0-4157-a33c-ea0bec568ecd","ios":"levelo://app?vid=4de9b7e5-eeb0-4157-a33c-ea0bec568ecd"},"vehicle_type_id":"4","last_reported":1748365771,"current_range_meters":7200,"station_id":"ce4bhjp2rcd13ifvqg90","pricing_plan_id":"cebpf4jnsgd1na2vs0mg"},{"bike_id":"5ca35038-9cdc-4b1c-bc59-25fbba490315","system_id":"levelo_inurba_marseille","lat":43.29228,"lon":5.36062,"is_reserved":false,"is_disabled":false,"rental_uris":{"android":"levelo://app?vid=5ca35038-9cdc-4b1c-bc59-25fbba490315","ios":"levelo://app?vid=5ca35038-9cdc-4b1c-bc59-25fbba490315"},"vehicle_type_id":"4","last_reported":1748365771,"current_range_meters":7200,"station_id":"ce4bhbh2rcd13ifvqeqg","pricing_plan_id":"cebpf4jnsgd1na2vs0mg"},{"bike_id":"c28e1273-bb77-4c62-8a7e-a3ddd5da71f0","system_id":"levelo_inurba_marseille","lat":43.29442,"lon":5.39759,"is_reserved":false,"is_disabled":false,"rental_uris":{"android":"levelo://app?vid=c28e1273-bb77-4c62-8a7e-a3ddd5da71f0","ios":"levelo://app?vid=c28e1273-bb77-4c62-8a7e-a3ddd5da71f0"},"vehicle_type_id":"4","last_reported":1748365771,"current_range_meters":7200,"station_id":"ce4bh3h2rcd13ifvqdo0","pricing_plan_id":"cebpf4jnsgd1na2vs0mg"},{"bike_id":"9cb34a09-e79d-48e1-85c9-af49f345d908","system_id":"levelo_inurba_marseille","lat":43.27908,"lon":5.38013,"is_reserved":false,"is_disabled":false,"rental_uris":{"android":"levelo://app?vid=9cb34a09-e79d-48e1-85c9-af49f345d908","ios":"levelo://app?vid=9cb34a09-e79d-48e1-85c9-af49f345d908"},"vehicle_type_id":"4","last_reported":1748365771,"current_range_meters":7200,"station_id":"ce4bhf92rcd13ifvqf50","pricing_plan_id":"cebpf4jnsgd1na2vs0mg"},{"bike_id":"23dc382c-60a8-4a09-8309-1755523a5986","system_id":"levelo_inurba_marseille","lat":43.28458,"lon":5.35875,"is_reserved":false,"is_disabled":false,"rental_uris":{"android":"levelo://app?vid=23dc382c-60a8-4a09-8309-1755523a5986","ios":"levelo://app?vid=23dc382c-60a8-4a09-8309-1755523a5986"},"vehicle_type_id":"4","last_reported":1748365771,"current_range_meters":8000,"station_id":"ce4bhah2rcd13ifvqei0","pricing_plan_id":"cebpf4jnsgd1na2vs0mg"},{"bike_id":"27a7b5a8-bcd7-4e2d-ae46-f9b97c5dc950","system_id":"levelo_inurba_marseille","lat":43.28738,"lon":5.3997,"is_reserved":false,"is_disabled":false,"rental_uris":{"android":"levelo://app?vid=27a7b5a8-bcd7-4e2d-ae46-f9b97c5dc950","ios":"levelo://app?vid=27a7b5a8-bcd7-4e2d-ae46-f9b97c5dc950"},"vehicle_type_id":"4","last_reported":1748365771,"current_range_meters":8000,"station_id":"ce4bho92rcd13ifvqh3g","pricing_plan_id":"cebpf4jnsgd1na2vs0mg"},{"bike_id":"7f2350a8-abd8-438c-883e-de036e973d39","system_id":"levelo_inurba_marseille","lat":43.32355,"lon":5.40594,"is_reserved":false,"is_disabled":false,"rental_uris":{"android":"levelo://app?vid=7f2350a8-abd8-438c-883e-de036e973d39","ios":"levelo://app?vid=7f2350a8-abd8-438c-883e-de036e973d39"},"vehicle_type_id":"4","last_reported":1748365771,"current_range_meters":8000,"station_id":"ce4bhq92rcd13ifvqhjg","pricing_plan_id":"cebpf4jnsgd1na2vs0mg"},{"bike_id":"1098cdee-3aca-453d-8e2b-d853154e5bc9","system_id":"levelo_inurba_marseille","lat":43.31081,"lon":5.42429,"is_reserved":false,"is_disabled":false,"rental_uris":{"android":"levelo://app?vid=1098cdee-3aca-453d-8e2b-d853154e5bc9","ios":"levelo://app?vid=1098cdee-3aca-453d-8e2b-d853154e5bc9"},"vehicle_type_id":"4","last_reported":1748365771,"current_range_meters":8000,"station_id":"ce4bhp92rcd13ifvqhag","pricing_plan_id":"cebpf4jnsgd1na2vs0mg"},{"bike_id":"05391537-4a0f-4817-b79c-d306d489ee80","system_id":"levelo_inurba_marseille","lat":43.2508,"lon":5.40378,"is_reserved":false,"is_disabled":false,"rental_uris":{"android":"levelo://app?vid=05391537-4a0f-4817-b79c-d306d489ee80","ios":"levelo://app?vid=05391537-4a0f-4817-b79c-d306d489ee80"},"vehicle_type_id":"4","last_reported":1748365771,"current_range_meters":8000,"station_id":"","pricing_plan_id":"cebpf4jnsgd1na2vs0mg"},{"bike_id":"03d9168f-4766-4712-8c33-4826039afe84","system_id":"levelo_inurba_marseille","lat":43.21744,"lon":5.34604,"is_reserved":false,"is_disabled":false,"rental_uris":{"android":"levelo://app?vid=03d9168f-4766-4712-8c33-4826039afe84","ios":"levelo://app?vid=03d9168f-4766-4712-8c33-4826039afe84"},"vehicle_type_id":"4","last_reported":1748365771,"current_range_meters":8000,"station_id":"st_cvj6r9ubvosntc0bgbag","pricing_plan_id":"cebpf4jnsgd1na2vs0mg"},{"bike_id":"01171cee-fcb1-4fb7-8bcd-54d175f65b79","system_id":"levelo_inurba_marseille","lat":43.28619,"lon":5.35098,"is_reserved":false,"is_disabled":false,"rental_uris":{"android":"levelo://app?vid=01171cee-fcb1-4fb7-8bcd-54d175f65b79","ios":"levelo://app?vid=01171cee-fcb1-4fb7-8bcd-54d175f65b79"},"vehicle_type_id":"4","last_reported":1748365771,"current_range_meters":8000,"station_id":"ce4bhch2rcd13ifvqeug","pricing_plan_id":"cebpf4jnsgd1na2vs0mg"},{"bike_id":"92c20333-f1be-4048-8f1a-30fdeff2a990","system_id":"levelo_inurba_marseille","lat":43.3303,"lon":5.390383,"is_reserved":false,"is_disabled":false,"rental_uris":{"android":"levelo://app?vid=92c20333-f1be-4048-8f1a-30fdeff2a990","ios":"levelo://app?vid=92c20333-f1be-4048-8f1a-30fdeff2a990"},"vehicle_type_id":"4","last_reported":1748365771,"current_range_meters":8000,"station_id":"ce4bhr92rcd13ifvqhrg","pricing_plan_id":"cebpf4jnsgd1na2vs0mg"},{"bike_id":"73166485-ff3a-4dc7-8be4-957eca43c14b","system_id":"levelo_inurba_marseille","lat":43.31689,"lon":5.40482,"is_reserved":false,"is_disabled":false,"rental_uris":{"android":"levelo://app?vid=73166485-ff3a-4dc7-8be4-957eca43c14b","ios":"levelo://app?vid=73166485-ff3a-4dc7-8be4-957eca43c14b"},"vehicle_type_id":"4","last_reported":1748365771,"current_range_meters":8000,"station_id":"ce4bh012rcd13ifvqd00","pricing_plan_id":"cebpf4jnsgd1na2vs0mg"},{"bike_id":"84d577c9-0030-4753-88b4-b1b78a95dd89","system_id":"levelo_inurba_marseille","lat":43.24811,"lon":5.37458,"is_reserved":false,"is_disabled":false,"rental_uris":{"android":"levelo://app?vid=84d577c9-0030-4753-88b4-b1b78a95dd89","ios":"levelo://app?vid=84d577c9-0030-4753-88b4-b1b78a95dd89"},"vehicle_type_id":"4","last_reported":1748365771,"current_range_meters":8000,"station_id":"ce4bhgh2rcd13ifvqfb0","pricing_plan_id":"cebpf4jnsgd1na2vs0mg"},{"bike_id":"8385589e-fd78-4131-9913-fe48cccb6a67","system_id":"levelo_inurba_marseille","lat":43.23175,"lon":5.35603,"is_reserved":false,"is_disabled":false,"rental_uris":{"android":"levelo://app?vid=8385589e-fd78-4131-9913-fe48cccb6a67","ios":"levelo://app?vid=8385589e-fd78-4131-9913-fe48cccb6a67"},"vehicle_type_id":"4","last_reported":1748365771,"current_range_meters":8000,"station_id":"ce4bhu92rcd13ifvqi70","pricing_plan_id":"cebpf4jnsgd1na2vs0mg"},{"bike_id":"7c8efeaa-6aef-466a-ab30-9431a8acdb7e","system_id":"levelo_inurba_marseille","lat":43.30887,"lon":5.39663,"is_reserved":false,"is_disabled":false,"rental_uris":{"android":"levelo://app?vid=7c8efeaa-6aef-466a-ab30-9431a8acdb7e","ios":"levelo://app?vid=7c8efeaa-6aef-466a-ab30-9431a8acdb7e"},"vehicle_type_id":"4","last_reported":1748365771,"current_range_meters":8400,"station_id":"ce4bh012rcd13ifvqcv0","pricing_plan_id":"cebpf4jnsgd1na2vs0mg"},{"bike_id":"a9a04bc4-33e3-4179-9d08-eab25915b2fc","system_id":"levelo_inurba_marseille","lat":43.25584,"lon":5.38232,"is_reserved":false,"is_disabled":false,"rental_uris":{"android":"levelo://app?vid=a9a04bc4-33e3-4179-9d08-eab25915b2fc","ios":"levelo://app?vid=a9a04bc4-33e3-4179-9d08-eab25915b2fc"},"vehicle_type_id":"4","last_reported":1748365771,"current_range_meters":8400,"station_id":"ce4bhih2rcd13ifvqfs0","pricing_plan_id":"cebpf4jnsgd1na2vs0mg"},{"bike_id":"ae6e6868-2635-4f49-b7c1-b03759c58ec7","system_id":"levelo_inurba_marseille","lat":43.27304,"lon":5.41621,"is_reserved":false,"is_disabled":false,"rental_uris":{"android":"levelo://app?vid=ae6e6868-2635-4f49-b7c1-b03759c58ec7","ios":"levelo://app?vid=ae6e6868-2635-4f49-b7c1-b03759c58ec7"},"vehicle_type_id":"4","last_reported":1748365771,"current_range_meters":8400,"station_id":"","pricing_plan_id":"cebpf4jnsgd1na2vs0mg"},{"bike_id":"ee617531-7300-4958-baa3-db4f90ad5721","system_id":"levelo_inurba_marseille","lat":43.258218,"lon":5.394362,"is_reserved":false,"is_disabled":false,"rental_uris":{"android":"levelo://app?vid=ee617531-7300-4958-baa3-db4f90ad5721","ios":"levelo://app?vid=ee617531-7300-4958-baa3-db4f90ad5721"},"vehicle_type_id":"4","last_reported":1748365771,"current_range_meters":8400,"station_id":"ce4bhip2rcd13ifvqft0","pricing_plan_id":"cebpf4jnsgd1na2vs0mg"},{"bike_id":"46f8bced-82cb-4157-ac6b-cc46c8ff4fec","system_id":"levelo_inurba_marseille","lat":43.28721,"lon":5.37944,"is_reserved":false,"is_disabled":false,"rental_uris":{"android":"levelo://app?vid=46f8bced-82cb-4157-ac6b-cc46c8ff4fec","ios":"levelo://app?vid=46f8bced-82cb-4157-ac6b-cc46c8ff4fec"},"vehicle_type_id":"4","last_reported":1748365771,"current_range_meters":8400,"station_id":"ce4bh9p2rcd13ifvqec0","pricing_plan_id":"cebpf4jnsgd1na2vs0mg"},{"bike_id":"981da2eb-6178-416f-9149-d1d28cffbc25","system_id":"levelo_inurba_marseille","lat":43.30796,"lon":5.43521,"is_reserved":false,"is_disabled":false,"rental_uris":{"android":"levelo://app?vid=981da2eb-6178-416f-9149-d1d28cffbc25","ios":"levelo://app?vid=981da2eb-6178-416f-9149-d1d28cffbc25"},"vehicle_type_id":"4","last_reported":1748365771,"current_range_meters":8400,"station_id":"ce4bhph2rcd13ifvqheg","pricing_plan_id":"cebpf4jnsgd1na2vs0mg"},{"bike_id":"45c941a7-9562-4778-ae0c-86ddbaf5a628","system_id":"levelo_inurba_marseille","lat":43.24546,"lon":5.39529,"is_reserved":false,"is_disabled":false,"rental_uris":{"android":"levelo://app?vid=45c941a7-9562-4778-ae0c-86ddbaf5a628","ios":"levelo://app?vid=45c941a7-9562-4778-ae0c-86ddbaf5a628"},"vehicle_type_id":"4","last_reported":1748365771,"current_range_meters":8400,"station_id":"ce4bhlp2rcd13ifvqgjg","pricing_plan_id":"cebpf4jnsgd1na2vs0mg"},{"bike_id":"a29a2708-797f-4e9a-9f1a-17352bf6f3db","system_id":"levelo_inurba_marseille","lat":43.27317,"lon":5.39099,"is_reserved":false,"is_disabled":true,"rental_uris":{"android":"levelo://app?vid=a29a2708-797f-4e9a-9f1a-17352bf6f3db","ios":"levelo://app?vid=a29a2708-797f-4e9a-9f1a-17352bf6f3db"},"vehicle_type_id":"4","last_reported":1748365771,"current_range_meters":8400,"station_id":"ce4bhgp2rcd13ifvqfe0","pricing_plan_id":"cebpf4jnsgd1na2vs0mg"},{"bike_id":"72e1b86c-c6b2-40c1-ba5d-9a78739146cc","system_id":"levelo_inurba_marseille","lat":43.299682,"lon":5.384941,"is_reserved":false,"is_disabled":false,"rental_uris":{"android":"levelo://app?vid=72e1b86c-c6b2-40c1-ba5d-9a78739146cc","ios":"levelo://app?vid=72e1b86c-c6b2-40c1-ba5d-9a78739146cc"},"vehicle_type_id":"4","last_reported":1748365771,"current_range_meters":8400,"station_id":"ce4bgj92rcd13ifvqbd0","pricing_plan_id":"cebpf4jnsgd1na2vs0mg"},{"bike_id":"94f81dc8-c1e2-4372-947f-5020cb9bb12f","system_id":"levelo_inurba_marseille","lat":43.27836,"lon":5.39205,"is_reserved":false,"is_disabled":false,"rental_uris":{"android":"levelo://app?vid=94f81dc8-c1e2-4372-947f-5020cb9bb12f","ios":"levelo://app?vid=94f81dc8-c1e2-4372-947f-5020cb9bb12f"},"vehicle_type_id":"4","last_reported":1748365771,"current_range_meters":8400,"station_id":"ce4bhjp2rcd13ifvqga0","pricing_plan_id":"cebpf4jnsgd1na2vs0mg"},{"bike_id":"e9f0721e-bc25-4354-90b7-7f7de3797b76","system_id":"levelo_inurba_marseille","lat":43.29921,"lon":5.37486,"is_reserved":false,"is_disabled":false,"rental_uris":{"android":"levelo://app?vid=e9f0721e-bc25-4354-90b7-7f7de3797b76","ios":"levelo://app?vid=e9f0721e-bc25-4354-90b7-7f7de3797b76"},"vehicle_type_id":"4","last_reported":1748365771,"current_range_meters":8400,"station_id":"ce4bgjh2rcd13ifvqbg0","pricing_plan_id":"cebpf4jnsgd1na2vs0mg"},{"bike_id":"760bcd8b-a4e0-4b4e-bedb-6462d7843576","system_id":"levelo_inurba_marseille","lat":43.29268,"lon":5.3684,"is_reserved":false,"is_disabled":true,"rental_uris":{"android":"levelo://app?vid=760bcd8b-a4e0-4b4e-bedb-6462d7843576","ios":"levelo://app?vid=760bcd8b-a4e0-4b4e-bedb-6462d7843576"},"vehicle_type_id":"4","last_reported":1748365771,"current_range_meters":8800,"station_id":"ce4bhbp2rcd13ifvqesg","pricing_plan_id":"cebpf4jnsgd1na2vs0mg"},{"bike_id":"1b347941-144c-4aaf-9cfa-5183edb203e0","system_id":"levelo_inurba_marseille","lat":43.28615,"lon":5.35108,"is_reserved":false,"is_disabled":false,"rental_uris":{"android":"levelo://app?vid=1b347941-144c-4aaf-9cfa-5183edb203e0","ios":"levelo://app?vid=1b347941-144c-4aaf-9cfa-5183edb203e0"},"vehicle_type_id":"4","last_reported":1748365771,"current_range_meters":8800,"station_id":"ce4bhch2rcd13ifvqeug","pricing_plan_id":"cebpf4jnsgd1na2vs0mg"},{"bike_id":"3ea55e64-f024-4390-848a-92e213596eff","system_id":"levelo_inurba_marseille","lat":43.30138,"lon":5.3987,"is_reserved":false,"is_disabled":false,"rental_uris":{"android":"levelo://app?vid=3ea55e64-f024-4390-848a-92e213596eff","ios":"levelo://app?vid=3ea55e64-f024-4390-848a-92e213596eff"},"vehicle_type_id":"4","last_reported":1748365771,"current_range_meters":8800,"station_id":"ce4bh0h2rcd13ifvqd40","pricing_plan_id":"cebpf4jnsgd1na2vs0mg"},{"bike_id":"eca5227f-ad71-4eec-8d56-db1194102939","system_id":"levelo_inurba_marseille","lat":43.27495,"lon":5.42451,"is_reserved":false,"is_disabled":false,"rental_uris":{"android":"levelo://app?vid=eca5227f-ad71-4eec-8d56-db1194102939","ios":"levelo://app?vid=eca5227f-ad71-4eec-8d56-db1194102939"},"vehicle_type_id":"4","last_reported":1748365771,"current_range_meters":8800,"station_id":"ce4bhn92rcd13ifvqgrg","pricing_plan_id":"cebpf4jnsgd1na2vs0mg"},{"bike_id":"7e823e3b-1b92-4735-8533-dc1341b80eaf","system_id":"levelo_inurba_marseille","lat":43.23056,"lon":5.354969,"is_reserved":false,"is_disabled":true,"rental_uris":{"android":"levelo://app?vid=7e823e3b-1b92-4735-8533-dc1341b80eaf","ios":"levelo://app?vid=7e823e3b-1b92-4735-8533-dc1341b80eaf"},"vehicle_type_id":"4","last_reported":1748365771,"current_range_meters":8800,"station_id":"cpo3342slgdg3j2ifvpg","pricing_plan_id":"cebpf4jnsgd1na2vs0mg"},{"bike_id":"1a0998e5-8bb9-474f-a827-53cad24c9e8f","system_id":"levelo_inurba_marseille","lat":43.32024,"lon":5.44952,"is_reserved":false,"is_disabled":false,"rental_uris":{"android":"levelo://app?vid=1a0998e5-8bb9-474f-a827-53cad24c9e8f","ios":"levelo://app?vid=1a0998e5-8bb9-474f-a827-53cad24c9e8f"},"vehicle_type_id":"4","last_reported":1748365771,"current_range_meters":9200,"station_id":"","pricing_plan_id":"cebpf4jnsgd1na2vs0mg"},{"bike_id":"1c735fde-e9d3-4eed-8ea3-559b693d814f","system_id":"levelo_inurba_marseille","lat":43.2795,"lon":5.41044,"is_reserved":false,"is_disabled":false,"rental_uris":{"android":"levelo://app?vid=1c735fde-e9d3-4eed-8ea3-559b693d814f","ios":"levelo://app?vid=1c735fde-e9d3-4eed-8ea3-559b693d814f"},"vehicle_type_id":"4","last_reported":1748365771,"current_range_meters":9200,"station_id":"ce4bhnp2rcd13ifvqh0g","pricing_plan_id":"cebpf4jnsgd1na2vs0mg"},{"bike_id":"f4dd589b-5b58-470a-a2c9-9de3a4398e71","system_id":"levelo_inurba_marseille","lat":43.22933,"lon":5.35375,"is_reserved":false,"is_disabled":false,"rental_uris":{"android":"levelo://app?vid=f4dd589b-5b58-470a-a2c9-9de3a4398e71","ios":"levelo://app?vid=f4dd589b-5b58-470a-a2c9-9de3a4398e71"},"vehicle_type_id":"4","last_reported":1748365771,"current_range_meters":9200,"station_id":"cpo3532slgdg3j2ikp40","pricing_plan_id":"cebpf4jnsgd1na2vs0mg"},{"bike_id":"1f26316d-0be8-436a-b191-331f225ba69c","system_id":"levelo_inurba_marseille","lat":43.32061,"lon":5.41546,"is_reserved":false,"is_disabled":false,"rental_uris":{"android":"levelo://app?vid=1f26316d-0be8-436a-b191-331f225ba69c","ios":"levelo://app?vid=1f26316d-0be8-436a-b191-331f225ba69c"},"vehicle_type_id":"4","last_reported":1748365771,"current_range_meters":9200,"station_id":"ce4bhq92rcd13ifvqhkg","pricing_plan_id":"cebpf4jnsgd1na2vs0mg"},{"bike_id":"4fcaaf82-4266-4b44-9b0b-2ec993801c73","system_id":"levelo_inurba_marseille","lat":43.24385,"lon":5.37056,"is_reserved":false,"is_disabled":false,"rental_uris":{"android":"levelo://app?vid=4fcaaf82-4266-4b44-9b0b-2ec993801c73","ios":"levelo://app?vid=4fcaaf82-4266-4b44-9b0b-2ec993801c73"},"vehicle_type_id":"4","last_reported":1748365771,"current_range_meters":9200,"station_id":"ce4bhhh2rcd13ifvqfk0","pricing_plan_id":"cebpf4jnsgd1na2vs0mg"},{"bike_id":"b2e621a5-e23b-4624-97cc-9fb430b4be4f","system_id":"levelo_inurba_marseille","lat":43.30047,"lon":5.39956,"is_reserved":false,"is_disabled":false,"rental_uris":{"android":"levelo://app?vid=b2e621a5-e23b-4624-97cc-9fb430b4be4f","ios":"levelo://app?vid=b2e621a5-e23b-4624-97cc-9fb430b4be4f"},"vehicle_type_id":"4","last_reported":1748365771,"current_range_meters":9200,"station_id":"ce4bh0h2rcd13ifvqd40","pricing_plan_id":"cebpf4jnsgd1na2vs0mg"},{"bike_id":"ecec0dbe-0ccb-470d-bc6b-7e71f374730a","system_id":"levelo_inurba_marseille","lat":43.23964,"lon":5.36615,"is_reserved":false,"is_disabled":false,"rental_uris":{"android":"levelo://app?vid=ecec0dbe-0ccb-470d-bc6b-7e71f374730a","ios":"levelo://app?vid=ecec0dbe-0ccb-470d-bc6b-7e71f374730a"},"vehicle_type_id":"4","last_reported":1748365771,"current_range_meters":9200,"station_id":"ce4bhi12rcd13ifvqfp0","pricing_plan_id":"cebpf4jnsgd1na2vs0mg"},{"bike_id":"3e2dc4c8-f9cf-4ea8-a48f-0737038249ae","system_id":"levelo_inurba_marseille","lat":43.27376,"lon":5.36254,"is_reserved":false,"is_disabled":false,"rental_uris":{"android":"levelo://app?vid=3e2dc4c8-f9cf-4ea8-a48f-0737038249ae","ios":"levelo://app?vid=3e2dc4c8-f9cf-4ea8-a48f-0737038249ae"},"vehicle_type_id":"4","last_reported":1748365771,"current_range_meters":9200,"station_id":"ce4bhbh2rcd13ifvqeo0","pricing_plan_id":"cebpf4jnsgd1na2vs0mg"},{"bike_id":"02cbaefb-0cf0-452e-bf5c-31716102df9d","system_id":"levelo_inurba_marseille","lat":43.28353,"lon":5.38108,"is_reserved":false,"is_disabled":false,"rental_uris":{"android":"levelo://app?vid=02cbaefb-0cf0-452e-bf5c-31716102df9d","ios":"levelo://app?vid=02cbaefb-0cf0-452e-bf5c-31716102df9d"},"vehicle_type_id":"4","last_reported":1748365771,"current_range_meters":9200,"station_id":"ce4bh412rcd13ifvqdr0","pricing_plan_id":"cebpf4jnsgd1na2vs0mg"},{"bike_id":"1ba3c726-2241-45f2-9397-0519c9f9ddc7","system_id":"levelo_inurba_marseille","lat":43.27379,"lon":5.362603,"is_reserved":false,"is_disabled":false,"rental_uris":{"android":"levelo://app?vid=1ba3c726-2241-45f2-9397-0519c9f9ddc7","ios":"levelo://app?vid=1ba3c726-2241-45f2-9397-0519c9f9ddc7"},"vehicle_type_id":"4","last_reported":1748365771,"current_range_meters":9200,"station_id":"ce4bhbh2rcd13ifvqeo0","pricing_plan_id":"cebpf4jnsgd1na2vs0mg"},{"bike_id":"525d9027-82c3-4f9b-a40a-3e1d19882a55","system_id":"levelo_inurba_marseille","lat":43.330293,"lon":5.390355,"is_reserved":false,"is_disabled":false,"rental_uris":{"android":"levelo://app?vid=525d9027-82c3-4f9b-a40a-3e1d19882a55","ios":"levelo://app?vid=525d9027-82c3-4f9b-a40a-3e1d19882a55"},"vehicle_type_id":"4","last_reported":1748365771,"current_range_meters":9200,"station_id":"ce4bhr92rcd13ifvqhrg","pricing_plan_id":"cebpf4jnsgd1na2vs0mg"},{"bike_id":"4fcb3cec-00e3-4a61-a16d-66972d29e5a2","system_id":"levelo_inurba_marseille","lat":43.29007,"lon":5.356185,"is_reserved":false,"is_disabled":false,"rental_uris":{"android":"levelo://app?vid=4fcb3cec-00e3-4a61-a16d-66972d29e5a2","ios":"levelo://app?vid=4fcb3cec-00e3-4a61-a16d-66972d29e5a2"},"vehicle_type_id":"4","last_reported":1748365771,"current_range_meters":9600,"station_id":"ce4bhb92rcd13ifvqen0","pricing_plan_id":"cebpf4jnsgd1na2vs0mg"},{"bike_id":"dae3fc33-4b95-47d2-a716-b028de3acbc1","system_id":"levelo_inurba_marseille","lat":43.2862,"lon":5.35107,"is_reserved":false,"is_disabled":false,"rental_uris":{"android":"levelo://app?vid=dae3fc33-4b95-47d2-a716-b028de3acbc1","ios":"levelo://app?vid=dae3fc33-4b95-47d2-a716-b028de3acbc1"},"vehicle_type_id":"4","last_reported":1748365771,"current_range_meters":9600,"station_id":"ce4bhch2rcd13ifvqeug","pricing_plan_id":"cebpf4jnsgd1na2vs0mg"},{"bike_id":"692ecb6d-c6f9-4e19-9816-466281057ca3","system_id":"levelo_inurba_marseille","lat":43.2781,"lon":5.40711,"is_reserved":false,"is_disabled":false,"rental_uris":{"android":"levelo://app?vid=692ecb6d-c6f9-4e19-9816-466281057ca3","ios":"levelo://app?vid=692ecb6d-c6f9-4e19-9816-466281057ca3"},"vehicle_type_id":"4","last_reported":1748365771,"current_range_meters":9600,"station_id":"ce4bhnh2rcd13ifvqgtg","pricing_plan_id":"cebpf4jnsgd1na2vs0mg"},{"bike_id":"53169dad-b034-4782-b23a-3221d443f82f","system_id":"levelo_inurba_marseille","lat":43.31225,"lon":5.36871,"is_reserved":false,"is_disabled":false,"rental_uris":{"android":"levelo://app?vid=53169dad-b034-4782-b23a-3221d443f82f","ios":"levelo://app?vid=53169dad-b034-4782-b23a-3221d443f82f"},"vehicle_type_id":"4","last_reported":1748365771,"current_range_meters":9600,"station_id":"ce4bgl92rcd13ifvqbq0","pricing_plan_id":"cebpf4jnsgd1na2vs0mg"},{"bike_id":"0c3b3d98-70f9-48a9-aff5-9154b368bb9b","system_id":"levelo_inurba_marseille","lat":43.28155,"lon":5.42647,"is_reserved":false,"is_disabled":false,"rental_uris":{"android":"levelo://app?vid=0c3b3d98-70f9-48a9-aff5-9154b368bb9b","ios":"levelo://app?vid=0c3b3d98-70f9-48a9-aff5-9154b368bb9b"},"vehicle_type_id":"4","last_reported":1748365771,"current_range_meters":9600,"station_id":"ce4bhnh2rcd13ifvqgug","pricing_plan_id":"cebpf4jnsgd1na2vs0mg"},{"bike_id":"a705c57d-b2e0-4a4e-8a70-cb45411d63e3","system_id":"levelo_inurba_marseille","lat":43.28405,"lon":5.3499,"is_reserved":false,"is_disabled":false,"rental_uris":{"android":"levelo://app?vid=a705c57d-b2e0-4a4e-8a70-cb45411d63e3","ios":"levelo://app?vid=a705c57d-b2e0-4a4e-8a70-cb45411d63e3"},"vehicle_type_id":"4","last_reported":1748365771,"current_range_meters":9600,"station_id":"ce4bhbh2rcd13ifvqepg","pricing_plan_id":"cebpf4jnsgd1na2vs0mg"},{"bike_id":"77dbee3f-c7a2-4331-b917-03ab734ccc1b","system_id":"levelo_inurba_marseille","lat":43.28854,"lon":5.3583,"is_reserved":false,"is_disabled":false,"rental_uris":{"android":"levelo://app?vid=77dbee3f-c7a2-4331-b917-03ab734ccc1b","ios":"levelo://app?vid=77dbee3f-c7a2-4331-b917-03ab734ccc1b"},"vehicle_type_id":"4","last_reported":1748365771,"current_range_meters":9600,"station_id":"ce4bhb12rcd13ifvqem0","pricing_plan_id":"cebpf4jnsgd1na2vs0mg"},{"bike_id":"186c0979-18e1-44aa-8cbd-380b3df7b675","system_id":"levelo_inurba_marseille","lat":43.23179,"lon":5.39984,"is_reserved":false,"is_disabled":true,"rental_uris":{"android":"levelo://app?vid=186c0979-18e1-44aa-8cbd-380b3df7b675","ios":"levelo://app?vid=186c0979-18e1-44aa-8cbd-380b3df7b675"},"vehicle_type_id":"4","last_reported":1748365771,"current_range_meters":9600,"station_id":"ce4bhn12rcd13ifvqgqg","pricing_plan_id":"cebpf4jnsgd1na2vs0mg"},{"bike_id":"7f7cd654-fc63-4ff5-be4c-ba667b77c310","system_id":"levelo_inurba_marseille","lat":43.25576,"lon":5.3824,"is_reserved":false,"is_disabled":false,"rental_uris":{"android":"levelo://app?vid=7f7cd654-fc63-4ff5-be4c-ba667b77c310","ios":"levelo://app?vid=7f7cd654-fc63-4ff5-be4c-ba667b77c310"},"vehicle_type_id":"4","last_reported":1748365771,"current_range_meters":9600,"station_id":"ce4bhih2rcd13ifvqfs0","pricing_plan_id":"cebpf4jnsgd1na2vs0mg"},{"bike_id":"55a74ffb-df66-4da5-8f67-bfbb6a09d7c7","system_id":"levelo_inurba_marseille","lat":43.28484,"lon":5.38421,"is_reserved":false,"is_disabled":false,"rental_uris":{"android":"levelo://app?vid=55a74ffb-df66-4da5-8f67-bfbb6a09d7c7","ios":"levelo://app?vid=55a74ffb-df66-4da5-8f67-bfbb6a09d7c7"},"vehicle_type_id":"4","last_reported":1748365771,"current_range_meters":9600,"station_id":"ce4bh512rcd13ifvqe3g","pricing_plan_id":"cebpf4jnsgd1na2vs0mg"},{"bike_id":"e45357ce-599a-418b-98fa-474acbb41b35","system_id":"levelo_inurba_marseille","lat":43.27374,"lon":5.36255,"is_reserved":false,"is_disabled":false,"rental_uris":{"android":"levelo://app?vid=e45357ce-599a-418b-98fa-474acbb41b35","ios":"levelo://app?vid=e45357ce-599a-418b-98fa-474acbb41b35"},"vehicle_type_id":"4","last_reported":1748365771,"current_range_meters":10000,"station_id":"ce4bhbh2rcd13ifvqeo0","pricing_plan_id":"cebpf4jnsgd1na2vs0mg"},{"bike_id":"e6c65de3-7d92-4979-809c-6677188473c0","system_id":"levelo_inurba_marseille","lat":43.337598,"lon":5.374632,"is_reserved":false,"is_disabled":false,"rental_uris":{"android":"levelo://app?vid=e6c65de3-7d92-4979-809c-6677188473c0","ios":"levelo://app?vid=e6c65de3-7d92-4979-809c-6677188473c0"},"vehicle_type_id":"4","last_reported":1748365771,"current_range_meters":10000,"station_id":"","pricing_plan_id":"cebpf4jnsgd1na2vs0mg"},{"bike_id":"6ef27e84-462a-46f9-afe5-e09b209cc7f0","system_id":"levelo_inurba_marseille","lat":43.331128,"lon":5.362025,"is_reserved":false,"is_disabled":false,"rental_uris":{"android":"levelo://app?vid=6ef27e84-462a-46f9-afe5-e09b209cc7f0","ios":"levelo://app?vid=6ef27e84-462a-46f9-afe5-e09b209cc7f0"},"vehicle_type_id":"4","last_reported":1748365771,"current_range_meters":10000,"station_id":"","pricing_plan_id":"cebpf4jnsgd1na2vs0mg"},{"bike_id":"31eb1c1c-c5a5-4f60-aaa0-7dd8c371696a","system_id":"levelo_inurba_marseille","lat":43.27959,"lon":5.41045,"is_reserved":false,"is_disabled":true,"rental_uris":{"android":"levelo://app?vid=31eb1c1c-c5a5-4f60-aaa0-7dd8c371696a","ios":"levelo://app?vid=31eb1c1c-c5a5-4f60-aaa0-7dd8c371696a"},"vehicle_type_id":"4","last_reported":1748365771,"current_range_meters":10000,"station_id":"ce4bhnp2rcd13ifvqh0g","pricing_plan_id":"cebpf4jnsgd1na2vs0mg"},{"bike_id":"3aa26842-d4b0-4f93-8cb2-3f56b933c125","system_id":"levelo_inurba_marseille","lat":43.24803,"lon":5.37458,"is_reserved":false,"is_disabled":false,"rental_uris":{"android":"levelo://app?vid=3aa26842-d4b0-4f93-8cb2-3f56b933c125","ios":"levelo://app?vid=3aa26842-d4b0-4f93-8cb2-3f56b933c125"},"vehicle_type_id":"4","last_reported":1748365771,"current_range_meters":10000,"station_id":"ce4bhgh2rcd13ifvqfb0","pricing_plan_id":"cebpf4jnsgd1na2vs0mg"},{"bike_id":"dee8ef28-e939-4b50-88c6-6ed572df9174","system_id":"levelo_inurba_marseille","lat":43.29202,"lon":5.39333,"is_reserved":false,"is_disabled":false,"rental_uris":{"android":"levelo://app?vid=dee8ef28-e939-4b50-88c6-6ed572df9174","ios":"levelo://app?vid=dee8ef28-e939-4b50-88c6-6ed572df9174"},"vehicle_type_id":"4","last_reported":1748365771,"current_range_meters":10000,"station_id":"ce4bh192rcd13ifvqdd0","pricing_plan_id":"cebpf4jnsgd1na2vs0mg"},{"bike_id":"aa523b3b-1161-4c69-b17a-5d05652fd9cf","system_id":"levelo_inurba_marseille","lat":43.29098,"lon":5.38126,"is_reserved":false,"is_disabled":false,"rental_uris":{"android":"levelo://app?vid=aa523b3b-1161-4c69-b17a-5d05652fd9cf","ios":"levelo://app?vid=aa523b3b-1161-4c69-b17a-5d05652fd9cf"},"vehicle_type_id":"4","last_reported":1748365771,"current_range_meters":10000,"station_id":"ce4bh512rcd13ifvqe2g","pricing_plan_id":"cebpf4jnsgd1na2vs0mg"},{"bike_id":"159f42d2-0aa7-4987-8624-28556d6a1f7a","system_id":"levelo_inurba_marseille","lat":43.28153,"lon":5.42647,"is_reserved":false,"is_disabled":false,"rental_uris":{"android":"levelo://app?vid=159f42d2-0aa7-4987-8624-28556d6a1f7a","ios":"levelo://app?vid=159f42d2-0aa7-4987-8624-28556d6a1f7a"},"vehicle_type_id":"4","last_reported":1748365771,"current_range_meters":9600,"station_id":"ce4bhnh2rcd13ifvqgug","pricing_plan_id":"cebpf4jnsgd1na2vs0mg"},{"bike_id":"b11c62d7-3c84-4407-b897-fc138f717460","system_id":"levelo_inurba_marseille","lat":43.22935,"lon":5.35384,"is_reserved":false,"is_disabled":false,"rental_uris":{"android":"levelo://app?vid=b11c62d7-3c84-4407-b897-fc138f717460","ios":"levelo://app?vid=b11c62d7-3c84-4407-b897-fc138f717460"},"vehicle_type_id":"4","last_reported":1748365771,"current_range_meters":10000,"station_id":"cpo3532slgdg3j2ikp40","pricing_plan_id":"cebpf4jnsgd1na2vs0mg"},{"bike_id":"31c27a05-c47c-4f13-9daf-a6c010027957","system_id":"levelo_inurba_marseille","lat":43.273717,"lon":5.362543,"is_reserved":false,"is_disabled":false,"rental_uris":{"android":"levelo://app?vid=31c27a05-c47c-4f13-9daf-a6c010027957","ios":"levelo://app?vid=31c27a05-c47c-4f13-9daf-a6c010027957"},"vehicle_type_id":"4","last_reported":1748365771,"current_range_meters":10000,"station_id":"ce4bhbh2rcd13ifvqeo0","pricing_plan_id":"cebpf4jnsgd1na2vs0mg"},{"bike_id":"fe0f1c7d-92cb-4089-8d76-e450b8d7a4d6","system_id":"levelo_inurba_marseille","lat":43.26198,"lon":5.37936,"is_reserved":false,"is_disabled":false,"rental_uris":{"android":"levelo://app?vid=fe0f1c7d-92cb-4089-8d76-e450b8d7a4d6","ios":"levelo://app?vid=fe0f1c7d-92cb-4089-8d76-e450b8d7a4d6"},"vehicle_type_id":"4","last_reported":1748365771,"current_range_meters":10800,"station_id":"ce4bhjp2rcd13ifvqg90","pricing_plan_id":"cebpf4jnsgd1na2vs0mg"},{"bike_id":"b8f3fd15-9df4-4661-8168-421b618e2c72","system_id":"levelo_inurba_marseille","lat":43.2904,"lon":5.3591,"is_reserved":false,"is_disabled":false,"rental_uris":{"android":"levelo://app?vid=b8f3fd15-9df4-4661-8168-421b618e2c72","ios":"levelo://app?vid=b8f3fd15-9df4-4661-8168-421b618e2c72"},"vehicle_type_id":"4","last_reported":1748365771,"current_range_meters":10800,"station_id":"ce4bha92rcd13ifvqeg0","pricing_plan_id":"cebpf4jnsgd1na2vs0mg"},{"bike_id":"2fbd1b8f-d586-41be-8de0-3d1b692f3db0","system_id":"levelo_inurba_marseille","lat":43.29528,"lon":5.3854,"is_reserved":false,"is_disabled":false,"rental_uris":{"android":"levelo://app?vid=2fbd1b8f-d586-41be-8de0-3d1b692f3db0","ios":"levelo://app?vid=2fbd1b8f-d586-41be-8de0-3d1b692f3db0"},"vehicle_type_id":"4","last_reported":1748365771,"current_range_meters":10800,"station_id":"ce4bgih2rcd13ifvqba0","pricing_plan_id":"cebpf4jnsgd1na2vs0mg"},{"bike_id":"327e813c-0f67-445c-9310-96f50341b65e","system_id":"levelo_inurba_marseille","lat":43.24159,"lon":5.39709,"is_reserved":false,"is_disabled":false,"rental_uris":{"android":"levelo://app?vid=327e813c-0f67-445c-9310-96f50341b65e","ios":"levelo://app?vid=327e813c-0f67-445c-9310-96f50341b65e"},"vehicle_type_id":"4","last_reported":1748365771,"current_range_meters":10800,"station_id":"ce4bhn12rcd13ifvqgpg","pricing_plan_id":"cebpf4jnsgd1na2vs0mg"},{"bike_id":"f689d449-d0ec-464c-9319-de295e0a037a","system_id":"levelo_inurba_marseille","lat":43.23964,"lon":5.36619,"is_reserved":false,"is_disabled":true,"rental_uris":{"android":"levelo://app?vid=f689d449-d0ec-464c-9319-de295e0a037a","ios":"levelo://app?vid=f689d449-d0ec-464c-9319-de295e0a037a"},"vehicle_type_id":"4","last_reported":1748365771,"current_range_meters":10800,"station_id":"ce4bhi12rcd13ifvqfp0","pricing_plan_id":"cebpf4jnsgd1na2vs0mg"},{"bike_id":"e7eeb9de-f788-41ec-b6fe-fae8a5428cf6","system_id":"levelo_inurba_marseille","lat":43.292267,"lon":5.360675,"is_reserved":false,"is_disabled":false,"rental_uris":{"android":"levelo://app?vid=e7eeb9de-f788-41ec-b6fe-fae8a5428cf6","ios":"levelo://app?vid=e7eeb9de-f788-41ec-b6fe-fae8a5428cf6"},"vehicle_type_id":"4","last_reported":1748365771,"current_range_meters":10000,"station_id":"ce4bhbh2rcd13ifvqeqg","pricing_plan_id":"cebpf4jnsgd1na2vs0mg"},{"bike_id":"3aca9a02-619d-4049-ac4e-01d1a6a42b96","system_id":"levelo_inurba_marseille","lat":43.24068,"lon":5.3776,"is_reserved":false,"is_disabled":false,"rental_uris":{"android":"levelo://app?vid=3aca9a02-619d-4049-ac4e-01d1a6a42b96","ios":"levelo://app?vid=3aca9a02-619d-4049-ac4e-01d1a6a42b96"},"vehicle_type_id":"4","last_reported":1748365771,"current_range_meters":10000,"station_id":"ce4bhnp2rcd13ifvqgvg","pricing_plan_id":"cebpf4jnsgd1na2vs0mg"},{"bike_id":"2a046dee-b3af-48c9-9659-b7d30ba20af5","system_id":"levelo_inurba_marseille","lat":43.24326,"lon":5.37993,"is_reserved":false,"is_disabled":false,"rental_uris":{"android":"levelo://app?vid=2a046dee-b3af-48c9-9659-b7d30ba20af5","ios":"levelo://app?vid=2a046dee-b3af-48c9-9659-b7d30ba20af5"},"vehicle_type_id":"4","last_reported":1748365771,"current_range_meters":10800,"station_id":"","pricing_plan_id":"cebpf4jnsgd1na2vs0mg"},{"bike_id":"17b0d8ff-aa28-408b-9628-4a545be2c769","system_id":"levelo_inurba_marseille","lat":43.31922,"lon":5.38023,"is_reserved":false,"is_disabled":false,"rental_uris":{"android":"levelo://app?vid=17b0d8ff-aa28-408b-9628-4a545be2c769","ios":"levelo://app?vid=17b0d8ff-aa28-408b-9628-4a545be2c769"},"vehicle_type_id":"4","last_reported":1748365771,"current_range_meters":10800,"station_id":"","pricing_plan_id":"cebpf4jnsgd1na2vs0mg"},{"bike_id":"1584caaa-5b22-44be-8be1-a7e4d497728b","system_id":"levelo_inurba_marseille","lat":43.29782,"lon":5.39358,"is_reserved":false,"is_disabled":false,"rental_uris":{"android":"levelo://app?vid=1584caaa-5b22-44be-8be1-a7e4d497728b","ios":"levelo://app?vid=1584caaa-5b22-44be-8be1-a7e4d497728b"},"vehicle_type_id":"4","last_reported":1748365771,"current_range_meters":11200,"station_id":"chh1huq6cuj3fo74tm60","pricing_plan_id":"cebpf4jnsgd1na2vs0mg"},{"bike_id":"7adf5ff8-ada0-4d15-9510-f90f495d94ab","system_id":"levelo_inurba_marseille","lat":43.27174,"lon":5.40997,"is_reserved":false,"is_disabled":false,"rental_uris":{"android":"levelo://app?vid=7adf5ff8-ada0-4d15-9510-f90f495d94ab","ios":"levelo://app?vid=7adf5ff8-ada0-4d15-9510-f90f495d94ab"},"vehicle_type_id":"4","last_reported":1748365771,"current_range_meters":10800,"station_id":"ce4bhl12rcd13ifvqgf0","pricing_plan_id":"cebpf4jnsgd1na2vs0mg"},{"bike_id":"4f847eae-50f3-4036-8f7e-81088e66d59f","system_id":"levelo_inurba_marseille","lat":43.31756,"lon":5.39012,"is_reserved":false,"is_disabled":false,"rental_uris":{"android":"levelo://app?vid=4f847eae-50f3-4036-8f7e-81088e66d59f","ios":"levelo://app?vid=4f847eae-50f3-4036-8f7e-81088e66d59f"},"vehicle_type_id":"4","last_reported":1748365771,"current_range_meters":11200,"station_id":"ce4bhqp2rcd13ifvqhng","pricing_plan_id":"cebpf4jnsgd1na2vs0mg"},{"bike_id":"3e49befb-93f3-41aa-9879-0454f11a5e25","system_id":"levelo_inurba_marseille","lat":43.2509,"lon":5.39524,"is_reserved":false,"is_disabled":false,"rental_uris":{"android":"levelo://app?vid=3e49befb-93f3-41aa-9879-0454f11a5e25","ios":"levelo://app?vid=3e49befb-93f3-41aa-9879-0454f11a5e25"},"vehicle_type_id":"4","last_reported":1748365771,"current_range_meters":11200,"station_id":"ce4bhm12rcd13ifvqgkg","pricing_plan_id":"cebpf4jnsgd1na2vs0mg"},{"bike_id":"d403d33f-5630-40c5-aed0-d83497c5337b","system_id":"levelo_inurba_marseille","lat":43.29227,"lon":5.36065,"is_reserved":false,"is_disabled":false,"rental_uris":{"android":"levelo://app?vid=d403d33f-5630-40c5-aed0-d83497c5337b","ios":"levelo://app?vid=d403d33f-5630-40c5-aed0-d83497c5337b"},"vehicle_type_id":"4","last_reported":1748365771,"current_range_meters":11600,"station_id":"ce4bhbh2rcd13ifvqeqg","pricing_plan_id":"cebpf4jnsgd1na2vs0mg"},{"bike_id":"0532ae53-04e4-477f-bbff-e4c1bc56207b","system_id":"levelo_inurba_marseille","lat":43.29195,"lon":5.35798,"is_reserved":false,"is_disabled":false,"rental_uris":{"android":"levelo://app?vid=0532ae53-04e4-477f-bbff-e4c1bc56207b","ios":"levelo://app?vid=0532ae53-04e4-477f-bbff-e4c1bc56207b"},"vehicle_type_id":"4","last_reported":1748365771,"current_range_meters":11200,"station_id":"ce4bhb12rcd13ifvqel0","pricing_plan_id":"cebpf4jnsgd1na2vs0mg"},{"bike_id":"4a2dbe82-d714-4998-850d-b5bae31c19ec","system_id":"levelo_inurba_marseille","lat":43.27362,"lon":5.36253,"is_reserved":false,"is_disabled":false,"rental_uris":{"android":"levelo://app?vid=4a2dbe82-d714-4998-850d-b5bae31c19ec","ios":"levelo://app?vid=4a2dbe82-d714-4998-850d-b5bae31c19ec"},"vehicle_type_id":"4","last_reported":1748365771,"current_range_meters":11200,"station_id":"ce4bhbh2rcd13ifvqeo0","pricing_plan_id":"cebpf4jnsgd1na2vs0mg"},{"bike_id":"a16982e2-d246-4477-8d00-46dc290c9a2d","system_id":"levelo_inurba_marseille","lat":43.27374,"lon":5.36249,"is_reserved":false,"is_disabled":false,"rental_uris":{"android":"levelo://app?vid=a16982e2-d246-4477-8d00-46dc290c9a2d","ios":"levelo://app?vid=a16982e2-d246-4477-8d00-46dc290c9a2d"},"vehicle_type_id":"4","last_reported":1748365771,"current_range_meters":11200,"station_id":"ce4bhbh2rcd13ifvqeo0","pricing_plan_id":"cebpf4jnsgd1na2vs0mg"},{"bike_id":"a3a1e2f8-c082-4657-9cf8-ceb282e14a71","system_id":"levelo_inurba_marseille","lat":43.23189,"lon":5.39996,"is_reserved":false,"is_disabled":false,"rental_uris":{"android":"levelo://app?vid=a3a1e2f8-c082-4657-9cf8-ceb282e14a71","ios":"levelo://app?vid=a3a1e2f8-c082-4657-9cf8-ceb282e14a71"},"vehicle_type_id":"4","last_reported":1748365771,"current_range_meters":11200,"station_id":"ce4bhn12rcd13ifvqgqg","pricing_plan_id":"cebpf4jnsgd1na2vs0mg"},{"bike_id":"64210f36-955f-4afc-b6c1-9c569339cbd4","system_id":"levelo_inurba_marseille","lat":43.29264,"lon":5.38444,"is_reserved":false,"is_disabled":false,"rental_uris":{"android":"levelo://app?vid=64210f36-955f-4afc-b6c1-9c569339cbd4","ios":"levelo://app?vid=64210f36-955f-4afc-b6c1-9c569339cbd4"},"vehicle_type_id":"4","last_reported":1748365771,"current_range_meters":11200,"station_id":"ce4bh692rcd13ifvqea0","pricing_plan_id":"cebpf4jnsgd1na2vs0mg"},{"bike_id":"af1c5eea-31c0-4e67-9345-a05ebf43058e","system_id":"levelo_inurba_marseille","lat":43.28614,"lon":5.3511,"is_reserved":false,"is_disabled":false,"rental_uris":{"android":"levelo://app?vid=af1c5eea-31c0-4e67-9345-a05ebf43058e","ios":"levelo://app?vid=af1c5eea-31c0-4e67-9345-a05ebf43058e"},"vehicle_type_id":"4","last_reported":1748365771,"current_range_meters":11200,"station_id":"ce4bhch2rcd13ifvqeug","pricing_plan_id":"cebpf4jnsgd1na2vs0mg"},{"bike_id":"e066e7ad-347f-4037-908a-aa18da210859","system_id":"levelo_inurba_marseille","lat":43.27901,"lon":5.37996,"is_reserved":false,"is_disabled":false,"rental_uris":{"android":"levelo://app?vid=e066e7ad-347f-4037-908a-aa18da210859","ios":"levelo://app?vid=e066e7ad-347f-4037-908a-aa18da210859"},"vehicle_type_id":"4","last_reported":1748365771,"current_range_meters":11600,"station_id":"ce4bhf92rcd13ifvqf50","pricing_plan_id":"cebpf4jnsgd1na2vs0mg"},{"bike_id":"9b9d8135-82f8-4f79-bdd1-2ae839c47acd","system_id":"levelo_inurba_marseille","lat":43.27375,"lon":5.36251,"is_reserved":false,"is_disabled":false,"rental_uris":{"android":"levelo://app?vid=9b9d8135-82f8-4f79-bdd1-2ae839c47acd","ios":"levelo://app?vid=9b9d8135-82f8-4f79-bdd1-2ae839c47acd"},"vehicle_type_id":"4","last_reported":1748365771,"current_range_meters":11600,"station_id":"ce4bhbh2rcd13ifvqeo0","pricing_plan_id":"cebpf4jnsgd1na2vs0mg"},{"bike_id":"99e1a563-a980-476a-a647-3aa3341a530f","system_id":"levelo_inurba_marseille","lat":43.25116,"lon":5.40322,"is_reserved":false,"is_disabled":false,"rental_uris":{"android":"levelo://app?vid=99e1a563-a980-476a-a647-3aa3341a530f","ios":"levelo://app?vid=99e1a563-a980-476a-a647-3aa3341a530f"},"vehicle_type_id":"4","last_reported":1748365771,"current_range_meters":11600,"station_id":"ce4bhlh2rcd13ifvqgig","pricing_plan_id":"cebpf4jnsgd1na2vs0mg"},{"bike_id":"70f8d3f7-3a02-4033-87b9-4d600620ce15","system_id":"levelo_inurba_marseille","lat":43.26943,"lon":5.40253,"is_reserved":false,"is_disabled":false,"rental_uris":{"android":"levelo://app?vid=70f8d3f7-3a02-4033-87b9-4d600620ce15","ios":"levelo://app?vid=70f8d3f7-3a02-4033-87b9-4d600620ce15"},"vehicle_type_id":"4","last_reported":1748365771,"current_range_meters":11600,"station_id":"cjm6bp8fraef2m0cb0m0","pricing_plan_id":"cebpf4jnsgd1na2vs0mg"},{"bike_id":"611256bb-f1ba-4a6d-be93-389410c034da","system_id":"levelo_inurba_marseille","lat":43.279146,"lon":5.395671,"is_reserved":false,"is_disabled":false,"rental_uris":{"android":"levelo://app?vid=611256bb-f1ba-4a6d-be93-389410c034da","ios":"levelo://app?vid=611256bb-f1ba-4a6d-be93-389410c034da"},"vehicle_type_id":"4","last_reported":1748365771,"current_range_meters":11600,"station_id":"ce4bhf92rcd13ifvqf40","pricing_plan_id":"cebpf4jnsgd1na2vs0mg"},{"bike_id":"6ccdf8f9-410a-4338-a110-07c617def5c5","system_id":"levelo_inurba_marseille","lat":43.26056,"lon":5.3939,"is_reserved":false,"is_disabled":false,"rental_uris":{"android":"levelo://app?vid=6ccdf8f9-410a-4338-a110-07c617def5c5","ios":"levelo://app?vid=6ccdf8f9-410a-4338-a110-07c617def5c5"},"vehicle_type_id":"4","last_reported":1748365771,"current_range_meters":11600,"station_id":"ce4bhh92rcd13ifvqfj0","pricing_plan_id":"cebpf4jnsgd1na2vs0mg"},{"bike_id":"ceb81090-b40e-47dd-bc35-8598d269ef58","system_id":"levelo_inurba_marseille","lat":43.26663,"lon":5.38431,"is_reserved":false,"is_disabled":false,"rental_uris":{"android":"levelo://app?vid=ceb81090-b40e-47dd-bc35-8598d269ef58","ios":"levelo://app?vid=ceb81090-b40e-47dd-bc35-8598d269ef58"},"vehicle_type_id":"4","last_reported":1748365771,"current_range_meters":12000,"station_id":"","pricing_plan_id":"cebpf4jnsgd1na2vs0mg"},{"bike_id":"269ac30d-07da-4e2b-bc8c-95a3c412ad8e","system_id":"levelo_inurba_marseille","lat":43.29053,"lon":5.35911,"is_reserved":false,"is_disabled":false,"rental_uris":{"android":"levelo://app?vid=269ac30d-07da-4e2b-bc8c-95a3c412ad8e","ios":"levelo://app?vid=269ac30d-07da-4e2b-bc8c-95a3c412ad8e"},"vehicle_type_id":"4","last_reported":1748365771,"current_range_meters":12000,"station_id":"ce4bha92rcd13ifvqeg0","pricing_plan_id":"cebpf4jnsgd1na2vs0mg"},{"bike_id":"36e493e1-0338-477c-9995-1323c1f29fea","system_id":"levelo_inurba_marseille","lat":43.3014,"lon":5.39857,"is_reserved":false,"is_disabled":false,"rental_uris":{"android":"levelo://app?vid=36e493e1-0338-477c-9995-1323c1f29fea","ios":"levelo://app?vid=36e493e1-0338-477c-9995-1323c1f29fea"},"vehicle_type_id":"4","last_reported":1748365771,"current_range_meters":12000,"station_id":"ce4bh0h2rcd13ifvqd40","pricing_plan_id":"cebpf4jnsgd1na2vs0mg"},{"bike_id":"3bb69b95-acc1-4494-9449-5a747ed5114d","system_id":"levelo_inurba_marseille","lat":43.27379,"lon":5.36256,"is_reserved":false,"is_disabled":false,"rental_uris":{"android":"levelo://app?vid=3bb69b95-acc1-4494-9449-5a747ed5114d","ios":"levelo://app?vid=3bb69b95-acc1-4494-9449-5a747ed5114d"},"vehicle_type_id":"4","last_reported":1748365771,"current_range_meters":12000,"station_id":"ce4bhbh2rcd13ifvqeo0","pricing_plan_id":"cebpf4jnsgd1na2vs0mg"},{"bike_id":"5c50e656-b899-47b2-b328-85c71d6b376a","system_id":"levelo_inurba_marseille","lat":43.28716,"lon":5.36094,"is_reserved":false,"is_disabled":false,"rental_uris":{"android":"levelo://app?vid=5c50e656-b899-47b2-b328-85c71d6b376a","ios":"levelo://app?vid=5c50e656-b899-47b2-b328-85c71d6b376a"},"vehicle_type_id":"4","last_reported":1748365771,"current_range_meters":12400,"station_id":"cki0cbj6b192h4jlfktg","pricing_plan_id":"cebpf4jnsgd1na2vs0mg"},{"bike_id":"6d2977b8-b405-496c-bf31-3eacba5c9601","system_id":"levelo_inurba_marseille","lat":43.28433,"lon":5.350128,"is_reserved":false,"is_disabled":false,"rental_uris":{"android":"levelo://app?vid=6d2977b8-b405-496c-bf31-3eacba5c9601","ios":"levelo://app?vid=6d2977b8-b405-496c-bf31-3eacba5c9601"},"vehicle_type_id":"4","last_reported":1748365771,"current_range_meters":12400,"station_id":"ce4bhbh2rcd13ifvqepg","pricing_plan_id":"cebpf4jnsgd1na2vs0mg"},{"bike_id":"1fbd130b-cb94-49d6-9bd3-bb418fe725b4","system_id":"levelo_inurba_marseille","lat":43.28421,"lon":5.3498,"is_reserved":false,"is_disabled":false,"rental_uris":{"android":"levelo://app?vid=1fbd130b-cb94-49d6-9bd3-bb418fe725b4","ios":"levelo://app?vid=1fbd130b-cb94-49d6-9bd3-bb418fe725b4"},"vehicle_type_id":"4","last_reported":1748365771,"current_range_meters":12400,"station_id":"ce4bhbh2rcd13ifvqepg","pricing_plan_id":"cebpf4jnsgd1na2vs0mg"},{"bike_id":"73333280-f38c-4f23-a814-343776de59f9","system_id":"levelo_inurba_marseille","lat":43.297194,"lon":5.36589,"is_reserved":false,"is_disabled":false,"rental_uris":{"android":"levelo://app?vid=73333280-f38c-4f23-a814-343776de59f9","ios":"levelo://app?vid=73333280-f38c-4f23-a814-343776de59f9"},"vehicle_type_id":"4","last_reported":1748365771,"current_range_meters":12400,"station_id":"ce4bgn12rcd13ifvqbt0","pricing_plan_id":"cebpf4jnsgd1na2vs0mg"},{"bike_id":"b1de6594-afeb-44f0-a7f9-d29efab468fd","system_id":"levelo_inurba_marseille","lat":43.28617,"lon":5.35105,"is_reserved":false,"is_disabled":false,"rental_uris":{"android":"levelo://app?vid=b1de6594-afeb-44f0-a7f9-d29efab468fd","ios":"levelo://app?vid=b1de6594-afeb-44f0-a7f9-d29efab468fd"},"vehicle_type_id":"4","last_reported":1748365771,"current_range_meters":12400,"station_id":"ce4bhch2rcd13ifvqeug","pricing_plan_id":"cebpf4jnsgd1na2vs0mg"},{"bike_id":"d210ed15-0cab-4985-be76-61173c3a81e4","system_id":"levelo_inurba_marseille","lat":43.2874,"lon":5.36088,"is_reserved":false,"is_disabled":true,"rental_uris":{"android":"levelo://app?vid=d210ed15-0cab-4985-be76-61173c3a81e4","ios":"levelo://app?vid=d210ed15-0cab-4985-be76-61173c3a81e4"},"vehicle_type_id":"4","last_reported":1748365771,"current_range_meters":12400,"station_id":"cki0cbj6b192h4jlfktg","pricing_plan_id":"cebpf4jnsgd1na2vs0mg"},{"bike_id":"a40588ee-00f9-4620-a7e7-03b577ebbb6e","system_id":"levelo_inurba_marseille","lat":43.23197,"lon":5.39986,"is_reserved":false,"is_disabled":false,"rental_uris":{"android":"levelo://app?vid=a40588ee-00f9-4620-a7e7-03b577ebbb6e","ios":"levelo://app?vid=a40588ee-00f9-4620-a7e7-03b577ebbb6e"},"vehicle_type_id":"4","last_reported":1748365771,"current_range_meters":12400,"station_id":"ce4bhn12rcd13ifvqgqg","pricing_plan_id":"cebpf4jnsgd1na2vs0mg"},{"bike_id":"2447e726-02f2-4707-a232-a209224dd9ad","system_id":"levelo_inurba_marseille","lat":43.33024,"lon":5.39039,"is_reserved":false,"is_disabled":false,"rental_uris":{"android":"levelo://app?vid=2447e726-02f2-4707-a232-a209224dd9ad","ios":"levelo://app?vid=2447e726-02f2-4707-a232-a209224dd9ad"},"vehicle_type_id":"4","last_reported":1748365771,"current_range_meters":12400,"station_id":"ce4bhr92rcd13ifvqhrg","pricing_plan_id":"cebpf4jnsgd1na2vs0mg"},{"bike_id":"064e6fa0-0d7c-4ec8-b1ad-7f69178c75b7","system_id":"levelo_inurba_marseille","lat":43.299024,"lon":5.436596,"is_reserved":false,"is_disabled":false,"rental_uris":{"android":"levelo://app?vid=064e6fa0-0d7c-4ec8-b1ad-7f69178c75b7","ios":"levelo://app?vid=064e6fa0-0d7c-4ec8-b1ad-7f69178c75b7"},"vehicle_type_id":"4","last_reported":1748365771,"current_range_meters":12400,"station_id":"ce4bhpp2rcd13ifvqhfg","pricing_plan_id":"cebpf4jnsgd1na2vs0mg"},{"bike_id":"1e626049-d0b8-448f-9efe-67019a974668","system_id":"levelo_inurba_marseille","lat":43.27675,"lon":5.38872,"is_reserved":false,"is_disabled":false,"rental_uris":{"android":"levelo://app?vid=1e626049-d0b8-448f-9efe-67019a974668","ios":"levelo://app?vid=1e626049-d0b8-448f-9efe-67019a974668"},"vehicle_type_id":"4","last_reported":1748365771,"current_range_meters":12400,"station_id":"ce4bhi12rcd13ifvqfo0","pricing_plan_id":"cebpf4jnsgd1na2vs0mg"},{"bike_id":"9758f61d-2eab-4840-9397-a063e8d80446","system_id":"levelo_inurba_marseille","lat":43.27389,"lon":5.36253,"is_reserved":false,"is_disabled":false,"rental_uris":{"android":"levelo://app?vid=9758f61d-2eab-4840-9397-a063e8d80446","ios":"levelo://app?vid=9758f61d-2eab-4840-9397-a063e8d80446"},"vehicle_type_id":"4","last_reported":1748365771,"current_range_meters":12800,"station_id":"ce4bhbh2rcd13ifvqeo0","pricing_plan_id":"cebpf4jnsgd1na2vs0mg"},{"bike_id":"9fd24099-ac28-4be0-b42c-427883146abc","system_id":"levelo_inurba_marseille","lat":43.26683,"lon":5.38284,"is_reserved":false,"is_disabled":false,"rental_uris":{"android":"levelo://app?vid=9fd24099-ac28-4be0-b42c-427883146abc","ios":"levelo://app?vid=9fd24099-ac28-4be0-b42c-427883146abc"},"vehicle_type_id":"4","last_reported":1748365771,"current_range_meters":12800,"station_id":"ce4bhg92rcd13ifvqf90","pricing_plan_id":"cebpf4jnsgd1na2vs0mg"},{"bike_id":"56303e41-2b27-4d35-8ea7-4c7f6f219c1a","system_id":"levelo_inurba_marseille","lat":43.21759,"lon":5.34591,"is_reserved":false,"is_disabled":false,"rental_uris":{"android":"levelo://app?vid=56303e41-2b27-4d35-8ea7-4c7f6f219c1a","ios":"levelo://app?vid=56303e41-2b27-4d35-8ea7-4c7f6f219c1a"},"vehicle_type_id":"4","last_reported":1748365771,"current_range_meters":12800,"station_id":"","pricing_plan_id":"cebpf4jnsgd1na2vs0mg"},{"bike_id":"471ddec1-ed95-467c-b28d-a8c72312d28f","system_id":"levelo_inurba_marseille","lat":43.29272,"lon":5.36851,"is_reserved":false,"is_disabled":false,"rental_uris":{"android":"levelo://app?vid=471ddec1-ed95-467c-b28d-a8c72312d28f","ios":"levelo://app?vid=471ddec1-ed95-467c-b28d-a8c72312d28f"},"vehicle_type_id":"4","last_reported":1748365771,"current_range_meters":12800,"station_id":"ce4bhbp2rcd13ifvqesg","pricing_plan_id":"cebpf4jnsgd1na2vs0mg"},{"bike_id":"01d53ad4-55f4-44d1-889f-f319edd0ede3","system_id":"levelo_inurba_marseille","lat":43.27495,"lon":5.42453,"is_reserved":false,"is_disabled":false,"rental_uris":{"android":"levelo://app?vid=01d53ad4-55f4-44d1-889f-f319edd0ede3","ios":"levelo://app?vid=01d53ad4-55f4-44d1-889f-f319edd0ede3"},"vehicle_type_id":"4","last_reported":1748365771,"current_range_meters":12800,"station_id":"ce4bhn92rcd13ifvqgrg","pricing_plan_id":"cebpf4jnsgd1na2vs0mg"},{"bike_id":"42346980-f537-4d88-8812-f1c3c65c8396","system_id":"levelo_inurba_marseille","lat":43.24809,"lon":5.3746,"is_reserved":false,"is_disabled":false,"rental_uris":{"android":"levelo://app?vid=42346980-f537-4d88-8812-f1c3c65c8396","ios":"levelo://app?vid=42346980-f537-4d88-8812-f1c3c65c8396"},"vehicle_type_id":"4","last_reported":1748365771,"current_range_meters":12800,"station_id":"ce4bhgh2rcd13ifvqfb0","pricing_plan_id":"cebpf4jnsgd1na2vs0mg"},{"bike_id":"84f20522-6fe9-4131-aa99-7e652947bcde","system_id":"levelo_inurba_marseille","lat":43.28439,"lon":5.34992,"is_reserved":false,"is_disabled":false,"rental_uris":{"android":"levelo://app?vid=84f20522-6fe9-4131-aa99-7e652947bcde","ios":"levelo://app?vid=84f20522-6fe9-4131-aa99-7e652947bcde"},"vehicle_type_id":"4","last_reported":1748365771,"current_range_meters":12800,"station_id":"ce4bhbh2rcd13ifvqepg","pricing_plan_id":"cebpf4jnsgd1na2vs0mg"},{"bike_id":"117bf755-2682-426d-9a0b-5e0bd1723a20","system_id":"levelo_inurba_marseille","lat":43.27374,"lon":5.36262,"is_reserved":false,"is_disabled":false,"rental_uris":{"android":"levelo://app?vid=117bf755-2682-426d-9a0b-5e0bd1723a20","ios":"levelo://app?vid=117bf755-2682-426d-9a0b-5e0bd1723a20"},"vehicle_type_id":"4","last_reported":1748365771,"current_range_meters":12800,"station_id":"ce4bhbh2rcd13ifvqeo0","pricing_plan_id":"cebpf4jnsgd1na2vs0mg"},{"bike_id":"c3805d3a-851b-4ec6-9487-975a303f4ebd","system_id":"levelo_inurba_marseille","lat":43.27381,"lon":5.36253,"is_reserved":false,"is_disabled":false,"rental_uris":{"android":"levelo://app?vid=c3805d3a-851b-4ec6-9487-975a303f4ebd","ios":"levelo://app?vid=c3805d3a-851b-4ec6-9487-975a303f4ebd"},"vehicle_type_id":"4","last_reported":1748365771,"current_range_meters":13600,"station_id":"ce4bhbh2rcd13ifvqeo0","pricing_plan_id":"cebpf4jnsgd1na2vs0mg"},{"bike_id":"3421eaf6-3363-4ce9-b976-0ae9cb5b42f6","system_id":"levelo_inurba_marseille","lat":43.2512,"lon":5.40331,"is_reserved":false,"is_disabled":false,"rental_uris":{"android":"levelo://app?vid=3421eaf6-3363-4ce9-b976-0ae9cb5b42f6","ios":"levelo://app?vid=3421eaf6-3363-4ce9-b976-0ae9cb5b42f6"},"vehicle_type_id":"4","last_reported":1748365771,"current_range_meters":13600,"station_id":"ce4bhlh2rcd13ifvqgig","pricing_plan_id":"cebpf4jnsgd1na2vs0mg"},{"bike_id":"fa08b119-a319-4912-a19d-ee8976d9a91c","system_id":"levelo_inurba_marseille","lat":43.27388,"lon":5.36251,"is_reserved":false,"is_disabled":false,"rental_uris":{"android":"levelo://app?vid=fa08b119-a319-4912-a19d-ee8976d9a91c","ios":"levelo://app?vid=fa08b119-a319-4912-a19d-ee8976d9a91c"},"vehicle_type_id":"4","last_reported":1748365771,"current_range_meters":13600,"station_id":"ce4bhbh2rcd13ifvqeo0","pricing_plan_id":"cebpf4jnsgd1na2vs0mg"},{"bike_id":"2d9bd32e-f7d4-454c-948e-09259e734b87","system_id":"levelo_inurba_marseille","lat":43.29263,"lon":5.38432,"is_reserved":false,"is_disabled":false,"rental_uris":{"android":"levelo://app?vid=2d9bd32e-f7d4-454c-948e-09259e734b87","ios":"levelo://app?vid=2d9bd32e-f7d4-454c-948e-09259e734b87"},"vehicle_type_id":"4","last_reported":1748365771,"current_range_meters":13600,"station_id":"ce4bh692rcd13ifvqea0","pricing_plan_id":"cebpf4jnsgd1na2vs0mg"},{"bike_id":"daa8a49f-122c-4d26-bdef-9f4f3e827bca","system_id":"levelo_inurba_marseille","lat":43.28402,"lon":5.35001,"is_reserved":false,"is_disabled":false,"rental_uris":{"android":"levelo://app?vid=daa8a49f-122c-4d26-bdef-9f4f3e827bca","ios":"levelo://app?vid=daa8a49f-122c-4d26-bdef-9f4f3e827bca"},"vehicle_type_id":"4","last_reported":1748365771,"current_range_meters":13600,"station_id":"ce4bhbh2rcd13ifvqepg","pricing_plan_id":"cebpf4jnsgd1na2vs0mg"},{"bike_id":"dbad7c7c-2230-4226-acb1-315abeaeace9","system_id":"levelo_inurba_marseille","lat":43.28458,"lon":5.35882,"is_reserved":false,"is_disabled":false,"rental_uris":{"android":"levelo://app?vid=dbad7c7c-2230-4226-acb1-315abeaeace9","ios":"levelo://app?vid=dbad7c7c-2230-4226-acb1-315abeaeace9"},"vehicle_type_id":"4","last_reported":1748365771,"current_range_meters":13600,"station_id":"ce4bhah2rcd13ifvqei0","pricing_plan_id":"cebpf4jnsgd1na2vs0mg"},{"bike_id":"5212186a-8b0e-48ca-918c-41f0045308c1","system_id":"levelo_inurba_marseille","lat":43.31077,"lon":5.38354,"is_reserved":false,"is_disabled":false,"rental_uris":{"android":"levelo://app?vid=5212186a-8b0e-48ca-918c-41f0045308c1","ios":"levelo://app?vid=5212186a-8b0e-48ca-918c-41f0045308c1"},"vehicle_type_id":"4","last_reported":1748365771,"current_range_meters":14000,"station_id":"ce4bgv92rcd13ifvqcr0","pricing_plan_id":"cebpf4jnsgd1na2vs0mg"},{"bike_id":"cc391400-7d4c-4261-8004-e9968eddac7e","system_id":"levelo_inurba_marseille","lat":43.2903,"lon":5.375534,"is_reserved":false,"is_disabled":true,"rental_uris":{"android":"levelo://app?vid=cc391400-7d4c-4261-8004-e9968eddac7e","ios":"levelo://app?vid=cc391400-7d4c-4261-8004-e9968eddac7e"},"vehicle_type_id":"4","last_reported":1748365771,"current_range_meters":14000,"station_id":"ce4bh692rcd13ifvqe90","pricing_plan_id":"cebpf4jnsgd1na2vs0mg"},{"bike_id":"8b8f4ddc-5f2d-41ad-9613-91a528fd4361","system_id":"levelo_inurba_marseille","lat":43.22959,"lon":5.35343,"is_reserved":false,"is_disabled":false,"rental_uris":{"android":"levelo://app?vid=8b8f4ddc-5f2d-41ad-9613-91a528fd4361","ios":"levelo://app?vid=8b8f4ddc-5f2d-41ad-9613-91a528fd4361"},"vehicle_type_id":"4","last_reported":1748365771,"current_range_meters":14000,"station_id":"cpo3532slgdg3j2ikp40","pricing_plan_id":"cebpf4jnsgd1na2vs0mg"},{"bike_id":"16325869-b0b1-4ea6-b5e0-4206964d490a","system_id":"levelo_inurba_marseille","lat":43.26025,"lon":5.41739,"is_reserved":false,"is_disabled":false,"rental_uris":{"android":"levelo://app?vid=16325869-b0b1-4ea6-b5e0-4206964d490a","ios":"levelo://app?vid=16325869-b0b1-4ea6-b5e0-4206964d490a"},"vehicle_type_id":"4","last_reported":1748365771,"current_range_meters":14000,"station_id":"","pricing_plan_id":"cebpf4jnsgd1na2vs0mg"},{"bike_id":"1468ca86-51a5-4385-a861-f008bba12ce6","system_id":"levelo_inurba_marseille","lat":43.29256,"lon":5.37631,"is_reserved":false,"is_disabled":false,"rental_uris":{"android":"levelo://app?vid=1468ca86-51a5-4385-a861-f008bba12ce6","ios":"levelo://app?vid=1468ca86-51a5-4385-a861-f008bba12ce6"},"vehicle_type_id":"4","last_reported":1748365771,"current_range_meters":14000,"station_id":"ce4bgi12rcd13ifvqb80","pricing_plan_id":"cebpf4jnsgd1na2vs0mg"},{"bike_id":"912aeffc-f677-4d4d-9f86-212600af40b6","system_id":"levelo_inurba_marseille","lat":43.28458,"lon":5.35886,"is_reserved":false,"is_disabled":false,"rental_uris":{"android":"levelo://app?vid=912aeffc-f677-4d4d-9f86-212600af40b6","ios":"levelo://app?vid=912aeffc-f677-4d4d-9f86-212600af40b6"},"vehicle_type_id":"4","last_reported":1748365771,"current_range_meters":14000,"station_id":"ce4bhah2rcd13ifvqei0","pricing_plan_id":"cebpf4jnsgd1na2vs0mg"},{"bike_id":"b15ff0f7-b895-4b8d-9d77-8fc5921cb197","system_id":"levelo_inurba_marseille","lat":43.29421,"lon":5.3863,"is_reserved":false,"is_disabled":false,"rental_uris":{"android":"levelo://app?vid=b15ff0f7-b895-4b8d-9d77-8fc5921cb197","ios":"levelo://app?vid=b15ff0f7-b895-4b8d-9d77-8fc5921cb197"},"vehicle_type_id":"4","last_reported":1748365771,"current_range_meters":14400,"station_id":"ce4bh2h2rcd13ifvqdh0","pricing_plan_id":"cebpf4jnsgd1na2vs0mg"},{"bike_id":"6c785b93-5254-4011-a3ab-4a06e47610b1","system_id":"levelo_inurba_marseille","lat":43.30625,"lon":5.40096,"is_reserved":false,"is_disabled":false,"rental_uris":{"android":"levelo://app?vid=6c785b93-5254-4011-a3ab-4a06e47610b1","ios":"levelo://app?vid=6c785b93-5254-4011-a3ab-4a06e47610b1"},"vehicle_type_id":"4","last_reported":1748365771,"current_range_meters":14400,"station_id":"ce4bh112rcd13ifvqda0","pricing_plan_id":"cebpf4jnsgd1na2vs0mg"},{"bike_id":"1501f270-7eeb-46c0-9aa9-4d3bc3bfb7f0","system_id":"levelo_inurba_marseille","lat":43.26802,"lon":5.4027,"is_reserved":false,"is_disabled":false,"rental_uris":{"android":"levelo://app?vid=1501f270-7eeb-46c0-9aa9-4d3bc3bfb7f0","ios":"levelo://app?vid=1501f270-7eeb-46c0-9aa9-4d3bc3bfb7f0"},"vehicle_type_id":"4","last_reported":1748365771,"current_range_meters":14400,"station_id":"ce501612rcd8frsf0b60","pricing_plan_id":"cebpf4jnsgd1na2vs0mg"},{"bike_id":"fe885166-e704-4450-ad4d-cb7b1b3aa6c7","system_id":"levelo_inurba_marseille","lat":43.284161,"lon":5.349948,"is_reserved":false,"is_disabled":false,"rental_uris":{"android":"levelo://app?vid=fe885166-e704-4450-ad4d-cb7b1b3aa6c7","ios":"levelo://app?vid=fe885166-e704-4450-ad4d-cb7b1b3aa6c7"},"vehicle_type_id":"4","last_reported":1748365771,"current_range_meters":14400,"station_id":"ce4bhbh2rcd13ifvqepg","pricing_plan_id":"cebpf4jnsgd1na2vs0mg"},{"bike_id":"027996d9-c458-4fe9-9def-7a537508c67a","system_id":"levelo_inurba_marseille","lat":43.26549,"lon":5.372974,"is_reserved":false,"is_disabled":false,"rental_uris":{"android":"levelo://app?vid=027996d9-c458-4fe9-9def-7a537508c67a","ios":"levelo://app?vid=027996d9-c458-4fe9-9def-7a537508c67a"},"vehicle_type_id":"4","last_reported":1748365771,"current_range_meters":14800,"station_id":"ce4bhg12rcd13ifvqf70","pricing_plan_id":"cebpf4jnsgd1na2vs0mg"},{"bike_id":"5a621852-4b0d-47fa-9514-efb82e08741c","system_id":"levelo_inurba_marseille","lat":43.33814,"lon":5.37472,"is_reserved":false,"is_disabled":true,"rental_uris":{"android":"levelo://app?vid=5a621852-4b0d-47fa-9514-efb82e08741c","ios":"levelo://app?vid=5a621852-4b0d-47fa-9514-efb82e08741c"},"vehicle_type_id":"4","last_reported":1748365771,"current_range_meters":14800,"station_id":"","pricing_plan_id":"cebpf4jnsgd1na2vs0mg"},{"bike_id":"4cd4f141-8064-40c8-9526-b3a298bff8a5","system_id":"levelo_inurba_marseille","lat":43.257216,"lon":5.411167,"is_reserved":false,"is_disabled":false,"rental_uris":{"android":"levelo://app?vid=4cd4f141-8064-40c8-9526-b3a298bff8a5","ios":"levelo://app?vid=4cd4f141-8064-40c8-9526-b3a298bff8a5"},"vehicle_type_id":"4","last_reported":1748365771,"current_range_meters":14800,"station_id":"ce4bhkp2rcd13ifvqgd0","pricing_plan_id":"cebpf4jnsgd1na2vs0mg"},{"bike_id":"e90802e6-2225-4aa4-a1e0-93b6c1435e83","system_id":"levelo_inurba_marseille","lat":43.27176,"lon":5.40995,"is_reserved":false,"is_disabled":false,"rental_uris":{"android":"levelo://app?vid=e90802e6-2225-4aa4-a1e0-93b6c1435e83","ios":"levelo://app?vid=e90802e6-2225-4aa4-a1e0-93b6c1435e83"},"vehicle_type_id":"4","last_reported":1748365771,"current_range_meters":14800,"station_id":"ce4bhl12rcd13ifvqgf0","pricing_plan_id":"cebpf4jnsgd1na2vs0mg"},{"bike_id":"7d644362-2701-4137-aac7-822704820d27","system_id":"levelo_inurba_marseille","lat":43.31769,"lon":5.39018,"is_reserved":false,"is_disabled":true,"rental_uris":{"android":"levelo://app?vid=7d644362-2701-4137-aac7-822704820d27","ios":"levelo://app?vid=7d644362-2701-4137-aac7-822704820d27"},"vehicle_type_id":"4","last_reported":1748365771,"current_range_meters":14800,"station_id":"ce4bhqp2rcd13ifvqhng","pricing_plan_id":"cebpf4jnsgd1na2vs0mg"},{"bike_id":"b9feece3-8db7-4d9c-b5c4-3d592ac61b90","system_id":"levelo_inurba_marseille","lat":43.291848,"lon":5.358085,"is_reserved":false,"is_disabled":false,"rental_uris":{"android":"levelo://app?vid=b9feece3-8db7-4d9c-b5c4-3d592ac61b90","ios":"levelo://app?vid=b9feece3-8db7-4d9c-b5c4-3d592ac61b90"},"vehicle_type_id":"4","last_reported":1748365771,"current_range_meters":14800,"station_id":"","pricing_plan_id":"cebpf4jnsgd1na2vs0mg"},{"bike_id":"69c0fd55-cd72-4f90-a33e-0ecbe62d3f06","system_id":"levelo_inurba_marseille","lat":43.28413,"lon":5.34989,"is_reserved":false,"is_disabled":false,"rental_uris":{"android":"levelo://app?vid=69c0fd55-cd72-4f90-a33e-0ecbe62d3f06","ios":"levelo://app?vid=69c0fd55-cd72-4f90-a33e-0ecbe62d3f06"},"vehicle_type_id":"4","last_reported":1748365771,"current_range_meters":15200,"station_id":"ce4bhbh2rcd13ifvqepg","pricing_plan_id":"cebpf4jnsgd1na2vs0mg"},{"bike_id":"cafe5778-47f8-4c28-a0f3-99d925683866","system_id":"levelo_inurba_marseille","lat":43.24803,"lon":5.37449,"is_reserved":false,"is_disabled":false,"rental_uris":{"android":"levelo://app?vid=cafe5778-47f8-4c28-a0f3-99d925683866","ios":"levelo://app?vid=cafe5778-47f8-4c28-a0f3-99d925683866"},"vehicle_type_id":"4","last_reported":1748365771,"current_range_meters":15200,"station_id":"ce4bhgh2rcd13ifvqfb0","pricing_plan_id":"cebpf4jnsgd1na2vs0mg"},{"bike_id":"4ba4ff92-1f55-44be-92b7-8af4c08294ca","system_id":"levelo_inurba_marseille","lat":43.29228,"lon":5.36069,"is_reserved":false,"is_disabled":false,"rental_uris":{"android":"levelo://app?vid=4ba4ff92-1f55-44be-92b7-8af4c08294ca","ios":"levelo://app?vid=4ba4ff92-1f55-44be-92b7-8af4c08294ca"},"vehicle_type_id":"4","last_reported":1748365771,"current_range_meters":15200,"station_id":"ce4bhbh2rcd13ifvqeqg","pricing_plan_id":"cebpf4jnsgd1na2vs0mg"},{"bike_id":"46f1e1a2-421d-4288-9b19-22918bc7cc7f","system_id":"levelo_inurba_marseille","lat":43.231942,"lon":5.355534,"is_reserved":false,"is_disabled":false,"rental_uris":{"android":"levelo://app?vid=46f1e1a2-421d-4288-9b19-22918bc7cc7f","ios":"levelo://app?vid=46f1e1a2-421d-4288-9b19-22918bc7cc7f"},"vehicle_type_id":"4","last_reported":1748365771,"current_range_meters":15200,"station_id":"ce4bhu92rcd13ifvqi70","pricing_plan_id":"cebpf4jnsgd1na2vs0mg"},{"bike_id":"b87aac56-5d07-4480-a589-3b33f7758cbc","system_id":"levelo_inurba_marseille","lat":43.28656,"lon":5.35063,"is_reserved":false,"is_disabled":false,"rental_uris":{"android":"levelo://app?vid=b87aac56-5d07-4480-a589-3b33f7758cbc","ios":"levelo://app?vid=b87aac56-5d07-4480-a589-3b33f7758cbc"},"vehicle_type_id":"4","last_reported":1748365771,"current_range_meters":15200,"station_id":"","pricing_plan_id":"cebpf4jnsgd1na2vs0mg"},{"bike_id":"e3053042-6af2-451d-9289-c505b359500b","system_id":"levelo_inurba_marseille","lat":43.25117,"lon":5.40356,"is_reserved":false,"is_disabled":false,"rental_uris":{"android":"levelo://app?vid=e3053042-6af2-451d-9289-c505b359500b","ios":"levelo://app?vid=e3053042-6af2-451d-9289-c505b359500b"},"vehicle_type_id":"4","last_reported":1748365771,"current_range_meters":15200,"station_id":"ce4bhlh2rcd13ifvqgig","pricing_plan_id":"cebpf4jnsgd1na2vs0mg"},{"bike_id":"0450a529-c1fe-432a-a8bc-3e0d130dc000","system_id":"levelo_inurba_marseille","lat":43.3089,"lon":5.39657,"is_reserved":false,"is_disabled":false,"rental_uris":{"android":"levelo://app?vid=0450a529-c1fe-432a-a8bc-3e0d130dc000","ios":"levelo://app?vid=0450a529-c1fe-432a-a8bc-3e0d130dc000"},"vehicle_type_id":"4","last_reported":1748365771,"current_range_meters":14800,"station_id":"ce4bh012rcd13ifvqcv0","pricing_plan_id":"cebpf4jnsgd1na2vs0mg"},{"bike_id":"eb5d0b01-37f4-45bc-90b9-22af52fa3927","system_id":"levelo_inurba_marseille","lat":43.284532,"lon":5.35896,"is_reserved":false,"is_disabled":false,"rental_uris":{"android":"levelo://app?vid=eb5d0b01-37f4-45bc-90b9-22af52fa3927","ios":"levelo://app?vid=eb5d0b01-37f4-45bc-90b9-22af52fa3927"},"vehicle_type_id":"4","last_reported":1748365771,"current_range_meters":15200,"station_id":"ce4bhjp2rcd13ifvqga0","pricing_plan_id":"cebpf4jnsgd1na2vs0mg"},{"bike_id":"231935b6-93de-41e8-861d-672bd6e3545e","system_id":"levelo_inurba_marseille","lat":43.297277,"lon":5.376853,"is_reserved":false,"is_disabled":false,"rental_uris":{"android":"levelo://app?vid=231935b6-93de-41e8-861d-672bd6e3545e","ios":"levelo://app?vid=231935b6-93de-41e8-861d-672bd6e3545e"},"vehicle_type_id":"4","last_reported":1748365771,"current_range_meters":16000,"station_id":"ce4bgh92rcd13ifvqb50","pricing_plan_id":"cebpf4jnsgd1na2vs0mg"},{"bike_id":"e3e5de13-ccd2-41df-9cbd-60e33cf5d625","system_id":"levelo_inurba_marseille","lat":43.27374,"lon":5.36256,"is_reserved":false,"is_disabled":false,"rental_uris":{"android":"levelo://app?vid=e3e5de13-ccd2-41df-9cbd-60e33cf5d625","ios":"levelo://app?vid=e3e5de13-ccd2-41df-9cbd-60e33cf5d625"},"vehicle_type_id":"4","last_reported":1748365771,"current_range_meters":16000,"station_id":"ce4bhbh2rcd13ifvqeo0","pricing_plan_id":"cebpf4jnsgd1na2vs0mg"},{"bike_id":"95b379f6-58b3-4dbc-a1d9-d24207500dcc","system_id":"levelo_inurba_marseille","lat":43.2862,"lon":5.37056,"is_reserved":false,"is_disabled":false,"rental_uris":{"android":"levelo://app?vid=95b379f6-58b3-4dbc-a1d9-d24207500dcc","ios":"levelo://app?vid=95b379f6-58b3-4dbc-a1d9-d24207500dcc"},"vehicle_type_id":"4","last_reported":1748365771,"current_range_meters":16000,"station_id":"ce4bht12rcd13ifvqi60","pricing_plan_id":"cebpf4jnsgd1na2vs0mg"},{"bike_id":"951d1d68-19d4-4462-9f9c-226b8d993970","system_id":"levelo_inurba_marseille","lat":43.27175,"lon":5.41,"is_reserved":false,"is_disabled":false,"rental_uris":{"android":"levelo://app?vid=951d1d68-19d4-4462-9f9c-226b8d993970","ios":"levelo://app?vid=951d1d68-19d4-4462-9f9c-226b8d993970"},"vehicle_type_id":"4","last_reported":1748365771,"current_range_meters":16000,"station_id":"ce4bhl12rcd13ifvqgf0","pricing_plan_id":"cebpf4jnsgd1na2vs0mg"},{"bike_id":"225d3ec7-db95-4b6c-9430-9947ae1ac790","system_id":"levelo_inurba_marseille","lat":43.30885,"lon":5.396603,"is_reserved":false,"is_disabled":false,"rental_uris":{"android":"levelo://app?vid=225d3ec7-db95-4b6c-9430-9947ae1ac790","ios":"levelo://app?vid=225d3ec7-db95-4b6c-9430-9947ae1ac790"},"vehicle_type_id":"4","last_reported":1748365771,"current_range_meters":16000,"station_id":"ce4bh012rcd13ifvqcv0","pricing_plan_id":"cebpf4jnsgd1na2vs0mg"},{"bike_id":"6ebb6dd7-e028-471a-a254-2363923c0cd9","system_id":"levelo_inurba_marseille","lat":43.32105,"lon":5.3678,"is_reserved":false,"is_disabled":false,"rental_uris":{"android":"levelo://app?vid=6ebb6dd7-e028-471a-a254-2363923c0cd9","ios":"levelo://app?vid=6ebb6dd7-e028-471a-a254-2363923c0cd9"},"vehicle_type_id":"4","last_reported":1748365771,"current_range_meters":16000,"station_id":"ce4bhrh2rcd13ifvqhug","pricing_plan_id":"cebpf4jnsgd1na2vs0mg"},{"bike_id":"2ef1d3a7-08f5-4304-babc-680d580e1f93","system_id":"levelo_inurba_marseille","lat":43.29197,"lon":5.35804,"is_reserved":false,"is_disabled":false,"rental_uris":{"android":"levelo://app?vid=2ef1d3a7-08f5-4304-babc-680d580e1f93","ios":"levelo://app?vid=2ef1d3a7-08f5-4304-babc-680d580e1f93"},"vehicle_type_id":"4","last_reported":1748365771,"current_range_meters":16000,"station_id":"ce4bhb12rcd13ifvqel0","pricing_plan_id":"cebpf4jnsgd1na2vs0mg"},{"bike_id":"134c70cc-46f1-414c-ba60-b99ba2b4a992","system_id":"levelo_inurba_marseille","lat":43.34834,"lon":5.35117,"is_reserved":false,"is_disabled":false,"rental_uris":{"android":"levelo://app?vid=134c70cc-46f1-414c-ba60-b99ba2b4a992","ios":"levelo://app?vid=134c70cc-46f1-414c-ba60-b99ba2b4a992"},"vehicle_type_id":"4","last_reported":1748365771,"current_range_meters":16000,"station_id":"","pricing_plan_id":"cebpf4jnsgd1na2vs0mg"},{"bike_id":"3ed986bc-f543-4de4-9e0d-406fb4a320b4","system_id":"levelo_inurba_marseille","lat":43.24685,"lon":5.38135,"is_reserved":false,"is_disabled":false,"rental_uris":{"android":"levelo://app?vid=3ed986bc-f543-4de4-9e0d-406fb4a320b4","ios":"levelo://app?vid=3ed986bc-f543-4de4-9e0d-406fb4a320b4"},"vehicle_type_id":"4","last_reported":1748365771,"current_range_meters":16400,"station_id":"ce4bhih2rcd13ifvqfr0","pricing_plan_id":"cebpf4jnsgd1na2vs0mg"},{"bike_id":"c155759c-8871-4e13-b983-66be1879181f","system_id":"levelo_inurba_marseille","lat":43.28609,"lon":5.3511,"is_reserved":false,"is_disabled":false,"rental_uris":{"android":"levelo://app?vid=c155759c-8871-4e13-b983-66be1879181f","ios":"levelo://app?vid=c155759c-8871-4e13-b983-66be1879181f"},"vehicle_type_id":"4","last_reported":1748365771,"current_range_meters":16400,"station_id":"ce4bhch2rcd13ifvqeug","pricing_plan_id":"cebpf4jnsgd1na2vs0mg"},{"bike_id":"b820bf88-f5f5-4408-92fd-65515caa45a6","system_id":"levelo_inurba_marseille","lat":43.28415,"lon":5.34983,"is_reserved":false,"is_disabled":false,"rental_uris":{"android":"levelo://app?vid=b820bf88-f5f5-4408-92fd-65515caa45a6","ios":"levelo://app?vid=b820bf88-f5f5-4408-92fd-65515caa45a6"},"vehicle_type_id":"4","last_reported":1748365771,"current_range_meters":16400,"station_id":"ce4bhbh2rcd13ifvqepg","pricing_plan_id":"cebpf4jnsgd1na2vs0mg"},{"bike_id":"62deacbd-68e6-4efa-afb4-fcf6e26547d7","system_id":"levelo_inurba_marseille","lat":43.2942,"lon":5.38623,"is_reserved":false,"is_disabled":false,"rental_uris":{"android":"levelo://app?vid=62deacbd-68e6-4efa-afb4-fcf6e26547d7","ios":"levelo://app?vid=62deacbd-68e6-4efa-afb4-fcf6e26547d7"},"vehicle_type_id":"4","last_reported":1748365771,"current_range_meters":16400,"station_id":"ce4bh2h2rcd13ifvqdh0","pricing_plan_id":"cebpf4jnsgd1na2vs0mg"},{"bike_id":"47583335-9e10-4931-b076-003bea66dc0e","system_id":"levelo_inurba_marseille","lat":43.28212,"lon":5.39061,"is_reserved":false,"is_disabled":false,"rental_uris":{"android":"levelo://app?vid=47583335-9e10-4931-b076-003bea66dc0e","ios":"levelo://app?vid=47583335-9e10-4931-b076-003bea66dc0e"},"vehicle_type_id":"4","last_reported":1748365771,"current_range_meters":16400,"station_id":"","pricing_plan_id":"cebpf4jnsgd1na2vs0mg"},{"bike_id":"e8264270-6e82-48a0-9de5-a3f73f59db95","system_id":"levelo_inurba_marseille","lat":43.23199,"lon":5.39969,"is_reserved":false,"is_disabled":false,"rental_uris":{"android":"levelo://app?vid=e8264270-6e82-48a0-9de5-a3f73f59db95","ios":"levelo://app?vid=e8264270-6e82-48a0-9de5-a3f73f59db95"},"vehicle_type_id":"4","last_reported":1748365771,"current_range_meters":16400,"station_id":"ce4bhn12rcd13ifvqgqg","pricing_plan_id":"cebpf4jnsgd1na2vs0mg"},{"bike_id":"7fb4c812-e964-4d4d-a344-a8a85f1a4b94","system_id":"levelo_inurba_marseille","lat":43.290516,"lon":5.359151,"is_reserved":false,"is_disabled":false,"rental_uris":{"android":"levelo://app?vid=7fb4c812-e964-4d4d-a344-a8a85f1a4b94","ios":"levelo://app?vid=7fb4c812-e964-4d4d-a344-a8a85f1a4b94"},"vehicle_type_id":"4","last_reported":1748365771,"current_range_meters":16400,"station_id":"ce4bha92rcd13ifvqeg0","pricing_plan_id":"cebpf4jnsgd1na2vs0mg"},{"bike_id":"3189a836-3bc1-4d00-96e7-6180f7019e10","system_id":"levelo_inurba_marseille","lat":43.32341,"lon":5.40612,"is_reserved":false,"is_disabled":false,"rental_uris":{"android":"levelo://app?vid=3189a836-3bc1-4d00-96e7-6180f7019e10","ios":"levelo://app?vid=3189a836-3bc1-4d00-96e7-6180f7019e10"},