{"last_updated":1701471981,"ttl":30,"version":"2.2","data":{"bikes":[{"bike_id":"3002ea0f-8d03-4cdc-8e4e-c36209494bba","system_id":"levelo_inurba_marseille","lat":43.312239,"lon":5.368562,"is_reserved":false,"is_disabled":false,"rental_uris":{"android":"levelo://app?vid=3002ea0f-8d03-4cdc-8e4e-c36209494bba","ios":"levelo://app?vid=3002ea0f-8d03-4cdc-8e4e-c36209494bba"},"vehicle_type_id":"4","last_reported":1701471981,"current_range_meters":0,"station_id":"ce4bgl92rcd13ifvqbq0","pricing_plan_id":"free"},{"bike_id":"ae349520-b12f-4bd7-afe1-ba40e5ad9153","system_id":"levelo_inurba_marseille","lat":43.314811,"lon":5.373103,"is_reserved":false,"is_disabled":false,"rental_uris":{"android":"levelo://app?vid=ae349520-b12f-4bd7-afe1-ba40e5ad9153","ios":"levelo://app?vid=ae349520-b12f-4bd7-afe1-ba40e5ad9153"},"vehicle_type_id":"4","last_reported":1701471981,"current_range_meters":26800,"station_id":"ce4bgt12rcd13ifvqcd0","pricing_plan_id":"free"},{"bike_id":"98f172a1-54a2-40f6-a1b8-3518d11bc329","system_id":"levelo_inurba_marseille","lat":43.309039,"lon":5.371797,"is_reserved":false,"is_disabled":false,"rental_uris":{"android":"levelo://app?vid=98f172a1-54a2-40f6-a1b8-3518d11bc329","ios":"levelo://app?vid=98f172a1-54a2-40f6-a1b8-3518d11bc329"},"vehicle_type_id":"4","last_reported":1701471981,"current_range_meters":23600,"station_id":"ce4bguh2rcd13ifvqckg","pricing_plan_id":"free"},{"bike_id":"9922fc93-9052-478b-b9cc-b0ee0efe8af3","system_id":"levelo_inurba_marseille","lat":43.30887,"lon":5.371893,"is_reserved":false,"is_disabled":false,"rental_uris":{"android":"levelo://app?vid=9922fc93-9052-478b-b9cc-b0ee0efe8af3","ios":"levelo://app?vid=9922fc93-9052-478b-b9cc-b0ee0efe8af3"},"vehicle_type_id":"4","last_reported":1701471981,"current_range_meters":19200,"station_id":"ce4bguh2rcd13ifvqckg","pricing_plan_id":"free"},{"bike_id":"69fbcc51-fc4f-4eab-a13a-6e69098befda","system_id":"levelo_inurba_marseille","lat":43.3089,"lon":5.37207,"is_reserved":false,"is_disabled":false,"rental_uris":{"android":"levelo://app?vid=69fbcc51-fc4f-4eab-a13a-6e69098befda","ios":"levelo://app?vid=69fbcc51-fc4f-4eab-a13a-6e69098befda"},"vehicle_type_id":"4","last_reported":1701471981,"current_range_meters":24400,"station_id":"ce4bguh2rcd13ifvqckg","pricing_plan_id":"free"},{"bike_id":"a2b440ea-8549-4633-8fb1-b1c93f34fdd7","system_id":"levelo_inurba_marseille","lat":43.30532,"lon":5.36703,"is_reserved":false,"is_disabled":false,"rental_uris":{"android":"levelo://app?vid=a2b440ea-8549-4633-8fb1-b1c93f34fdd7","ios":"levelo://app?vid=a2b440ea-8549-4633-8fb1-b1c93f34fdd7"},"vehicle_type_id":"4","last_reported":1701471981,"current_range_meters":13200,"station_id":"ce4bgrp2rcd13ifvqc9g","pricing_plan_id":"free"},{"bike_id":"834089f7-8dad-4cdf-8c51-41430a4e46ec","system_id":"levelo_inurba_marseille","lat":43.305989,"lon":5.37225,"is_reserved":false,"is_disabled":false,"rental_uris":{"android":"levelo://app?vid=834089f7-8dad-4cdf-8c51-41430a4e46ec","ios":"levelo://app?vid=834089f7-8dad-4cdf-8c51-41430a4e46ec"},"vehicle_type_id":"4","last_reported":1701471981,"current_range_meters":15600,"station_id":"ce4bgqh2rcd13ifvqc4g","pricing_plan_id":"free"},{"bike_id":"7bdbcfe9-924e-49e5-849f-fb7276f261aa","system_id":"levelo_inurba_marseille","lat":43.310533,"lon":5.377424,"is_reserved":false,"is_disabled":false,"rental_uris":{"android":"levelo://app?vid=7bdbcfe9-924e-49e5-849f-fb7276f261aa","ios":"levelo://app?vid=7bdbcfe9-924e-49e5-849f-fb7276f261aa"},"vehicle_type_id":"4","last_reported":1701471981,"current_range_meters":8800,"station_id":"","pricing_plan_id":"free"},{"bike_id":"e7926229-82d6-4d2c-be14-4be5d3bbc820","system_id":"levelo_inurba_marseille","lat":43.30439,"lon":5.36753,"is_reserved":false,"is_disabled":false,"rental_uris":{"android":"levelo://app?vid=e7926229-82d6-4d2c-be14-4be5d3bbc820","ios":"levelo://app?vid=e7926229-82d6-4d2c-be14-4be5d3bbc820"},"vehicle_type_id":"4","last_reported":1701471981,"current_range_meters":26800,"station_id":"","pricing_plan_id":"free"},{"bike_id":"cfd3bb51-5657-4943-be4a-4ca2f802bb01","system_id":"levelo_inurba_marseille","lat":43.308143,"lon":5.376586,"is_reserved":false,"is_disabled":false,"rental_uris":{"android":"levelo://app?vid=cfd3bb51-5657-4943-be4a-4ca2f802bb01","ios":"levelo://app?vid=cfd3bb51-5657-4943-be4a-4ca2f802bb01"},"vehicle_type_id":"4","last_reported":1701471981,"current_range_meters":13200,"station_id":"ce4bgv92rcd13ifvqcq0","pricing_plan_id":"free"},{"bike_id":"f427a2c3-6e4a-446b-ae2f-9be8aa7f4122","system_id":"levelo_inurba_marseille","lat":43.31719,"lon":5.376813,"is_reserved":false,"is_disabled":false,"rental_uris":{"android":"levelo://app?vid=f427a2c3-6e4a-446b-ae2f-9be8aa7f4122","ios":"levelo://app?vid=f427a2c3-6e4a-446b-ae2f-9be8aa7f4122"},"vehicle_type_id":"4","last_reported":1701471981,"current_range_meters":400,"station_id":"","pricing_plan_id":"free"},{"bike_id":"e913f328-1e31-4c22-bd87-f809ea246de4","system_id":"levelo_inurba_marseille","lat":43.317168,"lon":5.376883,"is_reserved":false,"is_disabled":false,"rental_uris":{"android":"levelo://app?vid=e913f328-1e31-4c22-bd87-f809ea246de4","ios":"levelo://app?vid=e913f328-1e31-4c22-bd87-f809ea246de4"},"vehicle_type_id":"4","last_reported":1701471981,"current_range_meters":2400,"station_id":"","pricing_plan_id":"free"},{"bike_id":"92d8af04-b91c-4fe9-87f2-3d7cc202feb7","system_id":"levelo_inurba_marseille","lat":43.317075,"lon":5.377367,"is_reserved":false,"is_disabled":false,"rental_uris":{"android":"levelo://app?vid=92d8af04-b91c-4fe9-87f2-3d7cc202feb7","ios":"levelo://app?vid=92d8af04-b91c-4fe9-87f2-3d7cc202feb7"},"vehicle_type_id":"4","last_reported":1701471981,"current_range_meters":9600,"station_id":"ce4bgth2rcd13ifvqch0","pricing_plan_id":"free"},{"bike_id":"fb6fd937-527b-4585-9058-0dfdc6436ac8","system_id":"levelo_inurba_marseille","lat":43.31351,"lon":5.37909,"is_reserved":false,"is_disabled":false,"rental_uris":{"android":"levelo://app?vid=fb6fd937-527b-4585-9058-0dfdc6436ac8","ios":"levelo://app?vid=fb6fd937-527b-4585-9058-0dfdc6436ac8"},"vehicle_type_id":"4","last_reported":1701471981,"current_range_meters":24000,"station_id":"","pricing_plan_id":"free"},{"bike_id":"593babd9-c3d2-4b6a-af9f-be560bf08fbf","system_id":"levelo_inurba_marseille","lat":43.3085,"lon":5.378815,"is_reserved":false,"is_disabled":false,"rental_uris":{"android":"levelo://app?vid=593babd9-c3d2-4b6a-af9f-be560bf08fbf","ios":"levelo://app?vid=593babd9-c3d2-4b6a-af9f-be560bf08fbf"},"vehicle_type_id":"4","last_reported":1701471981,"current_range_meters":4800,"station_id":"","pricing_plan_id":"free"},{"bike_id":"310fe3d6-e511-4d74-8ed9-5bfa2a3aadc9","system_id":"levelo_inurba_marseille","lat":43.308012,"lon":5.381511,"is_reserved":false,"is_disabled":false,"rental_uris":{"android":"levelo://app?vid=310fe3d6-e511-4d74-8ed9-5bfa2a3aadc9","ios":"levelo://app?vid=310fe3d6-e511-4d74-8ed9-5bfa2a3aadc9"},"vehicle_type_id":"4","last_reported":1701471981,"current_range_meters":5600,"station_id":"ce4bgt12rcd13ifvqce0","pricing_plan_id":"free"},{"bike_id":"a5d5f7e5-cbd1-4a21-9f37-7cea8288390b","system_id":"levelo_inurba_marseille","lat":43.308012,"lon":5.381511,"is_reserved":false,"is_disabled":false,"rental_uris":{"android":"levelo://app?vid=a5d5f7e5-cbd1-4a21-9f37-7cea8288390b","ios":"levelo://app?vid=a5d5f7e5-cbd1-4a21-9f37-7cea8288390b"},"vehicle_type_id":"4","last_reported":1701471981,"current_range_meters":1200,"station_id":"ce4bgt12rcd13ifvqce0","pricing_plan_id":"free"},{"bike_id":"e56c4c03-d6ac-416d-8380-bbaf7fb49559","system_id":"levelo_inurba_marseille","lat":43.324771,"lon":5.36557,"is_reserved":false,"is_disabled":false,"rental_uris":{"android":"levelo://app?vid=e56c4c03-d6ac-416d-8380-bbaf7fb49559","ios":"levelo://app?vid=e56c4c03-d6ac-416d-8380-bbaf7fb49559"},"vehicle_type_id":"4","last_reported":1701471981,"current_range_meters":5200,"station_id":"ce4bhs12rcd13ifvqhvg","pricing_plan_id":"free"},{"bike_id":"a6475a8a-11b3-4af0-85f3-fd2cabbfdd22","system_id":"levelo_inurba_marseille","lat":43.324771,"lon":5.36557,"is_reserved":false,"is_disabled":false,"rental_uris":{"android":"levelo://app?vid=a6475a8a-11b3-4af0-85f3-fd2cabbfdd22","ios":"levelo://app?vid=a6475a8a-11b3-4af0-85f3-fd2cabbfdd22"},"vehicle_type_id":"4","last_reported":1701471981,"current_range_meters":21200,"station_id":"ce4bhs12rcd13ifvqhvg","pricing_plan_id":"free"},{"bike_id":"19dcde97-826d-4c77-b8cf-d90ba7f775b0","system_id":"levelo_inurba_marseille","lat":43.324865,"lon":5.365584,"is_reserved":false,"is_disabled":false,"rental_uris":{"android":"levelo://app?vid=19dcde97-826d-4c77-b8cf-d90ba7f775b0","ios":"levelo://app?vid=19dcde97-826d-4c77-b8cf-d90ba7f775b0"},"vehicle_type_id":"4","last_reported":1701471981,"current_range_meters":16800,"station_id":"ce4bhs12rcd13ifvqhvg","pricing_plan_id":"free"},{"bike_id":"67ffa0e1-2f09-4ae1-9d3f-f8685768593e","system_id":"levelo_inurba_marseille","lat":43.302784,"lon":5.377158,"is_reserved":false,"is_disabled":false,"rental_uris":{"android":"levelo://app?vid=67ffa0e1-2f09-4ae1-9d3f-f8685768593e","ios":"levelo://app?vid=67ffa0e1-2f09-4ae1-9d3f-f8685768593e"},"vehicle_type_id":"4","last_reported":1701471981,"current_range_meters":6400,"station_id":"ce4bguh2rcd13ifvqcj0","pricing_plan_id":"free"},{"bike_id":"7f4043ae-377f-41d2-90ea-6844e4e53de6","system_id":"levelo_inurba_marseille","lat":43.302784,"lon":5.377158,"is_reserved":false,"is_disabled":false,"rental_uris":{"android":"levelo://app?vid=7f4043ae-377f-41d2-90ea-6844e4e53de6","ios":"levelo://app?vid=7f4043ae-377f-41d2-90ea-6844e4e53de6"},"vehicle_type_id":"4","last_reported":1701471981,"current_range_meters":25600,"station_id":"ce4bguh2rcd13ifvqcj0","pricing_plan_id":"free"},{"bike_id":"91ca68e3-c765-4044-872e-5d59456fcaee","system_id":"levelo_inurba_marseille","lat":43.30143,"lon":5.37413,"is_reserved":false,"is_disabled":false,"rental_uris":{"android":"levelo://app?vid=91ca68e3-c765-4044-872e-5d59456fcaee","ios":"levelo://app?vid=91ca68e3-c765-4044-872e-5d59456fcaee"},"vehicle_type_id":"4","last_reported":1701471981,"current_range_meters":24400,"station_id":"ce4bgs92rcd13ifvqcc0","pricing_plan_id":"free"},{"bike_id":"2275aca5-3158-4c2c-8022-ca5d2714bc86","system_id":"levelo_inurba_marseille","lat":43.319997,"lon":5.381594,"is_reserved":false,"is_disabled":false,"rental_uris":{"android":"levelo://app?vid=2275aca5-3158-4c2c-8022-ca5d2714bc86","ios":"levelo://app?vid=2275aca5-3158-4c2c-8022-ca5d2714bc86"},"vehicle_type_id":"4","last_reported":1701471981,"current_range_meters":17600,"station_id":"ce4bhr12rcd13ifvqhpg","pricing_plan_id":"free"},{"bike_id":"e9535649-358f-4bec-bada-1ddbe19c48b2","system_id":"levelo_inurba_marseille","lat":43.319935,"lon":5.381699,"is_reserved":false,"is_disabled":false,"rental_uris":{"android":"levelo://app?vid=e9535649-358f-4bec-bada-1ddbe19c48b2","ios":"levelo://app?vid=e9535649-358f-4bec-bada-1ddbe19c48b2"},"vehicle_type_id":"4","last_reported":1701471981,"current_range_meters":2400,"station_id":"ce4bhr12rcd13ifvqhpg","pricing_plan_id":"free"},{"bike_id":"3240a428-be7b-4ff5-97ee-35180b1dbf71","system_id":"levelo_inurba_marseille","lat":43.313571,"lon":5.384829,"is_reserved":false,"is_disabled":false,"rental_uris":{"android":"levelo://app?vid=3240a428-be7b-4ff5-97ee-35180b1dbf71","ios":"levelo://app?vid=3240a428-be7b-4ff5-97ee-35180b1dbf71"},"vehicle_type_id":"4","last_reported":1701471981,"current_range_meters":26400,"station_id":"ce4bgt92rcd13ifvqcf0","pricing_plan_id":"free"},{"bike_id":"79bb6607-cc78-4995-9caf-aebfa08ae6a3","system_id":"levelo_inurba_marseille","lat":43.313571,"lon":5.384829,"is_reserved":false,"is_disabled":false,"rental_uris":{"android":"levelo://app?vid=79bb6607-cc78-4995-9caf-aebfa08ae6a3","ios":"levelo://app?vid=79bb6607-cc78-4995-9caf-aebfa08ae6a3"},"vehicle_type_id":"4","last_reported":1701471981,"current_range_meters":27200,"station_id":"ce4bgt92rcd13ifvqcf0","pricing_plan_id":"free"},{"bike_id":"9fdb7f97-586d-42d2-befd-15216ba2e422","system_id":"levelo_inurba_marseille","lat":43.31183,"lon":5.38523,"is_reserved":false,"is_disabled":false,"rental_uris":{"android":"levelo://app?vid=9fdb7f97-586d-42d2-befd-15216ba2e422","ios":"levelo://app?vid=9fdb7f97-586d-42d2-befd-15216ba2e422"},"vehicle_type_id":"4","last_reported":1701471981,"current_range_meters":3600,"station_id":"","pricing_plan_id":"free"},{"bike_id":"e6dc8514-f3c0-489f-bb78-4f80772a81dd","system_id":"levelo_inurba_marseille","lat":43.299724,"lon":5.371829,"is_reserved":false,"is_disabled":false,"rental_uris":{"android":"levelo://app?vid=e6dc8514-f3c0-489f-bb78-4f80772a81dd","ios":"levelo://app?vid=e6dc8514-f3c0-489f-bb78-4f80772a81dd"},"vehicle_type_id":"4","last_reported":1701471981,"current_range_meters":12800,"station_id":"ce4bgr92rcd13ifvqc7g","pricing_plan_id":"free"},{"bike_id":"748d12ab-8e09-4ecd-b2d2-cbe0ea9624f6","system_id":"levelo_inurba_marseille","lat":43.298558,"lon":5.367595,"is_reserved":false,"is_disabled":false,"rental_uris":{"android":"levelo://app?vid=748d12ab-8e09-4ecd-b2d2-cbe0ea9624f6","ios":"levelo://app?vid=748d12ab-8e09-4ecd-b2d2-cbe0ea9624f6"},"vehicle_type_id":"4","last_reported":1701471981,"current_range_meters":8800,"station_id":"","pricing_plan_id":"free"},{"bike_id":"4a4eb50c-75bb-4e6b-9faa-8e5527e44948","system_id":"levelo_inurba_marseille","lat":43.311595,"lon":5.386787,"is_reserved":false,"is_disabled":false,"rental_uris":{"android":"levelo://app?vid=4a4eb50c-75bb-4e6b-9faa-8e5527e44948","ios":"levelo://app?vid=4a4eb50c-75bb-4e6b-9faa-8e5527e44948"},"vehicle_type_id":"4","last_reported":1701471981,"current_range_meters":6800,"station_id":"ce4bgv12rcd13ifvqcp0","pricing_plan_id":"free"},{"bike_id":"07ca6974-60d5-42ee-aed5-7b6e916369b9","system_id":"levelo_inurba_marseille","lat":43.298433,"lon":5.362774,"is_reserved":false,"is_disabled":false,"rental_uris":{"android":"levelo://app?vid=07ca6974-60d5-42ee-aed5-7b6e916369b9","ios":"levelo://app?vid=07ca6974-60d5-42ee-aed5-7b6e916369b9"},"vehicle_type_id":"4","last_reported":1701471981,"current_range_meters":18800,"station_id":"ce4bgpp2rcd13ifvqc3g","pricing_plan_id":"free"},{"bike_id":"97afcc14-b511-49d6-a39c-dd5df56c7a05","system_id":"levelo_inurba_marseille","lat":43.305364,"lon":5.384119,"is_reserved":false,"is_disabled":false,"rental_uris":{"android":"levelo://app?vid=97afcc14-b511-49d6-a39c-dd5df56c7a05","ios":"levelo://app?vid=97afcc14-b511-49d6-a39c-dd5df56c7a05"},"vehicle_type_id":"4","last_reported":1701471981,"current_range_meters":25600,"station_id":"ce4bgg92rcd13ifvqb30","pricing_plan_id":"free"},{"bike_id":"e9c2a1db-09ba-458a-8020-96222a840fa4","system_id":"levelo_inurba_marseille","lat":43.322872,"lon":5.382756,"is_reserved":false,"is_disabled":false,"rental_uris":{"android":"levelo://app?vid=e9c2a1db-09ba-458a-8020-96222a840fa4","ios":"levelo://app?vid=e9c2a1db-09ba-458a-8020-96222a840fa4"},"vehicle_type_id":"4","last_reported":1701471981,"current_range_meters":26800,"station_id":"ce4bhr12rcd13ifvqhqg","pricing_plan_id":"free"},{"bike_id":"cf758772-2103-4c5d-9248-cfc6a1d99cd2","system_id":"levelo_inurba_marseille","lat":43.322872,"lon":5.382756,"is_reserved":false,"is_disabled":false,"rental_uris":{"android":"levelo://app?vid=cf758772-2103-4c5d-9248-cfc6a1d99cd2","ios":"levelo://app?vid=cf758772-2103-4c5d-9248-cfc6a1d99cd2"},"vehicle_type_id":"4","last_reported":1701471981,"current_range_meters":29200,"station_id":"ce4bhr12rcd13ifvqhqg","pricing_plan_id":"free"},{"bike_id":"65073be3-64d5-4947-9113-fd11101b78dd","system_id":"levelo_inurba_marseille","lat":43.322872,"lon":5.382756,"is_reserved":false,"is_disabled":false,"rental_uris":{"android":"levelo://app?vid=65073be3-64d5-4947-9113-fd11101b78dd","ios":"levelo://app?vid=65073be3-64d5-4947-9113-fd11101b78dd"},"vehicle_type_id":"4","last_reported":1701471981,"current_range_meters":11200,"station_id":"ce4bhr12rcd13ifvqhqg","pricing_plan_id":"free"},{"bike_id":"c0284961-478e-4ccd-b43e-321d6e4c5580","system_id":"levelo_inurba_marseille","lat":43.328371,"lon":5.366909,"is_reserved":false,"is_disabled":false,"rental_uris":{"android":"levelo://app?vid=c0284961-478e-4ccd-b43e-321d6e4c5580","ios":"levelo://app?vid=c0284961-478e-4ccd-b43e-321d6e4c5580"},"vehicle_type_id":"4","last_reported":1701471981,"current_range_meters":5200,"station_id":"ce4bhs92rcd13ifvqi0g","pricing_plan_id":"free"},{"bike_id":"3c6eacad-63e8-42f7-9988-09cf64b64dd8","system_id":"levelo_inurba_marseille","lat":43.32829,"lon":5.36695,"is_reserved":false,"is_disabled":false,"rental_uris":{"android":"levelo://app?vid=3c6eacad-63e8-42f7-9988-09cf64b64dd8","ios":"levelo://app?vid=3c6eacad-63e8-42f7-9988-09cf64b64dd8"},"vehicle_type_id":"4","last_reported":1701471981,"current_range_meters":10800,"station_id":"ce4bhs92rcd13ifvqi0g","pricing_plan_id":"free"},{"bike_id":"38b36a3d-7fa0-425f-884d-37f0109ceebf","system_id":"levelo_inurba_marseille","lat":43.3283,"lon":5.366893,"is_reserved":false,"is_disabled":false,"rental_uris":{"android":"levelo://app?vid=38b36a3d-7fa0-425f-884d-37f0109ceebf","ios":"levelo://app?vid=38b36a3d-7fa0-425f-884d-37f0109ceebf"},"vehicle_type_id":"4","last_reported":1701471981,"current_range_meters":15600,"station_id":"ce4bhs92rcd13ifvqi0g","pricing_plan_id":"free"},{"bike_id":"e196cafb-d37f-4b76-93ee-2d2565c7ad83","system_id":"levelo_inurba_marseille","lat":43.29711,"lon":5.36616,"is_reserved":false,"is_disabled":false,"rental_uris":{"android":"levelo://app?vid=e196cafb-d37f-4b76-93ee-2d2565c7ad83","ios":"levelo://app?vid=e196cafb-d37f-4b76-93ee-2d2565c7ad83"},"vehicle_type_id":"4","last_reported":1701471981,"current_range_meters":0,"station_id":"ce4bgn12rcd13ifvqbt0","pricing_plan_id":"free"},{"bike_id":"a20e86a0-6ffd-4daa-a0bd-926b8aad31ed","system_id":"levelo_inurba_marseille","lat":43.297163,"lon":5.365866,"is_reserved":false,"is_disabled":false,"rental_uris":{"android":"levelo://app?vid=a20e86a0-6ffd-4daa-a0bd-926b8aad31ed","ios":"levelo://app?vid=a20e86a0-6ffd-4daa-a0bd-926b8aad31ed"},"vehicle_type_id":"4","last_reported":1701471981,"current_range_meters":12400,"station_id":"ce4bgn12rcd13ifvqbt0","pricing_plan_id":"free"},{"bike_id":"5983625d-69f5-485f-a399-daec2999c965","system_id":"levelo_inurba_marseille","lat":43.32158,"lon":5.38577,"is_reserved":false,"is_disabled":false,"rental_uris":{"android":"levelo://app?vid=5983625d-69f5-485f-a399-daec2999c965","ios":"levelo://app?vid=5983625d-69f5-485f-a399-daec2999c965"},"vehicle_type_id":"4","last_reported":1701471981,"current_range_meters":4800,"station_id":"","pricing_plan_id":"free"},{"bike_id":"d1b54edb-4179-477c-bd05-036dd4f393fe","system_id":"levelo_inurba_marseille","lat":43.295977,"lon":5.368207,"is_reserved":false,"is_disabled":false,"rental_uris":{"android":"levelo://app?vid=d1b54edb-4179-477c-bd05-036dd4f393fe","ios":"levelo://app?vid=d1b54edb-4179-477c-bd05-036dd4f393fe"},"vehicle_type_id":"4","last_reported":1701471981,"current_range_meters":5200,"station_id":"","pricing_plan_id":"free"},{"bike_id":"c9a793b6-383f-4ac4-bb57-1a38a504f0fb","system_id":"levelo_inurba_marseille","lat":43.317557,"lon":5.390173,"is_reserved":false,"is_disabled":false,"rental_uris":{"android":"levelo://app?vid=c9a793b6-383f-4ac4-bb57-1a38a504f0fb","ios":"levelo://app?vid=c9a793b6-383f-4ac4-bb57-1a38a504f0fb"},"vehicle_type_id":"4","last_reported":1701471981,"current_range_meters":28000,"station_id":"ce4bhqp2rcd13ifvqhng","pricing_plan_id":"free"},{"bike_id":"99263d35-6055-4dd7-9f57-42166970aeba","system_id":"levelo_inurba_marseille","lat":43.317546,"lon":5.390173,"is_reserved":false,"is_disabled":false,"rental_uris":{"android":"levelo://app?vid=99263d35-6055-4dd7-9f57-42166970aeba","ios":"levelo://app?vid=99263d35-6055-4dd7-9f57-42166970aeba"},"vehicle_type_id":"4","last_reported":1701471981,"current_range_meters":31200,"station_id":"ce4bhqp2rcd13ifvqhng","pricing_plan_id":"free"},{"bike_id":"456a16ef-b2d6-436b-9159-f504b7af4dba","system_id":"levelo_inurba_marseille","lat":43.298037,"lon":5.381066,"is_reserved":false,"is_disabled":false,"rental_uris":{"android":"levelo://app?vid=456a16ef-b2d6-436b-9159-f504b7af4dba","ios":"levelo://app?vid=456a16ef-b2d6-436b-9159-f504b7af4dba"},"vehicle_type_id":"4","last_reported":1701471981,"current_range_meters":18400,"station_id":"ce4bgip2rcd13ifvqbb0","pricing_plan_id":"free"},{"bike_id":"27bc2407-143f-4907-aed4-c68e23211834","system_id":"levelo_inurba_marseille","lat":43.304278,"lon":5.388868,"is_reserved":false,"is_disabled":false,"rental_uris":{"android":"levelo://app?vid=27bc2407-143f-4907-aed4-c68e23211834","ios":"levelo://app?vid=27bc2407-143f-4907-aed4-c68e23211834"},"vehicle_type_id":"4","last_reported":1701471981,"current_range_meters":3200,"station_id":"ce4bgk12rcd13ifvqbi0","pricing_plan_id":"free"},{"bike_id":"13ca97e5-82b5-4e06-8d78-e9793b7e594e","system_id":"levelo_inurba_marseille","lat":43.297142,"lon":5.379705,"is_reserved":false,"is_disabled":false,"rental_uris":{"android":"levelo://app?vid=13ca97e5-82b5-4e06-8d78-e9793b7e594e","ios":"levelo://app?vid=13ca97e5-82b5-4e06-8d78-e9793b7e594e"},"vehicle_type_id":"4","last_reported":1701471981,"current_range_meters":21600,"station_id":"","pricing_plan_id":"free"},{"bike_id":"e394ae98-3a5c-4fe2-bf49-1aaa67752bf4","system_id":"levelo_inurba_marseille","lat":43.299707,"lon":5.384859,"is_reserved":false,"is_disabled":false,"rental_uris":{"android":"levelo://app?vid=e394ae98-3a5c-4fe2-bf49-1aaa67752bf4","ios":"levelo://app?vid=e394ae98-3a5c-4fe2-bf49-1aaa67752bf4"},"vehicle_type_id":"4","last_reported":1701471981,"current_range_meters":26800,"station_id":"ce4bgj92rcd13ifvqbd0","pricing_plan_id":"free"},{"bike_id":"81c81765-686e-4ef8-8ba0-60d7276501a3","system_id":"levelo_inurba_marseille","lat":43.32369,"lon":5.38769,"is_reserved":false,"is_disabled":false,"rental_uris":{"android":"levelo://app?vid=81c81765-686e-4ef8-8ba0-60d7276501a3","ios":"levelo://app?vid=81c81765-686e-4ef8-8ba0-60d7276501a3"},"vehicle_type_id":"4","last_reported":1701471981,"current_range_meters":24400,"station_id":"","pricing_plan_id":"free"},{"bike_id":"55bd94a9-5e69-4187-a7b0-b05780c2a781","system_id":"levelo_inurba_marseille","lat":43.323669,"lon":5.388854,"is_reserved":false,"is_disabled":false,"rental_uris":{"android":"levelo://app?vid=55bd94a9-5e69-4187-a7b0-b05780c2a781","ios":"levelo://app?vid=55bd94a9-5e69-4187-a7b0-b05780c2a781"},"vehicle_type_id":"4","last_reported":1701471981,"current_range_meters":20800,"station_id":"ce4bhqp2rcd13ifvqhog","pricing_plan_id":"free"},{"bike_id":"eaa0e7e7-2390-47fa-909b-7b240952cbef","system_id":"levelo_inurba_marseille","lat":43.31956,"lon":5.39202,"is_reserved":false,"is_disabled":false,"rental_uris":{"android":"levelo://app?vid=eaa0e7e7-2390-47fa-909b-7b240952cbef","ios":"levelo://app?vid=eaa0e7e7-2390-47fa-909b-7b240952cbef"},"vehicle_type_id":"4","last_reported":1701471981,"current_range_meters":17600,"station_id":"","pricing_plan_id":"free"},{"bike_id":"965b1ee5-a5fd-49af-94ae-9986707d5dd0","system_id":"levelo_inurba_marseille","lat":43.29601,"lon":5.381084,"is_reserved":false,"is_disabled":false,"rental_uris":{"android":"levelo://app?vid=965b1ee5-a5fd-49af-94ae-9986707d5dd0","ios":"levelo://app?vid=965b1ee5-a5fd-49af-94ae-9986707d5dd0"},"vehicle_type_id":"4","last_reported":1701471981,"current_range_meters":29200,"station_id":"ce4bgl12rcd13ifvqbo0","pricing_plan_id":"free"},{"bike_id":"e28f90eb-cea4-49eb-a22b-ca8f56f6d451","system_id":"levelo_inurba_marseille","lat":43.29275,"lon":5.36839,"is_reserved":false,"is_disabled":false,"rental_uris":{"android":"levelo://app?vid=e28f90eb-cea4-49eb-a22b-ca8f56f6d451","ios":"levelo://app?vid=e28f90eb-cea4-49eb-a22b-ca8f56f6d451"},"vehicle_type_id":"4","last_reported":1701471981,"current_range_meters":0,"station_id":"ce4bhbp2rcd13ifvqesg","pricing_plan_id":"free"},{"bike_id":"aac8680b-ac21-4462-93d7-831cf74934f0","system_id":"levelo_inurba_marseille","lat":43.305994,"lon":5.393687,"is_reserved":false,"is_disabled":false,"rental_uris":{"android":"levelo://app?vid=aac8680b-ac21-4462-93d7-831cf74934f0","ios":"levelo://app?vid=aac8680b-ac21-4462-93d7-831cf74934f0"},"vehicle_type_id":"4","last_reported":1701471981,"current_range_meters":26000,"station_id":"ce4bh0p2rcd13ifvqd80","pricing_plan_id":"free"},{"bike_id":"2ecf098d-365c-4d5b-8ad2-2c631a6e187c","system_id":"levelo_inurba_marseille","lat":43.302992,"lon":5.392136,"is_reserved":false,"is_disabled":false,"rental_uris":{"android":"levelo://app?vid=2ecf098d-365c-4d5b-8ad2-2c631a6e187c","ios":"levelo://app?vid=2ecf098d-365c-4d5b-8ad2-2c631a6e187c"},"vehicle_type_id":"4","last_reported":1701471981,"current_range_meters":15200,"station_id":"ce4bgkh2rcd13ifvqbk0","pricing_plan_id":"free"},{"bike_id":"2265ac7c-5675-494e-8374-5984438eb0f0","system_id":"levelo_inurba_marseille","lat":43.292311,"lon":5.360731,"is_reserved":false,"is_disabled":false,"rental_uris":{"android":"levelo://app?vid=2265ac7c-5675-494e-8374-5984438eb0f0","ios":"levelo://app?vid=2265ac7c-5675-494e-8374-5984438eb0f0"},"vehicle_type_id":"4","last_reported":1701471981,"current_range_meters":5200,"station_id":"ce4bhbh2rcd13ifvqeqg","pricing_plan_id":"free"},{"bike_id":"00746fc3-6c23-4bab-aa6d-cf7da193780e","system_id":"levelo_inurba_marseille","lat":43.309047,"lon":5.396551,"is_reserved":false,"is_disabled":false,"rental_uris":{"android":"levelo://app?vid=00746fc3-6c23-4bab-aa6d-cf7da193780e","ios":"levelo://app?vid=00746fc3-6c23-4bab-aa6d-cf7da193780e"},"vehicle_type_id":"4","last_reported":1701471981,"current_range_meters":14800,"station_id":"ce4bh012rcd13ifvqcv0","pricing_plan_id":"free"},{"bike_id":"39c04fec-b8d1-42af-8068-1cc09f98ae9b","system_id":"levelo_inurba_marseille","lat":43.309047,"lon":5.396551,"is_reserved":false,"is_disabled":false,"rental_uris":{"android":"levelo://app?vid=39c04fec-b8d1-42af-8068-1cc09f98ae9b","ios":"levelo://app?vid=39c04fec-b8d1-42af-8068-1cc09f98ae9b"},"vehicle_type_id":"4","last_reported":1701471981,"current_range_meters":22800,"station_id":"ce4bh012rcd13ifvqcv0","pricing_plan_id":"free"},{"bike_id":"064061a8-629e-4dd5-aac4-c93627166821","system_id":"levelo_inurba_marseille","lat":43.313291,"lon":5.396838,"is_reserved":false,"is_disabled":false,"rental_uris":{"android":"levelo://app?vid=064061a8-629e-4dd5-aac4-c93627166821","ios":"levelo://app?vid=064061a8-629e-4dd5-aac4-c93627166821"},"vehicle_type_id":"4","last_reported":1701471981,"current_range_meters":24000,"station_id":"ce4bgvp2rcd13ifvqcu0","pricing_plan_id":"free"},{"bike_id":"a22b40db-0867-4535-bec2-cd80000493d1","system_id":"levelo_inurba_marseille","lat":43.313291,"lon":5.396838,"is_reserved":false,"is_disabled":false,"rental_uris":{"android":"levelo://app?vid=a22b40db-0867-4535-bec2-cd80000493d1","ios":"levelo://app?vid=a22b40db-0867-4535-bec2-cd80000493d1"},"vehicle_type_id":"4","last_reported":1701471981,"current_range_meters":5600,"station_id":"ce4bgvp2rcd13ifvqcu0","pricing_plan_id":"free"},{"bike_id":"52391c10-12e8-476c-b36d-42eec3feee02","system_id":"levelo_inurba_marseille","lat":43.309038,"lon":5.396546,"is_reserved":false,"is_disabled":false,"rental_uris":{"android":"levelo://app?vid=52391c10-12e8-476c-b36d-42eec3feee02","ios":"levelo://app?vid=52391c10-12e8-476c-b36d-42eec3feee02"},"vehicle_type_id":"4","last_reported":1701471981,"current_range_meters":10800,"station_id":"ce4bh012rcd13ifvqcv0","pricing_plan_id":"free"},{"bike_id":"9abc101e-60f7-4b26-8d60-9d6d6bbc762c","system_id":"levelo_inurba_marseille","lat":43.31326,"lon":5.39696,"is_reserved":false,"is_disabled":false,"rental_uris":{"android":"levelo://app?vid=9abc101e-60f7-4b26-8d60-9d6d6bbc762c","ios":"levelo://app?vid=9abc101e-60f7-4b26-8d60-9d6d6bbc762c"},"vehicle_type_id":"4","last_reported":1701471981,"current_range_meters":400,"station_id":"ce4bgvp2rcd13ifvqcu0","pricing_plan_id":"free"},{"bike_id":"6d12ca8e-ff25-4bb6-8ff4-254e2b663862","system_id":"levelo_inurba_marseille","lat":43.309038,"lon":5.396546,"is_reserved":false,"is_disabled":false,"rental_uris":{"android":"levelo://app?vid=6d12ca8e-ff25-4bb6-8ff4-254e2b663862","ios":"levelo://app?vid=6d12ca8e-ff25-4bb6-8ff4-254e2b663862"},"vehicle_type_id":"4","last_reported":1701471981,"current_range_meters":23600,"station_id":"ce4bh012rcd13ifvqcv0","pricing_plan_id":"free"},{"bike_id":"2c9333a9-f303-4528-a874-91f7d904521d","system_id":"levelo_inurba_marseille","lat":43.309047,"lon":5.396551,"is_reserved":false,"is_disabled":false,"rental_uris":{"android":"levelo://app?vid=2c9333a9-f303-4528-a874-91f7d904521d","ios":"levelo://app?vid=2c9333a9-f303-4528-a874-91f7d904521d"},"vehicle_type_id":"4","last_reported":1701471981,"current_range_meters":28400,"station_id":"ce4bh012rcd13ifvqcv0","pricing_plan_id":"free"},{"bike_id":"b9263a12-60ba-41fe-abc7-22ee41c2ab5f","system_id":"levelo_inurba_marseille","lat":43.29529,"lon":5.385581,"is_reserved":false,"is_disabled":false,"rental_uris":{"android":"levelo://app?vid=b9263a12-60ba-41fe-abc7-22ee41c2ab5f","ios":"levelo://app?vid=b9263a12-60ba-41fe-abc7-22ee41c2ab5f"},"vehicle_type_id":"4","last_reported":1701471981,"current_range_meters":20000,"station_id":"ce4bgih2rcd13ifvqba0","pricing_plan_id":"free"},{"bike_id":"6d40c3c7-58ed-4bc3-a5c8-f16502ac5f18","system_id":"levelo_inurba_marseille","lat":43.290624,"lon":5.359245,"is_reserved":false,"is_disabled":false,"rental_uris":{"android":"levelo://app?vid=6d40c3c7-58ed-4bc3-a5c8-f16502ac5f18","ios":"levelo://app?vid=6d40c3c7-58ed-4bc3-a5c8-f16502ac5f18"},"vehicle_type_id":"4","last_reported":1701471981,"current_range_meters":22400,"station_id":"ce4bha92rcd13ifvqeg0","pricing_plan_id":"free"},{"bike_id":"b91618f4-f018-4144-a07a-697ad3c4f5bd","system_id":"levelo_inurba_marseille","lat":43.290624,"lon":5.359245,"is_reserved":false,"is_disabled":false,"rental_uris":{"android":"levelo://app?vid=b91618f4-f018-4144-a07a-697ad3c4f5bd","ios":"levelo://app?vid=b91618f4-f018-4144-a07a-697ad3c4f5bd"},"vehicle_type_id":"4","last_reported":1701471981,"current_range_meters":14400,"station_id":"ce4bha92rcd13ifvqeg0","pricing_plan_id":"free"},{"bike_id":"a22f1bc1-69fc-4e9b-9d71-284d49d6a028","system_id":"levelo_inurba_marseille","lat":43.290631,"lon":5.359244,"is_reserved":false,"is_disabled":false,"rental_uris":{"android":"levelo://app?vid=a22f1bc1-69fc-4e9b-9d71-284d49d6a028","ios":"levelo://app?vid=a22f1bc1-69fc-4e9b-9d71-284d49d6a028"},"vehicle_type_id":"4","last_reported":1701471981,"current_range_meters":10000,"station_id":"ce4bha92rcd13ifvqeg0","pricing_plan_id":"free"},{"bike_id":"2bafd733-98f9-4e8e-a50d-308b64ea48dc","system_id":"levelo_inurba_marseille","lat":43.290327,"lon":5.375711,"is_reserved":false,"is_disabled":false,"rental_uris":{"android":"levelo://app?vid=2bafd733-98f9-4e8e-a50d-308b64ea48dc","ios":"levelo://app?vid=2bafd733-98f9-4e8e-a50d-308b64ea48dc"},"vehicle_type_id":"4","last_reported":1701471981,"current_range_meters":15200,"station_id":"ce4bh692rcd13ifvqe90","pricing_plan_id":"free"},{"bike_id":"22b162fe-f186-47bc-b19b-cba5d2ff3146","system_id":"levelo_inurba_marseille","lat":43.290327,"lon":5.375711,"is_reserved":false,"is_disabled":false,"rental_uris":{"android":"levelo://app?vid=22b162fe-f186-47bc-b19b-cba5d2ff3146","ios":"levelo://app?vid=22b162fe-f186-47bc-b19b-cba5d2ff3146"},"vehicle_type_id":"4","last_reported":1701471981,"current_range_meters":4400,"station_id":"ce4bh692rcd13ifvqe90","pricing_plan_id":"free"},{"bike_id":"6f7639be-f397-4e47-82e9-12c443fbe5bf","system_id":"levelo_inurba_marseille","lat":43.289468,"lon":5.363719,"is_reserved":false,"is_disabled":false,"rental_uris":{"android":"levelo://app?vid=6f7639be-f397-4e47-82e9-12c443fbe5bf","ios":"levelo://app?vid=6f7639be-f397-4e47-82e9-12c443fbe5bf"},"vehicle_type_id":"4","last_reported":1701471981,"current_range_meters":18000,"station_id":"ce4bhc92rcd13ifvqetg","pricing_plan_id":"free"},{"bike_id":"a098c043-1738-433e-96d9-84971e0f52ba","system_id":"levelo_inurba_marseille","lat":43.28944,"lon":5.36411,"is_reserved":false,"is_disabled":false,"rental_uris":{"android":"levelo://app?vid=a098c043-1738-433e-96d9-84971e0f52ba","ios":"levelo://app?vid=a098c043-1738-433e-96d9-84971e0f52ba"},"vehicle_type_id":"4","last_reported":1701471981,"current_range_meters":20000,"station_id":"ce4bhc92rcd13ifvqetg","pricing_plan_id":"free"},{"bike_id":"c58b39fe-f050-44d5-bbe7-4abcb7249795","system_id":"levelo_inurba_marseille","lat":43.291541,"lon":5.380542,"is_reserved":false,"is_disabled":false,"rental_uris":{"android":"levelo://app?vid=c58b39fe-f050-44d5-bbe7-4abcb7249795","ios":"levelo://app?vid=c58b39fe-f050-44d5-bbe7-4abcb7249795"},"vehicle_type_id":"4","last_reported":1701471981,"current_range_meters":16800,"station_id":"ce4bhn92rcd13ifvqgrg","pricing_plan_id":"free"},{"bike_id":"e4474017-a3b7-4490-b009-86b296436713","system_id":"levelo_inurba_marseille","lat":43.292642,"lon":5.384254,"is_reserved":false,"is_disabled":false,"rental_uris":{"android":"levelo://app?vid=e4474017-a3b7-4490-b009-86b296436713","ios":"levelo://app?vid=e4474017-a3b7-4490-b009-86b296436713"},"vehicle_type_id":"4","last_reported":1701471981,"current_range_meters":800,"station_id":"ce4bh692rcd13ifvqea0","pricing_plan_id":"free"},{"bike_id":"fcd54450-5104-46a2-9063-0d49eac4edcc","system_id":"levelo_inurba_marseille","lat":43.287154,"lon":5.399979,"is_reserved":false,"is_disabled":false,"rental_uris":{"android":"levelo://app?vid=fcd54450-5104-46a2-9063-0d49eac4edcc","ios":"levelo://app?vid=fcd54450-5104-46a2-9063-0d49eac4edcc"},"vehicle_type_id":"4","last_reported":1701471981,"current_range_meters":30400,"station_id":"ce4bho92rcd13ifvqh3g","pricing_plan_id":"free"},{"bike_id":"c4af7b6b-ba69-4724-9d0f-3d747c2f17c3","system_id":"levelo_inurba_marseille","lat":43.290104,"lon":5.356111,"is_reserved":false,"is_disabled":false,"rental_uris":{"android":"levelo://app?vid=c4af7b6b-ba69-4724-9d0f-3d747c2f17c3","ios":"levelo://app?vid=c4af7b6b-ba69-4724-9d0f-3d747c2f17c3"},"vehicle_type_id":"4","last_reported":1701471981,"current_range_meters":10000,"station_id":"ce4bhb92rcd13ifvqen0","pricing_plan_id":"free"},{"bike_id":"9465dd10-b10d-40c6-93db-89b51c107c0a","system_id":"levelo_inurba_marseille","lat":43.289924,"lon":5.356047,"is_reserved":false,"is_disabled":false,"rental_uris":{"android":"levelo://app?vid=9465dd10-b10d-40c6-93db-89b51c107c0a","ios":"levelo://app?vid=9465dd10-b10d-40c6-93db-89b51c107c0a"},"vehicle_type_id":"4","last_reported":1701471981,"current_range_meters":26000,"station_id":"ce4bhb92rcd13ifvqen0","pricing_plan_id":"free"},{"bike_id":"f101e16c-2edd-4bf5-ad61-91abc7c7fb3b","system_id":"levelo_inurba_marseille","lat":43.2978,"lon":5.39334,"is_reserved":false,"is_disabled":false,"rental_uris":{"android":"levelo://app?vid=f101e16c-2edd-4bf5-ad61-91abc7c7fb3b","ios":"levelo://app?vid=f101e16c-2edd-4bf5-ad61-91abc7c7fb3b"},"vehicle_type_id":"4","last_reported":1701471981,"current_range_meters":14400,"station_id":"chh1huq6cuj3fo74tm60","pricing_plan_id":"free"},{"bike_id":"bb5ac502-0791-4778-9b7b-eeaffd8b807c","system_id":"levelo_inurba_marseille","lat":43.297735,"lon":5.39344,"is_reserved":false,"is_disabled":false,"rental_uris":{"android":"levelo://app?vid=bb5ac502-0791-4778-9b7b-eeaffd8b807c","ios":"levelo://app?vid=bb5ac502-0791-4778-9b7b-eeaffd8b807c"},"vehicle_type_id":"4","last_reported":1701471981,"current_range_meters":4000,"station_id":"chh1huq6cuj3fo74tm60","pricing_plan_id":"free"},{"bike_id":"87bafa64-4e12-4af9-9ccd-388140a2fea0","system_id":"levelo_inurba_marseille","lat":43.289743,"lon":5.378304,"is_reserved":false,"is_disabled":false,"rental_uris":{"android":"levelo://app?vid=87bafa64-4e12-4af9-9ccd-388140a2fea0","ios":"levelo://app?vid=87bafa64-4e12-4af9-9ccd-388140a2fea0"},"vehicle_type_id":"4","last_reported":1701471981,"current_range_meters":14800,"station_id":"ce4bh9p2rcd13ifvqed0","pricing_plan_id":"free"},{"bike_id":"fdc2fc9e-2f29-4c49-bcea-7a560d4446be","system_id":"levelo_inurba_marseille","lat":43.330529,"lon":5.390608,"is_reserved":false,"is_disabled":false,"rental_uris":{"android":"levelo://app?vid=fdc2fc9e-2f29-4c49-bcea-7a560d4446be","ios":"levelo://app?vid=fdc2fc9e-2f29-4c49-bcea-7a560d4446be"},"vehicle_type_id":"4","last_reported":1701471981,"current_range_meters":10800,"station_id":"","pricing_plan_id":"free"},{"bike_id":"f71bec80-1512-44cd-95d2-3d7fdee5df30","system_id":"levelo_inurba_marseille","lat":43.330539,"lon":5.390621,"is_reserved":false,"is_disabled":false,"rental_uris":{"android":"levelo://app?vid=f71bec80-1512-44cd-95d2-3d7fdee5df30","ios":"levelo://app?vid=f71bec80-1512-44cd-95d2-3d7fdee5df30"},"vehicle_type_id":"4","last_reported":1701471981,"current_range_meters":14000,"station_id":"","pricing_plan_id":"free"},{"bike_id":"1631238b-5f22-4d43-85c8-d77088ce1407","system_id":"levelo_inurba_marseille","lat":43.288533,"lon":5.35854,"is_reserved":false,"is_disabled":false,"rental_uris":{"android":"levelo://app?vid=1631238b-5f22-4d43-85c8-d77088ce1407","ios":"levelo://app?vid=1631238b-5f22-4d43-85c8-d77088ce1407"},"vehicle_type_id":"4","last_reported":1701471981,"current_range_meters":22400,"station_id":"ce4bhb12rcd13ifvqem0","pricing_plan_id":"free"},{"bike_id":"4b60a2e9-509d-4442-9dcb-36516b43a273","system_id":"levelo_inurba_marseille","lat":43.28847,"lon":5.35853,"is_reserved":false,"is_disabled":false,"rental_uris":{"android":"levelo://app?vid=4b60a2e9-509d-4442-9dcb-36516b43a273","ios":"levelo://app?vid=4b60a2e9-509d-4442-9dcb-36516b43a273"},"vehicle_type_id":"4","last_reported":1701471981,"current_range_meters":1200,"station_id":"ce4bhb12rcd13ifvqem0","pricing_plan_id":"free"},{"bike_id":"cfcc2620-2368-4499-aeb3-d693ef48f2aa","system_id":"levelo_inurba_marseille","lat":43.281044,"lon":5.378308,"is_reserved":false,"is_disabled":false,"rental_uris":{"android":"levelo://app?vid=cfcc2620-2368-4499-aeb3-d693ef48f2aa","ios":"levelo://app?vid=cfcc2620-2368-4499-aeb3-d693ef48f2aa"},"vehicle_type_id":"4","last_reported":1701471981,"current_range_meters":21600,"station_id":"ce4bha12rcd13ifvqee0","pricing_plan_id":"free"},{"bike_id":"920728c3-d140-4eb7-9410-cfa127aa414b","system_id":"levelo_inurba_marseille","lat":43.33742,"lon":5.37451,"is_reserved":false,"is_disabled":false,"rental_uris":{"android":"levelo://app?vid=920728c3-d140-4eb7-9410-cfa127aa414b","ios":"levelo://app?vid=920728c3-d140-4eb7-9410-cfa127aa414b"},"vehicle_type_id":"4","last_reported":1701471981,"current_range_meters":28000,"station_id":"","pricing_plan_id":"free"},{"bike_id":"60ecfda5-f463-42b4-926c-8ffa5af98933","system_id":"levelo_inurba_marseille","lat":43.309371,"lon":5.401449,"is_reserved":false,"is_disabled":false,"rental_uris":{"android":"levelo://app?vid=60ecfda5-f463-42b4-926c-8ffa5af98933","ios":"levelo://app?vid=60ecfda5-f463-42b4-926c-8ffa5af98933"},"vehicle_type_id":"4","last_reported":1701471981,"current_range_meters":4400,"station_id":"ce4bgvp2rcd13ifvqct0","pricing_plan_id":"free"},{"bike_id":"f1fe0867-a458-4712-b3c1-00eac692293c","system_id":"levelo_inurba_marseille","lat":43.309371,"lon":5.401449,"is_reserved":false,"is_disabled":false,"rental_uris":{"android":"levelo://app?vid=f1fe0867-a458-4712-b3c1-00eac692293c","ios":"levelo://app?vid=f1fe0867-a458-4712-b3c1-00eac692293c"},"vehicle_type_id":"4","last_reported":1701471981,"current_range_meters":16000,"station_id":"ce4bgvp2rcd13ifvqct0","pricing_plan_id":"free"},{"bike_id":"64f80110-6cb7-4a64-ad65-c3bd8829c84f","system_id":"levelo_inurba_marseille","lat":43.309371,"lon":5.401449,"is_reserved":false,"is_disabled":false,"rental_uris":{"android":"levelo://app?vid=64f80110-6cb7-4a64-ad65-c3bd8829c84f","ios":"levelo://app?vid=64f80110-6cb7-4a64-ad65-c3bd8829c84f"},"vehicle_type_id":"4","last_reported":1701471981,"current_range_meters":20000,"station_id":"ce4bgvp2rcd13ifvqct0","pricing_plan_id":"free"},{"bike_id":"72426d3a-3527-42e0-9492-6efd6ad271cb","system_id":"levelo_inurba_marseille","lat":43.309371,"lon":5.401449,"is_reserved":false,"is_disabled":false,"rental_uris":{"android":"levelo://app?vid=72426d3a-3527-42e0-9492-6efd6ad271cb","ios":"levelo://app?vid=72426d3a-3527-42e0-9492-6efd6ad271cb"},"vehicle_type_id":"4","last_reported":1701471981,"current_range_meters":31200,"station_id":"ce4bgvp2rcd13ifvqct0","pricing_plan_id":"free"},{"bike_id":"734af6c9-32d3-49fc-a610-15859e8bd4a7","system_id":"levelo_inurba_marseille","lat":43.309276,"lon":5.401426,"is_reserved":false,"is_disabled":false,"rental_uris":{"android":"levelo://app?vid=734af6c9-32d3-49fc-a610-15859e8bd4a7","ios":"levelo://app?vid=734af6c9-32d3-49fc-a610-15859e8bd4a7"},"vehicle_type_id":"4","last_reported":1701471981,"current_range_meters":30400,"station_id":"ce4bgvp2rcd13ifvqct0","pricing_plan_id":"free"},{"bike_id":"65ac5f69-fce7-47ef-9056-4949b0e0591e","system_id":"levelo_inurba_marseille","lat":43.309371,"lon":5.401449,"is_reserved":false,"is_disabled":false,"rental_uris":{"android":"levelo://app?vid=65ac5f69-fce7-47ef-9056-4949b0e0591e","ios":"levelo://app?vid=65ac5f69-fce7-47ef-9056-4949b0e0591e"},"vehicle_type_id":"4","last_reported":1701471981,"current_range_meters":26800,"station_id":"ce4bgvp2rcd13ifvqct0","pricing_plan_id":"free"},{"bike_id":"5d2d3e4a-87cc-4a81-b409-386ca894a9e7","system_id":"levelo_inurba_marseille","lat":43.30928,"lon":5.40154,"is_reserved":false,"is_disabled":false,"rental_uris":{"android":"levelo://app?vid=5d2d3e4a-87cc-4a81-b409-386ca894a9e7","ios":"levelo://app?vid=5d2d3e4a-87cc-4a81-b409-386ca894a9e7"},"vehicle_type_id":"4","last_reported":1701471981,"current_range_meters":31200,"station_id":"ce4bgvp2rcd13ifvqct0","pricing_plan_id":"free"},{"bike_id":"3d556dae-7947-49fd-a8aa-d4cfa297cc42","system_id":"levelo_inurba_marseille","lat":43.306412,"lon":5.401035,"is_reserved":false,"is_disabled":false,"rental_uris":{"android":"levelo://app?vid=3d556dae-7947-49fd-a8aa-d4cfa297cc42","ios":"levelo://app?vid=3d556dae-7947-49fd-a8aa-d4cfa297cc42"},"vehicle_type_id":"4","last_reported":1701471981,"current_range_meters":30000,"station_id":"ce4bh112rcd13ifvqda0","pricing_plan_id":"free"},{"bike_id":"725ac4ba-a8f9-4203-a8b0-6a86ea5fed63","system_id":"levelo_inurba_marseille","lat":43.30642,"lon":5.401031,"is_reserved":false,"is_disabled":false,"rental_uris":{"android":"levelo://app?vid=725ac4ba-a8f9-4203-a8b0-6a86ea5fed63","ios":"levelo://app?vid=725ac4ba-a8f9-4203-a8b0-6a86ea5fed63"},"vehicle_type_id":"4","last_reported":1701471981,"current_range_meters":26000,"station_id":"ce4bh112rcd13ifvqda0","pricing_plan_id":"free"},{"bike_id":"827823f1-fe64-4864-8c21-b254f0b7e036","system_id":"levelo_inurba_marseille","lat":43.306412,"lon":5.401035,"is_reserved":false,"is_disabled":false,"rental_uris":{"android":"levelo://app?vid=827823f1-fe64-4864-8c21-b254f0b7e036","ios":"levelo://app?vid=827823f1-fe64-4864-8c21-b254f0b7e036"},"vehicle_type_id":"4","last_reported":1701471981,"current_range_meters":8000,"station_id":"ce4bh112rcd13ifvqda0","pricing_plan_id":"free"},{"bike_id":"1cb3288c-2360-4421-bee9-817939cff32b","system_id":"levelo_inurba_marseille","lat":43.337733,"lon":5.374457,"is_reserved":false,"is_disabled":false,"rental_uris":{"android":"levelo://app?vid=1cb3288c-2360-4421-bee9-817939cff32b","ios":"levelo://app?vid=1cb3288c-2360-4421-bee9-817939cff32b"},"vehicle_type_id":"4","last_reported":1701471981,"current_range_meters":30800,"station_id":"","pricing_plan_id":"free"},{"bike_id":"ecd35b54-70ca-40a4-95a6-2ffe2d32d5e3","system_id":"levelo_inurba_marseille","lat":43.28727,"lon":5.36078,"is_reserved":false,"is_disabled":false,"rental_uris":{"android":"levelo://app?vid=ecd35b54-70ca-40a4-95a6-2ffe2d32d5e3","ios":"levelo://app?vid=ecd35b54-70ca-40a4-95a6-2ffe2d32d5e3"},"vehicle_type_id":"4","last_reported":1701471981,"current_range_meters":27200,"station_id":"cki0cbj6b192h4jlfktg","pricing_plan_id":"free"},{"bike_id":"d27a50e8-78f6-40af-ba67-5e866b035351","system_id":"levelo_inurba_marseille","lat":43.286961,"lon":5.373785,"is_reserved":false,"is_disabled":false,"rental_uris":{"android":"levelo://app?vid=d27a50e8-78f6-40af-ba67-5e866b035351","ios":"levelo://app?vid=d27a50e8-78f6-40af-ba67-5e866b035351"},"vehicle_type_id":"4","last_reported":1701471981,"current_range_meters":29600,"station_id":"ce4bh3p2rcd13ifvqdq0","pricing_plan_id":"free"},{"bike_id":"cd5e7d5d-a1d8-41e2-911a-8c46458a906c","system_id":"levelo_inurba_marseille","lat":43.286961,"lon":5.373785,"is_reserved":false,"is_disabled":false,"rental_uris":{"android":"levelo://app?vid=cd5e7d5d-a1d8-41e2-911a-8c46458a906c","ios":"levelo://app?vid=cd5e7d5d-a1d8-41e2-911a-8c46458a906c"},"vehicle_type_id":"4","last_reported":1701471981,"current_range_meters":19600,"station_id":"ce4bh3p2rcd13ifvqdq0","pricing_plan_id":"free"},{"bike_id":"ce2ac73b-b6ac-4404-9e0d-910b4101c396","system_id":"levelo_inurba_marseille","lat":43.295196,"lon":5.39397,"is_reserved":false,"is_disabled":false,"rental_uris":{"android":"levelo://app?vid=ce2ac73b-b6ac-4404-9e0d-910b4101c396","ios":"levelo://app?vid=ce2ac73b-b6ac-4404-9e0d-910b4101c396"},"vehicle_type_id":"4","last_reported":1701471981,"current_range_meters":22400,"station_id":"ce4bh292rcd13ifvqdf0","pricing_plan_id":"free"},{"bike_id":"ca6a3ab0-e3a9-45af-b571-7ba4851030a8","system_id":"levelo_inurba_marseille","lat":43.286961,"lon":5.373785,"is_reserved":false,"is_disabled":false,"rental_uris":{"android":"levelo://app?vid=ca6a3ab0-e3a9-45af-b571-7ba4851030a8","ios":"levelo://app?vid=ca6a3ab0-e3a9-45af-b571-7ba4851030a8"},"vehicle_type_id":"4","last_reported":1701471981,"current_range_meters":16000,"station_id":"ce4bh3p2rcd13ifvqdq0","pricing_plan_id":"free"},{"bike_id":"53e286da-7cbe-4a00-996e-1f353133000b","system_id":"levelo_inurba_marseille","lat":43.295194,"lon":5.39397,"is_reserved":false,"is_disabled":false,"rental_uris":{"android":"levelo://app?vid=53e286da-7cbe-4a00-996e-1f353133000b","ios":"levelo://app?vid=53e286da-7cbe-4a00-996e-1f353133000b"},"vehicle_type_id":"4","last_reported":1701471981,"current_range_meters":21200,"station_id":"ce4bh292rcd13ifvqdf0","pricing_plan_id":"free"},{"bike_id":"3100a02f-2dda-45dc-b697-ea3705d95920","system_id":"levelo_inurba_marseille","lat":43.302759,"lon":5.400793,"is_reserved":false,"is_disabled":false,"rental_uris":{"android":"levelo://app?vid=3100a02f-2dda-45dc-b697-ea3705d95920","ios":"levelo://app?vid=3100a02f-2dda-45dc-b697-ea3705d95920"},"vehicle_type_id":"4","last_reported":1701471981,"current_range_meters":17200,"station_id":"ce4bgvh2rcd13ifvqcs0","pricing_plan_id":"free"},{"bike_id":"c83588aa-f849-4743-a57c-0a191d6e18c8","system_id":"levelo_inurba_marseille","lat":43.289307,"lon":5.38406,"is_reserved":false,"is_disabled":false,"rental_uris":{"android":"levelo://app?vid=c83588aa-f849-4743-a57c-0a191d6e18c8","ios":"levelo://app?vid=c83588aa-f849-4743-a57c-0a191d6e18c8"},"vehicle_type_id":"4","last_reported":1701471981,"current_range_meters":23600,"station_id":"ce4bh612rcd13ifvqe6g","pricing_plan_id":"free"},{"bike_id":"d9aed37e-cd32-484f-9bac-c8c380d36d6b","system_id":"levelo_inurba_marseille","lat":43.29024,"lon":5.38652,"is_reserved":false,"is_disabled":false,"rental_uris":{"android":"levelo://app?vid=d9aed37e-cd32-484f-9bac-c8c380d36d6b","ios":"levelo://app?vid=d9aed37e-cd32-484f-9bac-c8c380d36d6b"},"vehicle_type_id":"4","last_reported":1701471981,"current_range_meters":23600,"station_id":"ce4bh4p2rcd13ifvqe0g","pricing_plan_id":"free"},{"bike_id":"0c255fd0-4021-4307-9bd8-19a28f822961","system_id":"levelo_inurba_marseille","lat":43.290345,"lon":5.38646,"is_reserved":false,"is_disabled":false,"rental_uris":{"android":"levelo://app?vid=0c255fd0-4021-4307-9bd8-19a28f822961","ios":"levelo://app?vid=0c255fd0-4021-4307-9bd8-19a28f822961"},"vehicle_type_id":"4","last_reported":1701471981,"current_range_meters":0,"station_id":"ce4bh4p2rcd13ifvqe0g","pricing_plan_id":"free"},{"bike_id":"42c2b8ad-4399-4cee-b352-4d53320cfb2e","system_id":"levelo_inurba_marseille","lat":43.302759,"lon":5.400793,"is_reserved":false,"is_disabled":false,"rental_uris":{"android":"levelo://app?vid=42c2b8ad-4399-4cee-b352-4d53320cfb2e","ios":"levelo://app?vid=42c2b8ad-4399-4cee-b352-4d53320cfb2e"},"vehicle_type_id":"4","last_reported":1701471981,"current_range_meters":9600,"station_id":"ce4bgvh2rcd13ifvqcs0","pricing_plan_id":"free"},{"bike_id":"bddee9d1-56af-40bf-84c3-b098693e8bc2","system_id":"levelo_inurba_marseille","lat":43.30244,"lon":5.40087,"is_reserved":false,"is_disabled":false,"rental_uris":{"android":"levelo://app?vid=bddee9d1-56af-40bf-84c3-b098693e8bc2","ios":"levelo://app?vid=bddee9d1-56af-40bf-84c3-b098693e8bc2"},"vehicle_type_id":"4","last_reported":1701471981,"current_range_meters":10000,"station_id":"ce4bgvh2rcd13ifvqcs0","pricing_plan_id":"free"},{"bike_id":"ae273232-904a-4732-b71f-c562e810fa85","system_id":"levelo_inurba_marseille","lat":43.28704,"lon":5.37959,"is_reserved":false,"is_disabled":false,"rental_uris":{"android":"levelo://app?vid=ae273232-904a-4732-b71f-c562e810fa85","ios":"levelo://app?vid=ae273232-904a-4732-b71f-c562e810fa85"},"vehicle_type_id":"4","last_reported":1701471981,"current_range_meters":28400,"station_id":"ce4bh9p2rcd13ifvqec0","pricing_plan_id":"free"},{"bike_id":"0a49e11d-d8de-4489-83c9-bb1afc6bb1b6","system_id":"levelo_inurba_marseille","lat":43.29209,"lon":5.393605,"is_reserved":false,"is_disabled":false,"rental_uris":{"android":"levelo://app?vid=0a49e11d-d8de-4489-83c9-bb1afc6bb1b6","ios":"levelo://app?vid=0a49e11d-d8de-4489-83c9-bb1afc6bb1b6"},"vehicle_type_id":"4","last_reported":1701471981,"current_range_meters":26000,"station_id":"","pricing_plan_id":"free"},{"bike_id":"189622c6-31d0-4222-82db-9ef7fb206284","system_id":"levelo_inurba_marseille","lat":43.284534,"lon":5.358662,"is_reserved":false,"is_disabled":false,"rental_uris":{"android":"levelo://app?vid=189622c6-31d0-4222-82db-9ef7fb206284","ios":"levelo://app?vid=189622c6-31d0-4222-82db-9ef7fb206284"},"vehicle_type_id":"4","last_reported":1701471981,"current_range_meters":4000,"station_id":"ce4bhah2rcd13ifvqei0","pricing_plan_id":"free"},{"bike_id":"d602a3d1-e3f7-4a70-9183-9c49798f1d01","system_id":"levelo_inurba_marseille","lat":43.284538,"lon":5.358657,"is_reserved":false,"is_disabled":false,"rental_uris":{"android":"levelo://app?vid=d602a3d1-e3f7-4a70-9183-9c49798f1d01","ios":"levelo://app?vid=d602a3d1-e3f7-4a70-9183-9c49798f1d01"},"vehicle_type_id":"4","last_reported":1701471981,"current_range_meters":28000,"station_id":"ce4bhah2rcd13ifvqei0","pricing_plan_id":"free"},{"bike_id":"c8124233-8250-4dcc-97e2-8fce9e8a5b7f","system_id":"levelo_inurba_marseille","lat":43.284534,"lon":5.358662,"is_reserved":false,"is_disabled":false,"rental_uris":{"android":"levelo://app?vid=c8124233-8250-4dcc-97e2-8fce9e8a5b7f","ios":"levelo://app?vid=c8124233-8250-4dcc-97e2-8fce9e8a5b7f"},"vehicle_type_id":"4","last_reported":1701471981,"current_range_meters":22400,"station_id":"ce4bhah2rcd13ifvqei0","pricing_plan_id":"free"},{"bike_id":"a18ecf0e-fc7b-48d9-97d6-5da25d796a5e","system_id":"levelo_inurba_marseille","lat":43.284534,"lon":5.358662,"is_reserved":false,"is_disabled":false,"rental_uris":{"android":"levelo://app?vid=a18ecf0e-fc7b-48d9-97d6-5da25d796a5e","ios":"levelo://app?vid=a18ecf0e-fc7b-48d9-97d6-5da25d796a5e"},"vehicle_type_id":"4","last_reported":1701471981,"current_range_meters":11200,"station_id":"ce4bhah2rcd13ifvqei0","pricing_plan_id":"free"},{"bike_id":"001ab695-9f0a-4531-a12d-2d64eacc9d7e","system_id":"levelo_inurba_marseille","lat":43.294314,"lon":5.397498,"is_reserved":false,"is_disabled":false,"rental_uris":{"android":"levelo://app?vid=001ab695-9f0a-4531-a12d-2d64eacc9d7e","ios":"levelo://app?vid=001ab695-9f0a-4531-a12d-2d64eacc9d7e"},"vehicle_type_id":"4","last_reported":1701471981,"current_range_meters":26800,"station_id":"ce4bh3h2rcd13ifvqdo0","pricing_plan_id":"free"},{"bike_id":"dd35d035-94cc-455b-8ec6-32287e4766e2","system_id":"levelo_inurba_marseille","lat":43.294314,"lon":5.397498,"is_reserved":false,"is_disabled":false,"rental_uris":{"android":"levelo://app?vid=dd35d035-94cc-455b-8ec6-32287e4766e2","ios":"levelo://app?vid=dd35d035-94cc-455b-8ec6-32287e4766e2"},"vehicle_type_id":"4","last_reported":1701471981,"current_range_meters":24800,"station_id":"ce4bh3h2rcd13ifvqdo0","pricing_plan_id":"free"},{"bike_id":"62720c14-5e46-4d7a-8274-80646bf8be6b","system_id":"levelo_inurba_marseille","lat":43.284534,"lon":5.358662,"is_reserved":false,"is_disabled":false,"rental_uris":{"android":"levelo://app?vid=62720c14-5e46-4d7a-8274-80646bf8be6b","ios":"levelo://app?vid=62720c14-5e46-4d7a-8274-80646bf8be6b"},"vehicle_type_id":"4","last_reported":1701471981,"current_range_meters":8000,"station_id":"ce4bhah2rcd13ifvqei0","pricing_plan_id":"free"},{"bike_id":"c0431d32-b182-40b1-a784-2b6e12d52b19","system_id":"levelo_inurba_marseille","lat":43.294314,"lon":5.397498,"is_reserved":false,"is_disabled":false,"rental_uris":{"android":"levelo://app?vid=c0431d32-b182-40b1-a784-2b6e12d52b19","ios":"levelo://app?vid=c0431d32-b182-40b1-a784-2b6e12d52b19"},"vehicle_type_id":"4","last_reported":1701471981,"current_range_meters":14800,"station_id":"ce4bh3h2rcd13ifvqdo0","pricing_plan_id":"free"},{"bike_id":"4fec3294-b0d6-4602-8752-e8e7c54698e3","system_id":"levelo_inurba_marseille","lat":43.294314,"lon":5.397498,"is_reserved":false,"is_disabled":false,"rental_uris":{"android":"levelo://app?vid=4fec3294-b0d6-4602-8752-e8e7c54698e3","ios":"levelo://app?vid=4fec3294-b0d6-4602-8752-e8e7c54698e3"},"vehicle_type_id":"4","last_reported":1701471981,"current_range_meters":24000,"station_id":"ce4bh3h2rcd13ifvqdo0","pricing_plan_id":"free"},{"bike_id":"485ef5d5-c9fc-4f49-abeb-f843d32bbeb3","system_id":"levelo_inurba_marseille","lat":43.294314,"lon":5.397498,"is_reserved":false,"is_disabled":false,"rental_uris":{"android":"levelo://app?vid=485ef5d5-c9fc-4f49-abeb-f843d32bbeb3","ios":"levelo://app?vid=485ef5d5-c9fc-4f49-abeb-f843d32bbeb3"},"vehicle_type_id":"4","last_reported":1701471981,"current_range_meters":26800,"station_id":"ce4bh3h2rcd13ifvqdo0","pricing_plan_id":"free"},{"bike_id":"6876ca3c-4536-4659-b150-3e9e6d87cd51","system_id":"levelo_inurba_marseille","lat":43.284534,"lon":5.358662,"is_reserved":false,"is_disabled":false,"rental_uris":{"android":"levelo://app?vid=6876ca3c-4536-4659-b150-3e9e6d87cd51","ios":"levelo://app?vid=6876ca3c-4536-4659-b150-3e9e6d87cd51"},"vehicle_type_id":"4","last_reported":1701471981,"current_range_meters":8000,"station_id":"ce4bhah2rcd13ifvqei0","pricing_plan_id":"free"},{"bike_id":"40a0085e-25ea-4e01-afe8-763f8766a50e","system_id":"levelo_inurba_marseille","lat":43.286126,"lon":5.351036,"is_reserved":false,"is_disabled":false,"rental_uris":{"android":"levelo://app?vid=40a0085e-25ea-4e01-afe8-763f8766a50e","ios":"levelo://app?vid=40a0085e-25ea-4e01-afe8-763f8766a50e"},"vehicle_type_id":"4","last_reported":1701471981,"current_range_meters":10400,"station_id":"ce4bhch2rcd13ifvqeug","pricing_plan_id":"free"},{"bike_id":"eb289157-ba48-4488-a945-0df7c601d545","system_id":"levelo_inurba_marseille","lat":43.285848,"lon":5.350787,"is_reserved":false,"is_disabled":false,"rental_uris":{"android":"levelo://app?vid=eb289157-ba48-4488-a945-0df7c601d545","ios":"levelo://app?vid=eb289157-ba48-4488-a945-0df7c601d545"},"vehicle_type_id":"4","last_reported":1701471981,"current_range_meters":19200,"station_id":"ce4bhch2rcd13ifvqeug","pricing_plan_id":"free"},{"bike_id":"d7b6a6f8-d3f9-47c4-af4e-fa1abc619c97","system_id":"levelo_inurba_marseille","lat":43.28606,"lon":5.35111,"is_reserved":false,"is_disabled":false,"rental_uris":{"android":"levelo://app?vid=d7b6a6f8-d3f9-47c4-af4e-fa1abc619c97","ios":"levelo://app?vid=d7b6a6f8-d3f9-47c4-af4e-fa1abc619c97"},"vehicle_type_id":"4","last_reported":1701471981,"current_range_meters":22000,"station_id":"ce4bhch2rcd13ifvqeug","pricing_plan_id":"free"},{"bike_id":"6442bcfe-6f3e-4e0f-946d-202ad91fc65f","system_id":"levelo_inurba_marseille","lat":43.283998,"lon":5.375062,"is_reserved":false,"is_disabled":false,"rental_uris":{"android":"levelo://app?vid=6442bcfe-6f3e-4e0f-946d-202ad91fc65f","ios":"levelo://app?vid=6442bcfe-6f3e-4e0f-946d-202ad91fc65f"},"vehicle_type_id":"4","last_reported":1701471981,"current_range_meters":10000,"station_id":"ce4bh412rcd13ifvqds0","pricing_plan_id":"free"},{"bike_id":"589dc8cb-6c9c-4ad3-a8e6-0632ff8ffd25","system_id":"levelo_inurba_marseille","lat":43.295713,"lon":5.399639,"is_reserved":false,"is_disabled":false,"rental_uris":{"android":"levelo://app?vid=589dc8cb-6c9c-4ad3-a8e6-0632ff8ffd25","ios":"levelo://app?vid=589dc8cb-6c9c-4ad3-a8e6-0632ff8ffd25"},"vehicle_type_id":"4","last_reported":1701471981,"current_range_meters":26800,"station_id":"ce4bh312rcd13ifvqdj0","pricing_plan_id":"free"},{"bike_id":"48f422f8-4323-47ac-9469-a2d6870b2417","system_id":"levelo_inurba_marseille","lat":43.286595,"lon":5.386795,"is_reserved":false,"is_disabled":false,"rental_uris":{"android":"levelo://app?vid=48f422f8-4323-47ac-9469-a2d6870b2417","ios":"levelo://app?vid=48f422f8-4323-47ac-9469-a2d6870b2417"},"vehicle_type_id":"4","last_reported":1701471981,"current_range_meters":23600,"station_id":"ce4bh492rcd13ifvqdug","pricing_plan_id":"free"},{"bike_id":"8273b10b-5dc8-4f22-9edf-04bef26eb1f2","system_id":"levelo_inurba_marseille","lat":43.286595,"lon":5.386795,"is_reserved":false,"is_disabled":false,"rental_uris":{"android":"levelo://app?vid=8273b10b-5dc8-4f22-9edf-04bef26eb1f2","ios":"levelo://app?vid=8273b10b-5dc8-4f22-9edf-04bef26eb1f2"},"vehicle_type_id":"4","last_reported":1701471981,"current_range_meters":18400,"station_id":"ce4bh492rcd13ifvqdug","pricing_plan_id":"free"},{"bike_id":"7f458fab-3a0c-4609-8310-733ff5bbba57","system_id":"levelo_inurba_marseille","lat":43.33717,"lon":5.391857,"is_reserved":false,"is_disabled":false,"rental_uris":{"android":"levelo://app?vid=7f458fab-3a0c-4609-8310-733ff5bbba57","ios":"levelo://app?vid=7f458fab-3a0c-4609-8310-733ff5bbba57"},"vehicle_type_id":"4","last_reported":1701471981,"current_range_meters":31200,"station_id":"ce4bhr92rcd13ifvqhsg","pricing_plan_id":"free"},{"bike_id":"4714f7cd-5ff4-41d0-870b-3e9261538b58","system_id":"levelo_inurba_marseille","lat":43.323464,"lon":5.406297,"is_reserved":false,"is_disabled":false,"rental_uris":{"android":"levelo://app?vid=4714f7cd-5ff4-41d0-870b-3e9261538b58","ios":"levelo://app?vid=4714f7cd-5ff4-41d0-870b-3e9261538b58"},"vehicle_type_id":"4","last_reported":1701471981,"current_range_meters":29200,"station_id":"ce4bhq92rcd13ifvqhjg","pricing_plan_id":"free"},{"bike_id":"f99fc4d8-709b-4cee-a32c-2cdd6f1e8b1e","system_id":"levelo_inurba_marseille","lat":43.337168,"lon":5.391825,"is_reserved":false,"is_disabled":false,"rental_uris":{"android":"levelo://app?vid=f99fc4d8-709b-4cee-a32c-2cdd6f1e8b1e","ios":"levelo://app?vid=f99fc4d8-709b-4cee-a32c-2cdd6f1e8b1e"},"vehicle_type_id":"4","last_reported":1701471981,"current_range_meters":26000,"station_id":"ce4bhr92rcd13ifvqhsg","pricing_plan_id":"free"},{"bike_id":"b945fb3d-e032-4a87-90fc-db07348a4026","system_id":"levelo_inurba_marseille","lat":43.323464,"lon":5.406297,"is_reserved":false,"is_disabled":false,"rental_uris":{"android":"levelo://app?vid=b945fb3d-e032-4a87-90fc-db07348a4026","ios":"levelo://app?vid=b945fb3d-e032-4a87-90fc-db07348a4026"},"vehicle_type_id":"4","last_reported":1701471981,"current_range_meters":2000,"station_id":"ce4bhq92rcd13ifvqhjg","pricing_plan_id":"free"},{"bike_id":"4092b413-a8f0-49fd-8cc3-69bf3f509a40","system_id":"levelo_inurba_marseille","lat":43.32336,"lon":5.40627,"is_reserved":false,"is_disabled":false,"rental_uris":{"android":"levelo://app?vid=4092b413-a8f0-49fd-8cc3-69bf3f509a40","ios":"levelo://app?vid=4092b413-a8f0-49fd-8cc3-69bf3f509a40"},"vehicle_type_id":"4","last_reported":1701471981,"current_range_meters":12800,"station_id":"ce4bhq92rcd13ifvqhjg","pricing_plan_id":"free"},{"bike_id":"9b2e6b04-1f88-4581-8930-d210a5b38360","system_id":"levelo_inurba_marseille","lat":43.288501,"lon":5.393087,"is_reserved":false,"is_disabled":false,"rental_uris":{"android":"levelo://app?vid=9b2e6b04-1f88-4581-8930-d210a5b38360","ios":"levelo://app?vid=9b2e6b04-1f88-4581-8930-d210a5b38360"},"vehicle_type_id":"4","last_reported":1701471981,"current_range_meters":13600,"station_id":"ce4bh2p2rcd13ifvqdi0","pricing_plan_id":"free"},{"bike_id":"e33b777e-1756-408a-8ab8-97e7d90453fc","system_id":"levelo_inurba_marseille","lat":43.288512,"lon":5.393125,"is_reserved":false,"is_disabled":false,"rental_uris":{"android":"levelo://app?vid=e33b777e-1756-408a-8ab8-97e7d90453fc","ios":"levelo://app?vid=e33b777e-1756-408a-8ab8-97e7d90453fc"},"vehicle_type_id":"4","last_reported":1701471981,"current_range_meters":24800,"station_id":"ce4bh2p2rcd13ifvqdi0","pricing_plan_id":"free"},{"bike_id":"ee04b340-1b6e-49bd-9932-e2fd52badb73","system_id":"levelo_inurba_marseille","lat":43.288501,"lon":5.393087,"is_reserved":false,"is_disabled":false,"rental_uris":{"android":"levelo://app?vid=ee04b340-1b6e-49bd-9932-e2fd52badb73","ios":"levelo://app?vid=ee04b340-1b6e-49bd-9932-e2fd52badb73"},"vehicle_type_id":"4","last_reported":1701471981,"current_range_meters":13200,"station_id":"ce4bh2p2rcd13ifvqdi0","pricing_plan_id":"free"},{"bike_id":"47afa503-275c-4f70-bb54-ec9e9fe2d3cc","system_id":"levelo_inurba_marseille","lat":43.28944,"lon":5.39631,"is_reserved":false,"is_disabled":false,"rental_uris":{"android":"levelo://app?vid=47afa503-275c-4f70-bb54-ec9e9fe2d3cc","ios":"levelo://app?vid=47afa503-275c-4f70-bb54-ec9e9fe2d3cc"},"vehicle_type_id":"4","last_reported":1701471981,"current_range_meters":19200,"station_id":"ce4bh3h2rcd13ifvqdn0","pricing_plan_id":"free"},{"bike_id":"6d194dff-c028-46c5-bab2-915f69fe6744","system_id":"levelo_inurba_marseille","lat":43.291417,"lon":5.400134,"is_reserved":false,"is_disabled":false,"rental_uris":{"android":"levelo://app?vid=6d194dff-c028-46c5-bab2-915f69fe6744","ios":"levelo://app?vid=6d194dff-c028-46c5-bab2-915f69fe6744"},"vehicle_type_id":"4","last_reported":1701471981,"current_range_meters":29200,"station_id":"ce4bh392rcd13ifvqdm0","pricing_plan_id":"free"},{"bike_id":"69881fbf-c0ea-49af-a1fc-762bfb1388e1","system_id":"levelo_inurba_marseille","lat":43.282754,"lon":5.350519,"is_reserved":false,"is_disabled":false,"rental_uris":{"android":"levelo://app?vid=69881fbf-c0ea-49af-a1fc-762bfb1388e1","ios":"levelo://app?vid=69881fbf-c0ea-49af-a1fc-762bfb1388e1"},"vehicle_type_id":"4","last_reported":1701471981,"current_range_meters":31200,"station_id":"ce4bhbp2rcd13ifvqerg","pricing_plan_id":"free"},{"bike_id":"a1013b99-f5d8-4612-9c41-b438ad559779","system_id":"levelo_inurba_marseille","lat":43.282744,"lon":5.350533,"is_reserved":false,"is_disabled":false,"rental_uris":{"android":"levelo://app?vid=a1013b99-f5d8-4612-9c41-b438ad559779","ios":"levelo://app?vid=a1013b99-f5d8-4612-9c41-b438ad559779"},"vehicle_type_id":"4","last_reported":1701471981,"current_range_meters":0,"station_id":"ce4bhbp2rcd13ifvqerg","pricing_plan_id":"free"},{"bike_id":"9228b679-a081-4c22-835c-fa72278ded5d","system_id":"levelo_inurba_marseille","lat":43.282744,"lon":5.350533,"is_reserved":false,"is_disabled":false,"rental_uris":{"android":"levelo://app?vid=9228b679-a081-4c22-835c-fa72278ded5d","ios":"levelo://app?vid=9228b679-a081-4c22-835c-fa72278ded5d"},"vehicle_type_id":"4","last_reported":1701471981,"current_range_meters":30000,"station_id":"ce4bhbp2rcd13ifvqerg","pricing_plan_id":"free"},{"bike_id":"1243777c-b77e-47a9-b250-2f7163566a8e","system_id":"levelo_inurba_marseille","lat":43.280382,"lon":5.369291,"is_reserved":false,"is_disabled":false,"rental_uris":{"android":"levelo://app?vid=1243777c-b77e-47a9-b250-2f7163566a8e","ios":"levelo://app?vid=1243777c-b77e-47a9-b250-2f7163566a8e"},"vehicle_type_id":"4","last_reported":1701471981,"current_range_meters":0,"station_id":"ce4bha12rcd13ifvqef0","pricing_plan_id":"free"},{"bike_id":"bad57887-f492-4b0f-8b83-5f6e680a40b5","system_id":"levelo_inurba_marseille","lat":43.283502,"lon":5.386471,"is_reserved":false,"is_disabled":false,"rental_uris":{"android":"levelo://app?vid=bad57887-f492-4b0f-8b83-5f6e680a40b5","ios":"levelo://app?vid=bad57887-f492-4b0f-8b83-5f6e680a40b5"},"vehicle_type_id":"4","last_reported":1701471981,"current_range_meters":27200,"station_id":"ce4bh492rcd13ifvqdvg","pricing_plan_id":"free"},{"bike_id":"384e313f-492c-4d83-a1a6-c31122558ed0","system_id":"levelo_inurba_marseille","lat":43.280382,"lon":5.369291,"is_reserved":false,"is_disabled":false,"rental_uris":{"android":"levelo://app?vid=384e313f-492c-4d83-a1a6-c31122558ed0","ios":"levelo://app?vid=384e313f-492c-4d83-a1a6-c31122558ed0"},"vehicle_type_id":"4","last_reported":1701471981,"current_range_meters":25200,"station_id":"ce4bha12rcd13ifvqef0","pricing_plan_id":"free"},{"bike_id":"da9c69a8-f034-4bc4-bd6f-19169039de2b","system_id":"levelo_inurba_marseille","lat":43.280382,"lon":5.369291,"is_reserved":false,"is_disabled":false,"rental_uris":{"android":"levelo://app?vid=da9c69a8-f034-4bc4-bd6f-19169039de2b","ios":"levelo://app?vid=da9c69a8-f034-4bc4-bd6f-19169039de2b"},"vehicle_type_id":"4","last_reported":1701471981,"current_range_meters":27600,"station_id":"ce4bha12rcd13ifvqef0","pricing_plan_id":"free"},{"bike_id":"20d6d6ec-905a-4d49-9fb9-0a23edeb10a7","system_id":"levelo_inurba_marseille","lat":43.290398,"lon":5.399603,"is_reserved":false,"is_disabled":false,"rental_uris":{"android":"levelo://app?vid=20d6d6ec-905a-4d49-9fb9-0a23edeb10a7","ios":"levelo://app?vid=20d6d6ec-905a-4d49-9fb9-0a23edeb10a7"},"vehicle_type_id":"4","last_reported":1701471981,"current_range_meters":30800,"station_id":"ce4bh392rcd13ifvqdm0","pricing_plan_id":"free"},{"bike_id":"e2e3ba20-3c82-4d04-8ba8-c1852807a4b8","system_id":"levelo_inurba_marseille","lat":43.29041,"lon":5.399669,"is_reserved":false,"is_disabled":false,"rental_uris":{"android":"levelo://app?vid=e2e3ba20-3c82-4d04-8ba8-c1852807a4b8","ios":"levelo://app?vid=e2e3ba20-3c82-4d04-8ba8-c1852807a4b8"},"vehicle_type_id":"4","last_reported":1701471981,"current_range_meters":27200,"station_id":"ce4bh392rcd13ifvqdm0","pricing_plan_id":"free"},{"bike_id":"c9a457a2-57cc-41e1-b00f-64b88204b9c5","system_id":"levelo_inurba_marseille","lat":43.290395,"lon":5.399676,"is_reserved":false,"is_disabled":false,"rental_uris":{"android":"levelo://app?vid=c9a457a2-57cc-41e1-b00f-64b88204b9c5","ios":"levelo://app?vid=c9a457a2-57cc-41e1-b00f-64b88204b9c5"},"vehicle_type_id":"4","last_reported":1701471981,"current_range_meters":22400,"station_id":"ce4bh392rcd13ifvqdm0","pricing_plan_id":"free"},{"bike_id":"7b627c65-1d10-46e0-bfe6-5e3d770571a1","system_id":"levelo_inurba_marseille","lat":43.290373,"lon":5.39966,"is_reserved":false,"is_disabled":false,"rental_uris":{"android":"levelo://app?vid=7b627c65-1d10-46e0-bfe6-5e3d770571a1","ios":"levelo://app?vid=7b627c65-1d10-46e0-bfe6-5e3d770571a1"},"vehicle_type_id":"4","last_reported":1701471981,"current_range_meters":29600,"station_id":"ce4bh392rcd13ifvqdm0","pricing_plan_id":"free"},{"bike_id":"f1696a9f-3462-4f14-bf5a-1ee76d66011b","system_id":"levelo_inurba_marseille","lat":43.29032,"lon":5.39961,"is_reserved":false,"is_disabled":false,"rental_uris":{"android":"levelo://app?vid=f1696a9f-3462-4f14-bf5a-1ee76d66011b","ios":"levelo://app?vid=f1696a9f-3462-4f14-bf5a-1ee76d66011b"},"vehicle_type_id":"4","last_reported":1701471981,"current_range_meters":27200,"station_id":"ce4bh392rcd13ifvqdm0","pricing_plan_id":"free"},{"bike_id":"b05ed7fd-bfe1-4a56-bda0-a4f185a5b466","system_id":"levelo_inurba_marseille","lat":43.290387,"lon":5.39972,"is_reserved":false,"is_disabled":false,"rental_uris":{"android":"levelo://app?vid=b05ed7fd-bfe1-4a56-bda0-a4f185a5b466","ios":"levelo://app?vid=b05ed7fd-bfe1-4a56-bda0-a4f185a5b466"},"vehicle_type_id":"4","last_reported":1701471981,"current_range_meters":28400,"station_id":"ce4bh392rcd13ifvqdm0","pricing_plan_id":"free"},{"bike_id":"246f3d55-7359-4799-a104-62a9e99106e4","system_id":"levelo_inurba_marseille","lat":43.29037,"lon":5.399704,"is_reserved":false,"is_disabled":false,"rental_uris":{"android":"levelo://app?vid=246f3d55-7359-4799-a104-62a9e99106e4","ios":"levelo://app?vid=246f3d55-7359-4799-a104-62a9e99106e4"},"vehicle_type_id":"4","last_reported":1701471981,"current_range_meters":29200,"station_id":"ce4bh392rcd13ifvqdm0","pricing_plan_id":"free"},{"bike_id":"6a35c7e0-8454-4fde-8ced-deb393d8fcd1","system_id":"levelo_inurba_marseille","lat":43.290403,"lon":5.399753,"is_reserved":false,"is_disabled":false,"rental_uris":{"android":"levelo://app?vid=6a35c7e0-8454-4fde-8ced-deb393d8fcd1","ios":"levelo://app?vid=6a35c7e0-8454-4fde-8ced-deb393d8fcd1"},"vehicle_type_id":"4","last_reported":1701471981,"current_range_meters":27600,"station_id":"ce4bh392rcd13ifvqdm0","pricing_plan_id":"free"},{"bike_id":"5e9cb994-11b1-4ffd-a0ac-b2cf63026ef2","system_id":"levelo_inurba_marseille","lat":43.29038,"lon":5.399752,"is_reserved":false,"is_disabled":false,"rental_uris":{"android":"levelo://app?vid=5e9cb994-11b1-4ffd-a0ac-b2cf63026ef2","ios":"levelo://app?vid=5e9cb994-11b1-4ffd-a0ac-b2cf63026ef2"},"vehicle_type_id":"4","last_reported":1701471981,"current_range_meters":29600,"station_id":"ce4bh392rcd13ifvqdm0","pricing_plan_id":"free"},{"bike_id":"0a35d642-f071-4392-8646-da8c032536ab","system_id":"levelo_inurba_marseille","lat":43.2903,"lon":5.39966,"is_reserved":false,"is_disabled":false,"rental_uris":{"android":"levelo://app?vid=0a35d642-f071-4392-8646-da8c032536ab","ios":"levelo://app?vid=0a35d642-f071-4392-8646-da8c032536ab"},"vehicle_type_id":"4","last_reported":1701471981,"current_range_meters":30000,"station_id":"ce4bh392rcd13ifvqdm0","pricing_plan_id":"free"},{"bike_id":"b5e5815a-d0aa-4ab1-9c7c-6e03f1af9505","system_id":"levelo_inurba_marseille","lat":43.281044,"lon":5.378308,"is_reserved":false,"is_disabled":false,"rental_uris":{"android":"levelo://app?vid=b5e5815a-d0aa-4ab1-9c7c-6e03f1af9505","ios":"levelo://app?vid=b5e5815a-d0aa-4ab1-9c7c-6e03f1af9505"},"vehicle_type_id":"4","last_reported":1701471981,"current_range_meters":24800,"station_id":"ce4bha12rcd13ifvqee0","pricing_plan_id":"free"},{"bike_id":"f30910b0-d3ff-46ab-a5df-96e52d9d6f51","system_id":"levelo_inurba_marseille","lat":43.290335,"lon":5.39978,"is_reserved":false,"is_disabled":false,"rental_uris":{"android":"levelo://app?vid=f30910b0-d3ff-46ab-a5df-96e52d9d6f51","ios":"levelo://app?vid=f30910b0-d3ff-46ab-a5df-96e52d9d6f51"},"vehicle_type_id":"4","last_reported":1701471981,"current_range_meters":28400,"station_id":"ce4bh392rcd13ifvqdm0","pricing_plan_id":"free"},{"bike_id":"129fccf5-4d46-4870-97dd-a8de44b13594","system_id":"levelo_inurba_marseille","lat":43.290353,"lon":5.399845,"is_reserved":false,"is_disabled":false,"rental_uris":{"android":"levelo://app?vid=129fccf5-4d46-4870-97dd-a8de44b13594","ios":"levelo://app?vid=129fccf5-4d46-4870-97dd-a8de44b13594"},"vehicle_type_id":"4","last_reported":1701471981,"current_range_meters":30400,"station_id":"ce4bh392rcd13ifvqdm0","pricing_plan_id":"free"},{"bike_id":"07455ebf-4e38-46ea-b2e1-20df8b6154ce","system_id":"levelo_inurba_marseille","lat":43.29013,"lon":5.39965,"is_reserved":false,"is_disabled":false,"rental_uris":{"android":"levelo://app?vid=07455ebf-4e38-46ea-b2e1-20df8b6154ce","ios":"levelo://app?vid=07455ebf-4e38-46ea-b2e1-20df8b6154ce"},"vehicle_type_id":"4","last_reported":1701471981,"current_range_meters":27200,"station_id":"ce4bh392rcd13ifvqdm0","pricing_plan_id":"free"},{"bike_id":"2e7b3b68-060b-4e2c-83f1-eab7083b263d","system_id":"levelo_inurba_marseille","lat":43.285742,"lon":5.395004,"is_reserved":false,"is_disabled":false,"rental_uris":{"android":"levelo://app?vid=2e7b3b68-060b-4e2c-83f1-eab7083b263d","ios":"levelo://app?vid=2e7b3b68-060b-4e2c-83f1-eab7083b263d"},"vehicle_type_id":"4","last_reported":1701471981,"current_range_meters":0,"station_id":"ce4bh292rcd13ifvqdg0","pricing_plan_id":"free"},{"bike_id":"c57c917a-e675-4cd3-bc55-1a4b865cab21","system_id":"levelo_inurba_marseille","lat":43.285742,"lon":5.395004,"is_reserved":false,"is_disabled":false,"rental_uris":{"android":"levelo://app?vid=c57c917a-e675-4cd3-bc55-1a4b865cab21","ios":"levelo://app?vid=c57c917a-e675-4cd3-bc55-1a4b865cab21"},"vehicle_type_id":"4","last_reported":1701471981,"current_range_meters":27600,"station_id":"ce4bh292rcd13ifvqdg0","pricing_plan_id":"free"},{"bike_id":"b3a83936-9830-4527-be31-08fc31f37344","system_id":"levelo_inurba_marseille","lat":43.28573,"lon":5.394992,"is_reserved":false,"is_disabled":false,"rental_uris":{"android":"levelo://app?vid=b3a83936-9830-4527-be31-08fc31f37344","ios":"levelo://app?vid=b3a83936-9830-4527-be31-08fc31f37344"},"vehicle_type_id":"4","last_reported":1701471981,"current_range_meters":17600,"station_id":"ce4bh292rcd13ifvqdg0","pricing_plan_id":"free"},{"bike_id":"a21486e2-11a6-4d34-816a-2c39176116b2","system_id":"levelo_inurba_marseille","lat":43.326605,"lon":5.409903,"is_reserved":false,"is_disabled":false,"rental_uris":{"android":"levelo://app?vid=a21486e2-11a6-4d34-816a-2c39176116b2","ios":"levelo://app?vid=a21486e2-11a6-4d34-816a-2c39176116b2"},"vehicle_type_id":"4","last_reported":1701471981,"current_range_meters":27200,"station_id":"ce4bhpp2rcd13ifvqhgg","pricing_plan_id":"free"},{"bike_id":"2c7b4f8a-24ea-48ac-a7da-1875d5ba77d0","system_id":"levelo_inurba_marseille","lat":43.304188,"lon":5.412904,"is_reserved":false,"is_disabled":false,"rental_uris":{"android":"levelo://app?vid=2c7b4f8a-24ea-48ac-a7da-1875d5ba77d0","ios":"levelo://app?vid=2c7b4f8a-24ea-48ac-a7da-1875d5ba77d0"},"vehicle_type_id":"4","last_reported":1701471981,"current_range_meters":29200,"station_id":"ce4bhop2rcd13ifvqh8g","pricing_plan_id":"free"},{"bike_id":"eb19d89f-d333-4226-a273-38ed4d7a13fb","system_id":"levelo_inurba_marseille","lat":43.287154,"lon":5.399979,"is_reserved":false,"is_disabled":false,"rental_uris":{"android":"levelo://app?vid=eb19d89f-d333-4226-a273-38ed4d7a13fb","ios":"levelo://app?vid=eb19d89f-d333-4226-a273-38ed4d7a13fb"},"vehicle_type_id":"4","last_reported":1701471981,"current_range_meters":0,"station_id":"ce4bho92rcd13ifvqh3g","pricing_plan_id":"free"},{"bike_id":"e28eada3-0bc1-4dc7-8c91-aaf550d17cf3","system_id":"levelo_inurba_marseille","lat":43.287154,"lon":5.399979,"is_reserved":false,"is_disabled":false,"rental_uris":{"android":"levelo://app?vid=e28eada3-0bc1-4dc7-8c91-aaf550d17cf3","ios":"levelo://app?vid=e28eada3-0bc1-4dc7-8c91-aaf550d17cf3"},"vehicle_type_id":"4","last_reported":1701471981,"current_range_meters":24400,"station_id":"ce4bho92rcd13ifvqh3g","pricing_plan_id":"free"},{"bike_id":"44b01b27-bfd5-491f-9e75-6434d7fa44f1","system_id":"levelo_inurba_marseille","lat":43.287084,"lon":5.399986,"is_reserved":false,"is_disabled":false,"rental_uris":{"android":"levelo://app?vid=44b01b27-bfd5-491f-9e75-6434d7fa44f1","ios":"levelo://app?vid=44b01b27-bfd5-491f-9e75-6434d7fa44f1"},"vehicle_type_id":"4","last_reported":1701471981,"current_range_meters":25600,"station_id":"ce4bho92rcd13ifvqh3g","pricing_plan_id":"free"},{"bike_id":"c4cd0b9d-0c41-4d84-aa06-fab71e60a157","system_id":"levelo_inurba_marseille","lat":43.287154,"lon":5.399979,"is_reserved":false,"is_disabled":false,"rental_uris":{"android":"levelo://app?vid=c4cd0b9d-0c41-4d84-aa06-fab71e60a157","ios":"levelo://app?vid=c4cd0b9d-0c41-4d84-aa06-fab71e60a157"},"vehicle_type_id":"4","last_reported":1701471981,"current_range_meters":11200,"station_id":"ce4bho92rcd13ifvqh3g","pricing_plan_id":"free"},{"bike_id":"cc4735e3-523c-4feb-a5a0-2f3f534d400a","system_id":"levelo_inurba_marseille","lat":43.287154,"lon":5.399979,"is_reserved":false,"is_disabled":false,"rental_uris":{"android":"levelo://app?vid=cc4735e3-523c-4feb-a5a0-2f3f534d400a","ios":"levelo://app?vid=cc4735e3-523c-4feb-a5a0-2f3f534d400a"},"vehicle_type_id":"4","last_reported":1701471981,"current_range_meters":30000,"station_id":"ce4bho92rcd13ifvqh3g","pricing_plan_id":"free"},{"bike_id":"84670559-fe6e-4f57-871f-b282b2f07ee5","system_id":"levelo_inurba_marseille","lat":43.286607,"lon":5.400417,"is_reserved":false,"is_disabled":false,"rental_uris":{"android":"levelo://app?vid=84670559-fe6e-4f57-871f-b282b2f07ee5","ios":"levelo://app?vid=84670559-fe6e-4f57-871f-b282b2f07ee5"},"vehicle_type_id":"4","last_reported":1701471981,"current_range_meters":8800,"station_id":"","pricing_plan_id":"free"},{"bike_id":"08bf8d07-cd4c-4c15-84d3-e5b927b5deeb","system_id":"levelo_inurba_marseille","lat":43.279742,"lon":5.38744,"is_reserved":false,"is_disabled":false,"rental_uris":{"android":"levelo://app?vid=08bf8d07-cd4c-4c15-84d3-e5b927b5deeb","ios":"levelo://app?vid=08bf8d07-cd4c-4c15-84d3-e5b927b5deeb"},"vehicle_type_id":"4","last_reported":1701471981,"current_range_meters":17200,"station_id":"ce4bhg12rcd13ifvqf80","pricing_plan_id":"free"},{"bike_id":"275dd059-a7dd-40a8-943a-743a6ad82296","system_id":"levelo_inurba_marseille","lat":43.279742,"lon":5.38744,"is_reserved":false,"is_disabled":false,"rental_uris":{"android":"levelo://app?vid=275dd059-a7dd-40a8-943a-743a6ad82296","ios":"levelo://app?vid=275dd059-a7dd-40a8-943a-743a6ad82296"},"vehicle_type_id":"4","last_reported":1701471981,"current_range_meters":13600,"station_id":"ce4bhg12rcd13ifvqf80","pricing_plan_id":"free"},{"bike_id":"c4ba2439-c168-4da6-b729-1f7503155f2e","system_id":"levelo_inurba_marseille","lat":43.29247,"lon":5.40896,"is_reserved":false,"is_disabled":false,"rental_uris":{"android":"levelo://app?vid=c4ba2439-c168-4da6-b729-1f7503155f2e","ios":"levelo://app?vid=c4ba2439-c168-4da6-b729-1f7503155f2e"},"vehicle_type_id":"4","last_reported":1701471981,"current_range_meters":23600,"station_id":"ce4bh192rcd13ifvqdc0","pricing_plan_id":"free"},{"bike_id":"526b28c0-af5c-4ca6-a2cb-18f0c4599abf","system_id":"levelo_inurba_marseille","lat":43.292647,"lon":5.409162,"is_reserved":false,"is_disabled":false,"rental_uris":{"android":"levelo://app?vid=526b28c0-af5c-4ca6-a2cb-18f0c4599abf","ios":"levelo://app?vid=526b28c0-af5c-4ca6-a2cb-18f0c4599abf"},"vehicle_type_id":"4","last_reported":1701471981,"current_range_meters":22400,"station_id":"","pricing_plan_id":"free"},{"bike_id":"26219ec4-3e55-4361-8024-d785cc401ab4","system_id":"levelo_inurba_marseille","lat":43.29258,"lon":5.40911,"is_reserved":false,"is_disabled":false,"rental_uris":{"android":"levelo://app?vid=26219ec4-3e55-4361-8024-d785cc401ab4","ios":"levelo://app?vid=26219ec4-3e55-4361-8024-d785cc401ab4"},"vehicle_type_id":"4","last_reported":1701471981,"current_range_meters":28800,"station_id":"ce4bh192rcd13ifvqdc0","pricing_plan_id":"free"},{"bike_id":"df7fb786-3a0f-4ca8-9200-5934e980f116","system_id":"levelo_inurba_marseille","lat":43.27618,"lon":5.361009,"is_reserved":false,"is_disabled":false,"rental_uris":{"android":"levelo://app?vid=df7fb786-3a0f-4ca8-9200-5934e980f116","ios":"levelo://app?vid=df7fb786-3a0f-4ca8-9200-5934e980f116"},"vehicle_type_id":"4","last_reported":1701471981,"current_range_meters":16400,"station_id":"ce4bgj92rcd13ifvqbe0","pricing_plan_id":"free"},{"bike_id":"662d7ac0-b60c-4589-b775-59c466096683","system_id":"levelo_inurba_marseille","lat":43.325233,"lon":5.414318,"is_reserved":false,"is_disabled":false,"rental_uris":{"android":"levelo://app?vid=662d7ac0-b60c-4589-b775-59c466096683","ios":"levelo://app?vid=662d7ac0-b60c-4589-b775-59c466096683"},"vehicle_type_id":"4","last_reported":1701471981,"current_range_meters":29600,"station_id":"ce4bhq12rcd13ifvqhhg","pricing_plan_id":"free"},{"bike_id":"7b0c53e0-355f-4340-91ac-01875283277b","system_id":"levelo_inurba_marseille","lat":43.27618,"lon":5.36097,"is_reserved":false,"is_disabled":false,"rental_uris":{"android":"levelo://app?vid=7b0c53e0-355f-4340-91ac-01875283277b","ios":"levelo://app?vid=7b0c53e0-355f-4340-91ac-01875283277b"},"vehicle_type_id":"4","last_reported":1701471981,"current_range_meters":28000,"station_id":"ce4bgj92rcd13ifvqbe0","pricing_plan_id":"free"},{"bike_id":"15637217-7bdf-4ace-8879-cdacb68e785b","system_id":"levelo_inurba_marseille","lat":43.27614,"lon":5.36101,"is_reserved":false,"is_disabled":false,"rental_uris":{"android":"levelo://app?vid=15637217-7bdf-4ace-8879-cdacb68e785b","ios":"levelo://app?vid=15637217-7bdf-4ace-8879-cdacb68e785b"},"vehicle_type_id":"4","last_reported":1701471981,"current_range_meters":20000,"station_id":"ce4bgj92rcd13ifvqbe0","pricing_plan_id":"free"},{"bike_id":"15afdd20-0eea-4d13-b29e-d6ea431bc7c8","system_id":"levelo_inurba_marseille","lat":43.27613,"lon":5.36102,"is_reserved":false,"is_disabled":false,"rental_uris":{"android":"levelo://app?vid=15afdd20-0eea-4d13-b29e-d6ea431bc7c8","ios":"levelo://app?vid=15afdd20-0eea-4d13-b29e-d6ea431bc7c8"},"vehicle_type_id":"4","last_reported":1701471981,"current_range_meters":7200,"station_id":"ce4bgj92rcd13ifvqbe0","pricing_plan_id":"free"},{"bike_id":"50f7840e-a9cf-4f40-b946-216ee75649a2","system_id":"levelo_inurba_marseille","lat":43.27611,"lon":5.36108,"is_reserved":false,"is_disabled":false,"rental_uris":{"android":"levelo://app?vid=50f7840e-a9cf-4f40-b946-216ee75649a2","ios":"levelo://app?vid=50f7840e-a9cf-4f40-b946-216ee75649a2"},"vehicle_type_id":"4","last_reported":1701471981,"current_range_meters":4400,"station_id":"ce4bgj92rcd13ifvqbe0","pricing_plan_id":"free"},{"bike_id":"bcdb50df-13be-4393-adc8-1a79a4e56c43","system_id":"levelo_inurba_marseille","lat":43.28612,"lon":5.40414,"is_reserved":false,"is_disabled":false,"rental_uris":{"android":"levelo://app?vid=bcdb50df-13be-4393-adc8-1a79a4e56c43","ios":"levelo://app?vid=bcdb50df-13be-4393-adc8-1a79a4e56c43"},"vehicle_type_id":"4","last_reported":1701471981,"current_range_meters":2000,"station_id":"","pricing_plan_id":"free"},{"bike_id":"86e7d7d4-9cc6-4c07-8b8c-a501053e5584","system_id":"levelo_inurba_marseille","lat":43.303837,"lon":5.418724,"is_reserved":false,"is_disabled":false,"rental_uris":{"android":"levelo://app?vid=86e7d7d4-9cc6-4c07-8b8c-a501053e5584","ios":"levelo://app?vid=86e7d7d4-9cc6-4c07-8b8c-a501053e5584"},"vehicle_type_id":"4","last_reported":1701471981,"current_range_meters":14000,"station_id":"ce4bhop2rcd13ifvqh7g","pricing_plan_id":"free"},{"bike_id":"dad9420d-36bf-47cb-8906-3c62e7ceb4b7","system_id":"levelo_inurba_marseille","lat":43.30355,"lon":5.41891,"is_reserved":false,"is_disabled":false,"rental_uris":{"android":"levelo://app?vid=dad9420d-36bf-47cb-8906-3c62e7ceb4b7","ios":"levelo://app?vid=dad9420d-36bf-47cb-8906-3c62e7ceb4b7"},"vehicle_type_id":"4","last_reported":1701471981,"current_range_meters":18800,"station_id":"ce4bhop2rcd13ifvqh7g","pricing_plan_id":"free"},{"bike_id":"48e88626-98ec-4601-9420-6bee8678acec","system_id":"levelo_inurba_marseille","lat":43.278401,"lon":5.392152,"is_reserved":false,"is_disabled":false,"rental_uris":{"android":"levelo://app?vid=48e88626-98ec-4601-9420-6bee8678acec","ios":"levelo://app?vid=48e88626-98ec-4601-9420-6bee8678acec"},"vehicle_type_id":"4","last_reported":1701471981,"current_range_meters":16000,"station_id":"ce4bhjp2rcd13ifvqga0","pricing_plan_id":"free"},{"bike_id":"edff782a-cd00-42d1-8865-63a8e381c23b","system_id":"levelo_inurba_marseille","lat":43.278399,"lon":5.392139,"is_reserved":false,"is_disabled":false,"rental_uris":{"android":"levelo://app?vid=edff782a-cd00-42d1-8865-63a8e381c23b","ios":"levelo://app?vid=edff782a-cd00-42d1-8865-63a8e381c23b"},"vehicle_type_id":"4","last_reported":1701471981,"current_range_meters":28400,"station_id":"ce4bhjp2rcd13ifvqga0","pricing_plan_id":"free"},{"bike_id":"9af7d771-196b-4352-b274-143f6844e6bc","system_id":"levelo_inurba_marseille","lat":43.336134,"lon":5.410341,"is_reserved":false,"is_disabled":false,"rental_uris":{"android":"levelo://app?vid=9af7d771-196b-4352-b274-143f6844e6bc","ios":"levelo://app?vid=9af7d771-196b-4352-b274-143f6844e6bc"},"vehicle_type_id":"4","last_reported":1701471981,"current_range_meters":28000,"station_id":"ce4bhqh2rcd13ifvqhmg","pricing_plan_id":"free"},{"bike_id":"894f6494-585b-4b1b-a39f-39b137cf17d0","system_id":"levelo_inurba_marseille","lat":43.310785,"lon":5.424305,"is_reserved":false,"is_disabled":false,"rental_uris":{"android":"levelo://app?vid=894f6494-585b-4b1b-a39f-39b137cf17d0","ios":"levelo://app?vid=894f6494-585b-4b1b-a39f-39b137cf17d0"},"vehicle_type_id":"4","last_reported":1701471981,"current_range_meters":12000,"station_id":"ce4bhp92rcd13ifvqhag","pricing_plan_id":"free"},{"bike_id":"7729778a-d587-4a31-9e2a-fc6f9d799c22","system_id":"levelo_inurba_marseille","lat":43.340804,"lon":5.410219,"is_reserved":false,"is_disabled":false,"rental_uris":{"android":"levelo://app?vid=7729778a-d587-4a31-9e2a-fc6f9d799c22","ios":"levelo://app?vid=7729778a-d587-4a31-9e2a-fc6f9d799c22"},"vehicle_type_id":"4","last_reported":1701471981,"current_range_meters":27600,"station_id":"ce4bhqh2rcd13ifvqhlg","pricing_plan_id":"free"},{"bike_id":"ec8cda27-8133-4ca8-abd6-6a978c40f976","system_id":"levelo_inurba_marseille","lat":43.340804,"lon":5.410219,"is_reserved":false,"is_disabled":false,"rental_uris":{"android":"levelo://app?vid=ec8cda27-8133-4ca8-abd6-6a978c40f976","ios":"levelo://app?vid=ec8cda27-8133-4ca8-abd6-6a978c40f976"},"vehicle_type_id":"4","last_reported":1701471981,"current_range_meters":26400,"station_id":"ce4bhqh2rcd13ifvqhlg","pricing_plan_id":"free"},{"bike_id":"7ed57e64-d5e4-414f-8eb1-b422e851258b","system_id":"levelo_inurba_marseille","lat":43.295523,"lon":5.422926,"is_reserved":false,"is_disabled":false,"rental_uris":{"android":"levelo://app?vid=7ed57e64-d5e4-414f-8eb1-b422e851258b","ios":"levelo://app?vid=7ed57e64-d5e4-414f-8eb1-b422e851258b"},"vehicle_type_id":"4","last_reported":1701471981,"current_range_meters":23200,"station_id":"ce4bhph2rcd13ifvqhdg","pricing_plan_id":"free"},{"bike_id":"2fd3642f-f043-47ed-8015-d904c8b402fd","system_id":"levelo_inurba_marseille","lat":43.27217,"lon":5.39146,"is_reserved":false,"is_disabled":false,"rental_uris":{"android":"levelo://app?vid=2fd3642f-f043-47ed-8015-d904c8b402fd","ios":"levelo://app?vid=2fd3642f-f043-47ed-8015-d904c8b402fd"},"vehicle_type_id":"4","last_reported":1701471981,"current_range_meters":0,"station_id":"ce4bhhp2rcd13ifvqfm0","pricing_plan_id":"free"},{"bike_id":"706e4a02-a27d-4d04-aeb3-389469bc449c","system_id":"levelo_inurba_marseille","lat":43.278128,"lon":5.407195,"is_reserved":false,"is_disabled":false,"rental_uris":{"android":"levelo://app?vid=706e4a02-a27d-4d04-aeb3-389469bc449c","ios":"levelo://app?vid=706e4a02-a27d-4d04-aeb3-389469bc449c"},"vehicle_type_id":"4","last_reported":1701471981,"current_range_meters":13600,"station_id":"ce4bhnh2rcd13ifvqgtg","pricing_plan_id":"free"},{"bike_id":"8f235616-66dc-486c-875c-c51be2a706b4","system_id":"levelo_inurba_marseille","lat":43.27947,"lon":5.41046,"is_reserved":false,"is_disabled":false,"rental_uris":{"android":"levelo://app?vid=8f235616-66dc-486c-875c-c51be2a706b4","ios":"levelo://app?vid=8f235616-66dc-486c-875c-c51be2a706b4"},"vehicle_type_id":"4","last_reported":1701471981,"current_range_meters":22400,"station_id":"ce4bhnp2rcd13ifvqh0g","pricing_plan_id":"free"},{"bike_id":"69946b52-29b9-4220-a2ff-70e1e6d2ba49","system_id":"levelo_inurba_marseille","lat":43.26681,"lon":5.382694,"is_reserved":false,"is_disabled":false,"rental_uris":{"android":"levelo://app?vid=69946b52-29b9-4220-a2ff-70e1e6d2ba49","ios":"levelo://app?vid=69946b52-29b9-4220-a2ff-70e1e6d2ba49"},"vehicle_type_id":"4","last_reported":1701471981,"current_range_meters":11600,"station_id":"ce4bhg92rcd13ifvqf90","pricing_plan_id":"free"},{"bike_id":"a2d420dd-14be-462d-a1c6-cb06f97f2ed5","system_id":"levelo_inurba_marseille","lat":43.27996,"lon":5.416624,"is_reserved":false,"is_disabled":false,"rental_uris":{"android":"levelo://app?vid=a2d420dd-14be-462d-a1c6-cb06f97f2ed5","ios":"levelo://app?vid=a2d420dd-14be-462d-a1c6-cb06f97f2ed5"},"vehicle_type_id":"4","last_reported":1701471981,"current_range_meters":28000,"station_id":"ce4bho12rcd13ifvqh1g","pricing_plan_id":"free"},{"bike_id":"92311913-f3a0-413e-bbcf-fb6d37d5230a","system_id":"levelo_inurba_marseille","lat":43.308051,"lon":5.43527,"is_reserved":false,"is_disabled":false,"rental_uris":{"android":"levelo://app?vid=92311913-f3a0-413e-bbcf-fb6d37d5230a","ios":"levelo://app?vid=92311913-f3a0-413e-bbcf-fb6d37d5230a"},"vehicle_type_id":"4","last_reported":1701471981,"current_range_meters":26400,"station_id":"ce4bhph2rcd13ifvqheg","pricing_plan_id":"free"},{"bike_id":"55b33a5c-1177-4dd9-b3a0-e993463bd4e2","system_id":"levelo_inurba_marseille","lat":43.308051,"lon":5.43527,"is_reserved":false,"is_disabled":false,"rental_uris":{"android":"levelo://app?vid=55b33a5c-1177-4dd9-b3a0-e993463bd4e2","ios":"levelo://app?vid=55b33a5c-1177-4dd9-b3a0-e993463bd4e2"},"vehicle_type_id":"4","last_reported":1701471981,"current_range_meters":30000,"station_id":"ce4bhph2rcd13ifvqheg","pricing_plan_id":"free"},{"bike_id":"c71160fc-c7b7-4c0b-8b7c-da5014dcb825","system_id":"levelo_inurba_marseille","lat":43.317104,"lon":5.436818,"is_reserved":false,"is_disabled":false,"rental_uris":{"android":"levelo://app?vid=c71160fc-c7b7-4c0b-8b7c-da5014dcb825","ios":"levelo://app?vid=c71160fc-c7b7-4c0b-8b7c-da5014dcb825"},"vehicle_type_id":"4","last_reported":1701471981,"current_range_meters":30000,"station_id":"ce4bhp92rcd13ifvqhcg","pricing_plan_id":"free"},{"bike_id":"d8d7eec2-d132-4c88-8d3c-6d9c452000f4","system_id":"levelo_inurba_marseille","lat":43.271368,"lon":5.40928,"is_reserved":false,"is_disabled":false,"rental_uris":{"android":"levelo://app?vid=d8d7eec2-d132-4c88-8d3c-6d9c452000f4","ios":"levelo://app?vid=d8d7eec2-d132-4c88-8d3c-6d9c452000f4"},"vehicle_type_id":"4","last_reported":1701471981,"current_range_meters":22000,"station_id":"ce4bhl12rcd13ifvqgf0","pricing_plan_id":"free"},{"bike_id":"f9cac9a5-67a1-4158-a2a6-203ab176f26c","system_id":"levelo_inurba_marseille","lat":43.271388,"lon":5.409269,"is_reserved":false,"is_disabled":false,"rental_uris":{"android":"levelo://app?vid=f9cac9a5-67a1-4158-a2a6-203ab176f26c","ios":"levelo://app?vid=f9cac9a5-67a1-4158-a2a6-203ab176f26c"},"vehicle_type_id":"4","last_reported":1701471981,"current_range_meters":30400,"station_id":"ce4bhl12rcd13ifvqgf0","pricing_plan_id":"free"},{"bike_id":"64ac9a22-2cf9-4141-a288-3e6209d010e8","system_id":"levelo_inurba_marseille","lat":43.271368,"lon":5.40928,"is_reserved":false,"is_disabled":false,"rental_uris":{"android":"levelo://app?vid=64ac9a22-2cf9-4141-a288-3e6209d010e8","ios":"levelo://app?vid=64ac9a22-2cf9-4141-a288-3e6209d010e8"},"vehicle_type_id":"4","last_reported":1701471981,"current_range_meters":31600,"station_id":"ce4bhl12rcd13ifvqgf0","pricing_plan_id":"free"},{"bike_id":"2ba9db67-bc08-4181-91bc-5b87bbc9227d","system_id":"levelo_inurba_marseille","lat":43.26202,"lon":5.379299,"is_reserved":false,"is_disabled":false,"rental_uris":{"android":"levelo://app?vid=2ba9db67-bc08-4181-91bc-5b87bbc9227d","ios":"levelo://app?vid=2ba9db67-bc08-4181-91bc-5b87bbc9227d"},"vehicle_type_id":"4","last_reported":1701471981,"current_range_meters":26400,"station_id":"ce4bhjp2rcd13ifvqg90","pricing_plan_id":"free"},{"bike_id":"a4124f48-25c9-4f2d-8b83-4f62a5b2e009","system_id":"levelo_inurba_marseille","lat":43.271388,"lon":5.409269,"is_reserved":false,"is_disabled":false,"rental_uris":{"android":"levelo://app?vid=a4124f48-25c9-4f2d-8b83-4f62a5b2e009","ios":"levelo://app?vid=a4124f48-25c9-4f2d-8b83-4f62a5b2e009"},"vehicle_type_id":"4","last_reported":1701471981,"current_range_meters":0,"station_id":"ce4bhl12rcd13ifvqgf0","pricing_plan_id":"free"},{"bike_id":"be554e14-baf6-4d39-bbf3-064c681b17e0","system_id":"levelo_inurba_marseille","lat":43.267959,"lon":5.402687,"is_reserved":false,"is_disabled":false,"rental_uris":{"android":"levelo://app?vid=be554e14-baf6-4d39-bbf3-064c681b17e0","ios":"levelo://app?vid=be554e14-baf6-4d39-bbf3-064c681b17e0"},"vehicle_type_id":"4","last_reported":1701471981,"current_range_meters":29200,"station_id":"ce501612rcd8frsf0b60","pricing_plan_id":"free"},{"bike_id":"e0c7aaa5-f957-4643-9938-29acc1fa1c9e","system_id":"levelo_inurba_marseille","lat":43.267959,"lon":5.402687,"is_reserved":false,"is_disabled":false,"rental_uris":{"android":"levelo://app?vid=e0c7aaa5-f957-4643-9938-29acc1fa1c9e","ios":"levelo://app?vid=e0c7aaa5-f957-4643-9938-29acc1fa1c9e"},"vehicle_type_id":"4","last_reported":1701471981,"current_range_meters":1600,"station_id":"ce501612rcd8frsf0b60","pricing_plan_id":"free"},{"bike_id":"aa32d31c-2cc3-4bda-a3f0-5b3d1a2f9ae5","system_id":"levelo_inurba_marseille","lat":43.28153,"lon":5.4264,"is_reserved":false,"is_disabled":false,"rental_uris":{"android":"levelo://app?vid=aa32d31c-2cc3-4bda-a3f0-5b3d1a2f9ae5","ios":"levelo://app?vid=aa32d31c-2cc3-4bda-a3f0-5b3d1a2f9ae5"},"vehicle_type_id":"4","last_reported":1701471981,"current_range_meters":6400,"station_id":"ce4bhnh2rcd13ifvqgug","pricing_plan_id":"free"},{"bike_id":"3532a786-7312-4db1-88be-2e5e8a274941","system_id":"levelo_inurba_marseille","lat":43.281536,"lon":5.426446,"is_reserved":false,"is_disabled":false,"rental_uris":{"android":"levelo://app?vid=3532a786-7312-4db1-88be-2e5e8a274941","ios":"levelo://app?vid=3532a786-7312-4db1-88be-2e5e8a274941"},"vehicle_type_id":"4","last_reported":1701471981,"current_range_meters":26400,"station_id":"ce4bhnh2rcd13ifvqgug","pricing_plan_id":"free"},{"bike_id":"a265f57d-2203-4406-8278-bc194922c399","system_id":"levelo_inurba_marseille","lat":43.281505,"lon":5.426433,"is_reserved":false,"is_disabled":false,"rental_uris":{"android":"levelo://app?vid=a265f57d-2203-4406-8278-bc194922c399","ios":"levelo://app?vid=a265f57d-2203-4406-8278-bc194922c399"},"vehicle_type_id":"4","last_reported":1701471981,"current_range_meters":30000,"station_id":"ce4bhnh2rcd13ifvqgug","pricing_plan_id":"free"},{"bike_id":"3de40b48-7293-4590-b1e4-a9c54e991d0a","system_id":"levelo_inurba_marseille","lat":43.281504,"lon":5.426441,"is_reserved":false,"is_disabled":false,"rental_uris":{"android":"levelo://app?vid=3de40b48-7293-4590-b1e4-a9c54e991d0a","ios":"levelo://app?vid=3de40b48-7293-4590-b1e4-a9c54e991d0a"},"vehicle_type_id":"4","last_reported":1701471981,"current_range_meters":17600,"station_id":"ce4bhnh2rcd13ifvqgug","pricing_plan_id":"free"},{"bike_id":"d3df04f1-aa36-401c-b9f0-16ea3bba87de","system_id":"levelo_inurba_marseille","lat":43.2815,"lon":5.42646,"is_reserved":false,"is_disabled":false,"rental_uris":{"android":"levelo://app?vid=d3df04f1-aa36-401c-b9f0-16ea3bba87de","ios":"levelo://app?vid=d3df04f1-aa36-401c-b9f0-16ea3bba87de"},"vehicle_type_id":"4","last_reported":1701471981,"current_range_meters":16400,"station_id":"ce4bhnh2rcd13ifvqgug","pricing_plan_id":"free"},{"bike_id":"81f4f34a-8d36-4c09-961e-e42c57ef3483","system_id":"levelo_inurba_marseille","lat":43.28152,"lon":5.42648,"is_reserved":false,"is_disabled":false,"rental_uris":{"android":"levelo://app?vid=81f4f34a-8d36-4c09-961e-e42c57ef3483","ios":"levelo://app?vid=81f4f34a-8d36-4c09-961e-e42c57ef3483"},"vehicle_type_id":"4","last_reported":1701471981,"current_range_meters":2400,"station_id":"ce4bhnh2rcd13ifvqgug","pricing_plan_id":"free"},{"bike_id":"b802834e-51f4-41a4-96cb-c31681473515","system_id":"levelo_inurba_marseille","lat":43.281526,"lon":5.426526,"is_reserved":false,"is_disabled":false,"rental_uris":{"android":"levelo://app?vid=b802834e-51f4-41a4-96cb-c31681473515","ios":"levelo://app?vid=b802834e-51f4-41a4-96cb-c31681473515"},"vehicle_type_id":"4","last_reported":1701471981,"current_range_meters":31200,"station_id":"ce4bhnh2rcd13ifvqgug","pricing_plan_id":"free"},{"bike_id":"b50e7963-680b-40e1-ab37-36504f3646f3","system_id":"levelo_inurba_marseille","lat":43.258224,"lon":5.394369,"is_reserved":false,"is_disabled":false,"rental_uris":{"android":"levelo://app?vid=b50e7963-680b-40e1-ab37-36504f3646f3","ios":"levelo://app?vid=b50e7963-680b-40e1-ab37-36504f3646f3"},"vehicle_type_id":"4","last_reported":1701471981,"current_range_meters":16800,"station_id":"ce4bhip2rcd13ifvqft0","pricing_plan_id":"free"},{"bike_id":"6b55de0b-bf22-4d3b-bb7b-9bfacee3cb65","system_id":"levelo_inurba_marseille","lat":43.27067,"lon":5.42281,"is_reserved":false,"is_disabled":false,"rental_uris":{"android":"levelo://app?vid=6b55de0b-bf22-4d3b-bb7b-9bfacee3cb65","ios":"levelo://app?vid=6b55de0b-bf22-4d3b-bb7b-9bfacee3cb65"},"vehicle_type_id":"4","last_reported":1701471981,"current_range_meters":25200,"station_id":"ce4bhk92rcd13ifvqgb0","pricing_plan_id":"free"},{"bike_id":"56de3f0e-b18c-485a-8c58-e4c4956ba711","system_id":"levelo_inurba_marseille","lat":43.270721,"lon":5.422764,"is_reserved":false,"is_disabled":false,"rental_uris":{"android":"levelo://app?vid=56de3f0e-b18c-485a-8c58-e4c4956ba711","ios":"levelo://app?vid=56de3f0e-b18c-485a-8c58-e4c4956ba711"},"vehicle_type_id":"4","last_reported":1701471981,"current_range_meters":12000,"station_id":"ce4bhk92rcd13ifvqgb0","pricing_plan_id":"free"},{"bike_id":"f88fd433-05bf-4de3-9f93-62a16ba6307d","system_id":"levelo_inurba_marseille","lat":43.25934,"lon":5.40914,"is_reserved":false,"is_disabled":false,"rental_uris":{"android":"levelo://app?vid=f88fd433-05bf-4de3-9f93-62a16ba6307d","ios":"levelo://app?vid=f88fd433-05bf-4de3-9f93-62a16ba6307d"},"vehicle_type_id":"4","last_reported":1701471981,"current_range_meters":16000,"station_id":"ce4bhm92rcd13ifvqglg","pricing_plan_id":"free"},{"bike_id":"8260938c-99a0-41e0-9eca-ebe62e09f8e6","system_id":"levelo_inurba_marseille","lat":43.25925,"lon":5.409015,"is_reserved":false,"is_disabled":false,"rental_uris":{"android":"levelo://app?vid=8260938c-99a0-41e0-9eca-ebe62e09f8e6","ios":"levelo://app?vid=8260938c-99a0-41e0-9eca-ebe62e09f8e6"},"vehicle_type_id":"4","last_reported":1701471981,"current_range_meters":22400,"station_id":"ce4bhm92rcd13ifvqglg","pricing_plan_id":"free"},{"bike_id":"08b4c352-87c9-43f5-9b00-37ca68258b6b","system_id":"levelo_inurba_marseille","lat":43.250009,"lon":5.389195,"is_reserved":false,"is_disabled":false,"rental_uris":{"android":"levelo://app?vid=08b4c352-87c9-43f5-9b00-37ca68258b6b","ios":"levelo://app?vid=08b4c352-87c9-43f5-9b00-37ca68258b6b"},"vehicle_type_id":"4","last_reported":1701471981,"current_range_meters":19600,"station_id":"ce4bhgp2rcd13ifvqfd0","pricing_plan_id":"free"},{"bike_id":"5e761ea7-cd12-47ba-8924-5427ef369611","system_id":"levelo_inurba_marseille","lat":43.2479,"lon":5.374457,"is_reserved":false,"is_disabled":false,"rental_uris":{"android":"levelo://app?vid=5e761ea7-cd12-47ba-8924-5427ef369611","ios":"levelo://app?vid=5e761ea7-cd12-47ba-8924-5427ef369611"},"vehicle_type_id":"4","last_reported":1701471981,"current_range_meters":15200,"station_id":"ce4bhgh2rcd13ifvqfb0","pricing_plan_id":"free"},{"bike_id":"f1dfb447-3c1c-437e-8665-e09b517273d5","system_id":"levelo_inurba_marseille","lat":43.2479,"lon":5.374457,"is_reserved":false,"is_disabled":false,"rental_uris":{"android":"levelo://app?vid=f1dfb447-3c1c-437e-8665-e09b517273d5","ios":"levelo://app?vid=f1dfb447-3c1c-437e-8665-e09b517273d5"},"vehicle_type_id":"4","last_reported":1701471981,"current_range_meters":30800,"station_id":"ce4bhgh2rcd13ifvqfb0","pricing_plan_id":"free"},{"bike_id":"b677a25c-e1a1-4cc0-a7f9-1ec52c732dd0","system_id":"levelo_inurba_marseille","lat":43.2479,"lon":5.374457,"is_reserved":false,"is_disabled":false,"rental_uris":{"android":"levelo://app?vid=b677a25c-e1a1-4cc0-a7f9-1ec52c732dd0","ios":"levelo://app?vid=b677a25c-e1a1-4cc0-a7f9-1ec52c732dd0"},"vehicle_type_id":"4","last_reported":1701471981,"current_range_meters":25200,"station_id":"ce4bhgh2rcd13ifvqfb0","pricing_plan_id":"free"},{"bike_id":"9c6849bc-5d3b-4a37-9ab0-7e9b5f1119d3","system_id":"levelo_inurba_marseille","lat":43.2479,"lon":5.374457,"is_reserved":false,"is_disabled":false,"rental_uris":{"android":"levelo://app?vid=9c6849bc-5d3b-4a37-9ab0-7e9b5f1119d3","ios":"levelo://app?vid=9c6849bc-5d3b-4a37-9ab0-7e9b5f1119d3"},"vehicle_type_id":"4","last_reported":1701471981,"current_range_meters":31600,"station_id":"ce4bhgh2rcd13ifvqfb0","pricing_plan_id":"free"},{"bike_id":"7b86737e-88b6-402e-953d-d66f821e4367","system_id":"levelo_inurba_marseille","lat":43.250778,"lon":5.395221,"is_reserved":false,"is_disabled":false,"rental_uris":{"android":"levelo://app?vid=7b86737e-88b6-402e-953d-d66f821e4367","ios":"levelo://app?vid=7b86737e-88b6-402e-953d-d66f821e4367"},"vehicle_type_id":"4","last_reported":1701471981,"current_range_meters":31200,"station_id":"ce4bhm12rcd13ifvqgkg","pricing_plan_id":"free"},{"bike_id":"fc5bbe81-0aa5-476b-aa30-f25c82b188da","system_id":"levelo_inurba_marseille","lat":43.25102,"lon":5.403214,"is_reserved":false,"is_disabled":false,"rental_uris":{"android":"levelo://app?vid=fc5bbe81-0aa5-476b-aa30-f25c82b188da","ios":"levelo://app?vid=fc5bbe81-0aa5-476b-aa30-f25c82b188da"},"vehicle_type_id":"4","last_reported":1701471981,"current_range_meters":19600,"station_id":"ce4bhlh2rcd13ifvqgig","pricing_plan_id":"free"},