{"last_updated":1713020660,"ttl":30,"version":"2.2","data":{"bikes":[{"bike_id":"d7df50d0-e9ec-474e-a8a8-319b8baecc17","system_id":"levelo_inurba_marseille","lat":43.309076,"lon":5.368465,"is_reserved":false,"is_disabled":false,"rental_uris":{"android":"levelo://app?vid=d7df50d0-e9ec-474e-a8a8-319b8baecc17","ios":"levelo://app?vid=d7df50d0-e9ec-474e-a8a8-319b8baecc17"},"vehicle_type_id":"4","last_reported":1713020660,"current_range_meters":10400,"station_id":"ce4bgn92rcd13ifvqbvg","pricing_plan_id":"cebpf4jnsgd1na2vs0mg"},{"bike_id":"7829c065-b892-4a50-ad86-c004cbaae673","system_id":"levelo_inurba_marseille","lat":43.309039,"lon":5.371797,"is_reserved":false,"is_disabled":false,"rental_uris":{"android":"levelo://app?vid=7829c065-b892-4a50-ad86-c004cbaae673","ios":"levelo://app?vid=7829c065-b892-4a50-ad86-c004cbaae673"},"vehicle_type_id":"4","last_reported":1713020660,"current_range_meters":18000,"station_id":"ce4bguh2rcd13ifvqckg","pricing_plan_id":"cebpf4jnsgd1na2vs0mg"},{"bike_id":"888213e2-ad56-415d-afac-dd34ef7ad94e","system_id":"levelo_inurba_marseille","lat":43.309039,"lon":5.371797,"is_reserved":false,"is_disabled":false,"rental_uris":{"android":"levelo://app?vid=888213e2-ad56-415d-afac-dd34ef7ad94e","ios":"levelo://app?vid=888213e2-ad56-415d-afac-dd34ef7ad94e"},"vehicle_type_id":"4","last_reported":1713020660,"current_range_meters":16800,"station_id":"ce4bguh2rcd13ifvqckg","pricing_plan_id":"cebpf4jnsgd1na2vs0mg"},{"bike_id":"b7867ad1-46be-458a-ba39-72c9c2a2fb1e","system_id":"levelo_inurba_marseille","lat":43.305706,"lon":5.365654,"is_reserved":false,"is_disabled":false,"rental_uris":{"android":"levelo://app?vid=b7867ad1-46be-458a-ba39-72c9c2a2fb1e","ios":"levelo://app?vid=b7867ad1-46be-458a-ba39-72c9c2a2fb1e"},"vehicle_type_id":"4","last_reported":1713020660,"current_range_meters":0,"station_id":"ce4bgs12rcd13ifvqcag","pricing_plan_id":"cebpf4jnsgd1na2vs0mg"},{"bike_id":"032fa2cd-3a76-49fd-91c0-7843a1b1ef78","system_id":"levelo_inurba_marseille","lat":43.30535,"lon":5.36556,"is_reserved":false,"is_disabled":false,"rental_uris":{"android":"levelo://app?vid=032fa2cd-3a76-49fd-91c0-7843a1b1ef78","ios":"levelo://app?vid=032fa2cd-3a76-49fd-91c0-7843a1b1ef78"},"vehicle_type_id":"4","last_reported":1713020660,"current_range_meters":0,"station_id":"ce4bgpp2rcd13ifvqc3g","pricing_plan_id":"cebpf4jnsgd1na2vs0mg"},{"bike_id":"5e0f199c-b9eb-4c14-bb59-f10124f2b63d","system_id":"levelo_inurba_marseille","lat":43.305706,"lon":5.365654,"is_reserved":false,"is_disabled":false,"rental_uris":{"android":"levelo://app?vid=5e0f199c-b9eb-4c14-bb59-f10124f2b63d","ios":"levelo://app?vid=5e0f199c-b9eb-4c14-bb59-f10124f2b63d"},"vehicle_type_id":"4","last_reported":1713020660,"current_range_meters":25200,"station_id":"ce4bgs12rcd13ifvqcag","pricing_plan_id":"cebpf4jnsgd1na2vs0mg"},{"bike_id":"3c96d886-3cfc-4f02-9d74-2590bfeb174f","system_id":"levelo_inurba_marseille","lat":43.307945,"lon":5.376487,"is_reserved":false,"is_disabled":false,"rental_uris":{"android":"levelo://app?vid=3c96d886-3cfc-4f02-9d74-2590bfeb174f","ios":"levelo://app?vid=3c96d886-3cfc-4f02-9d74-2590bfeb174f"},"vehicle_type_id":"4","last_reported":1713020660,"current_range_meters":0,"station_id":"ce4bgv92rcd13ifvqcq0","pricing_plan_id":"cebpf4jnsgd1na2vs0mg"},{"bike_id":"a2d499cf-0fe7-4c21-926c-fada6be7b213","system_id":"levelo_inurba_marseille","lat":43.307945,"lon":5.376487,"is_reserved":false,"is_disabled":false,"rental_uris":{"android":"levelo://app?vid=a2d499cf-0fe7-4c21-926c-fada6be7b213","ios":"levelo://app?vid=a2d499cf-0fe7-4c21-926c-fada6be7b213"},"vehicle_type_id":"4","last_reported":1713020660,"current_range_meters":11200,"station_id":"ce4bgv92rcd13ifvqcq0","pricing_plan_id":"cebpf4jnsgd1na2vs0mg"},{"bike_id":"e637c0df-d193-4fc8-bb9c-449400a8abb1","system_id":"levelo_inurba_marseille","lat":43.307945,"lon":5.376487,"is_reserved":false,"is_disabled":false,"rental_uris":{"android":"levelo://app?vid=e637c0df-d193-4fc8-bb9c-449400a8abb1","ios":"levelo://app?vid=e637c0df-d193-4fc8-bb9c-449400a8abb1"},"vehicle_type_id":"4","last_reported":1713020660,"current_range_meters":2000,"station_id":"ce4bgv92rcd13ifvqcq0","pricing_plan_id":"cebpf4jnsgd1na2vs0mg"},{"bike_id":"95e84fbc-92a1-4126-974c-05ed444f5d38","system_id":"levelo_inurba_marseille","lat":43.307945,"lon":5.376487,"is_reserved":false,"is_disabled":false,"rental_uris":{"android":"levelo://app?vid=95e84fbc-92a1-4126-974c-05ed444f5d38","ios":"levelo://app?vid=95e84fbc-92a1-4126-974c-05ed444f5d38"},"vehicle_type_id":"4","last_reported":1713020660,"current_range_meters":0,"station_id":"ce4bgv92rcd13ifvqcq0","pricing_plan_id":"cebpf4jnsgd1na2vs0mg"},{"bike_id":"69b336e8-f74d-45d8-badb-9a50b95ae2fe","system_id":"levelo_inurba_marseille","lat":43.307945,"lon":5.376487,"is_reserved":false,"is_disabled":false,"rental_uris":{"android":"levelo://app?vid=69b336e8-f74d-45d8-badb-9a50b95ae2fe","ios":"levelo://app?vid=69b336e8-f74d-45d8-badb-9a50b95ae2fe"},"vehicle_type_id":"4","last_reported":1713020660,"current_range_meters":9600,"station_id":"ce4bgv92rcd13ifvqcq0","pricing_plan_id":"cebpf4jnsgd1na2vs0mg"},{"bike_id":"e81b3950-e23e-4d28-bf20-6f5f6177d7c6","system_id":"levelo_inurba_marseille","lat":43.317075,"lon":5.377367,"is_reserved":false,"is_disabled":false,"rental_uris":{"android":"levelo://app?vid=e81b3950-e23e-4d28-bf20-6f5f6177d7c6","ios":"levelo://app?vid=e81b3950-e23e-4d28-bf20-6f5f6177d7c6"},"vehicle_type_id":"4","last_reported":1713020660,"current_range_meters":12000,"station_id":"ce4bgth2rcd13ifvqch0","pricing_plan_id":"cebpf4jnsgd1na2vs0mg"},{"bike_id":"76c0d00e-2113-4b94-96fa-ff3de213de74","system_id":"levelo_inurba_marseille","lat":43.303046,"lon":5.368981,"is_reserved":false,"is_disabled":false,"rental_uris":{"android":"levelo://app?vid=76c0d00e-2113-4b94-96fa-ff3de213de74","ios":"levelo://app?vid=76c0d00e-2113-4b94-96fa-ff3de213de74"},"vehicle_type_id":"4","last_reported":1713020660,"current_range_meters":0,"station_id":"ce4bgqh2rcd13ifvqc5g","pricing_plan_id":"cebpf4jnsgd1na2vs0mg"},{"bike_id":"1e96360f-bdda-4413-a9db-ce4c292bad3d","system_id":"levelo_inurba_marseille","lat":43.315293,"lon":5.380349,"is_reserved":false,"is_disabled":false,"rental_uris":{"android":"levelo://app?vid=1e96360f-bdda-4413-a9db-ce4c292bad3d","ios":"levelo://app?vid=1e96360f-bdda-4413-a9db-ce4c292bad3d"},"vehicle_type_id":"4","last_reported":1713020660,"current_range_meters":14000,"station_id":"ce4bhsp2rcd13ifvqi50","pricing_plan_id":"cebpf4jnsgd1na2vs0mg"},{"bike_id":"c973c696-6cf3-4ef6-9922-20142626237f","system_id":"levelo_inurba_marseille","lat":43.30282,"lon":5.37259,"is_reserved":false,"is_disabled":false,"rental_uris":{"android":"levelo://app?vid=c973c696-6cf3-4ef6-9922-20142626237f","ios":"levelo://app?vid=c973c696-6cf3-4ef6-9922-20142626237f"},"vehicle_type_id":"4","last_reported":1713020660,"current_range_meters":14800,"station_id":"","pricing_plan_id":"cebpf4jnsgd1na2vs0mg"},{"bike_id":"a0a07164-c0c2-41aa-b710-99113a5fa34b","system_id":"levelo_inurba_marseille","lat":43.324771,"lon":5.36557,"is_reserved":false,"is_disabled":false,"rental_uris":{"android":"levelo://app?vid=a0a07164-c0c2-41aa-b710-99113a5fa34b","ios":"levelo://app?vid=a0a07164-c0c2-41aa-b710-99113a5fa34b"},"vehicle_type_id":"4","last_reported":1713020660,"current_range_meters":12000,"station_id":"ce4bhs12rcd13ifvqhvg","pricing_plan_id":"cebpf4jnsgd1na2vs0mg"},{"bike_id":"51c4ee23-3194-4f22-8038-261d45c1ecdc","system_id":"levelo_inurba_marseille","lat":43.324771,"lon":5.36557,"is_reserved":false,"is_disabled":false,"rental_uris":{"android":"levelo://app?vid=51c4ee23-3194-4f22-8038-261d45c1ecdc","ios":"levelo://app?vid=51c4ee23-3194-4f22-8038-261d45c1ecdc"},"vehicle_type_id":"4","last_reported":1713020660,"current_range_meters":11600,"station_id":"ce4bhs12rcd13ifvqhvg","pricing_plan_id":"cebpf4jnsgd1na2vs0mg"},{"bike_id":"583c8200-cfa6-4257-856a-a9dbe1ee9977","system_id":"levelo_inurba_marseille","lat":43.324771,"lon":5.36557,"is_reserved":false,"is_disabled":false,"rental_uris":{"android":"levelo://app?vid=583c8200-cfa6-4257-856a-a9dbe1ee9977","ios":"levelo://app?vid=583c8200-cfa6-4257-856a-a9dbe1ee9977"},"vehicle_type_id":"4","last_reported":1713020660,"current_range_meters":2400,"station_id":"ce4bhs12rcd13ifvqhvg","pricing_plan_id":"cebpf4jnsgd1na2vs0mg"},{"bike_id":"6bd30c09-c007-4c03-a14e-53bb25dc6171","system_id":"levelo_inurba_marseille","lat":43.324771,"lon":5.36557,"is_reserved":false,"is_disabled":false,"rental_uris":{"android":"levelo://app?vid=6bd30c09-c007-4c03-a14e-53bb25dc6171","ios":"levelo://app?vid=6bd30c09-c007-4c03-a14e-53bb25dc6171"},"vehicle_type_id":"4","last_reported":1713020660,"current_range_meters":25200,"station_id":"ce4bhs12rcd13ifvqhvg","pricing_plan_id":"cebpf4jnsgd1na2vs0mg"},{"bike_id":"bc6cc588-e5bf-4915-9975-685403001528","system_id":"levelo_inurba_marseille","lat":43.324771,"lon":5.36557,"is_reserved":false,"is_disabled":false,"rental_uris":{"android":"levelo://app?vid=bc6cc588-e5bf-4915-9975-685403001528","ios":"levelo://app?vid=bc6cc588-e5bf-4915-9975-685403001528"},"vehicle_type_id":"4","last_reported":1713020660,"current_range_meters":17600,"station_id":"ce4bhs12rcd13ifvqhvg","pricing_plan_id":"cebpf4jnsgd1na2vs0mg"},{"bike_id":"493ad762-c214-4be6-b473-b7346698b16b","system_id":"levelo_inurba_marseille","lat":43.310804,"lon":5.38359,"is_reserved":false,"is_disabled":false,"rental_uris":{"android":"levelo://app?vid=493ad762-c214-4be6-b473-b7346698b16b","ios":"levelo://app?vid=493ad762-c214-4be6-b473-b7346698b16b"},"vehicle_type_id":"4","last_reported":1713020660,"current_range_meters":15200,"station_id":"ce4bgv92rcd13ifvqcr0","pricing_plan_id":"cebpf4jnsgd1na2vs0mg"},{"bike_id":"c4363fd0-30b1-4858-846e-f3361a5e24ef","system_id":"levelo_inurba_marseille","lat":43.310804,"lon":5.38359,"is_reserved":false,"is_disabled":false,"rental_uris":{"android":"levelo://app?vid=c4363fd0-30b1-4858-846e-f3361a5e24ef","ios":"levelo://app?vid=c4363fd0-30b1-4858-846e-f3361a5e24ef"},"vehicle_type_id":"4","last_reported":1713020660,"current_range_meters":0,"station_id":"ce4bgv92rcd13ifvqcr0","pricing_plan_id":"cebpf4jnsgd1na2vs0mg"},{"bike_id":"3ea1ee3a-010b-4432-9ec3-f78dd2378870","system_id":"levelo_inurba_marseille","lat":43.310804,"lon":5.38359,"is_reserved":false,"is_disabled":false,"rental_uris":{"android":"levelo://app?vid=3ea1ee3a-010b-4432-9ec3-f78dd2378870","ios":"levelo://app?vid=3ea1ee3a-010b-4432-9ec3-f78dd2378870"},"vehicle_type_id":"4","last_reported":1713020660,"current_range_meters":26000,"station_id":"ce4bgv92rcd13ifvqcr0","pricing_plan_id":"cebpf4jnsgd1na2vs0mg"},{"bike_id":"46f3c27f-f645-447f-99c1-1e21d3747ce6","system_id":"levelo_inurba_marseille","lat":43.30143,"lon":5.37413,"is_reserved":false,"is_disabled":false,"rental_uris":{"android":"levelo://app?vid=46f3c27f-f645-447f-99c1-1e21d3747ce6","ios":"levelo://app?vid=46f3c27f-f645-447f-99c1-1e21d3747ce6"},"vehicle_type_id":"4","last_reported":1713020660,"current_range_meters":2800,"station_id":"ce4bgs92rcd13ifvqcc0","pricing_plan_id":"cebpf4jnsgd1na2vs0mg"},{"bike_id":"cc5d2333-3826-43c4-897b-31883246fbf8","system_id":"levelo_inurba_marseille","lat":43.301429,"lon":5.37413,"is_reserved":false,"is_disabled":false,"rental_uris":{"android":"levelo://app?vid=cc5d2333-3826-43c4-897b-31883246fbf8","ios":"levelo://app?vid=cc5d2333-3826-43c4-897b-31883246fbf8"},"vehicle_type_id":"4","last_reported":1713020660,"current_range_meters":0,"station_id":"ce4bgs92rcd13ifvqcc0","pricing_plan_id":"cebpf4jnsgd1na2vs0mg"},{"bike_id":"e366c2ed-ca1c-4586-9cfa-57680e9f9cd0","system_id":"levelo_inurba_marseille","lat":43.319935,"lon":5.381699,"is_reserved":false,"is_disabled":false,"rental_uris":{"android":"levelo://app?vid=e366c2ed-ca1c-4586-9cfa-57680e9f9cd0","ios":"levelo://app?vid=e366c2ed-ca1c-4586-9cfa-57680e9f9cd0"},"vehicle_type_id":"4","last_reported":1713020660,"current_range_meters":28800,"station_id":"ce4bhr12rcd13ifvqhpg","pricing_plan_id":"cebpf4jnsgd1na2vs0mg"},{"bike_id":"10de1fbd-e00a-4343-871c-9d127259216d","system_id":"levelo_inurba_marseille","lat":43.299222,"lon":5.365554,"is_reserved":false,"is_disabled":false,"rental_uris":{"android":"levelo://app?vid=10de1fbd-e00a-4343-871c-9d127259216d","ios":"levelo://app?vid=10de1fbd-e00a-4343-871c-9d127259216d"},"vehicle_type_id":"4","last_reported":1713020660,"current_range_meters":0,"station_id":"ce4bgm92rcd13ifvqbr0","pricing_plan_id":"cebpf4jnsgd1na2vs0mg"},{"bike_id":"19245f43-ab44-48c5-a5c1-ed7b2c30fd9d","system_id":"levelo_inurba_marseille","lat":43.298433,"lon":5.362774,"is_reserved":false,"is_disabled":false,"rental_uris":{"android":"levelo://app?vid=19245f43-ab44-48c5-a5c1-ed7b2c30fd9d","ios":"levelo://app?vid=19245f43-ab44-48c5-a5c1-ed7b2c30fd9d"},"vehicle_type_id":"4","last_reported":1713020660,"current_range_meters":0,"station_id":"ce4bgpp2rcd13ifvqc3g","pricing_plan_id":"cebpf4jnsgd1na2vs0mg"},{"bike_id":"54ad91dd-2580-41d5-be01-26f7fad43579","system_id":"levelo_inurba_marseille","lat":43.299243,"lon":5.37481,"is_reserved":false,"is_disabled":false,"rental_uris":{"android":"levelo://app?vid=54ad91dd-2580-41d5-be01-26f7fad43579","ios":"levelo://app?vid=54ad91dd-2580-41d5-be01-26f7fad43579"},"vehicle_type_id":"4","last_reported":1713020660,"current_range_meters":0,"station_id":"ce4bgjh2rcd13ifvqbg0","pricing_plan_id":"cebpf4jnsgd1na2vs0mg"},{"bike_id":"efc1852f-22fe-4f54-a070-d5bb9678bc26","system_id":"levelo_inurba_marseille","lat":43.299243,"lon":5.374807,"is_reserved":false,"is_disabled":false,"rental_uris":{"android":"levelo://app?vid=efc1852f-22fe-4f54-a070-d5bb9678bc26","ios":"levelo://app?vid=efc1852f-22fe-4f54-a070-d5bb9678bc26"},"vehicle_type_id":"4","last_reported":1713020660,"current_range_meters":24400,"station_id":"ce4bgjh2rcd13ifvqbg0","pricing_plan_id":"cebpf4jnsgd1na2vs0mg"},{"bike_id":"a1c5e400-50d2-44be-b9c7-03497e926478","system_id":"levelo_inurba_marseille","lat":43.299111,"lon":5.374648,"is_reserved":false,"is_disabled":false,"rental_uris":{"android":"levelo://app?vid=a1c5e400-50d2-44be-b9c7-03497e926478","ios":"levelo://app?vid=a1c5e400-50d2-44be-b9c7-03497e926478"},"vehicle_type_id":"4","last_reported":1713020660,"current_range_meters":11200,"station_id":"ce4bgjh2rcd13ifvqbg0","pricing_plan_id":"cebpf4jnsgd1na2vs0mg"},{"bike_id":"9d092110-e7cb-44a2-acfc-e5a09d41f333","system_id":"levelo_inurba_marseille","lat":43.311722,"lon":5.387247,"is_reserved":false,"is_disabled":false,"rental_uris":{"android":"levelo://app?vid=9d092110-e7cb-44a2-acfc-e5a09d41f333","ios":"levelo://app?vid=9d092110-e7cb-44a2-acfc-e5a09d41f333"},"vehicle_type_id":"4","last_reported":1713020660,"current_range_meters":19200,"station_id":"ce4bgv12rcd13ifvqcp0","pricing_plan_id":"cebpf4jnsgd1na2vs0mg"},{"bike_id":"eb20863a-a8fe-4f36-9033-ac807cb96b1a","system_id":"levelo_inurba_marseille","lat":43.304606,"lon":5.379026,"is_reserved":false,"is_disabled":false,"rental_uris":{"android":"levelo://app?vid=eb20863a-a8fe-4f36-9033-ac807cb96b1a","ios":"levelo://app?vid=eb20863a-a8fe-4f36-9033-ac807cb96b1a"},"vehicle_type_id":"4","last_reported":1713020660,"current_range_meters":24000,"station_id":"ce4bgup2rcd13ifvqcn0","pricing_plan_id":"cebpf4jnsgd1na2vs0mg"},{"bike_id":"0a0f6363-ac70-44b0-962b-1b99abb98c26","system_id":"levelo_inurba_marseille","lat":43.297774,"lon":5.370875,"is_reserved":false,"is_disabled":false,"rental_uris":{"android":"levelo://app?vid=0a0f6363-ac70-44b0-962b-1b99abb98c26","ios":"levelo://app?vid=0a0f6363-ac70-44b0-962b-1b99abb98c26"},"vehicle_type_id":"4","last_reported":1713020660,"current_range_meters":10800,"station_id":"ce4bgop2rcd13ifvqc1g","pricing_plan_id":"cebpf4jnsgd1na2vs0mg"},{"bike_id":"4bdeacbf-5b43-4f1d-a142-7383a8fe64f7","system_id":"levelo_inurba_marseille","lat":43.296131,"lon":5.370773,"is_reserved":false,"is_disabled":false,"rental_uris":{"android":"levelo://app?vid=4bdeacbf-5b43-4f1d-a142-7383a8fe64f7","ios":"levelo://app?vid=4bdeacbf-5b43-4f1d-a142-7383a8fe64f7"},"vehicle_type_id":"4","last_reported":1713020660,"current_range_meters":15200,"station_id":"ce4bgnh2rcd13ifvqc0g","pricing_plan_id":"cebpf4jnsgd1na2vs0mg"},{"bike_id":"b9e87f1b-c6ee-4d37-b5d5-fe66df56f77c","system_id":"levelo_inurba_marseille","lat":43.296131,"lon":5.370791,"is_reserved":false,"is_disabled":false,"rental_uris":{"android":"levelo://app?vid=b9e87f1b-c6ee-4d37-b5d5-fe66df56f77c","ios":"levelo://app?vid=b9e87f1b-c6ee-4d37-b5d5-fe66df56f77c"},"vehicle_type_id":"4","last_reported":1713020660,"current_range_meters":0,"station_id":"ce4bgnh2rcd13ifvqc0g","pricing_plan_id":"cebpf4jnsgd1na2vs0mg"},{"bike_id":"5f2edab2-4b2a-418d-84e7-bf58823ccad8","system_id":"levelo_inurba_marseille","lat":43.29712,"lon":5.37685,"is_reserved":false,"is_disabled":false,"rental_uris":{"android":"levelo://app?vid=5f2edab2-4b2a-418d-84e7-bf58823ccad8","ios":"levelo://app?vid=5f2edab2-4b2a-418d-84e7-bf58823ccad8"},"vehicle_type_id":"4","last_reported":1713020660,"current_range_meters":0,"station_id":"ce4bgkh2rcd13ifvqbl0","pricing_plan_id":"cebpf4jnsgd1na2vs0mg"},{"bike_id":"143c6d32-9d93-4d3e-9c69-e3cffb1e64a8","system_id":"levelo_inurba_marseille","lat":43.317557,"lon":5.390173,"is_reserved":false,"is_disabled":false,"rental_uris":{"android":"levelo://app?vid=143c6d32-9d93-4d3e-9c69-e3cffb1e64a8","ios":"levelo://app?vid=143c6d32-9d93-4d3e-9c69-e3cffb1e64a8"},"vehicle_type_id":"4","last_reported":1713020660,"current_range_meters":18800,"station_id":"ce4bhqp2rcd13ifvqhng","pricing_plan_id":"cebpf4jnsgd1na2vs0mg"},{"bike_id":"0b1d4ece-1800-41fc-a444-d9b64c4de7b7","system_id":"levelo_inurba_marseille","lat":43.298037,"lon":5.381066,"is_reserved":false,"is_disabled":false,"rental_uris":{"android":"levelo://app?vid=0b1d4ece-1800-41fc-a444-d9b64c4de7b7","ios":"levelo://app?vid=0b1d4ece-1800-41fc-a444-d9b64c4de7b7"},"vehicle_type_id":"4","last_reported":1713020660,"current_range_meters":0,"station_id":"ce4bgip2rcd13ifvqbb0","pricing_plan_id":"cebpf4jnsgd1na2vs0mg"},{"bike_id":"24edff06-1def-4b91-b81a-cfebb8e8cd98","system_id":"levelo_inurba_marseille","lat":43.295748,"lon":5.37522,"is_reserved":false,"is_disabled":false,"rental_uris":{"android":"levelo://app?vid=24edff06-1def-4b91-b81a-cfebb8e8cd98","ios":"levelo://app?vid=24edff06-1def-4b91-b81a-cfebb8e8cd98"},"vehicle_type_id":"4","last_reported":1713020660,"current_range_meters":0,"station_id":"ce4bgh92rcd13ifvqb50","pricing_plan_id":"cebpf4jnsgd1na2vs0mg"},{"bike_id":"1831662c-e0b0-49c4-b6f7-319f09c011f3","system_id":"levelo_inurba_marseille","lat":43.2957,"lon":5.37519,"is_reserved":false,"is_disabled":false,"rental_uris":{"android":"levelo://app?vid=1831662c-e0b0-49c4-b6f7-319f09c011f3","ios":"levelo://app?vid=1831662c-e0b0-49c4-b6f7-319f09c011f3"},"vehicle_type_id":"4","last_reported":1713020660,"current_range_meters":0,"station_id":"ce4bgh92rcd13ifvqb50","pricing_plan_id":"cebpf4jnsgd1na2vs0mg"},{"bike_id":"4531836c-2b4f-4568-8b60-50aff729bcef","system_id":"levelo_inurba_marseille","lat":43.298037,"lon":5.381066,"is_reserved":false,"is_disabled":false,"rental_uris":{"android":"levelo://app?vid=4531836c-2b4f-4568-8b60-50aff729bcef","ios":"levelo://app?vid=4531836c-2b4f-4568-8b60-50aff729bcef"},"vehicle_type_id":"4","last_reported":1713020660,"current_range_meters":6000,"station_id":"ce4bgip2rcd13ifvqbb0","pricing_plan_id":"cebpf4jnsgd1na2vs0mg"},{"bike_id":"d1d9c67d-650f-4c3d-9433-5c80d49c5d93","system_id":"levelo_inurba_marseille","lat":43.2962,"lon":5.37723,"is_reserved":false,"is_disabled":false,"rental_uris":{"android":"levelo://app?vid=d1d9c67d-650f-4c3d-9433-5c80d49c5d93","ios":"levelo://app?vid=d1d9c67d-650f-4c3d-9433-5c80d49c5d93"},"vehicle_type_id":"4","last_reported":1713020660,"current_range_meters":0,"station_id":"ce4bgi92rcd13ifvqb90","pricing_plan_id":"cebpf4jnsgd1na2vs0mg"},{"bike_id":"6f9a3991-2d6e-451b-8f1a-b0e41d01c80b","system_id":"levelo_inurba_marseille","lat":43.299717,"lon":5.384845,"is_reserved":false,"is_disabled":false,"rental_uris":{"android":"levelo://app?vid=6f9a3991-2d6e-451b-8f1a-b0e41d01c80b","ios":"levelo://app?vid=6f9a3991-2d6e-451b-8f1a-b0e41d01c80b"},"vehicle_type_id":"4","last_reported":1713020660,"current_range_meters":0,"station_id":"ce4bgj92rcd13ifvqbd0","pricing_plan_id":"cebpf4jnsgd1na2vs0mg"},{"bike_id":"25928d84-88d9-4205-aeaf-eeb6446598c1","system_id":"levelo_inurba_marseille","lat":43.295279,"lon":5.375048,"is_reserved":false,"is_disabled":false,"rental_uris":{"android":"levelo://app?vid=25928d84-88d9-4205-aeaf-eeb6446598c1","ios":"levelo://app?vid=25928d84-88d9-4205-aeaf-eeb6446598c1"},"vehicle_type_id":"4","last_reported":1713020660,"current_range_meters":400,"station_id":"ce4bgkp2rcd13ifvqbmg","pricing_plan_id":"cebpf4jnsgd1na2vs0mg"},{"bike_id":"efe2db8a-aa3c-471c-bf9a-241f250a1533","system_id":"levelo_inurba_marseille","lat":43.295279,"lon":5.375048,"is_reserved":false,"is_disabled":false,"rental_uris":{"android":"levelo://app?vid=efe2db8a-aa3c-471c-bf9a-241f250a1533","ios":"levelo://app?vid=efe2db8a-aa3c-471c-bf9a-241f250a1533"},"vehicle_type_id":"4","last_reported":1713020660,"current_range_meters":6800,"station_id":"ce4bgkp2rcd13ifvqbmg","pricing_plan_id":"cebpf4jnsgd1na2vs0mg"},{"bike_id":"d8baea62-988e-4625-9c8f-6e995c5cf346","system_id":"levelo_inurba_marseille","lat":43.300643,"lon":5.386773,"is_reserved":false,"is_disabled":false,"rental_uris":{"android":"levelo://app?vid=d8baea62-988e-4625-9c8f-6e995c5cf346","ios":"levelo://app?vid=d8baea62-988e-4625-9c8f-6e995c5cf346"},"vehicle_type_id":"4","last_reported":1713020660,"current_range_meters":0,"station_id":"","pricing_plan_id":"cebpf4jnsgd1na2vs0mg"},{"bike_id":"17b61457-6c41-4569-b40a-224f7524ffea","system_id":"levelo_inurba_marseille","lat":43.32367,"lon":5.388836,"is_reserved":false,"is_disabled":false,"rental_uris":{"android":"levelo://app?vid=17b61457-6c41-4569-b40a-224f7524ffea","ios":"levelo://app?vid=17b61457-6c41-4569-b40a-224f7524ffea"},"vehicle_type_id":"4","last_reported":1713020660,"current_range_meters":4000,"station_id":"ce4bhqp2rcd13ifvqhog","pricing_plan_id":"cebpf4jnsgd1na2vs0mg"},{"bike_id":"16be6522-4ffe-44b7-a384-4b0ca8ebd8df","system_id":"levelo_inurba_marseille","lat":43.292749,"lon":5.368398,"is_reserved":false,"is_disabled":false,"rental_uris":{"android":"levelo://app?vid=16be6522-4ffe-44b7-a384-4b0ca8ebd8df","ios":"levelo://app?vid=16be6522-4ffe-44b7-a384-4b0ca8ebd8df"},"vehicle_type_id":"4","last_reported":1713020660,"current_range_meters":0,"station_id":"ce4bhbp2rcd13ifvqesg","pricing_plan_id":"cebpf4jnsgd1na2vs0mg"},{"bike_id":"890f7210-94dc-4888-8bf1-b44145deff45","system_id":"levelo_inurba_marseille","lat":43.284534,"lon":5.358662,"is_reserved":false,"is_disabled":false,"rental_uris":{"android":"levelo://app?vid=890f7210-94dc-4888-8bf1-b44145deff45","ios":"levelo://app?vid=890f7210-94dc-4888-8bf1-b44145deff45"},"vehicle_type_id":"4","last_reported":1713020660,"current_range_meters":4400,"station_id":"ce4bhah2rcd13ifvqei0","pricing_plan_id":"cebpf4jnsgd1na2vs0mg"},{"bike_id":"8c7b8283-ed1e-44bc-8253-3a1ba960272a","system_id":"levelo_inurba_marseille","lat":43.292693,"lon":5.368423,"is_reserved":false,"is_disabled":false,"rental_uris":{"android":"levelo://app?vid=8c7b8283-ed1e-44bc-8253-3a1ba960272a","ios":"levelo://app?vid=8c7b8283-ed1e-44bc-8253-3a1ba960272a"},"vehicle_type_id":"4","last_reported":1713020660,"current_range_meters":29600,"station_id":"ce4bhbp2rcd13ifvqesg","pricing_plan_id":"cebpf4jnsgd1na2vs0mg"},{"bike_id":"411dac46-4513-4419-8c22-eba707981d33","system_id":"levelo_inurba_marseille","lat":43.293249,"lon":5.371578,"is_reserved":false,"is_disabled":false,"rental_uris":{"android":"levelo://app?vid=411dac46-4513-4419-8c22-eba707981d33","ios":"levelo://app?vid=411dac46-4513-4419-8c22-eba707981d33"},"vehicle_type_id":"4","last_reported":1713020660,"current_range_meters":14800,"station_id":"ce4bgh92rcd13ifvqb40","pricing_plan_id":"cebpf4jnsgd1na2vs0mg"},{"bike_id":"f0dc5208-7600-42e5-a50e-5aed11921879","system_id":"levelo_inurba_marseille","lat":43.298764,"lon":5.388973,"is_reserved":false,"is_disabled":false,"rental_uris":{"android":"levelo://app?vid=f0dc5208-7600-42e5-a50e-5aed11921879","ios":"levelo://app?vid=f0dc5208-7600-42e5-a50e-5aed11921879"},"vehicle_type_id":"4","last_reported":1713020660,"current_range_meters":16400,"station_id":"ce4bh392rcd13ifvqdl0","pricing_plan_id":"cebpf4jnsgd1na2vs0mg"},{"bike_id":"036fc2ec-b4c9-4925-a4e9-f7e808ed65be","system_id":"levelo_inurba_marseille","lat":43.290104,"lon":5.356111,"is_reserved":false,"is_disabled":false,"rental_uris":{"android":"levelo://app?vid=036fc2ec-b4c9-4925-a4e9-f7e808ed65be","ios":"levelo://app?vid=036fc2ec-b4c9-4925-a4e9-f7e808ed65be"},"vehicle_type_id":"4","last_reported":1713020660,"current_range_meters":0,"station_id":"ce4bhb92rcd13ifvqen0","pricing_plan_id":"cebpf4jnsgd1na2vs0mg"},{"bike_id":"7d9d94b9-daa2-41f7-8572-e87dbced06f8","system_id":"levelo_inurba_marseille","lat":43.29233,"lon":5.36604,"is_reserved":false,"is_disabled":false,"rental_uris":{"android":"levelo://app?vid=7d9d94b9-daa2-41f7-8572-e87dbced06f8","ios":"levelo://app?vid=7d9d94b9-daa2-41f7-8572-e87dbced06f8"},"vehicle_type_id":"4","last_reported":1713020660,"current_range_meters":1600,"station_id":"","pricing_plan_id":"cebpf4jnsgd1na2vs0mg"},{"bike_id":"ca7bd9db-933c-4e9b-9d6f-5ad69197c823","system_id":"levelo_inurba_marseille","lat":43.303002,"lon":5.392142,"is_reserved":false,"is_disabled":false,"rental_uris":{"android":"levelo://app?vid=ca7bd9db-933c-4e9b-9d6f-5ad69197c823","ios":"levelo://app?vid=ca7bd9db-933c-4e9b-9d6f-5ad69197c823"},"vehicle_type_id":"4","last_reported":1713020660,"current_range_meters":8400,"station_id":"ce4bgkh2rcd13ifvqbk0","pricing_plan_id":"cebpf4jnsgd1na2vs0mg"},{"bike_id":"9f78b87e-0956-4f31-886d-a783f1be4604","system_id":"levelo_inurba_marseille","lat":43.302992,"lon":5.392136,"is_reserved":false,"is_disabled":false,"rental_uris":{"android":"levelo://app?vid=9f78b87e-0956-4f31-886d-a783f1be4604","ios":"levelo://app?vid=9f78b87e-0956-4f31-886d-a783f1be4604"},"vehicle_type_id":"4","last_reported":1713020660,"current_range_meters":3200,"station_id":"ce4bgkh2rcd13ifvqbk0","pricing_plan_id":"cebpf4jnsgd1na2vs0mg"},{"bike_id":"a0f161d5-681f-418a-869f-292deea326dd","system_id":"levelo_inurba_marseille","lat":43.309038,"lon":5.396546,"is_reserved":false,"is_disabled":false,"rental_uris":{"android":"levelo://app?vid=a0f161d5-681f-418a-869f-292deea326dd","ios":"levelo://app?vid=a0f161d5-681f-418a-869f-292deea326dd"},"vehicle_type_id":"4","last_reported":1713020660,"current_range_meters":11200,"station_id":"ce4bh012rcd13ifvqcv0","pricing_plan_id":"cebpf4jnsgd1na2vs0mg"},{"bike_id":"45f99a32-a108-4111-ac4c-987635ebd1b3","system_id":"levelo_inurba_marseille","lat":43.2936,"lon":5.37835,"is_reserved":false,"is_disabled":false,"rental_uris":{"android":"levelo://app?vid=45f99a32-a108-4111-ac4c-987635ebd1b3","ios":"levelo://app?vid=45f99a32-a108-4111-ac4c-987635ebd1b3"},"vehicle_type_id":"4","last_reported":1713020660,"current_range_meters":400,"station_id":"ce4bgjh2rcd13ifvqbf0","pricing_plan_id":"cebpf4jnsgd1na2vs0mg"},{"bike_id":"992c99b5-d652-4c44-bf88-e3bfee3fe342","system_id":"levelo_inurba_marseille","lat":43.2936,"lon":5.37835,"is_reserved":false,"is_disabled":false,"rental_uris":{"android":"levelo://app?vid=992c99b5-d652-4c44-bf88-e3bfee3fe342","ios":"levelo://app?vid=992c99b5-d652-4c44-bf88-e3bfee3fe342"},"vehicle_type_id":"4","last_reported":1713020660,"current_range_meters":26400,"station_id":"ce4bgjh2rcd13ifvqbf0","pricing_plan_id":"cebpf4jnsgd1na2vs0mg"},{"bike_id":"81a1c3cb-6ae2-4fb2-8671-21c214b880a5","system_id":"levelo_inurba_marseille","lat":43.298764,"lon":5.388973,"is_reserved":false,"is_disabled":false,"rental_uris":{"android":"levelo://app?vid=81a1c3cb-6ae2-4fb2-8671-21c214b880a5","ios":"levelo://app?vid=81a1c3cb-6ae2-4fb2-8671-21c214b880a5"},"vehicle_type_id":"4","last_reported":1713020660,"current_range_meters":14000,"station_id":"ce4bh392rcd13ifvqdl0","pricing_plan_id":"cebpf4jnsgd1na2vs0mg"},{"bike_id":"118d27f9-c14f-41aa-b8c6-6d37782fa45b","system_id":"levelo_inurba_marseille","lat":43.29225,"lon":5.3606,"is_reserved":false,"is_disabled":false,"rental_uris":{"android":"levelo://app?vid=118d27f9-c14f-41aa-b8c6-6d37782fa45b","ios":"levelo://app?vid=118d27f9-c14f-41aa-b8c6-6d37782fa45b"},"vehicle_type_id":"4","last_reported":1713020660,"current_range_meters":0,"station_id":"ce4bhbh2rcd13ifvqeqg","pricing_plan_id":"cebpf4jnsgd1na2vs0mg"},{"bike_id":"0cc84b47-03f0-402b-9a2f-4d95da9eb3a1","system_id":"levelo_inurba_marseille","lat":43.292005,"lon":5.357875,"is_reserved":false,"is_disabled":false,"rental_uris":{"android":"levelo://app?vid=0cc84b47-03f0-402b-9a2f-4d95da9eb3a1","ios":"levelo://app?vid=0cc84b47-03f0-402b-9a2f-4d95da9eb3a1"},"vehicle_type_id":"4","last_reported":1713020660,"current_range_meters":13200,"station_id":"ce4bhb12rcd13ifvqel0","pricing_plan_id":"cebpf4jnsgd1na2vs0mg"},{"bike_id":"45e66ab9-e946-48f4-8224-04e971bbb638","system_id":"levelo_inurba_marseille","lat":43.292005,"lon":5.357875,"is_reserved":false,"is_disabled":false,"rental_uris":{"android":"levelo://app?vid=45e66ab9-e946-48f4-8224-04e971bbb638","ios":"levelo://app?vid=45e66ab9-e946-48f4-8224-04e971bbb638"},"vehicle_type_id":"4","last_reported":1713020660,"current_range_meters":0,"station_id":"ce4bhb12rcd13ifvqel0","pricing_plan_id":"cebpf4jnsgd1na2vs0mg"},{"bike_id":"794e1c0c-382e-48f0-bc5e-c6ba3800d701","system_id":"levelo_inurba_marseille","lat":43.29529,"lon":5.385581,"is_reserved":false,"is_disabled":false,"rental_uris":{"android":"levelo://app?vid=794e1c0c-382e-48f0-bc5e-c6ba3800d701","ios":"levelo://app?vid=794e1c0c-382e-48f0-bc5e-c6ba3800d701"},"vehicle_type_id":"4","last_reported":1713020660,"current_range_meters":3600,"station_id":"ce4bgih2rcd13ifvqba0","pricing_plan_id":"cebpf4jnsgd1na2vs0mg"},{"bike_id":"6efa15fd-5022-4a59-a70c-32ec7e75f1c0","system_id":"levelo_inurba_marseille","lat":43.30867,"lon":5.39701,"is_reserved":false,"is_disabled":false,"rental_uris":{"android":"levelo://app?vid=6efa15fd-5022-4a59-a70c-32ec7e75f1c0","ios":"levelo://app?vid=6efa15fd-5022-4a59-a70c-32ec7e75f1c0"},"vehicle_type_id":"4","last_reported":1713020660,"current_range_meters":26000,"station_id":"","pricing_plan_id":"cebpf4jnsgd1na2vs0mg"},{"bike_id":"2a031065-cc1b-4bda-ab6c-7a96fb5436a3","system_id":"levelo_inurba_marseille","lat":43.290737,"lon":5.359063,"is_reserved":false,"is_disabled":false,"rental_uris":{"android":"levelo://app?vid=2a031065-cc1b-4bda-ab6c-7a96fb5436a3","ios":"levelo://app?vid=2a031065-cc1b-4bda-ab6c-7a96fb5436a3"},"vehicle_type_id":"4","last_reported":1713020660,"current_range_meters":17200,"station_id":"","pricing_plan_id":"cebpf4jnsgd1na2vs0mg"},{"bike_id":"33c93c48-3de0-4a5b-8db8-4ae890668fca","system_id":"levelo_inurba_marseille","lat":43.302008,"lon":5.394694,"is_reserved":false,"is_disabled":false,"rental_uris":{"android":"levelo://app?vid=33c93c48-3de0-4a5b-8db8-4ae890668fca","ios":"levelo://app?vid=33c93c48-3de0-4a5b-8db8-4ae890668fca"},"vehicle_type_id":"4","last_reported":1713020660,"current_range_meters":5200,"station_id":"ce4bh0p2rcd13ifvqd70","pricing_plan_id":"cebpf4jnsgd1na2vs0mg"},{"bike_id":"fb409edd-c672-44c1-9d68-9bf9877e18d3","system_id":"levelo_inurba_marseille","lat":43.290473,"lon":5.359013,"is_reserved":false,"is_disabled":false,"rental_uris":{"android":"levelo://app?vid=fb409edd-c672-44c1-9d68-9bf9877e18d3","ios":"levelo://app?vid=fb409edd-c672-44c1-9d68-9bf9877e18d3"},"vehicle_type_id":"4","last_reported":1713020660,"current_range_meters":16800,"station_id":"ce4bha92rcd13ifvqeg0","pricing_plan_id":"cebpf4jnsgd1na2vs0mg"},{"bike_id":"35a8d5a0-2262-4b89-9f07-8acc97869173","system_id":"levelo_inurba_marseille","lat":43.294153,"lon":5.386305,"is_reserved":false,"is_disabled":false,"rental_uris":{"android":"levelo://app?vid=35a8d5a0-2262-4b89-9f07-8acc97869173","ios":"levelo://app?vid=35a8d5a0-2262-4b89-9f07-8acc97869173"},"vehicle_type_id":"4","last_reported":1713020660,"current_range_meters":0,"station_id":"ce4bh2h2rcd13ifvqdh0","pricing_plan_id":"cebpf4jnsgd1na2vs0mg"},{"bike_id":"0ee5ff5f-e514-4ab1-8344-fa9a8b55b54b","system_id":"levelo_inurba_marseille","lat":43.294153,"lon":5.386305,"is_reserved":false,"is_disabled":false,"rental_uris":{"android":"levelo://app?vid=0ee5ff5f-e514-4ab1-8344-fa9a8b55b54b","ios":"levelo://app?vid=0ee5ff5f-e514-4ab1-8344-fa9a8b55b54b"},"vehicle_type_id":"4","last_reported":1713020660,"current_range_meters":0,"station_id":"ce4bh2h2rcd13ifvqdh0","pricing_plan_id":"cebpf4jnsgd1na2vs0mg"},{"bike_id":"f6e77860-fbae-40b1-a0cd-41b87a98d13b","system_id":"levelo_inurba_marseille","lat":43.29415,"lon":5.38626,"is_reserved":false,"is_disabled":false,"rental_uris":{"android":"levelo://app?vid=f6e77860-fbae-40b1-a0cd-41b87a98d13b","ios":"levelo://app?vid=f6e77860-fbae-40b1-a0cd-41b87a98d13b"},"vehicle_type_id":"4","last_reported":1713020660,"current_range_meters":20800,"station_id":"ce4bh2h2rcd13ifvqdh0","pricing_plan_id":"cebpf4jnsgd1na2vs0mg"},{"bike_id":"76ecda4d-563e-4c31-9644-c6c4ef541092","system_id":"levelo_inurba_marseille","lat":43.289184,"lon":5.366408,"is_reserved":false,"is_disabled":false,"rental_uris":{"android":"levelo://app?vid=76ecda4d-563e-4c31-9644-c6c4ef541092","ios":"levelo://app?vid=76ecda4d-563e-4c31-9644-c6c4ef541092"},"vehicle_type_id":"4","last_reported":1713020660,"current_range_meters":4800,"station_id":"ce4bhap2rcd13ifvqek0","pricing_plan_id":"cebpf4jnsgd1na2vs0mg"},{"bike_id":"ada28ec5-ba14-496b-b3cd-d695e70ab47e","system_id":"levelo_inurba_marseille","lat":43.28935,"lon":5.3641,"is_reserved":false,"is_disabled":false,"rental_uris":{"android":"levelo://app?vid=ada28ec5-ba14-496b-b3cd-d695e70ab47e","ios":"levelo://app?vid=ada28ec5-ba14-496b-b3cd-d695e70ab47e"},"vehicle_type_id":"4","last_reported":1713020660,"current_range_meters":14400,"station_id":"ce4bhc92rcd13ifvqetg","pricing_plan_id":"cebpf4jnsgd1na2vs0mg"},{"bike_id":"ec69a159-699a-4eb8-9e17-0514a4e6a461","system_id":"levelo_inurba_marseille","lat":43.290103,"lon":5.356114,"is_reserved":false,"is_disabled":false,"rental_uris":{"android":"levelo://app?vid=ec69a159-699a-4eb8-9e17-0514a4e6a461","ios":"levelo://app?vid=ec69a159-699a-4eb8-9e17-0514a4e6a461"},"vehicle_type_id":"4","last_reported":1713020660,"current_range_meters":0,"station_id":"ce4bhb92rcd13ifvqen0","pricing_plan_id":"cebpf4jnsgd1na2vs0mg"},{"bike_id":"bbf04c4a-b518-46aa-b27d-b0da1e0a32a8","system_id":"levelo_inurba_marseille","lat":43.295169,"lon":5.390426,"is_reserved":false,"is_disabled":false,"rental_uris":{"android":"levelo://app?vid=bbf04c4a-b518-46aa-b27d-b0da1e0a32a8","ios":"levelo://app?vid=bbf04c4a-b518-46aa-b27d-b0da1e0a32a8"},"vehicle_type_id":"4","last_reported":1713020660,"current_range_meters":10000,"station_id":"ce4bh3p2rcd13ifvqdp0","pricing_plan_id":"cebpf4jnsgd1na2vs0mg"},{"bike_id":"e1262b4b-6b28-4f74-a901-3763be3da1ee","system_id":"levelo_inurba_marseille","lat":43.306412,"lon":5.401035,"is_reserved":false,"is_disabled":false,"rental_uris":{"android":"levelo://app?vid=e1262b4b-6b28-4f74-a901-3763be3da1ee","ios":"levelo://app?vid=e1262b4b-6b28-4f74-a901-3763be3da1ee"},"vehicle_type_id":"4","last_reported":1713020660,"current_range_meters":18800,"station_id":"ce4bh112rcd13ifvqda0","pricing_plan_id":"cebpf4jnsgd1na2vs0mg"},{"bike_id":"2cc2a59f-2378-48ae-9eac-0c82c0510caa","system_id":"levelo_inurba_marseille","lat":43.288593,"lon":5.358427,"is_reserved":false,"is_disabled":false,"rental_uris":{"android":"levelo://app?vid=2cc2a59f-2378-48ae-9eac-0c82c0510caa","ios":"levelo://app?vid=2cc2a59f-2378-48ae-9eac-0c82c0510caa"},"vehicle_type_id":"4","last_reported":1713020660,"current_range_meters":0,"station_id":"ce4bhb12rcd13ifvqem0","pricing_plan_id":"cebpf4jnsgd1na2vs0mg"},{"bike_id":"fdba5038-ba29-4afa-b88c-7c392ca884f5","system_id":"levelo_inurba_marseille","lat":43.288543,"lon":5.35842,"is_reserved":false,"is_disabled":false,"rental_uris":{"android":"levelo://app?vid=fdba5038-ba29-4afa-b88c-7c392ca884f5","ios":"levelo://app?vid=fdba5038-ba29-4afa-b88c-7c392ca884f5"},"vehicle_type_id":"4","last_reported":1713020660,"current_range_meters":0,"station_id":"ce4bhb12rcd13ifvqem0","pricing_plan_id":"cebpf4jnsgd1na2vs0mg"},{"bike_id":"6e887404-7af1-4251-954e-e8af6856a66a","system_id":"levelo_inurba_marseille","lat":43.28856,"lon":5.358371,"is_reserved":false,"is_disabled":false,"rental_uris":{"android":"levelo://app?vid=6e887404-7af1-4251-954e-e8af6856a66a","ios":"levelo://app?vid=6e887404-7af1-4251-954e-e8af6856a66a"},"vehicle_type_id":"4","last_reported":1713020660,"current_range_meters":5200,"station_id":"ce4bhb12rcd13ifvqem0","pricing_plan_id":"cebpf4jnsgd1na2vs0mg"},{"bike_id":"ebf7e68f-0555-4bac-9ded-a68abefc3a4e","system_id":"levelo_inurba_marseille","lat":43.29529,"lon":5.385581,"is_reserved":false,"is_disabled":false,"rental_uris":{"android":"levelo://app?vid=ebf7e68f-0555-4bac-9ded-a68abefc3a4e","ios":"levelo://app?vid=ebf7e68f-0555-4bac-9ded-a68abefc3a4e"},"vehicle_type_id":"4","last_reported":1713020660,"current_range_meters":0,"station_id":"ce4bgih2rcd13ifvqba0","pricing_plan_id":"cebpf4jnsgd1na2vs0mg"},{"bike_id":"cbc25029-b09e-4791-876a-67ed4d70488a","system_id":"levelo_inurba_marseille","lat":43.312609,"lon":5.401662,"is_reserved":false,"is_disabled":false,"rental_uris":{"android":"levelo://app?vid=cbc25029-b09e-4791-876a-67ed4d70488a","ios":"levelo://app?vid=cbc25029-b09e-4791-876a-67ed4d70488a"},"vehicle_type_id":"4","last_reported":1713020660,"current_range_meters":14800,"station_id":"ce4bh092rcd13ifvqd30","pricing_plan_id":"cebpf4jnsgd1na2vs0mg"},{"bike_id":"d3ea26f4-7d4d-45b7-8172-0133ecd9329b","system_id":"levelo_inurba_marseille","lat":43.337556,"lon":5.374583,"is_reserved":false,"is_disabled":false,"rental_uris":{"android":"levelo://app?vid=d3ea26f4-7d4d-45b7-8172-0133ecd9329b","ios":"levelo://app?vid=d3ea26f4-7d4d-45b7-8172-0133ecd9329b"},"vehicle_type_id":"4","last_reported":1713020660,"current_range_meters":25200,"station_id":"","pricing_plan_id":"cebpf4jnsgd1na2vs0mg"},{"bike_id":"774f6500-6424-427c-8133-e4987961144c","system_id":"levelo_inurba_marseille","lat":43.33754,"lon":5.374806,"is_reserved":false,"is_disabled":false,"rental_uris":{"android":"levelo://app?vid=774f6500-6424-427c-8133-e4987961144c","ios":"levelo://app?vid=774f6500-6424-427c-8133-e4987961144c"},"vehicle_type_id":"4","last_reported":1713020660,"current_range_meters":0,"station_id":"","pricing_plan_id":"cebpf4jnsgd1na2vs0mg"},{"bike_id":"9ad72fd4-f8b7-4013-8a90-bab92837c9c0","system_id":"levelo_inurba_marseille","lat":43.301117,"lon":5.398795,"is_reserved":false,"is_disabled":false,"rental_uris":{"android":"levelo://app?vid=9ad72fd4-f8b7-4013-8a90-bab92837c9c0","ios":"levelo://app?vid=9ad72fd4-f8b7-4013-8a90-bab92837c9c0"},"vehicle_type_id":"4","last_reported":1713020660,"current_range_meters":4000,"station_id":"ce4bh0h2rcd13ifvqd40","pricing_plan_id":"cebpf4jnsgd1na2vs0mg"},{"bike_id":"d12c94f8-ac24-4ef3-8c0c-c30fda138099","system_id":"levelo_inurba_marseille","lat":43.287797,"lon":5.35773,"is_reserved":false,"is_disabled":false,"rental_uris":{"android":"levelo://app?vid=d12c94f8-ac24-4ef3-8c0c-c30fda138099","ios":"levelo://app?vid=d12c94f8-ac24-4ef3-8c0c-c30fda138099"},"vehicle_type_id":"4","last_reported":1713020660,"current_range_meters":15200,"station_id":"ce4bgph2rcd13ifvqc2g","pricing_plan_id":"cebpf4jnsgd1na2vs0mg"},{"bike_id":"fb812f8b-991f-41ec-8a37-a0628e0d8713","system_id":"levelo_inurba_marseille","lat":43.298681,"lon":5.397225,"is_reserved":false,"is_disabled":false,"rental_uris":{"android":"levelo://app?vid=fb812f8b-991f-41ec-8a37-a0628e0d8713","ios":"levelo://app?vid=fb812f8b-991f-41ec-8a37-a0628e0d8713"},"vehicle_type_id":"4","last_reported":1713020660,"current_range_meters":17600,"station_id":"ce4bh0h2rcd13ifvqd50","pricing_plan_id":"cebpf4jnsgd1na2vs0mg"},{"bike_id":"4e2b0f67-bd12-40c5-ab23-0f2942df172a","system_id":"levelo_inurba_marseille","lat":43.298681,"lon":5.397225,"is_reserved":false,"is_disabled":false,"rental_uris":{"android":"levelo://app?vid=4e2b0f67-bd12-40c5-ab23-0f2942df172a","ios":"levelo://app?vid=4e2b0f67-bd12-40c5-ab23-0f2942df172a"},"vehicle_type_id":"4","last_reported":1713020660,"current_range_meters":13200,"station_id":"ce4bh0h2rcd13ifvqd50","pricing_plan_id":"cebpf4jnsgd1na2vs0mg"},{"bike_id":"b991a1cb-9d68-4884-8625-08633b0dcf83","system_id":"levelo_inurba_marseille","lat":43.28698,"lon":5.37389,"is_reserved":false,"is_disabled":false,"rental_uris":{"android":"levelo://app?vid=b991a1cb-9d68-4884-8625-08633b0dcf83","ios":"levelo://app?vid=b991a1cb-9d68-4884-8625-08633b0dcf83"},"vehicle_type_id":"4","last_reported":1713020660,"current_range_meters":0,"station_id":"ce4bh3p2rcd13ifvqdq0","pricing_plan_id":"cebpf4jnsgd1na2vs0mg"},{"bike_id":"8052bbb9-9181-476f-92b8-b8c8ec3f9533","system_id":"levelo_inurba_marseille","lat":43.28659,"lon":5.36349,"is_reserved":false,"is_disabled":false,"rental_uris":{"android":"levelo://app?vid=8052bbb9-9181-476f-92b8-b8c8ec3f9533","ios":"levelo://app?vid=8052bbb9-9181-476f-92b8-b8c8ec3f9533"},"vehicle_type_id":"4","last_reported":1713020660,"current_range_meters":9600,"station_id":"ce4bhah2rcd13ifvqej0","pricing_plan_id":"cebpf4jnsgd1na2vs0mg"},{"bike_id":"05899dd3-c28e-4573-a331-f76df47cb141","system_id":"levelo_inurba_marseille","lat":43.28696,"lon":5.37391,"is_reserved":false,"is_disabled":false,"rental_uris":{"android":"levelo://app?vid=05899dd3-c28e-4573-a331-f76df47cb141","ios":"levelo://app?vid=05899dd3-c28e-4573-a331-f76df47cb141"},"vehicle_type_id":"4","last_reported":1713020660,"current_range_meters":22400,"station_id":"ce4bh3p2rcd13ifvqdq0","pricing_plan_id":"cebpf4jnsgd1na2vs0mg"},{"bike_id":"d9954d68-c854-4505-ad0a-5bdca6960902","system_id":"levelo_inurba_marseille","lat":43.295194,"lon":5.39397,"is_reserved":false,"is_disabled":false,"rental_uris":{"android":"levelo://app?vid=d9954d68-c854-4505-ad0a-5bdca6960902","ios":"levelo://app?vid=d9954d68-c854-4505-ad0a-5bdca6960902"},"vehicle_type_id":"4","last_reported":1713020660,"current_range_meters":30400,"station_id":"ce4bh292rcd13ifvqdf0","pricing_plan_id":"cebpf4jnsgd1na2vs0mg"},{"bike_id":"044a2eab-fd33-4818-952b-70965f4988a2","system_id":"levelo_inurba_marseille","lat":43.290345,"lon":5.38646,"is_reserved":false,"is_disabled":false,"rental_uris":{"android":"levelo://app?vid=044a2eab-fd33-4818-952b-70965f4988a2","ios":"levelo://app?vid=044a2eab-fd33-4818-952b-70965f4988a2"},"vehicle_type_id":"4","last_reported":1713020660,"current_range_meters":13600,"station_id":"ce4bh4p2rcd13ifvqe0g","pricing_plan_id":"cebpf4jnsgd1na2vs0mg"},{"bike_id":"5b1cb1cb-3745-40dc-a491-63ff79129b55","system_id":"levelo_inurba_marseille","lat":43.286039,"lon":5.370679,"is_reserved":false,"is_disabled":false,"rental_uris":{"android":"levelo://app?vid=5b1cb1cb-3745-40dc-a491-63ff79129b55","ios":"levelo://app?vid=5b1cb1cb-3745-40dc-a491-63ff79129b55"},"vehicle_type_id":"4","last_reported":1713020660,"current_range_meters":29200,"station_id":"ce4bht12rcd13ifvqi60","pricing_plan_id":"cebpf4jnsgd1na2vs0mg"},{"bike_id":"5838b3e0-faf9-44f9-adc0-1eb5944f002a","system_id":"levelo_inurba_marseille","lat":43.286039,"lon":5.370679,"is_reserved":false,"is_disabled":false,"rental_uris":{"android":"levelo://app?vid=5838b3e0-faf9-44f9-adc0-1eb5944f002a","ios":"levelo://app?vid=5838b3e0-faf9-44f9-adc0-1eb5944f002a"},"vehicle_type_id":"4","last_reported":1713020660,"current_range_meters":6400,"station_id":"ce4bht12rcd13ifvqi60","pricing_plan_id":"cebpf4jnsgd1na2vs0mg"},{"bike_id":"6257c025-ebfe-41c6-9a78-0aa03d1bbb24","system_id":"levelo_inurba_marseille","lat":43.286039,"lon":5.370681,"is_reserved":false,"is_disabled":false,"rental_uris":{"android":"levelo://app?vid=6257c025-ebfe-41c6-9a78-0aa03d1bbb24","ios":"levelo://app?vid=6257c025-ebfe-41c6-9a78-0aa03d1bbb24"},"vehicle_type_id":"4","last_reported":1713020660,"current_range_meters":13200,"station_id":"ce4bht12rcd13ifvqi60","pricing_plan_id":"cebpf4jnsgd1na2vs0mg"},{"bike_id":"52b073c2-6725-46a4-a517-c25735d9132d","system_id":"levelo_inurba_marseille","lat":43.287185,"lon":5.379373,"is_reserved":false,"is_disabled":false,"rental_uris":{"android":"levelo://app?vid=52b073c2-6725-46a4-a517-c25735d9132d","ios":"levelo://app?vid=52b073c2-6725-46a4-a517-c25735d9132d"},"vehicle_type_id":"4","last_reported":1713020660,"current_range_meters":0,"station_id":"ce4bh9p2rcd13ifvqec0","pricing_plan_id":"cebpf4jnsgd1na2vs0mg"},{"bike_id":"33a1d37d-1097-4517-a6ec-61972a254a37","system_id":"levelo_inurba_marseille","lat":43.316828,"lon":5.404723,"is_reserved":false,"is_disabled":false,"rental_uris":{"android":"levelo://app?vid=33a1d37d-1097-4517-a6ec-61972a254a37","ios":"levelo://app?vid=33a1d37d-1097-4517-a6ec-61972a254a37"},"vehicle_type_id":"4","last_reported":1713020660,"current_range_meters":12400,"station_id":"ce4bh012rcd13ifvqd00","pricing_plan_id":"cebpf4jnsgd1na2vs0mg"},{"bike_id":"845d3f40-fe5b-4555-86eb-1f3da6f342e4","system_id":"levelo_inurba_marseille","lat":43.285777,"lon":5.357373,"is_reserved":false,"is_disabled":false,"rental_uris":{"android":"levelo://app?vid=845d3f40-fe5b-4555-86eb-1f3da6f342e4","ios":"levelo://app?vid=845d3f40-fe5b-4555-86eb-1f3da6f342e4"},"vehicle_type_id":"4","last_reported":1713020660,"current_range_meters":14800,"station_id":"","pricing_plan_id":"cebpf4jnsgd1na2vs0mg"},{"bike_id":"9220796c-850a-4542-af32-b23061a1144d","system_id":"levelo_inurba_marseille","lat":43.288501,"lon":5.393087,"is_reserved":false,"is_disabled":false,"rental_uris":{"android":"levelo://app?vid=9220796c-850a-4542-af32-b23061a1144d","ios":"levelo://app?vid=9220796c-850a-4542-af32-b23061a1144d"},"vehicle_type_id":"4","last_reported":1713020660,"current_range_meters":0,"station_id":"ce4bh2p2rcd13ifvqdi0","pricing_plan_id":"cebpf4jnsgd1na2vs0mg"},{"bike_id":"1bb3a6cb-3d97-4298-8f6c-532c46a3a748","system_id":"levelo_inurba_marseille","lat":43.294314,"lon":5.397498,"is_reserved":false,"is_disabled":false,"rental_uris":{"android":"levelo://app?vid=1bb3a6cb-3d97-4298-8f6c-532c46a3a748","ios":"levelo://app?vid=1bb3a6cb-3d97-4298-8f6c-532c46a3a748"},"vehicle_type_id":"4","last_reported":1713020660,"current_range_meters":7600,"station_id":"ce4bh3h2rcd13ifvqdo0","pricing_plan_id":"cebpf4jnsgd1na2vs0mg"},{"bike_id":"3fd7c50c-812f-469b-80b2-fd7184cc47f8","system_id":"levelo_inurba_marseille","lat":43.286123,"lon":5.351017,"is_reserved":false,"is_disabled":false,"rental_uris":{"android":"levelo://app?vid=3fd7c50c-812f-469b-80b2-fd7184cc47f8","ios":"levelo://app?vid=3fd7c50c-812f-469b-80b2-fd7184cc47f8"},"vehicle_type_id":"4","last_reported":1713020660,"current_range_meters":0,"station_id":"ce4bhb12rcd13ifvqel0","pricing_plan_id":"cebpf4jnsgd1na2vs0mg"},{"bike_id":"d6990f7e-be07-4b79-af16-50571c091cfd","system_id":"levelo_inurba_marseille","lat":43.283998,"lon":5.375062,"is_reserved":false,"is_disabled":false,"rental_uris":{"android":"levelo://app?vid=d6990f7e-be07-4b79-af16-50571c091cfd","ios":"levelo://app?vid=d6990f7e-be07-4b79-af16-50571c091cfd"},"vehicle_type_id":"4","last_reported":1713020660,"current_range_meters":7200,"station_id":"ce4bh412rcd13ifvqds0","pricing_plan_id":"cebpf4jnsgd1na2vs0mg"},{"bike_id":"c2c70dcc-312a-4267-a8a6-6a02abef0c96","system_id":"levelo_inurba_marseille","lat":43.283998,"lon":5.375062,"is_reserved":false,"is_disabled":false,"rental_uris":{"android":"levelo://app?vid=c2c70dcc-312a-4267-a8a6-6a02abef0c96","ios":"levelo://app?vid=c2c70dcc-312a-4267-a8a6-6a02abef0c96"},"vehicle_type_id":"4","last_reported":1713020660,"current_range_meters":2400,"station_id":"ce4bh412rcd13ifvqds0","pricing_plan_id":"cebpf4jnsgd1na2vs0mg"},{"bike_id":"2d6b4731-7e7c-4ef5-b8cd-40e993c9b92a","system_id":"levelo_inurba_marseille","lat":43.295713,"lon":5.399639,"is_reserved":false,"is_disabled":false,"rental_uris":{"android":"levelo://app?vid=2d6b4731-7e7c-4ef5-b8cd-40e993c9b92a","ios":"levelo://app?vid=2d6b4731-7e7c-4ef5-b8cd-40e993c9b92a"},"vehicle_type_id":"4","last_reported":1713020660,"current_range_meters":26400,"station_id":"ce4bh312rcd13ifvqdj0","pricing_plan_id":"cebpf4jnsgd1na2vs0mg"},{"bike_id":"9c5a1687-9369-449c-afa2-d2d5a50b66ae","system_id":"levelo_inurba_marseille","lat":43.28405,"lon":5.35647,"is_reserved":false,"is_disabled":false,"rental_uris":{"android":"levelo://app?vid=9c5a1687-9369-449c-afa2-d2d5a50b66ae","ios":"levelo://app?vid=9c5a1687-9369-449c-afa2-d2d5a50b66ae"},"vehicle_type_id":"4","last_reported":1713020660,"current_range_meters":27600,"station_id":"","pricing_plan_id":"cebpf4jnsgd1na2vs0mg"},{"bike_id":"7b0cbe88-31f1-4800-aca6-f864bceac5e5","system_id":"levelo_inurba_marseille","lat":43.28666,"lon":5.38661,"is_reserved":false,"is_disabled":false,"rental_uris":{"android":"levelo://app?vid=7b0cbe88-31f1-4800-aca6-f864bceac5e5","ios":"levelo://app?vid=7b0cbe88-31f1-4800-aca6-f864bceac5e5"},"vehicle_type_id":"4","last_reported":1713020660,"current_range_meters":2800,"station_id":"","pricing_plan_id":"cebpf4jnsgd1na2vs0mg"},{"bike_id":"c8b5053f-66df-4929-ba28-b0e16d43bcbc","system_id":"levelo_inurba_marseille","lat":43.286595,"lon":5.386795,"is_reserved":false,"is_disabled":false,"rental_uris":{"android":"levelo://app?vid=c8b5053f-66df-4929-ba28-b0e16d43bcbc","ios":"levelo://app?vid=c8b5053f-66df-4929-ba28-b0e16d43bcbc"},"vehicle_type_id":"4","last_reported":1713020660,"current_range_meters":24400,"station_id":"ce4bh492rcd13ifvqdug","pricing_plan_id":"cebpf4jnsgd1na2vs0mg"},{"bike_id":"8abcc6f6-af39-4e87-ba75-676647ef77ff","system_id":"levelo_inurba_marseille","lat":43.286595,"lon":5.386795,"is_reserved":false,"is_disabled":false,"rental_uris":{"android":"levelo://app?vid=8abcc6f6-af39-4e87-ba75-676647ef77ff","ios":"levelo://app?vid=8abcc6f6-af39-4e87-ba75-676647ef77ff"},"vehicle_type_id":"4","last_reported":1713020660,"current_range_meters":4400,"station_id":"ce4bh492rcd13ifvqdug","pricing_plan_id":"cebpf4jnsgd1na2vs0mg"},{"bike_id":"63af049f-b039-43fd-b63e-fbcf2dc1ef86","system_id":"levelo_inurba_marseille","lat":43.319179,"lon":5.407725,"is_reserved":false,"is_disabled":false,"rental_uris":{"android":"levelo://app?vid=63af049f-b039-43fd-b63e-fbcf2dc1ef86","ios":"levelo://app?vid=63af049f-b039-43fd-b63e-fbcf2dc1ef86"},"vehicle_type_id":"4","last_reported":1713020660,"current_range_meters":5600,"station_id":"ce4bhq12rcd13ifvqhig","pricing_plan_id":"cebpf4jnsgd1na2vs0mg"},{"bike_id":"72088e34-23b2-497b-9a8a-e767ca81e6b4","system_id":"levelo_inurba_marseille","lat":43.319179,"lon":5.407725,"is_reserved":false,"is_disabled":false,"rental_uris":{"android":"levelo://app?vid=72088e34-23b2-497b-9a8a-e767ca81e6b4","ios":"levelo://app?vid=72088e34-23b2-497b-9a8a-e767ca81e6b4"},"vehicle_type_id":"4","last_reported":1713020660,"current_range_meters":15600,"station_id":"ce4bhq12rcd13ifvqhig","pricing_plan_id":"cebpf4jnsgd1na2vs0mg"},{"bike_id":"48768494-ea7e-4fd0-a730-d33b81b8d18f","system_id":"levelo_inurba_marseille","lat":43.33717,"lon":5.391857,"is_reserved":false,"is_disabled":false,"rental_uris":{"android":"levelo://app?vid=48768494-ea7e-4fd0-a730-d33b81b8d18f","ios":"levelo://app?vid=48768494-ea7e-4fd0-a730-d33b81b8d18f"},"vehicle_type_id":"4","last_reported":1713020660,"current_range_meters":29200,"station_id":"ce4bhr92rcd13ifvqhsg","pricing_plan_id":"cebpf4jnsgd1na2vs0mg"},{"bike_id":"494b8c86-fd7c-4152-951e-41536c8e8b41","system_id":"levelo_inurba_marseille","lat":43.337168,"lon":5.391825,"is_reserved":false,"is_disabled":false,"rental_uris":{"android":"levelo://app?vid=494b8c86-fd7c-4152-951e-41536c8e8b41","ios":"levelo://app?vid=494b8c86-fd7c-4152-951e-41536c8e8b41"},"vehicle_type_id":"4","last_reported":1713020660,"current_range_meters":31200,"station_id":"ce4bhr92rcd13ifvqhsg","pricing_plan_id":"cebpf4jnsgd1na2vs0mg"},{"bike_id":"6f85920a-e5fe-4aae-a3d6-bab09a899534","system_id":"levelo_inurba_marseille","lat":43.284793,"lon":5.384119,"is_reserved":false,"is_disabled":false,"rental_uris":{"android":"levelo://app?vid=6f85920a-e5fe-4aae-a3d6-bab09a899534","ios":"levelo://app?vid=6f85920a-e5fe-4aae-a3d6-bab09a899534"},"vehicle_type_id":"4","last_reported":1713020660,"current_range_meters":14400,"station_id":"ce4bh512rcd13ifvqe3g","pricing_plan_id":"cebpf4jnsgd1na2vs0mg"},{"bike_id":"9bea794e-9057-422d-b031-d18df90683ed","system_id":"levelo_inurba_marseille","lat":43.32335,"lon":5.40622,"is_reserved":false,"is_disabled":false,"rental_uris":{"android":"levelo://app?vid=9bea794e-9057-422d-b031-d18df90683ed","ios":"levelo://app?vid=9bea794e-9057-422d-b031-d18df90683ed"},"vehicle_type_id":"4","last_reported":1713020660,"current_range_meters":7600,"station_id":"ce4bhq92rcd13ifvqhjg","pricing_plan_id":"cebpf4jnsgd1na2vs0mg"},{"bike_id":"e3f345ec-db0f-459b-9bc2-df4ea6c02f90","system_id":"levelo_inurba_marseille","lat":43.284787,"lon":5.384116,"is_reserved":false,"is_disabled":false,"rental_uris":{"android":"levelo://app?vid=e3f345ec-db0f-459b-9bc2-df4ea6c02f90","ios":"levelo://app?vid=e3f345ec-db0f-459b-9bc2-df4ea6c02f90"},"vehicle_type_id":"4","last_reported":1713020660,"current_range_meters":4800,"station_id":"ce4bh512rcd13ifvqe3g","pricing_plan_id":"cebpf4jnsgd1na2vs0mg"},{"bike_id":"c19101e3-385b-4d7a-859d-fcb09495b44b","system_id":"levelo_inurba_marseille","lat":43.284787,"lon":5.384116,"is_reserved":false,"is_disabled":false,"rental_uris":{"android":"levelo://app?vid=c19101e3-385b-4d7a-859d-fcb09495b44b","ios":"levelo://app?vid=c19101e3-385b-4d7a-859d-fcb09495b44b"},"vehicle_type_id":"4","last_reported":1713020660,"current_range_meters":5200,"station_id":"ce4bh512rcd13ifvqe3g","pricing_plan_id":"cebpf4jnsgd1na2vs0mg"},{"bike_id":"1688fe5b-090c-44d2-b962-19672163898e","system_id":"levelo_inurba_marseille","lat":43.297946,"lon":5.404063,"is_reserved":false,"is_disabled":false,"rental_uris":{"android":"levelo://app?vid=1688fe5b-090c-44d2-b962-19672163898e","ios":"levelo://app?vid=1688fe5b-090c-44d2-b962-19672163898e"},"vehicle_type_id":"4","last_reported":1713020660,"current_range_meters":17600,"station_id":"ce4bh112rcd13ifvqd90","pricing_plan_id":"cebpf4jnsgd1na2vs0mg"},{"bike_id":"4231e44f-6e64-47d9-802b-1946e9c53ecf","system_id":"levelo_inurba_marseille","lat":43.32532,"lon":5.40558,"is_reserved":false,"is_disabled":false,"rental_uris":{"android":"levelo://app?vid=4231e44f-6e64-47d9-802b-1946e9c53ecf","ios":"levelo://app?vid=4231e44f-6e64-47d9-802b-1946e9c53ecf"},"vehicle_type_id":"4","last_reported":1713020660,"current_range_meters":4800,"station_id":"","pricing_plan_id":"cebpf4jnsgd1na2vs0mg"},{"bike_id":"6786c5a3-562d-495d-8868-fe2ed04335ff","system_id":"levelo_inurba_marseille","lat":43.283494,"lon":5.380945,"is_reserved":false,"is_disabled":false,"rental_uris":{"android":"levelo://app?vid=6786c5a3-562d-495d-8868-fe2ed04335ff","ios":"levelo://app?vid=6786c5a3-562d-495d-8868-fe2ed04335ff"},"vehicle_type_id":"4","last_reported":1713020660,"current_range_meters":7600,"station_id":"ce4bh412rcd13ifvqdr0","pricing_plan_id":"cebpf4jnsgd1na2vs0mg"},{"bike_id":"c25c2db5-a9bd-4ad3-9450-7689699c2b62","system_id":"levelo_inurba_marseille","lat":43.284793,"lon":5.384119,"is_reserved":false,"is_disabled":false,"rental_uris":{"android":"levelo://app?vid=c25c2db5-a9bd-4ad3-9450-7689699c2b62","ios":"levelo://app?vid=c25c2db5-a9bd-4ad3-9450-7689699c2b62"},"vehicle_type_id":"4","last_reported":1713020660,"current_range_meters":16800,"station_id":"ce4bh512rcd13ifvqe3g","pricing_plan_id":"cebpf4jnsgd1na2vs0mg"},{"bike_id":"d9ca1156-ced6-4c3a-8439-a241fabfb770","system_id":"levelo_inurba_marseille","lat":43.32533,"lon":5.40562,"is_reserved":false,"is_disabled":false,"rental_uris":{"android":"levelo://app?vid=d9ca1156-ced6-4c3a-8439-a241fabfb770","ios":"levelo://app?vid=d9ca1156-ced6-4c3a-8439-a241fabfb770"},"vehicle_type_id":"4","last_reported":1713020660,"current_range_meters":8800,"station_id":"","pricing_plan_id":"cebpf4jnsgd1na2vs0mg"},{"bike_id":"7b01e74e-0183-4f57-a68d-3da972284d84","system_id":"levelo_inurba_marseille","lat":43.29795,"lon":5.404086,"is_reserved":false,"is_disabled":false,"rental_uris":{"android":"levelo://app?vid=7b01e74e-0183-4f57-a68d-3da972284d84","ios":"levelo://app?vid=7b01e74e-0183-4f57-a68d-3da972284d84"},"vehicle_type_id":"4","last_reported":1713020660,"current_range_meters":0,"station_id":"ce4bh112rcd13ifvqd90","pricing_plan_id":"cebpf4jnsgd1na2vs0mg"},{"bike_id":"16354239-de35-43ca-875c-92bb4a5ace82","system_id":"levelo_inurba_marseille","lat":43.32534,"lon":5.40567,"is_reserved":false,"is_disabled":false,"rental_uris":{"android":"levelo://app?vid=16354239-de35-43ca-875c-92bb4a5ace82","ios":"levelo://app?vid=16354239-de35-43ca-875c-92bb4a5ace82"},"vehicle_type_id":"4","last_reported":1713020660,"current_range_meters":24000,"station_id":"","pricing_plan_id":"cebpf4jnsgd1na2vs0mg"},{"bike_id":"ea5c1b9e-8005-4e95-b989-8ddb7bbf76c3","system_id":"levelo_inurba_marseille","lat":43.284219,"lon":5.3497,"is_reserved":false,"is_disabled":false,"rental_uris":{"android":"levelo://app?vid=ea5c1b9e-8005-4e95-b989-8ddb7bbf76c3","ios":"levelo://app?vid=ea5c1b9e-8005-4e95-b989-8ddb7bbf76c3"},"vehicle_type_id":"4","last_reported":1713020660,"current_range_meters":800,"station_id":"ce4bhbh2rcd13ifvqepg","pricing_plan_id":"cebpf4jnsgd1na2vs0mg"},{"bike_id":"ea95c221-b0a5-4661-ac80-2ad3fcb82ed6","system_id":"levelo_inurba_marseille","lat":43.283494,"lon":5.380945,"is_reserved":false,"is_disabled":false,"rental_uris":{"android":"levelo://app?vid=ea95c221-b0a5-4661-ac80-2ad3fcb82ed6","ios":"levelo://app?vid=ea95c221-b0a5-4661-ac80-2ad3fcb82ed6"},"vehicle_type_id":"4","last_reported":1713020660,"current_range_meters":13200,"station_id":"ce4bh412rcd13ifvqdr0","pricing_plan_id":"cebpf4jnsgd1na2vs0mg"},{"bike_id":"26aa61d5-4c0f-412c-b29c-46f28c88e1ec","system_id":"levelo_inurba_marseille","lat":43.284214,"lon":5.349706,"is_reserved":false,"is_disabled":false,"rental_uris":{"android":"levelo://app?vid=26aa61d5-4c0f-412c-b29c-46f28c88e1ec","ios":"levelo://app?vid=26aa61d5-4c0f-412c-b29c-46f28c88e1ec"},"vehicle_type_id":"4","last_reported":1713020660,"current_range_meters":18800,"station_id":"ce4bhbh2rcd13ifvqepg","pricing_plan_id":"cebpf4jnsgd1na2vs0mg"},{"bike_id":"8b039ad1-ab87-4a85-8462-dbd7486248b5","system_id":"levelo_inurba_marseille","lat":43.289184,"lon":5.366408,"is_reserved":false,"is_disabled":false,"rental_uris":{"android":"levelo://app?vid=8b039ad1-ab87-4a85-8462-dbd7486248b5","ios":"levelo://app?vid=8b039ad1-ab87-4a85-8462-dbd7486248b5"},"vehicle_type_id":"4","last_reported":1713020660,"current_range_meters":21600,"station_id":"ce4bhap2rcd13ifvqek0","pricing_plan_id":"cebpf4jnsgd1na2vs0mg"},{"bike_id":"8ede538d-c43e-47c4-aaac-569a21b944b6","system_id":"levelo_inurba_marseille","lat":43.284214,"lon":5.349706,"is_reserved":false,"is_disabled":false,"rental_uris":{"android":"levelo://app?vid=8ede538d-c43e-47c4-aaac-569a21b944b6","ios":"levelo://app?vid=8ede538d-c43e-47c4-aaac-569a21b944b6"},"vehicle_type_id":"4","last_reported":1713020660,"current_range_meters":0,"station_id":"ce4bhbh2rcd13ifvqepg","pricing_plan_id":"cebpf4jnsgd1na2vs0mg"},{"bike_id":"1e6afb3a-d883-4e4e-84f7-890780286a41","system_id":"levelo_inurba_marseille","lat":43.284217,"lon":5.349697,"is_reserved":false,"is_disabled":false,"rental_uris":{"android":"levelo://app?vid=1e6afb3a-d883-4e4e-84f7-890780286a41","ios":"levelo://app?vid=1e6afb3a-d883-4e4e-84f7-890780286a41"},"vehicle_type_id":"4","last_reported":1713020660,"current_range_meters":21600,"station_id":"ce4bhbh2rcd13ifvqepg","pricing_plan_id":"cebpf4jnsgd1na2vs0mg"},{"bike_id":"70284ccb-e54b-4410-9e2b-8918ebb8c758","system_id":"levelo_inurba_marseille","lat":43.296129,"lon":5.370777,"is_reserved":false,"is_disabled":false,"rental_uris":{"android":"levelo://app?vid=70284ccb-e54b-4410-9e2b-8918ebb8c758","ios":"levelo://app?vid=70284ccb-e54b-4410-9e2b-8918ebb8c758"},"vehicle_type_id":"4","last_reported":1713020660,"current_range_meters":400,"station_id":"ce4bgnh2rcd13ifvqc0g","pricing_plan_id":"cebpf4jnsgd1na2vs0mg"},{"bike_id":"62de636d-9cb6-4d0f-a85d-eb6eaeda7c7d","system_id":"levelo_inurba_marseille","lat":43.283498,"lon":5.380948,"is_reserved":false,"is_disabled":false,"rental_uris":{"android":"levelo://app?vid=62de636d-9cb6-4d0f-a85d-eb6eaeda7c7d","ios":"levelo://app?vid=62de636d-9cb6-4d0f-a85d-eb6eaeda7c7d"},"vehicle_type_id":"4","last_reported":1713020660,"current_range_meters":0,"station_id":"ce4bh412rcd13ifvqdr0","pricing_plan_id":"cebpf4jnsgd1na2vs0mg"},{"bike_id":"124d7acc-d92e-4da7-bb2b-edd383cd53ae","system_id":"levelo_inurba_marseille","lat":43.284219,"lon":5.3497,"is_reserved":false,"is_disabled":false,"rental_uris":{"android":"levelo://app?vid=124d7acc-d92e-4da7-bb2b-edd383cd53ae","ios":"levelo://app?vid=124d7acc-d92e-4da7-bb2b-edd383cd53ae"},"vehicle_type_id":"4","last_reported":1713020660,"current_range_meters":800,"station_id":"ce4bhbh2rcd13ifvqepg","pricing_plan_id":"cebpf4jnsgd1na2vs0mg"},{"bike_id":"768ce6f9-1a37-4d7d-957a-598d2e6ca15f","system_id":"levelo_inurba_marseille","lat":43.28418,"lon":5.34981,"is_reserved":false,"is_disabled":false,"rental_uris":{"android":"levelo://app?vid=768ce6f9-1a37-4d7d-957a-598d2e6ca15f","ios":"levelo://app?vid=768ce6f9-1a37-4d7d-957a-598d2e6ca15f"},"vehicle_type_id":"4","last_reported":1713020660,"current_range_meters":0,"station_id":"ce4bhh92rcd13ifvqfj0","pricing_plan_id":"cebpf4jnsgd1na2vs0mg"},{"bike_id":"071b34eb-a730-4cd0-8460-20eadabcb03f","system_id":"levelo_inurba_marseille","lat":43.284214,"lon":5.349706,"is_reserved":false,"is_disabled":false,"rental_uris":{"android":"levelo://app?vid=071b34eb-a730-4cd0-8460-20eadabcb03f","ios":"levelo://app?vid=071b34eb-a730-4cd0-8460-20eadabcb03f"},"vehicle_type_id":"4","last_reported":1713020660,"current_range_meters":23600,"station_id":"ce4bhbh2rcd13ifvqepg","pricing_plan_id":"cebpf4jnsgd1na2vs0mg"},{"bike_id":"a65130ff-5d4c-400e-85fd-1d9163640d6a","system_id":"levelo_inurba_marseille","lat":43.289363,"lon":5.396322,"is_reserved":false,"is_disabled":false,"rental_uris":{"android":"levelo://app?vid=a65130ff-5d4c-400e-85fd-1d9163640d6a","ios":"levelo://app?vid=a65130ff-5d4c-400e-85fd-1d9163640d6a"},"vehicle_type_id":"4","last_reported":1713020660,"current_range_meters":1600,"station_id":"ce4bh3h2rcd13ifvqdn0","pricing_plan_id":"cebpf4jnsgd1na2vs0mg"},{"bike_id":"02eafbb6-5a1f-44fd-8a5e-794fcf372f0b","system_id":"levelo_inurba_marseille","lat":43.28282,"lon":5.3508,"is_reserved":false,"is_disabled":false,"rental_uris":{"android":"levelo://app?vid=02eafbb6-5a1f-44fd-8a5e-794fcf372f0b","ios":"levelo://app?vid=02eafbb6-5a1f-44fd-8a5e-794fcf372f0b"},"vehicle_type_id":"4","last_reported":1713020660,"current_range_meters":16800,"station_id":"ce4bhbp2rcd13ifvqerg","pricing_plan_id":"cebpf4jnsgd1na2vs0mg"},{"bike_id":"5b5ed26e-a9d0-475a-920e-d92a7f15c098","system_id":"levelo_inurba_marseille","lat":43.28281,"lon":5.35067,"is_reserved":false,"is_disabled":false,"rental_uris":{"android":"levelo://app?vid=5b5ed26e-a9d0-475a-920e-d92a7f15c098","ios":"levelo://app?vid=5b5ed26e-a9d0-475a-920e-d92a7f15c098"},"vehicle_type_id":"4","last_reported":1713020660,"current_range_meters":2800,"station_id":"ce4bhbp2rcd13ifvqerg","pricing_plan_id":"cebpf4jnsgd1na2vs0mg"},{"bike_id":"2bec55fa-c489-44c4-915f-8ea4c551441e","system_id":"levelo_inurba_marseille","lat":43.282811,"lon":5.350665,"is_reserved":false,"is_disabled":false,"rental_uris":{"android":"levelo://app?vid=2bec55fa-c489-44c4-915f-8ea4c551441e","ios":"levelo://app?vid=2bec55fa-c489-44c4-915f-8ea4c551441e"},"vehicle_type_id":"4","last_reported":1713020660,"current_range_meters":24800,"station_id":"ce4bhbp2rcd13ifvqerg","pricing_plan_id":"cebpf4jnsgd1na2vs0mg"},{"bike_id":"03f0f3f2-07c3-4af7-bd83-7843cb20b85e","system_id":"levelo_inurba_marseille","lat":43.2828,"lon":5.35066,"is_reserved":false,"is_disabled":false,"rental_uris":{"android":"levelo://app?vid=03f0f3f2-07c3-4af7-bd83-7843cb20b85e","ios":"levelo://app?vid=03f0f3f2-07c3-4af7-bd83-7843cb20b85e"},"vehicle_type_id":"4","last_reported":1713020660,"current_range_meters":0,"station_id":"ce4bhbp2rcd13ifvqerg","pricing_plan_id":"cebpf4jnsgd1na2vs0mg"},{"bike_id":"dd2f7623-22d1-4e57-befd-d3b11a40e665","system_id":"levelo_inurba_marseille","lat":43.2828,"lon":5.35058,"is_reserved":false,"is_disabled":false,"rental_uris":{"android":"levelo://app?vid=dd2f7623-22d1-4e57-befd-d3b11a40e665","ios":"levelo://app?vid=dd2f7623-22d1-4e57-befd-d3b11a40e665"},"vehicle_type_id":"4","last_reported":1713020660,"current_range_meters":31200,"station_id":"ce4bhbp2rcd13ifvqerg","pricing_plan_id":"cebpf4jnsgd1na2vs0mg"},{"bike_id":"ecd5d107-c326-450d-9c57-5ebde999a3d0","system_id":"levelo_inurba_marseille","lat":43.282772,"lon":5.350634,"is_reserved":false,"is_disabled":false,"rental_uris":{"android":"levelo://app?vid=ecd5d107-c326-450d-9c57-5ebde999a3d0","ios":"levelo://app?vid=ecd5d107-c326-450d-9c57-5ebde999a3d0"},"vehicle_type_id":"4","last_reported":1713020660,"current_range_meters":11600,"station_id":"ce4bhbp2rcd13ifvqerg","pricing_plan_id":"cebpf4jnsgd1na2vs0mg"},{"bike_id":"c5d38434-a170-4233-bc36-d6664beefe44","system_id":"levelo_inurba_marseille","lat":43.283502,"lon":5.386471,"is_reserved":false,"is_disabled":false,"rental_uris":{"android":"levelo://app?vid=c5d38434-a170-4233-bc36-d6664beefe44","ios":"levelo://app?vid=c5d38434-a170-4233-bc36-d6664beefe44"},"vehicle_type_id":"4","last_reported":1713020660,"current_range_meters":7600,"station_id":"ce4bh492rcd13ifvqdvg","pricing_plan_id":"cebpf4jnsgd1na2vs0mg"},{"bike_id":"3b462549-0580-40a6-803c-200960c0bbaf","system_id":"levelo_inurba_marseille","lat":43.28276,"lon":5.35062,"is_reserved":false,"is_disabled":false,"rental_uris":{"android":"levelo://app?vid=3b462549-0580-40a6-803c-200960c0bbaf","ios":"levelo://app?vid=3b462549-0580-40a6-803c-200960c0bbaf"},"vehicle_type_id":"4","last_reported":1713020660,"current_range_meters":0,"station_id":"ce4bhbp2rcd13ifvqerg","pricing_plan_id":"cebpf4jnsgd1na2vs0mg"},{"bike_id":"bfb79299-90cc-4710-83e2-e6b782a3d273","system_id":"levelo_inurba_marseille","lat":43.28277,"lon":5.35056,"is_reserved":false,"is_disabled":false,"rental_uris":{"android":"levelo://app?vid=bfb79299-90cc-4710-83e2-e6b782a3d273","ios":"levelo://app?vid=bfb79299-90cc-4710-83e2-e6b782a3d273"},"vehicle_type_id":"4","last_reported":1713020660,"current_range_meters":3600,"station_id":"ce4bhbp2rcd13ifvqerg","pricing_plan_id":"cebpf4jnsgd1na2vs0mg"},{"bike_id":"e29ed7aa-80c4-4df6-a3eb-e25fe365a218","system_id":"levelo_inurba_marseille","lat":43.28275,"lon":5.35061,"is_reserved":false,"is_disabled":false,"rental_uris":{"android":"levelo://app?vid=e29ed7aa-80c4-4df6-a3eb-e25fe365a218","ios":"levelo://app?vid=e29ed7aa-80c4-4df6-a3eb-e25fe365a218"},"vehicle_type_id":"4","last_reported":1713020660,"current_range_meters":0,"station_id":"ce4bhbp2rcd13ifvqerg","pricing_plan_id":"cebpf4jnsgd1na2vs0mg"},{"bike_id":"4ae5416f-9af4-4870-bbd8-1f168a213cf3","system_id":"levelo_inurba_marseille","lat":43.282727,"lon":5.350623,"is_reserved":false,"is_disabled":false,"rental_uris":{"android":"levelo://app?vid=4ae5416f-9af4-4870-bbd8-1f168a213cf3","ios":"levelo://app?vid=4ae5416f-9af4-4870-bbd8-1f168a213cf3"},"vehicle_type_id":"4","last_reported":1713020660,"current_range_meters":8400,"station_id":"ce4bhbp2rcd13ifvqerg","pricing_plan_id":"cebpf4jnsgd1na2vs0mg"},{"bike_id":"be696929-ca9d-4812-b0e7-b9524183ae20","system_id":"levelo_inurba_marseille","lat":43.282708,"lon":5.350688,"is_reserved":false,"is_disabled":false,"rental_uris":{"android":"levelo://app?vid=be696929-ca9d-4812-b0e7-b9524183ae20","ios":"levelo://app?vid=be696929-ca9d-4812-b0e7-b9524183ae20"},"vehicle_type_id":"4","last_reported":1713020660,"current_range_meters":0,"station_id":"ce4bhbp2rcd13ifvqerg","pricing_plan_id":"cebpf4jnsgd1na2vs0mg"},{"bike_id":"b6014e98-785e-492d-b903-cc8d62c86dd8","system_id":"levelo_inurba_marseille","lat":43.28273,"lon":5.3506,"is_reserved":false,"is_disabled":false,"rental_uris":{"android":"levelo://app?vid=b6014e98-785e-492d-b903-cc8d62c86dd8","ios":"levelo://app?vid=b6014e98-785e-492d-b903-cc8d62c86dd8"},"vehicle_type_id":"4","last_reported":1713020660,"current_range_meters":0,"station_id":"ce4bhbp2rcd13ifvqerg","pricing_plan_id":"cebpf4jnsgd1na2vs0mg"},{"bike_id":"9596d55a-0e52-4a56-b370-5bfeaa1cd4af","system_id":"levelo_inurba_marseille","lat":43.260225,"lon":5.375455,"is_reserved":false,"is_disabled":false,"rental_uris":{"android":"levelo://app?vid=9596d55a-0e52-4a56-b370-5bfeaa1cd4af","ios":"levelo://app?vid=9596d55a-0e52-4a56-b370-5bfeaa1cd4af"},"vehicle_type_id":"4","last_reported":1713020660,"current_range_meters":4000,"station_id":"ce4bhgh2rcd13ifvqfa0","pricing_plan_id":"cebpf4jnsgd1na2vs0mg"},{"bike_id":"98d33ef5-889e-4be4-941e-7f31406e4611","system_id":"levelo_inurba_marseille","lat":43.28272,"lon":5.35054,"is_reserved":false,"is_disabled":false,"rental_uris":{"android":"levelo://app?vid=98d33ef5-889e-4be4-941e-7f31406e4611","ios":"levelo://app?vid=98d33ef5-889e-4be4-941e-7f31406e4611"},"vehicle_type_id":"4","last_reported":1713020660,"current_range_meters":400,"station_id":"ce4bhbp2rcd13ifvqerg","pricing_plan_id":"cebpf4jnsgd1na2vs0mg"},{"bike_id":"17f81bd0-589f-47e8-b2f1-17ea0497b9a6","system_id":"levelo_inurba_marseille","lat":43.282646,"lon":5.350636,"is_reserved":false,"is_disabled":false,"rental_uris":{"android":"levelo://app?vid=17f81bd0-589f-47e8-b2f1-17ea0497b9a6","ios":"levelo://app?vid=17f81bd0-589f-47e8-b2f1-17ea0497b9a6"},"vehicle_type_id":"4","last_reported":1713020660,"current_range_meters":19600,"station_id":"ce4bhbp2rcd13ifvqerg","pricing_plan_id":"cebpf4jnsgd1na2vs0mg"},{"bike_id":"ed1c27b3-3ec8-4267-a846-9c26f591a27e","system_id":"levelo_inurba_marseille","lat":43.282631,"lon":5.350632,"is_reserved":false,"is_disabled":false,"rental_uris":{"android":"levelo://app?vid=ed1c27b3-3ec8-4267-a846-9c26f591a27e","ios":"levelo://app?vid=ed1c27b3-3ec8-4267-a846-9c26f591a27e"},"vehicle_type_id":"4","last_reported":1713020660,"current_range_meters":26000,"station_id":"ce4bhbp2rcd13ifvqerg","pricing_plan_id":"cebpf4jnsgd1na2vs0mg"},{"bike_id":"90bd7e1a-c631-4dcc-ab23-2a5c8b1775b0","system_id":"levelo_inurba_marseille","lat":43.28259,"lon":5.35066,"is_reserved":false,"is_disabled":false,"rental_uris":{"android":"levelo://app?vid=90bd7e1a-c631-4dcc-ab23-2a5c8b1775b0","ios":"levelo://app?vid=90bd7e1a-c631-4dcc-ab23-2a5c8b1775b0"},"vehicle_type_id":"4","last_reported":1713020660,"current_range_meters":0,"station_id":"ce4bhbp2rcd13ifvqerg","pricing_plan_id":"cebpf4jnsgd1na2vs0mg"},{"bike_id":"f96a11fa-7a97-4ca1-b2e3-ad6e399a8a52","system_id":"levelo_inurba_marseille","lat":43.280382,"lon":5.369291,"is_reserved":false,"is_disabled":false,"rental_uris":{"android":"levelo://app?vid=f96a11fa-7a97-4ca1-b2e3-ad6e399a8a52","ios":"levelo://app?vid=f96a11fa-7a97-4ca1-b2e3-ad6e399a8a52"},"vehicle_type_id":"4","last_reported":1713020660,"current_range_meters":2800,"station_id":"ce4bha12rcd13ifvqef0","pricing_plan_id":"cebpf4jnsgd1na2vs0mg"},{"bike_id":"ef62649d-0657-465b-96e1-ce642bb5d7d2","system_id":"levelo_inurba_marseille","lat":43.280382,"lon":5.369291,"is_reserved":false,"is_disabled":false,"rental_uris":{"android":"levelo://app?vid=ef62649d-0657-465b-96e1-ce642bb5d7d2","ios":"levelo://app?vid=ef62649d-0657-465b-96e1-ce642bb5d7d2"},"vehicle_type_id":"4","last_reported":1713020660,"current_range_meters":13600,"station_id":"ce4bha12rcd13ifvqef0","pricing_plan_id":"cebpf4jnsgd1na2vs0mg"},{"bike_id":"28f3e9a1-c872-482a-887e-d015f92f9eee","system_id":"levelo_inurba_marseille","lat":43.282754,"lon":5.350519,"is_reserved":false,"is_disabled":false,"rental_uris":{"android":"levelo://app?vid=28f3e9a1-c872-482a-887e-d015f92f9eee","ios":"levelo://app?vid=28f3e9a1-c872-482a-887e-d015f92f9eee"},"vehicle_type_id":"4","last_reported":1713020660,"current_range_meters":0,"station_id":"ce4bhbp2rcd13ifvqerg","pricing_plan_id":"cebpf4jnsgd1na2vs0mg"},{"bike_id":"250c3167-3a37-4f80-a596-4fe7cfce7f42","system_id":"levelo_inurba_marseille","lat":43.281044,"lon":5.378308,"is_reserved":false,"is_disabled":false,"rental_uris":{"android":"levelo://app?vid=250c3167-3a37-4f80-a596-4fe7cfce7f42","ios":"levelo://app?vid=250c3167-3a37-4f80-a596-4fe7cfce7f42"},"vehicle_type_id":"4","last_reported":1713020660,"current_range_meters":0,"station_id":"ce4bha12rcd13ifvqee0","pricing_plan_id":"cebpf4jnsgd1na2vs0mg"},{"bike_id":"a2c3b114-5dbc-4e65-bd03-d49fec1c28fd","system_id":"levelo_inurba_marseille","lat":43.281044,"lon":5.378308,"is_reserved":false,"is_disabled":false,"rental_uris":{"android":"levelo://app?vid=a2c3b114-5dbc-4e65-bd03-d49fec1c28fd","ios":"levelo://app?vid=a2c3b114-5dbc-4e65-bd03-d49fec1c28fd"},"vehicle_type_id":"4","last_reported":1713020660,"current_range_meters":800,"station_id":"ce4bha12rcd13ifvqee0","pricing_plan_id":"cebpf4jnsgd1na2vs0mg"},{"bike_id":"e1d20ad7-4d55-418f-8f41-4ec6b5f9b016","system_id":"levelo_inurba_marseille","lat":43.281044,"lon":5.378308,"is_reserved":false,"is_disabled":false,"rental_uris":{"android":"levelo://app?vid=e1d20ad7-4d55-418f-8f41-4ec6b5f9b016","ios":"levelo://app?vid=e1d20ad7-4d55-418f-8f41-4ec6b5f9b016"},"vehicle_type_id":"4","last_reported":1713020660,"current_range_meters":0,"station_id":"ce4bha12rcd13ifvqee0","pricing_plan_id":"cebpf4jnsgd1na2vs0mg"},{"bike_id":"41446b26-a43f-42ff-b937-719c6ced2e34","system_id":"levelo_inurba_marseille","lat":43.281044,"lon":5.378308,"is_reserved":false,"is_disabled":false,"rental_uris":{"android":"levelo://app?vid=41446b26-a43f-42ff-b937-719c6ced2e34","ios":"levelo://app?vid=41446b26-a43f-42ff-b937-719c6ced2e34"},"vehicle_type_id":"4","last_reported":1713020660,"current_range_meters":12400,"station_id":"ce4bha12rcd13ifvqee0","pricing_plan_id":"cebpf4jnsgd1na2vs0mg"},{"bike_id":"4d5b7c93-9af4-4bf6-9b6a-a9cc76b7e011","system_id":"levelo_inurba_marseille","lat":43.284462,"lon":5.392121,"is_reserved":false,"is_disabled":false,"rental_uris":{"android":"levelo://app?vid=4d5b7c93-9af4-4bf6-9b6a-a9cc76b7e011","ios":"levelo://app?vid=4d5b7c93-9af4-4bf6-9b6a-a9cc76b7e011"},"vehicle_type_id":"4","last_reported":1713020660,"current_range_meters":9200,"station_id":"ce4bhoh2rcd13ifvqh5g","pricing_plan_id":"cebpf4jnsgd1na2vs0mg"},{"bike_id":"6182165f-c42e-47e7-9ad5-43e062d075bc","system_id":"levelo_inurba_marseille","lat":43.285742,"lon":5.395004,"is_reserved":false,"is_disabled":false,"rental_uris":{"android":"levelo://app?vid=6182165f-c42e-47e7-9ad5-43e062d075bc","ios":"levelo://app?vid=6182165f-c42e-47e7-9ad5-43e062d075bc"},"vehicle_type_id":"4","last_reported":1713020660,"current_range_meters":800,"station_id":"ce4bh292rcd13ifvqdg0","pricing_plan_id":"cebpf4jnsgd1na2vs0mg"},{"bike_id":"92701c14-9d0b-43c2-bfdd-5b3610030c11","system_id":"levelo_inurba_marseille","lat":43.284462,"lon":5.392121,"is_reserved":false,"is_disabled":false,"rental_uris":{"android":"levelo://app?vid=92701c14-9d0b-43c2-bfdd-5b3610030c11","ios":"levelo://app?vid=92701c14-9d0b-43c2-bfdd-5b3610030c11"},"vehicle_type_id":"4","last_reported":1713020660,"current_range_meters":4000,"station_id":"ce4bhoh2rcd13ifvqh5g","pricing_plan_id":"cebpf4jnsgd1na2vs0mg"},{"bike_id":"bb745fb2-dbbc-409e-a4c2-fb1490daf0c5","system_id":"levelo_inurba_marseille","lat":43.284462,"lon":5.392121,"is_reserved":false,"is_disabled":false,"rental_uris":{"android":"levelo://app?vid=bb745fb2-dbbc-409e-a4c2-fb1490daf0c5","ios":"levelo://app?vid=bb745fb2-dbbc-409e-a4c2-fb1490daf0c5"},"vehicle_type_id":"4","last_reported":1713020660,"current_range_meters":24800,"station_id":"ce4bhoh2rcd13ifvqh5g","pricing_plan_id":"cebpf4jnsgd1na2vs0mg"},{"bike_id":"10e9639c-6deb-4f57-8849-92434af4dd94","system_id":"levelo_inurba_marseille","lat":43.326605,"lon":5.409903,"is_reserved":false,"is_disabled":false,"rental_uris":{"android":"levelo://app?vid=10e9639c-6deb-4f57-8849-92434af4dd94","ios":"levelo://app?vid=10e9639c-6deb-4f57-8849-92434af4dd94"},"vehicle_type_id":"4","last_reported":1713020660,"current_range_meters":0,"station_id":"ce4bhpp2rcd13ifvqhgg","pricing_plan_id":"cebpf4jnsgd1na2vs0mg"},{"bike_id":"675a7bb3-7b47-4034-adbd-2694748b54fc","system_id":"levelo_inurba_marseille","lat":43.326605,"lon":5.409903,"is_reserved":false,"is_disabled":false,"rental_uris":{"android":"levelo://app?vid=675a7bb3-7b47-4034-adbd-2694748b54fc","ios":"levelo://app?vid=675a7bb3-7b47-4034-adbd-2694748b54fc"},"vehicle_type_id":"4","last_reported":1713020660,"current_range_meters":0,"station_id":"ce4bhpp2rcd13ifvqhgg","pricing_plan_id":"cebpf4jnsgd1na2vs0mg"},{"bike_id":"c209257e-117e-40b2-b4dc-d4c0371d26f5","system_id":"levelo_inurba_marseille","lat":43.304188,"lon":5.412904,"is_reserved":false,"is_disabled":false,"rental_uris":{"android":"levelo://app?vid=c209257e-117e-40b2-b4dc-d4c0371d26f5","ios":"levelo://app?vid=c209257e-117e-40b2-b4dc-d4c0371d26f5"},"vehicle_type_id":"4","last_reported":1713020660,"current_range_meters":18400,"station_id":"ce4bhop2rcd13ifvqh8g","pricing_plan_id":"cebpf4jnsgd1na2vs0mg"},{"bike_id":"f14935fd-dc2a-4df4-b51a-5aad38c73104","system_id":"levelo_inurba_marseille","lat":43.279087,"lon":5.380114,"is_reserved":false,"is_disabled":false,"rental_uris":{"android":"levelo://app?vid=f14935fd-dc2a-4df4-b51a-5aad38c73104","ios":"levelo://app?vid=f14935fd-dc2a-4df4-b51a-5aad38c73104"},"vehicle_type_id":"4","last_reported":1713020660,"current_range_meters":21600,"station_id":"ce4bhf92rcd13ifvqf50","pricing_plan_id":"cebpf4jnsgd1na2vs0mg"},{"bike_id":"8b05a44f-b930-48c5-bbb8-f92af7527c2b","system_id":"levelo_inurba_marseille","lat":43.287154,"lon":5.399979,"is_reserved":false,"is_disabled":false,"rental_uris":{"android":"levelo://app?vid=8b05a44f-b930-48c5-bbb8-f92af7527c2b","ios":"levelo://app?vid=8b05a44f-b930-48c5-bbb8-f92af7527c2b"},"vehicle_type_id":"4","last_reported":1713020660,"current_range_meters":0,"station_id":"ce4bho92rcd13ifvqh3g","pricing_plan_id":"cebpf4jnsgd1na2vs0mg"},{"bike_id":"d59af148-aed7-438c-9af0-cbbd78f30a6b","system_id":"levelo_inurba_marseille","lat":43.287154,"lon":5.399979,"is_reserved":false,"is_disabled":false,"rental_uris":{"android":"levelo://app?vid=d59af148-aed7-438c-9af0-cbbd78f30a6b","ios":"levelo://app?vid=d59af148-aed7-438c-9af0-cbbd78f30a6b"},"vehicle_type_id":"4","last_reported":1713020660,"current_range_meters":18000,"station_id":"ce4bho92rcd13ifvqh3g","pricing_plan_id":"cebpf4jnsgd1na2vs0mg"},{"bike_id":"22626dac-cec3-4c5e-b9ea-517422f9a274","system_id":"levelo_inurba_marseille","lat":43.287154,"lon":5.399979,"is_reserved":false,"is_disabled":false,"rental_uris":{"android":"levelo://app?vid=22626dac-cec3-4c5e-b9ea-517422f9a274","ios":"levelo://app?vid=22626dac-cec3-4c5e-b9ea-517422f9a274"},"vehicle_type_id":"4","last_reported":1713020660,"current_range_meters":2400,"station_id":"ce4bho92rcd13ifvqh3g","pricing_plan_id":"cebpf4jnsgd1na2vs0mg"},{"bike_id":"922de64f-174c-4d21-9dfd-66143345387e","system_id":"levelo_inurba_marseille","lat":43.279087,"lon":5.380114,"is_reserved":false,"is_disabled":false,"rental_uris":{"android":"levelo://app?vid=922de64f-174c-4d21-9dfd-66143345387e","ios":"levelo://app?vid=922de64f-174c-4d21-9dfd-66143345387e"},"vehicle_type_id":"4","last_reported":1713020660,"current_range_meters":19600,"station_id":"ce4bhf92rcd13ifvqf50","pricing_plan_id":"cebpf4jnsgd1na2vs0mg"},{"bike_id":"36649457-cab6-4f41-a5ec-b0c4af20017a","system_id":"levelo_inurba_marseille","lat":43.320547,"lon":5.415282,"is_reserved":false,"is_disabled":false,"rental_uris":{"android":"levelo://app?vid=36649457-cab6-4f41-a5ec-b0c4af20017a","ios":"levelo://app?vid=36649457-cab6-4f41-a5ec-b0c4af20017a"},"vehicle_type_id":"4","last_reported":1713020660,"current_range_meters":4000,"station_id":"ce4bhq92rcd13ifvqhkg","pricing_plan_id":"cebpf4jnsgd1na2vs0mg"},{"bike_id":"d8834eab-5493-48e0-9edd-186e90f6c35a","system_id":"levelo_inurba_marseille","lat":43.298764,"lon":5.388973,"is_reserved":false,"is_disabled":false,"rental_uris":{"android":"levelo://app?vid=d8834eab-5493-48e0-9edd-186e90f6c35a","ios":"levelo://app?vid=d8834eab-5493-48e0-9edd-186e90f6c35a"},"vehicle_type_id":"4","last_reported":1713020660,"current_range_meters":11200,"station_id":"ce4bh392rcd13ifvqdl0","pricing_plan_id":"cebpf4jnsgd1na2vs0mg"},{"bike_id":"2b4c1f2f-17ee-446f-9b92-3f954e755f17","system_id":"levelo_inurba_marseille","lat":43.292569,"lon":5.409107,"is_reserved":false,"is_disabled":false,"rental_uris":{"android":"levelo://app?vid=2b4c1f2f-17ee-446f-9b92-3f954e755f17","ios":"levelo://app?vid=2b4c1f2f-17ee-446f-9b92-3f954e755f17"},"vehicle_type_id":"4","last_reported":1713020660,"current_range_meters":0,"station_id":"ce4bh192rcd13ifvqdc0","pricing_plan_id":"cebpf4jnsgd1na2vs0mg"},{"bike_id":"6650a731-62b8-4b9d-869e-1bc8390e0ecc","system_id":"levelo_inurba_marseille","lat":43.27618,"lon":5.361009,"is_reserved":false,"is_disabled":false,"rental_uris":{"android":"levelo://app?vid=6650a731-62b8-4b9d-869e-1bc8390e0ecc","ios":"levelo://app?vid=6650a731-62b8-4b9d-869e-1bc8390e0ecc"},"vehicle_type_id":"4","last_reported":1713020660,"current_range_meters":21600,"station_id":"ce4bgj92rcd13ifvqbe0","pricing_plan_id":"cebpf4jnsgd1na2vs0mg"},{"bike_id":"e74a68b2-0fb5-4116-a9c8-d5d2b421dfdd","system_id":"levelo_inurba_marseille","lat":43.276179,"lon":5.361009,"is_reserved":false,"is_disabled":false,"rental_uris":{"android":"levelo://app?vid=e74a68b2-0fb5-4116-a9c8-d5d2b421dfdd","ios":"levelo://app?vid=e74a68b2-0fb5-4116-a9c8-d5d2b421dfdd"},"vehicle_type_id":"4","last_reported":1713020660,"current_range_meters":0,"station_id":"ce4bgj92rcd13ifvqbe0","pricing_plan_id":"cebpf4jnsgd1na2vs0mg"},{"bike_id":"6a089a4d-1d7b-485e-852c-8bfc7dd9d484","system_id":"levelo_inurba_marseille","lat":43.27622,"lon":5.36107,"is_reserved":false,"is_disabled":false,"rental_uris":{"android":"levelo://app?vid=6a089a4d-1d7b-485e-852c-8bfc7dd9d484","ios":"levelo://app?vid=6a089a4d-1d7b-485e-852c-8bfc7dd9d484"},"vehicle_type_id":"4","last_reported":1713020660,"current_range_meters":2000,"station_id":"ce4bgj92rcd13ifvqbe0","pricing_plan_id":"cebpf4jnsgd1na2vs0mg"},{"bike_id":"3efb5aa6-6cd8-4ece-8ddb-b9c26bf3b202","system_id":"levelo_inurba_marseille","lat":43.27618,"lon":5.361009,"is_reserved":false,"is_disabled":false,"rental_uris":{"android":"levelo://app?vid=3efb5aa6-6cd8-4ece-8ddb-b9c26bf3b202","ios":"levelo://app?vid=3efb5aa6-6cd8-4ece-8ddb-b9c26bf3b202"},"vehicle_type_id":"4","last_reported":1713020660,"current_range_meters":6000,"station_id":"ce4bgj92rcd13ifvqbe0","pricing_plan_id":"cebpf4jnsgd1na2vs0mg"},{"bike_id":"bbe86d13-139b-4b2a-b1fe-7657760d22e1","system_id":"levelo_inurba_marseille","lat":43.276179,"lon":5.361009,"is_reserved":false,"is_disabled":false,"rental_uris":{"android":"levelo://app?vid=bbe86d13-139b-4b2a-b1fe-7657760d22e1","ios":"levelo://app?vid=bbe86d13-139b-4b2a-b1fe-7657760d22e1"},"vehicle_type_id":"4","last_reported":1713020660,"current_range_meters":18000,"station_id":"ce4bgj92rcd13ifvqbe0","pricing_plan_id":"cebpf4jnsgd1na2vs0mg"},{"bike_id":"d1c3350a-99f3-481f-b6b2-950e0c8cdf86","system_id":"levelo_inurba_marseille","lat":43.27618,"lon":5.361009,"is_reserved":false,"is_disabled":false,"rental_uris":{"android":"levelo://app?vid=d1c3350a-99f3-481f-b6b2-950e0c8cdf86","ios":"levelo://app?vid=d1c3350a-99f3-481f-b6b2-950e0c8cdf86"},"vehicle_type_id":"4","last_reported":1713020660,"current_range_meters":0,"station_id":"ce4bgj92rcd13ifvqbe0","pricing_plan_id":"cebpf4jnsgd1na2vs0mg"},{"bike_id":"942647d4-4047-477a-8165-ef74d3f4773d","system_id":"levelo_inurba_marseille","lat":43.27618,"lon":5.361009,"is_reserved":false,"is_disabled":false,"rental_uris":{"android":"levelo://app?vid=942647d4-4047-477a-8165-ef74d3f4773d","ios":"levelo://app?vid=942647d4-4047-477a-8165-ef74d3f4773d"},"vehicle_type_id":"4","last_reported":1713020660,"current_range_meters":12000,"station_id":"ce4bgj92rcd13ifvqbe0","pricing_plan_id":"cebpf4jnsgd1na2vs0mg"},{"bike_id":"429fe37a-c6b8-4768-9c0d-05d90bca4f7d","system_id":"levelo_inurba_marseille","lat":43.27618,"lon":5.361009,"is_reserved":false,"is_disabled":false,"rental_uris":{"android":"levelo://app?vid=429fe37a-c6b8-4768-9c0d-05d90bca4f7d","ios":"levelo://app?vid=429fe37a-c6b8-4768-9c0d-05d90bca4f7d"},"vehicle_type_id":"4","last_reported":1713020660,"current_range_meters":23200,"station_id":"ce4bgj92rcd13ifvqbe0","pricing_plan_id":"cebpf4jnsgd1na2vs0mg"},{"bike_id":"cf69d973-2d94-4fcf-a561-cba2a554b24f","system_id":"levelo_inurba_marseille","lat":43.27618,"lon":5.361009,"is_reserved":false,"is_disabled":false,"rental_uris":{"android":"levelo://app?vid=cf69d973-2d94-4fcf-a561-cba2a554b24f","ios":"levelo://app?vid=cf69d973-2d94-4fcf-a561-cba2a554b24f"},"vehicle_type_id":"4","last_reported":1713020660,"current_range_meters":0,"station_id":"ce4bgj92rcd13ifvqbe0","pricing_plan_id":"cebpf4jnsgd1na2vs0mg"},{"bike_id":"fb926e58-3a46-4ba6-b2df-59fbe0dd4d13","system_id":"levelo_inurba_marseille","lat":43.2762,"lon":5.36103,"is_reserved":false,"is_disabled":false,"rental_uris":{"android":"levelo://app?vid=fb926e58-3a46-4ba6-b2df-59fbe0dd4d13","ios":"levelo://app?vid=fb926e58-3a46-4ba6-b2df-59fbe0dd4d13"},"vehicle_type_id":"4","last_reported":1713020660,"current_range_meters":0,"station_id":"ce4bgj92rcd13ifvqbe0","pricing_plan_id":"cebpf4jnsgd1na2vs0mg"},{"bike_id":"bab227b6-746d-4545-b6b7-03292e431a0a","system_id":"levelo_inurba_marseille","lat":43.325243,"lon":5.414326,"is_reserved":false,"is_disabled":false,"rental_uris":{"android":"levelo://app?vid=bab227b6-746d-4545-b6b7-03292e431a0a","ios":"levelo://app?vid=bab227b6-746d-4545-b6b7-03292e431a0a"},"vehicle_type_id":"4","last_reported":1713020660,"current_range_meters":3600,"station_id":"ce4bhq12rcd13ifvqhhg","pricing_plan_id":"cebpf4jnsgd1na2vs0mg"},{"bike_id":"fb60e8ca-2b00-400e-bd43-99523f4e8442","system_id":"levelo_inurba_marseille","lat":43.27618,"lon":5.361009,"is_reserved":false,"is_disabled":false,"rental_uris":{"android":"levelo://app?vid=fb60e8ca-2b00-400e-bd43-99523f4e8442","ios":"levelo://app?vid=fb60e8ca-2b00-400e-bd43-99523f4e8442"},"vehicle_type_id":"4","last_reported":1713020660,"current_range_meters":15200,"station_id":"ce4bgj92rcd13ifvqbe0","pricing_plan_id":"cebpf4jnsgd1na2vs0mg"},{"bike_id":"e02a4c4b-582f-4522-812f-79d45ac72101","system_id":"levelo_inurba_marseille","lat":43.276179,"lon":5.361009,"is_reserved":false,"is_disabled":false,"rental_uris":{"android":"levelo://app?vid=e02a4c4b-582f-4522-812f-79d45ac72101","ios":"levelo://app?vid=e02a4c4b-582f-4522-812f-79d45ac72101"},"vehicle_type_id":"4","last_reported":1713020660,"current_range_meters":4800,"station_id":"ce4bgj92rcd13ifvqbe0","pricing_plan_id":"cebpf4jnsgd1na2vs0mg"},{"bike_id":"6eaa1c1d-81c0-4f3e-9752-70e3f5700cf2","system_id":"levelo_inurba_marseille","lat":43.27618,"lon":5.361009,"is_reserved":false,"is_disabled":false,"rental_uris":{"android":"levelo://app?vid=6eaa1c1d-81c0-4f3e-9752-70e3f5700cf2","ios":"levelo://app?vid=6eaa1c1d-81c0-4f3e-9752-70e3f5700cf2"},"vehicle_type_id":"4","last_reported":1713020660,"current_range_meters":25600,"station_id":"ce4bgj92rcd13ifvqbe0","pricing_plan_id":"cebpf4jnsgd1na2vs0mg"},{"bike_id":"8ff1811c-3b80-418b-a76a-bb411519a89b","system_id":"levelo_inurba_marseille","lat":43.325233,"lon":5.414318,"is_reserved":false,"is_disabled":false,"rental_uris":{"android":"levelo://app?vid=8ff1811c-3b80-418b-a76a-bb411519a89b","ios":"levelo://app?vid=8ff1811c-3b80-418b-a76a-bb411519a89b"},"vehicle_type_id":"4","last_reported":1713020660,"current_range_meters":23200,"station_id":"ce4bhq12rcd13ifvqhhg","pricing_plan_id":"cebpf4jnsgd1na2vs0mg"},{"bike_id":"90acff10-8fe7-4eae-94c7-5b106daf7e55","system_id":"levelo_inurba_marseille","lat":43.276179,"lon":5.361009,"is_reserved":false,"is_disabled":false,"rental_uris":{"android":"levelo://app?vid=90acff10-8fe7-4eae-94c7-5b106daf7e55","ios":"levelo://app?vid=90acff10-8fe7-4eae-94c7-5b106daf7e55"},"vehicle_type_id":"4","last_reported":1713020660,"current_range_meters":17200,"station_id":"ce4bgj92rcd13ifvqbe0","pricing_plan_id":"cebpf4jnsgd1na2vs0mg"},{"bike_id":"d3920bc8-ec22-482c-ad97-965c1d9df286","system_id":"levelo_inurba_marseille","lat":43.27618,"lon":5.361009,"is_reserved":false,"is_disabled":false,"rental_uris":{"android":"levelo://app?vid=d3920bc8-ec22-482c-ad97-965c1d9df286","ios":"levelo://app?vid=d3920bc8-ec22-482c-ad97-965c1d9df286"},"vehicle_type_id":"4","last_reported":1713020660,"current_range_meters":24000,"station_id":"ce4bgj92rcd13ifvqbe0","pricing_plan_id":"cebpf4jnsgd1na2vs0mg"},{"bike_id":"ae919c0b-b148-477d-bb33-781b15408073","system_id":"levelo_inurba_marseille","lat":43.27617,"lon":5.36114,"is_reserved":false,"is_disabled":false,"rental_uris":{"android":"levelo://app?vid=ae919c0b-b148-477d-bb33-781b15408073","ios":"levelo://app?vid=ae919c0b-b148-477d-bb33-781b15408073"},"vehicle_type_id":"4","last_reported":1713020660,"current_range_meters":3200,"station_id":"ce4bgj92rcd13ifvqbe0","pricing_plan_id":"cebpf4jnsgd1na2vs0mg"},{"bike_id":"df91d24c-04f4-464d-b7d3-014d81872ba9","system_id":"levelo_inurba_marseille","lat":43.276179,"lon":5.361009,"is_reserved":false,"is_disabled":false,"rental_uris":{"android":"levelo://app?vid=df91d24c-04f4-464d-b7d3-014d81872ba9","ios":"levelo://app?vid=df91d24c-04f4-464d-b7d3-014d81872ba9"},"vehicle_type_id":"4","last_reported":1713020660,"current_range_meters":16400,"station_id":"ce4bgj92rcd13ifvqbe0","pricing_plan_id":"cebpf4jnsgd1na2vs0mg"},{"bike_id":"e301a133-c1d4-4c38-91de-22e31243a5c7","system_id":"levelo_inurba_marseille","lat":43.276179,"lon":5.361009,"is_reserved":false,"is_disabled":false,"rental_uris":{"android":"levelo://app?vid=e301a133-c1d4-4c38-91de-22e31243a5c7","ios":"levelo://app?vid=e301a133-c1d4-4c38-91de-22e31243a5c7"},"vehicle_type_id":"4","last_reported":1713020660,"current_range_meters":6800,"station_id":"ce4bgj92rcd13ifvqbe0","pricing_plan_id":"cebpf4jnsgd1na2vs0mg"},{"bike_id":"07b30039-11a2-4e7b-87b8-65723435b3a3","system_id":"levelo_inurba_marseille","lat":43.276179,"lon":5.361009,"is_reserved":false,"is_disabled":false,"rental_uris":{"android":"levelo://app?vid=07b30039-11a2-4e7b-87b8-65723435b3a3","ios":"levelo://app?vid=07b30039-11a2-4e7b-87b8-65723435b3a3"},"vehicle_type_id":"4","last_reported":1713020660,"current_range_meters":31200,"station_id":"ce4bgj92rcd13ifvqbe0","pricing_plan_id":"cebpf4jnsgd1na2vs0mg"},{"bike_id":"ff1bc369-7d64-4ac0-9a88-f3f525f0892a","system_id":"levelo_inurba_marseille","lat":43.276179,"lon":5.361009,"is_reserved":false,"is_disabled":false,"rental_uris":{"android":"levelo://app?vid=ff1bc369-7d64-4ac0-9a88-f3f525f0892a","ios":"levelo://app?vid=ff1bc369-7d64-4ac0-9a88-f3f525f0892a"},"vehicle_type_id":"4","last_reported":1713020660,"current_range_meters":1200,"station_id":"ce4bgj92rcd13ifvqbe0","pricing_plan_id":"cebpf4jnsgd1na2vs0mg"},{"bike_id":"d60280a5-5723-4697-b576-cf2ce07682e2","system_id":"levelo_inurba_marseille","lat":43.325243,"lon":5.414326,"is_reserved":false,"is_disabled":false,"rental_uris":{"android":"levelo://app?vid=d60280a5-5723-4697-b576-cf2ce07682e2","ios":"levelo://app?vid=d60280a5-5723-4697-b576-cf2ce07682e2"},"vehicle_type_id":"4","last_reported":1713020660,"current_range_meters":31600,"station_id":"ce4bhq12rcd13ifvqhhg","pricing_plan_id":"cebpf4jnsgd1na2vs0mg"},{"bike_id":"e8594830-e221-4ec6-918c-3cccd36c8cb0","system_id":"levelo_inurba_marseille","lat":43.2761,"lon":5.36107,"is_reserved":false,"is_disabled":false,"rental_uris":{"android":"levelo://app?vid=e8594830-e221-4ec6-918c-3cccd36c8cb0","ios":"levelo://app?vid=e8594830-e221-4ec6-918c-3cccd36c8cb0"},"vehicle_type_id":"4","last_reported":1713020660,"current_range_meters":0,"station_id":"ce4bgj92rcd13ifvqbe0","pricing_plan_id":"cebpf4jnsgd1na2vs0mg"},{"bike_id":"2ae77bd6-70ee-40a3-a602-918b0d2f60a7","system_id":"levelo_inurba_marseille","lat":43.276179,"lon":5.361009,"is_reserved":false,"is_disabled":false,"rental_uris":{"android":"levelo://app?vid=2ae77bd6-70ee-40a3-a602-918b0d2f60a7","ios":"levelo://app?vid=2ae77bd6-70ee-40a3-a602-918b0d2f60a7"},"vehicle_type_id":"4","last_reported":1713020660,"current_range_meters":9600,"station_id":"ce4bgj92rcd13ifvqbe0","pricing_plan_id":"cebpf4jnsgd1na2vs0mg"},{"bike_id":"d4cb92ac-e9c3-4cef-925a-d82870e7ae95","system_id":"levelo_inurba_marseille","lat":43.273613,"lon":5.362705,"is_reserved":false,"is_disabled":false,"rental_uris":{"android":"levelo://app?vid=d4cb92ac-e9c3-4cef-925a-d82870e7ae95","ios":"levelo://app?vid=d4cb92ac-e9c3-4cef-925a-d82870e7ae95"},"vehicle_type_id":"4","last_reported":1713020660,"current_range_meters":1600,"station_id":"ce4bhbh2rcd13ifvqeo0","pricing_plan_id":"cebpf4jnsgd1na2vs0mg"},{"bike_id":"aead86e8-1ea9-40dc-a0f8-e0d7e77e3b62","system_id":"levelo_inurba_marseille","lat":43.280784,"lon":5.396622,"is_reserved":false,"is_disabled":false,"rental_uris":{"android":"levelo://app?vid=aead86e8-1ea9-40dc-a0f8-e0d7e77e3b62","ios":"levelo://app?vid=aead86e8-1ea9-40dc-a0f8-e0d7e77e3b62"},"vehicle_type_id":"4","last_reported":1713020660,"current_range_meters":6800,"station_id":"ce4bho12rcd13ifvqh2g","pricing_plan_id":"cebpf4jnsgd1na2vs0mg"},{"bike_id":"8cdb1149-f7e7-4c62-8214-db8b2f55f93b","system_id":"levelo_inurba_marseille","lat":43.27381,"lon":5.36248,"is_reserved":false,"is_disabled":false,"rental_uris":{"android":"levelo://app?vid=8cdb1149-f7e7-4c62-8214-db8b2f55f93b","ios":"levelo://app?vid=8cdb1149-f7e7-4c62-8214-db8b2f55f93b"},"vehicle_type_id":"4","last_reported":1713020660,"current_range_meters":21200,"station_id":"ce4bhbh2rcd13ifvqeo0","pricing_plan_id":"cebpf4jnsgd1na2vs0mg"},{"bike_id":"4ce7f47e-4113-4842-9627-ff31d5835552","system_id":"levelo_inurba_marseille","lat":43.273799,"lon":5.362541,"is_reserved":false,"is_disabled":false,"rental_uris":{"android":"levelo://app?vid=4ce7f47e-4113-4842-9627-ff31d5835552","ios":"levelo://app?vid=4ce7f47e-4113-4842-9627-ff31d5835552"},"vehicle_type_id":"4","last_reported":1713020660,"current_range_meters":0,"station_id":"ce4bhbh2rcd13ifvqeo0","pricing_plan_id":"cebpf4jnsgd1na2vs0mg"},{"bike_id":"4c515fff-1c6e-4062-8ed5-c75b8d325ff8","system_id":"levelo_inurba_marseille","lat":43.2738,"lon":5.36249,"is_reserved":false,"is_disabled":false,"rental_uris":{"android":"levelo://app?vid=4c515fff-1c6e-4062-8ed5-c75b8d325ff8","ios":"levelo://app?vid=4c515fff-1c6e-4062-8ed5-c75b8d325ff8"},"vehicle_type_id":"4","last_reported":1713020660,"current_range_meters":26000,"station_id":"ce4bhbh2rcd13ifvqeo0","pricing_plan_id":"cebpf4jnsgd1na2vs0mg"},{"bike_id":"ea4b8f7c-d3e5-49cc-82fb-b09844488a13","system_id":"levelo_inurba_marseille","lat":43.273797,"lon":5.362495,"is_reserved":false,"is_disabled":false,"rental_uris":{"android":"levelo://app?vid=ea4b8f7c-d3e5-49cc-82fb-b09844488a13","ios":"levelo://app?vid=ea4b8f7c-d3e5-49cc-82fb-b09844488a13"},"vehicle_type_id":"4","last_reported":1713020660,"current_range_meters":6000,"station_id":"ce4bhbh2rcd13ifvqeo0","pricing_plan_id":"cebpf4jnsgd1na2vs0mg"},{"bike_id":"da8b27d5-ceec-4eb3-ba45-4ba499030146","system_id":"levelo_inurba_marseille","lat":43.27379,"lon":5.36251,"is_reserved":false,"is_disabled":false,"rental_uris":{"android":"levelo://app?vid=da8b27d5-ceec-4eb3-ba45-4ba499030146","ios":"levelo://app?vid=da8b27d5-ceec-4eb3-ba45-4ba499030146"},"vehicle_type_id":"4","last_reported":1713020660,"current_range_meters":31200,"station_id":"ce4bhbh2rcd13ifvqeo0","pricing_plan_id":"cebpf4jnsgd1na2vs0mg"},{"bike_id":"cb718a85-d49a-436c-adc4-973127a635fb","system_id":"levelo_inurba_marseille","lat":43.273787,"lon":5.362429,"is_reserved":false,"is_disabled":false,"rental_uris":{"android":"levelo://app?vid=cb718a85-d49a-436c-adc4-973127a635fb","ios":"levelo://app?vid=cb718a85-d49a-436c-adc4-973127a635fb"},"vehicle_type_id":"4","last_reported":1713020660,"current_range_meters":3200,"station_id":"ce4bhbh2rcd13ifvqeo0","pricing_plan_id":"cebpf4jnsgd1na2vs0mg"},{"bike_id":"a12b5aee-7ae6-4f2d-8c20-f39cc52720a9","system_id":"levelo_inurba_marseille","lat":43.273609,"lon":5.362708,"is_reserved":false,"is_disabled":false,"rental_uris":{"android":"levelo://app?vid=a12b5aee-7ae6-4f2d-8c20-f39cc52720a9","ios":"levelo://app?vid=a12b5aee-7ae6-4f2d-8c20-f39cc52720a9"},"vehicle_type_id":"4","last_reported":1713020660,"current_range_meters":7200,"station_id":"ce4bhbh2rcd13ifvqeo0","pricing_plan_id":"cebpf4jnsgd1na2vs0mg"},{"bike_id":"a33a3593-8733-444e-901d-d0897b328262","system_id":"levelo_inurba_marseille","lat":43.273767,"lon":5.3625,"is_reserved":false,"is_disabled":false,"rental_uris":{"android":"levelo://app?vid=a33a3593-8733-444e-901d-d0897b328262","ios":"levelo://app?vid=a33a3593-8733-444e-901d-d0897b328262"},"vehicle_type_id":"4","last_reported":1713020660,"current_range_meters":800,"station_id":"ce4bhbh2rcd13ifvqeo0","pricing_plan_id":"cebpf4jnsgd1na2vs0mg"},{"bike_id":"dd0b2507-dc61-4a4b-ada1-210bdbcb6e99","system_id":"levelo_inurba_marseille","lat":43.27376,"lon":5.36252,"is_reserved":false,"is_disabled":false,"rental_uris":{"android":"levelo://app?vid=dd0b2507-dc61-4a4b-ada1-210bdbcb6e99","ios":"levelo://app?vid=dd0b2507-dc61-4a4b-ada1-210bdbcb6e99"},"vehicle_type_id":"4","last_reported":1713020660,"current_range_meters":8000,"station_id":"ce4bhbh2rcd13ifvqeo0","pricing_plan_id":"cebpf4jnsgd1na2vs0mg"},{"bike_id":"02571548-2d86-4e7f-ad33-d398f900128d","system_id":"levelo_inurba_marseille","lat":43.27375,"lon":5.36268,"is_reserved":false,"is_disabled":false,"rental_uris":{"android":"levelo://app?vid=02571548-2d86-4e7f-ad33-d398f900128d","ios":"levelo://app?vid=02571548-2d86-4e7f-ad33-d398f900128d"},"vehicle_type_id":"4","last_reported":1713020660,"current_range_meters":5200,"station_id":"ce4bhbh2rcd13ifvqeo0","pricing_plan_id":"cebpf4jnsgd1na2vs0mg"},{"bike_id":"cf7cdb02-9e9a-467a-8127-b9c6cfd82e03","system_id":"levelo_inurba_marseille","lat":43.273613,"lon":5.362705,"is_reserved":false,"is_disabled":false,"rental_uris":{"android":"levelo://app?vid=cf7cdb02-9e9a-467a-8127-b9c6cfd82e03","ios":"levelo://app?vid=cf7cdb02-9e9a-467a-8127-b9c6cfd82e03"},"vehicle_type_id":"4","last_reported":1713020660,"current_range_meters":31200,"station_id":"ce4bhbh2rcd13ifvqeo0","pricing_plan_id":"cebpf4jnsgd1na2vs0mg"},{"bike_id":"e17f09d5-0f48-4509-a409-f0ddb5f75cb1","system_id":"levelo_inurba_marseille","lat":43.27375,"lon":5.36257,"is_reserved":false,"is_disabled":false,"rental_uris":{"android":"levelo://app?vid=e17f09d5-0f48-4509-a409-f0ddb5f75cb1","ios":"levelo://app?vid=e17f09d5-0f48-4509-a409-f0ddb5f75cb1"},"vehicle_type_id":"4","last_reported":1713020660,"current_range_meters":0,"station_id":"ce4bhbh2rcd13ifvqeo0","pricing_plan_id":"cebpf4jnsgd1na2vs0mg"},{"bike_id":"5a421a24-1d38-46e4-837e-15c9e0b5ab04","system_id":"levelo_inurba_marseille","lat":43.27374,"lon":5.36253,"is_reserved":false,"is_disabled":false,"rental_uris":{"android":"levelo://app?vid=5a421a24-1d38-46e4-837e-15c9e0b5ab04","ios":"levelo://app?vid=5a421a24-1d38-46e4-837e-15c9e0b5ab04"},"vehicle_type_id":"4","last_reported":1713020660,"current_range_meters":21200,"station_id":"ce4bhbh2rcd13ifvqeo0","pricing_plan_id":"cebpf4jnsgd1na2vs0mg"},{"bike_id":"de5ea2d7-07de-4976-a9a6-a39cad34de3a","system_id":"levelo_inurba_marseille","lat":43.273609,"lon":5.362708,"is_reserved":false,"is_disabled":false,"rental_uris":{"android":"levelo://app?vid=de5ea2d7-07de-4976-a9a6-a39cad34de3a","ios":"levelo://app?vid=de5ea2d7-07de-4976-a9a6-a39cad34de3a"},"vehicle_type_id":"4","last_reported":1713020660,"current_range_meters":27200,"station_id":"ce4bhbh2rcd13ifvqeo0","pricing_plan_id":"cebpf4jnsgd1na2vs0mg"},{"bike_id":"254dc268-7243-40dc-9033-cc5b0a8a2989","system_id":"levelo_inurba_marseille","lat":43.273609,"lon":5.362708,"is_reserved":false,"is_disabled":false,"rental_uris":{"android":"levelo://app?vid=254dc268-7243-40dc-9033-cc5b0a8a2989","ios":"levelo://app?vid=254dc268-7243-40dc-9033-cc5b0a8a2989"},"vehicle_type_id":"4","last_reported":1713020660,"current_range_meters":25200,"station_id":"ce4bhbh2rcd13ifvqeo0","pricing_plan_id":"cebpf4jnsgd1na2vs0mg"},{"bike_id":"9c5f06a7-574e-4616-92fd-3f16f6693b92","system_id":"levelo_inurba_marseille","lat":43.273613,"lon":5.362705,"is_reserved":false,"is_disabled":false,"rental_uris":{"android":"levelo://app?vid=9c5f06a7-574e-4616-92fd-3f16f6693b92","ios":"levelo://app?vid=9c5f06a7-574e-4616-92fd-3f16f6693b92"},"vehicle_type_id":"4","last_reported":1713020660,"current_range_meters":31600,"station_id":"ce4bhbh2rcd13ifvqeo0","pricing_plan_id":"cebpf4jnsgd1na2vs0mg"},