{"last_updated":1732270224,"ttl":60,"version":"2.2","data":{"bikes":[{"bike_id":"de92af77-46ea-482d-b544-84875aad38b7","system_id":"levelo_inurba_marseille","lat":43.3054,"lon":5.36529,"is_reserved":false,"is_disabled":false,"rental_uris":{"android":"levelo://app?vid=de92af77-46ea-482d-b544-84875aad38b7","ios":"levelo://app?vid=de92af77-46ea-482d-b544-84875aad38b7"},"vehicle_type_id":"4","last_reported":1732270224,"current_range_meters":22800,"station_id":"ce4bgs12rcd13ifvqcag","pricing_plan_id":"cebpf4jnsgd1na2vs0mg"},{"bike_id":"8527133f-e94b-41ef-9b16-c99901d73e95","system_id":"levelo_inurba_marseille","lat":43.25581,"lon":5.38235,"is_reserved":false,"is_disabled":false,"rental_uris":{"android":"levelo://app?vid=8527133f-e94b-41ef-9b16-c99901d73e95","ios":"levelo://app?vid=8527133f-e94b-41ef-9b16-c99901d73e95"},"vehicle_type_id":"4","last_reported":1732270224,"current_range_meters":34800,"station_id":"ce4bhih2rcd13ifvqfs0","pricing_plan_id":"cebpf4jnsgd1na2vs0mg"},{"bike_id":"1a5a3b08-fc55-4b17-adaf-98ac64bb4ae6","system_id":"levelo_inurba_marseille","lat":43.29917,"lon":5.3747,"is_reserved":false,"is_disabled":false,"rental_uris":{"android":"levelo://app?vid=1a5a3b08-fc55-4b17-adaf-98ac64bb4ae6","ios":"levelo://app?vid=1a5a3b08-fc55-4b17-adaf-98ac64bb4ae6"},"vehicle_type_id":"4","last_reported":1732270224,"current_range_meters":25600,"station_id":"ce4bgjh2rcd13ifvqbg0","pricing_plan_id":"cebpf4jnsgd1na2vs0mg"},{"bike_id":"7ade2142-eca0-47c9-a1cc-6b8d37bae659","system_id":"levelo_inurba_marseille","lat":43.23149,"lon":5.4372,"is_reserved":false,"is_disabled":false,"rental_uris":{"android":"levelo://app?vid=7ade2142-eca0-47c9-a1cc-6b8d37bae659","ios":"levelo://app?vid=7ade2142-eca0-47c9-a1cc-6b8d37bae659"},"vehicle_type_id":"4","last_reported":1732270224,"current_range_meters":26800,"station_id":"ce4bhmp2rcd13ifvqgog","pricing_plan_id":"cebpf4jnsgd1na2vs0mg"},{"bike_id":"045fd04e-bd20-43c5-96be-ab08edfe2ea2","system_id":"levelo_inurba_marseille","lat":43.30904,"lon":5.36857,"is_reserved":false,"is_disabled":false,"rental_uris":{"android":"levelo://app?vid=045fd04e-bd20-43c5-96be-ab08edfe2ea2","ios":"levelo://app?vid=045fd04e-bd20-43c5-96be-ab08edfe2ea2"},"vehicle_type_id":"4","last_reported":1732270224,"current_range_meters":32800,"station_id":"ce4bgn92rcd13ifvqbvg","pricing_plan_id":"cebpf4jnsgd1na2vs0mg"},{"bike_id":"896b2297-b84a-495d-8ee8-43f2deca1b53","system_id":"levelo_inurba_marseille","lat":43.26949,"lon":5.38632,"is_reserved":false,"is_disabled":false,"rental_uris":{"android":"levelo://app?vid=896b2297-b84a-495d-8ee8-43f2deca1b53","ios":"levelo://app?vid=896b2297-b84a-495d-8ee8-43f2deca1b53"},"vehicle_type_id":"4","last_reported":1732270224,"current_range_meters":25200,"station_id":"ce4bhh92rcd13ifvqfh0","pricing_plan_id":"cebpf4jnsgd1na2vs0mg"},{"bike_id":"0814db76-5030-46a1-b8bb-fcc29fb82c70","system_id":"levelo_inurba_marseille","lat":43.32486,"lon":5.36567,"is_reserved":false,"is_disabled":false,"rental_uris":{"android":"levelo://app?vid=0814db76-5030-46a1-b8bb-fcc29fb82c70","ios":"levelo://app?vid=0814db76-5030-46a1-b8bb-fcc29fb82c70"},"vehicle_type_id":"4","last_reported":1732270224,"current_range_meters":33200,"station_id":"ce4bhs12rcd13ifvqhvg","pricing_plan_id":"cebpf4jnsgd1na2vs0mg"},{"bike_id":"8471c761-4bcd-4b56-96d8-ddfab4d6be83","system_id":"levelo_inurba_marseille","lat":43.2695,"lon":5.38636,"is_reserved":false,"is_disabled":true,"rental_uris":{"android":"levelo://app?vid=8471c761-4bcd-4b56-96d8-ddfab4d6be83","ios":"levelo://app?vid=8471c761-4bcd-4b56-96d8-ddfab4d6be83"},"vehicle_type_id":"4","last_reported":1732270224,"current_range_meters":0,"station_id":"ce4bhh92rcd13ifvqfh0","pricing_plan_id":"cebpf4jnsgd1na2vs0mg"},{"bike_id":"6dd72399-4c36-4f79-acf1-4c5ee36d28ce","system_id":"levelo_inurba_marseille","lat":43.26064,"lon":5.39395,"is_reserved":false,"is_disabled":false,"rental_uris":{"android":"levelo://app?vid=6dd72399-4c36-4f79-acf1-4c5ee36d28ce","ios":"levelo://app?vid=6dd72399-4c36-4f79-acf1-4c5ee36d28ce"},"vehicle_type_id":"4","last_reported":1732270224,"current_range_meters":36400,"station_id":"ce4bhh92rcd13ifvqfj0","pricing_plan_id":"cebpf4jnsgd1na2vs0mg"},{"bike_id":"5a896a6e-f853-44f8-967c-76e8e3b22c82","system_id":"levelo_inurba_marseille","lat":43.30957,"lon":5.39032,"is_reserved":false,"is_disabled":false,"rental_uris":{"android":"levelo://app?vid=5a896a6e-f853-44f8-967c-76e8e3b22c82","ios":"levelo://app?vid=5a896a6e-f853-44f8-967c-76e8e3b22c82"},"vehicle_type_id":"4","last_reported":1732270224,"current_range_meters":24800,"station_id":"ce4bgup2rcd13ifvqco0","pricing_plan_id":"cebpf4jnsgd1na2vs0mg"},{"bike_id":"428d72ce-47cc-4c94-841a-e3c923cc1cb6","system_id":"levelo_inurba_marseille","lat":43.28696,"lon":5.37375,"is_reserved":false,"is_disabled":true,"rental_uris":{"android":"levelo://app?vid=428d72ce-47cc-4c94-841a-e3c923cc1cb6","ios":"levelo://app?vid=428d72ce-47cc-4c94-841a-e3c923cc1cb6"},"vehicle_type_id":"4","last_reported":1732270224,"current_range_meters":28400,"station_id":"ce4bh3p2rcd13ifvqdq0","pricing_plan_id":"cebpf4jnsgd1na2vs0mg"},{"bike_id":"cc45001e-86ba-42cc-9993-ed5261abbfe0","system_id":"levelo_inurba_marseille","lat":43.32367,"lon":5.38878,"is_reserved":false,"is_disabled":false,"rental_uris":{"android":"levelo://app?vid=cc45001e-86ba-42cc-9993-ed5261abbfe0","ios":"levelo://app?vid=cc45001e-86ba-42cc-9993-ed5261abbfe0"},"vehicle_type_id":"4","last_reported":1732270224,"current_range_meters":14800,"station_id":"ce4bhqp2rcd13ifvqhog","pricing_plan_id":"cebpf4jnsgd1na2vs0mg"},{"bike_id":"5e274fa5-32d0-47d6-bae9-d75344cedd2c","system_id":"levelo_inurba_marseille","lat":43.30285,"lon":5.37696,"is_reserved":false,"is_disabled":true,"rental_uris":{"android":"levelo://app?vid=5e274fa5-32d0-47d6-bae9-d75344cedd2c","ios":"levelo://app?vid=5e274fa5-32d0-47d6-bae9-d75344cedd2c"},"vehicle_type_id":"4","last_reported":1732270224,"current_range_meters":28800,"station_id":"ce4bguh2rcd13ifvqcj0","pricing_plan_id":"cebpf4jnsgd1na2vs0mg"},{"bike_id":"f331a37e-4153-4308-ab1f-70ebcf90bc54","system_id":"levelo_inurba_marseille","lat":43.24072,"lon":5.37756,"is_reserved":false,"is_disabled":false,"rental_uris":{"android":"levelo://app?vid=f331a37e-4153-4308-ab1f-70ebcf90bc54","ios":"levelo://app?vid=f331a37e-4153-4308-ab1f-70ebcf90bc54"},"vehicle_type_id":"4","last_reported":1732270224,"current_range_meters":38800,"station_id":"ce4bhnp2rcd13ifvqgvg","pricing_plan_id":"cebpf4jnsgd1na2vs0mg"},{"bike_id":"c0755ad7-8353-40d1-98a4-bba43ca0e3ab","system_id":"levelo_inurba_marseille","lat":43.3373,"lon":5.39182,"is_reserved":false,"is_disabled":false,"rental_uris":{"android":"levelo://app?vid=c0755ad7-8353-40d1-98a4-bba43ca0e3ab","ios":"levelo://app?vid=c0755ad7-8353-40d1-98a4-bba43ca0e3ab"},"vehicle_type_id":"4","last_reported":1732270224,"current_range_meters":12800,"station_id":"ce4bhr92rcd13ifvqhsg","pricing_plan_id":"cebpf4jnsgd1na2vs0mg"},{"bike_id":"b57495d5-144f-4563-9cbf-52c9eb19d6cf","system_id":"levelo_inurba_marseille","lat":43.29371,"lon":5.37833,"is_reserved":false,"is_disabled":true,"rental_uris":{"android":"levelo://app?vid=b57495d5-144f-4563-9cbf-52c9eb19d6cf","ios":"levelo://app?vid=b57495d5-144f-4563-9cbf-52c9eb19d6cf"},"vehicle_type_id":"4","last_reported":1732270224,"current_range_meters":0,"station_id":"ce4bgjh2rcd13ifvqbf0","pricing_plan_id":"cebpf4jnsgd1na2vs0mg"},{"bike_id":"78bb5da4-eb26-47d4-a1b5-b4f21cccc3d3","system_id":"levelo_inurba_marseille","lat":43.30368,"lon":5.41892,"is_reserved":false,"is_disabled":false,"rental_uris":{"android":"levelo://app?vid=78bb5da4-eb26-47d4-a1b5-b4f21cccc3d3","ios":"levelo://app?vid=78bb5da4-eb26-47d4-a1b5-b4f21cccc3d3"},"vehicle_type_id":"4","last_reported":1732270224,"current_range_meters":39200,"station_id":"ce4bhop2rcd13ifvqh7g","pricing_plan_id":"cebpf4jnsgd1na2vs0mg"},{"bike_id":"1292749a-ef07-41cf-b29a-e692dd853fc5","system_id":"levelo_inurba_marseille","lat":43.24072,"lon":5.37757,"is_reserved":false,"is_disabled":false,"rental_uris":{"android":"levelo://app?vid=1292749a-ef07-41cf-b29a-e692dd853fc5","ios":"levelo://app?vid=1292749a-ef07-41cf-b29a-e692dd853fc5"},"vehicle_type_id":"4","last_reported":1732270224,"current_range_meters":17600,"station_id":"ce4bhnp2rcd13ifvqgvg","pricing_plan_id":"cebpf4jnsgd1na2vs0mg"},{"bike_id":"123d3ba5-33ae-48f3-85d8-401e2780c686","system_id":"levelo_inurba_marseille","lat":43.27319,"lon":5.39092,"is_reserved":false,"is_disabled":false,"rental_uris":{"android":"levelo://app?vid=123d3ba5-33ae-48f3-85d8-401e2780c686","ios":"levelo://app?vid=123d3ba5-33ae-48f3-85d8-401e2780c686"},"vehicle_type_id":"4","last_reported":1732270224,"current_range_meters":7200,"station_id":"ce4bhgp2rcd13ifvqfe0","pricing_plan_id":"cebpf4jnsgd1na2vs0mg"},{"bike_id":"f57bfda7-2167-46d3-b8da-69e8fdfd5c82","system_id":"levelo_inurba_marseille","lat":43.27492,"lon":5.42453,"is_reserved":false,"is_disabled":true,"rental_uris":{"android":"levelo://app?vid=f57bfda7-2167-46d3-b8da-69e8fdfd5c82","ios":"levelo://app?vid=f57bfda7-2167-46d3-b8da-69e8fdfd5c82"},"vehicle_type_id":"4","last_reported":1732270224,"current_range_meters":36400,"station_id":"ce4bhn92rcd13ifvqgrg","pricing_plan_id":"cebpf4jnsgd1na2vs0mg"},{"bike_id":"d2321b4c-ae3a-4b43-8bcd-12cb7984481d","system_id":"levelo_inurba_marseille","lat":43.30754,"lon":5.37015,"is_reserved":false,"is_disabled":true,"rental_uris":{"android":"levelo://app?vid=d2321b4c-ae3a-4b43-8bcd-12cb7984481d","ios":"levelo://app?vid=d2321b4c-ae3a-4b43-8bcd-12cb7984481d"},"vehicle_type_id":"4","last_reported":1732270224,"current_range_meters":18000,"station_id":"","pricing_plan_id":"cebpf4jnsgd1na2vs0mg"},{"bike_id":"0e6a13b6-7d79-49fd-9326-7e9a93ba864a","system_id":"levelo_inurba_marseille","lat":43.29007,"lon":5.38124,"is_reserved":false,"is_disabled":false,"rental_uris":{"android":"levelo://app?vid=0e6a13b6-7d79-49fd-9326-7e9a93ba864a","ios":"levelo://app?vid=0e6a13b6-7d79-49fd-9326-7e9a93ba864a"},"vehicle_type_id":"4","last_reported":1732270224,"current_range_meters":9200,"station_id":"ce4bh4p2rcd13ifvqe1g","pricing_plan_id":"cebpf4jnsgd1na2vs0mg"},{"bike_id":"9fc671ee-b1f4-412f-ae6c-119dd5657a8b","system_id":"levelo_inurba_marseille","lat":43.26799,"lon":5.39411,"is_reserved":false,"is_disabled":false,"rental_uris":{"android":"levelo://app?vid=9fc671ee-b1f4-412f-ae6c-119dd5657a8b","ios":"levelo://app?vid=9fc671ee-b1f4-412f-ae6c-119dd5657a8b"},"vehicle_type_id":"4","last_reported":1732270224,"current_range_meters":37600,"station_id":"ce4bhh12rcd13ifvqfg0","pricing_plan_id":"cebpf4jnsgd1na2vs0mg"},{"bike_id":"bf8b2610-5e4d-40b8-992b-d5af7ee7225b","system_id":"levelo_inurba_marseille","lat":43.30285,"lon":5.37699,"is_reserved":false,"is_disabled":false,"rental_uris":{"android":"levelo://app?vid=bf8b2610-5e4d-40b8-992b-d5af7ee7225b","ios":"levelo://app?vid=bf8b2610-5e4d-40b8-992b-d5af7ee7225b"},"vehicle_type_id":"4","last_reported":1732270224,"current_range_meters":36000,"station_id":"ce4bguh2rcd13ifvqcj0","pricing_plan_id":"cebpf4jnsgd1na2vs0mg"},{"bike_id":"150cf216-a204-4fc3-b8fc-e164310ed040","system_id":"levelo_inurba_marseille","lat":43.257101,"lon":5.378742,"is_reserved":false,"is_disabled":true,"rental_uris":{"android":"levelo://app?vid=150cf216-a204-4fc3-b8fc-e164310ed040","ios":"levelo://app?vid=150cf216-a204-4fc3-b8fc-e164310ed040"},"vehicle_type_id":"4","last_reported":1732270224,"current_range_meters":6800,"station_id":"ce4bhih2rcd13ifvqfs0","pricing_plan_id":"cebpf4jnsgd1na2vs0mg"},{"bike_id":"23a8ded0-54b9-4b7a-82cd-77d2fc869a13","system_id":"levelo_inurba_marseille","lat":43.312102,"lon":5.368942,"is_reserved":false,"is_disabled":false,"rental_uris":{"android":"levelo://app?vid=23a8ded0-54b9-4b7a-82cd-77d2fc869a13","ios":"levelo://app?vid=23a8ded0-54b9-4b7a-82cd-77d2fc869a13"},"vehicle_type_id":"4","last_reported":1732270224,"current_range_meters":31200,"station_id":"ce4bgl92rcd13ifvqbq0","pricing_plan_id":"cebpf4jnsgd1na2vs0mg"},{"bike_id":"5c3000a0-a190-4007-a723-aa2707fd1ce3","system_id":"levelo_inurba_marseille","lat":43.22953,"lon":5.35371,"is_reserved":false,"is_disabled":false,"rental_uris":{"android":"levelo://app?vid=5c3000a0-a190-4007-a723-aa2707fd1ce3","ios":"levelo://app?vid=5c3000a0-a190-4007-a723-aa2707fd1ce3"},"vehicle_type_id":"4","last_reported":1732270224,"current_range_meters":38800,"station_id":"cpo3532slgdg3j2ikp40","pricing_plan_id":"cebpf4jnsgd1na2vs0mg"},{"bike_id":"37a2d867-4f44-4aa0-977f-15109b8ecb37","system_id":"levelo_inurba_marseille","lat":43.31222,"lon":5.36859,"is_reserved":false,"is_disabled":false,"rental_uris":{"android":"levelo://app?vid=37a2d867-4f44-4aa0-977f-15109b8ecb37","ios":"levelo://app?vid=37a2d867-4f44-4aa0-977f-15109b8ecb37"},"vehicle_type_id":"4","last_reported":1732270224,"current_range_meters":10800,"station_id":"ce4bgl92rcd13ifvqbq0","pricing_plan_id":"cebpf4jnsgd1na2vs0mg"},{"bike_id":"158df77e-2ea0-4787-ac7e-e8812e0498ad","system_id":"levelo_inurba_marseille","lat":43.25111,"lon":5.40323,"is_reserved":false,"is_disabled":true,"rental_uris":{"android":"levelo://app?vid=158df77e-2ea0-4787-ac7e-e8812e0498ad","ios":"levelo://app?vid=158df77e-2ea0-4787-ac7e-e8812e0498ad"},"vehicle_type_id":"4","last_reported":1732270224,"current_range_meters":1600,"station_id":"ce4bhlh2rcd13ifvqgig","pricing_plan_id":"cebpf4jnsgd1na2vs0mg"},{"bike_id":"9bf00278-281e-45df-b9cb-0f55e5af1df2","system_id":"levelo_inurba_marseille","lat":43.25581,"lon":5.38232,"is_reserved":false,"is_disabled":false,"rental_uris":{"android":"levelo://app?vid=9bf00278-281e-45df-b9cb-0f55e5af1df2","ios":"levelo://app?vid=9bf00278-281e-45df-b9cb-0f55e5af1df2"},"vehicle_type_id":"4","last_reported":1732270224,"current_range_meters":36800,"station_id":"ce4bhih2rcd13ifvqfs0","pricing_plan_id":"cebpf4jnsgd1na2vs0mg"},{"bike_id":"4e945ae0-d6ee-4575-a0fe-1d4e3c15c37b","system_id":"levelo_inurba_marseille","lat":43.31074,"lon":5.38352,"is_reserved":false,"is_disabled":false,"rental_uris":{"android":"levelo://app?vid=4e945ae0-d6ee-4575-a0fe-1d4e3c15c37b","ios":"levelo://app?vid=4e945ae0-d6ee-4575-a0fe-1d4e3c15c37b"},"vehicle_type_id":"4","last_reported":1732270224,"current_range_meters":38800,"station_id":"ce4bgv92rcd13ifvqcr0","pricing_plan_id":"cebpf4jnsgd1na2vs0mg"},{"bike_id":"a3f6064a-7a54-4d0b-a247-54d6180e4809","system_id":"levelo_inurba_marseille","lat":43.24803,"lon":5.37456,"is_reserved":false,"is_disabled":false,"rental_uris":{"android":"levelo://app?vid=a3f6064a-7a54-4d0b-a247-54d6180e4809","ios":"levelo://app?vid=a3f6064a-7a54-4d0b-a247-54d6180e4809"},"vehicle_type_id":"4","last_reported":1732270224,"current_range_meters":38800,"station_id":"ce4bhgh2rcd13ifvqfb0","pricing_plan_id":"cebpf4jnsgd1na2vs0mg"},{"bike_id":"5c7f9646-40e5-4c74-8850-a999ef19c602","system_id":"levelo_inurba_marseille","lat":43.29377,"lon":5.37851,"is_reserved":false,"is_disabled":false,"rental_uris":{"android":"levelo://app?vid=5c7f9646-40e5-4c74-8850-a999ef19c602","ios":"levelo://app?vid=5c7f9646-40e5-4c74-8850-a999ef19c602"},"vehicle_type_id":"4","last_reported":1732270224,"current_range_meters":32400,"station_id":"ce4bgjh2rcd13ifvqbf0","pricing_plan_id":"cebpf4jnsgd1na2vs0mg"},{"bike_id":"5288907b-6e9d-4188-84af-08b6f87eb3b9","system_id":"levelo_inurba_marseille","lat":43.2869,"lon":5.38692,"is_reserved":false,"is_disabled":false,"rental_uris":{"android":"levelo://app?vid=5288907b-6e9d-4188-84af-08b6f87eb3b9","ios":"levelo://app?vid=5288907b-6e9d-4188-84af-08b6f87eb3b9"},"vehicle_type_id":"4","last_reported":1732270224,"current_range_meters":38800,"station_id":"ce4bh492rcd13ifvqdug","pricing_plan_id":"cebpf4jnsgd1na2vs0mg"},{"bike_id":"fd8ba84b-64b5-4eff-8dca-47ef55a76aa8","system_id":"levelo_inurba_marseille","lat":43.26934,"lon":5.38913,"is_reserved":false,"is_disabled":false,"rental_uris":{"android":"levelo://app?vid=fd8ba84b-64b5-4eff-8dca-47ef55a76aa8","ios":"levelo://app?vid=fd8ba84b-64b5-4eff-8dca-47ef55a76aa8"},"vehicle_type_id":"4","last_reported":1732270224,"current_range_meters":38800,"station_id":"ce4bhhh2rcd13ifvqfl0","pricing_plan_id":"cebpf4jnsgd1na2vs0mg"},{"bike_id":"52d454bd-f1d6-4f6f-8fda-f71ba017dca5","system_id":"levelo_inurba_marseille","lat":43.28149,"lon":5.42635,"is_reserved":false,"is_disabled":false,"rental_uris":{"android":"levelo://app?vid=52d454bd-f1d6-4f6f-8fda-f71ba017dca5","ios":"levelo://app?vid=52d454bd-f1d6-4f6f-8fda-f71ba017dca5"},"vehicle_type_id":"4","last_reported":1732270224,"current_range_meters":20000,"station_id":"ce4bhnh2rcd13ifvqgug","pricing_plan_id":"cebpf4jnsgd1na2vs0mg"},{"bike_id":"2a39bae6-bbce-4c5c-9e71-581dabf375a5","system_id":"levelo_inurba_marseille","lat":43.29921,"lon":5.37459,"is_reserved":false,"is_disabled":false,"rental_uris":{"android":"levelo://app?vid=2a39bae6-bbce-4c5c-9e71-581dabf375a5","ios":"levelo://app?vid=2a39bae6-bbce-4c5c-9e71-581dabf375a5"},"vehicle_type_id":"4","last_reported":1732270224,"current_range_meters":38800,"station_id":"ce4bgjh2rcd13ifvqbg0","pricing_plan_id":"cebpf4jnsgd1na2vs0mg"},{"bike_id":"f7911ba1-f247-4ef6-81ed-7e873ef569c6","system_id":"levelo_inurba_marseille","lat":43.27561,"lon":5.38405,"is_reserved":false,"is_disabled":true,"rental_uris":{"android":"levelo://app?vid=f7911ba1-f247-4ef6-81ed-7e873ef569c6","ios":"levelo://app?vid=f7911ba1-f247-4ef6-81ed-7e873ef569c6"},"vehicle_type_id":"4","last_reported":1732270224,"current_range_meters":38800,"station_id":"ce4bhh92rcd13ifvqfi0","pricing_plan_id":"cebpf4jnsgd1na2vs0mg"},{"bike_id":"1cd0daee-d68a-4e66-9883-fbe67fd8260f","system_id":"levelo_inurba_marseille","lat":43.305794,"lon":5.370686,"is_reserved":false,"is_disabled":true,"rental_uris":{"android":"levelo://app?vid=1cd0daee-d68a-4e66-9883-fbe67fd8260f","ios":"levelo://app?vid=1cd0daee-d68a-4e66-9883-fbe67fd8260f"},"vehicle_type_id":"4","last_reported":1732270224,"current_range_meters":0,"station_id":"","pricing_plan_id":"cebpf4jnsgd1na2vs0mg"},{"bike_id":"f6a92db1-11ed-4c87-84fe-7bc25d11cfa7","system_id":"levelo_inurba_marseille","lat":43.30807,"lon":5.38148,"is_reserved":false,"is_disabled":true,"rental_uris":{"android":"levelo://app?vid=f6a92db1-11ed-4c87-84fe-7bc25d11cfa7","ios":"levelo://app?vid=f6a92db1-11ed-4c87-84fe-7bc25d11cfa7"},"vehicle_type_id":"4","last_reported":1732270224,"current_range_meters":4800,"station_id":"ce4bgt12rcd13ifvqce0","pricing_plan_id":"cebpf4jnsgd1na2vs0mg"},{"bike_id":"8049dfa2-ab84-4979-a750-4db119a39bb9","system_id":"levelo_inurba_marseille","lat":43.26033,"lon":5.37545,"is_reserved":false,"is_disabled":false,"rental_uris":{"android":"levelo://app?vid=8049dfa2-ab84-4979-a750-4db119a39bb9","ios":"levelo://app?vid=8049dfa2-ab84-4979-a750-4db119a39bb9"},"vehicle_type_id":"4","last_reported":1732270224,"current_range_meters":22800,"station_id":"ce4bhgh2rcd13ifvqfa0","pricing_plan_id":"cebpf4jnsgd1na2vs0mg"},{"bike_id":"a392e5a9-11a7-4223-a4ef-802dac92094d","system_id":"levelo_inurba_marseille","lat":43.29375,"lon":5.37834,"is_reserved":false,"is_disabled":false,"rental_uris":{"android":"levelo://app?vid=a392e5a9-11a7-4223-a4ef-802dac92094d","ios":"levelo://app?vid=a392e5a9-11a7-4223-a4ef-802dac92094d"},"vehicle_type_id":"4","last_reported":1732270224,"current_range_meters":30400,"station_id":"ce4bgjh2rcd13ifvqbf0","pricing_plan_id":"cebpf4jnsgd1na2vs0mg"},{"bike_id":"0e73312c-de36-4a57-b662-f165e47acb16","system_id":"levelo_inurba_marseille","lat":43.26201,"lon":5.37922,"is_reserved":false,"is_disabled":false,"rental_uris":{"android":"levelo://app?vid=0e73312c-de36-4a57-b662-f165e47acb16","ios":"levelo://app?vid=0e73312c-de36-4a57-b662-f165e47acb16"},"vehicle_type_id":"4","last_reported":1732270224,"current_range_meters":11200,"station_id":"ce4bhjp2rcd13ifvqg90","pricing_plan_id":"cebpf4jnsgd1na2vs0mg"},{"bike_id":"f4fe645d-70f4-4b9a-80eb-3cb93ceb082b","system_id":"levelo_inurba_marseille","lat":43.26944,"lon":5.38637,"is_reserved":false,"is_disabled":false,"rental_uris":{"android":"levelo://app?vid=f4fe645d-70f4-4b9a-80eb-3cb93ceb082b","ios":"levelo://app?vid=f4fe645d-70f4-4b9a-80eb-3cb93ceb082b"},"vehicle_type_id":"4","last_reported":1732270224,"current_range_meters":34000,"station_id":"ce4bhh92rcd13ifvqfh0","pricing_plan_id":"cebpf4jnsgd1na2vs0mg"},{"bike_id":"93c41fb7-e4d2-473a-b7e1-4a5a649c5649","system_id":"levelo_inurba_marseille","lat":43.3254,"lon":5.41447,"is_reserved":false,"is_disabled":false,"rental_uris":{"android":"levelo://app?vid=93c41fb7-e4d2-473a-b7e1-4a5a649c5649","ios":"levelo://app?vid=93c41fb7-e4d2-473a-b7e1-4a5a649c5649"},"vehicle_type_id":"4","last_reported":1732270224,"current_range_meters":38800,"station_id":"ce4bhq12rcd13ifvqhhg","pricing_plan_id":"cebpf4jnsgd1na2vs0mg"},{"bike_id":"bdac8ff3-e713-4a02-9f76-78fc6782aa52","system_id":"levelo_inurba_marseille","lat":43.23153,"lon":5.43709,"is_reserved":false,"is_disabled":false,"rental_uris":{"android":"levelo://app?vid=bdac8ff3-e713-4a02-9f76-78fc6782aa52","ios":"levelo://app?vid=bdac8ff3-e713-4a02-9f76-78fc6782aa52"},"vehicle_type_id":"4","last_reported":1732270224,"current_range_meters":24400,"station_id":"ce4bhmp2rcd13ifvqgog","pricing_plan_id":"cebpf4jnsgd1na2vs0mg"},{"bike_id":"c8c71d6a-3155-4ee9-ba4f-a4d0d36b4405","system_id":"levelo_inurba_marseille","lat":43.26681,"lon":5.38267,"is_reserved":false,"is_disabled":false,"rental_uris":{"android":"levelo://app?vid=c8c71d6a-3155-4ee9-ba4f-a4d0d36b4405","ios":"levelo://app?vid=c8c71d6a-3155-4ee9-ba4f-a4d0d36b4405"},"vehicle_type_id":"4","last_reported":1732270224,"current_range_meters":36800,"station_id":"ce4bhg92rcd13ifvqf90","pricing_plan_id":"cebpf4jnsgd1na2vs0mg"},{"bike_id":"9362d71b-9c50-41b7-b7b8-dc7cb7588b4c","system_id":"levelo_inurba_marseille","lat":43.29846,"lon":5.36272,"is_reserved":false,"is_disabled":false,"rental_uris":{"android":"levelo://app?vid=9362d71b-9c50-41b7-b7b8-dc7cb7588b4c","ios":"levelo://app?vid=9362d71b-9c50-41b7-b7b8-dc7cb7588b4c"},"vehicle_type_id":"4","last_reported":1732270224,"current_range_meters":37600,"station_id":"ce4bgpp2rcd13ifvqc3g","pricing_plan_id":"cebpf4jnsgd1na2vs0mg"},{"bike_id":"94f0960c-7704-444e-ba1c-39e54d989b0b","system_id":"levelo_inurba_marseille","lat":43.297117,"lon":5.366163,"is_reserved":false,"is_disabled":true,"rental_uris":{"android":"levelo://app?vid=94f0960c-7704-444e-ba1c-39e54d989b0b","ios":"levelo://app?vid=94f0960c-7704-444e-ba1c-39e54d989b0b"},"vehicle_type_id":"4","last_reported":1732270224,"current_range_meters":27200,"station_id":"ce4bgn12rcd13ifvqbt0","pricing_plan_id":"cebpf4jnsgd1na2vs0mg"},{"bike_id":"a2b04bcd-b557-4648-8007-45816c63f8fc","system_id":"levelo_inurba_marseille","lat":43.28408,"lon":5.3751,"is_reserved":false,"is_disabled":false,"rental_uris":{"android":"levelo://app?vid=a2b04bcd-b557-4648-8007-45816c63f8fc","ios":"levelo://app?vid=a2b04bcd-b557-4648-8007-45816c63f8fc"},"vehicle_type_id":"4","last_reported":1732270224,"current_range_meters":14800,"station_id":"ce4bh412rcd13ifvqds0","pricing_plan_id":"cebpf4jnsgd1na2vs0mg"},{"bike_id":"bc31b02e-c1f5-4d1f-ab7c-44799a8ad899","system_id":"levelo_inurba_marseille","lat":43.30796,"lon":5.38137,"is_reserved":false,"is_disabled":false,"rental_uris":{"android":"levelo://app?vid=bc31b02e-c1f5-4d1f-ab7c-44799a8ad899","ios":"levelo://app?vid=bc31b02e-c1f5-4d1f-ab7c-44799a8ad899"},"vehicle_type_id":"4","last_reported":1732270224,"current_range_meters":32400,"station_id":"ce4bgt12rcd13ifvqce0","pricing_plan_id":"cebpf4jnsgd1na2vs0mg"},{"bike_id":"25c1e65b-83ae-4fec-9c1c-f8308c082ae7","system_id":"levelo_inurba_marseille","lat":43.32105,"lon":5.36785,"is_reserved":false,"is_disabled":false,"rental_uris":{"android":"levelo://app?vid=25c1e65b-83ae-4fec-9c1c-f8308c082ae7","ios":"levelo://app?vid=25c1e65b-83ae-4fec-9c1c-f8308c082ae7"},"vehicle_type_id":"4","last_reported":1732270224,"current_range_meters":26000,"station_id":"ce4bhrh2rcd13ifvqhug","pricing_plan_id":"cebpf4jnsgd1na2vs0mg"},{"bike_id":"ebe2b43b-e5bb-4158-835b-e46b2ce0d167","system_id":"levelo_inurba_marseille","lat":43.22928,"lon":5.35372,"is_reserved":false,"is_disabled":false,"rental_uris":{"android":"levelo://app?vid=ebe2b43b-e5bb-4158-835b-e46b2ce0d167","ios":"levelo://app?vid=ebe2b43b-e5bb-4158-835b-e46b2ce0d167"},"vehicle_type_id":"4","last_reported":1732270224,"current_range_meters":34800,"station_id":"cpo3532slgdg3j2ikp40","pricing_plan_id":"cebpf4jnsgd1na2vs0mg"},{"bike_id":"6905611a-a560-4254-9e09-1c479b43fed3","system_id":"levelo_inurba_marseille","lat":43.25931,"lon":5.40906,"is_reserved":false,"is_disabled":false,"rental_uris":{"android":"levelo://app?vid=6905611a-a560-4254-9e09-1c479b43fed3","ios":"levelo://app?vid=6905611a-a560-4254-9e09-1c479b43fed3"},"vehicle_type_id":"4","last_reported":1732270224,"current_range_meters":26800,"station_id":"ce4bhm92rcd13ifvqglg","pricing_plan_id":"cebpf4jnsgd1na2vs0mg"},{"bike_id":"d3f88ac1-af0e-4fe3-957f-9fb722f55ef1","system_id":"levelo_inurba_marseille","lat":43.32484,"lon":5.36564,"is_reserved":false,"is_disabled":false,"rental_uris":{"android":"levelo://app?vid=d3f88ac1-af0e-4fe3-957f-9fb722f55ef1","ios":"levelo://app?vid=d3f88ac1-af0e-4fe3-957f-9fb722f55ef1"},"vehicle_type_id":"4","last_reported":1732270224,"current_range_meters":36800,"station_id":"ce4bhs12rcd13ifvqhvg","pricing_plan_id":"cebpf4jnsgd1na2vs0mg"},{"bike_id":"b15bdfe1-6eee-49b2-9579-3dfa8b50a75d","system_id":"levelo_inurba_marseille","lat":43.30799,"lon":5.38151,"is_reserved":false,"is_disabled":false,"rental_uris":{"android":"levelo://app?vid=b15bdfe1-6eee-49b2-9579-3dfa8b50a75d","ios":"levelo://app?vid=b15bdfe1-6eee-49b2-9579-3dfa8b50a75d"},"vehicle_type_id":"4","last_reported":1732270224,"current_range_meters":4000,"station_id":"ce4bgt12rcd13ifvqce0","pricing_plan_id":"cebpf4jnsgd1na2vs0mg"},{"bike_id":"001776b4-7a16-439e-93b2-a53d7e504dd7","system_id":"levelo_inurba_marseille","lat":43.276857,"lon":5.388514,"is_reserved":false,"is_disabled":false,"rental_uris":{"android":"levelo://app?vid=001776b4-7a16-439e-93b2-a53d7e504dd7","ios":"levelo://app?vid=001776b4-7a16-439e-93b2-a53d7e504dd7"},"vehicle_type_id":"4","last_reported":1732270224,"current_range_meters":32000,"station_id":"ce4bhi12rcd13ifvqfo0","pricing_plan_id":"cebpf4jnsgd1na2vs0mg"},{"bike_id":"f256e1d9-53ea-4d87-bd51-eff2e2165a3a","system_id":"levelo_inurba_marseille","lat":43.29303,"lon":5.37167,"is_reserved":false,"is_disabled":false,"rental_uris":{"android":"levelo://app?vid=f256e1d9-53ea-4d87-bd51-eff2e2165a3a","ios":"levelo://app?vid=f256e1d9-53ea-4d87-bd51-eff2e2165a3a"},"vehicle_type_id":"4","last_reported":1732270224,"current_range_meters":34800,"station_id":"ce4bgh92rcd13ifvqb40","pricing_plan_id":"cebpf4jnsgd1na2vs0mg"},{"bike_id":"15c177f8-9c01-49e4-be50-f6e1159174e2","system_id":"levelo_inurba_marseille","lat":43.29252,"lon":5.4091,"is_reserved":false,"is_disabled":false,"rental_uris":{"android":"levelo://app?vid=15c177f8-9c01-49e4-be50-f6e1159174e2","ios":"levelo://app?vid=15c177f8-9c01-49e4-be50-f6e1159174e2"},"vehicle_type_id":"4","last_reported":1732270224,"current_range_meters":38800,"station_id":"ce4bh192rcd13ifvqdc0","pricing_plan_id":"cebpf4jnsgd1na2vs0mg"},{"bike_id":"309d0dc1-8f34-4917-81f2-41fe511b7bb0","system_id":"levelo_inurba_marseille","lat":43.31363,"lon":5.3849,"is_reserved":false,"is_disabled":false,"rental_uris":{"android":"levelo://app?vid=309d0dc1-8f34-4917-81f2-41fe511b7bb0","ios":"levelo://app?vid=309d0dc1-8f34-4917-81f2-41fe511b7bb0"},"vehicle_type_id":"4","last_reported":1732270224,"current_range_meters":29600,"station_id":"ce4bgt92rcd13ifvqcf0","pricing_plan_id":"cebpf4jnsgd1na2vs0mg"},{"bike_id":"60f5ee61-2885-4325-a690-4d0de4a1bdc7","system_id":"levelo_inurba_marseille","lat":43.31693,"lon":5.40473,"is_reserved":false,"is_disabled":false,"rental_uris":{"android":"levelo://app?vid=60f5ee61-2885-4325-a690-4d0de4a1bdc7","ios":"levelo://app?vid=60f5ee61-2885-4325-a690-4d0de4a1bdc7"},"vehicle_type_id":"4","last_reported":1732270224,"current_range_meters":32000,"station_id":"ce4bh012rcd13ifvqd00","pricing_plan_id":"cebpf4jnsgd1na2vs0mg"},{"bike_id":"61c68101-ef1a-457d-93e0-33b537eab2ac","system_id":"levelo_inurba_marseille","lat":43.27999,"lon":5.40018,"is_reserved":false,"is_disabled":false,"rental_uris":{"android":"levelo://app?vid=61c68101-ef1a-457d-93e0-33b537eab2ac","ios":"levelo://app?vid=61c68101-ef1a-457d-93e0-33b537eab2ac"},"vehicle_type_id":"4","last_reported":1732270224,"current_range_meters":32800,"station_id":"ce4bho92rcd13ifvqh4g","pricing_plan_id":"cebpf4jnsgd1na2vs0mg"},{"bike_id":"82386c99-95d1-468e-895f-a9ce5a289c63","system_id":"levelo_inurba_marseille","lat":43.29623,"lon":5.37711,"is_reserved":false,"is_disabled":false,"rental_uris":{"android":"levelo://app?vid=82386c99-95d1-468e-895f-a9ce5a289c63","ios":"levelo://app?vid=82386c99-95d1-468e-895f-a9ce5a289c63"},"vehicle_type_id":"4","last_reported":1732270224,"current_range_meters":38000,"station_id":"ce4bgi92rcd13ifvqb90","pricing_plan_id":"cebpf4jnsgd1na2vs0mg"},{"bike_id":"567b5bec-6f69-4097-9d92-252add5a5c8a","system_id":"levelo_inurba_marseille","lat":43.25578,"lon":5.3823,"is_reserved":false,"is_disabled":false,"rental_uris":{"android":"levelo://app?vid=567b5bec-6f69-4097-9d92-252add5a5c8a","ios":"levelo://app?vid=567b5bec-6f69-4097-9d92-252add5a5c8a"},"vehicle_type_id":"4","last_reported":1732270224,"current_range_meters":37600,"station_id":"ce4bhih2rcd13ifvqfs0","pricing_plan_id":"cebpf4jnsgd1na2vs0mg"},{"bike_id":"fb0e7305-4388-4c1e-aa9c-b5955479df12","system_id":"levelo_inurba_marseille","lat":43.2606,"lon":5.39396,"is_reserved":false,"is_disabled":false,"rental_uris":{"android":"levelo://app?vid=fb0e7305-4388-4c1e-aa9c-b5955479df12","ios":"levelo://app?vid=fb0e7305-4388-4c1e-aa9c-b5955479df12"},"vehicle_type_id":"4","last_reported":1732270224,"current_range_meters":35600,"station_id":"ce4bhh92rcd13ifvqfj0","pricing_plan_id":"cebpf4jnsgd1na2vs0mg"},{"bike_id":"7d5ba0aa-0f48-4a7f-82de-9d26e1521cfb","system_id":"levelo_inurba_marseille","lat":43.3229,"lon":5.38273,"is_reserved":false,"is_disabled":false,"rental_uris":{"android":"levelo://app?vid=7d5ba0aa-0f48-4a7f-82de-9d26e1521cfb","ios":"levelo://app?vid=7d5ba0aa-0f48-4a7f-82de-9d26e1521cfb"},"vehicle_type_id":"4","last_reported":1732270224,"current_range_meters":22800,"station_id":"ce4bhr12rcd13ifvqhqg","pricing_plan_id":"cebpf4jnsgd1na2vs0mg"},{"bike_id":"9c37a5af-6b01-4e75-9657-7ef6bddc1bc6","system_id":"levelo_inurba_marseille","lat":43.33022,"lon":5.39043,"is_reserved":false,"is_disabled":false,"rental_uris":{"android":"levelo://app?vid=9c37a5af-6b01-4e75-9657-7ef6bddc1bc6","ios":"levelo://app?vid=9c37a5af-6b01-4e75-9657-7ef6bddc1bc6"},"vehicle_type_id":"4","last_reported":1732270224,"current_range_meters":24000,"station_id":"ce4bhr92rcd13ifvqhrg","pricing_plan_id":"cebpf4jnsgd1na2vs0mg"},{"bike_id":"a5c6a665-254f-4467-b89d-1a7ab26a6517","system_id":"levelo_inurba_marseille","lat":43.30292,"lon":5.37698,"is_reserved":false,"is_disabled":false,"rental_uris":{"android":"levelo://app?vid=a5c6a665-254f-4467-b89d-1a7ab26a6517","ios":"levelo://app?vid=a5c6a665-254f-4467-b89d-1a7ab26a6517"},"vehicle_type_id":"4","last_reported":1732270224,"current_range_meters":27600,"station_id":"ce4bguh2rcd13ifvqcj0","pricing_plan_id":"cebpf4jnsgd1na2vs0mg"},{"bike_id":"a8f75a80-958a-4322-ad6f-d3c0202bdedf","system_id":"levelo_inurba_marseille","lat":43.29569,"lon":5.39975,"is_reserved":false,"is_disabled":false,"rental_uris":{"android":"levelo://app?vid=a8f75a80-958a-4322-ad6f-d3c0202bdedf","ios":"levelo://app?vid=a8f75a80-958a-4322-ad6f-d3c0202bdedf"},"vehicle_type_id":"4","last_reported":1732270224,"current_range_meters":6000,"station_id":"ce4bh312rcd13ifvqdj0","pricing_plan_id":"cebpf4jnsgd1na2vs0mg"},{"bike_id":"dc6305d7-b7ee-4c4e-b20f-8817ee4c76e6","system_id":"levelo_inurba_marseille","lat":43.30599,"lon":5.39355,"is_reserved":false,"is_disabled":true,"rental_uris":{"android":"levelo://app?vid=dc6305d7-b7ee-4c4e-b20f-8817ee4c76e6","ios":"levelo://app?vid=dc6305d7-b7ee-4c4e-b20f-8817ee4c76e6"},"vehicle_type_id":"4","last_reported":1732270224,"current_range_meters":14800,"station_id":"ce4bh0p2rcd13ifvqd80","pricing_plan_id":"cebpf4jnsgd1na2vs0mg"},{"bike_id":"3585d018-4b66-4cf5-bca5-17fcec2fef21","system_id":"levelo_inurba_marseille","lat":43.23192,"lon":5.35555,"is_reserved":false,"is_disabled":false,"rental_uris":{"android":"levelo://app?vid=3585d018-4b66-4cf5-bca5-17fcec2fef21","ios":"levelo://app?vid=3585d018-4b66-4cf5-bca5-17fcec2fef21"},"vehicle_type_id":"4","last_reported":1732270224,"current_range_meters":38000,"station_id":"ce4bhu92rcd13ifvqi70","pricing_plan_id":"cebpf4jnsgd1na2vs0mg"},{"bike_id":"05c68b93-a384-4fdf-af40-8dbe32e262fe","system_id":"levelo_inurba_marseille","lat":43.30159,"lon":5.38088,"is_reserved":false,"is_disabled":false,"rental_uris":{"android":"levelo://app?vid=05c68b93-a384-4fdf-af40-8dbe32e262fe","ios":"levelo://app?vid=05c68b93-a384-4fdf-af40-8dbe32e262fe"},"vehicle_type_id":"4","last_reported":1732270224,"current_range_meters":4800,"station_id":"ce4bgjp2rcd13ifvqbh0","pricing_plan_id":"cebpf4jnsgd1na2vs0mg"},{"bike_id":"25c335f8-e566-4bde-a695-792c97614c26","system_id":"levelo_inurba_marseille","lat":43.33753,"lon":5.37466,"is_reserved":false,"is_disabled":false,"rental_uris":{"android":"levelo://app?vid=25c335f8-e566-4bde-a695-792c97614c26","ios":"levelo://app?vid=25c335f8-e566-4bde-a695-792c97614c26"},"vehicle_type_id":"4","last_reported":1732270224,"current_range_meters":38800,"station_id":"","pricing_plan_id":"cebpf4jnsgd1na2vs0mg"},{"bike_id":"0d0c7e9e-1b28-4d6e-bca3-7b42f2ca3634","system_id":"levelo_inurba_marseille","lat":43.29074,"lon":5.37168,"is_reserved":false,"is_disabled":false,"rental_uris":{"android":"levelo://app?vid=0d0c7e9e-1b28-4d6e-bca3-7b42f2ca3634","ios":"levelo://app?vid=0d0c7e9e-1b28-4d6e-bca3-7b42f2ca3634"},"vehicle_type_id":"4","last_reported":1732270224,"current_range_meters":29600,"station_id":"ce4bh5p2rcd13ifvqe4g","pricing_plan_id":"cebpf4jnsgd1na2vs0mg"},{"bike_id":"d979d12e-0952-4b0d-a112-f005022fbbe4","system_id":"levelo_inurba_marseille","lat":43.26203,"lon":5.37927,"is_reserved":false,"is_disabled":false,"rental_uris":{"android":"levelo://app?vid=d979d12e-0952-4b0d-a112-f005022fbbe4","ios":"levelo://app?vid=d979d12e-0952-4b0d-a112-f005022fbbe4"},"vehicle_type_id":"4","last_reported":1732270224,"current_range_meters":39200,"station_id":"ce4bhjp2rcd13ifvqg90","pricing_plan_id":"cebpf4jnsgd1na2vs0mg"},{"bike_id":"17b263e7-11a4-4e49-99f1-347989185c5a","system_id":"levelo_inurba_marseille","lat":43.2718,"lon":5.40991,"is_reserved":false,"is_disabled":true,"rental_uris":{"android":"levelo://app?vid=17b263e7-11a4-4e49-99f1-347989185c5a","ios":"levelo://app?vid=17b263e7-11a4-4e49-99f1-347989185c5a"},"vehicle_type_id":"4","last_reported":1732270224,"current_range_meters":0,"station_id":"ce4bhl12rcd13ifvqgf0","pricing_plan_id":"cebpf4jnsgd1na2vs0mg"},{"bike_id":"ac894d2b-d4fc-430d-9b98-f63b338519b2","system_id":"levelo_inurba_marseille","lat":43.2594,"lon":5.40906,"is_reserved":false,"is_disabled":false,"rental_uris":{"android":"levelo://app?vid=ac894d2b-d4fc-430d-9b98-f63b338519b2","ios":"levelo://app?vid=ac894d2b-d4fc-430d-9b98-f63b338519b2"},"vehicle_type_id":"4","last_reported":1732270224,"current_range_meters":28000,"station_id":"ce4bhm92rcd13ifvqglg","pricing_plan_id":"cebpf4jnsgd1na2vs0mg"},{"bike_id":"ca830116-b4f0-46a6-89c4-00566a1ee122","system_id":"levelo_inurba_marseille","lat":43.30351,"lon":5.41877,"is_reserved":false,"is_disabled":false,"rental_uris":{"android":"levelo://app?vid=ca830116-b4f0-46a6-89c4-00566a1ee122","ios":"levelo://app?vid=ca830116-b4f0-46a6-89c4-00566a1ee122"},"vehicle_type_id":"4","last_reported":1732270224,"current_range_meters":39200,"station_id":"ce4bhop2rcd13ifvqh7g","pricing_plan_id":"cebpf4jnsgd1na2vs0mg"},{"bike_id":"35005469-a36f-4579-b926-2bbc2fea0fa4","system_id":"levelo_inurba_marseille","lat":43.31354,"lon":5.36705,"is_reserved":false,"is_disabled":false,"rental_uris":{"android":"levelo://app?vid=35005469-a36f-4579-b926-2bbc2fea0fa4","ios":"levelo://app?vid=35005469-a36f-4579-b926-2bbc2fea0fa4"},"vehicle_type_id":"4","last_reported":1732270224,"current_range_meters":9600,"station_id":"ce4bgr92rcd13ifvqc6g","pricing_plan_id":"cebpf4jnsgd1na2vs0mg"},{"bike_id":"e6f269d5-78f6-4043-917f-52913283f83c","system_id":"levelo_inurba_marseille","lat":43.23151,"lon":5.43718,"is_reserved":false,"is_disabled":false,"rental_uris":{"android":"levelo://app?vid=e6f269d5-78f6-4043-917f-52913283f83c","ios":"levelo://app?vid=e6f269d5-78f6-4043-917f-52913283f83c"},"vehicle_type_id":"4","last_reported":1732270224,"current_range_meters":27200,"station_id":"ce4bhmp2rcd13ifvqgog","pricing_plan_id":"cebpf4jnsgd1na2vs0mg"},{"bike_id":"844cb461-f780-45f5-88b2-3951b51e6462","system_id":"levelo_inurba_marseille","lat":43.30116,"lon":5.37791,"is_reserved":false,"is_disabled":true,"rental_uris":{"android":"levelo://app?vid=844cb461-f780-45f5-88b2-3951b51e6462","ios":"levelo://app?vid=844cb461-f780-45f5-88b2-3951b51e6462"},"vehicle_type_id":"4","last_reported":1732270224,"current_range_meters":0,"station_id":"","pricing_plan_id":"cebpf4jnsgd1na2vs0mg"},{"bike_id":"dfb13cbe-ff49-4ace-8272-cd74b26d8194","system_id":"levelo_inurba_marseille","lat":43.25581,"lon":5.38231,"is_reserved":false,"is_disabled":false,"rental_uris":{"android":"levelo://app?vid=dfb13cbe-ff49-4ace-8272-cd74b26d8194","ios":"levelo://app?vid=dfb13cbe-ff49-4ace-8272-cd74b26d8194"},"vehicle_type_id":"4","last_reported":1732270224,"current_range_meters":37600,"station_id":"ce4bhih2rcd13ifvqfs0","pricing_plan_id":"cebpf4jnsgd1na2vs0mg"},{"bike_id":"4e243365-70fc-443d-82a5-864cf6b26e66","system_id":"levelo_inurba_marseille","lat":43.27204,"lon":5.39172,"is_reserved":false,"is_disabled":false,"rental_uris":{"android":"levelo://app?vid=4e243365-70fc-443d-82a5-864cf6b26e66","ios":"levelo://app?vid=4e243365-70fc-443d-82a5-864cf6b26e66"},"vehicle_type_id":"4","last_reported":1732270224,"current_range_meters":39200,"station_id":"ce4bhhp2rcd13ifvqfm0","pricing_plan_id":"cebpf4jnsgd1na2vs0mg"},{"bike_id":"244850df-c2c2-4221-a291-c9ada8d0817a","system_id":"levelo_inurba_marseille","lat":43.25932,"lon":5.409,"is_reserved":false,"is_disabled":false,"rental_uris":{"android":"levelo://app?vid=244850df-c2c2-4221-a291-c9ada8d0817a","ios":"levelo://app?vid=244850df-c2c2-4221-a291-c9ada8d0817a"},"vehicle_type_id":"4","last_reported":1732270224,"current_range_meters":33600,"station_id":"ce4bhm92rcd13ifvqglg","pricing_plan_id":"cebpf4jnsgd1na2vs0mg"},{"bike_id":"1e8c2233-2991-4df4-bec5-3b057c9b11ed","system_id":"levelo_inurba_marseille","lat":43.30146,"lon":5.37421,"is_reserved":false,"is_disabled":true,"rental_uris":{"android":"levelo://app?vid=1e8c2233-2991-4df4-bec5-3b057c9b11ed","ios":"levelo://app?vid=1e8c2233-2991-4df4-bec5-3b057c9b11ed"},"vehicle_type_id":"4","last_reported":1732270224,"current_range_meters":36800,"station_id":"ce4bgs92rcd13ifvqcc0","pricing_plan_id":"cebpf4jnsgd1na2vs0mg"},{"bike_id":"786329d4-a364-4aee-bb86-124298f7a780","system_id":"levelo_inurba_marseille","lat":43.25824,"lon":5.39433,"is_reserved":false,"is_disabled":false,"rental_uris":{"android":"levelo://app?vid=786329d4-a364-4aee-bb86-124298f7a780","ios":"levelo://app?vid=786329d4-a364-4aee-bb86-124298f7a780"},"vehicle_type_id":"4","last_reported":1732270224,"current_range_meters":16800,"station_id":"ce4bhip2rcd13ifvqft0","pricing_plan_id":"cebpf4jnsgd1na2vs0mg"},{"bike_id":"72998ba3-d1e0-40d5-bf1d-4005fb8033c8","system_id":"levelo_inurba_marseille","lat":43.29126,"lon":5.39985,"is_reserved":false,"is_disabled":true,"rental_uris":{"android":"levelo://app?vid=72998ba3-d1e0-40d5-bf1d-4005fb8033c8","ios":"levelo://app?vid=72998ba3-d1e0-40d5-bf1d-4005fb8033c8"},"vehicle_type_id":"4","last_reported":1732270224,"current_range_meters":8000,"station_id":"","pricing_plan_id":"cebpf4jnsgd1na2vs0mg"},{"bike_id":"cdaafd2d-0da1-4fac-9881-15c66a7cd7c0","system_id":"levelo_inurba_marseille","lat":43.23153,"lon":5.43705,"is_reserved":false,"is_disabled":false,"rental_uris":{"android":"levelo://app?vid=cdaafd2d-0da1-4fac-9881-15c66a7cd7c0","ios":"levelo://app?vid=cdaafd2d-0da1-4fac-9881-15c66a7cd7c0"},"vehicle_type_id":"4","last_reported":1732270224,"current_range_meters":39200,"station_id":"ce4bhmp2rcd13ifvqgog","pricing_plan_id":"cebpf4jnsgd1na2vs0mg"},{"bike_id":"c1024338-3a35-4c5d-8621-6f53a0a7a406","system_id":"levelo_inurba_marseille","lat":43.336669,"lon":5.39812,"is_reserved":false,"is_disabled":true,"rental_uris":{"android":"levelo://app?vid=c1024338-3a35-4c5d-8621-6f53a0a7a406","ios":"levelo://app?vid=c1024338-3a35-4c5d-8621-6f53a0a7a406"},"vehicle_type_id":"4","last_reported":1732270224,"current_range_meters":33600,"station_id":"","pricing_plan_id":"cebpf4jnsgd1na2vs0mg"},{"bike_id":"b03f69f7-b71a-4f20-b004-cac08d3d55e5","system_id":"levelo_inurba_marseille","lat":43.32366,"lon":5.38883,"is_reserved":false,"is_disabled":false,"rental_uris":{"android":"levelo://app?vid=b03f69f7-b71a-4f20-b004-cac08d3d55e5","ios":"levelo://app?vid=b03f69f7-b71a-4f20-b004-cac08d3d55e5"},"vehicle_type_id":"4","last_reported":1732270224,"current_range_meters":30000,"station_id":"ce4bhqp2rcd13ifvqhog","pricing_plan_id":"cebpf4jnsgd1na2vs0mg"},{"bike_id":"8d5ad0a8-268e-4afd-be61-7919f93826c7","system_id":"levelo_inurba_marseille","lat":43.29914,"lon":5.37459,"is_reserved":false,"is_disabled":false,"rental_uris":{"android":"levelo://app?vid=8d5ad0a8-268e-4afd-be61-7919f93826c7","ios":"levelo://app?vid=8d5ad0a8-268e-4afd-be61-7919f93826c7"},"vehicle_type_id":"4","last_reported":1732270224,"current_range_meters":36400,"station_id":"ce4bgjh2rcd13ifvqbg0","pricing_plan_id":"cebpf4jnsgd1na2vs0mg"},{"bike_id":"3e51505c-66c2-4920-b827-cea103a2ac7b","system_id":"levelo_inurba_marseille","lat":43.32364,"lon":5.38881,"is_reserved":false,"is_disabled":true,"rental_uris":{"android":"levelo://app?vid=3e51505c-66c2-4920-b827-cea103a2ac7b","ios":"levelo://app?vid=3e51505c-66c2-4920-b827-cea103a2ac7b"},"vehicle_type_id":"4","last_reported":1732270224,"current_range_meters":0,"station_id":"ce4bhqp2rcd13ifvqhog","pricing_plan_id":"cebpf4jnsgd1na2vs0mg"},{"bike_id":"ebdc9c49-063b-430c-9f78-3f77e2d85322","system_id":"levelo_inurba_marseille","lat":43.29623,"lon":5.37718,"is_reserved":false,"is_disabled":false,"rental_uris":{"android":"levelo://app?vid=ebdc9c49-063b-430c-9f78-3f77e2d85322","ios":"levelo://app?vid=ebdc9c49-063b-430c-9f78-3f77e2d85322"},"vehicle_type_id":"4","last_reported":1732270224,"current_range_meters":38800,"station_id":"ce4bgi92rcd13ifvqb90","pricing_plan_id":"cebpf4jnsgd1na2vs0mg"},{"bike_id":"1ef17f0c-9df8-40aa-bad8-8fe504107889","system_id":"levelo_inurba_marseille","lat":43.31757,"lon":5.39012,"is_reserved":false,"is_disabled":false,"rental_uris":{"android":"levelo://app?vid=1ef17f0c-9df8-40aa-bad8-8fe504107889","ios":"levelo://app?vid=1ef17f0c-9df8-40aa-bad8-8fe504107889"},"vehicle_type_id":"4","last_reported":1732270224,"current_range_meters":28400,"station_id":"ce4bhqp2rcd13ifvqhng","pricing_plan_id":"cebpf4jnsgd1na2vs0mg"},{"bike_id":"34851246-9c74-42e8-ae48-fbf7b7605730","system_id":"levelo_inurba_marseille","lat":43.23159,"lon":5.43666,"is_reserved":false,"is_disabled":false,"rental_uris":{"android":"levelo://app?vid=34851246-9c74-42e8-ae48-fbf7b7605730","ios":"levelo://app?vid=34851246-9c74-42e8-ae48-fbf7b7605730"},"vehicle_type_id":"4","last_reported":1732270224,"current_range_meters":25600,"station_id":"ce4bhmp2rcd13ifvqgog","pricing_plan_id":"cebpf4jnsgd1na2vs0mg"},{"bike_id":"5c879de6-3a98-40e7-bcf5-0217a13dea9c","system_id":"levelo_inurba_marseille","lat":43.301,"lon":5.3908,"is_reserved":false,"is_disabled":false,"rental_uris":{"android":"levelo://app?vid=5c879de6-3a98-40e7-bcf5-0217a13dea9c","ios":"levelo://app?vid=5c879de6-3a98-40e7-bcf5-0217a13dea9c"},"vehicle_type_id":"4","last_reported":1732270224,"current_range_meters":20000,"station_id":"ce4bh192rcd13ifvqdb0","pricing_plan_id":"cebpf4jnsgd1na2vs0mg"},{"bike_id":"411dc917-a148-4d0a-83cb-1020bdbdc805","system_id":"levelo_inurba_marseille","lat":43.30549,"lon":5.36552,"is_reserved":false,"is_disabled":false,"rental_uris":{"android":"levelo://app?vid=411dc917-a148-4d0a-83cb-1020bdbdc805","ios":"levelo://app?vid=411dc917-a148-4d0a-83cb-1020bdbdc805"},"vehicle_type_id":"4","last_reported":1732270224,"current_range_meters":20400,"station_id":"ce4bgs12rcd13ifvqcag","pricing_plan_id":"cebpf4jnsgd1na2vs0mg"},{"bike_id":"dfe33225-e1de-4db4-96f4-14ecd8a710aa","system_id":"levelo_inurba_marseille","lat":43.30881,"lon":5.37196,"is_reserved":false,"is_disabled":false,"rental_uris":{"android":"levelo://app?vid=dfe33225-e1de-4db4-96f4-14ecd8a710aa","ios":"levelo://app?vid=dfe33225-e1de-4db4-96f4-14ecd8a710aa"},"vehicle_type_id":"4","last_reported":1732270224,"current_range_meters":36400,"station_id":"ce4bguh2rcd13ifvqckg","pricing_plan_id":"cebpf4jnsgd1na2vs0mg"},{"bike_id":"9a788771-cf78-4552-8521-500f87f597b1","system_id":"levelo_inurba_marseille","lat":43.29381,"lon":5.37843,"is_reserved":false,"is_disabled":false,"rental_uris":{"android":"levelo://app?vid=9a788771-cf78-4552-8521-500f87f597b1","ios":"levelo://app?vid=9a788771-cf78-4552-8521-500f87f597b1"},"vehicle_type_id":"4","last_reported":1732270224,"current_range_meters":26000,"station_id":"ce4bgjh2rcd13ifvqbf0","pricing_plan_id":"cebpf4jnsgd1na2vs0mg"},{"bike_id":"8eba556a-42bc-442f-9770-40b08bfa9ac9","system_id":"levelo_inurba_marseille","lat":43.28425,"lon":5.39184,"is_reserved":false,"is_disabled":true,"rental_uris":{"android":"levelo://app?vid=8eba556a-42bc-442f-9770-40b08bfa9ac9","ios":"levelo://app?vid=8eba556a-42bc-442f-9770-40b08bfa9ac9"},"vehicle_type_id":"4","last_reported":1732270224,"current_range_meters":0,"station_id":"ce4bhoh2rcd13ifvqh5g","pricing_plan_id":"cebpf4jnsgd1na2vs0mg"},{"bike_id":"684ddd3c-a195-4636-9ce4-922fef21749c","system_id":"levelo_inurba_marseille","lat":43.23151,"lon":5.43719,"is_reserved":false,"is_disabled":false,"rental_uris":{"android":"levelo://app?vid=684ddd3c-a195-4636-9ce4-922fef21749c","ios":"levelo://app?vid=684ddd3c-a195-4636-9ce4-922fef21749c"},"vehicle_type_id":"4","last_reported":1732270224,"current_range_meters":6800,"station_id":"ce4bhmp2rcd13ifvqgog","pricing_plan_id":"cebpf4jnsgd1na2vs0mg"},{"bike_id":"eef1117d-cc65-41af-8e8c-26e28ffd5eeb","system_id":"levelo_inurba_marseille","lat":43.27059,"lon":5.40259,"is_reserved":false,"is_disabled":false,"rental_uris":{"android":"levelo://app?vid=eef1117d-cc65-41af-8e8c-26e28ffd5eeb","ios":"levelo://app?vid=eef1117d-cc65-41af-8e8c-26e28ffd5eeb"},"vehicle_type_id":"4","last_reported":1732270224,"current_range_meters":36800,"station_id":"ce4bhk92rcd13ifvqgc0","pricing_plan_id":"cebpf4jnsgd1na2vs0mg"},{"bike_id":"11c5ed7c-dad2-4605-8db8-4918d0818190","system_id":"levelo_inurba_marseille","lat":43.31726,"lon":5.42395,"is_reserved":false,"is_disabled":false,"rental_uris":{"android":"levelo://app?vid=11c5ed7c-dad2-4605-8db8-4918d0818190","ios":"levelo://app?vid=11c5ed7c-dad2-4605-8db8-4918d0818190"},"vehicle_type_id":"4","last_reported":1732270224,"current_range_meters":38800,"station_id":"ce4bhp92rcd13ifvqhbg","pricing_plan_id":"cebpf4jnsgd1na2vs0mg"},{"bike_id":"53bbdfc0-4d63-4cc4-86e6-4ec910061123","system_id":"levelo_inurba_marseille","lat":43.3091,"lon":5.36716,"is_reserved":false,"is_disabled":true,"rental_uris":{"android":"levelo://app?vid=53bbdfc0-4d63-4cc4-86e6-4ec910061123","ios":"levelo://app?vid=53bbdfc0-4d63-4cc4-86e6-4ec910061123"},"vehicle_type_id":"4","last_reported":1732270224,"current_range_meters":0,"station_id":"","pricing_plan_id":"cebpf4jnsgd1na2vs0mg"},{"bike_id":"bbe2be5c-959e-42f6-8e06-0a9464230097","system_id":"levelo_inurba_marseille","lat":43.23153,"lon":5.43716,"is_reserved":false,"is_disabled":false,"rental_uris":{"android":"levelo://app?vid=bbe2be5c-959e-42f6-8e06-0a9464230097","ios":"levelo://app?vid=bbe2be5c-959e-42f6-8e06-0a9464230097"},"vehicle_type_id":"4","last_reported":1732270224,"current_range_meters":14800,"station_id":"ce4bhmp2rcd13ifvqgog","pricing_plan_id":"cebpf4jnsgd1na2vs0mg"},{"bike_id":"99aa5717-a61d-48ca-acf6-5d13d29e659c","system_id":"levelo_inurba_marseille","lat":43.28846,"lon":5.35848,"is_reserved":false,"is_disabled":false,"rental_uris":{"android":"levelo://app?vid=99aa5717-a61d-48ca-acf6-5d13d29e659c","ios":"levelo://app?vid=99aa5717-a61d-48ca-acf6-5d13d29e659c"},"vehicle_type_id":"4","last_reported":1732270224,"current_range_meters":13600,"station_id":"ce4bhb12rcd13ifvqem0","pricing_plan_id":"cebpf4jnsgd1na2vs0mg"},{"bike_id":"fc71bb19-2c1c-47ef-b4a7-725948b4556b","system_id":"levelo_inurba_marseille","lat":43.25939,"lon":5.40904,"is_reserved":false,"is_disabled":false,"rental_uris":{"android":"levelo://app?vid=fc71bb19-2c1c-47ef-b4a7-725948b4556b","ios":"levelo://app?vid=fc71bb19-2c1c-47ef-b4a7-725948b4556b"},"vehicle_type_id":"4","last_reported":1732270224,"current_range_meters":11200,"station_id":"ce4bhm92rcd13ifvqglg","pricing_plan_id":"cebpf4jnsgd1na2vs0mg"},{"bike_id":"6ffaf4a4-4808-4dfd-969b-ba2e7c01a1dc","system_id":"levelo_inurba_marseille","lat":43.30954,"lon":5.39031,"is_reserved":false,"is_disabled":false,"rental_uris":{"android":"levelo://app?vid=6ffaf4a4-4808-4dfd-969b-ba2e7c01a1dc","ios":"levelo://app?vid=6ffaf4a4-4808-4dfd-969b-ba2e7c01a1dc"},"vehicle_type_id":"4","last_reported":1732270224,"current_range_meters":18000,"station_id":"ce4bgup2rcd13ifvqco0","pricing_plan_id":"cebpf4jnsgd1na2vs0mg"},{"bike_id":"3b6149fe-8646-49d3-98fa-2618ae7f6e44","system_id":"levelo_inurba_marseille","lat":43.32543,"lon":5.41439,"is_reserved":false,"is_disabled":false,"rental_uris":{"android":"levelo://app?vid=3b6149fe-8646-49d3-98fa-2618ae7f6e44","ios":"levelo://app?vid=3b6149fe-8646-49d3-98fa-2618ae7f6e44"},"vehicle_type_id":"4","last_reported":1732270224,"current_range_meters":24800,"station_id":"ce4bhq12rcd13ifvqhhg","pricing_plan_id":"cebpf4jnsgd1na2vs0mg"},{"bike_id":"3193222d-584b-4642-a1d8-0c04b2309736","system_id":"levelo_inurba_marseille","lat":43.33728,"lon":5.39188,"is_reserved":false,"is_disabled":false,"rental_uris":{"android":"levelo://app?vid=3193222d-584b-4642-a1d8-0c04b2309736","ios":"levelo://app?vid=3193222d-584b-4642-a1d8-0c04b2309736"},"vehicle_type_id":"4","last_reported":1732270224,"current_range_meters":37600,"station_id":"ce4bhr92rcd13ifvqhsg","pricing_plan_id":"cebpf4jnsgd1na2vs0mg"},{"bike_id":"13c3cdd9-addf-4846-8179-0307f0e75c9d","system_id":"levelo_inurba_marseille","lat":43.28107,"lon":5.37831,"is_reserved":false,"is_disabled":false,"rental_uris":{"android":"levelo://app?vid=13c3cdd9-addf-4846-8179-0307f0e75c9d","ios":"levelo://app?vid=13c3cdd9-addf-4846-8179-0307f0e75c9d"},"vehicle_type_id":"4","last_reported":1732270224,"current_range_meters":20800,"station_id":"ce4bha12rcd13ifvqee0","pricing_plan_id":"cebpf4jnsgd1na2vs0mg"},{"bike_id":"581d2ef0-341e-4d2e-aa56-04a8ac8af4f6","system_id":"levelo_inurba_marseille","lat":43.33022,"lon":5.39042,"is_reserved":false,"is_disabled":false,"rental_uris":{"android":"levelo://app?vid=581d2ef0-341e-4d2e-aa56-04a8ac8af4f6","ios":"levelo://app?vid=581d2ef0-341e-4d2e-aa56-04a8ac8af4f6"},"vehicle_type_id":"4","last_reported":1732270224,"current_range_meters":36800,"station_id":"ce4bhr92rcd13ifvqhrg","pricing_plan_id":"cebpf4jnsgd1na2vs0mg"},{"bike_id":"0cadbe03-61da-4359-bc15-bbf2deebbb35","system_id":"levelo_inurba_marseille","lat":43.30551,"lon":5.36527,"is_reserved":false,"is_disabled":false,"rental_uris":{"android":"levelo://app?vid=0cadbe03-61da-4359-bc15-bbf2deebbb35","ios":"levelo://app?vid=0cadbe03-61da-4359-bc15-bbf2deebbb35"},"vehicle_type_id":"4","last_reported":1732270224,"current_range_meters":18800,"station_id":"ce4bgs12rcd13ifvqcag","pricing_plan_id":"cebpf4jnsgd1na2vs0mg"},{"bike_id":"1fe36207-a189-42b7-a2ae-a1bed57e3dd0","system_id":"levelo_inurba_marseille","lat":43.2603,"lon":5.37543,"is_reserved":false,"is_disabled":false,"rental_uris":{"android":"levelo://app?vid=1fe36207-a189-42b7-a2ae-a1bed57e3dd0","ios":"levelo://app?vid=1fe36207-a189-42b7-a2ae-a1bed57e3dd0"},"vehicle_type_id":"4","last_reported":1732270224,"current_range_meters":20000,"station_id":"ce4bhgh2rcd13ifvqfa0","pricing_plan_id":"cebpf4jnsgd1na2vs0mg"},{"bike_id":"4ecdaf55-87e7-42ea-ac0e-a41de2a6b49d","system_id":"levelo_inurba_marseille","lat":43.31995,"lon":5.3815,"is_reserved":false,"is_disabled":false,"rental_uris":{"android":"levelo://app?vid=4ecdaf55-87e7-42ea-ac0e-a41de2a6b49d","ios":"levelo://app?vid=4ecdaf55-87e7-42ea-ac0e-a41de2a6b49d"},"vehicle_type_id":"4","last_reported":1732270224,"current_range_meters":28000,"station_id":"ce4bhr12rcd13ifvqhpg","pricing_plan_id":"cebpf4jnsgd1na2vs0mg"},{"bike_id":"16786369-c3c3-4561-921f-6291a530a9fe","system_id":"levelo_inurba_marseille","lat":43.30211,"lon":5.39469,"is_reserved":false,"is_disabled":false,"rental_uris":{"android":"levelo://app?vid=16786369-c3c3-4561-921f-6291a530a9fe","ios":"levelo://app?vid=16786369-c3c3-4561-921f-6291a530a9fe"},"vehicle_type_id":"4","last_reported":1732270224,"current_range_meters":11200,"station_id":"ce4bh0p2rcd13ifvqd70","pricing_plan_id":"cebpf4jnsgd1na2vs0mg"},{"bike_id":"c9aaace1-687e-446f-b946-af1eab09d2d5","system_id":"levelo_inurba_marseille","lat":43.30094,"lon":5.39084,"is_reserved":false,"is_disabled":false,"rental_uris":{"android":"levelo://app?vid=c9aaace1-687e-446f-b946-af1eab09d2d5","ios":"levelo://app?vid=c9aaace1-687e-446f-b946-af1eab09d2d5"},"vehicle_type_id":"4","last_reported":1732270224,"current_range_meters":28800,"station_id":"ce4bh192rcd13ifvqdb0","pricing_plan_id":"cebpf4jnsgd1na2vs0mg"},{"bike_id":"0765a73c-76c8-4a08-ad02-e7eb563e7c90","system_id":"levelo_inurba_marseille","lat":43.24074,"lon":5.37761,"is_reserved":false,"is_disabled":false,"rental_uris":{"android":"levelo://app?vid=0765a73c-76c8-4a08-ad02-e7eb563e7c90","ios":"levelo://app?vid=0765a73c-76c8-4a08-ad02-e7eb563e7c90"},"vehicle_type_id":"4","last_reported":1732270224,"current_range_meters":37600,"station_id":"ce4bhnp2rcd13ifvqgvg","pricing_plan_id":"cebpf4jnsgd1na2vs0mg"},{"bike_id":"17d12bd2-919d-4d09-8dbb-cf8bf186a5b1","system_id":"levelo_inurba_marseille","lat":43.24085,"lon":5.37739,"is_reserved":false,"is_disabled":false,"rental_uris":{"android":"levelo://app?vid=17d12bd2-919d-4d09-8dbb-cf8bf186a5b1","ios":"levelo://app?vid=17d12bd2-919d-4d09-8dbb-cf8bf186a5b1"},"vehicle_type_id":"4","last_reported":1732270224,"current_range_meters":22800,"station_id":"ce4bhnp2rcd13ifvqgvg","pricing_plan_id":"cebpf4jnsgd1na2vs0mg"},{"bike_id":"97c3ed94-a963-4085-980d-59f8f7086d8b","system_id":"levelo_inurba_marseille","lat":43.29312,"lon":5.37171,"is_reserved":false,"is_disabled":false,"rental_uris":{"android":"levelo://app?vid=97c3ed94-a963-4085-980d-59f8f7086d8b","ios":"levelo://app?vid=97c3ed94-a963-4085-980d-59f8f7086d8b"},"vehicle_type_id":"4","last_reported":1732270224,"current_range_meters":38000,"station_id":"ce4bgh92rcd13ifvqb40","pricing_plan_id":"cebpf4jnsgd1na2vs0mg"},{"bike_id":"b8eb913d-3f48-4b2a-8907-af47e2589a23","system_id":"levelo_inurba_marseille","lat":43.28257,"lon":5.3507,"is_reserved":false,"is_disabled":false,"rental_uris":{"android":"levelo://app?vid=b8eb913d-3f48-4b2a-8907-af47e2589a23","ios":"levelo://app?vid=b8eb913d-3f48-4b2a-8907-af47e2589a23"},"vehicle_type_id":"4","last_reported":1732270224,"current_range_meters":39200,"station_id":"ce4bhbp2rcd13ifvqerg","pricing_plan_id":"cebpf4jnsgd1na2vs0mg"},{"bike_id":"d59ed790-ad26-46a6-90e4-2ceae616502f","system_id":"levelo_inurba_marseille","lat":43.29573,"lon":5.37502,"is_reserved":false,"is_disabled":false,"rental_uris":{"android":"levelo://app?vid=d59ed790-ad26-46a6-90e4-2ceae616502f","ios":"levelo://app?vid=d59ed790-ad26-46a6-90e4-2ceae616502f"},"vehicle_type_id":"4","last_reported":1732270224,"current_range_meters":32800,"station_id":"ce4bgh92rcd13ifvqb50","pricing_plan_id":"cebpf4jnsgd1na2vs0mg"},{"bike_id":"24618c6c-9f3e-4480-ac3f-3dfa9b93dc99","system_id":"levelo_inurba_marseille","lat":43.27949,"lon":5.41046,"is_reserved":false,"is_disabled":false,"rental_uris":{"android":"levelo://app?vid=24618c6c-9f3e-4480-ac3f-3dfa9b93dc99","ios":"levelo://app?vid=24618c6c-9f3e-4480-ac3f-3dfa9b93dc99"},"vehicle_type_id":"4","last_reported":1732270224,"current_range_meters":37600,"station_id":"ce4bhnp2rcd13ifvqh0g","pricing_plan_id":"cebpf4jnsgd1na2vs0mg"},{"bike_id":"49580339-c4c2-44db-a510-0ed1eb14d36b","system_id":"levelo_inurba_marseille","lat":43.30303,"lon":5.36857,"is_reserved":false,"is_disabled":false,"rental_uris":{"android":"levelo://app?vid=49580339-c4c2-44db-a510-0ed1eb14d36b","ios":"levelo://app?vid=49580339-c4c2-44db-a510-0ed1eb14d36b"},"vehicle_type_id":"4","last_reported":1732270224,"current_range_meters":25200,"station_id":"ce4bgqh2rcd13ifvqc5g","pricing_plan_id":"cebpf4jnsgd1na2vs0mg"},{"bike_id":"35799ffd-e120-47ae-ba81-5038ad1d78ad","system_id":"levelo_inurba_marseille","lat":43.26677,"lon":5.38263,"is_reserved":false,"is_disabled":false,"rental_uris":{"android":"levelo://app?vid=35799ffd-e120-47ae-ba81-5038ad1d78ad","ios":"levelo://app?vid=35799ffd-e120-47ae-ba81-5038ad1d78ad"},"vehicle_type_id":"4","last_reported":1732270224,"current_range_meters":39200,"station_id":"ce4bhg92rcd13ifvqf90","pricing_plan_id":"cebpf4jnsgd1na2vs0mg"},{"bike_id":"a51e82b7-997c-467d-8058-02f504d77c87","system_id":"levelo_inurba_marseille","lat":43.25,"lon":5.38934,"is_reserved":false,"is_disabled":false,"rental_uris":{"android":"levelo://app?vid=a51e82b7-997c-467d-8058-02f504d77c87","ios":"levelo://app?vid=a51e82b7-997c-467d-8058-02f504d77c87"},"vehicle_type_id":"4","last_reported":1732270224,"current_range_meters":18800,"station_id":"ce4bhgp2rcd13ifvqfd0","pricing_plan_id":"cebpf4jnsgd1na2vs0mg"},{"bike_id":"0d99c5cf-4a7f-4a46-b658-e3a666ce3227","system_id":"levelo_inurba_marseille","lat":43.3053,"lon":5.3654,"is_reserved":false,"is_disabled":false,"rental_uris":{"android":"levelo://app?vid=0d99c5cf-4a7f-4a46-b658-e3a666ce3227","ios":"levelo://app?vid=0d99c5cf-4a7f-4a46-b658-e3a666ce3227"},"vehicle_type_id":"4","last_reported":1732270224,"current_range_meters":24800,"station_id":"ce4bgs12rcd13ifvqcag","pricing_plan_id":"cebpf4jnsgd1na2vs0mg"},{"bike_id":"9d76029c-8202-41ad-a5e8-699cb6009143","system_id":"levelo_inurba_marseille","lat":43.23144,"lon":5.43723,"is_reserved":false,"is_disabled":false,"rental_uris":{"android":"levelo://app?vid=9d76029c-8202-41ad-a5e8-699cb6009143","ios":"levelo://app?vid=9d76029c-8202-41ad-a5e8-699cb6009143"},"vehicle_type_id":"4","last_reported":1732270224,"current_range_meters":33600,"station_id":"ce4bhmp2rcd13ifvqgog","pricing_plan_id":"cebpf4jnsgd1na2vs0mg"},{"bike_id":"abbe4444-e220-4e1b-8bbf-00f3f3e0e374","system_id":"levelo_inurba_marseille","lat":43.24069,"lon":5.37763,"is_reserved":false,"is_disabled":false,"rental_uris":{"android":"levelo://app?vid=abbe4444-e220-4e1b-8bbf-00f3f3e0e374","ios":"levelo://app?vid=abbe4444-e220-4e1b-8bbf-00f3f3e0e374"},"vehicle_type_id":"4","last_reported":1732270224,"current_range_meters":36800,"station_id":"ce4bhnp2rcd13ifvqgvg","pricing_plan_id":"cebpf4jnsgd1na2vs0mg"},{"bike_id":"23934629-35ed-47e7-b32a-928e51b47c7b","system_id":"levelo_inurba_marseille","lat":43.29918,"lon":5.37477,"is_reserved":false,"is_disabled":false,"rental_uris":{"android":"levelo://app?vid=23934629-35ed-47e7-b32a-928e51b47c7b","ios":"levelo://app?vid=23934629-35ed-47e7-b32a-928e51b47c7b"},"vehicle_type_id":"4","last_reported":1732270224,"current_range_meters":26800,"station_id":"ce4bgjh2rcd13ifvqbg0","pricing_plan_id":"cebpf4jnsgd1na2vs0mg"},{"bike_id":"d05b8e41-dec1-4669-af10-1f34995f6bf4","system_id":"levelo_inurba_marseille","lat":43.29033,"lon":5.37558,"is_reserved":false,"is_disabled":false,"rental_uris":{"android":"levelo://app?vid=d05b8e41-dec1-4669-af10-1f34995f6bf4","ios":"levelo://app?vid=d05b8e41-dec1-4669-af10-1f34995f6bf4"},"vehicle_type_id":"4","last_reported":1732270224,"current_range_meters":28000,"station_id":"ce4bh692rcd13ifvqe90","pricing_plan_id":"cebpf4jnsgd1na2vs0mg"},{"bike_id":"97f77ec9-81a4-4158-8106-11b6a17be21e","system_id":"levelo_inurba_marseille","lat":43.29563,"lon":5.39966,"is_reserved":false,"is_disabled":false,"rental_uris":{"android":"levelo://app?vid=97f77ec9-81a4-4158-8106-11b6a17be21e","ios":"levelo://app?vid=97f77ec9-81a4-4158-8106-11b6a17be21e"},"vehicle_type_id":"4","last_reported":1732270224,"current_range_meters":33200,"station_id":"ce4bh312rcd13ifvqdj0","pricing_plan_id":"cebpf4jnsgd1na2vs0mg"},{"bike_id":"89fc3613-dcb3-4c03-9e33-c0901b8d1ed9","system_id":"levelo_inurba_marseille","lat":43.313317,"lon":5.367639,"is_reserved":false,"is_disabled":false,"rental_uris":{"android":"levelo://app?vid=89fc3613-dcb3-4c03-9e33-c0901b8d1ed9","ios":"levelo://app?vid=89fc3613-dcb3-4c03-9e33-c0901b8d1ed9"},"vehicle_type_id":"4","last_reported":1732270224,"current_range_meters":38800,"station_id":"ce4bgr92rcd13ifvqc6g","pricing_plan_id":"cebpf4jnsgd1na2vs0mg"},{"bike_id":"8ac6c1b3-c7d7-41f6-b46f-73da676d312d","system_id":"levelo_inurba_marseille","lat":43.28614,"lon":5.35098,"is_reserved":false,"is_disabled":false,"rental_uris":{"android":"levelo://app?vid=8ac6c1b3-c7d7-41f6-b46f-73da676d312d","ios":"levelo://app?vid=8ac6c1b3-c7d7-41f6-b46f-73da676d312d"},"vehicle_type_id":"4","last_reported":1732270224,"current_range_meters":33600,"station_id":"ce4bhch2rcd13ifvqeug","pricing_plan_id":"cebpf4jnsgd1na2vs0mg"},{"bike_id":"c0b31b04-1e8e-4f25-9a03-9ef0c3be9e96","system_id":"levelo_inurba_marseille","lat":43.26201,"lon":5.37925,"is_reserved":false,"is_disabled":false,"rental_uris":{"android":"levelo://app?vid=c0b31b04-1e8e-4f25-9a03-9ef0c3be9e96","ios":"levelo://app?vid=c0b31b04-1e8e-4f25-9a03-9ef0c3be9e96"},"vehicle_type_id":"4","last_reported":1732270224,"current_range_meters":39200,"station_id":"ce4bhjp2rcd13ifvqg90","pricing_plan_id":"cebpf4jnsgd1na2vs0mg"},{"bike_id":"e0d40cf1-bbac-4b8d-8b86-58ebed534fc4","system_id":"levelo_inurba_marseille","lat":43.259377,"lon":5.409072,"is_reserved":false,"is_disabled":false,"rental_uris":{"android":"levelo://app?vid=e0d40cf1-bbac-4b8d-8b86-58ebed534fc4","ios":"levelo://app?vid=e0d40cf1-bbac-4b8d-8b86-58ebed534fc4"},"vehicle_type_id":"4","last_reported":1732270224,"current_range_meters":20400,"station_id":"ce4bhm92rcd13ifvqglg","pricing_plan_id":"cebpf4jnsgd1na2vs0mg"},{"bike_id":"2f09e16b-7298-426a-b658-c69e68fd6700","system_id":"levelo_inurba_marseille","lat":43.24077,"lon":5.3776,"is_reserved":false,"is_disabled":false,"rental_uris":{"android":"levelo://app?vid=2f09e16b-7298-426a-b658-c69e68fd6700","ios":"levelo://app?vid=2f09e16b-7298-426a-b658-c69e68fd6700"},"vehicle_type_id":"4","last_reported":1732270224,"current_range_meters":31200,"station_id":"ce4bhnp2rcd13ifvqgvg","pricing_plan_id":"cebpf4jnsgd1na2vs0mg"},{"bike_id":"1904e4d6-e1e0-456f-9800-8b0e0e7107b4","system_id":"levelo_inurba_marseille","lat":43.23152,"lon":5.43705,"is_reserved":false,"is_disabled":false,"rental_uris":{"android":"levelo://app?vid=1904e4d6-e1e0-456f-9800-8b0e0e7107b4","ios":"levelo://app?vid=1904e4d6-e1e0-456f-9800-8b0e0e7107b4"},"vehicle_type_id":"4","last_reported":1732270224,"current_range_meters":39200,"station_id":"ce4bhmp2rcd13ifvqgog","pricing_plan_id":"cebpf4jnsgd1na2vs0mg"},{"bike_id":"51654fed-9c06-4ccc-8baa-01fb71e67e1e","system_id":"levelo_inurba_marseille","lat":43.23184,"lon":5.39989,"is_reserved":false,"is_disabled":false,"rental_uris":{"android":"levelo://app?vid=51654fed-9c06-4ccc-8baa-01fb71e67e1e","ios":"levelo://app?vid=51654fed-9c06-4ccc-8baa-01fb71e67e1e"},"vehicle_type_id":"4","last_reported":1732270224,"current_range_meters":22800,"station_id":"ce4bhn12rcd13ifvqgqg","pricing_plan_id":"cebpf4jnsgd1na2vs0mg"},{"bike_id":"53541901-1b41-4836-bc26-ee7c144c55f6","system_id":"levelo_inurba_marseille","lat":43.30138,"lon":5.37418,"is_reserved":false,"is_disabled":false,"rental_uris":{"android":"levelo://app?vid=53541901-1b41-4836-bc26-ee7c144c55f6","ios":"levelo://app?vid=53541901-1b41-4836-bc26-ee7c144c55f6"},"vehicle_type_id":"4","last_reported":1732270224,"current_range_meters":31200,"station_id":"ce4bgs92rcd13ifvqcc0","pricing_plan_id":"cebpf4jnsgd1na2vs0mg"},{"bike_id":"309367b1-502d-4a72-a511-556aa80f8a91","system_id":"levelo_inurba_marseille","lat":43.30154,"lon":5.38084,"is_reserved":false,"is_disabled":false,"rental_uris":{"android":"levelo://app?vid=309367b1-502d-4a72-a511-556aa80f8a91","ios":"levelo://app?vid=309367b1-502d-4a72-a511-556aa80f8a91"},"vehicle_type_id":"4","last_reported":1732270224,"current_range_meters":28400,"station_id":"ce4bgjp2rcd13ifvqbh0","pricing_plan_id":"cebpf4jnsgd1na2vs0mg"},{"bike_id":"fb464efd-41d7-48bd-b462-3539b1011beb","system_id":"levelo_inurba_marseille","lat":43.3054,"lon":5.36531,"is_reserved":false,"is_disabled":false,"rental_uris":{"android":"levelo://app?vid=fb464efd-41d7-48bd-b462-3539b1011beb","ios":"levelo://app?vid=fb464efd-41d7-48bd-b462-3539b1011beb"},"vehicle_type_id":"4","last_reported":1732270224,"current_range_meters":30400,"station_id":"ce4bgs12rcd13ifvqcag","pricing_plan_id":"cebpf4jnsgd1na2vs0mg"},{"bike_id":"1eff5ce5-2d56-4465-a12c-60db9ec2175a","system_id":"levelo_inurba_marseille","lat":43.22926,"lon":5.35375,"is_reserved":false,"is_disabled":false,"rental_uris":{"android":"levelo://app?vid=1eff5ce5-2d56-4465-a12c-60db9ec2175a","ios":"levelo://app?vid=1eff5ce5-2d56-4465-a12c-60db9ec2175a"},"vehicle_type_id":"4","last_reported":1732270224,"current_range_meters":6400,"station_id":"cpo3532slgdg3j2ikp40","pricing_plan_id":"cebpf4jnsgd1na2vs0mg"},{"bike_id":"ce6d46e5-4223-4bce-a0db-85f63ca84039","system_id":"levelo_inurba_marseille","lat":43.30148,"lon":5.40053,"is_reserved":false,"is_disabled":true,"rental_uris":{"android":"levelo://app?vid=ce6d46e5-4223-4bce-a0db-85f63ca84039","ios":"levelo://app?vid=ce6d46e5-4223-4bce-a0db-85f63ca84039"},"vehicle_type_id":"4","last_reported":1732270224,"current_range_meters":0,"station_id":"","pricing_plan_id":"cebpf4jnsgd1na2vs0mg"},{"bike_id":"dc815649-e3e3-48aa-b0fd-022cdb8ac58a","system_id":"levelo_inurba_marseille","lat":43.32368,"lon":5.38882,"is_reserved":false,"is_disabled":false,"rental_uris":{"android":"levelo://app?vid=dc815649-e3e3-48aa-b0fd-022cdb8ac58a","ios":"levelo://app?vid=dc815649-e3e3-48aa-b0fd-022cdb8ac58a"},"vehicle_type_id":"4","last_reported":1732270224,"current_range_meters":36800,"station_id":"ce4bhqp2rcd13ifvqhog","pricing_plan_id":"cebpf4jnsgd1na2vs0mg"},{"bike_id":"22bf3d87-dbb2-41f0-ae52-3719720b6a9d","system_id":"levelo_inurba_marseille","lat":43.26954,"lon":5.38621,"is_reserved":false,"is_disabled":false,"rental_uris":{"android":"levelo://app?vid=22bf3d87-dbb2-41f0-ae52-3719720b6a9d","ios":"levelo://app?vid=22bf3d87-dbb2-41f0-ae52-3719720b6a9d"},"vehicle_type_id":"4","last_reported":1732270224,"current_range_meters":24800,"station_id":"ce4bhh92rcd13ifvqfh0","pricing_plan_id":"cebpf4jnsgd1na2vs0mg"},{"bike_id":"0e79498f-95c1-4de2-8324-6f58d4c27865","system_id":"levelo_inurba_marseille","lat":43.29304,"lon":5.37171,"is_reserved":false,"is_disabled":false,"rental_uris":{"android":"levelo://app?vid=0e79498f-95c1-4de2-8324-6f58d4c27865","ios":"levelo://app?vid=0e79498f-95c1-4de2-8324-6f58d4c27865"},"vehicle_type_id":"4","last_reported":1732270224,"current_range_meters":32800,"station_id":"ce4bgh92rcd13ifvqb40","pricing_plan_id":"cebpf4jnsgd1na2vs0mg"},{"bike_id":"7f7d84ed-23c2-4538-9329-9b81af03e81d","system_id":"levelo_inurba_marseille","lat":43.24176,"lon":5.39716,"is_reserved":false,"is_disabled":false,"rental_uris":{"android":"levelo://app?vid=7f7d84ed-23c2-4538-9329-9b81af03e81d","ios":"levelo://app?vid=7f7d84ed-23c2-4538-9329-9b81af03e81d"},"vehicle_type_id":"4","last_reported":1732270224,"current_range_meters":38800,"station_id":"ce4bhn12rcd13ifvqgpg","pricing_plan_id":"cebpf4jnsgd1na2vs0mg"},{"bike_id":"09ee12a7-2e68-4267-aa97-5877a160df71","system_id":"levelo_inurba_marseille","lat":43.27815,"lon":5.40717,"is_reserved":false,"is_disabled":false,"rental_uris":{"android":"levelo://app?vid=09ee12a7-2e68-4267-aa97-5877a160df71","ios":"levelo://app?vid=09ee12a7-2e68-4267-aa97-5877a160df71"},"vehicle_type_id":"4","last_reported":1732270224,"current_range_meters":39200,"station_id":"ce4bhnh2rcd13ifvqgtg","pricing_plan_id":"cebpf4jnsgd1na2vs0mg"},{"bike_id":"9aca1c63-a873-4e6a-bad4-3e14ed33b27b","system_id":"levelo_inurba_marseille","lat":43.28467,"lon":5.3588,"is_reserved":false,"is_disabled":false,"rental_uris":{"android":"levelo://app?vid=9aca1c63-a873-4e6a-bad4-3e14ed33b27b","ios":"levelo://app?vid=9aca1c63-a873-4e6a-bad4-3e14ed33b27b"},"vehicle_type_id":"4","last_reported":1732270224,"current_range_meters":26000,"station_id":"ce4bhah2rcd13ifvqei0","pricing_plan_id":"cebpf4jnsgd1na2vs0mg"},{"bike_id":"cead98ce-e9d9-44ca-8173-41234fc4c76c","system_id":"levelo_inurba_marseille","lat":43.29621,"lon":5.37162,"is_reserved":false,"is_disabled":false,"rental_uris":{"android":"levelo://app?vid=cead98ce-e9d9-44ca-8173-41234fc4c76c","ios":"levelo://app?vid=cead98ce-e9d9-44ca-8173-41234fc4c76c"},"vehicle_type_id":"4","last_reported":1732270224,"current_range_meters":30000,"station_id":"ce4bgnh2rcd13ifvqc0g","pricing_plan_id":"cebpf4jnsgd1na2vs0mg"},{"bike_id":"2a6dd5c3-8a4f-4a37-84b8-adc9c7ab26fc","system_id":"levelo_inurba_marseille","lat":43.27319,"lon":5.39078,"is_reserved":false,"is_disabled":false,"rental_uris":{"android":"levelo://app?vid=2a6dd5c3-8a4f-4a37-84b8-adc9c7ab26fc","ios":"levelo://app?vid=2a6dd5c3-8a4f-4a37-84b8-adc9c7ab26fc"},"vehicle_type_id":"4","last_reported":1732270224,"current_range_meters":38000,"station_id":"ce4bhgp2rcd13ifvqfe0","pricing_plan_id":"cebpf4jnsgd1na2vs0mg"},{"bike_id":"9297b7a9-6b82-4bc8-a2dc-63103a45204e","system_id":"levelo_inurba_marseille","lat":43.27204,"lon":5.39175,"is_reserved":false,"is_disabled":false,"rental_uris":{"android":"levelo://app?vid=9297b7a9-6b82-4bc8-a2dc-63103a45204e","ios":"levelo://app?vid=9297b7a9-6b82-4bc8-a2dc-63103a45204e"},"vehicle_type_id":"4","last_reported":1732270224,"current_range_meters":25600,"station_id":"ce4bhhp2rcd13ifvqfm0","pricing_plan_id":"cebpf4jnsgd1na2vs0mg"},{"bike_id":"3c7c46ac-905f-45a4-b7c9-ee7ca81d83f8","system_id":"levelo_inurba_marseille","lat":43.29615,"lon":5.40586,"is_reserved":false,"is_disabled":false,"rental_uris":{"android":"levelo://app?vid=3c7c46ac-905f-45a4-b7c9-ee7ca81d83f8","ios":"levelo://app?vid=3c7c46ac-905f-45a4-b7c9-ee7ca81d83f8"},"vehicle_type_id":"4","last_reported":1732270224,"current_range_meters":38800,"station_id":"ce4bh0h2rcd13ifvqd60","pricing_plan_id":"cebpf4jnsgd1na2vs0mg"},{"bike_id":"b75cd2c3-c33b-422f-b953-522cda641dd1","system_id":"levelo_inurba_marseille","lat":43.25105,"lon":5.40331,"is_reserved":false,"is_disabled":false,"rental_uris":{"android":"levelo://app?vid=b75cd2c3-c33b-422f-b953-522cda641dd1","ios":"levelo://app?vid=b75cd2c3-c33b-422f-b953-522cda641dd1"},"vehicle_type_id":"4","last_reported":1732270224,"current_range_meters":38000,"station_id":"ce4bhlh2rcd13ifvqgig","pricing_plan_id":"cebpf4jnsgd1na2vs0mg"},{"bike_id":"8e5f7d32-6613-4d7e-b53d-b5ddff5cb6c6","system_id":"levelo_inurba_marseille","lat":43.23962,"lon":5.36618,"is_reserved":false,"is_disabled":false,"rental_uris":{"android":"levelo://app?vid=8e5f7d32-6613-4d7e-b53d-b5ddff5cb6c6","ios":"levelo://app?vid=8e5f7d32-6613-4d7e-b53d-b5ddff5cb6c6"},"vehicle_type_id":"4","last_reported":1732270224,"current_range_meters":39200,"station_id":"ce4bhi12rcd13ifvqfp0","pricing_plan_id":"cebpf4jnsgd1na2vs0mg"},{"bike_id":"158609aa-b42c-443c-b67f-06eaa2db6787","system_id":"levelo_inurba_marseille","lat":43.29282,"lon":5.4013,"is_reserved":false,"is_disabled":false,"rental_uris":{"android":"levelo://app?vid=158609aa-b42c-443c-b67f-06eaa2db6787","ios":"levelo://app?vid=158609aa-b42c-443c-b67f-06eaa2db6787"},"vehicle_type_id":"4","last_reported":1732270224,"current_range_meters":30400,"station_id":"ce4bh312rcd13ifvqdk0","pricing_plan_id":"cebpf4jnsgd1na2vs0mg"},{"bike_id":"8bd7943a-d6e3-4b69-8209-bb9f99b76dde","system_id":"levelo_inurba_marseille","lat":43.28845,"lon":5.39976,"is_reserved":false,"is_disabled":true,"rental_uris":{"android":"levelo://app?vid=8bd7943a-d6e3-4b69-8209-bb9f99b76dde","ios":"levelo://app?vid=8bd7943a-d6e3-4b69-8209-bb9f99b76dde"},"vehicle_type_id":"4","last_reported":1732270224,"current_range_meters":14400,"station_id":"","pricing_plan_id":"cebpf4jnsgd1na2vs0mg"},{"bike_id":"5e159b6f-942d-4fa3-8522-9c8d391fe4c4","system_id":"levelo_inurba_marseille","lat":43.30947,"lon":5.39027,"is_reserved":false,"is_disabled":false,"rental_uris":{"android":"levelo://app?vid=5e159b6f-942d-4fa3-8522-9c8d391fe4c4","ios":"levelo://app?vid=5e159b6f-942d-4fa3-8522-9c8d391fe4c4"},"vehicle_type_id":"4","last_reported":1732270224,"current_range_meters":28000,"station_id":"ce4bgup2rcd13ifvqco0","pricing_plan_id":"cebpf4jnsgd1na2vs0mg"},{"bike_id":"2215a330-7574-41d3-ab87-46c653a89b74","system_id":"levelo_inurba_marseille","lat":43.30275,"lon":5.37693,"is_reserved":false,"is_disabled":false,"rental_uris":{"android":"levelo://app?vid=2215a330-7574-41d3-ab87-46c653a89b74","ios":"levelo://app?vid=2215a330-7574-41d3-ab87-46c653a89b74"},"vehicle_type_id":"4","last_reported":1732270224,"current_range_meters":27600,"station_id":"ce4bguh2rcd13ifvqcj0","pricing_plan_id":"cebpf4jnsgd1na2vs0mg"},{"bike_id":"231c7bbc-4cef-4843-98ff-a1d1aa950473","system_id":"levelo_inurba_marseille","lat":43.33603,"lon":5.41027,"is_reserved":false,"is_disabled":false,"rental_uris":{"android":"levelo://app?vid=231c7bbc-4cef-4843-98ff-a1d1aa950473","ios":"levelo://app?vid=231c7bbc-4cef-4843-98ff-a1d1aa950473"},"vehicle_type_id":"4","last_reported":1732270224,"current_range_meters":28800,"station_id":"ce4bhqh2rcd13ifvqhmg","pricing_plan_id":"cebpf4jnsgd1na2vs0mg"},{"bike_id":"277b71be-67e2-4918-b058-c20313be331a","system_id":"levelo_inurba_marseille","lat":43.29257,"lon":5.40908,"is_reserved":false,"is_disabled":true,"rental_uris":{"android":"levelo://app?vid=277b71be-67e2-4918-b058-c20313be331a","ios":"levelo://app?vid=277b71be-67e2-4918-b058-c20313be331a"},"vehicle_type_id":"4","last_reported":1732270224,"current_range_meters":38800,"station_id":"ce4bh192rcd13ifvqdc0","pricing_plan_id":"cebpf4jnsgd1na2vs0mg"},{"bike_id":"026c19ff-fdc4-444d-9e3b-254277550f87","system_id":"levelo_inurba_marseille","lat":43.2846,"lon":5.35888,"is_reserved":false,"is_disabled":false,"rental_uris":{"android":"levelo://app?vid=026c19ff-fdc4-444d-9e3b-254277550f87","ios":"levelo://app?vid=026c19ff-fdc4-444d-9e3b-254277550f87"},"vehicle_type_id":"4","last_reported":1732270224,"current_range_meters":30400,"station_id":"ce4bhah2rcd13ifvqei0","pricing_plan_id":"cebpf4jnsgd1na2vs0mg"},{"bike_id":"d50fae79-a23b-4b26-bc0c-86364a6bce7e","system_id":"levelo_inurba_marseille","lat":43.31997,"lon":5.38148,"is_reserved":false,"is_disabled":false,"rental_uris":{"android":"levelo://app?vid=d50fae79-a23b-4b26-bc0c-86364a6bce7e","ios":"levelo://app?vid=d50fae79-a23b-4b26-bc0c-86364a6bce7e"},"vehicle_type_id":"4","last_reported":1732270224,"current_range_meters":39200,"station_id":"ce4bhr12rcd13ifvqhpg","pricing_plan_id":"cebpf4jnsgd1na2vs0mg"},{"bike_id":"ca23a4d7-89b4-4fd8-ae96-8d96a63b192e","system_id":"levelo_inurba_marseille","lat":43.24648,"lon":5.38893,"is_reserved":false,"is_disabled":false,"rental_uris":{"android":"levelo://app?vid=ca23a4d7-89b4-4fd8-ae96-8d96a63b192e","ios":"levelo://app?vid=ca23a4d7-89b4-4fd8-ae96-8d96a63b192e"},"vehicle_type_id":"4","last_reported":1732270224,"current_range_meters":38800,"station_id":"ce4bhg12rcd13ifvqf60","pricing_plan_id":"cebpf4jnsgd1na2vs0mg"},{"bike_id":"5bb53997-16cc-4e9d-9efd-4d78a7f59ad6","system_id":"levelo_inurba_marseille","lat":43.30546,"lon":5.3653,"is_reserved":false,"is_disabled":false,"rental_uris":{"android":"levelo://app?vid=5bb53997-16cc-4e9d-9efd-4d78a7f59ad6","ios":"levelo://app?vid=5bb53997-16cc-4e9d-9efd-4d78a7f59ad6"},"vehicle_type_id":"4","last_reported":1732270224,"current_range_meters":12400,"station_id":"ce4bgs12rcd13ifvqcag","pricing_plan_id":"cebpf4jnsgd1na2vs0mg"},{"bike_id":"b66962c2-9c30-4a63-8bb9-64fa09aabca2","system_id":"levelo_inurba_marseille","lat":43.24388,"lon":5.37051,"is_reserved":false,"is_disabled":false,"rental_uris":{"android":"levelo://app?vid=b66962c2-9c30-4a63-8bb9-64fa09aabca2","ios":"levelo://app?vid=b66962c2-9c30-4a63-8bb9-64fa09aabca2"},"vehicle_type_id":"4","last_reported":1732270224,"current_range_meters":19200,"station_id":"ce4bhhh2rcd13ifvqfk0","pricing_plan_id":"cebpf4jnsgd1na2vs0mg"},{"bike_id":"f731bd0d-67a2-465d-aca7-fa84918b66dd","system_id":"levelo_inurba_marseille","lat":43.28613,"lon":5.35103,"is_reserved":false,"is_disabled":false,"rental_uris":{"android":"levelo://app?vid=f731bd0d-67a2-465d-aca7-fa84918b66dd","ios":"levelo://app?vid=f731bd0d-67a2-465d-aca7-fa84918b66dd"},"vehicle_type_id":"4","last_reported":1732270224,"current_range_meters":6400,"station_id":"ce4bhch2rcd13ifvqeug","pricing_plan_id":"cebpf4jnsgd1na2vs0mg"},{"bike_id":"a8598b14-3a8c-4f36-81ad-f85294e9ecfe","system_id":"levelo_inurba_marseille","lat":43.25006,"lon":5.38927,"is_reserved":false,"is_disabled":false,"rental_uris":{"android":"levelo://app?vid=a8598b14-3a8c-4f36-81ad-f85294e9ecfe","ios":"levelo://app?vid=a8598b14-3a8c-4f36-81ad-f85294e9ecfe"},"vehicle_type_id":"4","last_reported":1732270224,"current_range_meters":38000,"station_id":"ce4bhgp2rcd13ifvqfd0","pricing_plan_id":"cebpf4jnsgd1na2vs0mg"},{"bike_id":"ce9fb9d4-5647-49dc-ab9f-a1547699654d","system_id":"levelo_inurba_marseille","lat":43.30137,"lon":5.3741,"is_reserved":false,"is_disabled":false,"rental_uris":{"android":"levelo://app?vid=ce9fb9d4-5647-49dc-ab9f-a1547699654d","ios":"levelo://app?vid=ce9fb9d4-5647-49dc-ab9f-a1547699654d"},"vehicle_type_id":"4","last_reported":1732270224,"current_range_meters":12400,"station_id":"ce4bgs92rcd13ifvqcc0","pricing_plan_id":"cebpf4jnsgd1na2vs0mg"},{"bike_id":"552ae1f9-34eb-4d70-a19b-3616d3661778","system_id":"levelo_inurba_marseille","lat":43.33721,"lon":5.39181,"is_reserved":false,"is_disabled":false,"rental_uris":{"android":"levelo://app?vid=552ae1f9-34eb-4d70-a19b-3616d3661778","ios":"levelo://app?vid=552ae1f9-34eb-4d70-a19b-3616d3661778"},"vehicle_type_id":"4","last_reported":1732270224,"current_range_meters":25600,"station_id":"ce4bhr92rcd13ifvqhsg","pricing_plan_id":"cebpf4jnsgd1na2vs0mg"},{"bike_id":"33f180e5-fbda-4190-aa03-787246dc5910","system_id":"levelo_inurba_marseille","lat":43.30885,"lon":5.37189,"is_reserved":false,"is_disabled":false,"rental_uris":{"android":"levelo://app?vid=33f180e5-fbda-4190-aa03-787246dc5910","ios":"levelo://app?vid=33f180e5-fbda-4190-aa03-787246dc5910"},"vehicle_type_id":"4","last_reported":1732270224,"current_range_meters":38800,"station_id":"ce4bguh2rcd13ifvqckg","pricing_plan_id":"cebpf4jnsgd1na2vs0mg"},{"bike_id":"7511195d-8826-4960-a89f-c5ab13e35235","system_id":"levelo_inurba_marseille","lat":43.26942,"lon":5.38623,"is_reserved":false,"is_disabled":true,"rental_uris":{"android":"levelo://app?vid=7511195d-8826-4960-a89f-c5ab13e35235","ios":"levelo://app?vid=7511195d-8826-4960-a89f-c5ab13e35235"},"vehicle_type_id":"4","last_reported":1732270224,"current_range_meters":0,"station_id":"ce4bhh92rcd13ifvqfh0","pricing_plan_id":"cebpf4jnsgd1na2vs0mg"},{"bike_id":"028e5427-36e2-49e1-b3db-260058fffb58","system_id":"levelo_inurba_marseille","lat":43.2558,"lon":5.38238,"is_reserved":false,"is_disabled":false,"rental_uris":{"android":"levelo://app?vid=028e5427-36e2-49e1-b3db-260058fffb58","ios":"levelo://app?vid=028e5427-36e2-49e1-b3db-260058fffb58"},"vehicle_type_id":"4","last_reported":1732270224,"current_range_meters":17600,"station_id":"ce4bhih2rcd13ifvqfs0","pricing_plan_id":"cebpf4jnsgd1na2vs0mg"},{"bike_id":"0f34c480-84cb-4b12-9072-a6f844830c03","system_id":"levelo_inurba_marseille","lat":43.23195,"lon":5.35548,"is_reserved":false,"is_disabled":false,"rental_uris":{"android":"levelo://app?vid=0f34c480-84cb-4b12-9072-a6f844830c03","ios":"levelo://app?vid=0f34c480-84cb-4b12-9072-a6f844830c03"},"vehicle_type_id":"4","last_reported":1732270224,"current_range_meters":38400,"station_id":"ce4bhu92rcd13ifvqi70","pricing_plan_id":"cebpf4jnsgd1na2vs0mg"},{"bike_id":"1453fddf-c64f-4c02-ace1-55caffeaf55e","system_id":"levelo_inurba_marseille","lat":43.32288,"lon":5.38268,"is_reserved":false,"is_disabled":false,"rental_uris":{"android":"levelo://app?vid=1453fddf-c64f-4c02-ace1-55caffeaf55e","ios":"levelo://app?vid=1453fddf-c64f-4c02-ace1-55caffeaf55e"},"vehicle_type_id":"4","last_reported":1732270224,"current_range_meters":34000,"station_id":"ce4bhr12rcd13ifvqhqg","pricing_plan_id":"cebpf4jnsgd1na2vs0mg"},{"bike_id":"7e17a81f-3b24-49e1-a5fc-e88f9462d78d","system_id":"levelo_inurba_marseille","lat":43.28418,"lon":5.40942,"is_reserved":false,"is_disabled":false,"rental_uris":{"android":"levelo://app?vid=7e17a81f-3b24-49e1-a5fc-e88f9462d78d","ios":"levelo://app?vid=7e17a81f-3b24-49e1-a5fc-e88f9462d78d"},"vehicle_type_id":"4","last_reported":1732270224,"current_range_meters":6000,"station_id":"","pricing_plan_id":"cebpf4jnsgd1na2vs0mg"},{"bike_id":"0d5efe48-32bd-461f-be09-c1d5e2d6ef37","system_id":"levelo_inurba_marseille","lat":43.3237,"lon":5.38887,"is_reserved":false,"is_disabled":false,"rental_uris":{"android":"levelo://app?vid=0d5efe48-32bd-461f-be09-c1d5e2d6ef37","ios":"levelo://app?vid=0d5efe48-32bd-461f-be09-c1d5e2d6ef37"},"vehicle_type_id":"4","last_reported":1732270224,"current_range_meters":34000,"station_id":"ce4bhqp2rcd13ifvqhog","pricing_plan_id":"cebpf4jnsgd1na2vs0mg"},{"bike_id":"dadf66e4-3dde-42d9-8a01-208c3d468f0d","system_id":"levelo_inurba_marseille","lat":43.29099,"lon":5.38149,"is_reserved":false,"is_disabled":false,"rental_uris":{"android":"levelo://app?vid=dadf66e4-3dde-42d9-8a01-208c3d468f0d","ios":"levelo://app?vid=dadf66e4-3dde-42d9-8a01-208c3d468f0d"},"vehicle_type_id":"4","last_reported":1732270224,"current_range_meters":32800,"station_id":"ce4bh512rcd13ifvqe2g","pricing_plan_id":"cebpf4jnsgd1na2vs0mg"},{"bike_id":"61f0e660-3916-460b-ac79-c18b9b1dd5f0","system_id":"levelo_inurba_marseille","lat":43.29033,"lon":5.37556,"is_reserved":false,"is_disabled":true,"rental_uris":{"android":"levelo://app?vid=61f0e660-3916-460b-ac79-c18b9b1dd5f0","ios":"levelo://app?vid=61f0e660-3916-460b-ac79-c18b9b1dd5f0"},"vehicle_type_id":"4","last_reported":1732270224,"current_range_meters":8800,"station_id":"ce4bh692rcd13ifvqe90","pricing_plan_id":"cebpf4jnsgd1na2vs0mg"},{"bike_id":"7cf0e7e4-2cb6-4123-b4f0-d8c0d6b6fc68","system_id":"levelo_inurba_marseille","lat":43.30215,"lon":5.3947,"is_reserved":false,"is_disabled":false,"rental_uris":{"android":"levelo://app?vid=7cf0e7e4-2cb6-4123-b4f0-d8c0d6b6fc68","ios":"levelo://app?vid=7cf0e7e4-2cb6-4123-b4f0-d8c0d6b6fc68"},"vehicle_type_id":"4","last_reported":1732270224,"current_range_meters":36400,"station_id":"ce4bh0p2rcd13ifvqd70","pricing_plan_id":"cebpf4jnsgd1na2vs0mg"},{"bike_id":"af1d391e-a6b0-4795-b6eb-ade8e77265c8","system_id":"levelo_inurba_marseille","lat":43.27428,"lon":5.39411,"is_reserved":false,"is_disabled":true,"rental_uris":{"android":"levelo://app?vid=af1d391e-a6b0-4795-b6eb-ade8e77265c8","ios":"levelo://app?vid=af1d391e-a6b0-4795-b6eb-ade8e77265c8"},"vehicle_type_id":"4","last_reported":1732270224,"current_range_meters":1600,"station_id":"ce4bhdp2rcd13ifvqf20","pricing_plan_id":"cebpf4jnsgd1na2vs0mg"},{"bike_id":"6c985fe0-19ec-4919-92d0-dda502b8988c","system_id":"levelo_inurba_marseille","lat":43.30542,"lon":5.36522,"is_reserved":false,"is_disabled":false,"rental_uris":{"android":"levelo://app?vid=6c985fe0-19ec-4919-92d0-dda502b8988c","ios":"levelo://app?vid=6c985fe0-19ec-4919-92d0-dda502b8988c"},"vehicle_type_id":"4","last_reported":1732270224,"current_range_meters":35600,"station_id":"ce4bgs12rcd13ifvqcag","pricing_plan_id":"cebpf4jnsgd1na2vs0mg"},{"bike_id":"c2a59ab3-d6b8-4918-82c9-bfcce921601e","system_id":"levelo_inurba_marseille","lat":43.32491,"lon":5.36563,"is_reserved":false,"is_disabled":false,"rental_uris":{"android":"levelo://app?vid=c2a59ab3-d6b8-4918-82c9-bfcce921601e","ios":"levelo://app?vid=c2a59ab3-d6b8-4918-82c9-bfcce921601e"},"vehicle_type_id":"4","last_reported":1732270224,"current_range_meters":18800,"station_id":"ce4bhs12rcd13ifvqhvg","pricing_plan_id":"cebpf4jnsgd1na2vs0mg"},{"bike_id":"5657f533-79ae-408e-830e-682f6e5f129f","system_id":"levelo_inurba_marseille","lat":43.30144,"lon":5.37419,"is_reserved":false,"is_disabled":false,"rental_uris":{"android":"levelo://app?vid=5657f533-79ae-408e-830e-682f6e5f129f","ios":"levelo://app?vid=5657f533-79ae-408e-830e-682f6e5f129f"},"vehicle_type_id":"4","last_reported":1732270224,"current_range_meters":24800,"station_id":"ce4bgs92rcd13ifvqcc0","pricing_plan_id":"cebpf4jnsgd1na2vs0mg"},{"bike_id":"3814d5d3-9e1a-4999-b1c9-82bf61d0e64f","system_id":"levelo_inurba_marseille","lat":43.29552,"lon":5.42282,"is_reserved":false,"is_disabled":true,"rental_uris":{"android":"levelo://app?vid=3814d5d3-9e1a-4999-b1c9-82bf61d0e64f","ios":"levelo://app?vid=3814d5d3-9e1a-4999-b1c9-82bf61d0e64f"},"vehicle_type_id":"4","last_reported":1732270224,"current_range_meters":0,"station_id":"ce4bhph2rcd13ifvqhdg","pricing_plan_id":"cebpf4jnsgd1na2vs0mg"},{"bike_id":"a85331d0-4c60-4113-a7d3-9f6626d3954f","system_id":"levelo_inurba_marseille","lat":43.30532,"lon":5.38423,"is_reserved":false,"is_disabled":false,"rental_uris":{"android":"levelo://app?vid=a85331d0-4c60-4113-a7d3-9f6626d3954f","ios":"levelo://app?vid=a85331d0-4c60-4113-a7d3-9f6626d3954f"},"vehicle_type_id":"4","last_reported":1732270224,"current_range_meters":16800,"station_id":"ce4bgg92rcd13ifvqb30","pricing_plan_id":"cebpf4jnsgd1na2vs0mg"},{"bike_id":"aa2508e3-f617-4ce8-b37c-b6f878341a38","system_id":"levelo_inurba_marseille","lat":43.3254,"lon":5.41444,"is_reserved":false,"is_disabled":false,"rental_uris":{"android":"levelo://app?vid=aa2508e3-f617-4ce8-b37c-b6f878341a38","ios":"levelo://app?vid=aa2508e3-f617-4ce8-b37c-b6f878341a38"},"vehicle_type_id":"4","last_reported":1732270224,"current_range_meters":20400,"station_id":"ce4bhq12rcd13ifvqhhg","pricing_plan_id":"cebpf4jnsgd1na2vs0mg"},{"bike_id":"6ea16184-c107-43e7-b54a-560211479305","system_id":"levelo_inurba_marseille","lat":43.31353,"lon":5.3671,"is_reserved":false,"is_disabled":false,"rental_uris":{"android":"levelo://app?vid=6ea16184-c107-43e7-b54a-560211479305","ios":"levelo://app?vid=6ea16184-c107-43e7-b54a-560211479305"},"vehicle_type_id":"4","last_reported":1732270224,"current_range_meters":29600,"station_id":"ce4bgr92rcd13ifvqc6g","pricing_plan_id":"cebpf4jnsgd1na2vs0mg"},{"bike_id":"78334787-37ce-47f8-9b29-5f24b137ba34","system_id":"levelo_inurba_marseille","lat":43.24076,"lon":5.37762,"is_reserved":false,"is_disabled":false,"rental_uris":{"android":"levelo://app?vid=78334787-37ce-47f8-9b29-5f24b137ba34","ios":"levelo://app?vid=78334787-37ce-47f8-9b29-5f24b137ba34"},"vehicle_type_id":"4","last_reported":1732270224,"current_range_meters":38400,"station_id":"ce4bhnp2rcd13ifvqgvg","pricing_plan_id":"cebpf4jnsgd1na2vs0mg"},{"bike_id":"93632465-b062-40a8-b2b9-0dad6e04db5e","system_id":"levelo_inurba_marseille","lat":43.32542,"lon":5.41438,"is_reserved":false,"is_disabled":false,"rental_uris":{"android":"levelo://app?vid=93632465-b062-40a8-b2b9-0dad6e04db5e","ios":"levelo://app?vid=93632465-b062-40a8-b2b9-0dad6e04db5e"},"vehicle_type_id":"4","last_reported":1732270224,"current_range_meters":16000,"station_id":"ce4bhq12rcd13ifvqhhg","pricing_plan_id":"cebpf4jnsgd1na2vs0mg"},{"bike_id":"c9684ed6-1989-466d-9393-c862d38c6d08","system_id":"levelo_inurba_marseille","lat":43.31075,"lon":5.38348,"is_reserved":false,"is_disabled":false,"rental_uris":{"android":"levelo://app?vid=c9684ed6-1989-466d-9393-c862d38c6d08","ios":"levelo://app?vid=c9684ed6-1989-466d-9393-c862d38c6d08"},"vehicle_type_id":"4","last_reported":1732270224,"current_range_meters":27200,"station_id":"ce4bgv92rcd13ifvqcr0","pricing_plan_id":"cebpf4jnsgd1na2vs0mg"},{"bike_id":"fd447cfc-d8cb-4bb5-a987-666257a3522e","system_id":"levelo_inurba_marseille","lat":43.26952,"lon":5.38644,"is_reserved":false,"is_disabled":false,"rental_uris":{"android":"levelo://app?vid=fd447cfc-d8cb-4bb5-a987-666257a3522e","ios":"levelo://app?vid=fd447cfc-d8cb-4bb5-a987-666257a3522e"},"vehicle_type_id":"4","last_reported":1732270224,"current_range_meters":39200,"station_id":"ce4bhh92rcd13ifvqfh0","pricing_plan_id":"cebpf4jnsgd1na2vs0mg"},{"bike_id":"e5951ee3-4a5a-4ebb-b469-096c5188dfa3","system_id":"levelo_inurba_marseille","lat":43.23187,"lon":5.35555,"is_reserved":false,"is_disabled":false,"rental_uris":{"android":"levelo://app?vid=e5951ee3-4a5a-4ebb-b469-096c5188dfa3","ios":"levelo://app?vid=e5951ee3-4a5a-4ebb-b469-096c5188dfa3"},"vehicle_type_id":"4","last_reported":1732270224,"current_range_meters":28800,"station_id":"ce4bhu92rcd13ifvqi70","pricing_plan_id":"cebpf4jnsgd1na2vs0mg"},{"bike_id":"c7b67269-1311-4192-8b17-da1d56ef1a47","system_id":"levelo_inurba_marseille","lat":43.25118,"lon":5.40319,"is_reserved":false,"is_disabled":false,"rental_uris":{"android":"levelo://app?vid=c7b67269-1311-4192-8b17-da1d56ef1a47","ios":"levelo://app?vid=c7b67269-1311-4192-8b17-da1d56ef1a47"},"vehicle_type_id":"4","last_reported":1732270224,"current_range_meters":28400,"station_id":"ce4bhlh2rcd13ifvqgig","pricing_plan_id":"cebpf4jnsgd1na2vs0mg"},{"bike_id":"8d13985d-3bdf-49ab-9373-fe6216716dff","system_id":"levelo_inurba_marseille","lat":43.27449,"lon":5.39032,"is_reserved":false,"is_disabled":false,"rental_uris":{"android":"levelo://app?vid=8d13985d-3bdf-49ab-9373-fe6216716dff","ios":"levelo://app?vid=8d13985d-3bdf-49ab-9373-fe6216716dff"},"vehicle_type_id":"4","last_reported":1732270224,"current_range_meters":30800,"station_id":"","pricing_plan_id":"cebpf4jnsgd1na2vs0mg"},{"bike_id":"8d00283a-31eb-4269-bbeb-d86ae4d6148a","system_id":"levelo_inurba_marseille","lat":43.29376,"lon":5.37827,"is_reserved":false,"is_disabled":false,"rental_uris":{"android":"levelo://app?vid=8d00283a-31eb-4269-bbeb-d86ae4d6148a","ios":"levelo://app?vid=8d00283a-31eb-4269-bbeb-d86ae4d6148a"},"vehicle_type_id":"4","last_reported":1732270224,"current_range_meters":38400,"station_id":"ce4bgjh2rcd13ifvqbf0","pricing_plan_id":"cebpf4jnsgd1na2vs0mg"},{"bike_id":"598543c3-4504-4ea3-976e-b45e767de5ed","system_id":"levelo_inurba_marseille","lat":43.32364,"lon":5.38877,"is_reserved":false,"is_disabled":false,"rental_uris":{"android":"levelo://app?vid=598543c3-4504-4ea3-976e-b45e767de5ed","ios":"levelo://app?vid=598543c3-4504-4ea3-976e-b45e767de5ed"},"vehicle_type_id":"4","last_reported":1732270224,"current_range_meters":36800,"station_id":"ce4bhqp2rcd13ifvqhog","pricing_plan_id":"cebpf4jnsgd1na2vs0mg"},{"bike_id":"d5c12476-e159-4982-b3dc-43383aae89b8","system_id":"levelo_inurba_marseille","lat":43.34147,"lon":5.40904,"is_reserved":false,"is_disabled":false,"rental_uris":{"android":"levelo://app?vid=d5c12476-e159-4982-b3dc-43383aae89b8","ios":"levelo://app?vid=d5c12476-e159-4982-b3dc-43383aae89b8"},"vehicle_type_id":"4","last_reported":1732270224,"current_range_meters":38800,"station_id":"ce4bhqh2rcd13ifvqhlg","pricing_plan_id":"cebpf4jnsgd1na2vs0mg"},{"bike_id":"44abef4f-7bb3-417f-9f17-632a234b6e5d","system_id":"levelo_inurba_marseille","lat":43.32102,"lon":5.36772,"is_reserved":false,"is_disabled":false,"rental_uris":{"android":"levelo://app?vid=44abef4f-7bb3-417f-9f17-632a234b6e5d","ios":"levelo://app?vid=44abef4f-7bb3-417f-9f17-632a234b6e5d"},"vehicle_type_id":"4","last_reported":1732270224,"current_range_meters":24000,"station_id":"ce4bhrh2rcd13ifvqhug","pricing_plan_id":"cebpf4jnsgd1na2vs0mg"},{"bike_id":"6c948e9c-d5b3-4fe5-a918-1bd2f7c83b02","system_id":"levelo_inurba_marseille","lat":43.3211,"lon":5.36773,"is_reserved":false,"is_disabled":false,"rental_uris":{"android":"levelo://app?vid=6c948e9c-d5b3-4fe5-a918-1bd2f7c83b02","ios":"levelo://app?vid=6c948e9c-d5b3-4fe5-a918-1bd2f7c83b02"},"vehicle_type_id":"4","last_reported":1732270224,"current_range_meters":38000,"station_id":"ce4bhrh2rcd13ifvqhug","pricing_plan_id":"cebpf4jnsgd1na2vs0mg"},{"bike_id":"9e620abf-d324-4f99-84fc-d67e71109f2a","system_id":"levelo_inurba_marseille","lat":43.31078,"lon":5.42428,"is_reserved":false,"is_disabled":true,"rental_uris":{"android":"levelo://app?vid=9e620abf-d324-4f99-84fc-d67e71109f2a","ios":"levelo://app?vid=9e620abf-d324-4f99-84fc-d67e71109f2a"},"vehicle_type_id":"4","last_reported":1732270224,"current_range_meters":6000,"station_id":"ce4bhp92rcd13ifvqhag","pricing_plan_id":"cebpf4jnsgd1na2vs0mg"},{"bike_id":"6ab994fd-41bb-4326-a3ea-47805c8940b1","system_id":"levelo_inurba_marseille","lat":43.33596,"lon":5.40984,"is_reserved":false,"is_disabled":false,"rental_uris":{"android":"levelo://app?vid=6ab994fd-41bb-4326-a3ea-47805c8940b1","ios":"levelo://app?vid=6ab994fd-41bb-4326-a3ea-47805c8940b1"},"vehicle_type_id":"4","last_reported":1732270224,"current_range_meters":10000,"station_id":"ce4bhqh2rcd13ifvqhmg","pricing_plan_id":"cebpf4jnsgd1na2vs0mg"},{"bike_id":"9f1a6fc0-500d-4d6c-8b23-95f788123526","system_id":"levelo_inurba_marseille","lat":43.29581,"lon":5.37512,"is_reserved":false,"is_disabled":false,"rental_uris":{"android":"levelo://app?vid=9f1a6fc0-500d-4d6c-8b23-95f788123526","ios":"levelo://app?vid=9f1a6fc0-500d-4d6c-8b23-95f788123526"},"vehicle_type_id":"4","last_reported":1732270224,"current_range_meters":36800,"station_id":"ce4bgh92rcd13ifvqb50","pricing_plan_id":"cebpf4jnsgd1na2vs0mg"},{"bike_id":"601b0dc6-014c-4a2e-80d5-10f0a5109697","system_id":"levelo_inurba_marseille","lat":43.30275,"lon":5.37719,"is_reserved":false,"is_disabled":false,"rental_uris":{"android":"levelo://app?vid=601b0dc6-014c-4a2e-80d5-10f0a5109697","ios":"levelo://app?vid=601b0dc6-014c-4a2e-80d5-10f0a5109697"},"vehicle_type_id":"4","last_reported":1732270224,"current_range_meters":22400,"station_id":"ce4bguh2rcd13ifvqcj0","pricing_plan_id":"cebpf4jnsgd1na2vs0mg"},{"bike_id":"37b6d4f4-662d-4bc2-957b-f7d669af0480","system_id":"levelo_inurba_marseille","lat":43.29579,"lon":5.36732,"is_reserved":false,"is_disabled":false,"rental_uris":{"android":"levelo://app?vid=37b6d4f4-662d-4bc2-957b-f7d669af0480","ios":"levelo://app?vid=37b6d4f4-662d-4bc2-957b-f7d669af0480"},"vehicle_type_id":"4","last_reported":1732270224,"current_range_meters":29600,"station_id":"ce4bgph2rcd13ifvqc2g","pricing_plan_id":"cebpf4jnsgd1na2vs0mg"},{"bike_id":"e3c9d95d-160f-4b7d-b87b-dba0aebf9138","system_id":"levelo_inurba_marseille","lat":43.29866,"lon":5.39724,"is_reserved":false,"is_disabled":false,"rental_uris":{"android":"levelo://app?vid=e3c9d95d-160f-4b7d-b87b-dba0aebf9138","ios":"levelo://app?vid=e3c9d95d-160f-4b7d-b87b-dba0aebf9138"},"vehicle_type_id":"4","last_reported":1732270224,"current_range_meters":26000,"station_id":"ce4bh0h2rcd13ifvqd50","pricing_plan_id":"cebpf4jnsgd1na2vs0mg"},{"bike_id":"dd6baf32-a911-42b2-ba35-2f67bcbec815","system_id":"levelo_inurba_marseille","lat":43.28155,"lon":5.42644,"is_reserved":false,"is_disabled":false,"rental_uris":{"android":"levelo://app?vid=dd6baf32-a911-42b2-ba35-2f67bcbec815","ios":"levelo://app?vid=dd6baf32-a911-42b2-ba35-2f67bcbec815"},"vehicle_type_id":"4","last_reported":1732270224,"current_range_meters":13600,"station_id":"ce4bhnh2rcd13ifvqgug","pricing_plan_id":"cebpf4jnsgd1na2vs0mg"},{"bike_id":"5c53cfbd-2547-413a-b79a-f8cc3b1ca992","system_id":"levelo_inurba_marseille","lat":43.32114,"lon":5.3677,"is_reserved":false,"is_disabled":false,"rental_uris":{"android":"levelo://app?vid=5c53cfbd-2547-413a-b79a-f8cc3b1ca992","ios":"levelo://app?vid=5c53cfbd-2547-413a-b79a-f8cc3b1ca992"},"vehicle_type_id":"4","last_reported":1732270224,"current_range_meters":17200,"station_id":"ce4bhrh2rcd13ifvqhug","pricing_plan_id":"cebpf4jnsgd1na2vs0mg"},{"bike_id":"254a9899-5b27-4a6e-8a95-ff9f2b1a5bb5","system_id":"levelo_inurba_marseille","lat":43.2418,"lon":5.39721,"is_reserved":false,"is_disabled":false,"rental_uris":{"android":"levelo://app?vid=254a9899-5b27-4a6e-8a95-ff9f2b1a5bb5","ios":"levelo://app?vid=254a9899-5b27-4a6e-8a95-ff9f2b1a5bb5"},"vehicle_type_id":"4","last_reported":1732270224,"current_range_meters":24800,"station_id":"ce4bhn12rcd13ifvqgpg","pricing_plan_id":"cebpf4jnsgd1na2vs0mg"},{"bike_id":"7474ea9b-afb7-4722-b004-35119436888b","system_id":"levelo_inurba_marseille","lat":43.26949,"lon":5.38647,"is_reserved":false,"is_disabled":false,"rental_uris":{"android":"levelo://app?vid=7474ea9b-afb7-4722-b004-35119436888b","ios":"levelo://app?vid=7474ea9b-afb7-4722-b004-35119436888b"},"vehicle_type_id":"4","last_reported":1732270224,"current_range_meters":39200,"station_id":"ce4bhh92rcd13ifvqfh0","pricing_plan_id":"cebpf4jnsgd1na2vs0mg"},{"bike_id":"0d31c408-577b-4253-8976-112ee9c31452","system_id":"levelo_inurba_marseille","lat":43.26946,"lon":5.38646,"is_reserved":false,"is_disabled":false,"rental_uris":{"android":"levelo://app?vid=0d31c408-577b-4253-8976-112ee9c31452","ios":"levelo://app?vid=0d31c408-577b-4253-8976-112ee9c31452"},"vehicle_type_id":"4","last_reported":1732270224,"current_range_meters":24000,"station_id":"ce4bhh92rcd13ifvqfh0","pricing_plan_id":"cebpf4jnsgd1na2vs0mg"},{"bike_id":"8c8b5b68-8dd7-4b22-a6d6-f58f8186cbc3","system_id":"levelo_inurba_marseille","lat":43.292904,"lon":5.401462,"is_reserved":false,"is_disabled":false,"rental_uris":{"android":"levelo://app?vid=8c8b5b68-8dd7-4b22-a6d6-f58f8186cbc3","ios":"levelo://app?vid=8c8b5b68-8dd7-4b22-a6d6-f58f8186cbc3"},"vehicle_type_id":"4","last_reported":1732270224,"current_range_meters":26800,"station_id":"ce4bh312rcd13ifvqdk0","pricing_plan_id":"cebpf4jnsgd1na2vs0mg"},{"bike_id":"ced939b2-a2ab-40e5-b140-575509bab6d1","system_id":"levelo_inurba_marseille","lat":43.33023,"lon":5.39028,"is_reserved":false,"is_disabled":false,"rental_uris":{"android":"levelo://app?vid=ced939b2-a2ab-40e5-b140-575509bab6d1","ios":"levelo://app?vid=ced939b2-a2ab-40e5-b140-575509bab6d1"},"vehicle_type_id":"4","last_reported":1732270224,"current_range_meters":16400,"station_id":"ce4bhr92rcd13ifvqhrg","pricing_plan_id":"cebpf4jnsgd1na2vs0mg"},{"bike_id":"cde5eb04-35f5-4971-aec4-8004f9b2dcd9","system_id":"levelo_inurba_marseille","lat":43.2828,"lon":5.35063,"is_reserved":false,"is_disabled":true,"rental_uris":{"android":"levelo://app?vid=cde5eb04-35f5-4971-aec4-8004f9b2dcd9","ios":"levelo://app?vid=cde5eb04-35f5-4971-aec4-8004f9b2dcd9"},"vehicle_type_id":"4","last_reported":1732270224,"current_range_meters":0,"station_id":"ce4bhbp2rcd13ifvqerg","pricing_plan_id":"cebpf4jnsgd1na2vs0mg"},{"bike_id":"c39d2a6b-971a-4102-af38-404b98ad453d","system_id":"levelo_inurba_marseille","lat":43.29309,"lon":5.37185,"is_reserved":false,"is_disabled":false,"rental_uris":{"android":"levelo://app?vid=c39d2a6b-971a-4102-af38-404b98ad453d","ios":"levelo://app?vid=c39d2a6b-971a-4102-af38-404b98ad453d"},"vehicle_type_id":"4","last_reported":1732270224,"current_range_meters":24400,"station_id":"ce4bgh92rcd13ifvqb40","pricing_plan_id":"cebpf4jnsgd1na2vs0mg"},{"bike_id":"4024c177-e689-450a-884b-5392fcf58a24","system_id":"levelo_inurba_marseille","lat":43.32283,"lon":5.3826,"is_reserved":false,"is_disabled":false,"rental_uris":{"android":"levelo://app?vid=4024c177-e689-450a-884b-5392fcf58a24","ios":"levelo://app?vid=4024c177-e689-450a-884b-5392fcf58a24"},"vehicle_type_id":"4","last_reported":1732270224,"current_range_meters":6400,"station_id":"ce4bhr12rcd13ifvqhqg","pricing_plan_id":"cebpf4jnsgd1na2vs0mg"},{"bike_id":"354ee28b-5189-42e2-94b7-00243aee7573","system_id":"levelo_inurba_marseille","lat":43.30138,"lon":5.37417,"is_reserved":false,"is_disabled":false,"rental_uris":{"android":"levelo://app?vid=354ee28b-5189-42e2-94b7-00243aee7573","ios":"levelo://app?vid=354ee28b-5189-42e2-94b7-00243aee7573"},"vehicle_type_id":"4","last_reported":1732270224,"current_range_meters":6000,"station_id":"ce4bgs92rcd13ifvqcc0","pricing_plan_id":"cebpf4jnsgd1na2vs0mg"},{"bike_id":"5a47a1f0-8e68-42d5-826c-8622b7bbc8c0","system_id":"levelo_inurba_marseille","lat":43.27808,"lon":5.40712,"is_reserved":false,"is_disabled":false,"rental_uris":{"android":"levelo://app?vid=5a47a1f0-8e68-42d5-826c-8622b7bbc8c0","ios":"levelo://app?vid=5a47a1f0-8e68-42d5-826c-8622b7bbc8c0"},"vehicle_type_id":"4","last_reported":1732270224,"current_range_meters":18800,"station_id":"ce4bhnh2rcd13ifvqgtg","pricing_plan_id":"cebpf4jnsgd1na2vs0mg"},