{"last_updated":1778716207,"ttl":60,"version":"2.2","data":{"bikes":[{"bike_id":"56ea0cdd-526f-482d-8996-3d4f8ef150ef","system_id":"levelo_inurba_marseille","lat":43.27534,"lon":5.35909,"is_reserved":false,"is_disabled":false,"rental_uris":{"android":"levelo://app?vid=56ea0cdd-526f-482d-8996-3d4f8ef150ef","ios":"levelo://app?vid=56ea0cdd-526f-482d-8996-3d4f8ef150ef"},"vehicle_type_id":"4","last_reported":1778716208,"current_range_meters":2800,"station_id":"","pricing_plan_id":"cebpf4jnsgd1na2vs0mg"},{"bike_id":"3ffc93a6-bb76-4eaf-bf6b-a7895365a766","system_id":"levelo_inurba_marseille","lat":43.34122,"lon":5.40946,"is_reserved":false,"is_disabled":false,"rental_uris":{"android":"levelo://app?vid=3ffc93a6-bb76-4eaf-bf6b-a7895365a766","ios":"levelo://app?vid=3ffc93a6-bb76-4eaf-bf6b-a7895365a766"},"vehicle_type_id":"4","last_reported":1778716208,"current_range_meters":2800,"station_id":"ce4bhqh2rcd13ifvqhlg","pricing_plan_id":"cebpf4jnsgd1na2vs0mg"},{"bike_id":"8b9ea69e-98bb-43ee-897e-0651283e8cec","system_id":"levelo_inurba_marseille","lat":43.27376,"lon":5.36266,"is_reserved":false,"is_disabled":false,"rental_uris":{"android":"levelo://app?vid=8b9ea69e-98bb-43ee-897e-0651283e8cec","ios":"levelo://app?vid=8b9ea69e-98bb-43ee-897e-0651283e8cec"},"vehicle_type_id":"4","last_reported":1778716208,"current_range_meters":2800,"station_id":"ce4bhbh2rcd13ifvqeo0","pricing_plan_id":"cebpf4jnsgd1na2vs0mg"},{"bike_id":"d42eff96-2a63-4bb7-854f-d06471913ef6","system_id":"levelo_inurba_marseille","lat":43.31706,"lon":5.37749,"is_reserved":false,"is_disabled":true,"rental_uris":{"android":"levelo://app?vid=d42eff96-2a63-4bb7-854f-d06471913ef6","ios":"levelo://app?vid=d42eff96-2a63-4bb7-854f-d06471913ef6"},"vehicle_type_id":"4","last_reported":1778716208,"current_range_meters":2800,"station_id":"ce4bgth2rcd13ifvqch0","pricing_plan_id":"cebpf4jnsgd1na2vs0mg"},{"bike_id":"dd30dafa-ab4c-4185-b2c3-6f6ba4f3e360","system_id":"levelo_inurba_marseille","lat":43.25593,"lon":5.38203,"is_reserved":false,"is_disabled":true,"rental_uris":{"android":"levelo://app?vid=dd30dafa-ab4c-4185-b2c3-6f6ba4f3e360","ios":"levelo://app?vid=dd30dafa-ab4c-4185-b2c3-6f6ba4f3e360"},"vehicle_type_id":"4","last_reported":1778716208,"current_range_meters":2800,"station_id":"ce4bhih2rcd13ifvqfs0","pricing_plan_id":"cebpf4jnsgd1na2vs0mg"},{"bike_id":"76dbf5d4-41e2-48f6-97f3-41df5eb55d32","system_id":"levelo_inurba_marseille","lat":43.29631,"lon":5.37746,"is_reserved":false,"is_disabled":true,"rental_uris":{"android":"levelo://app?vid=76dbf5d4-41e2-48f6-97f3-41df5eb55d32","ios":"levelo://app?vid=76dbf5d4-41e2-48f6-97f3-41df5eb55d32"},"vehicle_type_id":"4","last_reported":1778716208,"current_range_meters":2800,"station_id":"ce4bgi92rcd13ifvqb90","pricing_plan_id":"cebpf4jnsgd1na2vs0mg"},{"bike_id":"281baeb8-dde8-4d7e-9f67-5258bcd7adb2","system_id":"levelo_inurba_marseille","lat":43.28081,"lon":5.35225,"is_reserved":false,"is_disabled":false,"rental_uris":{"android":"levelo://app?vid=281baeb8-dde8-4d7e-9f67-5258bcd7adb2","ios":"levelo://app?vid=281baeb8-dde8-4d7e-9f67-5258bcd7adb2"},"vehicle_type_id":"4","last_reported":1778716208,"current_range_meters":2800,"station_id":"","pricing_plan_id":"cebpf4jnsgd1na2vs0mg"},{"bike_id":"71816dfe-2761-4367-adf0-6e328e75fcb3","system_id":"levelo_inurba_marseille","lat":43.28361,"lon":5.38623,"is_reserved":false,"is_disabled":false,"rental_uris":{"android":"levelo://app?vid=71816dfe-2761-4367-adf0-6e328e75fcb3","ios":"levelo://app?vid=71816dfe-2761-4367-adf0-6e328e75fcb3"},"vehicle_type_id":"4","last_reported":1778716208,"current_range_meters":2800,"station_id":"ce4bh492rcd13ifvqdvg","pricing_plan_id":"cebpf4jnsgd1na2vs0mg"},{"bike_id":"37ca140a-9d49-424b-ae57-06783304d66c","system_id":"levelo_inurba_marseille","lat":43.25501,"lon":5.37648,"is_reserved":false,"is_disabled":false,"rental_uris":{"android":"levelo://app?vid=37ca140a-9d49-424b-ae57-06783304d66c","ios":"levelo://app?vid=37ca140a-9d49-424b-ae57-06783304d66c"},"vehicle_type_id":"4","last_reported":1778716208,"current_range_meters":2800,"station_id":"ce4bhh12rcd13ifvqff0","pricing_plan_id":"cebpf4jnsgd1na2vs0mg"},{"bike_id":"11bd2165-0a38-4e4f-b8da-fcc89d9a2180","system_id":"levelo_inurba_marseille","lat":43.293733,"lon":5.378848,"is_reserved":false,"is_disabled":true,"rental_uris":{"android":"levelo://app?vid=11bd2165-0a38-4e4f-b8da-fcc89d9a2180","ios":"levelo://app?vid=11bd2165-0a38-4e4f-b8da-fcc89d9a2180"},"vehicle_type_id":"4","last_reported":1778716208,"current_range_meters":2800,"station_id":"","pricing_plan_id":"cebpf4jnsgd1na2vs0mg"},{"bike_id":"33082b2f-7bae-4291-b2c5-c40c1bda03ab","system_id":"levelo_inurba_marseille","lat":43.28401,"lon":5.36806,"is_reserved":false,"is_disabled":false,"rental_uris":{"android":"levelo://app?vid=33082b2f-7bae-4291-b2c5-c40c1bda03ab","ios":"levelo://app?vid=33082b2f-7bae-4291-b2c5-c40c1bda03ab"},"vehicle_type_id":"4","last_reported":1778716208,"current_range_meters":3200,"station_id":"","pricing_plan_id":"cebpf4jnsgd1na2vs0mg"},{"bike_id":"69feb249-9d6a-4a06-8dce-edac51ef3fc8","system_id":"levelo_inurba_marseille","lat":43.27374,"lon":5.36252,"is_reserved":false,"is_disabled":false,"rental_uris":{"android":"levelo://app?vid=69feb249-9d6a-4a06-8dce-edac51ef3fc8","ios":"levelo://app?vid=69feb249-9d6a-4a06-8dce-edac51ef3fc8"},"vehicle_type_id":"4","last_reported":1778716208,"current_range_meters":3200,"station_id":"ce4bhbh2rcd13ifvqeo0","pricing_plan_id":"cebpf4jnsgd1na2vs0mg"},{"bike_id":"10a3b9be-d5ba-4992-854a-2354c738daff","system_id":"levelo_inurba_marseille","lat":43.31295,"lon":5.37801,"is_reserved":false,"is_disabled":false,"rental_uris":{"android":"levelo://app?vid=10a3b9be-d5ba-4992-854a-2354c738daff","ios":"levelo://app?vid=10a3b9be-d5ba-4992-854a-2354c738daff"},"vehicle_type_id":"4","last_reported":1778716208,"current_range_meters":3200,"station_id":"","pricing_plan_id":"cebpf4jnsgd1na2vs0mg"},{"bike_id":"2a8b24e9-9caf-4306-b9f8-0461eeb21443","system_id":"levelo_inurba_marseille","lat":43.3134,"lon":5.37918,"is_reserved":false,"is_disabled":false,"rental_uris":{"android":"levelo://app?vid=2a8b24e9-9caf-4306-b9f8-0461eeb21443","ios":"levelo://app?vid=2a8b24e9-9caf-4306-b9f8-0461eeb21443"},"vehicle_type_id":"4","last_reported":1778716208,"current_range_meters":3200,"station_id":"","pricing_plan_id":"cebpf4jnsgd1na2vs0mg"},{"bike_id":"b08622a3-72db-4a2e-bcf0-dfe85e04359c","system_id":"levelo_inurba_marseille","lat":43.28661,"lon":5.36257,"is_reserved":false,"is_disabled":false,"rental_uris":{"android":"levelo://app?vid=b08622a3-72db-4a2e-bcf0-dfe85e04359c","ios":"levelo://app?vid=b08622a3-72db-4a2e-bcf0-dfe85e04359c"},"vehicle_type_id":"4","last_reported":1778716208,"current_range_meters":3200,"station_id":"","pricing_plan_id":"cebpf4jnsgd1na2vs0mg"},{"bike_id":"4fa4b39a-f640-40a3-82d4-b22062366cfc","system_id":"levelo_inurba_marseille","lat":43.30004,"lon":5.36725,"is_reserved":false,"is_disabled":false,"rental_uris":{"android":"levelo://app?vid=4fa4b39a-f640-40a3-82d4-b22062366cfc","ios":"levelo://app?vid=4fa4b39a-f640-40a3-82d4-b22062366cfc"},"vehicle_type_id":"4","last_reported":1778716208,"current_range_meters":3200,"station_id":"","pricing_plan_id":"cebpf4jnsgd1na2vs0mg"},{"bike_id":"d0e102fb-ba05-46e6-99ff-ded824909976","system_id":"levelo_inurba_marseille","lat":43.29513,"lon":5.43287,"is_reserved":false,"is_disabled":false,"rental_uris":{"android":"levelo://app?vid=d0e102fb-ba05-46e6-99ff-ded824909976","ios":"levelo://app?vid=d0e102fb-ba05-46e6-99ff-ded824909976"},"vehicle_type_id":"4","last_reported":1778716208,"current_range_meters":3200,"station_id":"st_d3j5ugp08ojc73fj9d10","pricing_plan_id":"cebpf4jnsgd1na2vs0mg"},{"bike_id":"bc43e479-cf79-47f8-8569-01ecac851fbb","system_id":"levelo_inurba_marseille","lat":43.29008,"lon":5.38702,"is_reserved":false,"is_disabled":false,"rental_uris":{"android":"levelo://app?vid=bc43e479-cf79-47f8-8569-01ecac851fbb","ios":"levelo://app?vid=bc43e479-cf79-47f8-8569-01ecac851fbb"},"vehicle_type_id":"4","last_reported":1778716208,"current_range_meters":3600,"station_id":"","pricing_plan_id":"cebpf4jnsgd1na2vs0mg"},{"bike_id":"5dd68511-b4a3-4276-9fb9-d30a191306db","system_id":"levelo_inurba_marseille","lat":43.33761,"lon":5.37453,"is_reserved":false,"is_disabled":false,"rental_uris":{"android":"levelo://app?vid=5dd68511-b4a3-4276-9fb9-d30a191306db","ios":"levelo://app?vid=5dd68511-b4a3-4276-9fb9-d30a191306db"},"vehicle_type_id":"4","last_reported":1778716208,"current_range_meters":3600,"station_id":"","pricing_plan_id":"cebpf4jnsgd1na2vs0mg"},{"bike_id":"002dd5c2-43d5-4b4b-b355-153088b22174","system_id":"levelo_inurba_marseille","lat":43.29766,"lon":5.39717,"is_reserved":false,"is_disabled":false,"rental_uris":{"android":"levelo://app?vid=002dd5c2-43d5-4b4b-b355-153088b22174","ios":"levelo://app?vid=002dd5c2-43d5-4b4b-b355-153088b22174"},"vehicle_type_id":"4","last_reported":1778716208,"current_range_meters":3600,"station_id":"","pricing_plan_id":"cebpf4jnsgd1na2vs0mg"},{"bike_id":"3549c190-ba25-4a06-b751-5b52c4ff2b2c","system_id":"levelo_inurba_marseille","lat":43.225323,"lon":5.348352,"is_reserved":false,"is_disabled":false,"rental_uris":{"android":"levelo://app?vid=3549c190-ba25-4a06-b751-5b52c4ff2b2c","ios":"levelo://app?vid=3549c190-ba25-4a06-b751-5b52c4ff2b2c"},"vehicle_type_id":"4","last_reported":1778716208,"current_range_meters":3600,"station_id":"st_cvj5dfep6f1abm77gieg","pricing_plan_id":"cebpf4jnsgd1na2vs0mg"},{"bike_id":"cc5b7f7a-0cd1-4ae4-b884-39eb267c4489","system_id":"levelo_inurba_marseille","lat":43.275651,"lon":5.384154,"is_reserved":false,"is_disabled":false,"rental_uris":{"android":"levelo://app?vid=cc5b7f7a-0cd1-4ae4-b884-39eb267c4489","ios":"levelo://app?vid=cc5b7f7a-0cd1-4ae4-b884-39eb267c4489"},"vehicle_type_id":"4","last_reported":1778716208,"current_range_meters":3600,"station_id":"ce4bhh92rcd13ifvqfi0","pricing_plan_id":"cebpf4jnsgd1na2vs0mg"},{"bike_id":"c1a140cf-543f-4e7b-8168-e0bf64decf92","system_id":"levelo_inurba_marseille","lat":43.291076,"lon":5.38138,"is_reserved":false,"is_disabled":false,"rental_uris":{"android":"levelo://app?vid=c1a140cf-543f-4e7b-8168-e0bf64decf92","ios":"levelo://app?vid=c1a140cf-543f-4e7b-8168-e0bf64decf92"},"vehicle_type_id":"4","last_reported":1778716208,"current_range_meters":3600,"station_id":"ce4bh512rcd13ifvqe2g","pricing_plan_id":"cebpf4jnsgd1na2vs0mg"},{"bike_id":"9db42488-199f-4681-816c-55ae93af45d7","system_id":"levelo_inurba_marseille","lat":43.27833,"lon":5.40681,"is_reserved":false,"is_disabled":false,"rental_uris":{"android":"levelo://app?vid=9db42488-199f-4681-816c-55ae93af45d7","ios":"levelo://app?vid=9db42488-199f-4681-816c-55ae93af45d7"},"vehicle_type_id":"4","last_reported":1778716208,"current_range_meters":3600,"station_id":"ce4bhnh2rcd13ifvqgtg","pricing_plan_id":"cebpf4jnsgd1na2vs0mg"},{"bike_id":"788dfa8a-456b-4e1b-8663-b20f000fa194","system_id":"levelo_inurba_marseille","lat":43.26955,"lon":5.40232,"is_reserved":false,"is_disabled":false,"rental_uris":{"android":"levelo://app?vid=788dfa8a-456b-4e1b-8663-b20f000fa194","ios":"levelo://app?vid=788dfa8a-456b-4e1b-8663-b20f000fa194"},"vehicle_type_id":"4","last_reported":1778716208,"current_range_meters":3600,"station_id":"cjm6bp8fraef2m0cb0m0","pricing_plan_id":"cebpf4jnsgd1na2vs0mg"},{"bike_id":"355c1f6d-8a17-469a-a3a3-5688774d6e92","system_id":"levelo_inurba_marseille","lat":43.30795,"lon":5.38166,"is_reserved":false,"is_disabled":false,"rental_uris":{"android":"levelo://app?vid=355c1f6d-8a17-469a-a3a3-5688774d6e92","ios":"levelo://app?vid=355c1f6d-8a17-469a-a3a3-5688774d6e92"},"vehicle_type_id":"4","last_reported":1778716208,"current_range_meters":3600,"station_id":"ce4bgt12rcd13ifvqce0","pricing_plan_id":"cebpf4jnsgd1na2vs0mg"},{"bike_id":"64a46267-6b52-4a02-b6f6-f5c2f77a133d","system_id":"levelo_inurba_marseille","lat":43.28815,"lon":5.40028,"is_reserved":false,"is_disabled":true,"rental_uris":{"android":"levelo://app?vid=64a46267-6b52-4a02-b6f6-f5c2f77a133d","ios":"levelo://app?vid=64a46267-6b52-4a02-b6f6-f5c2f77a133d"},"vehicle_type_id":"4","last_reported":1778716208,"current_range_meters":4000,"station_id":"","pricing_plan_id":"cebpf4jnsgd1na2vs0mg"},{"bike_id":"e558dfe8-bd02-42f1-a57a-4d3e4e405e80","system_id":"levelo_inurba_marseille","lat":43.29639,"lon":5.40607,"is_reserved":false,"is_disabled":false,"rental_uris":{"android":"levelo://app?vid=e558dfe8-bd02-42f1-a57a-4d3e4e405e80","ios":"levelo://app?vid=e558dfe8-bd02-42f1-a57a-4d3e4e405e80"},"vehicle_type_id":"4","last_reported":1778716208,"current_range_meters":4000,"station_id":"ce4bh0h2rcd13ifvqd60","pricing_plan_id":"cebpf4jnsgd1na2vs0mg"},{"bike_id":"5f55c865-0bd0-4394-a2ae-c01c075b4bd3","system_id":"levelo_inurba_marseille","lat":43.2893,"lon":5.396344,"is_reserved":false,"is_disabled":false,"rental_uris":{"android":"levelo://app?vid=5f55c865-0bd0-4394-a2ae-c01c075b4bd3","ios":"levelo://app?vid=5f55c865-0bd0-4394-a2ae-c01c075b4bd3"},"vehicle_type_id":"4","last_reported":1778716208,"current_range_meters":4000,"station_id":"ce4bh392rcd13ifvqdm0","pricing_plan_id":"cebpf4jnsgd1na2vs0mg"},{"bike_id":"f3acf221-ac54-4ed5-b1ec-a3daba4e5770","system_id":"levelo_inurba_marseille","lat":43.288594,"lon":5.425146,"is_reserved":false,"is_disabled":true,"rental_uris":{"android":"levelo://app?vid=f3acf221-ac54-4ed5-b1ec-a3daba4e5770","ios":"levelo://app?vid=f3acf221-ac54-4ed5-b1ec-a3daba4e5770"},"vehicle_type_id":"4","last_reported":1778716208,"current_range_meters":4000,"station_id":"","pricing_plan_id":"cebpf4jnsgd1na2vs0mg"},{"bike_id":"b93f308d-6e17-4743-88cf-22d1124332e6","system_id":"levelo_inurba_marseille","lat":43.25338,"lon":5.42166,"is_reserved":false,"is_disabled":false,"rental_uris":{"android":"levelo://app?vid=b93f308d-6e17-4743-88cf-22d1124332e6","ios":"levelo://app?vid=b93f308d-6e17-4743-88cf-22d1124332e6"},"vehicle_type_id":"4","last_reported":1778716208,"current_range_meters":4000,"station_id":"st_d2m65c5bi1j21697t3ng","pricing_plan_id":"cebpf4jnsgd1na2vs0mg"},{"bike_id":"43a06db5-04b5-4a22-9e6f-f46b3fa2bbc7","system_id":"levelo_inurba_marseille","lat":43.32112,"lon":5.3678,"is_reserved":false,"is_disabled":false,"rental_uris":{"android":"levelo://app?vid=43a06db5-04b5-4a22-9e6f-f46b3fa2bbc7","ios":"levelo://app?vid=43a06db5-04b5-4a22-9e6f-f46b3fa2bbc7"},"vehicle_type_id":"4","last_reported":1778716208,"current_range_meters":4000,"station_id":"ce4bhrh2rcd13ifvqhug","pricing_plan_id":"cebpf4jnsgd1na2vs0mg"},{"bike_id":"b9c7cd32-9284-4f54-9cbe-6b2a766e20fb","system_id":"levelo_inurba_marseille","lat":43.25092,"lon":5.39521,"is_reserved":false,"is_disabled":false,"rental_uris":{"android":"levelo://app?vid=b9c7cd32-9284-4f54-9cbe-6b2a766e20fb","ios":"levelo://app?vid=b9c7cd32-9284-4f54-9cbe-6b2a766e20fb"},"vehicle_type_id":"4","last_reported":1778716208,"current_range_meters":4000,"station_id":"ce4bhm12rcd13ifvqgkg","pricing_plan_id":"cebpf4jnsgd1na2vs0mg"},{"bike_id":"b8c52f40-c88b-41d6-98f6-76196ddf5d74","system_id":"levelo_inurba_marseille","lat":43.29124,"lon":5.38058,"is_reserved":false,"is_disabled":false,"rental_uris":{"android":"levelo://app?vid=b8c52f40-c88b-41d6-98f6-76196ddf5d74","ios":"levelo://app?vid=b8c52f40-c88b-41d6-98f6-76196ddf5d74"},"vehicle_type_id":"4","last_reported":1778716208,"current_range_meters":4000,"station_id":"","pricing_plan_id":"cebpf4jnsgd1na2vs0mg"},{"bike_id":"ffbaabd0-3fec-4045-81eb-607ce59006bb","system_id":"levelo_inurba_marseille","lat":43.26956,"lon":5.38608,"is_reserved":false,"is_disabled":false,"rental_uris":{"android":"levelo://app?vid=ffbaabd0-3fec-4045-81eb-607ce59006bb","ios":"levelo://app?vid=ffbaabd0-3fec-4045-81eb-607ce59006bb"},"vehicle_type_id":"4","last_reported":1778716208,"current_range_meters":4000,"station_id":"ce4bhh92rcd13ifvqfh0","pricing_plan_id":"cebpf4jnsgd1na2vs0mg"},{"bike_id":"72d9b333-6340-445d-b4a3-2541590e555d","system_id":"levelo_inurba_marseille","lat":43.24691,"lon":5.38174,"is_reserved":false,"is_disabled":false,"rental_uris":{"android":"levelo://app?vid=72d9b333-6340-445d-b4a3-2541590e555d","ios":"levelo://app?vid=72d9b333-6340-445d-b4a3-2541590e555d"},"vehicle_type_id":"4","last_reported":1778716208,"current_range_meters":4000,"station_id":"ce4bhih2rcd13ifvqfr0","pricing_plan_id":"cebpf4jnsgd1na2vs0mg"},{"bike_id":"9f30ded7-6002-4c42-a53a-eec3ebccc6d3","system_id":"levelo_inurba_marseille","lat":43.23185,"lon":5.39994,"is_reserved":false,"is_disabled":false,"rental_uris":{"android":"levelo://app?vid=9f30ded7-6002-4c42-a53a-eec3ebccc6d3","ios":"levelo://app?vid=9f30ded7-6002-4c42-a53a-eec3ebccc6d3"},"vehicle_type_id":"4","last_reported":1778716208,"current_range_meters":4000,"station_id":"ce4bhn12rcd13ifvqgqg","pricing_plan_id":"cebpf4jnsgd1na2vs0mg"},{"bike_id":"66bb1d1a-0a66-445e-b553-a38109b764e6","system_id":"levelo_inurba_marseille","lat":43.30633,"lon":5.40085,"is_reserved":false,"is_disabled":false,"rental_uris":{"android":"levelo://app?vid=66bb1d1a-0a66-445e-b553-a38109b764e6","ios":"levelo://app?vid=66bb1d1a-0a66-445e-b553-a38109b764e6"},"vehicle_type_id":"4","last_reported":1778716208,"current_range_meters":4400,"station_id":"ce4bh112rcd13ifvqda0","pricing_plan_id":"cebpf4jnsgd1na2vs0mg"},{"bike_id":"20de8392-4b81-4eee-9bed-7e5e4aeec2d5","system_id":"levelo_inurba_marseille","lat":43.29575,"lon":5.39922,"is_reserved":false,"is_disabled":false,"rental_uris":{"android":"levelo://app?vid=20de8392-4b81-4eee-9bed-7e5e4aeec2d5","ios":"levelo://app?vid=20de8392-4b81-4eee-9bed-7e5e4aeec2d5"},"vehicle_type_id":"4","last_reported":1778716208,"current_range_meters":4400,"station_id":"ce4bh312rcd13ifvqdj0","pricing_plan_id":"cebpf4jnsgd1na2vs0mg"},{"bike_id":"8e012732-d687-40e6-979a-b5776aae3c15","system_id":"levelo_inurba_marseille","lat":43.32127,"lon":5.36751,"is_reserved":false,"is_disabled":false,"rental_uris":{"android":"levelo://app?vid=8e012732-d687-40e6-979a-b5776aae3c15","ios":"levelo://app?vid=8e012732-d687-40e6-979a-b5776aae3c15"},"vehicle_type_id":"4","last_reported":1778716208,"current_range_meters":4400,"station_id":"ce4bhrh2rcd13ifvqhug","pricing_plan_id":"cebpf4jnsgd1na2vs0mg"},{"bike_id":"ab5a67cc-2b0d-4199-b45d-a9d7d6047cab","system_id":"levelo_inurba_marseille","lat":43.30237,"lon":5.36929,"is_reserved":false,"is_disabled":false,"rental_uris":{"android":"levelo://app?vid=ab5a67cc-2b0d-4199-b45d-a9d7d6047cab","ios":"levelo://app?vid=ab5a67cc-2b0d-4199-b45d-a9d7d6047cab"},"vehicle_type_id":"4","last_reported":1778716208,"current_range_meters":4400,"station_id":"","pricing_plan_id":"cebpf4jnsgd1na2vs0mg"},{"bike_id":"492bc1b5-62c1-45cd-be18-d591945c5eae","system_id":"levelo_inurba_marseille","lat":43.25864,"lon":5.39957,"is_reserved":false,"is_disabled":true,"rental_uris":{"android":"levelo://app?vid=492bc1b5-62c1-45cd-be18-d591945c5eae","ios":"levelo://app?vid=492bc1b5-62c1-45cd-be18-d591945c5eae"},"vehicle_type_id":"4","last_reported":1778716208,"current_range_meters":4400,"station_id":"","pricing_plan_id":"cebpf4jnsgd1na2vs0mg"},{"bike_id":"04457e6f-0405-4b98-9944-c702e39a01bd","system_id":"levelo_inurba_marseille","lat":43.3144,"lon":5.37392,"is_reserved":false,"is_disabled":false,"rental_uris":{"android":"levelo://app?vid=04457e6f-0405-4b98-9944-c702e39a01bd","ios":"levelo://app?vid=04457e6f-0405-4b98-9944-c702e39a01bd"},"vehicle_type_id":"4","last_reported":1778716208,"current_range_meters":4400,"station_id":"","pricing_plan_id":"cebpf4jnsgd1na2vs0mg"},{"bike_id":"6d5846d2-0874-495b-b7bc-c517b4a30462","system_id":"levelo_inurba_marseille","lat":43.30202,"lon":5.38062,"is_reserved":false,"is_disabled":false,"rental_uris":{"android":"levelo://app?vid=6d5846d2-0874-495b-b7bc-c517b4a30462","ios":"levelo://app?vid=6d5846d2-0874-495b-b7bc-c517b4a30462"},"vehicle_type_id":"4","last_reported":1778716208,"current_range_meters":4400,"station_id":"","pricing_plan_id":"cebpf4jnsgd1na2vs0mg"},{"bike_id":"35b6ecdf-03fe-450e-88d8-82bb00199c3c","system_id":"levelo_inurba_marseille","lat":43.29769,"lon":5.38167,"is_reserved":false,"is_disabled":true,"rental_uris":{"android":"levelo://app?vid=35b6ecdf-03fe-450e-88d8-82bb00199c3c","ios":"levelo://app?vid=35b6ecdf-03fe-450e-88d8-82bb00199c3c"},"vehicle_type_id":"4","last_reported":1778716208,"current_range_meters":4400,"station_id":"","pricing_plan_id":"cebpf4jnsgd1na2vs0mg"},{"bike_id":"192de476-9345-42a7-8b0c-1c71b2f0da40","system_id":"levelo_inurba_marseille","lat":43.30141,"lon":5.37401,"is_reserved":false,"is_disabled":false,"rental_uris":{"android":"levelo://app?vid=192de476-9345-42a7-8b0c-1c71b2f0da40","ios":"levelo://app?vid=192de476-9345-42a7-8b0c-1c71b2f0da40"},"vehicle_type_id":"4","last_reported":1778716208,"current_range_meters":4400,"station_id":"ce4bgs92rcd13ifvqcc0","pricing_plan_id":"cebpf4jnsgd1na2vs0mg"},{"bike_id":"91c08be6-843d-44a1-bc85-3269c7b1aa22","system_id":"levelo_inurba_marseille","lat":43.29072,"lon":5.37134,"is_reserved":false,"is_disabled":false,"rental_uris":{"android":"levelo://app?vid=91c08be6-843d-44a1-bc85-3269c7b1aa22","ios":"levelo://app?vid=91c08be6-843d-44a1-bc85-3269c7b1aa22"},"vehicle_type_id":"4","last_reported":1778716208,"current_range_meters":4400,"station_id":"ce4bh5p2rcd13ifvqe4g","pricing_plan_id":"cebpf4jnsgd1na2vs0mg"},{"bike_id":"0f37d688-46c0-4558-9b09-89bb1915d2b6","system_id":"levelo_inurba_marseille","lat":43.33541,"lon":5.37471,"is_reserved":false,"is_disabled":false,"rental_uris":{"android":"levelo://app?vid=0f37d688-46c0-4558-9b09-89bb1915d2b6","ios":"levelo://app?vid=0f37d688-46c0-4558-9b09-89bb1915d2b6"},"vehicle_type_id":"4","last_reported":1778716208,"current_range_meters":4400,"station_id":"st_d46tts09ee8s73dlu43g","pricing_plan_id":"cebpf4jnsgd1na2vs0mg"},{"bike_id":"db725f8f-4e6f-454b-99a6-7614e8722dfa","system_id":"levelo_inurba_marseille","lat":43.31364,"lon":5.3849,"is_reserved":false,"is_disabled":false,"rental_uris":{"android":"levelo://app?vid=db725f8f-4e6f-454b-99a6-7614e8722dfa","ios":"levelo://app?vid=db725f8f-4e6f-454b-99a6-7614e8722dfa"},"vehicle_type_id":"4","last_reported":1778716208,"current_range_meters":4400,"station_id":"ce4bgt92rcd13ifvqcf0","pricing_plan_id":"cebpf4jnsgd1na2vs0mg"},{"bike_id":"630f590b-0a9f-466b-9ca4-6c71573fb46f","system_id":"levelo_inurba_marseille","lat":43.2921,"lon":5.36072,"is_reserved":false,"is_disabled":false,"rental_uris":{"android":"levelo://app?vid=630f590b-0a9f-466b-9ca4-6c71573fb46f","ios":"levelo://app?vid=630f590b-0a9f-466b-9ca4-6c71573fb46f"},"vehicle_type_id":"4","last_reported":1778716208,"current_range_meters":4400,"station_id":"ce4bhbh2rcd13ifvqeqg","pricing_plan_id":"cebpf4jnsgd1na2vs0mg"},{"bike_id":"c903e33c-2956-4e22-9ea0-88f45e3347d9","system_id":"levelo_inurba_marseille","lat":43.29617,"lon":5.40596,"is_reserved":false,"is_disabled":false,"rental_uris":{"android":"levelo://app?vid=c903e33c-2956-4e22-9ea0-88f45e3347d9","ios":"levelo://app?vid=c903e33c-2956-4e22-9ea0-88f45e3347d9"},"vehicle_type_id":"4","last_reported":1778716208,"current_range_meters":4800,"station_id":"ce4bh0h2rcd13ifvqd60","pricing_plan_id":"cebpf4jnsgd1na2vs0mg"},{"bike_id":"aff5cc42-3685-48ce-8c14-8495b1a9b20f","system_id":"levelo_inurba_marseille","lat":43.29169,"lon":5.37162,"is_reserved":false,"is_disabled":false,"rental_uris":{"android":"levelo://app?vid=aff5cc42-3685-48ce-8c14-8495b1a9b20f","ios":"levelo://app?vid=aff5cc42-3685-48ce-8c14-8495b1a9b20f"},"vehicle_type_id":"4","last_reported":1778716208,"current_range_meters":4800,"station_id":"ce4bha92rcd13ifvqeh0","pricing_plan_id":"cebpf4jnsgd1na2vs0mg"},{"bike_id":"686f1697-ce14-4bc8-8770-2a9a79c1d14c","system_id":"levelo_inurba_marseille","lat":43.29596,"lon":5.38098,"is_reserved":false,"is_disabled":false,"rental_uris":{"android":"levelo://app?vid=686f1697-ce14-4bc8-8770-2a9a79c1d14c","ios":"levelo://app?vid=686f1697-ce14-4bc8-8770-2a9a79c1d14c"},"vehicle_type_id":"4","last_reported":1778716208,"current_range_meters":4800,"station_id":"ce4bgl12rcd13ifvqbo0","pricing_plan_id":"cebpf4jnsgd1na2vs0mg"},{"bike_id":"04fab4f5-3865-44d6-9da6-cd03201dc7b5","system_id":"levelo_inurba_marseille","lat":43.29505,"lon":5.42271,"is_reserved":false,"is_disabled":false,"rental_uris":{"android":"levelo://app?vid=04fab4f5-3865-44d6-9da6-cd03201dc7b5","ios":"levelo://app?vid=04fab4f5-3865-44d6-9da6-cd03201dc7b5"},"vehicle_type_id":"4","last_reported":1778716208,"current_range_meters":4800,"station_id":"","pricing_plan_id":"cebpf4jnsgd1na2vs0mg"},{"bike_id":"34cd8bea-a8f6-49af-9554-9386e6d99017","system_id":"levelo_inurba_marseille","lat":43.2816,"lon":5.4264,"is_reserved":false,"is_disabled":false,"rental_uris":{"android":"levelo://app?vid=34cd8bea-a8f6-49af-9554-9386e6d99017","ios":"levelo://app?vid=34cd8bea-a8f6-49af-9554-9386e6d99017"},"vehicle_type_id":"4","last_reported":1778716208,"current_range_meters":4800,"station_id":"ce4bhnh2rcd13ifvqgug","pricing_plan_id":"cebpf4jnsgd1na2vs0mg"},{"bike_id":"22418c41-98c8-454e-b794-2a1abe0ca90b","system_id":"levelo_inurba_marseille","lat":43.28941,"lon":5.36645,"is_reserved":false,"is_disabled":false,"rental_uris":{"android":"levelo://app?vid=22418c41-98c8-454e-b794-2a1abe0ca90b","ios":"levelo://app?vid=22418c41-98c8-454e-b794-2a1abe0ca90b"},"vehicle_type_id":"4","last_reported":1778716208,"current_range_meters":4800,"station_id":"ce4bhap2rcd13ifvqek0","pricing_plan_id":"cebpf4jnsgd1na2vs0mg"},{"bike_id":"d90f552a-cbc9-45a7-b30d-113d0c33054b","system_id":"levelo_inurba_marseille","lat":43.28914,"lon":5.38369,"is_reserved":false,"is_disabled":false,"rental_uris":{"android":"levelo://app?vid=d90f552a-cbc9-45a7-b30d-113d0c33054b","ios":"levelo://app?vid=d90f552a-cbc9-45a7-b30d-113d0c33054b"},"vehicle_type_id":"4","last_reported":1778716208,"current_range_meters":4800,"station_id":"ce4bh612rcd13ifvqe6g","pricing_plan_id":"cebpf4jnsgd1na2vs0mg"},{"bike_id":"8894ee37-5ce9-4b2c-97c5-09230dc4fd4f","system_id":"levelo_inurba_marseille","lat":43.27988,"lon":5.40004,"is_reserved":false,"is_disabled":false,"rental_uris":{"android":"levelo://app?vid=8894ee37-5ce9-4b2c-97c5-09230dc4fd4f","ios":"levelo://app?vid=8894ee37-5ce9-4b2c-97c5-09230dc4fd4f"},"vehicle_type_id":"4","last_reported":1778716208,"current_range_meters":4800,"station_id":"ce4bho92rcd13ifvqh4g","pricing_plan_id":"cebpf4jnsgd1na2vs0mg"},{"bike_id":"a5dd4f48-8c1d-414f-a826-ff039e97ddca","system_id":"levelo_inurba_marseille","lat":43.23069,"lon":5.362,"is_reserved":false,"is_disabled":false,"rental_uris":{"android":"levelo://app?vid=a5dd4f48-8c1d-414f-a826-ff039e97ddca","ios":"levelo://app?vid=a5dd4f48-8c1d-414f-a826-ff039e97ddca"},"vehicle_type_id":"4","last_reported":1778716208,"current_range_meters":4800,"station_id":"","pricing_plan_id":"cebpf4jnsgd1na2vs0mg"},{"bike_id":"1dff7f60-c48e-4ff4-87df-6bc7f11bee78","system_id":"levelo_inurba_marseille","lat":43.31059,"lon":5.37163,"is_reserved":false,"is_disabled":false,"rental_uris":{"android":"levelo://app?vid=1dff7f60-c48e-4ff4-87df-6bc7f11bee78","ios":"levelo://app?vid=1dff7f60-c48e-4ff4-87df-6bc7f11bee78"},"vehicle_type_id":"4","last_reported":1778716208,"current_range_meters":4800,"station_id":"st_d4kl2rp97mjs73e7tdfg","pricing_plan_id":"cebpf4jnsgd1na2vs0mg"},{"bike_id":"e2f72d2b-0e00-4107-a9b4-fa43cd969e82","system_id":"levelo_inurba_marseille","lat":43.29058,"lon":5.37164,"is_reserved":false,"is_disabled":false,"rental_uris":{"android":"levelo://app?vid=e2f72d2b-0e00-4107-a9b4-fa43cd969e82","ios":"levelo://app?vid=e2f72d2b-0e00-4107-a9b4-fa43cd969e82"},"vehicle_type_id":"4","last_reported":1778716208,"current_range_meters":4800,"station_id":"ce4bh5p2rcd13ifvqe4g","pricing_plan_id":"cebpf4jnsgd1na2vs0mg"},{"bike_id":"aa3f6d5a-caf7-4884-92ce-12eb0b9c9e82","system_id":"levelo_inurba_marseille","lat":43.28014,"lon":5.3933,"is_reserved":false,"is_disabled":false,"rental_uris":{"android":"levelo://app?vid=aa3f6d5a-caf7-4884-92ce-12eb0b9c9e82","ios":"levelo://app?vid=aa3f6d5a-caf7-4884-92ce-12eb0b9c9e82"},"vehicle_type_id":"4","last_reported":1778716208,"current_range_meters":4800,"station_id":"","pricing_plan_id":"cebpf4jnsgd1na2vs0mg"},{"bike_id":"90696508-a5d0-432c-92b1-dc6f9bd70bd0","system_id":"levelo_inurba_marseille","lat":43.299713,"lon":5.37188,"is_reserved":false,"is_disabled":false,"rental_uris":{"android":"levelo://app?vid=90696508-a5d0-432c-92b1-dc6f9bd70bd0","ios":"levelo://app?vid=90696508-a5d0-432c-92b1-dc6f9bd70bd0"},"vehicle_type_id":"4","last_reported":1778716208,"current_range_meters":5600,"station_id":"ce4bgr92rcd13ifvqc7g","pricing_plan_id":"cebpf4jnsgd1na2vs0mg"},{"bike_id":"de5b6ea9-09fa-482a-bcb1-75522b57abbd","system_id":"levelo_inurba_marseille","lat":43.29594,"lon":5.38107,"is_reserved":false,"is_disabled":false,"rental_uris":{"android":"levelo://app?vid=de5b6ea9-09fa-482a-bcb1-75522b57abbd","ios":"levelo://app?vid=de5b6ea9-09fa-482a-bcb1-75522b57abbd"},"vehicle_type_id":"4","last_reported":1778716208,"current_range_meters":5600,"station_id":"ce4bgl12rcd13ifvqbo0","pricing_plan_id":"cebpf4jnsgd1na2vs0mg"},{"bike_id":"7076757c-102e-4b9a-8844-ed202ef3c20c","system_id":"levelo_inurba_marseille","lat":43.28481,"lon":5.48386,"is_reserved":false,"is_disabled":false,"rental_uris":{"android":"levelo://app?vid=7076757c-102e-4b9a-8844-ed202ef3c20c","ios":"levelo://app?vid=7076757c-102e-4b9a-8844-ed202ef3c20c"},"vehicle_type_id":"4","last_reported":1778716208,"current_range_meters":5600,"station_id":"","pricing_plan_id":"cebpf4jnsgd1na2vs0mg"},{"bike_id":"48066121-841a-4b69-bb96-5a67813041e0","system_id":"levelo_inurba_marseille","lat":43.28705,"lon":5.46678,"is_reserved":false,"is_disabled":false,"rental_uris":{"android":"levelo://app?vid=48066121-841a-4b69-bb96-5a67813041e0","ios":"levelo://app?vid=48066121-841a-4b69-bb96-5a67813041e0"},"vehicle_type_id":"4","last_reported":1778716208,"current_range_meters":5600,"station_id":"st_d6tc3vkotcvc738tfjhg","pricing_plan_id":"cebpf4jnsgd1na2vs0mg"},{"bike_id":"76698c43-7ba5-4b3f-bd37-6030574f88f3","system_id":"levelo_inurba_marseille","lat":43.24541,"lon":5.39516,"is_reserved":false,"is_disabled":false,"rental_uris":{"android":"levelo://app?vid=76698c43-7ba5-4b3f-bd37-6030574f88f3","ios":"levelo://app?vid=76698c43-7ba5-4b3f-bd37-6030574f88f3"},"vehicle_type_id":"4","last_reported":1778716208,"current_range_meters":5600,"station_id":"ce4bhlp2rcd13ifvqgjg","pricing_plan_id":"cebpf4jnsgd1na2vs0mg"},{"bike_id":"53ab3346-6ae3-47d4-9670-f84e0aea8e0c","system_id":"levelo_inurba_marseille","lat":43.24843,"lon":5.37435,"is_reserved":false,"is_disabled":false,"rental_uris":{"android":"levelo://app?vid=53ab3346-6ae3-47d4-9670-f84e0aea8e0c","ios":"levelo://app?vid=53ab3346-6ae3-47d4-9670-f84e0aea8e0c"},"vehicle_type_id":"4","last_reported":1778716208,"current_range_meters":5600,"station_id":"","pricing_plan_id":"cebpf4jnsgd1na2vs0mg"},{"bike_id":"1b92dc77-fa37-4622-8e11-1fa6fd28c9b8","system_id":"levelo_inurba_marseille","lat":43.3137,"lon":5.39652,"is_reserved":false,"is_disabled":false,"rental_uris":{"android":"levelo://app?vid=1b92dc77-fa37-4622-8e11-1fa6fd28c9b8","ios":"levelo://app?vid=1b92dc77-fa37-4622-8e11-1fa6fd28c9b8"},"vehicle_type_id":"4","last_reported":1778716208,"current_range_meters":5600,"station_id":"ce4bgvp2rcd13ifvqcu0","pricing_plan_id":"cebpf4jnsgd1na2vs0mg"},{"bike_id":"5fb8929d-8102-448c-b915-edd3a3b92015","system_id":"levelo_inurba_marseille","lat":43.33167,"lon":5.37676,"is_reserved":false,"is_disabled":false,"rental_uris":{"android":"levelo://app?vid=5fb8929d-8102-448c-b915-edd3a3b92015","ios":"levelo://app?vid=5fb8929d-8102-448c-b915-edd3a3b92015"},"vehicle_type_id":"4","last_reported":1778716208,"current_range_meters":5600,"station_id":"st_d46cu089ee8s73dldbu0","pricing_plan_id":"cebpf4jnsgd1na2vs0mg"},{"bike_id":"bc5e2925-16a2-4686-bd58-cc9a88f025e6","system_id":"levelo_inurba_marseille","lat":43.25879,"lon":5.39906,"is_reserved":false,"is_disabled":false,"rental_uris":{"android":"levelo://app?vid=bc5e2925-16a2-4686-bd58-cc9a88f025e6","ios":"levelo://app?vid=bc5e2925-16a2-4686-bd58-cc9a88f025e6"},"vehicle_type_id":"4","last_reported":1778716208,"current_range_meters":5600,"station_id":"ce4bhl92rcd13ifvqghg","pricing_plan_id":"cebpf4jnsgd1na2vs0mg"},{"bike_id":"fa1d8107-8ede-46ff-b965-dfe704c07fa7","system_id":"levelo_inurba_marseille","lat":43.31366,"lon":5.3849,"is_reserved":false,"is_disabled":false,"rental_uris":{"android":"levelo://app?vid=fa1d8107-8ede-46ff-b965-dfe704c07fa7","ios":"levelo://app?vid=fa1d8107-8ede-46ff-b965-dfe704c07fa7"},"vehicle_type_id":"4","last_reported":1778716208,"current_range_meters":5600,"station_id":"ce4bgt92rcd13ifvqcf0","pricing_plan_id":"cebpf4jnsgd1na2vs0mg"},{"bike_id":"eb778b7f-d6bc-49a0-94fa-f96e2976ee7d","system_id":"levelo_inurba_marseille","lat":43.25623,"lon":5.41983,"is_reserved":false,"is_disabled":false,"rental_uris":{"android":"levelo://app?vid=eb778b7f-d6bc-49a0-94fa-f96e2976ee7d","ios":"levelo://app?vid=eb778b7f-d6bc-49a0-94fa-f96e2976ee7d"},"vehicle_type_id":"4","last_reported":1778716208,"current_range_meters":5600,"station_id":"","pricing_plan_id":"cebpf4jnsgd1na2vs0mg"},{"bike_id":"1ff46523-4e13-40fa-b61b-44e4efe7fdfb","system_id":"levelo_inurba_marseille","lat":43.304404,"lon":5.397602,"is_reserved":false,"is_disabled":false,"rental_uris":{"android":"levelo://app?vid=1ff46523-4e13-40fa-b61b-44e4efe7fdfb","ios":"levelo://app?vid=1ff46523-4e13-40fa-b61b-44e4efe7fdfb"},"vehicle_type_id":"4","last_reported":1778716208,"current_range_meters":5600,"station_id":"ce4bh092rcd13ifvqd20","pricing_plan_id":"cebpf4jnsgd1na2vs0mg"},{"bike_id":"386a0781-ba44-458a-8526-4864b27dc5e8","system_id":"levelo_inurba_marseille","lat":43.23186,"lon":5.39987,"is_reserved":false,"is_disabled":false,"rental_uris":{"android":"levelo://app?vid=386a0781-ba44-458a-8526-4864b27dc5e8","ios":"levelo://app?vid=386a0781-ba44-458a-8526-4864b27dc5e8"},"vehicle_type_id":"4","last_reported":1778716208,"current_range_meters":6000,"station_id":"ce4bhn12rcd13ifvqgqg","pricing_plan_id":"cebpf4jnsgd1na2vs0mg"},{"bike_id":"a0606dcd-56a2-486d-a97d-ece2bbdc6e78","system_id":"levelo_inurba_marseille","lat":43.33166,"lon":5.37661,"is_reserved":false,"is_disabled":false,"rental_uris":{"android":"levelo://app?vid=a0606dcd-56a2-486d-a97d-ece2bbdc6e78","ios":"levelo://app?vid=a0606dcd-56a2-486d-a97d-ece2bbdc6e78"},"vehicle_type_id":"4","last_reported":1778716208,"current_range_meters":6000,"station_id":"st_d46cu089ee8s73dldbu0","pricing_plan_id":"cebpf4jnsgd1na2vs0mg"},{"bike_id":"405f1dbf-c088-4880-9365-03325b4d46a5","system_id":"levelo_inurba_marseille","lat":43.28009,"lon":5.4,"is_reserved":false,"is_disabled":false,"rental_uris":{"android":"levelo://app?vid=405f1dbf-c088-4880-9365-03325b4d46a5","ios":"levelo://app?vid=405f1dbf-c088-4880-9365-03325b4d46a5"},"vehicle_type_id":"4","last_reported":1778716208,"current_range_meters":6000,"station_id":"ce4bho92rcd13ifvqh4g","pricing_plan_id":"cebpf4jnsgd1na2vs0mg"},{"bike_id":"4b2a07a7-0d6c-4702-a9af-dc1c6cdb7501","system_id":"levelo_inurba_marseille","lat":43.29485,"lon":5.43302,"is_reserved":false,"is_disabled":false,"rental_uris":{"android":"levelo://app?vid=4b2a07a7-0d6c-4702-a9af-dc1c6cdb7501","ios":"levelo://app?vid=4b2a07a7-0d6c-4702-a9af-dc1c6cdb7501"},"vehicle_type_id":"4","last_reported":1778716208,"current_range_meters":6000,"station_id":"st_d3j5ugp08ojc73fj9d10","pricing_plan_id":"cebpf4jnsgd1na2vs0mg"},{"bike_id":"2155b81d-4ed5-458a-9a0a-b79f20514091","system_id":"levelo_inurba_marseille","lat":43.27376,"lon":5.36257,"is_reserved":false,"is_disabled":false,"rental_uris":{"android":"levelo://app?vid=2155b81d-4ed5-458a-9a0a-b79f20514091","ios":"levelo://app?vid=2155b81d-4ed5-458a-9a0a-b79f20514091"},"vehicle_type_id":"4","last_reported":1778716208,"current_range_meters":6000,"station_id":"ce4bhbh2rcd13ifvqeo0","pricing_plan_id":"cebpf4jnsgd1na2vs0mg"},{"bike_id":"4660d09c-3d67-4691-b901-cf7c81798d2c","system_id":"levelo_inurba_marseille","lat":43.27493,"lon":5.41566,"is_reserved":false,"is_disabled":true,"rental_uris":{"android":"levelo://app?vid=4660d09c-3d67-4691-b901-cf7c81798d2c","ios":"levelo://app?vid=4660d09c-3d67-4691-b901-cf7c81798d2c"},"vehicle_type_id":"4","last_reported":1778716208,"current_range_meters":6000,"station_id":"st_d6im8g6chgec73a5pndg","pricing_plan_id":"cebpf4jnsgd1na2vs0mg"},{"bike_id":"0f4a975b-7889-43db-857b-2d6fb8450403","system_id":"levelo_inurba_marseille","lat":43.27373,"lon":5.36255,"is_reserved":false,"is_disabled":false,"rental_uris":{"android":"levelo://app?vid=0f4a975b-7889-43db-857b-2d6fb8450403","ios":"levelo://app?vid=0f4a975b-7889-43db-857b-2d6fb8450403"},"vehicle_type_id":"4","last_reported":1778716208,"current_range_meters":6000,"station_id":"ce4bhbh2rcd13ifvqeo0","pricing_plan_id":"cebpf4jnsgd1na2vs0mg"},{"bike_id":"e87d90bf-7f27-4494-86f8-3a1d5cd041da","system_id":"levelo_inurba_marseille","lat":43.23793,"lon":5.36671,"is_reserved":false,"is_disabled":false,"rental_uris":{"android":"levelo://app?vid=e87d90bf-7f27-4494-86f8-3a1d5cd041da","ios":"levelo://app?vid=e87d90bf-7f27-4494-86f8-3a1d5cd041da"},"vehicle_type_id":"4","last_reported":1778716208,"current_range_meters":6000,"station_id":"st_d3nk18o9ro0c73en2l3g","pricing_plan_id":"cebpf4jnsgd1na2vs0mg"},{"bike_id":"1f5556bc-4bf7-481f-9874-e3e1df7edc42","system_id":"levelo_inurba_marseille","lat":43.28538,"lon":5.44072,"is_reserved":false,"is_disabled":true,"rental_uris":{"android":"levelo://app?vid=1f5556bc-4bf7-481f-9874-e3e1df7edc42","ios":"levelo://app?vid=1f5556bc-4bf7-481f-9874-e3e1df7edc42"},"vehicle_type_id":"4","last_reported":1778716208,"current_range_meters":6000,"station_id":"st_d3j3df2ikq2c7380ej80","pricing_plan_id":"cebpf4jnsgd1na2vs0mg"},{"bike_id":"e8be6d30-92bd-4faa-804d-9aab5a4d7b08","system_id":"levelo_inurba_marseille","lat":43.28931,"lon":5.3665,"is_reserved":false,"is_disabled":false,"rental_uris":{"android":"levelo://app?vid=e8be6d30-92bd-4faa-804d-9aab5a4d7b08","ios":"levelo://app?vid=e8be6d30-92bd-4faa-804d-9aab5a4d7b08"},"vehicle_type_id":"4","last_reported":1778716208,"current_range_meters":6000,"station_id":"ce4bhap2rcd13ifvqek0","pricing_plan_id":"cebpf4jnsgd1na2vs0mg"},{"bike_id":"b539794b-9564-41c4-af5b-33f37d930411","system_id":"levelo_inurba_marseille","lat":43.29868,"lon":5.38975,"is_reserved":false,"is_disabled":false,"rental_uris":{"android":"levelo://app?vid=b539794b-9564-41c4-af5b-33f37d930411","ios":"levelo://app?vid=b539794b-9564-41c4-af5b-33f37d930411"},"vehicle_type_id":"4","last_reported":1778716208,"current_range_meters":6000,"station_id":"ce4bh392rcd13ifvqdl0","pricing_plan_id":"cebpf4jnsgd1na2vs0mg"},{"bike_id":"9104dee2-c51d-473d-8362-26d83207dddb","system_id":"levelo_inurba_marseille","lat":43.27609,"lon":5.36103,"is_reserved":false,"is_disabled":false,"rental_uris":{"android":"levelo://app?vid=9104dee2-c51d-473d-8362-26d83207dddb","ios":"levelo://app?vid=9104dee2-c51d-473d-8362-26d83207dddb"},"vehicle_type_id":"4","last_reported":1778716208,"current_range_meters":6000,"station_id":"ce4bgj92rcd13ifvqbe0","pricing_plan_id":"cebpf4jnsgd1na2vs0mg"},{"bike_id":"4c2ebf2f-679f-4d9d-8fea-3fc309890292","system_id":"levelo_inurba_marseille","lat":43.30153,"lon":5.37399,"is_reserved":false,"is_disabled":true,"rental_uris":{"android":"levelo://app?vid=4c2ebf2f-679f-4d9d-8fea-3fc309890292","ios":"levelo://app?vid=4c2ebf2f-679f-4d9d-8fea-3fc309890292"},"vehicle_type_id":"4","last_reported":1778716208,"current_range_meters":6000,"station_id":"ce4bgs92rcd13ifvqcc0","pricing_plan_id":"cebpf4jnsgd1na2vs0mg"},{"bike_id":"93cc585f-6b6e-4293-a6af-bae019dca712","system_id":"levelo_inurba_marseille","lat":43.28416,"lon":5.37508,"is_reserved":false,"is_disabled":false,"rental_uris":{"android":"levelo://app?vid=93cc585f-6b6e-4293-a6af-bae019dca712","ios":"levelo://app?vid=93cc585f-6b6e-4293-a6af-bae019dca712"},"vehicle_type_id":"4","last_reported":1778716208,"current_range_meters":6000,"station_id":"ce4bh412rcd13ifvqds0","pricing_plan_id":"cebpf4jnsgd1na2vs0mg"},{"bike_id":"1128d267-c976-408f-b808-b19825c6a7df","system_id":"levelo_inurba_marseille","lat":43.29103,"lon":5.38146,"is_reserved":false,"is_disabled":false,"rental_uris":{"android":"levelo://app?vid=1128d267-c976-408f-b808-b19825c6a7df","ios":"levelo://app?vid=1128d267-c976-408f-b808-b19825c6a7df"},"vehicle_type_id":"4","last_reported":1778716208,"current_range_meters":6000,"station_id":"ce4bh512rcd13ifvqe2g","pricing_plan_id":"cebpf4jnsgd1na2vs0mg"},{"bike_id":"88fc0704-7ae9-4b21-a817-5ad0923d8660","system_id":"levelo_inurba_marseille","lat":43.28911,"lon":5.37765,"is_reserved":false,"is_disabled":false,"rental_uris":{"android":"levelo://app?vid=88fc0704-7ae9-4b21-a817-5ad0923d8660","ios":"levelo://app?vid=88fc0704-7ae9-4b21-a817-5ad0923d8660"},"vehicle_type_id":"4","last_reported":1778716208,"current_range_meters":6000,"station_id":"","pricing_plan_id":"cebpf4jnsgd1na2vs0mg"},{"bike_id":"0dac72c1-f82f-4c1f-95e6-fbf0c1410ae5","system_id":"levelo_inurba_marseille","lat":43.23973,"lon":5.36627,"is_reserved":false,"is_disabled":false,"rental_uris":{"android":"levelo://app?vid=0dac72c1-f82f-4c1f-95e6-fbf0c1410ae5","ios":"levelo://app?vid=0dac72c1-f82f-4c1f-95e6-fbf0c1410ae5"},"vehicle_type_id":"4","last_reported":1778716208,"current_range_meters":6000,"station_id":"ce4bhi12rcd13ifvqfp0","pricing_plan_id":"cebpf4jnsgd1na2vs0mg"},{"bike_id":"30388078-cd88-4dde-9070-5a1bdfc97cfb","system_id":"levelo_inurba_marseille","lat":43.31127,"lon":5.39504,"is_reserved":false,"is_disabled":false,"rental_uris":{"android":"levelo://app?vid=30388078-cd88-4dde-9070-5a1bdfc97cfb","ios":"levelo://app?vid=30388078-cd88-4dde-9070-5a1bdfc97cfb"},"vehicle_type_id":"4","last_reported":1778716208,"current_range_meters":6400,"station_id":"","pricing_plan_id":"cebpf4jnsgd1na2vs0mg"},{"bike_id":"e82b5d42-3586-42a6-8cf2-e549c0dabdad","system_id":"levelo_inurba_marseille","lat":43.297894,"lon":5.393496,"is_reserved":false,"is_disabled":false,"rental_uris":{"android":"levelo://app?vid=e82b5d42-3586-42a6-8cf2-e549c0dabdad","ios":"levelo://app?vid=e82b5d42-3586-42a6-8cf2-e549c0dabdad"},"vehicle_type_id":"4","last_reported":1778716208,"current_range_meters":6400,"station_id":"chh1huq6cuj3fo74tm60","pricing_plan_id":"cebpf4jnsgd1na2vs0mg"},{"bike_id":"6e855303-55c2-4763-9425-8d7d0f002e10","system_id":"levelo_inurba_marseille","lat":43.27918,"lon":5.39582,"is_reserved":false,"is_disabled":false,"rental_uris":{"android":"levelo://app?vid=6e855303-55c2-4763-9425-8d7d0f002e10","ios":"levelo://app?vid=6e855303-55c2-4763-9425-8d7d0f002e10"},"vehicle_type_id":"4","last_reported":1778716208,"current_range_meters":6400,"station_id":"ce4bhf92rcd13ifvqf40","pricing_plan_id":"cebpf4jnsgd1na2vs0mg"},{"bike_id":"a69bbb17-e904-4bbe-b1a6-d8e7b08362c7","system_id":"levelo_inurba_marseille","lat":43.23989,"lon":5.39932,"is_reserved":false,"is_disabled":false,"rental_uris":{"android":"levelo://app?vid=a69bbb17-e904-4bbe-b1a6-d8e7b08362c7","ios":"levelo://app?vid=a69bbb17-e904-4bbe-b1a6-d8e7b08362c7"},"vehicle_type_id":"4","last_reported":1778716208,"current_range_meters":6400,"station_id":"","pricing_plan_id":"cebpf4jnsgd1na2vs0mg"},{"bike_id":"72179d6d-4306-495c-979e-7fc83e24d3fc","system_id":"levelo_inurba_marseille","lat":43.302,"lon":5.36608,"is_reserved":false,"is_disabled":false,"rental_uris":{"android":"levelo://app?vid=72179d6d-4306-495c-979e-7fc83e24d3fc","ios":"levelo://app?vid=72179d6d-4306-495c-979e-7fc83e24d3fc"},"vehicle_type_id":"4","last_reported":1778716208,"current_range_meters":6400,"station_id":"ce4bgrh2rcd13ifvqc8g","pricing_plan_id":"cebpf4jnsgd1na2vs0mg"},{"bike_id":"dc6960a7-1f93-4b4e-85c3-4c612c60a34a","system_id":"levelo_inurba_marseille","lat":43.29044,"lon":5.39945,"is_reserved":false,"is_disabled":false,"rental_uris":{"android":"levelo://app?vid=dc6960a7-1f93-4b4e-85c3-4c612c60a34a","ios":"levelo://app?vid=dc6960a7-1f93-4b4e-85c3-4c612c60a34a"},"vehicle_type_id":"4","last_reported":1778716208,"current_range_meters":6400,"station_id":"ce4bh392rcd13ifvqdm0","pricing_plan_id":"cebpf4jnsgd1na2vs0mg"},{"bike_id":"4c014cf0-0d3f-41aa-8e11-e97021f59b55","system_id":"levelo_inurba_marseille","lat":43.30584,"lon":5.39328,"is_reserved":false,"is_disabled":false,"rental_uris":{"android":"levelo://app?vid=4c014cf0-0d3f-41aa-8e11-e97021f59b55","ios":"levelo://app?vid=4c014cf0-0d3f-41aa-8e11-e97021f59b55"},"vehicle_type_id":"4","last_reported":1778716208,"current_range_meters":6400,"station_id":"ce4bh0p2rcd13ifvqd80","pricing_plan_id":"cebpf4jnsgd1na2vs0mg"},{"bike_id":"557cfc67-cfbb-45a9-8dcc-2924d8cb0795","system_id":"levelo_inurba_marseille","lat":43.30302,"lon":5.39205,"is_reserved":false,"is_disabled":false,"rental_uris":{"android":"levelo://app?vid=557cfc67-cfbb-45a9-8dcc-2924d8cb0795","ios":"levelo://app?vid=557cfc67-cfbb-45a9-8dcc-2924d8cb0795"},"vehicle_type_id":"4","last_reported":1778716208,"current_range_meters":6400,"station_id":"ce4bgkh2rcd13ifvqbk0","pricing_plan_id":"cebpf4jnsgd1na2vs0mg"},{"bike_id":"c8f05c78-1548-4c31-916e-2eaa20713e87","system_id":"levelo_inurba_marseille","lat":43.24547,"lon":5.39527,"is_reserved":false,"is_disabled":false,"rental_uris":{"android":"levelo://app?vid=c8f05c78-1548-4c31-916e-2eaa20713e87","ios":"levelo://app?vid=c8f05c78-1548-4c31-916e-2eaa20713e87"},"vehicle_type_id":"4","last_reported":1778716208,"current_range_meters":6400,"station_id":"ce4bhlp2rcd13ifvqgjg","pricing_plan_id":"cebpf4jnsgd1na2vs0mg"},{"bike_id":"cc07bf0e-fbfe-4b5f-bef1-ce0ea8b187cc","system_id":"levelo_inurba_marseille","lat":43.304287,"lon":5.397473,"is_reserved":false,"is_disabled":false,"rental_uris":{"android":"levelo://app?vid=cc07bf0e-fbfe-4b5f-bef1-ce0ea8b187cc","ios":"levelo://app?vid=cc07bf0e-fbfe-4b5f-bef1-ce0ea8b187cc"},"vehicle_type_id":"4","last_reported":1778716208,"current_range_meters":6400,"station_id":"ce4bh092rcd13ifvqd20","pricing_plan_id":"cebpf4jnsgd1na2vs0mg"},{"bike_id":"1301d2af-c91a-458f-a0c0-3744da869577","system_id":"levelo_inurba_marseille","lat":43.21198,"lon":5.35064,"is_reserved":false,"is_disabled":false,"rental_uris":{"android":"levelo://app?vid=1301d2af-c91a-458f-a0c0-3744da869577","ios":"levelo://app?vid=1301d2af-c91a-458f-a0c0-3744da869577"},"vehicle_type_id":"4","last_reported":1778716208,"current_range_meters":6400,"station_id":"st_cvj6sg6p6f1abm77japg","pricing_plan_id":"cebpf4jnsgd1na2vs0mg"},{"bike_id":"af7711e0-e575-40a0-b091-6facadb6b1b3","system_id":"levelo_inurba_marseille","lat":43.28665,"lon":5.36351,"is_reserved":false,"is_disabled":false,"rental_uris":{"android":"levelo://app?vid=af7711e0-e575-40a0-b091-6facadb6b1b3","ios":"levelo://app?vid=af7711e0-e575-40a0-b091-6facadb6b1b3"},"vehicle_type_id":"4","last_reported":1778716208,"current_range_meters":6400,"station_id":"ce4bhah2rcd13ifvqej0","pricing_plan_id":"cebpf4jnsgd1na2vs0mg"},{"bike_id":"805de22b-1219-4f85-96ef-75e6cd60b5f0","system_id":"levelo_inurba_marseille","lat":43.25577,"lon":5.38221,"is_reserved":false,"is_disabled":false,"rental_uris":{"android":"levelo://app?vid=805de22b-1219-4f85-96ef-75e6cd60b5f0","ios":"levelo://app?vid=805de22b-1219-4f85-96ef-75e6cd60b5f0"},"vehicle_type_id":"4","last_reported":1778716208,"current_range_meters":6400,"station_id":"ce4bhih2rcd13ifvqfs0","pricing_plan_id":"cebpf4jnsgd1na2vs0mg"},{"bike_id":"88675d7a-85fd-4d50-8665-07d1abbd3625","system_id":"levelo_inurba_marseille","lat":43.28441,"lon":5.35894,"is_reserved":false,"is_disabled":false,"rental_uris":{"android":"levelo://app?vid=88675d7a-85fd-4d50-8665-07d1abbd3625","ios":"levelo://app?vid=88675d7a-85fd-4d50-8665-07d1abbd3625"},"vehicle_type_id":"4","last_reported":1778716208,"current_range_meters":6400,"station_id":"ce4bhah2rcd13ifvqei0","pricing_plan_id":"cebpf4jnsgd1na2vs0mg"},{"bike_id":"cd0e15e6-383e-4ca1-af5d-9dc8c2dea329","system_id":"levelo_inurba_marseille","lat":43.30935,"lon":5.4015,"is_reserved":false,"is_disabled":false,"rental_uris":{"android":"levelo://app?vid=cd0e15e6-383e-4ca1-af5d-9dc8c2dea329","ios":"levelo://app?vid=cd0e15e6-383e-4ca1-af5d-9dc8c2dea329"},"vehicle_type_id":"4","last_reported":1778716208,"current_range_meters":6400,"station_id":"ce4bgvp2rcd13ifvqct0","pricing_plan_id":"cebpf4jnsgd1na2vs0mg"},{"bike_id":"23dd7e9d-979a-4281-b8ae-d54103af534b","system_id":"levelo_inurba_marseille","lat":43.2582,"lon":5.39397,"is_reserved":false,"is_disabled":false,"rental_uris":{"android":"levelo://app?vid=23dd7e9d-979a-4281-b8ae-d54103af534b","ios":"levelo://app?vid=23dd7e9d-979a-4281-b8ae-d54103af534b"},"vehicle_type_id":"4","last_reported":1778716208,"current_range_meters":6400,"station_id":"ce4bhip2rcd13ifvqft0","pricing_plan_id":"cebpf4jnsgd1na2vs0mg"},{"bike_id":"6206d17b-cf9d-41b3-a41d-c6052f6a6ce2","system_id":"levelo_inurba_marseille","lat":43.33536,"lon":5.37479,"is_reserved":false,"is_disabled":false,"rental_uris":{"android":"levelo://app?vid=6206d17b-cf9d-41b3-a41d-c6052f6a6ce2","ios":"levelo://app?vid=6206d17b-cf9d-41b3-a41d-c6052f6a6ce2"},"vehicle_type_id":"4","last_reported":1778716208,"current_range_meters":6800,"station_id":"st_d46tts09ee8s73dlu43g","pricing_plan_id":"cebpf4jnsgd1na2vs0mg"},{"bike_id":"ed122cb0-9c4b-4104-b359-218c1bf83706","system_id":"levelo_inurba_marseille","lat":43.29566,"lon":5.39974,"is_reserved":false,"is_disabled":true,"rental_uris":{"android":"levelo://app?vid=ed122cb0-9c4b-4104-b359-218c1bf83706","ios":"levelo://app?vid=ed122cb0-9c4b-4104-b359-218c1bf83706"},"vehicle_type_id":"4","last_reported":1778716208,"current_range_meters":6800,"station_id":"ce4bh312rcd13ifvqdj0","pricing_plan_id":"cebpf4jnsgd1na2vs0mg"},{"bike_id":"65191135-268b-4aca-b249-8c026a0bfedd","system_id":"levelo_inurba_marseille","lat":43.27206,"lon":5.40968,"is_reserved":false,"is_disabled":false,"rental_uris":{"android":"levelo://app?vid=65191135-268b-4aca-b249-8c026a0bfedd","ios":"levelo://app?vid=65191135-268b-4aca-b249-8c026a0bfedd"},"vehicle_type_id":"4","last_reported":1778716208,"current_range_meters":6800,"station_id":"ce4bhl12rcd13ifvqgf0","pricing_plan_id":"cebpf4jnsgd1na2vs0mg"},{"bike_id":"fc226c98-f322-48a2-8f2c-6caf8724578d","system_id":"levelo_inurba_marseille","lat":43.31125,"lon":5.37753,"is_reserved":false,"is_disabled":false,"rental_uris":{"android":"levelo://app?vid=fc226c98-f322-48a2-8f2c-6caf8724578d","ios":"levelo://app?vid=fc226c98-f322-48a2-8f2c-6caf8724578d"},"vehicle_type_id":"4","last_reported":1778716208,"current_range_meters":6800,"station_id":"ce4bgt92rcd13ifvqcg0","pricing_plan_id":"cebpf4jnsgd1na2vs0mg"},{"bike_id":"b424ee19-8b5c-4453-bc8f-6f4e7e1a4744","system_id":"levelo_inurba_marseille","lat":43.25098,"lon":5.39527,"is_reserved":false,"is_disabled":false,"rental_uris":{"android":"levelo://app?vid=b424ee19-8b5c-4453-bc8f-6f4e7e1a4744","ios":"levelo://app?vid=b424ee19-8b5c-4453-bc8f-6f4e7e1a4744"},"vehicle_type_id":"4","last_reported":1778716208,"current_range_meters":6800,"station_id":"ce4bhm12rcd13ifvqgkg","pricing_plan_id":"cebpf4jnsgd1na2vs0mg"},{"bike_id":"76550bf5-ac1c-45c1-94bc-61082ba93480","system_id":"levelo_inurba_marseille","lat":43.29013,"lon":5.38627,"is_reserved":false,"is_disabled":false,"rental_uris":{"android":"levelo://app?vid=76550bf5-ac1c-45c1-94bc-61082ba93480","ios":"levelo://app?vid=76550bf5-ac1c-45c1-94bc-61082ba93480"},"vehicle_type_id":"4","last_reported":1778716208,"current_range_meters":6800,"station_id":"ce4bh4p2rcd13ifvqe0g","pricing_plan_id":"cebpf4jnsgd1na2vs0mg"},{"bike_id":"95c02ffd-d429-4bb4-9cec-b7834d99f0f6","system_id":"levelo_inurba_marseille","lat":43.33162,"lon":5.37691,"is_reserved":false,"is_disabled":false,"rental_uris":{"android":"levelo://app?vid=95c02ffd-d429-4bb4-9cec-b7834d99f0f6","ios":"levelo://app?vid=95c02ffd-d429-4bb4-9cec-b7834d99f0f6"},"vehicle_type_id":"4","last_reported":1778716208,"current_range_meters":6800,"station_id":"st_d46cu089ee8s73dldbu0","pricing_plan_id":"cebpf4jnsgd1na2vs0mg"},{"bike_id":"f7b71e8a-de3b-4d59-8cbd-1c1ed6357a73","system_id":"levelo_inurba_marseille","lat":43.26937,"lon":5.40264,"is_reserved":false,"is_disabled":true,"rental_uris":{"android":"levelo://app?vid=f7b71e8a-de3b-4d59-8cbd-1c1ed6357a73","ios":"levelo://app?vid=f7b71e8a-de3b-4d59-8cbd-1c1ed6357a73"},"vehicle_type_id":"4","last_reported":1778716208,"current_range_meters":6800,"station_id":"cjm6bp8fraef2m0cb0m0","pricing_plan_id":"cebpf4jnsgd1na2vs0mg"},{"bike_id":"c68f6501-5625-4ed6-95bd-6083060e31f2","system_id":"levelo_inurba_marseille","lat":43.29099,"lon":5.38135,"is_reserved":false,"is_disabled":false,"rental_uris":{"android":"levelo://app?vid=c68f6501-5625-4ed6-95bd-6083060e31f2","ios":"levelo://app?vid=c68f6501-5625-4ed6-95bd-6083060e31f2"},"vehicle_type_id":"4","last_reported":1778716208,"current_range_meters":6800,"station_id":"ce4bh512rcd13ifvqe2g","pricing_plan_id":"cebpf4jnsgd1na2vs0mg"},{"bike_id":"02b0c393-3fce-4646-8e55-954077194616","system_id":"levelo_inurba_marseille","lat":43.27359,"lon":5.36244,"is_reserved":false,"is_disabled":false,"rental_uris":{"android":"levelo://app?vid=02b0c393-3fce-4646-8e55-954077194616","ios":"levelo://app?vid=02b0c393-3fce-4646-8e55-954077194616"},"vehicle_type_id":"4","last_reported":1778716208,"current_range_meters":6800,"station_id":"ce4bhbh2rcd13ifvqeo0","pricing_plan_id":"cebpf4jnsgd1na2vs0mg"},{"bike_id":"85c4beb0-759e-43b8-96d0-4a792eb6f9e1","system_id":"levelo_inurba_marseille","lat":43.24789,"lon":5.37439,"is_reserved":false,"is_disabled":false,"rental_uris":{"android":"levelo://app?vid=85c4beb0-759e-43b8-96d0-4a792eb6f9e1","ios":"levelo://app?vid=85c4beb0-759e-43b8-96d0-4a792eb6f9e1"},"vehicle_type_id":"4","last_reported":1778716208,"current_range_meters":6800,"station_id":"ce4bhgh2rcd13ifvqfb0","pricing_plan_id":"cebpf4jnsgd1na2vs0mg"},{"bike_id":"1f10d4ed-e4ce-4d38-abe2-e3c7c14b9ed3","system_id":"levelo_inurba_marseille","lat":43.24949,"lon":5.40488,"is_reserved":false,"is_disabled":false,"rental_uris":{"android":"levelo://app?vid=1f10d4ed-e4ce-4d38-abe2-e3c7c14b9ed3","ios":"levelo://app?vid=1f10d4ed-e4ce-4d38-abe2-e3c7c14b9ed3"},"vehicle_type_id":"4","last_reported":1778716208,"current_range_meters":6800,"station_id":"st_d2ngiaodas8pm72gd1h0","pricing_plan_id":"cebpf4jnsgd1na2vs0mg"},{"bike_id":"d7bbce33-4845-419c-9761-61bbb5b4af7e","system_id":"levelo_inurba_marseille","lat":43.28657,"lon":5.36398,"is_reserved":false,"is_disabled":false,"rental_uris":{"android":"levelo://app?vid=d7bbce33-4845-419c-9761-61bbb5b4af7e","ios":"levelo://app?vid=d7bbce33-4845-419c-9761-61bbb5b4af7e"},"vehicle_type_id":"4","last_reported":1778716208,"current_range_meters":6800,"station_id":"","pricing_plan_id":"cebpf4jnsgd1na2vs0mg"},{"bike_id":"0ddd1a44-6a20-4f20-87bb-54f6dbe51696","system_id":"levelo_inurba_marseille","lat":43.3175,"lon":5.40189,"is_reserved":false,"is_disabled":false,"rental_uris":{"android":"levelo://app?vid=0ddd1a44-6a20-4f20-87bb-54f6dbe51696","ios":"levelo://app?vid=0ddd1a44-6a20-4f20-87bb-54f6dbe51696"},"vehicle_type_id":"4","last_reported":1778716208,"current_range_meters":6800,"station_id":"","pricing_plan_id":"cebpf4jnsgd1na2vs0mg"},{"bike_id":"a35b2701-46dd-4ecb-8ac3-f673ab8a4bbc","system_id":"levelo_inurba_marseille","lat":43.24074,"lon":5.37758,"is_reserved":false,"is_disabled":false,"rental_uris":{"android":"levelo://app?vid=a35b2701-46dd-4ecb-8ac3-f673ab8a4bbc","ios":"levelo://app?vid=a35b2701-46dd-4ecb-8ac3-f673ab8a4bbc"},"vehicle_type_id":"4","last_reported":1778716208,"current_range_meters":6800,"station_id":"ce4bhnp2rcd13ifvqgvg","pricing_plan_id":"cebpf4jnsgd1na2vs0mg"},{"bike_id":"6e70dae6-54d0-47a0-93ef-de0e8a081ba0","system_id":"levelo_inurba_marseille","lat":43.30173,"lon":5.37366,"is_reserved":false,"is_disabled":true,"rental_uris":{"android":"levelo://app?vid=6e70dae6-54d0-47a0-93ef-de0e8a081ba0","ios":"levelo://app?vid=6e70dae6-54d0-47a0-93ef-de0e8a081ba0"},"vehicle_type_id":"4","last_reported":1778716208,"current_range_meters":6800,"station_id":"","pricing_plan_id":"cebpf4jnsgd1na2vs0mg"},{"bike_id":"e0e3f93f-16e8-4b39-b089-98387a4c334d","system_id":"levelo_inurba_marseille","lat":43.33541,"lon":5.37476,"is_reserved":false,"is_disabled":false,"rental_uris":{"android":"levelo://app?vid=e0e3f93f-16e8-4b39-b089-98387a4c334d","ios":"levelo://app?vid=e0e3f93f-16e8-4b39-b089-98387a4c334d"},"vehicle_type_id":"4","last_reported":1778716208,"current_range_meters":6800,"station_id":"st_d46tts09ee8s73dlu43g","pricing_plan_id":"cebpf4jnsgd1na2vs0mg"},{"bike_id":"4751127d-3aa2-446e-8601-6629ed659fa5","system_id":"levelo_inurba_marseille","lat":43.22562,"lon":5.41625,"is_reserved":false,"is_disabled":false,"rental_uris":{"android":"levelo://app?vid=4751127d-3aa2-446e-8601-6629ed659fa5","ios":"levelo://app?vid=4751127d-3aa2-446e-8601-6629ed659fa5"},"vehicle_type_id":"4","last_reported":1778716208,"current_range_meters":6800,"station_id":"st_d2o4gvlbi1j2169b742g","pricing_plan_id":"cebpf4jnsgd1na2vs0mg"},{"bike_id":"64c247da-b0be-4aaa-bd52-5aa02afec6aa","system_id":"levelo_inurba_marseille","lat":43.2847,"lon":5.38594,"is_reserved":false,"is_disabled":false,"rental_uris":{"android":"levelo://app?vid=64c247da-b0be-4aaa-bd52-5aa02afec6aa","ios":"levelo://app?vid=64c247da-b0be-4aaa-bd52-5aa02afec6aa"},"vehicle_type_id":"4","last_reported":1778716208,"current_range_meters":6800,"station_id":"ce4bh8p2rcd13ifvqeb0","pricing_plan_id":"cebpf4jnsgd1na2vs0mg"},{"bike_id":"1dee72ea-cbbb-4f0f-b373-7962e2bff9d2","system_id":"levelo_inurba_marseille","lat":43.24642,"lon":5.38975,"is_reserved":false,"is_disabled":false,"rental_uris":{"android":"levelo://app?vid=1dee72ea-cbbb-4f0f-b373-7962e2bff9d2","ios":"levelo://app?vid=1dee72ea-cbbb-4f0f-b373-7962e2bff9d2"},"vehicle_type_id":"4","last_reported":1778716208,"current_range_meters":6800,"station_id":"","pricing_plan_id":"cebpf4jnsgd1na2vs0mg"},{"bike_id":"875fa8b3-ccbd-436f-b419-5dfdc4c6cf1b","system_id":"levelo_inurba_marseille","lat":43.30894,"lon":5.37205,"is_reserved":false,"is_disabled":false,"rental_uris":{"android":"levelo://app?vid=875fa8b3-ccbd-436f-b419-5dfdc4c6cf1b","ios":"levelo://app?vid=875fa8b3-ccbd-436f-b419-5dfdc4c6cf1b"},"vehicle_type_id":"4","last_reported":1778716208,"current_range_meters":7200,"station_id":"ce4bguh2rcd13ifvqckg","pricing_plan_id":"cebpf4jnsgd1na2vs0mg"},{"bike_id":"3baf60fe-0260-4ac0-9a4d-b71fdd4d99a9","system_id":"levelo_inurba_marseille","lat":43.31681,"lon":5.40482,"is_reserved":false,"is_disabled":false,"rental_uris":{"android":"levelo://app?vid=3baf60fe-0260-4ac0-9a4d-b71fdd4d99a9","ios":"levelo://app?vid=3baf60fe-0260-4ac0-9a4d-b71fdd4d99a9"},"vehicle_type_id":"4","last_reported":1778716208,"current_range_meters":7200,"station_id":"ce4bh012rcd13ifvqd00","pricing_plan_id":"cebpf4jnsgd1na2vs0mg"},{"bike_id":"464c74fd-fe31-4df7-9dc5-c340692a38f5","system_id":"levelo_inurba_marseille","lat":43.24948,"lon":5.40487,"is_reserved":false,"is_disabled":false,"rental_uris":{"android":"levelo://app?vid=464c74fd-fe31-4df7-9dc5-c340692a38f5","ios":"levelo://app?vid=464c74fd-fe31-4df7-9dc5-c340692a38f5"},"vehicle_type_id":"4","last_reported":1778716208,"current_range_meters":7200,"station_id":"st_d2ngiaodas8pm72gd1h0","pricing_plan_id":"cebpf4jnsgd1na2vs0mg"},{"bike_id":"ed4c3f2a-5d31-4810-95b1-c0338c5b21d1","system_id":"levelo_inurba_marseille","lat":43.337742,"lon":5.374345,"is_reserved":false,"is_disabled":false,"rental_uris":{"android":"levelo://app?vid=ed4c3f2a-5d31-4810-95b1-c0338c5b21d1","ios":"levelo://app?vid=ed4c3f2a-5d31-4810-95b1-c0338c5b21d1"},"vehicle_type_id":"4","last_reported":1778716208,"current_range_meters":7200,"station_id":"","pricing_plan_id":"cebpf4jnsgd1na2vs0mg"},{"bike_id":"2eaa840a-f8ca-45a2-bc4a-9d7b0be45bff","system_id":"levelo_inurba_marseille","lat":43.31124,"lon":5.37755,"is_reserved":false,"is_disabled":false,"rental_uris":{"android":"levelo://app?vid=2eaa840a-f8ca-45a2-bc4a-9d7b0be45bff","ios":"levelo://app?vid=2eaa840a-f8ca-45a2-bc4a-9d7b0be45bff"},"vehicle_type_id":"4","last_reported":1778716208,"current_range_meters":7200,"station_id":"ce4bgt92rcd13ifvqcg0","pricing_plan_id":"cebpf4jnsgd1na2vs0mg"},{"bike_id":"9bdeec9e-ffe9-4bb8-a39f-cd33f89c0969","system_id":"levelo_inurba_marseille","lat":43.29741,"lon":5.37175,"is_reserved":false,"is_disabled":false,"rental_uris":{"android":"levelo://app?vid=9bdeec9e-ffe9-4bb8-a39f-cd33f89c0969","ios":"levelo://app?vid=9bdeec9e-ffe9-4bb8-a39f-cd33f89c0969"},"vehicle_type_id":"4","last_reported":1778716208,"current_range_meters":7200,"station_id":"","pricing_plan_id":"cebpf4jnsgd1na2vs0mg"},{"bike_id":"974155a8-15e9-4961-bf5a-c20f8b52fd28","system_id":"levelo_inurba_marseille","lat":43.31264,"lon":5.39678,"is_reserved":false,"is_disabled":false,"rental_uris":{"android":"levelo://app?vid=974155a8-15e9-4961-bf5a-c20f8b52fd28","ios":"levelo://app?vid=974155a8-15e9-4961-bf5a-c20f8b52fd28"},"vehicle_type_id":"4","last_reported":1778716208,"current_range_meters":7200,"station_id":"","pricing_plan_id":"cebpf4jnsgd1na2vs0mg"},{"bike_id":"b1f85c10-3a72-4895-b4df-4b7782abd0b1","system_id":"levelo_inurba_marseille","lat":43.28532,"lon":5.44095,"is_reserved":false,"is_disabled":false,"rental_uris":{"android":"levelo://app?vid=b1f85c10-3a72-4895-b4df-4b7782abd0b1","ios":"levelo://app?vid=b1f85c10-3a72-4895-b4df-4b7782abd0b1"},"vehicle_type_id":"4","last_reported":1778716208,"current_range_meters":7200,"station_id":"st_d3j3df2ikq2c7380ej80","pricing_plan_id":"cebpf4jnsgd1na2vs0mg"},{"bike_id":"34cc106d-e88f-464c-b290-ce7702652b61","system_id":"levelo_inurba_marseille","lat":43.28945,"lon":5.36399,"is_reserved":false,"is_disabled":false,"rental_uris":{"android":"levelo://app?vid=34cc106d-e88f-464c-b290-ce7702652b61","ios":"levelo://app?vid=34cc106d-e88f-464c-b290-ce7702652b61"},"vehicle_type_id":"4","last_reported":1778716208,"current_range_meters":7200,"station_id":"ce4bhc92rcd13ifvqetg","pricing_plan_id":"cebpf4jnsgd1na2vs0mg"},{"bike_id":"87c81631-4451-4236-92c6-4b297de3f797","system_id":"levelo_inurba_marseille","lat":43.31356,"lon":5.38492,"is_reserved":false,"is_disabled":false,"rental_uris":{"android":"levelo://app?vid=87c81631-4451-4236-92c6-4b297de3f797","ios":"levelo://app?vid=87c81631-4451-4236-92c6-4b297de3f797"},"vehicle_type_id":"4","last_reported":1778716208,"current_range_meters":7200,"station_id":"ce4bgt92rcd13ifvqcf0","pricing_plan_id":"cebpf4jnsgd1na2vs0mg"},{"bike_id":"6811c7c6-a2bd-4d20-9cbe-d61fcf31d43c","system_id":"levelo_inurba_marseille","lat":43.30415,"lon":5.39753,"is_reserved":false,"is_disabled":false,"rental_uris":{"android":"levelo://app?vid=6811c7c6-a2bd-4d20-9cbe-d61fcf31d43c","ios":"levelo://app?vid=6811c7c6-a2bd-4d20-9cbe-d61fcf31d43c"},"vehicle_type_id":"4","last_reported":1778716208,"current_range_meters":7200,"station_id":"ce4bh092rcd13ifvqd20","pricing_plan_id":"cebpf4jnsgd1na2vs0mg"},{"bike_id":"1c8551e7-65a0-49fa-ba5d-23c46f24083e","system_id":"levelo_inurba_marseille","lat":43.28699,"lon":5.46691,"is_reserved":false,"is_disabled":false,"rental_uris":{"android":"levelo://app?vid=1c8551e7-65a0-49fa-ba5d-23c46f24083e","ios":"levelo://app?vid=1c8551e7-65a0-49fa-ba5d-23c46f24083e"},"vehicle_type_id":"4","last_reported":1778716208,"current_range_meters":7200,"station_id":"st_d6tc3vkotcvc738tfjhg","pricing_plan_id":"cebpf4jnsgd1na2vs0mg"},{"bike_id":"af705914-bb9c-47f1-9802-e7ff0d2548f0","system_id":"levelo_inurba_marseille","lat":43.25478,"lon":5.37651,"is_reserved":false,"is_disabled":false,"rental_uris":{"android":"levelo://app?vid=af705914-bb9c-47f1-9802-e7ff0d2548f0","ios":"levelo://app?vid=af705914-bb9c-47f1-9802-e7ff0d2548f0"},"vehicle_type_id":"4","last_reported":1778716208,"current_range_meters":7200,"station_id":"ce4bhh12rcd13ifvqff0","pricing_plan_id":"cebpf4jnsgd1na2vs0mg"},{"bike_id":"4a568d14-8b20-4b0f-a249-47ba1e0114bd","system_id":"levelo_inurba_marseille","lat":43.26195,"lon":5.37458,"is_reserved":false,"is_disabled":true,"rental_uris":{"android":"levelo://app?vid=4a568d14-8b20-4b0f-a249-47ba1e0114bd","ios":"levelo://app?vid=4a568d14-8b20-4b0f-a249-47ba1e0114bd"},"vehicle_type_id":"4","last_reported":1778716208,"current_range_meters":7200,"station_id":"ce4bhgp2rcd13ifvqfc0","pricing_plan_id":"cebpf4jnsgd1na2vs0mg"},{"bike_id":"b299766d-661b-4293-b516-1846fa5fb91f","system_id":"levelo_inurba_marseille","lat":43.28565,"lon":5.38648,"is_reserved":false,"is_disabled":false,"rental_uris":{"android":"levelo://app?vid=b299766d-661b-4293-b516-1846fa5fb91f","ios":"levelo://app?vid=b299766d-661b-4293-b516-1846fa5fb91f"},"vehicle_type_id":"4","last_reported":1778716208,"current_range_meters":7200,"station_id":"","pricing_plan_id":"cebpf4jnsgd1na2vs0mg"},{"bike_id":"3addb0dc-ef1e-472b-98c7-3afe36aa06ef","system_id":"levelo_inurba_marseille","lat":43.28938,"lon":5.3664,"is_reserved":false,"is_disabled":false,"rental_uris":{"android":"levelo://app?vid=3addb0dc-ef1e-472b-98c7-3afe36aa06ef","ios":"levelo://app?vid=3addb0dc-ef1e-472b-98c7-3afe36aa06ef"},"vehicle_type_id":"4","last_reported":1778716208,"current_range_meters":7200,"station_id":"ce4bhap2rcd13ifvqek0","pricing_plan_id":"cebpf4jnsgd1na2vs0mg"},{"bike_id":"76abce95-1fbb-457c-83c9-8be31c1ba964","system_id":"levelo_inurba_marseille","lat":43.23193,"lon":5.39971,"is_reserved":false,"is_disabled":true,"rental_uris":{"android":"levelo://app?vid=76abce95-1fbb-457c-83c9-8be31c1ba964","ios":"levelo://app?vid=76abce95-1fbb-457c-83c9-8be31c1ba964"},"vehicle_type_id":"4","last_reported":1778716208,"current_range_meters":7200,"station_id":"ce4bhn12rcd13ifvqgqg","pricing_plan_id":"cebpf4jnsgd1na2vs0mg"},{"bike_id":"96cfd789-c593-41fa-98ca-46dbfdd0476a","system_id":"levelo_inurba_marseille","lat":43.26372,"lon":5.41056,"is_reserved":false,"is_disabled":false,"rental_uris":{"android":"levelo://app?vid=96cfd789-c593-41fa-98ca-46dbfdd0476a","ios":"levelo://app?vid=96cfd789-c593-41fa-98ca-46dbfdd0476a"},"vehicle_type_id":"4","last_reported":1778716208,"current_range_meters":7200,"station_id":"st_d4e5ca6na9uc73bfl5fg","pricing_plan_id":"cebpf4jnsgd1na2vs0mg"},{"bike_id":"99caa207-9f3f-475f-971f-75549c3fc682","system_id":"levelo_inurba_marseille","lat":43.28834,"lon":5.39314,"is_reserved":false,"is_disabled":false,"rental_uris":{"android":"levelo://app?vid=99caa207-9f3f-475f-971f-75549c3fc682","ios":"levelo://app?vid=99caa207-9f3f-475f-971f-75549c3fc682"},"vehicle_type_id":"4","last_reported":1778716208,"current_range_meters":7200,"station_id":"ce4bh2p2rcd13ifvqdi0","pricing_plan_id":"cebpf4jnsgd1na2vs0mg"},{"bike_id":"8bb75740-110f-4d4e-8348-fb9d76c42c05","system_id":"levelo_inurba_marseille","lat":43.28709,"lon":5.46683,"is_reserved":false,"is_disabled":false,"rental_uris":{"android":"levelo://app?vid=8bb75740-110f-4d4e-8348-fb9d76c42c05","ios":"levelo://app?vid=8bb75740-110f-4d4e-8348-fb9d76c42c05"},"vehicle_type_id":"4","last_reported":1778716208,"current_range_meters":7200,"station_id":"st_d6tc3vkotcvc738tfjhg","pricing_plan_id":"cebpf4jnsgd1na2vs0mg"},{"bike_id":"cea33832-e1d0-4bbe-898f-3d20bbd75847","system_id":"levelo_inurba_marseille","lat":43.29595,"lon":5.38096,"is_reserved":false,"is_disabled":false,"rental_uris":{"android":"levelo://app?vid=cea33832-e1d0-4bbe-898f-3d20bbd75847","ios":"levelo://app?vid=cea33832-e1d0-4bbe-898f-3d20bbd75847"},"vehicle_type_id":"4","last_reported":1778716208,"current_range_meters":7200,"station_id":"ce4bgl12rcd13ifvqbo0","pricing_plan_id":"cebpf4jnsgd1na2vs0mg"},{"bike_id":"961baf09-d529-4217-8dae-65a82028230b","system_id":"levelo_inurba_marseille","lat":43.31486,"lon":5.37357,"is_reserved":false,"is_disabled":false,"rental_uris":{"android":"levelo://app?vid=961baf09-d529-4217-8dae-65a82028230b","ios":"levelo://app?vid=961baf09-d529-4217-8dae-65a82028230b"},"vehicle_type_id":"4","last_reported":1778716208,"current_range_meters":7200,"station_id":"ce4bgt12rcd13ifvqcd0","pricing_plan_id":"cebpf4jnsgd1na2vs0mg"},{"bike_id":"ce615a8c-7a08-4252-af33-b8071ad3e1a3","system_id":"levelo_inurba_marseille","lat":43.29783,"lon":5.39345,"is_reserved":false,"is_disabled":false,"rental_uris":{"android":"levelo://app?vid=ce615a8c-7a08-4252-af33-b8071ad3e1a3","ios":"levelo://app?vid=ce615a8c-7a08-4252-af33-b8071ad3e1a3"},"vehicle_type_id":"4","last_reported":1778716208,"current_range_meters":8000,"station_id":"chh1huq6cuj3fo74tm60","pricing_plan_id":"cebpf4jnsgd1na2vs0mg"},{"bike_id":"8c213e32-c8d9-4960-bc93-fa01f8be8240","system_id":"levelo_inurba_marseille","lat":43.31071,"lon":5.37165,"is_reserved":false,"is_disabled":false,"rental_uris":{"android":"levelo://app?vid=8c213e32-c8d9-4960-bc93-fa01f8be8240","ios":"levelo://app?vid=8c213e32-c8d9-4960-bc93-fa01f8be8240"},"vehicle_type_id":"4","last_reported":1778716208,"current_range_meters":8000,"station_id":"st_d4kl2rp97mjs73e7tdfg","pricing_plan_id":"cebpf4jnsgd1na2vs0mg"},{"bike_id":"55ab020e-68f6-412a-b977-6fdf5b6f3f56","system_id":"levelo_inurba_marseille","lat":43.31367,"lon":5.38494,"is_reserved":false,"is_disabled":false,"rental_uris":{"android":"levelo://app?vid=55ab020e-68f6-412a-b977-6fdf5b6f3f56","ios":"levelo://app?vid=55ab020e-68f6-412a-b977-6fdf5b6f3f56"},"vehicle_type_id":"4","last_reported":1778716208,"current_range_meters":8000,"station_id":"ce4bgt92rcd13ifvqcf0","pricing_plan_id":"cebpf4jnsgd1na2vs0mg"},{"bike_id":"92ab43c4-65a8-40ad-9026-0da4c99cc465","system_id":"levelo_inurba_marseille","lat":43.25881,"lon":5.40527,"is_reserved":false,"is_disabled":false,"rental_uris":{"android":"levelo://app?vid=92ab43c4-65a8-40ad-9026-0da4c99cc465","ios":"levelo://app?vid=92ab43c4-65a8-40ad-9026-0da4c99cc465"},"vehicle_type_id":"4","last_reported":1778716208,"current_range_meters":8000,"station_id":"","pricing_plan_id":"cebpf4jnsgd1na2vs0mg"},{"bike_id":"11bfc38c-9d4c-45ee-b922-1948cd421490","system_id":"levelo_inurba_marseille","lat":43.24815,"lon":5.3745,"is_reserved":false,"is_disabled":false,"rental_uris":{"android":"levelo://app?vid=11bfc38c-9d4c-45ee-b922-1948cd421490","ios":"levelo://app?vid=11bfc38c-9d4c-45ee-b922-1948cd421490"},"vehicle_type_id":"4","last_reported":1778716208,"current_range_meters":8000,"station_id":"ce4bhgh2rcd13ifvqfb0","pricing_plan_id":"cebpf4jnsgd1na2vs0mg"},{"bike_id":"35e8ee96-f021-41ee-8a16-5cd416ace246","system_id":"levelo_inurba_marseille","lat":43.28163,"lon":5.42665,"is_reserved":false,"is_disabled":false,"rental_uris":{"android":"levelo://app?vid=35e8ee96-f021-41ee-8a16-5cd416ace246","ios":"levelo://app?vid=35e8ee96-f021-41ee-8a16-5cd416ace246"},"vehicle_type_id":"4","last_reported":1778716208,"current_range_meters":8000,"station_id":"ce4bhnh2rcd13ifvqgug","pricing_plan_id":"cebpf4jnsgd1na2vs0mg"},{"bike_id":"c926c1df-f620-4b83-9165-0c0b2ef55469","system_id":"levelo_inurba_marseille","lat":43.29576,"lon":5.39969,"is_reserved":false,"is_disabled":false,"rental_uris":{"android":"levelo://app?vid=c926c1df-f620-4b83-9165-0c0b2ef55469","ios":"levelo://app?vid=c926c1df-f620-4b83-9165-0c0b2ef55469"},"vehicle_type_id":"4","last_reported":1778716208,"current_range_meters":8000,"station_id":"ce4bh312rcd13ifvqdj0","pricing_plan_id":"cebpf4jnsgd1na2vs0mg"},{"bike_id":"d42a7cf1-1fa2-40ee-b441-c73427ab11ef","system_id":"levelo_inurba_marseille","lat":43.23965,"lon":5.36633,"is_reserved":false,"is_disabled":false,"rental_uris":{"android":"levelo://app?vid=d42a7cf1-1fa2-40ee-b441-c73427ab11ef","ios":"levelo://app?vid=d42a7cf1-1fa2-40ee-b441-c73427ab11ef"},"vehicle_type_id":"4","last_reported":1778716208,"current_range_meters":8000,"station_id":"ce4bhi12rcd13ifvqfp0","pricing_plan_id":"cebpf4jnsgd1na2vs0mg"},{"bike_id":"3b61f2d0-287d-4914-af0e-dee4eef3526c","system_id":"levelo_inurba_marseille","lat":43.28215,"lon":5.39055,"is_reserved":false,"is_disabled":false,"rental_uris":{"android":"levelo://app?vid=3b61f2d0-287d-4914-af0e-dee4eef3526c","ios":"levelo://app?vid=3b61f2d0-287d-4914-af0e-dee4eef3526c"},"vehicle_type_id":"4","last_reported":1778716208,"current_range_meters":8000,"station_id":"ce4bhn92rcd13ifvqgsg","pricing_plan_id":"cebpf4jnsgd1na2vs0mg"},{"bike_id":"18df3caf-e3cd-46b1-8a56-af0d8c09400e","system_id":"levelo_inurba_marseille","lat":43.24165,"lon":5.36406,"is_reserved":false,"is_disabled":false,"rental_uris":{"android":"levelo://app?vid=18df3caf-e3cd-46b1-8a56-af0d8c09400e","ios":"levelo://app?vid=18df3caf-e3cd-46b1-8a56-af0d8c09400e"},"vehicle_type_id":"4","last_reported":1778716208,"current_range_meters":8000,"station_id":"cpo36qri1sfpv3e86is0","pricing_plan_id":"cebpf4jnsgd1na2vs0mg"},{"bike_id":"e7639aa3-651f-4e26-8dc2-eebbc9adb5f8","system_id":"levelo_inurba_marseille","lat":43.24635,"lon":5.38903,"is_reserved":false,"is_disabled":true,"rental_uris":{"android":"levelo://app?vid=e7639aa3-651f-4e26-8dc2-eebbc9adb5f8","ios":"levelo://app?vid=e7639aa3-651f-4e26-8dc2-eebbc9adb5f8"},"vehicle_type_id":"4","last_reported":1778716208,"current_range_meters":8000,"station_id":"ce4bhg12rcd13ifvqf60","pricing_plan_id":"cebpf4jnsgd1na2vs0mg"},{"bike_id":"7f2cf64e-d432-4a6f-b804-e1e718732a8a","system_id":"levelo_inurba_marseille","lat":43.29194,"lon":5.35817,"is_reserved":false,"is_disabled":false,"rental_uris":{"android":"levelo://app?vid=7f2cf64e-d432-4a6f-b804-e1e718732a8a","ios":"levelo://app?vid=7f2cf64e-d432-4a6f-b804-e1e718732a8a"},"vehicle_type_id":"4","last_reported":1778716208,"current_range_meters":8000,"station_id":"ce4bhb12rcd13ifvqel0","pricing_plan_id":"cebpf4jnsgd1na2vs0mg"},{"bike_id":"47d636c0-17c8-4611-ab99-6a24fcfbd62a","system_id":"levelo_inurba_marseille","lat":43.2895,"lon":5.36639,"is_reserved":false,"is_disabled":false,"rental_uris":{"android":"levelo://app?vid=47d636c0-17c8-4611-ab99-6a24fcfbd62a","ios":"levelo://app?vid=47d636c0-17c8-4611-ab99-6a24fcfbd62a"},"vehicle_type_id":"4","last_reported":1778716208,"current_range_meters":8000,"station_id":"ce4bhap2rcd13ifvqek0","pricing_plan_id":"cebpf4jnsgd1na2vs0mg"},{"bike_id":"bdec0714-2661-4d5d-b0ca-dfb1e5acc403","system_id":"levelo_inurba_marseille","lat":43.21761,"lon":5.3459,"is_reserved":false,"is_disabled":true,"rental_uris":{"android":"levelo://app?vid=bdec0714-2661-4d5d-b0ca-dfb1e5acc403","ios":"levelo://app?vid=bdec0714-2661-4d5d-b0ca-dfb1e5acc403"},"vehicle_type_id":"4","last_reported":1778716208,"current_range_meters":8000,"station_id":"st_cvj6r9ubvosntc0bgbag","pricing_plan_id":"cebpf4jnsgd1na2vs0mg"},{"bike_id":"4d2f6501-f59d-42f5-8f2d-638fca42e820","system_id":"levelo_inurba_marseille","lat":43.28509,"lon":5.48358,"is_reserved":false,"is_disabled":false,"rental_uris":{"android":"levelo://app?vid=4d2f6501-f59d-42f5-8f2d-638fca42e820","ios":"levelo://app?vid=4d2f6501-f59d-42f5-8f2d-638fca42e820"},"vehicle_type_id":"4","last_reported":1778716208,"current_range_meters":8000,"station_id":"","pricing_plan_id":"cebpf4jnsgd1na2vs0mg"},{"bike_id":"6ca71038-9f95-4ab6-abac-0a0dca643d0a","system_id":"levelo_inurba_marseille","lat":43.29564,"lon":5.39979,"is_reserved":false,"is_disabled":false,"rental_uris":{"android":"levelo://app?vid=6ca71038-9f95-4ab6-abac-0a0dca643d0a","ios":"levelo://app?vid=6ca71038-9f95-4ab6-abac-0a0dca643d0a"},"vehicle_type_id":"4","last_reported":1778716208,"current_range_meters":8000,"station_id":"ce4bh312rcd13ifvqdj0","pricing_plan_id":"cebpf4jnsgd1na2vs0mg"},{"bike_id":"6a19ed57-ac73-42b5-8e17-cb7b62700533","system_id":"levelo_inurba_marseille","lat":43.23195,"lon":5.35546,"is_reserved":false,"is_disabled":false,"rental_uris":{"android":"levelo://app?vid=6a19ed57-ac73-42b5-8e17-cb7b62700533","ios":"levelo://app?vid=6a19ed57-ac73-42b5-8e17-cb7b62700533"},"vehicle_type_id":"4","last_reported":1778716208,"current_range_meters":8000,"station_id":"ce4bhu92rcd13ifvqi70","pricing_plan_id":"cebpf4jnsgd1na2vs0mg"},{"bike_id":"8c194f26-001c-4299-8258-fca14d9edb51","system_id":"levelo_inurba_marseille","lat":43.24615,"lon":5.38031,"is_reserved":false,"is_disabled":false,"rental_uris":{"android":"levelo://app?vid=8c194f26-001c-4299-8258-fca14d9edb51","ios":"levelo://app?vid=8c194f26-001c-4299-8258-fca14d9edb51"},"vehicle_type_id":"4","last_reported":1778716208,"current_range_meters":8000,"station_id":"","pricing_plan_id":"cebpf4jnsgd1na2vs0mg"},{"bike_id":"81ae9a97-046f-4685-b3d6-f0657cc0dac1","system_id":"levelo_inurba_marseille","lat":43.26941,"lon":5.40282,"is_reserved":false,"is_disabled":false,"rental_uris":{"android":"levelo://app?vid=81ae9a97-046f-4685-b3d6-f0657cc0dac1","ios":"levelo://app?vid=81ae9a97-046f-4685-b3d6-f0657cc0dac1"},"vehicle_type_id":"4","last_reported":1778716208,"current_range_meters":8400,"station_id":"cjm6bp8fraef2m0cb0m0","pricing_plan_id":"cebpf4jnsgd1na2vs0mg"},{"bike_id":"5e57f13f-0095-4757-85ab-b6d06c068367","system_id":"levelo_inurba_marseille","lat":43.28032,"lon":5.3695,"is_reserved":false,"is_disabled":false,"rental_uris":{"android":"levelo://app?vid=5e57f13f-0095-4757-85ab-b6d06c068367","ios":"levelo://app?vid=5e57f13f-0095-4757-85ab-b6d06c068367"},"vehicle_type_id":"4","last_reported":1778716208,"current_range_meters":8400,"station_id":"ce4bha12rcd13ifvqef0","pricing_plan_id":"cebpf4jnsgd1na2vs0mg"},{"bike_id":"ffb3d7f7-6459-4e3d-8b24-278faf4681ca","system_id":"levelo_inurba_marseille","lat":43.28571,"lon":5.39508,"is_reserved":false,"is_disabled":false,"rental_uris":{"android":"levelo://app?vid=ffb3d7f7-6459-4e3d-8b24-278faf4681ca","ios":"levelo://app?vid=ffb3d7f7-6459-4e3d-8b24-278faf4681ca"},"vehicle_type_id":"4","last_reported":1778716208,"current_range_meters":8400,"station_id":"ce4bh292rcd13ifvqdg0","pricing_plan_id":"cebpf4jnsgd1na2vs0mg"},{"bike_id":"844741a2-f80e-4514-aadd-d1fe2ac89ebf","system_id":"levelo_inurba_marseille","lat":43.22927,"lon":5.35376,"is_reserved":false,"is_disabled":false,"rental_uris":{"android":"levelo://app?vid=844741a2-f80e-4514-aadd-d1fe2ac89ebf","ios":"levelo://app?vid=844741a2-f80e-4514-aadd-d1fe2ac89ebf"},"vehicle_type_id":"4","last_reported":1778716208,"current_range_meters":8400,"station_id":"cpo3532slgdg3j2ikp40","pricing_plan_id":"cebpf4jnsgd1na2vs0mg"},{"bike_id":"9a7cc937-a6ec-4087-a3df-066ca7655994","system_id":"levelo_inurba_marseille","lat":43.33728,"lon":5.37461,"is_reserved":false,"is_disabled":false,"rental_uris":{"android":"levelo://app?vid=9a7cc937-a6ec-4087-a3df-066ca7655994","ios":"levelo://app?vid=9a7cc937-a6ec-4087-a3df-066ca7655994"},"vehicle_type_id":"4","last_reported":1778716208,"current_range_meters":8400,"station_id":"","pricing_plan_id":"cebpf4jnsgd1na2vs0mg"},{"bike_id":"9bb62d1d-98d2-456f-8ada-1bbcaeb98c00","system_id":"levelo_inurba_marseille","lat":43.28534,"lon":5.38428,"is_reserved":false,"is_disabled":false,"rental_uris":{"android":"levelo://app?vid=9bb62d1d-98d2-456f-8ada-1bbcaeb98c00","ios":"levelo://app?vid=9bb62d1d-98d2-456f-8ada-1bbcaeb98c00"},"vehicle_type_id":"4","last_reported":1778716208,"current_range_meters":8400,"station_id":"","pricing_plan_id":"cebpf4jnsgd1na2vs0mg"},{"bike_id":"961ae3cb-3fb8-4279-8e42-ea1f7ab378e9","system_id":"levelo_inurba_marseille","lat":43.23177,"lon":5.39999,"is_reserved":false,"is_disabled":false,"rental_uris":{"android":"levelo://app?vid=961ae3cb-3fb8-4279-8e42-ea1f7ab378e9","ios":"levelo://app?vid=961ae3cb-3fb8-4279-8e42-ea1f7ab378e9"},"vehicle_type_id":"4","last_reported":1778716208,"current_range_meters":8400,"station_id":"ce4bhn12rcd13ifvqgqg","pricing_plan_id":"cebpf4jnsgd1na2vs0mg"},{"bike_id":"d8e2e9f7-fe1c-46c2-9779-5961b2399f2e","system_id":"levelo_inurba_marseille","lat":43.28926,"lon":5.36639,"is_reserved":false,"is_disabled":false,"rental_uris":{"android":"levelo://app?vid=d8e2e9f7-fe1c-46c2-9779-5961b2399f2e","ios":"levelo://app?vid=d8e2e9f7-fe1c-46c2-9779-5961b2399f2e"},"vehicle_type_id":"4","last_reported":1778716208,"current_range_meters":8400,"station_id":"ce4bhap2rcd13ifvqek0","pricing_plan_id":"cebpf4jnsgd1na2vs0mg"},{"bike_id":"cee8aa17-a58e-4bc5-93cf-18915d0f1082","system_id":"levelo_inurba_marseille","lat":43.27433,"lon":5.39414,"is_reserved":false,"is_disabled":false,"rental_uris":{"android":"levelo://app?vid=cee8aa17-a58e-4bc5-93cf-18915d0f1082","ios":"levelo://app?vid=cee8aa17-a58e-4bc5-93cf-18915d0f1082"},"vehicle_type_id":"4","last_reported":1778716208,"current_range_meters":8400,"station_id":"ce4bhdp2rcd13ifvqf20","pricing_plan_id":"cebpf4jnsgd1na2vs0mg"},{"bike_id":"859099f6-3241-4e4b-85da-c8e7890b8f2e","system_id":"levelo_inurba_marseille","lat":43.29915,"lon":5.38155,"is_reserved":false,"is_disabled":false,"rental_uris":{"android":"levelo://app?vid=859099f6-3241-4e4b-85da-c8e7890b8f2e","ios":"levelo://app?vid=859099f6-3241-4e4b-85da-c8e7890b8f2e"},"vehicle_type_id":"4","last_reported":1778716208,"current_range_meters":8400,"station_id":"ce4bgj12rcd13ifvqbc0","pricing_plan_id":"cebpf4jnsgd1na2vs0mg"},{"bike_id":"0da6948a-b597-4317-b926-141efbb7181d","system_id":"levelo_inurba_marseille","lat":43.25495,"lon":5.37657,"is_reserved":false,"is_disabled":false,"rental_uris":{"android":"levelo://app?vid=0da6948a-b597-4317-b926-141efbb7181d","ios":"levelo://app?vid=0da6948a-b597-4317-b926-141efbb7181d"},"vehicle_type_id":"4","last_reported":1778716208,"current_range_meters":8400,"station_id":"ce4bhh12rcd13ifvqff0","pricing_plan_id":"cebpf4jnsgd1na2vs0mg"},{"bike_id":"9ab268a0-a8ea-4091-be12-135023a9af46","system_id":"levelo_inurba_marseille","lat":43.3041,"lon":5.39699,"is_reserved":false,"is_disabled":false,"rental_uris":{"android":"levelo://app?vid=9ab268a0-a8ea-4091-be12-135023a9af46","ios":"levelo://app?vid=9ab268a0-a8ea-4091-be12-135023a9af46"},"vehicle_type_id":"4","last_reported":1778716208,"current_range_meters":8400,"station_id":"ce4bh092rcd13ifvqd20","pricing_plan_id":"cebpf4jnsgd1na2vs0mg"},{"bike_id":"66fd8018-0de1-49f2-826e-b4cee9b193a8","system_id":"levelo_inurba_marseille","lat":43.30177,"lon":5.36619,"is_reserved":false,"is_disabled":true,"rental_uris":{"android":"levelo://app?vid=66fd8018-0de1-49f2-826e-b4cee9b193a8","ios":"levelo://app?vid=66fd8018-0de1-49f2-826e-b4cee9b193a8"},"vehicle_type_id":"4","last_reported":1778716208,"current_range_meters":8400,"station_id":"ce4bgrh2rcd13ifvqc8g","pricing_plan_id":"cebpf4jnsgd1na2vs0mg"},{"bike_id":"1a828908-75e2-45ab-90c5-6e8aa8e3fac7","system_id":"levelo_inurba_marseille","lat":43.24793,"lon":5.37474,"is_reserved":false,"is_disabled":false,"rental_uris":{"android":"levelo://app?vid=1a828908-75e2-45ab-90c5-6e8aa8e3fac7","ios":"levelo://app?vid=1a828908-75e2-45ab-90c5-6e8aa8e3fac7"},"vehicle_type_id":"4","last_reported":1778716208,"current_range_meters":8400,"station_id":"ce4bhgh2rcd13ifvqfb0","pricing_plan_id":"cebpf4jnsgd1na2vs0mg"},{"bike_id":"8882e8da-5af3-44e8-ab4e-8407de440b57","system_id":"levelo_inurba_marseille","lat":43.24941,"lon":5.40511,"is_reserved":false,"is_disabled":false,"rental_uris":{"android":"levelo://app?vid=8882e8da-5af3-44e8-ab4e-8407de440b57","ios":"levelo://app?vid=8882e8da-5af3-44e8-ab4e-8407de440b57"},"vehicle_type_id":"4","last_reported":1778716208,"current_range_meters":8400,"station_id":"st_d2ngiaodas8pm72gd1h0","pricing_plan_id":"cebpf4jnsgd1na2vs0mg"},{"bike_id":"6ad6ae18-21fc-4cd2-8d6b-b443438f9ca8","system_id":"levelo_inurba_marseille","lat":43.2903,"lon":5.42866,"is_reserved":false,"is_disabled":false,"rental_uris":{"android":"levelo://app?vid=6ad6ae18-21fc-4cd2-8d6b-b443438f9ca8","ios":"levelo://app?vid=6ad6ae18-21fc-4cd2-8d6b-b443438f9ca8"},"vehicle_type_id":"4","last_reported":1778716208,"current_range_meters":8400,"station_id":"","pricing_plan_id":"cebpf4jnsgd1na2vs0mg"},{"bike_id":"ac18aef5-2326-4bbc-bc41-64d4ee6d3ba3","system_id":"levelo_inurba_marseille","lat":43.31358,"lon":5.38497,"is_reserved":false,"is_disabled":false,"rental_uris":{"android":"levelo://app?vid=ac18aef5-2326-4bbc-bc41-64d4ee6d3ba3","ios":"levelo://app?vid=ac18aef5-2326-4bbc-bc41-64d4ee6d3ba3"},"vehicle_type_id":"4","last_reported":1778716208,"current_range_meters":8400,"station_id":"ce4bgt92rcd13ifvqcf0","pricing_plan_id":"cebpf4jnsgd1na2vs0mg"},{"bike_id":"ead892c9-b844-4758-9093-438046339052","system_id":"levelo_inurba_marseille","lat":43.33535,"lon":5.37478,"is_reserved":false,"is_disabled":false,"rental_uris":{"android":"levelo://app?vid=ead892c9-b844-4758-9093-438046339052","ios":"levelo://app?vid=ead892c9-b844-4758-9093-438046339052"},"vehicle_type_id":"4","last_reported":1778716208,"current_range_meters":8400,"station_id":"st_d46tts09ee8s73dlu43g","pricing_plan_id":"cebpf4jnsgd1na2vs0mg"},{"bike_id":"43dc5ec9-cce1-48fb-99af-2b40ca7b9483","system_id":"levelo_inurba_marseille","lat":43.21725,"lon":5.34627,"is_reserved":false,"is_disabled":false,"rental_uris":{"android":"levelo://app?vid=43dc5ec9-cce1-48fb-99af-2b40ca7b9483","ios":"levelo://app?vid=43dc5ec9-cce1-48fb-99af-2b40ca7b9483"},"vehicle_type_id":"4","last_reported":1778716208,"current_range_meters":8800,"station_id":"st_cvj6r9ubvosntc0bgbag","pricing_plan_id":"cebpf4jnsgd1na2vs0mg"},{"bike_id":"b2b4314a-5925-4700-bab3-038d34f53a7d","system_id":"levelo_inurba_marseille","lat":43.28713,"lon":5.46668,"is_reserved":false,"is_disabled":false,"rental_uris":{"android":"levelo://app?vid=b2b4314a-5925-4700-bab3-038d34f53a7d","ios":"levelo://app?vid=b2b4314a-5925-4700-bab3-038d34f53a7d"},"vehicle_type_id":"4","last_reported":1778716208,"current_range_meters":8800,"station_id":"st_d6tc3vkotcvc738tfjhg","pricing_plan_id":"cebpf4jnsgd1na2vs0mg"},{"bike_id":"95990583-3178-4c07-80ff-998f745c5916","system_id":"levelo_inurba_marseille","lat":43.28423,"lon":5.37533,"is_reserved":false,"is_disabled":false,"rental_uris":{"android":"levelo://app?vid=95990583-3178-4c07-80ff-998f745c5916","ios":"levelo://app?vid=95990583-3178-4c07-80ff-998f745c5916"},"vehicle_type_id":"4","last_reported":1778716208,"current_range_meters":8800,"station_id":"ce4bh412rcd13ifvqds0","pricing_plan_id":"cebpf4jnsgd1na2vs0mg"},{"bike_id":"1f07e132-97a9-4528-b9b3-ef7c62abf882","system_id":"levelo_inurba_marseille","lat":43.27632,"lon":5.36097,"is_reserved":false,"is_disabled":false,"rental_uris":{"android":"levelo://app?vid=1f07e132-97a9-4528-b9b3-ef7c62abf882","ios":"levelo://app?vid=1f07e132-97a9-4528-b9b3-ef7c62abf882"},"vehicle_type_id":"4","last_reported":1778716208,"current_range_meters":8800,"station_id":"ce4bgj92rcd13ifvqbe0","pricing_plan_id":"cebpf4jnsgd1na2vs0mg"},{"bike_id":"db3abb56-112f-486f-9abc-79bda264e772","system_id":"levelo_inurba_marseille","lat":43.28538,"lon":5.44105,"is_reserved":false,"is_disabled":false,"rental_uris":{"android":"levelo://app?vid=db3abb56-112f-486f-9abc-79bda264e772","ios":"levelo://app?vid=db3abb56-112f-486f-9abc-79bda264e772"},"vehicle_type_id":"4","last_reported":1778716208,"current_range_meters":8800,"station_id":"st_d3j3df2ikq2c7380ej80","pricing_plan_id":"cebpf4jnsgd1na2vs0mg"},{"bike_id":"91eeadf8-9cc7-4358-8f0a-69d93f2e05ce","system_id":"levelo_inurba_marseille","lat":43.31206,"lon":5.36863,"is_reserved":false,"is_disabled":false,"rental_uris":{"android":"levelo://app?vid=91eeadf8-9cc7-4358-8f0a-69d93f2e05ce","ios":"levelo://app?vid=91eeadf8-9cc7-4358-8f0a-69d93f2e05ce"},"vehicle_type_id":"4","last_reported":1778716208,"current_range_meters":8800,"station_id":"","pricing_plan_id":"cebpf4jnsgd1na2vs0mg"},{"bike_id":"f009bb4b-625b-4482-8ff8-5aeca90a33f4","system_id":"levelo_inurba_marseille","lat":43.2622,"lon":5.3746,"is_reserved":false,"is_disabled":false,"rental_uris":{"android":"levelo://app?vid=f009bb4b-625b-4482-8ff8-5aeca90a33f4","ios":"levelo://app?vid=f009bb4b-625b-4482-8ff8-5aeca90a33f4"},"vehicle_type_id":"4","last_reported":1778716208,"current_range_meters":8800,"station_id":"ce4bhgp2rcd13ifvqfc0","pricing_plan_id":"cebpf4jnsgd1na2vs0mg"},{"bike_id":"4066804f-6245-416c-a2b8-375581408be7","system_id":"levelo_inurba_marseille","lat":43.29133,"lon":5.42442,"is_reserved":false,"is_disabled":false,"rental_uris":{"android":"levelo://app?vid=4066804f-6245-416c-a2b8-375581408be7","ios":"levelo://app?vid=4066804f-6245-416c-a2b8-375581408be7"},"vehicle_type_id":"4","last_reported":1778716208,"current_range_meters":8800,"station_id":"","pricing_plan_id":"cebpf4jnsgd1na2vs0mg"},{"bike_id":"b7aef511-a30b-48e6-924f-5b7ff92819c7","system_id":"levelo_inurba_marseille","lat":43.28176,"lon":5.42607,"is_reserved":false,"is_disabled":true,"rental_uris":{"android":"levelo://app?vid=b7aef511-a30b-48e6-924f-5b7ff92819c7","ios":"levelo://app?vid=b7aef511-a30b-48e6-924f-5b7ff92819c7"},"vehicle_type_id":"4","last_reported":1778716208,"current_range_meters":8800,"station_id":"ce4bhnh2rcd13ifvqgug","pricing_plan_id":"cebpf4jnsgd1na2vs0mg"},{"bike_id":"f6fcf2d3-59dc-446e-8e5d-6c4db3de3165","system_id":"levelo_inurba_marseille","lat":43.308026,"lon":5.381497,"is_reserved":false,"is_disabled":false,"rental_uris":{"android":"levelo://app?vid=f6fcf2d3-59dc-446e-8e5d-6c4db3de3165","ios":"levelo://app?vid=f6fcf2d3-59dc-446e-8e5d-6c4db3de3165"},"vehicle_type_id":"4","last_reported":1778716208,"current_range_meters":8800,"station_id":"","pricing_plan_id":"cebpf4jnsgd1na2vs0mg"},{"bike_id":"668a9b41-354e-4bee-bad3-4c0c0c7f49fe","system_id":"levelo_inurba_marseille","lat":43.27974,"lon":5.38741,"is_reserved":false,"is_disabled":true,"rental_uris":{"android":"levelo://app?vid=668a9b41-354e-4bee-bad3-4c0c0c7f49fe","ios":"levelo://app?vid=668a9b41-354e-4bee-bad3-4c0c0c7f49fe"},"vehicle_type_id":"4","last_reported":1778716208,"current_range_meters":8800,"station_id":"ce4bhg12rcd13ifvqf80","pricing_plan_id":"cebpf4jnsgd1na2vs0mg"},{"bike_id":"cd382ef6-e165-4c5a-9266-61b6eb8de4e7","system_id":"levelo_inurba_marseille","lat":43.2666,"lon":5.37295,"is_reserved":false,"is_disabled":false,"rental_uris":{"android":"levelo://app?vid=cd382ef6-e165-4c5a-9266-61b6eb8de4e7","ios":"levelo://app?vid=cd382ef6-e165-4c5a-9266-61b6eb8de4e7"},"vehicle_type_id":"4","last_reported":1778716208,"current_range_meters":8800,"station_id":"","pricing_plan_id":"cebpf4jnsgd1na2vs0mg"},{"bike_id":"355b9e66-6c32-4c74-81a4-ccb0813605fa","system_id":"levelo_inurba_marseille","lat":43.31274,"lon":5.40172,"is_reserved":false,"is_disabled":false,"rental_uris":{"android":"levelo://app?vid=355b9e66-6c32-4c74-81a4-ccb0813605fa","ios":"levelo://app?vid=355b9e66-6c32-4c74-81a4-ccb0813605fa"},"vehicle_type_id":"4","last_reported":1778716208,"current_range_meters":8800,"station_id":"ce4bh092rcd13ifvqd30","pricing_plan_id":"cebpf4jnsgd1na2vs0mg"},{"bike_id":"a623fb6f-ee93-4c43-bbce-a5556c69223f","system_id":"levelo_inurba_marseille","lat":43.297,"lon":5.36612,"is_reserved":false,"is_disabled":false,"rental_uris":{"android":"levelo://app?vid=a623fb6f-ee93-4c43-bbce-a5556c69223f","ios":"levelo://app?vid=a623fb6f-ee93-4c43-bbce-a5556c69223f"},"vehicle_type_id":"4","last_reported":1778716208,"current_range_meters":8800,"station_id":"ce4bgn12rcd13ifvqbt0","pricing_plan_id":"cebpf4jnsgd1na2vs0mg"},{"bike_id":"10ea7793-89fc-4210-8abc-ada687913ea7","system_id":"levelo_inurba_marseille","lat":43.32111,"lon":5.36768,"is_reserved":false,"is_disabled":false,"rental_uris":{"android":"levelo://app?vid=10ea7793-89fc-4210-8abc-ada687913ea7","ios":"levelo://app?vid=10ea7793-89fc-4210-8abc-ada687913ea7"},"vehicle_type_id":"4","last_reported":1778716208,"current_range_meters":8800,"station_id":"ce4bhrh2rcd13ifvqhug","pricing_plan_id":"cebpf4jnsgd1na2vs0mg"},{"bike_id":"0bc3c181-5a56-49f5-a1e7-73368f35dd11","system_id":"levelo_inurba_marseille","lat":43.2737,"lon":5.36262,"is_reserved":false,"is_disabled":false,"rental_uris":{"android":"levelo://app?vid=0bc3c181-5a56-49f5-a1e7-73368f35dd11","ios":"levelo://app?vid=0bc3c181-5a56-49f5-a1e7-73368f35dd11"},"vehicle_type_id":"4","last_reported":1778716208,"current_range_meters":8800,"station_id":"ce4bhbh2rcd13ifvqeo0","pricing_plan_id":"cebpf4jnsgd1na2vs0mg"},{"bike_id":"e775c99b-0b70-4f8c-ba25-de3c681ed645","system_id":"levelo_inurba_marseille","lat":43.24647,"lon":5.38883,"is_reserved":false,"is_disabled":false,"rental_uris":{"android":"levelo://app?vid=e775c99b-0b70-4f8c-ba25-de3c681ed645","ios":"levelo://app?vid=e775c99b-0b70-4f8c-ba25-de3c681ed645"},"vehicle_type_id":"4","last_reported":1778716208,"current_range_meters":8800,"station_id":"ce4bhg12rcd13ifvqf60","pricing_plan_id":"cebpf4jnsgd1na2vs0mg"},{"bike_id":"3eb17ea7-504c-4154-a442-3f77f9eb2f74","system_id":"levelo_inurba_marseille","lat":43.25495,"lon":5.37654,"is_reserved":false,"is_disabled":false,"rental_uris":{"android":"levelo://app?vid=3eb17ea7-504c-4154-a442-3f77f9eb2f74","ios":"levelo://app?vid=3eb17ea7-504c-4154-a442-3f77f9eb2f74"},"vehicle_type_id":"4","last_reported":1778716208,"current_range_meters":8800,"station_id":"ce4bhh12rcd13ifvqff0","pricing_plan_id":"cebpf4jnsgd1na2vs0mg"},{"bike_id":"113138a6-8ed0-4535-8fd3-1f8478eb429a","system_id":"levelo_inurba_marseille","lat":43.29013,"lon":5.38633,"is_reserved":false,"is_disabled":false,"rental_uris":{"android":"levelo://app?vid=113138a6-8ed0-4535-8fd3-1f8478eb429a","ios":"levelo://app?vid=113138a6-8ed0-4535-8fd3-1f8478eb429a"},"vehicle_type_id":"4","last_reported":1778716208,"current_range_meters":8800,"station_id":"ce4bh4p2rcd13ifvqe0g","pricing_plan_id":"cebpf4jnsgd1na2vs0mg"},{"bike_id":"03d79ccb-0d3d-4459-a92d-65dd8d8533bb","system_id":"levelo_inurba_marseille","lat":43.24801,"lon":5.37451,"is_reserved":false,"is_disabled":false,"rental_uris":{"android":"levelo://app?vid=03d79ccb-0d3d-4459-a92d-65dd8d8533bb","ios":"levelo://app?vid=03d79ccb-0d3d-4459-a92d-65dd8d8533bb"},"vehicle_type_id":"4","last_reported":1778716208,"current_range_meters":8800,"station_id":"ce4bhgh2rcd13ifvqfb0","pricing_plan_id":"cebpf4jnsgd1na2vs0mg"},{"bike_id":"6cf28338-ea98-4723-8566-9f7e17ab35d2","system_id":"levelo_inurba_marseille","lat":43.25497,"lon":5.37651,"is_reserved":false,"is_disabled":false,"rental_uris":{"android":"levelo://app?vid=6cf28338-ea98-4723-8566-9f7e17ab35d2","ios":"levelo://app?vid=6cf28338-ea98-4723-8566-9f7e17ab35d2"},"vehicle_type_id":"4","last_reported":1778716208,"current_range_meters":8800,"station_id":"ce4bhh12rcd13ifvqff0","pricing_plan_id":"cebpf4jnsgd1na2vs0mg"},{"bike_id":"0e0085c3-fe65-4ad3-a236-774b9ecc552e","system_id":"levelo_inurba_marseille","lat":43.24399,"lon":5.37049,"is_reserved":false,"is_disabled":false,"rental_uris":{"android":"levelo://app?vid=0e0085c3-fe65-4ad3-a236-774b9ecc552e","ios":"levelo://app?vid=0e0085c3-fe65-4ad3-a236-774b9ecc552e"},"vehicle_type_id":"4","last_reported":1778716208,"current_range_meters":8800,"station_id":"ce4bhhh2rcd13ifvqfk0","pricing_plan_id":"cebpf4jnsgd1na2vs0mg"},{"bike_id":"c1c72d3d-55e4-49c0-b252-4cb84958352d","system_id":"levelo_inurba_marseille","lat":43.30935,"lon":5.40149,"is_reserved":false,"is_disabled":false,"rental_uris":{"android":"levelo://app?vid=c1c72d3d-55e4-49c0-b252-4cb84958352d","ios":"levelo://app?vid=c1c72d3d-55e4-49c0-b252-4cb84958352d"},"vehicle_type_id":"4","last_reported":1778716208,"current_range_meters":8800,"station_id":"ce4bgvp2rcd13ifvqct0","pricing_plan_id":"cebpf4jnsgd1na2vs0mg"},{"bike_id":"d1631cba-3cd4-41b7-9b29-df0ce1647660","system_id":"levelo_inurba_marseille","lat":43.29981,"lon":5.37168,"is_reserved":false,"is_disabled":false,"rental_uris":{"android":"levelo://app?vid=d1631cba-3cd4-41b7-9b29-df0ce1647660","ios":"levelo://app?vid=d1631cba-3cd4-41b7-9b29-df0ce1647660"},"vehicle_type_id":"4","last_reported":1778716208,"current_range_meters":8800,"station_id":"ce4bgr92rcd13ifvqc7g","pricing_plan_id":"cebpf4jnsgd1na2vs0mg"},{"bike_id":"391bbdee-8eef-4307-88d4-0c6b84884e76","system_id":"levelo_inurba_marseille","lat":43.2736,"lon":5.36254,"is_reserved":false,"is_disabled":false,"rental_uris":{"android":"levelo://app?vid=391bbdee-8eef-4307-88d4-0c6b84884e76","ios":"levelo://app?vid=391bbdee-8eef-4307-88d4-0c6b84884e76"},"vehicle_type_id":"4","last_reported":1778716208,"current_range_meters":8800,"station_id":"ce4bhbh2rcd13ifvqeo0","pricing_plan_id":"cebpf4jnsgd1na2vs0mg"},{"bike_id":"0f39ab81-4ec8-4110-bdec-ad4c73ac1f43","system_id":"levelo_inurba_marseille","lat":43.28524,"lon":5.44103,"is_reserved":false,"is_disabled":false,"rental_uris":{"android":"levelo://app?vid=0f39ab81-4ec8-4110-bdec-ad4c73ac1f43","ios":"levelo://app?vid=0f39ab81-4ec8-4110-bdec-ad4c73ac1f43"},"vehicle_type_id":"4","last_reported":1778716208,"current_range_meters":8800,"station_id":"st_d3j3df2ikq2c7380ej80","pricing_plan_id":"cebpf4jnsgd1na2vs0mg"},{"bike_id":"9d5973a7-ad7c-4280-86f8-8ffc6c2e2a64","system_id":"levelo_inurba_marseille","lat":43.28429,"lon":5.39182,"is_reserved":false,"is_disabled":false,"rental_uris":{"android":"levelo://app?vid=9d5973a7-ad7c-4280-86f8-8ffc6c2e2a64","ios":"levelo://app?vid=9d5973a7-ad7c-4280-86f8-8ffc6c2e2a64"},"vehicle_type_id":"4","last_reported":1778716208,"current_range_meters":8800,"station_id":"ce4bhoh2rcd13ifvqh5g","pricing_plan_id":"cebpf4jnsgd1na2vs0mg"},{"bike_id":"d1be613e-085b-4259-9861-d62c7bd1b056","system_id":"levelo_inurba_marseille","lat":43.31887,"lon":5.3681,"is_reserved":false,"is_disabled":false,"rental_uris":{"android":"levelo://app?vid=d1be613e-085b-4259-9861-d62c7bd1b056","ios":"levelo://app?vid=d1be613e-085b-4259-9861-d62c7bd1b056"},"vehicle_type_id":"4","last_reported":1778716208,"current_range_meters":8800,"station_id":"st_d6o2h0d0559c73evc1b0","pricing_plan_id":"cebpf4jnsgd1na2vs0mg"},{"bike_id":"e21152b8-d489-4151-83e2-605c867fd03b","system_id":"levelo_inurba_marseille","lat":43.28462,"lon":5.35883,"is_reserved":false,"is_disabled":false,"rental_uris":{"android":"levelo://app?vid=e21152b8-d489-4151-83e2-605c867fd03b","ios":"levelo://app?vid=e21152b8-d489-4151-83e2-605c867fd03b"},"vehicle_type_id":"4","last_reported":1778716208,"current_range_meters":9200,"station_id":"ce4bhah2rcd13ifvqei0","pricing_plan_id":"cebpf4jnsgd1na2vs0mg"},{"bike_id":"e7e51949-3f7b-48bc-9642-d1385b35f28a","system_id":"levelo_inurba_marseille","lat":43.29813,"lon":5.38156,"is_reserved":false,"is_disabled":false,"rental_uris":{"android":"levelo://app?vid=e7e51949-3f7b-48bc-9642-d1385b35f28a","ios":"levelo://app?vid=e7e51949-3f7b-48bc-9642-d1385b35f28a"},"vehicle_type_id":"4","last_reported":1778716208,"current_range_meters":9200,"station_id":"ce4bgip2rcd13ifvqbb0","pricing_plan_id":"cebpf4jnsgd1na2vs0mg"},{"bike_id":"20fd4451-2c2d-4b01-baab-aee936a8f996","system_id":"levelo_inurba_marseille","lat":43.29575,"lon":5.3752,"is_reserved":false,"is_disabled":true,"rental_uris":{"android":"levelo://app?vid=20fd4451-2c2d-4b01-baab-aee936a8f996","ios":"levelo://app?vid=20fd4451-2c2d-4b01-baab-aee936a8f996"},"vehicle_type_id":"4","last_reported":1778716208,"current_range_meters":9200,"station_id":"ce4bgh92rcd13ifvqb50","pricing_plan_id":"cebpf4jnsgd1na2vs0mg"},{"bike_id":"e80a0325-c0c3-424a-a26c-d6f296460c38","system_id":"levelo_inurba_marseille","lat":43.30208,"lon":5.39466,"is_reserved":false,"is_disabled":false,"rental_uris":{"android":"levelo://app?vid=e80a0325-c0c3-424a-a26c-d6f296460c38","ios":"levelo://app?vid=e80a0325-c0c3-424a-a26c-d6f296460c38"},"vehicle_type_id":"4","last_reported":1778716208,"current_range_meters":9200,"station_id":"ce4bh0p2rcd13ifvqd70","pricing_plan_id":"cebpf4jnsgd1na2vs0mg"},{"bike_id":"a805dd41-a9d9-4ba0-b517-cd11edd5e755","system_id":"levelo_inurba_marseille","lat":43.28523,"lon":5.441,"is_reserved":false,"is_disabled":false,"rental_uris":{"android":"levelo://app?vid=a805dd41-a9d9-4ba0-b517-cd11edd5e755","ios":"levelo://app?vid=a805dd41-a9d9-4ba0-b517-cd11edd5e755"},"vehicle_type_id":"4","last_reported":1778716208,"current_range_meters":9200,"station_id":"st_d3j3df2ikq2c7380ej80","pricing_plan_id":"cebpf4jnsgd1na2vs0mg"},{"bike_id":"cc90a0a8-a1f0-4a30-a8be-482630da4418","system_id":"levelo_inurba_marseille","lat":43.29714,"lon":5.37693,"is_reserved":false,"is_disabled":true,"rental_uris":{"android":"levelo://app?vid=cc90a0a8-a1f0-4a30-a8be-482630da4418","ios":"levelo://app?vid=cc90a0a8-a1f0-4a30-a8be-482630da4418"},"vehicle_type_id":"4","last_reported":1778716208,"current_range_meters":9200,"station_id":"ce4bgkh2rcd13ifvqbl0","pricing_plan_id":"cebpf4jnsgd1na2vs0mg"},{"bike_id":"eed4ce53-a4b7-4a20-8aed-e525aa277104","system_id":"levelo_inurba_marseille","lat":43.29793,"lon":5.38105,"is_reserved":false,"is_disabled":true,"rental_uris":{"android":"levelo://app?vid=eed4ce53-a4b7-4a20-8aed-e525aa277104","ios":"levelo://app?vid=eed4ce53-a4b7-4a20-8aed-e525aa277104"},"vehicle_type_id":"4","last_reported":1778716208,"current_range_meters":9200,"station_id":"ce4bgip2rcd13ifvqbb0","pricing_plan_id":"cebpf4jnsgd1na2vs0mg"},{"bike_id":"cf86c92c-3641-4c56-b4a8-89ebd58517ee","system_id":"levelo_inurba_marseille","lat":43.32115,"lon":5.36785,"is_reserved":false,"is_disabled":false,"rental_uris":{"android":"levelo://app?vid=cf86c92c-3641-4c56-b4a8-89ebd58517ee","ios":"levelo://app?vid=cf86c92c-3641-4c56-b4a8-89ebd58517ee"},"vehicle_type_id":"4","last_reported":1778716208,"current_range_meters":9200,"station_id":"ce4bhrh2rcd13ifvqhug","pricing_plan_id":"cebpf4jnsgd1na2vs0mg"},