{"last_updated":1728994650,"ttl":60,"version":"2.2","data":{"bikes":[{"bike_id":"ca19aae3-ddc9-46d5-8241-83affcfa7618","system_id":"levelo_inurba_marseille","lat":43.25928,"lon":5.40916,"is_reserved":false,"is_disabled":false,"rental_uris":{"android":"levelo://app?vid=ca19aae3-ddc9-46d5-8241-83affcfa7618","ios":"levelo://app?vid=ca19aae3-ddc9-46d5-8241-83affcfa7618"},"vehicle_type_id":"4","last_reported":1728994650,"current_range_meters":12400,"station_id":"ce4bhm92rcd13ifvqglg","pricing_plan_id":"cebpf4jnsgd1na2vs0mg"},{"bike_id":"5acd4f52-fe74-426d-8c3b-0a3df3c6248a","system_id":"levelo_inurba_marseille","lat":43.29431,"lon":5.39754,"is_reserved":false,"is_disabled":false,"rental_uris":{"android":"levelo://app?vid=5acd4f52-fe74-426d-8c3b-0a3df3c6248a","ios":"levelo://app?vid=5acd4f52-fe74-426d-8c3b-0a3df3c6248a"},"vehicle_type_id":"4","last_reported":1728994650,"current_range_meters":4800,"station_id":"ce4bh292rcd13ifvqdf0","pricing_plan_id":"cebpf4jnsgd1na2vs0mg"},{"bike_id":"802bb57f-f992-475c-accf-ff1b8c4f034a","system_id":"levelo_inurba_marseille","lat":43.309092,"lon":5.401498,"is_reserved":false,"is_disabled":false,"rental_uris":{"android":"levelo://app?vid=802bb57f-f992-475c-accf-ff1b8c4f034a","ios":"levelo://app?vid=802bb57f-f992-475c-accf-ff1b8c4f034a"},"vehicle_type_id":"4","last_reported":1728994650,"current_range_meters":9200,"station_id":"ce4bgvp2rcd13ifvqct0","pricing_plan_id":"cebpf4jnsgd1na2vs0mg"},{"bike_id":"d4e83856-8ea7-4fe2-b0f9-e388495fdbfd","system_id":"levelo_inurba_marseille","lat":43.29848,"lon":5.3628,"is_reserved":false,"is_disabled":false,"rental_uris":{"android":"levelo://app?vid=d4e83856-8ea7-4fe2-b0f9-e388495fdbfd","ios":"levelo://app?vid=d4e83856-8ea7-4fe2-b0f9-e388495fdbfd"},"vehicle_type_id":"4","last_reported":1728994650,"current_range_meters":32400,"station_id":"ce4bgpp2rcd13ifvqc3g","pricing_plan_id":"cebpf4jnsgd1na2vs0mg"},{"bike_id":"b219e8df-801b-4f0f-a0f6-ea2485c345f9","system_id":"levelo_inurba_marseille","lat":43.22929,"lon":5.35373,"is_reserved":false,"is_disabled":false,"rental_uris":{"android":"levelo://app?vid=b219e8df-801b-4f0f-a0f6-ea2485c345f9","ios":"levelo://app?vid=b219e8df-801b-4f0f-a0f6-ea2485c345f9"},"vehicle_type_id":"4","last_reported":1728994650,"current_range_meters":36800,"station_id":"cpo3532slgdg3j2ikp40","pricing_plan_id":"cebpf4jnsgd1na2vs0mg"},{"bike_id":"f3091be8-fca5-484d-a920-9d677f201a7f","system_id":"levelo_inurba_marseille","lat":43.26786,"lon":5.39417,"is_reserved":false,"is_disabled":false,"rental_uris":{"android":"levelo://app?vid=f3091be8-fca5-484d-a920-9d677f201a7f","ios":"levelo://app?vid=f3091be8-fca5-484d-a920-9d677f201a7f"},"vehicle_type_id":"4","last_reported":1728994650,"current_range_meters":21600,"station_id":"ce4bhh12rcd13ifvqfg0","pricing_plan_id":"cebpf4jnsgd1na2vs0mg"},{"bike_id":"8a3fdd4f-9844-4c07-9e1c-1c26549255be","system_id":"levelo_inurba_marseille","lat":43.28725,"lon":5.37938,"is_reserved":false,"is_disabled":false,"rental_uris":{"android":"levelo://app?vid=8a3fdd4f-9844-4c07-9e1c-1c26549255be","ios":"levelo://app?vid=8a3fdd4f-9844-4c07-9e1c-1c26549255be"},"vehicle_type_id":"4","last_reported":1728994650,"current_range_meters":38800,"station_id":"ce4bh9p2rcd13ifvqec0","pricing_plan_id":"cebpf4jnsgd1na2vs0mg"},{"bike_id":"a64e715f-d547-44b3-b9bf-531329fccc13","system_id":"levelo_inurba_marseille","lat":43.30292,"lon":5.36896,"is_reserved":false,"is_disabled":false,"rental_uris":{"android":"levelo://app?vid=a64e715f-d547-44b3-b9bf-531329fccc13","ios":"levelo://app?vid=a64e715f-d547-44b3-b9bf-531329fccc13"},"vehicle_type_id":"4","last_reported":1728994650,"current_range_meters":12000,"station_id":"ce4bgqh2rcd13ifvqc5g","pricing_plan_id":"cebpf4jnsgd1na2vs0mg"},{"bike_id":"6129feaa-d519-4419-9077-e39d213d0e26","system_id":"levelo_inurba_marseille","lat":43.24073,"lon":5.37757,"is_reserved":false,"is_disabled":false,"rental_uris":{"android":"levelo://app?vid=6129feaa-d519-4419-9077-e39d213d0e26","ios":"levelo://app?vid=6129feaa-d519-4419-9077-e39d213d0e26"},"vehicle_type_id":"4","last_reported":1728994650,"current_range_meters":6000,"station_id":"ce4bhnp2rcd13ifvqgvg","pricing_plan_id":"cebpf4jnsgd1na2vs0mg"},{"bike_id":"d29eb176-6bf8-4d45-8a60-89fc87f9bbf7","system_id":"levelo_inurba_marseille","lat":43.25584,"lon":5.3823,"is_reserved":false,"is_disabled":false,"rental_uris":{"android":"levelo://app?vid=d29eb176-6bf8-4d45-8a60-89fc87f9bbf7","ios":"levelo://app?vid=d29eb176-6bf8-4d45-8a60-89fc87f9bbf7"},"vehicle_type_id":"4","last_reported":1728994650,"current_range_meters":23200,"station_id":"ce4bhih2rcd13ifvqfs0","pricing_plan_id":"cebpf4jnsgd1na2vs0mg"},{"bike_id":"1373389e-3e71-4b98-a6dc-36806d1c2da6","system_id":"levelo_inurba_marseille","lat":43.337444,"lon":5.374475,"is_reserved":false,"is_disabled":false,"rental_uris":{"android":"levelo://app?vid=1373389e-3e71-4b98-a6dc-36806d1c2da6","ios":"levelo://app?vid=1373389e-3e71-4b98-a6dc-36806d1c2da6"},"vehicle_type_id":"4","last_reported":1728994650,"current_range_meters":32400,"station_id":"","pricing_plan_id":"cebpf4jnsgd1na2vs0mg"},{"bike_id":"978e1708-2f3b-4d72-b415-dbe1cfaa8617","system_id":"levelo_inurba_marseille","lat":43.25938,"lon":5.40902,"is_reserved":false,"is_disabled":false,"rental_uris":{"android":"levelo://app?vid=978e1708-2f3b-4d72-b415-dbe1cfaa8617","ios":"levelo://app?vid=978e1708-2f3b-4d72-b415-dbe1cfaa8617"},"vehicle_type_id":"4","last_reported":1728994650,"current_range_meters":9600,"station_id":"ce4bhm92rcd13ifvqglg","pricing_plan_id":"cebpf4jnsgd1na2vs0mg"},{"bike_id":"d3bb2274-59c1-439c-9732-3518beb133b3","system_id":"levelo_inurba_marseille","lat":43.28458,"lon":5.35886,"is_reserved":false,"is_disabled":false,"rental_uris":{"android":"levelo://app?vid=d3bb2274-59c1-439c-9732-3518beb133b3","ios":"levelo://app?vid=d3bb2274-59c1-439c-9732-3518beb133b3"},"vehicle_type_id":"4","last_reported":1728994650,"current_range_meters":33600,"station_id":"ce4bhah2rcd13ifvqei0","pricing_plan_id":"cebpf4jnsgd1na2vs0mg"},{"bike_id":"9285f553-1e64-45d7-aab6-5984cd2f56c9","system_id":"levelo_inurba_marseille","lat":43.26787,"lon":5.39413,"is_reserved":false,"is_disabled":false,"rental_uris":{"android":"levelo://app?vid=9285f553-1e64-45d7-aab6-5984cd2f56c9","ios":"levelo://app?vid=9285f553-1e64-45d7-aab6-5984cd2f56c9"},"vehicle_type_id":"4","last_reported":1728994650,"current_range_meters":24400,"station_id":"ce4bhh12rcd13ifvqfg0","pricing_plan_id":"cebpf4jnsgd1na2vs0mg"},{"bike_id":"b60b9d06-276a-4bae-a637-b2a348bf4034","system_id":"levelo_inurba_marseille","lat":43.31713,"lon":5.43708,"is_reserved":false,"is_disabled":false,"rental_uris":{"android":"levelo://app?vid=b60b9d06-276a-4bae-a637-b2a348bf4034","ios":"levelo://app?vid=b60b9d06-276a-4bae-a637-b2a348bf4034"},"vehicle_type_id":"4","last_reported":1728994650,"current_range_meters":18800,"station_id":"ce4bhp92rcd13ifvqhcg","pricing_plan_id":"cebpf4jnsgd1na2vs0mg"},{"bike_id":"1d1a5305-93eb-48bd-aca5-91c26433821c","system_id":"levelo_inurba_marseille","lat":43.30536,"lon":5.36522,"is_reserved":false,"is_disabled":false,"rental_uris":{"android":"levelo://app?vid=1d1a5305-93eb-48bd-aca5-91c26433821c","ios":"levelo://app?vid=1d1a5305-93eb-48bd-aca5-91c26433821c"},"vehicle_type_id":"4","last_reported":1728994650,"current_range_meters":34800,"station_id":"ce4bgs12rcd13ifvqcag","pricing_plan_id":"cebpf4jnsgd1na2vs0mg"},{"bike_id":"1b36c886-6f31-47c5-b595-f9746f26d073","system_id":"levelo_inurba_marseille","lat":43.27977,"lon":5.38738,"is_reserved":false,"is_disabled":false,"rental_uris":{"android":"levelo://app?vid=1b36c886-6f31-47c5-b595-f9746f26d073","ios":"levelo://app?vid=1b36c886-6f31-47c5-b595-f9746f26d073"},"vehicle_type_id":"4","last_reported":1728994650,"current_range_meters":27600,"station_id":"ce4bhg12rcd13ifvqf80","pricing_plan_id":"cebpf4jnsgd1na2vs0mg"},{"bike_id":"088ab1c0-bc4c-4c3d-99b0-69af3d02bd25","system_id":"levelo_inurba_marseille","lat":43.30915,"lon":5.36836,"is_reserved":false,"is_disabled":false,"rental_uris":{"android":"levelo://app?vid=088ab1c0-bc4c-4c3d-99b0-69af3d02bd25","ios":"levelo://app?vid=088ab1c0-bc4c-4c3d-99b0-69af3d02bd25"},"vehicle_type_id":"4","last_reported":1728994650,"current_range_meters":26800,"station_id":"ce4bgn92rcd13ifvqbvg","pricing_plan_id":"cebpf4jnsgd1na2vs0mg"},{"bike_id":"beea5ce3-6e3b-468e-af4b-c0aef7b7dfd3","system_id":"levelo_inurba_marseille","lat":43.24401,"lon":5.37049,"is_reserved":false,"is_disabled":false,"rental_uris":{"android":"levelo://app?vid=beea5ce3-6e3b-468e-af4b-c0aef7b7dfd3","ios":"levelo://app?vid=beea5ce3-6e3b-468e-af4b-c0aef7b7dfd3"},"vehicle_type_id":"4","last_reported":1728994650,"current_range_meters":20800,"station_id":"ce4bhhh2rcd13ifvqfk0","pricing_plan_id":"cebpf4jnsgd1na2vs0mg"},{"bike_id":"610de42a-d400-442c-a6da-176b4cd3d279","system_id":"levelo_inurba_marseille","lat":43.29594,"lon":5.3809,"is_reserved":false,"is_disabled":false,"rental_uris":{"android":"levelo://app?vid=610de42a-d400-442c-a6da-176b4cd3d279","ios":"levelo://app?vid=610de42a-d400-442c-a6da-176b4cd3d279"},"vehicle_type_id":"4","last_reported":1728994650,"current_range_meters":39200,"station_id":"ce4bgl12rcd13ifvqbo0","pricing_plan_id":"cebpf4jnsgd1na2vs0mg"},{"bike_id":"4e0fb3d8-657a-4a31-bc7a-b6b6f5d4ebe0","system_id":"levelo_inurba_marseille","lat":43.29614,"lon":5.37146,"is_reserved":false,"is_disabled":false,"rental_uris":{"android":"levelo://app?vid=4e0fb3d8-657a-4a31-bc7a-b6b6f5d4ebe0","ios":"levelo://app?vid=4e0fb3d8-657a-4a31-bc7a-b6b6f5d4ebe0"},"vehicle_type_id":"4","last_reported":1728994650,"current_range_meters":10800,"station_id":"ce4bgnh2rcd13ifvqc0g","pricing_plan_id":"cebpf4jnsgd1na2vs0mg"},{"bike_id":"9e21f6d9-4a73-497d-a7e2-5036db2477bd","system_id":"levelo_inurba_marseille","lat":43.28409,"lon":5.34987,"is_reserved":false,"is_disabled":false,"rental_uris":{"android":"levelo://app?vid=9e21f6d9-4a73-497d-a7e2-5036db2477bd","ios":"levelo://app?vid=9e21f6d9-4a73-497d-a7e2-5036db2477bd"},"vehicle_type_id":"4","last_reported":1728994650,"current_range_meters":17600,"station_id":"ce4bhbh2rcd13ifvqepg","pricing_plan_id":"cebpf4jnsgd1na2vs0mg"},{"bike_id":"72358ece-4187-445f-9954-0b053f59dd58","system_id":"levelo_inurba_marseille","lat":43.28265,"lon":5.35066,"is_reserved":false,"is_disabled":false,"rental_uris":{"android":"levelo://app?vid=72358ece-4187-445f-9954-0b053f59dd58","ios":"levelo://app?vid=72358ece-4187-445f-9954-0b053f59dd58"},"vehicle_type_id":"4","last_reported":1728994650,"current_range_meters":40000,"station_id":"ce4bhbp2rcd13ifvqerg","pricing_plan_id":"cebpf4jnsgd1na2vs0mg"},{"bike_id":"c5795c0d-73fa-45b4-886c-f09b273a0671","system_id":"levelo_inurba_marseille","lat":43.28263,"lon":5.35073,"is_reserved":false,"is_disabled":false,"rental_uris":{"android":"levelo://app?vid=c5795c0d-73fa-45b4-886c-f09b273a0671","ios":"levelo://app?vid=c5795c0d-73fa-45b4-886c-f09b273a0671"},"vehicle_type_id":"4","last_reported":1728994650,"current_range_meters":19600,"station_id":"ce4bhbp2rcd13ifvqerg","pricing_plan_id":"cebpf4jnsgd1na2vs0mg"},{"bike_id":"4cfc7fc9-fc10-4d64-9850-93863908373a","system_id":"levelo_inurba_marseille","lat":43.2971,"lon":5.37695,"is_reserved":false,"is_disabled":false,"rental_uris":{"android":"levelo://app?vid=4cfc7fc9-fc10-4d64-9850-93863908373a","ios":"levelo://app?vid=4cfc7fc9-fc10-4d64-9850-93863908373a"},"vehicle_type_id":"4","last_reported":1728994650,"current_range_meters":38400,"station_id":"ce4bgkh2rcd13ifvqbl0","pricing_plan_id":"cebpf4jnsgd1na2vs0mg"},{"bike_id":"3bc23e9a-68e3-40e9-ac46-e9455d6efa2e","system_id":"levelo_inurba_marseille","lat":43.29973,"lon":5.37176,"is_reserved":false,"is_disabled":false,"rental_uris":{"android":"levelo://app?vid=3bc23e9a-68e3-40e9-ac46-e9455d6efa2e","ios":"levelo://app?vid=3bc23e9a-68e3-40e9-ac46-e9455d6efa2e"},"vehicle_type_id":"4","last_reported":1728994650,"current_range_meters":30400,"station_id":"ce4bgr92rcd13ifvqc7g","pricing_plan_id":"cebpf4jnsgd1na2vs0mg"},{"bike_id":"a2c406c4-d528-42c8-bdb2-cc65a706d41b","system_id":"levelo_inurba_marseille","lat":43.31498,"lon":5.37314,"is_reserved":false,"is_disabled":false,"rental_uris":{"android":"levelo://app?vid=a2c406c4-d528-42c8-bdb2-cc65a706d41b","ios":"levelo://app?vid=a2c406c4-d528-42c8-bdb2-cc65a706d41b"},"vehicle_type_id":"4","last_reported":1728994650,"current_range_meters":30000,"station_id":"ce4bgt12rcd13ifvqcd0","pricing_plan_id":"cebpf4jnsgd1na2vs0mg"},{"bike_id":"0b7b73ca-57a2-4208-bf5f-00ba313e1cd4","system_id":"levelo_inurba_marseille","lat":43.29227,"lon":5.36066,"is_reserved":false,"is_disabled":false,"rental_uris":{"android":"levelo://app?vid=0b7b73ca-57a2-4208-bf5f-00ba313e1cd4","ios":"levelo://app?vid=0b7b73ca-57a2-4208-bf5f-00ba313e1cd4"},"vehicle_type_id":"4","last_reported":1728994650,"current_range_meters":10800,"station_id":"ce4bhbh2rcd13ifvqeqg","pricing_plan_id":"cebpf4jnsgd1na2vs0mg"},{"bike_id":"85e0c597-b58e-4ed1-a673-617dd8815077","system_id":"levelo_inurba_marseille","lat":43.29925,"lon":5.4133,"is_reserved":false,"is_disabled":false,"rental_uris":{"android":"levelo://app?vid=85e0c597-b58e-4ed1-a673-617dd8815077","ios":"levelo://app?vid=85e0c597-b58e-4ed1-a673-617dd8815077"},"vehicle_type_id":"4","last_reported":1728994650,"current_range_meters":9200,"station_id":"ce4bhp12rcd13ifvqh9g","pricing_plan_id":"cebpf4jnsgd1na2vs0mg"},{"bike_id":"31a9ced7-5623-485a-a91d-31dbae6748a4","system_id":"levelo_inurba_marseille","lat":43.30544,"lon":5.36704,"is_reserved":false,"is_disabled":false,"rental_uris":{"android":"levelo://app?vid=31a9ced7-5623-485a-a91d-31dbae6748a4","ios":"levelo://app?vid=31a9ced7-5623-485a-a91d-31dbae6748a4"},"vehicle_type_id":"4","last_reported":1728994650,"current_range_meters":38800,"station_id":"ce4bgrp2rcd13ifvqc9g","pricing_plan_id":"cebpf4jnsgd1na2vs0mg"},{"bike_id":"00707241-c9a7-4262-a6e1-14ee27f38531","system_id":"levelo_inurba_marseille","lat":43.2827,"lon":5.35071,"is_reserved":false,"is_disabled":false,"rental_uris":{"android":"levelo://app?vid=00707241-c9a7-4262-a6e1-14ee27f38531","ios":"levelo://app?vid=00707241-c9a7-4262-a6e1-14ee27f38531"},"vehicle_type_id":"4","last_reported":1728994650,"current_range_meters":14800,"station_id":"ce4bhbp2rcd13ifvqerg","pricing_plan_id":"cebpf4jnsgd1na2vs0mg"},{"bike_id":"89198ecf-9ad5-429c-84dc-a279ee6e8f88","system_id":"levelo_inurba_marseille","lat":43.33746,"lon":5.37436,"is_reserved":false,"is_disabled":false,"rental_uris":{"android":"levelo://app?vid=89198ecf-9ad5-429c-84dc-a279ee6e8f88","ios":"levelo://app?vid=89198ecf-9ad5-429c-84dc-a279ee6e8f88"},"vehicle_type_id":"4","last_reported":1728994650,"current_range_meters":35600,"station_id":"","pricing_plan_id":"cebpf4jnsgd1na2vs0mg"},{"bike_id":"8fdd4147-e848-49f0-9c54-870bdb6cb1f5","system_id":"levelo_inurba_marseille","lat":43.33599,"lon":5.41027,"is_reserved":false,"is_disabled":false,"rental_uris":{"android":"levelo://app?vid=8fdd4147-e848-49f0-9c54-870bdb6cb1f5","ios":"levelo://app?vid=8fdd4147-e848-49f0-9c54-870bdb6cb1f5"},"vehicle_type_id":"4","last_reported":1728994650,"current_range_meters":35200,"station_id":"ce4bhqh2rcd13ifvqhmg","pricing_plan_id":"cebpf4jnsgd1na2vs0mg"},{"bike_id":"76445514-dd6c-426b-941e-789afb2f2c25","system_id":"levelo_inurba_marseille","lat":43.33605,"lon":5.41039,"is_reserved":false,"is_disabled":false,"rental_uris":{"android":"levelo://app?vid=76445514-dd6c-426b-941e-789afb2f2c25","ios":"levelo://app?vid=76445514-dd6c-426b-941e-789afb2f2c25"},"vehicle_type_id":"4","last_reported":1728994650,"current_range_meters":38800,"station_id":"ce4bhqh2rcd13ifvqhmg","pricing_plan_id":"cebpf4jnsgd1na2vs0mg"},{"bike_id":"7079880e-c7df-4c5d-9305-40db7fa229f9","system_id":"levelo_inurba_marseille","lat":43.24064,"lon":5.37765,"is_reserved":false,"is_disabled":false,"rental_uris":{"android":"levelo://app?vid=7079880e-c7df-4c5d-9305-40db7fa229f9","ios":"levelo://app?vid=7079880e-c7df-4c5d-9305-40db7fa229f9"},"vehicle_type_id":"4","last_reported":1728994650,"current_range_meters":31200,"station_id":"ce4bhnp2rcd13ifvqgvg","pricing_plan_id":"cebpf4jnsgd1na2vs0mg"},{"bike_id":"2a0bc9ba-4f95-4e26-87c2-8957f138d3a4","system_id":"levelo_inurba_marseille","lat":43.232,"lon":5.35551,"is_reserved":false,"is_disabled":false,"rental_uris":{"android":"levelo://app?vid=2a0bc9ba-4f95-4e26-87c2-8957f138d3a4","ios":"levelo://app?vid=2a0bc9ba-4f95-4e26-87c2-8957f138d3a4"},"vehicle_type_id":"4","last_reported":1728994650,"current_range_meters":3200,"station_id":"ce4bhu92rcd13ifvqi70","pricing_plan_id":"cebpf4jnsgd1na2vs0mg"},{"bike_id":"48c2e15c-f2d3-453b-9a21-a6cb5369e204","system_id":"levelo_inurba_marseille","lat":43.28939,"lon":5.36401,"is_reserved":false,"is_disabled":false,"rental_uris":{"android":"levelo://app?vid=48c2e15c-f2d3-453b-9a21-a6cb5369e204","ios":"levelo://app?vid=48c2e15c-f2d3-453b-9a21-a6cb5369e204"},"vehicle_type_id":"4","last_reported":1728994650,"current_range_meters":38400,"station_id":"ce4bhc92rcd13ifvqetg","pricing_plan_id":"cebpf4jnsgd1na2vs0mg"},{"bike_id":"a00dfee0-03dd-4959-bf4d-9a9869c0eb4b","system_id":"levelo_inurba_marseille","lat":43.25086,"lon":5.39525,"is_reserved":false,"is_disabled":false,"rental_uris":{"android":"levelo://app?vid=a00dfee0-03dd-4959-bf4d-9a9869c0eb4b","ios":"levelo://app?vid=a00dfee0-03dd-4959-bf4d-9a9869c0eb4b"},"vehicle_type_id":"4","last_reported":1728994650,"current_range_meters":5600,"station_id":"ce4bhm12rcd13ifvqgkg","pricing_plan_id":"cebpf4jnsgd1na2vs0mg"},{"bike_id":"cfe8f8d6-a024-473a-8f2e-1a9251c04829","system_id":"levelo_inurba_marseille","lat":43.32482,"lon":5.36577,"is_reserved":false,"is_disabled":false,"rental_uris":{"android":"levelo://app?vid=cfe8f8d6-a024-473a-8f2e-1a9251c04829","ios":"levelo://app?vid=cfe8f8d6-a024-473a-8f2e-1a9251c04829"},"vehicle_type_id":"4","last_reported":1728994650,"current_range_meters":25600,"station_id":"ce4bhs12rcd13ifvqhvg","pricing_plan_id":"cebpf4jnsgd1na2vs0mg"},{"bike_id":"56d6fa19-2f71-4c2d-8ab8-ecf4e34ca02f","system_id":"levelo_inurba_marseille","lat":43.28352,"lon":5.38102,"is_reserved":false,"is_disabled":false,"rental_uris":{"android":"levelo://app?vid=56d6fa19-2f71-4c2d-8ab8-ecf4e34ca02f","ios":"levelo://app?vid=56d6fa19-2f71-4c2d-8ab8-ecf4e34ca02f"},"vehicle_type_id":"4","last_reported":1728994650,"current_range_meters":9600,"station_id":"ce4bh412rcd13ifvqdr0","pricing_plan_id":"cebpf4jnsgd1na2vs0mg"},{"bike_id":"27521189-a10b-488a-82b8-973812fa95e1","system_id":"levelo_inurba_marseille","lat":43.324792,"lon":5.365694,"is_reserved":false,"is_disabled":false,"rental_uris":{"android":"levelo://app?vid=27521189-a10b-488a-82b8-973812fa95e1","ios":"levelo://app?vid=27521189-a10b-488a-82b8-973812fa95e1"},"vehicle_type_id":"4","last_reported":1728994650,"current_range_meters":36400,"station_id":"ce4bhs12rcd13ifvqhvg","pricing_plan_id":"cebpf4jnsgd1na2vs0mg"},{"bike_id":"cbd7d81a-b913-4adf-8a4f-e40c105f9838","system_id":"levelo_inurba_marseille","lat":43.28417,"lon":5.34994,"is_reserved":false,"is_disabled":false,"rental_uris":{"android":"levelo://app?vid=cbd7d81a-b913-4adf-8a4f-e40c105f9838","ios":"levelo://app?vid=cbd7d81a-b913-4adf-8a4f-e40c105f9838"},"vehicle_type_id":"4","last_reported":1728994650,"current_range_meters":38000,"station_id":"ce4bhbh2rcd13ifvqepg","pricing_plan_id":"cebpf4jnsgd1na2vs0mg"},{"bike_id":"6184b137-30c3-4dfa-bcbe-046368739578","system_id":"levelo_inurba_marseille","lat":43.29733,"lon":5.37699,"is_reserved":false,"is_disabled":false,"rental_uris":{"android":"levelo://app?vid=6184b137-30c3-4dfa-bcbe-046368739578","ios":"levelo://app?vid=6184b137-30c3-4dfa-bcbe-046368739578"},"vehicle_type_id":"4","last_reported":1728994650,"current_range_meters":38800,"station_id":"ce4bgkh2rcd13ifvqbl0","pricing_plan_id":"cebpf4jnsgd1na2vs0mg"},{"bike_id":"d443b433-c252-46ef-bc76-795a1a2f51f5","system_id":"levelo_inurba_marseille","lat":43.29857,"lon":5.36286,"is_reserved":false,"is_disabled":false,"rental_uris":{"android":"levelo://app?vid=d443b433-c252-46ef-bc76-795a1a2f51f5","ios":"levelo://app?vid=d443b433-c252-46ef-bc76-795a1a2f51f5"},"vehicle_type_id":"4","last_reported":1728994650,"current_range_meters":9200,"station_id":"ce4bgpp2rcd13ifvqc3g","pricing_plan_id":"cebpf4jnsgd1na2vs0mg"},{"bike_id":"545f3ddb-65db-4ab0-b4a4-674579e7db1f","system_id":"levelo_inurba_marseille","lat":43.32372,"lon":5.3889,"is_reserved":false,"is_disabled":false,"rental_uris":{"android":"levelo://app?vid=545f3ddb-65db-4ab0-b4a4-674579e7db1f","ios":"levelo://app?vid=545f3ddb-65db-4ab0-b4a4-674579e7db1f"},"vehicle_type_id":"4","last_reported":1728994650,"current_range_meters":9600,"station_id":"ce4bhqp2rcd13ifvqhog","pricing_plan_id":"cebpf4jnsgd1na2vs0mg"},{"bike_id":"b1d40da5-96fa-487f-84d7-1b3882ee4dfb","system_id":"levelo_inurba_marseille","lat":43.29989,"lon":5.37168,"is_reserved":false,"is_disabled":false,"rental_uris":{"android":"levelo://app?vid=b1d40da5-96fa-487f-84d7-1b3882ee4dfb","ios":"levelo://app?vid=b1d40da5-96fa-487f-84d7-1b3882ee4dfb"},"vehicle_type_id":"4","last_reported":1728994650,"current_range_meters":3200,"station_id":"ce4bgr92rcd13ifvqc7g","pricing_plan_id":"cebpf4jnsgd1na2vs0mg"},{"bike_id":"af72c931-eb8a-4884-9dc9-d800fea8aa26","system_id":"levelo_inurba_marseille","lat":43.24388,"lon":5.37055,"is_reserved":false,"is_disabled":false,"rental_uris":{"android":"levelo://app?vid=af72c931-eb8a-4884-9dc9-d800fea8aa26","ios":"levelo://app?vid=af72c931-eb8a-4884-9dc9-d800fea8aa26"},"vehicle_type_id":"4","last_reported":1728994650,"current_range_meters":38000,"station_id":"ce4bhhh2rcd13ifvqfk0","pricing_plan_id":"cebpf4jnsgd1na2vs0mg"},{"bike_id":"007efbe2-bf32-4554-b911-1c3b0d7fe42a","system_id":"levelo_inurba_marseille","lat":43.2896,"lon":5.37823,"is_reserved":false,"is_disabled":false,"rental_uris":{"android":"levelo://app?vid=007efbe2-bf32-4554-b911-1c3b0d7fe42a","ios":"levelo://app?vid=007efbe2-bf32-4554-b911-1c3b0d7fe42a"},"vehicle_type_id":"4","last_reported":1728994650,"current_range_meters":38800,"station_id":"ce4bh9p2rcd13ifvqed0","pricing_plan_id":"cebpf4jnsgd1na2vs0mg"},{"bike_id":"1e1f2525-317d-43aa-b612-4319bb2221bc","system_id":"levelo_inurba_marseille","lat":43.28844,"lon":5.39298,"is_reserved":false,"is_disabled":false,"rental_uris":{"android":"levelo://app?vid=1e1f2525-317d-43aa-b612-4319bb2221bc","ios":"levelo://app?vid=1e1f2525-317d-43aa-b612-4319bb2221bc"},"vehicle_type_id":"4","last_reported":1728994650,"current_range_meters":17200,"station_id":"ce4bh2p2rcd13ifvqdi0","pricing_plan_id":"cebpf4jnsgd1na2vs0mg"},{"bike_id":"446168c3-e7fa-4444-a966-fa92840076d1","system_id":"levelo_inurba_marseille","lat":43.29624,"lon":5.37152,"is_reserved":false,"is_disabled":false,"rental_uris":{"android":"levelo://app?vid=446168c3-e7fa-4444-a966-fa92840076d1","ios":"levelo://app?vid=446168c3-e7fa-4444-a966-fa92840076d1"},"vehicle_type_id":"4","last_reported":1728994650,"current_range_meters":24400,"station_id":"ce4bgnh2rcd13ifvqc0g","pricing_plan_id":"cebpf4jnsgd1na2vs0mg"},{"bike_id":"a2eb58c6-dd46-4b5a-b81d-fe3714bbcfc9","system_id":"levelo_inurba_marseille","lat":43.23961,"lon":5.36626,"is_reserved":false,"is_disabled":false,"rental_uris":{"android":"levelo://app?vid=a2eb58c6-dd46-4b5a-b81d-fe3714bbcfc9","ios":"levelo://app?vid=a2eb58c6-dd46-4b5a-b81d-fe3714bbcfc9"},"vehicle_type_id":"4","last_reported":1728994650,"current_range_meters":8000,"station_id":"ce4bhi12rcd13ifvqfp0","pricing_plan_id":"cebpf4jnsgd1na2vs0mg"},{"bike_id":"f61f5020-9a98-430b-af24-9548f2ac9198","system_id":"levelo_inurba_marseille","lat":43.24393,"lon":5.3707,"is_reserved":false,"is_disabled":false,"rental_uris":{"android":"levelo://app?vid=f61f5020-9a98-430b-af24-9548f2ac9198","ios":"levelo://app?vid=f61f5020-9a98-430b-af24-9548f2ac9198"},"vehicle_type_id":"4","last_reported":1728994650,"current_range_meters":32400,"station_id":"ce4bhhh2rcd13ifvqfk0","pricing_plan_id":"cebpf4jnsgd1na2vs0mg"},{"bike_id":"ba118aa4-2d24-49a2-b7cd-c6a06cffd3ca","system_id":"levelo_inurba_marseille","lat":43.29023,"lon":5.37556,"is_reserved":false,"is_disabled":false,"rental_uris":{"android":"levelo://app?vid=ba118aa4-2d24-49a2-b7cd-c6a06cffd3ca","ios":"levelo://app?vid=ba118aa4-2d24-49a2-b7cd-c6a06cffd3ca"},"vehicle_type_id":"4","last_reported":1728994650,"current_range_meters":36800,"station_id":"ce4bh692rcd13ifvqe90","pricing_plan_id":"cebpf4jnsgd1na2vs0mg"},{"bike_id":"55dec25f-9c9f-4170-9757-22336230d6fe","system_id":"levelo_inurba_marseille","lat":43.30423,"lon":5.367731,"is_reserved":false,"is_disabled":false,"rental_uris":{"android":"levelo://app?vid=55dec25f-9c9f-4170-9757-22336230d6fe","ios":"levelo://app?vid=55dec25f-9c9f-4170-9757-22336230d6fe"},"vehicle_type_id":"4","last_reported":1728994650,"current_range_meters":29600,"station_id":"ce4bgrp2rcd13ifvqc9g","pricing_plan_id":"cebpf4jnsgd1na2vs0mg"},{"bike_id":"995213a4-b0e8-4737-b0b6-5f59e564978e","system_id":"levelo_inurba_marseille","lat":43.33604,"lon":5.41022,"is_reserved":false,"is_disabled":false,"rental_uris":{"android":"levelo://app?vid=995213a4-b0e8-4737-b0b6-5f59e564978e","ios":"levelo://app?vid=995213a4-b0e8-4737-b0b6-5f59e564978e"},"vehicle_type_id":"4","last_reported":1728994650,"current_range_meters":7200,"station_id":"ce4bhqh2rcd13ifvqhmg","pricing_plan_id":"cebpf4jnsgd1na2vs0mg"},{"bike_id":"7b4261da-150b-4c97-bca6-b8ad4fc8c546","system_id":"levelo_inurba_marseille","lat":43.28415,"lon":5.37501,"is_reserved":false,"is_disabled":false,"rental_uris":{"android":"levelo://app?vid=7b4261da-150b-4c97-bca6-b8ad4fc8c546","ios":"levelo://app?vid=7b4261da-150b-4c97-bca6-b8ad4fc8c546"},"vehicle_type_id":"4","last_reported":1728994650,"current_range_meters":38800,"station_id":"ce4bh412rcd13ifvqds0","pricing_plan_id":"cebpf4jnsgd1na2vs0mg"},{"bike_id":"99230990-0a10-49ee-9cbf-1eae9b9bb09d","system_id":"levelo_inurba_marseille","lat":43.28943,"lon":5.36636,"is_reserved":false,"is_disabled":false,"rental_uris":{"android":"levelo://app?vid=99230990-0a10-49ee-9cbf-1eae9b9bb09d","ios":"levelo://app?vid=99230990-0a10-49ee-9cbf-1eae9b9bb09d"},"vehicle_type_id":"4","last_reported":1728994650,"current_range_meters":27200,"station_id":"ce4bhn12rcd13ifvqgqg","pricing_plan_id":"cebpf4jnsgd1na2vs0mg"},{"bike_id":"c0670d96-b06e-446b-a07e-6b5eeebc59d7","system_id":"levelo_inurba_marseille","lat":43.274948,"lon":5.424466,"is_reserved":false,"is_disabled":false,"rental_uris":{"android":"levelo://app?vid=c0670d96-b06e-446b-a07e-6b5eeebc59d7","ios":"levelo://app?vid=c0670d96-b06e-446b-a07e-6b5eeebc59d7"},"vehicle_type_id":"4","last_reported":1728994650,"current_range_meters":12400,"station_id":"ce4bhn92rcd13ifvqgrg","pricing_plan_id":"cebpf4jnsgd1na2vs0mg"},{"bike_id":"485372db-c927-43ac-8631-871bcbd82cc0","system_id":"levelo_inurba_marseille","lat":43.24061,"lon":5.37763,"is_reserved":false,"is_disabled":false,"rental_uris":{"android":"levelo://app?vid=485372db-c927-43ac-8631-871bcbd82cc0","ios":"levelo://app?vid=485372db-c927-43ac-8631-871bcbd82cc0"},"vehicle_type_id":"4","last_reported":1728994650,"current_range_meters":10800,"station_id":"ce4bhnp2rcd13ifvqgvg","pricing_plan_id":"cebpf4jnsgd1na2vs0mg"},{"bike_id":"02c903ab-53e0-41d9-a4f7-29b840913cfb","system_id":"levelo_inurba_marseille","lat":43.25083,"lon":5.39522,"is_reserved":false,"is_disabled":false,"rental_uris":{"android":"levelo://app?vid=02c903ab-53e0-41d9-a4f7-29b840913cfb","ios":"levelo://app?vid=02c903ab-53e0-41d9-a4f7-29b840913cfb"},"vehicle_type_id":"4","last_reported":1728994650,"current_range_meters":15200,"station_id":"ce4bhm12rcd13ifvqgkg","pricing_plan_id":"cebpf4jnsgd1na2vs0mg"},{"bike_id":"a0d3d324-fa7e-4417-aee7-85012ecab44e","system_id":"levelo_inurba_marseille","lat":43.34196,"lon":5.44513,"is_reserved":false,"is_disabled":false,"rental_uris":{"android":"levelo://app?vid=a0d3d324-fa7e-4417-aee7-85012ecab44e","ios":"levelo://app?vid=a0d3d324-fa7e-4417-aee7-85012ecab44e"},"vehicle_type_id":"4","last_reported":1728994650,"current_range_meters":24000,"station_id":"","pricing_plan_id":"cebpf4jnsgd1na2vs0mg"},{"bike_id":"724c8533-6c2a-4d58-9645-9dc7cc8cde49","system_id":"levelo_inurba_marseille","lat":43.27175,"lon":5.41001,"is_reserved":false,"is_disabled":false,"rental_uris":{"android":"levelo://app?vid=724c8533-6c2a-4d58-9645-9dc7cc8cde49","ios":"levelo://app?vid=724c8533-6c2a-4d58-9645-9dc7cc8cde49"},"vehicle_type_id":"4","last_reported":1728994650,"current_range_meters":38000,"station_id":"ce4bhl12rcd13ifvqgf0","pricing_plan_id":"cebpf4jnsgd1na2vs0mg"},{"bike_id":"dff624e8-afbc-4b19-9928-67bb88776815","system_id":"levelo_inurba_marseille","lat":43.27503,"lon":5.42457,"is_reserved":false,"is_disabled":false,"rental_uris":{"android":"levelo://app?vid=dff624e8-afbc-4b19-9928-67bb88776815","ios":"levelo://app?vid=dff624e8-afbc-4b19-9928-67bb88776815"},"vehicle_type_id":"4","last_reported":1728994650,"current_range_meters":27600,"station_id":"ce4bhn92rcd13ifvqgrg","pricing_plan_id":"cebpf4jnsgd1na2vs0mg"},{"bike_id":"720a26da-7f94-4946-8c08-af06a5a9aea3","system_id":"levelo_inurba_marseille","lat":43.2845,"lon":5.35887,"is_reserved":false,"is_disabled":false,"rental_uris":{"android":"levelo://app?vid=720a26da-7f94-4946-8c08-af06a5a9aea3","ios":"levelo://app?vid=720a26da-7f94-4946-8c08-af06a5a9aea3"},"vehicle_type_id":"4","last_reported":1728994650,"current_range_meters":29600,"station_id":"ce4bhah2rcd13ifvqei0","pricing_plan_id":"cebpf4jnsgd1na2vs0mg"},{"bike_id":"52f79488-82a8-4ae8-ad58-27d91d161bf2","system_id":"levelo_inurba_marseille","lat":43.2842,"lon":5.34988,"is_reserved":false,"is_disabled":false,"rental_uris":{"android":"levelo://app?vid=52f79488-82a8-4ae8-ad58-27d91d161bf2","ios":"levelo://app?vid=52f79488-82a8-4ae8-ad58-27d91d161bf2"},"vehicle_type_id":"4","last_reported":1728994650,"current_range_meters":6000,"station_id":"ce4bhbh2rcd13ifvqepg","pricing_plan_id":"cebpf4jnsgd1na2vs0mg"},{"bike_id":"3ae02cff-df96-4ee2-b0ce-80c0f14f35c1","system_id":"levelo_inurba_marseille","lat":43.28416,"lon":5.34975,"is_reserved":false,"is_disabled":false,"rental_uris":{"android":"levelo://app?vid=3ae02cff-df96-4ee2-b0ce-80c0f14f35c1","ios":"levelo://app?vid=3ae02cff-df96-4ee2-b0ce-80c0f14f35c1"},"vehicle_type_id":"4","last_reported":1728994650,"current_range_meters":3600,"station_id":"ce4bhbh2rcd13ifvqepg","pricing_plan_id":"cebpf4jnsgd1na2vs0mg"},{"bike_id":"e64e871d-6e9a-4c71-9ea0-c89d508ec004","system_id":"levelo_inurba_marseille","lat":43.2319,"lon":5.35544,"is_reserved":false,"is_disabled":false,"rental_uris":{"android":"levelo://app?vid=e64e871d-6e9a-4c71-9ea0-c89d508ec004","ios":"levelo://app?vid=e64e871d-6e9a-4c71-9ea0-c89d508ec004"},"vehicle_type_id":"4","last_reported":1728994650,"current_range_meters":27200,"station_id":"ce4bhu92rcd13ifvqi70","pricing_plan_id":"cebpf4jnsgd1na2vs0mg"},{"bike_id":"88320fcc-dbb2-4ba9-9166-4596f9f52955","system_id":"levelo_inurba_marseille","lat":43.31347,"lon":5.36721,"is_reserved":false,"is_disabled":false,"rental_uris":{"android":"levelo://app?vid=88320fcc-dbb2-4ba9-9166-4596f9f52955","ios":"levelo://app?vid=88320fcc-dbb2-4ba9-9166-4596f9f52955"},"vehicle_type_id":"4","last_reported":1728994650,"current_range_meters":26800,"station_id":"ce4bgr92rcd13ifvqc6g","pricing_plan_id":"cebpf4jnsgd1na2vs0mg"},{"bike_id":"4d423de8-5e22-441a-8848-ae5dc9d8eb39","system_id":"levelo_inurba_marseille","lat":43.33736,"lon":5.37445,"is_reserved":false,"is_disabled":false,"rental_uris":{"android":"levelo://app?vid=4d423de8-5e22-441a-8848-ae5dc9d8eb39","ios":"levelo://app?vid=4d423de8-5e22-441a-8848-ae5dc9d8eb39"},"vehicle_type_id":"4","last_reported":1728994650,"current_range_meters":12800,"station_id":"","pricing_plan_id":"cebpf4jnsgd1na2vs0mg"},{"bike_id":"4797564a-effd-45d2-b2fe-02d1b7f531c1","system_id":"levelo_inurba_marseille","lat":43.24387,"lon":5.37064,"is_reserved":false,"is_disabled":false,"rental_uris":{"android":"levelo://app?vid=4797564a-effd-45d2-b2fe-02d1b7f531c1","ios":"levelo://app?vid=4797564a-effd-45d2-b2fe-02d1b7f531c1"},"vehicle_type_id":"4","last_reported":1728994650,"current_range_meters":24000,"station_id":"ce4bhhh2rcd13ifvqfk0","pricing_plan_id":"cebpf4jnsgd1na2vs0mg"},{"bike_id":"a0bcbfab-a10d-43a0-b4d9-04fb802f4176","system_id":"levelo_inurba_marseille","lat":43.24078,"lon":5.37756,"is_reserved":false,"is_disabled":false,"rental_uris":{"android":"levelo://app?vid=a0bcbfab-a10d-43a0-b4d9-04fb802f4176","ios":"levelo://app?vid=a0bcbfab-a10d-43a0-b4d9-04fb802f4176"},"vehicle_type_id":"4","last_reported":1728994650,"current_range_meters":4400,"station_id":"ce4bhnp2rcd13ifvqgvg","pricing_plan_id":"cebpf4jnsgd1na2vs0mg"},{"bike_id":"8f1473c8-5614-4fe5-9a08-5f8d5d6a0adb","system_id":"levelo_inurba_marseille","lat":43.32109,"lon":5.36766,"is_reserved":false,"is_disabled":false,"rental_uris":{"android":"levelo://app?vid=8f1473c8-5614-4fe5-9a08-5f8d5d6a0adb","ios":"levelo://app?vid=8f1473c8-5614-4fe5-9a08-5f8d5d6a0adb"},"vehicle_type_id":"4","last_reported":1728994650,"current_range_meters":26800,"station_id":"ce4bhrh2rcd13ifvqhug","pricing_plan_id":"cebpf4jnsgd1na2vs0mg"},{"bike_id":"309d8eee-7f02-4317-bce5-0dc624e6b716","system_id":"levelo_inurba_marseille","lat":43.28278,"lon":5.35078,"is_reserved":false,"is_disabled":false,"rental_uris":{"android":"levelo://app?vid=309d8eee-7f02-4317-bce5-0dc624e6b716","ios":"levelo://app?vid=309d8eee-7f02-4317-bce5-0dc624e6b716"},"vehicle_type_id":"4","last_reported":1728994650,"current_range_meters":20400,"station_id":"ce4bhbp2rcd13ifvqerg","pricing_plan_id":"cebpf4jnsgd1na2vs0mg"},{"bike_id":"06bd8e3b-65e1-4389-97a4-35fe24bebce2","system_id":"levelo_inurba_marseille","lat":43.29552,"lon":5.42283,"is_reserved":false,"is_disabled":false,"rental_uris":{"android":"levelo://app?vid=06bd8e3b-65e1-4389-97a4-35fe24bebce2","ios":"levelo://app?vid=06bd8e3b-65e1-4389-97a4-35fe24bebce2"},"vehicle_type_id":"4","last_reported":1728994650,"current_range_meters":8800,"station_id":"ce4bhph2rcd13ifvqhdg","pricing_plan_id":"cebpf4jnsgd1na2vs0mg"},{"bike_id":"8441e546-b4fb-435c-8fad-e6c9dfc58b1c","system_id":"levelo_inurba_marseille","lat":43.28614,"lon":5.351,"is_reserved":false,"is_disabled":false,"rental_uris":{"android":"levelo://app?vid=8441e546-b4fb-435c-8fad-e6c9dfc58b1c","ios":"levelo://app?vid=8441e546-b4fb-435c-8fad-e6c9dfc58b1c"},"vehicle_type_id":"4","last_reported":1728994650,"current_range_meters":33200,"station_id":"ce4bhch2rcd13ifvqeug","pricing_plan_id":"cebpf4jnsgd1na2vs0mg"},{"bike_id":"bd391cf2-447e-4a41-af6b-1e995770300a","system_id":"levelo_inurba_marseille","lat":43.23188,"lon":5.35543,"is_reserved":false,"is_disabled":false,"rental_uris":{"android":"levelo://app?vid=bd391cf2-447e-4a41-af6b-1e995770300a","ios":"levelo://app?vid=bd391cf2-447e-4a41-af6b-1e995770300a"},"vehicle_type_id":"4","last_reported":1728994650,"current_range_meters":3600,"station_id":"ce4bhu92rcd13ifvqi70","pricing_plan_id":"cebpf4jnsgd1na2vs0mg"},{"bike_id":"3a09ada0-1025-4b5a-9836-b6c456e03073","system_id":"levelo_inurba_marseille","lat":43.32545,"lon":5.41429,"is_reserved":false,"is_disabled":false,"rental_uris":{"android":"levelo://app?vid=3a09ada0-1025-4b5a-9836-b6c456e03073","ios":"levelo://app?vid=3a09ada0-1025-4b5a-9836-b6c456e03073"},"vehicle_type_id":"4","last_reported":1728994650,"current_range_meters":25600,"station_id":"ce4bhq12rcd13ifvqhhg","pricing_plan_id":"cebpf4jnsgd1na2vs0mg"},{"bike_id":"96092fee-06da-45b2-86fa-47241d3901c7","system_id":"levelo_inurba_marseille","lat":43.33772,"lon":5.37471,"is_reserved":false,"is_disabled":false,"rental_uris":{"android":"levelo://app?vid=96092fee-06da-45b2-86fa-47241d3901c7","ios":"levelo://app?vid=96092fee-06da-45b2-86fa-47241d3901c7"},"vehicle_type_id":"4","last_reported":1728994650,"current_range_meters":36800,"station_id":"","pricing_plan_id":"cebpf4jnsgd1na2vs0mg"},{"bike_id":"9c75a2c9-809f-4518-b812-6dfc1ac280df","system_id":"levelo_inurba_marseille","lat":43.2512,"lon":5.40321,"is_reserved":false,"is_disabled":false,"rental_uris":{"android":"levelo://app?vid=9c75a2c9-809f-4518-b812-6dfc1ac280df","ios":"levelo://app?vid=9c75a2c9-809f-4518-b812-6dfc1ac280df"},"vehicle_type_id":"4","last_reported":1728994650,"current_range_meters":24400,"station_id":"ce4bhlh2rcd13ifvqgig","pricing_plan_id":"cebpf4jnsgd1na2vs0mg"},{"bike_id":"7e1661a9-04d5-4fd7-aa72-2044db1bd039","system_id":"levelo_inurba_marseille","lat":43.27497,"lon":5.42456,"is_reserved":false,"is_disabled":false,"rental_uris":{"android":"levelo://app?vid=7e1661a9-04d5-4fd7-aa72-2044db1bd039","ios":"levelo://app?vid=7e1661a9-04d5-4fd7-aa72-2044db1bd039"},"vehicle_type_id":"4","last_reported":1728994650,"current_range_meters":19200,"station_id":"ce4bhn92rcd13ifvqgrg","pricing_plan_id":"cebpf4jnsgd1na2vs0mg"},{"bike_id":"68feb18a-64ff-4a0e-ac27-8530ff76c845","system_id":"levelo_inurba_marseille","lat":43.28265,"lon":5.35072,"is_reserved":false,"is_disabled":false,"rental_uris":{"android":"levelo://app?vid=68feb18a-64ff-4a0e-ac27-8530ff76c845","ios":"levelo://app?vid=68feb18a-64ff-4a0e-ac27-8530ff76c845"},"vehicle_type_id":"4","last_reported":1728994650,"current_range_meters":12800,"station_id":"ce4bhbp2rcd13ifvqerg","pricing_plan_id":"cebpf4jnsgd1na2vs0mg"},{"bike_id":"6c73358d-aedb-4bd3-9999-68b28ac0d6e4","system_id":"levelo_inurba_marseille","lat":43.31105,"lon":5.3776,"is_reserved":false,"is_disabled":false,"rental_uris":{"android":"levelo://app?vid=6c73358d-aedb-4bd3-9999-68b28ac0d6e4","ios":"levelo://app?vid=6c73358d-aedb-4bd3-9999-68b28ac0d6e4"},"vehicle_type_id":"4","last_reported":1728994650,"current_range_meters":26800,"station_id":"ce4bgt92rcd13ifvqcg0","pricing_plan_id":"cebpf4jnsgd1na2vs0mg"},{"bike_id":"e0a424ea-a6cc-492a-9ab3-671b6946d061","system_id":"levelo_inurba_marseille","lat":43.29045,"lon":5.37566,"is_reserved":false,"is_disabled":false,"rental_uris":{"android":"levelo://app?vid=e0a424ea-a6cc-492a-9ab3-671b6946d061","ios":"levelo://app?vid=e0a424ea-a6cc-492a-9ab3-671b6946d061"},"vehicle_type_id":"4","last_reported":1728994650,"current_range_meters":18800,"station_id":"ce4bh692rcd13ifvqe90","pricing_plan_id":"cebpf4jnsgd1na2vs0mg"},{"bike_id":"270599d1-daf7-4469-bdc1-bd64a30d5cd0","system_id":"levelo_inurba_marseille","lat":43.28422,"lon":5.3499,"is_reserved":false,"is_disabled":false,"rental_uris":{"android":"levelo://app?vid=270599d1-daf7-4469-bdc1-bd64a30d5cd0","ios":"levelo://app?vid=270599d1-daf7-4469-bdc1-bd64a30d5cd0"},"vehicle_type_id":"4","last_reported":1728994650,"current_range_meters":35600,"station_id":"ce4bhbh2rcd13ifvqepg","pricing_plan_id":"cebpf4jnsgd1na2vs0mg"},{"bike_id":"566c5bff-1bf8-4665-932e-8caa551d7ee4","system_id":"levelo_inurba_marseille","lat":43.33605,"lon":5.41032,"is_reserved":false,"is_disabled":false,"rental_uris":{"android":"levelo://app?vid=566c5bff-1bf8-4665-932e-8caa551d7ee4","ios":"levelo://app?vid=566c5bff-1bf8-4665-932e-8caa551d7ee4"},"vehicle_type_id":"4","last_reported":1728994650,"current_range_meters":28800,"station_id":"ce4bhqh2rcd13ifvqhmg","pricing_plan_id":"cebpf4jnsgd1na2vs0mg"},{"bike_id":"a6fec0a8-f612-450a-992e-172018c3b086","system_id":"levelo_inurba_marseille","lat":43.32045,"lon":5.41558,"is_reserved":false,"is_disabled":false,"rental_uris":{"android":"levelo://app?vid=a6fec0a8-f612-450a-992e-172018c3b086","ios":"levelo://app?vid=a6fec0a8-f612-450a-992e-172018c3b086"},"vehicle_type_id":"4","last_reported":1728994650,"current_range_meters":28800,"station_id":"ce4bhq92rcd13ifvqhkg","pricing_plan_id":"cebpf4jnsgd1na2vs0mg"},{"bike_id":"fc18448d-25be-44bf-9829-b9ab23d12464","system_id":"levelo_inurba_marseille","lat":43.24077,"lon":5.37754,"is_reserved":false,"is_disabled":false,"rental_uris":{"android":"levelo://app?vid=fc18448d-25be-44bf-9829-b9ab23d12464","ios":"levelo://app?vid=fc18448d-25be-44bf-9829-b9ab23d12464"},"vehicle_type_id":"4","last_reported":1728994650,"current_range_meters":6800,"station_id":"ce4bhnp2rcd13ifvqgvg","pricing_plan_id":"cebpf4jnsgd1na2vs0mg"},{"bike_id":"43a8993b-74bf-4d54-8251-c54961287b9a","system_id":"levelo_inurba_marseille","lat":43.29281,"lon":5.40124,"is_reserved":false,"is_disabled":false,"rental_uris":{"android":"levelo://app?vid=43a8993b-74bf-4d54-8251-c54961287b9a","ios":"levelo://app?vid=43a8993b-74bf-4d54-8251-c54961287b9a"},"vehicle_type_id":"4","last_reported":1728994650,"current_range_meters":4400,"station_id":"ce4bh312rcd13ifvqdk0","pricing_plan_id":"cebpf4jnsgd1na2vs0mg"},{"bike_id":"2140b6a3-5118-4150-823e-9225aeb56201","system_id":"levelo_inurba_marseille","lat":43.23187,"lon":5.35546,"is_reserved":false,"is_disabled":false,"rental_uris":{"android":"levelo://app?vid=2140b6a3-5118-4150-823e-9225aeb56201","ios":"levelo://app?vid=2140b6a3-5118-4150-823e-9225aeb56201"},"vehicle_type_id":"4","last_reported":1728994650,"current_range_meters":8800,"station_id":"ce4bhu92rcd13ifvqi70","pricing_plan_id":"cebpf4jnsgd1na2vs0mg"},{"bike_id":"e9487aac-918b-46e3-98aa-6d1fa629be93","system_id":"levelo_inurba_marseille","lat":43.27811,"lon":5.40705,"is_reserved":false,"is_disabled":false,"rental_uris":{"android":"levelo://app?vid=e9487aac-918b-46e3-98aa-6d1fa629be93","ios":"levelo://app?vid=e9487aac-918b-46e3-98aa-6d1fa629be93"},"vehicle_type_id":"4","last_reported":1728994650,"current_range_meters":34800,"station_id":"ce4bhnh2rcd13ifvqgtg","pricing_plan_id":"cebpf4jnsgd1na2vs0mg"},{"bike_id":"0d8bd227-6461-4af4-a8b3-bad4837d9899","system_id":"levelo_inurba_marseille","lat":43.30533,"lon":5.36534,"is_reserved":false,"is_disabled":false,"rental_uris":{"android":"levelo://app?vid=0d8bd227-6461-4af4-a8b3-bad4837d9899","ios":"levelo://app?vid=0d8bd227-6461-4af4-a8b3-bad4837d9899"},"vehicle_type_id":"4","last_reported":1728994650,"current_range_meters":8000,"station_id":"ce4bgs12rcd13ifvqcag","pricing_plan_id":"cebpf4jnsgd1na2vs0mg"},{"bike_id":"577845d5-47c5-4ab4-92e9-ce5c19e0c183","system_id":"levelo_inurba_marseille","lat":43.28658,"lon":5.36356,"is_reserved":false,"is_disabled":false,"rental_uris":{"android":"levelo://app?vid=577845d5-47c5-4ab4-92e9-ce5c19e0c183","ios":"levelo://app?vid=577845d5-47c5-4ab4-92e9-ce5c19e0c183"},"vehicle_type_id":"4","last_reported":1728994650,"current_range_meters":33200,"station_id":"ce4bhah2rcd13ifvqej0","pricing_plan_id":"cebpf4jnsgd1na2vs0mg"},{"bike_id":"74f1cfff-7b8b-485d-9399-c98aa88f7f21","system_id":"levelo_inurba_marseille","lat":43.28957,"lon":5.36405,"is_reserved":false,"is_disabled":false,"rental_uris":{"android":"levelo://app?vid=74f1cfff-7b8b-485d-9399-c98aa88f7f21","ios":"levelo://app?vid=74f1cfff-7b8b-485d-9399-c98aa88f7f21"},"vehicle_type_id":"4","last_reported":1728994650,"current_range_meters":17600,"station_id":"ce4bhc92rcd13ifvqetg","pricing_plan_id":"cebpf4jnsgd1na2vs0mg"},{"bike_id":"3535e9f5-f9fb-49dd-9c21-f549edafad0d","system_id":"levelo_inurba_marseille","lat":43.2481,"lon":5.37459,"is_reserved":false,"is_disabled":false,"rental_uris":{"android":"levelo://app?vid=3535e9f5-f9fb-49dd-9c21-f549edafad0d","ios":"levelo://app?vid=3535e9f5-f9fb-49dd-9c21-f549edafad0d"},"vehicle_type_id":"4","last_reported":1728994650,"current_range_meters":12400,"station_id":"ce4bhgh2rcd13ifvqfb0","pricing_plan_id":"cebpf4jnsgd1na2vs0mg"},{"bike_id":"32f57965-98a3-4347-b445-344deea3b5b5","system_id":"levelo_inurba_marseille","lat":43.28276,"lon":5.35073,"is_reserved":false,"is_disabled":false,"rental_uris":{"android":"levelo://app?vid=32f57965-98a3-4347-b445-344deea3b5b5","ios":"levelo://app?vid=32f57965-98a3-4347-b445-344deea3b5b5"},"vehicle_type_id":"4","last_reported":1728994650,"current_range_meters":14400,"station_id":"ce4bhbp2rcd13ifvqerg","pricing_plan_id":"cebpf4jnsgd1na2vs0mg"},{"bike_id":"c2b0a175-6d41-43fb-b10e-99347ca2d95f","system_id":"levelo_inurba_marseille","lat":43.27495,"lon":5.42454,"is_reserved":false,"is_disabled":false,"rental_uris":{"android":"levelo://app?vid=c2b0a175-6d41-43fb-b10e-99347ca2d95f","ios":"levelo://app?vid=c2b0a175-6d41-43fb-b10e-99347ca2d95f"},"vehicle_type_id":"4","last_reported":1728994650,"current_range_meters":9600,"station_id":"ce4bhn92rcd13ifvqgrg","pricing_plan_id":"cebpf4jnsgd1na2vs0mg"},{"bike_id":"897f0b2b-7936-4105-b22b-8771a747e98c","system_id":"levelo_inurba_marseille","lat":43.30527,"lon":5.36694,"is_reserved":false,"is_disabled":false,"rental_uris":{"android":"levelo://app?vid=897f0b2b-7936-4105-b22b-8771a747e98c","ios":"levelo://app?vid=897f0b2b-7936-4105-b22b-8771a747e98c"},"vehicle_type_id":"4","last_reported":1728994650,"current_range_meters":38000,"station_id":"ce4bgrp2rcd13ifvqc9g","pricing_plan_id":"cebpf4jnsgd1na2vs0mg"},{"bike_id":"3cae6dbf-2f90-4eb1-a647-739d29c4291d","system_id":"levelo_inurba_marseille","lat":43.27048,"lon":5.40263,"is_reserved":false,"is_disabled":false,"rental_uris":{"android":"levelo://app?vid=3cae6dbf-2f90-4eb1-a647-739d29c4291d","ios":"levelo://app?vid=3cae6dbf-2f90-4eb1-a647-739d29c4291d"},"vehicle_type_id":"4","last_reported":1728994650,"current_range_meters":37600,"station_id":"ce4bhk92rcd13ifvqgc0","pricing_plan_id":"cebpf4jnsgd1na2vs0mg"},{"bike_id":"3e776293-0576-44c0-851b-6a418c2a1fa4","system_id":"levelo_inurba_marseille","lat":43.28262,"lon":5.3506,"is_reserved":false,"is_disabled":false,"rental_uris":{"android":"levelo://app?vid=3e776293-0576-44c0-851b-6a418c2a1fa4","ios":"levelo://app?vid=3e776293-0576-44c0-851b-6a418c2a1fa4"},"vehicle_type_id":"4","last_reported":1728994650,"current_range_meters":9200,"station_id":"ce4bhbp2rcd13ifvqerg","pricing_plan_id":"cebpf4jnsgd1na2vs0mg"},{"bike_id":"c41c4bd6-4e68-420e-b205-f8c962247a74","system_id":"levelo_inurba_marseille","lat":43.24387,"lon":5.37052,"is_reserved":false,"is_disabled":false,"rental_uris":{"android":"levelo://app?vid=c41c4bd6-4e68-420e-b205-f8c962247a74","ios":"levelo://app?vid=c41c4bd6-4e68-420e-b205-f8c962247a74"},"vehicle_type_id":"4","last_reported":1728994650,"current_range_meters":14000,"station_id":"ce4bhhh2rcd13ifvqfk0","pricing_plan_id":"cebpf4jnsgd1na2vs0mg"},{"bike_id":"d9aebdc6-0456-4c2e-be3c-de7ccda9ede6","system_id":"levelo_inurba_marseille","lat":43.30928,"lon":5.40134,"is_reserved":false,"is_disabled":false,"rental_uris":{"android":"levelo://app?vid=d9aebdc6-0456-4c2e-be3c-de7ccda9ede6","ios":"levelo://app?vid=d9aebdc6-0456-4c2e-be3c-de7ccda9ede6"},"vehicle_type_id":"4","last_reported":1728994650,"current_range_meters":4000,"station_id":"ce4bgvp2rcd13ifvqct0","pricing_plan_id":"cebpf4jnsgd1na2vs0mg"},{"bike_id":"e9d42937-a4b2-4a84-a233-384773796211","system_id":"levelo_inurba_marseille","lat":43.2593,"lon":5.40914,"is_reserved":false,"is_disabled":false,"rental_uris":{"android":"levelo://app?vid=e9d42937-a4b2-4a84-a233-384773796211","ios":"levelo://app?vid=e9d42937-a4b2-4a84-a233-384773796211"},"vehicle_type_id":"4","last_reported":1728994650,"current_range_meters":20000,"station_id":"ce4bhm92rcd13ifvqglg","pricing_plan_id":"cebpf4jnsgd1na2vs0mg"},{"bike_id":"47fba401-8923-4e44-a249-9013a4c9ac24","system_id":"levelo_inurba_marseille","lat":43.25503,"lon":5.37648,"is_reserved":false,"is_disabled":false,"rental_uris":{"android":"levelo://app?vid=47fba401-8923-4e44-a249-9013a4c9ac24","ios":"levelo://app?vid=47fba401-8923-4e44-a249-9013a4c9ac24"},"vehicle_type_id":"4","last_reported":1728994650,"current_range_meters":39200,"station_id":"ce4bhh12rcd13ifvqff0","pricing_plan_id":"cebpf4jnsgd1na2vs0mg"},{"bike_id":"16bfad80-e4ba-4861-a759-73670d8fb6ce","system_id":"levelo_inurba_marseille","lat":43.29789,"lon":5.38101,"is_reserved":false,"is_disabled":false,"rental_uris":{"android":"levelo://app?vid=16bfad80-e4ba-4861-a759-73670d8fb6ce","ios":"levelo://app?vid=16bfad80-e4ba-4861-a759-73670d8fb6ce"},"vehicle_type_id":"4","last_reported":1728994650,"current_range_meters":4800,"station_id":"ce4bgip2rcd13ifvqbb0","pricing_plan_id":"cebpf4jnsgd1na2vs0mg"},{"bike_id":"76465980-7a9a-4872-9297-9b3aa19725f4","system_id":"levelo_inurba_marseille","lat":43.336,"lon":5.41018,"is_reserved":false,"is_disabled":false,"rental_uris":{"android":"levelo://app?vid=76465980-7a9a-4872-9297-9b3aa19725f4","ios":"levelo://app?vid=76465980-7a9a-4872-9297-9b3aa19725f4"},"vehicle_type_id":"4","last_reported":1728994650,"current_range_meters":6400,"station_id":"ce4bhqh2rcd13ifvqhmg","pricing_plan_id":"cebpf4jnsgd1na2vs0mg"},{"bike_id":"728973a7-fffc-4dcb-a566-e76afa5087d5","system_id":"levelo_inurba_marseille","lat":43.24385,"lon":5.37059,"is_reserved":false,"is_disabled":false,"rental_uris":{"android":"levelo://app?vid=728973a7-fffc-4dcb-a566-e76afa5087d5","ios":"levelo://app?vid=728973a7-fffc-4dcb-a566-e76afa5087d5"},"vehicle_type_id":"4","last_reported":1728994650,"current_range_meters":39200,"station_id":"ce4bhhh2rcd13ifvqfk0","pricing_plan_id":"cebpf4jnsgd1na2vs0mg"},{"bike_id":"e01e41b6-906b-4d38-bd47-8409331ef9cb","system_id":"levelo_inurba_marseille","lat":43.24168,"lon":5.36388,"is_reserved":false,"is_disabled":false,"rental_uris":{"android":"levelo://app?vid=e01e41b6-906b-4d38-bd47-8409331ef9cb","ios":"levelo://app?vid=e01e41b6-906b-4d38-bd47-8409331ef9cb"},"vehicle_type_id":"4","last_reported":1728994650,"current_range_meters":32800,"station_id":"cpo36qri1sfpv3e86is0","pricing_plan_id":"cebpf4jnsgd1na2vs0mg"},{"bike_id":"58c4033d-c2fd-4506-8ebd-2ac473833b5e","system_id":"levelo_inurba_marseille","lat":43.26689,"lon":5.38275,"is_reserved":false,"is_disabled":false,"rental_uris":{"android":"levelo://app?vid=58c4033d-c2fd-4506-8ebd-2ac473833b5e","ios":"levelo://app?vid=58c4033d-c2fd-4506-8ebd-2ac473833b5e"},"vehicle_type_id":"4","last_reported":1728994650,"current_range_meters":36800,"station_id":"ce4bhg92rcd13ifvqf90","pricing_plan_id":"cebpf4jnsgd1na2vs0mg"},{"bike_id":"4e49b3ba-7b50-4b5e-ab0f-de49337ae2d0","system_id":"levelo_inurba_marseille","lat":43.24073,"lon":5.37762,"is_reserved":false,"is_disabled":false,"rental_uris":{"android":"levelo://app?vid=4e49b3ba-7b50-4b5e-ab0f-de49337ae2d0","ios":"levelo://app?vid=4e49b3ba-7b50-4b5e-ab0f-de49337ae2d0"},"vehicle_type_id":"4","last_reported":1728994650,"current_range_meters":14800,"station_id":"ce4bhnp2rcd13ifvqgvg","pricing_plan_id":"cebpf4jnsgd1na2vs0mg"},{"bike_id":"89211ee2-076f-4df3-92bd-cd8885f2e76d","system_id":"levelo_inurba_marseille","lat":43.23194,"lon":5.35555,"is_reserved":false,"is_disabled":false,"rental_uris":{"android":"levelo://app?vid=89211ee2-076f-4df3-92bd-cd8885f2e76d","ios":"levelo://app?vid=89211ee2-076f-4df3-92bd-cd8885f2e76d"},"vehicle_type_id":"4","last_reported":1728994650,"current_range_meters":40000,"station_id":"ce4bhu92rcd13ifvqi70","pricing_plan_id":"cebpf4jnsgd1na2vs0mg"},{"bike_id":"108ab55c-fc18-4d62-9602-4246a00e9227","system_id":"levelo_inurba_marseille","lat":43.33722,"lon":5.39196,"is_reserved":false,"is_disabled":false,"rental_uris":{"android":"levelo://app?vid=108ab55c-fc18-4d62-9602-4246a00e9227","ios":"levelo://app?vid=108ab55c-fc18-4d62-9602-4246a00e9227"},"vehicle_type_id":"4","last_reported":1728994650,"current_range_meters":36800,"station_id":"ce4bhr92rcd13ifvqhsg","pricing_plan_id":"cebpf4jnsgd1na2vs0mg"},{"bike_id":"dad6a864-cf3f-478b-a951-b084c521c606","system_id":"levelo_inurba_marseille","lat":43.26786,"lon":5.39418,"is_reserved":false,"is_disabled":false,"rental_uris":{"android":"levelo://app?vid=dad6a864-cf3f-478b-a951-b084c521c606","ios":"levelo://app?vid=dad6a864-cf3f-478b-a951-b084c521c606"},"vehicle_type_id":"4","last_reported":1728994650,"current_range_meters":22800,"station_id":"ce4bhh12rcd13ifvqfg0","pricing_plan_id":"cebpf4jnsgd1na2vs0mg"},{"bike_id":"3ec1f88a-d5cc-46ce-a14a-989089531e8a","system_id":"levelo_inurba_marseille","lat":43.337444,"lon":5.374475,"is_reserved":false,"is_disabled":false,"rental_uris":{"android":"levelo://app?vid=3ec1f88a-d5cc-46ce-a14a-989089531e8a","ios":"levelo://app?vid=3ec1f88a-d5cc-46ce-a14a-989089531e8a"},"vehicle_type_id":"4","last_reported":1728994650,"current_range_meters":30400,"station_id":"ce4bho12rcd13ifvqh2g","pricing_plan_id":"cebpf4jnsgd1na2vs0mg"},{"bike_id":"9d35c379-db7e-4539-94fa-124d1e9f5da8","system_id":"levelo_inurba_marseille","lat":43.295964,"lon":5.381059,"is_reserved":false,"is_disabled":false,"rental_uris":{"android":"levelo://app?vid=9d35c379-db7e-4539-94fa-124d1e9f5da8","ios":"levelo://app?vid=9d35c379-db7e-4539-94fa-124d1e9f5da8"},"vehicle_type_id":"4","last_reported":1728994650,"current_range_meters":38800,"station_id":"ce4bgl12rcd13ifvqbo0","pricing_plan_id":"cebpf4jnsgd1na2vs0mg"},{"bike_id":"90a4ac02-7285-437c-a7f1-39f93cfacb98","system_id":"levelo_inurba_marseille","lat":43.28416,"lon":5.34989,"is_reserved":false,"is_disabled":false,"rental_uris":{"android":"levelo://app?vid=90a4ac02-7285-437c-a7f1-39f93cfacb98","ios":"levelo://app?vid=90a4ac02-7285-437c-a7f1-39f93cfacb98"},"vehicle_type_id":"4","last_reported":1728994650,"current_range_meters":34000,"station_id":"ce4bhbh2rcd13ifvqepg","pricing_plan_id":"cebpf4jnsgd1na2vs0mg"},{"bike_id":"66fc5f76-2a92-4808-b935-ad6bf05f802f","system_id":"levelo_inurba_marseille","lat":43.272095,"lon":5.391872,"is_reserved":false,"is_disabled":false,"rental_uris":{"android":"levelo://app?vid=66fc5f76-2a92-4808-b935-ad6bf05f802f","ios":"levelo://app?vid=66fc5f76-2a92-4808-b935-ad6bf05f802f"},"vehicle_type_id":"4","last_reported":1728994650,"current_range_meters":20800,"station_id":"ce4bhhp2rcd13ifvqfm0","pricing_plan_id":"cebpf4jnsgd1na2vs0mg"},{"bike_id":"93fd36a3-3526-4669-8f38-7e986995aa43","system_id":"levelo_inurba_marseille","lat":43.27185,"lon":5.40998,"is_reserved":false,"is_disabled":false,"rental_uris":{"android":"levelo://app?vid=93fd36a3-3526-4669-8f38-7e986995aa43","ios":"levelo://app?vid=93fd36a3-3526-4669-8f38-7e986995aa43"},"vehicle_type_id":"4","last_reported":1728994650,"current_range_meters":17200,"station_id":"ce4bhl12rcd13ifvqgf0","pricing_plan_id":"cebpf4jnsgd1na2vs0mg"},{"bike_id":"fa85c094-07f6-4878-8ded-d44271f6a759","system_id":"levelo_inurba_marseille","lat":43.2903,"lon":5.38645,"is_reserved":false,"is_disabled":false,"rental_uris":{"android":"levelo://app?vid=fa85c094-07f6-4878-8ded-d44271f6a759","ios":"levelo://app?vid=fa85c094-07f6-4878-8ded-d44271f6a759"},"vehicle_type_id":"4","last_reported":1728994650,"current_range_meters":16000,"station_id":"ce4bh4p2rcd13ifvqe0g","pricing_plan_id":"cebpf4jnsgd1na2vs0mg"},{"bike_id":"6805e279-dd49-41bf-b594-46922953a007","system_id":"levelo_inurba_marseille","lat":43.28261,"lon":5.35071,"is_reserved":false,"is_disabled":false,"rental_uris":{"android":"levelo://app?vid=6805e279-dd49-41bf-b594-46922953a007","ios":"levelo://app?vid=6805e279-dd49-41bf-b594-46922953a007"},"vehicle_type_id":"4","last_reported":1728994650,"current_range_meters":18000,"station_id":"ce4bhbp2rcd13ifvqerg","pricing_plan_id":"cebpf4jnsgd1na2vs0mg"},{"bike_id":"e4857b46-39a1-4d04-98db-0f9b6e78e548","system_id":"levelo_inurba_marseille","lat":43.31687,"lon":5.40471,"is_reserved":false,"is_disabled":false,"rental_uris":{"android":"levelo://app?vid=e4857b46-39a1-4d04-98db-0f9b6e78e548","ios":"levelo://app?vid=e4857b46-39a1-4d04-98db-0f9b6e78e548"},"vehicle_type_id":"4","last_reported":1728994650,"current_range_meters":36000,"station_id":"ce4bh012rcd13ifvqd00","pricing_plan_id":"cebpf4jnsgd1na2vs0mg"},{"bike_id":"7a4a2c7a-5bc9-4d88-96fe-66428cd6e2fb","system_id":"levelo_inurba_marseille","lat":43.27813,"lon":5.40713,"is_reserved":false,"is_disabled":false,"rental_uris":{"android":"levelo://app?vid=7a4a2c7a-5bc9-4d88-96fe-66428cd6e2fb","ios":"levelo://app?vid=7a4a2c7a-5bc9-4d88-96fe-66428cd6e2fb"},"vehicle_type_id":"4","last_reported":1728994650,"current_range_meters":19600,"station_id":"ce4bhnh2rcd13ifvqgtg","pricing_plan_id":"cebpf4jnsgd1na2vs0mg"},{"bike_id":"7dc5431c-21e0-4719-92de-ca2cb5a94fd3","system_id":"levelo_inurba_marseille","lat":43.2408,"lon":5.3775,"is_reserved":false,"is_disabled":false,"rental_uris":{"android":"levelo://app?vid=7dc5431c-21e0-4719-92de-ca2cb5a94fd3","ios":"levelo://app?vid=7dc5431c-21e0-4719-92de-ca2cb5a94fd3"},"vehicle_type_id":"4","last_reported":1728994650,"current_range_meters":16000,"station_id":"ce4bhnp2rcd13ifvqgvg","pricing_plan_id":"cebpf4jnsgd1na2vs0mg"},{"bike_id":"9c4870ef-8189-49c9-8051-0aef7043e5cd","system_id":"levelo_inurba_marseille","lat":43.25938,"lon":5.40906,"is_reserved":false,"is_disabled":false,"rental_uris":{"android":"levelo://app?vid=9c4870ef-8189-49c9-8051-0aef7043e5cd","ios":"levelo://app?vid=9c4870ef-8189-49c9-8051-0aef7043e5cd"},"vehicle_type_id":"4","last_reported":1728994650,"current_range_meters":4000,"station_id":"ce4bhm92rcd13ifvqglg","pricing_plan_id":"cebpf4jnsgd1na2vs0mg"},{"bike_id":"9ed8810b-5cba-4de9-b1e4-0a09bcb33b3b","system_id":"levelo_inurba_marseille","lat":43.32537,"lon":5.41455,"is_reserved":false,"is_disabled":false,"rental_uris":{"android":"levelo://app?vid=9ed8810b-5cba-4de9-b1e4-0a09bcb33b3b","ios":"levelo://app?vid=9ed8810b-5cba-4de9-b1e4-0a09bcb33b3b"},"vehicle_type_id":"4","last_reported":1728994650,"current_range_meters":38800,"station_id":"ce4bhq12rcd13ifvqhhg","pricing_plan_id":"cebpf4jnsgd1na2vs0mg"},{"bike_id":"70fc60a6-b8a1-49de-8a6e-1b532dfb0edc","system_id":"levelo_inurba_marseille","lat":43.32487,"lon":5.36578,"is_reserved":false,"is_disabled":false,"rental_uris":{"android":"levelo://app?vid=70fc60a6-b8a1-49de-8a6e-1b532dfb0edc","ios":"levelo://app?vid=70fc60a6-b8a1-49de-8a6e-1b532dfb0edc"},"vehicle_type_id":"4","last_reported":1728994650,"current_range_meters":11200,"station_id":"ce4bhs12rcd13ifvqhvg","pricing_plan_id":"cebpf4jnsgd1na2vs0mg"},{"bike_id":"b6761712-cd33-437e-83c8-811ce3c1e59f","system_id":"levelo_inurba_marseille","lat":43.23971,"lon":5.36623,"is_reserved":false,"is_disabled":false,"rental_uris":{"android":"levelo://app?vid=b6761712-cd33-437e-83c8-811ce3c1e59f","ios":"levelo://app?vid=b6761712-cd33-437e-83c8-811ce3c1e59f"},"vehicle_type_id":"4","last_reported":1728994650,"current_range_meters":30800,"station_id":"ce4bhi12rcd13ifvqfp0","pricing_plan_id":"cebpf4jnsgd1na2vs0mg"},{"bike_id":"652b5a19-fda6-444e-a2fd-76fe3488505b","system_id":"levelo_inurba_marseille","lat":43.26785,"lon":5.39422,"is_reserved":false,"is_disabled":false,"rental_uris":{"android":"levelo://app?vid=652b5a19-fda6-444e-a2fd-76fe3488505b","ios":"levelo://app?vid=652b5a19-fda6-444e-a2fd-76fe3488505b"},"vehicle_type_id":"4","last_reported":1728994650,"current_range_meters":39200,"station_id":"ce4bhh12rcd13ifvqfg0","pricing_plan_id":"cebpf4jnsgd1na2vs0mg"},{"bike_id":"ff96eee3-1ac8-4888-9ae7-e4b6cc8154af","system_id":"levelo_inurba_marseille","lat":43.33739,"lon":5.3746,"is_reserved":false,"is_disabled":false,"rental_uris":{"android":"levelo://app?vid=ff96eee3-1ac8-4888-9ae7-e4b6cc8154af","ios":"levelo://app?vid=ff96eee3-1ac8-4888-9ae7-e4b6cc8154af"},"vehicle_type_id":"4","last_reported":1728994650,"current_range_meters":33600,"station_id":"","pricing_plan_id":"cebpf4jnsgd1na2vs0mg"},{"bike_id":"3c725dbd-6f07-4c5a-af5d-f928d489ff0c","system_id":"levelo_inurba_marseille","lat":43.29626,"lon":5.3715,"is_reserved":false,"is_disabled":false,"rental_uris":{"android":"levelo://app?vid=3c725dbd-6f07-4c5a-af5d-f928d489ff0c","ios":"levelo://app?vid=3c725dbd-6f07-4c5a-af5d-f928d489ff0c"},"vehicle_type_id":"4","last_reported":1728994650,"current_range_meters":26800,"station_id":"ce4bgnh2rcd13ifvqc0g","pricing_plan_id":"cebpf4jnsgd1na2vs0mg"},{"bike_id":"ddd5af8a-0f19-49e8-b291-d1408413b89e","system_id":"levelo_inurba_marseille","lat":43.24176,"lon":5.39733,"is_reserved":false,"is_disabled":false,"rental_uris":{"android":"levelo://app?vid=ddd5af8a-0f19-49e8-b291-d1408413b89e","ios":"levelo://app?vid=ddd5af8a-0f19-49e8-b291-d1408413b89e"},"vehicle_type_id":"4","last_reported":1728994650,"current_range_meters":18800,"station_id":"ce4bhn12rcd13ifvqgpg","pricing_plan_id":"cebpf4jnsgd1na2vs0mg"},{"bike_id":"1dedb62f-4fc8-4d8d-bb3e-4e20b380eb9d","system_id":"levelo_inurba_marseille","lat":43.28705,"lon":5.37923,"is_reserved":false,"is_disabled":false,"rental_uris":{"android":"levelo://app?vid=1dedb62f-4fc8-4d8d-bb3e-4e20b380eb9d","ios":"levelo://app?vid=1dedb62f-4fc8-4d8d-bb3e-4e20b380eb9d"},"vehicle_type_id":"4","last_reported":1728994650,"current_range_meters":34800,"station_id":"ce4bh9p2rcd13ifvqec0","pricing_plan_id":"cebpf4jnsgd1na2vs0mg"},{"bike_id":"e355c0f3-5b4f-47f1-b098-967268b8d464","system_id":"levelo_inurba_marseille","lat":43.30908,"lon":5.36846,"is_reserved":false,"is_disabled":false,"rental_uris":{"android":"levelo://app?vid=e355c0f3-5b4f-47f1-b098-967268b8d464","ios":"levelo://app?vid=e355c0f3-5b4f-47f1-b098-967268b8d464"},"vehicle_type_id":"4","last_reported":1728994650,"current_range_meters":27600,"station_id":"ce4bgn92rcd13ifvqbvg","pricing_plan_id":"cebpf4jnsgd1na2vs0mg"},{"bike_id":"0aa147e1-06c0-4bf4-a909-c75d490025c7","system_id":"levelo_inurba_marseille","lat":43.31234,"lon":5.3686,"is_reserved":false,"is_disabled":false,"rental_uris":{"android":"levelo://app?vid=0aa147e1-06c0-4bf4-a909-c75d490025c7","ios":"levelo://app?vid=0aa147e1-06c0-4bf4-a909-c75d490025c7"},"vehicle_type_id":"4","last_reported":1728994650,"current_range_meters":9600,"station_id":"ce4bgl92rcd13ifvqbq0","pricing_plan_id":"cebpf4jnsgd1na2vs0mg"},{"bike_id":"6a67f872-f498-43d8-ad44-0ba73f03bb62","system_id":"levelo_inurba_marseille","lat":43.34146,"lon":5.40905,"is_reserved":false,"is_disabled":false,"rental_uris":{"android":"levelo://app?vid=6a67f872-f498-43d8-ad44-0ba73f03bb62","ios":"levelo://app?vid=6a67f872-f498-43d8-ad44-0ba73f03bb62"},"vehicle_type_id":"4","last_reported":1728994650,"current_range_meters":10000,"station_id":"ce4bhqh2rcd13ifvqhlg","pricing_plan_id":"cebpf4jnsgd1na2vs0mg"},{"bike_id":"cf6709b2-ecdd-4682-a978-9bfda3e32be1","system_id":"levelo_inurba_marseille","lat":43.29279,"lon":5.40114,"is_reserved":false,"is_disabled":false,"rental_uris":{"android":"levelo://app?vid=cf6709b2-ecdd-4682-a978-9bfda3e32be1","ios":"levelo://app?vid=cf6709b2-ecdd-4682-a978-9bfda3e32be1"},"vehicle_type_id":"4","last_reported":1728994650,"current_range_meters":38000,"station_id":"ce4bh312rcd13ifvqdk0","pricing_plan_id":"cebpf4jnsgd1na2vs0mg"},{"bike_id":"e8e8118d-3d5e-42fd-9096-f73e58a1fa57","system_id":"levelo_inurba_marseille","lat":43.29843,"lon":5.36263,"is_reserved":false,"is_disabled":false,"rental_uris":{"android":"levelo://app?vid=e8e8118d-3d5e-42fd-9096-f73e58a1fa57","ios":"levelo://app?vid=e8e8118d-3d5e-42fd-9096-f73e58a1fa57"},"vehicle_type_id":"4","last_reported":1728994650,"current_range_meters":33600,"station_id":"ce4bgpp2rcd13ifvqc3g","pricing_plan_id":"cebpf4jnsgd1na2vs0mg"},{"bike_id":"feaf6029-5240-4408-8be0-a1c950d62e44","system_id":"levelo_inurba_marseille","lat":43.23959,"lon":5.36628,"is_reserved":false,"is_disabled":false,"rental_uris":{"android":"levelo://app?vid=feaf6029-5240-4408-8be0-a1c950d62e44","ios":"levelo://app?vid=feaf6029-5240-4408-8be0-a1c950d62e44"},"vehicle_type_id":"4","last_reported":1728994650,"current_range_meters":11600,"station_id":"ce4bhi12rcd13ifvqfp0","pricing_plan_id":"cebpf4jnsgd1na2vs0mg"},{"bike_id":"f6c8abe5-693c-488e-adab-c7559a9d5967","system_id":"levelo_inurba_marseille","lat":43.30331,"lon":5.40432,"is_reserved":false,"is_disabled":false,"rental_uris":{"android":"levelo://app?vid=f6c8abe5-693c-488e-adab-c7559a9d5967","ios":"levelo://app?vid=f6c8abe5-693c-488e-adab-c7559a9d5967"},"vehicle_type_id":"4","last_reported":1728994650,"current_range_meters":8000,"station_id":"ce4bh012rcd13ifvqd10","pricing_plan_id":"cebpf4jnsgd1na2vs0mg"},{"bike_id":"292b9425-1372-40d4-bf0a-fe57aa779a41","system_id":"levelo_inurba_marseille","lat":43.23063,"lon":5.35495,"is_reserved":false,"is_disabled":false,"rental_uris":{"android":"levelo://app?vid=292b9425-1372-40d4-bf0a-fe57aa779a41","ios":"levelo://app?vid=292b9425-1372-40d4-bf0a-fe57aa779a41"},"vehicle_type_id":"4","last_reported":1728994650,"current_range_meters":33600,"station_id":"cpo3342slgdg3j2ifvpg","pricing_plan_id":"cebpf4jnsgd1na2vs0mg"},{"bike_id":"f1baba50-f384-4335-a052-af9eda4a52f0","system_id":"levelo_inurba_marseille","lat":43.24391,"lon":5.37053,"is_reserved":false,"is_disabled":false,"rental_uris":{"android":"levelo://app?vid=f1baba50-f384-4335-a052-af9eda4a52f0","ios":"levelo://app?vid=f1baba50-f384-4335-a052-af9eda4a52f0"},"vehicle_type_id":"4","last_reported":1728994650,"current_range_meters":39200,"station_id":"ce4bhhh2rcd13ifvqfk0","pricing_plan_id":"cebpf4jnsgd1na2vs0mg"},{"bike_id":"88598f63-0871-4fe2-9dcf-a97c7fbe86b7","system_id":"levelo_inurba_marseille","lat":43.31214,"lon":5.36847,"is_reserved":false,"is_disabled":false,"rental_uris":{"android":"levelo://app?vid=88598f63-0871-4fe2-9dcf-a97c7fbe86b7","ios":"levelo://app?vid=88598f63-0871-4fe2-9dcf-a97c7fbe86b7"},"vehicle_type_id":"4","last_reported":1728994650,"current_range_meters":35200,"station_id":"ce4bgl92rcd13ifvqbq0","pricing_plan_id":"cebpf4jnsgd1na2vs0mg"},{"bike_id":"e1d315a9-818f-42ee-a1ff-f0147df88741","system_id":"levelo_inurba_marseille","lat":43.25922,"lon":5.4091,"is_reserved":false,"is_disabled":false,"rental_uris":{"android":"levelo://app?vid=e1d315a9-818f-42ee-a1ff-f0147df88741","ios":"levelo://app?vid=e1d315a9-818f-42ee-a1ff-f0147df88741"},"vehicle_type_id":"4","last_reported":1728994650,"current_range_meters":6000,"station_id":"ce4bhm92rcd13ifvqglg","pricing_plan_id":"cebpf4jnsgd1na2vs0mg"},{"bike_id":"c4298285-757d-43d2-a4b0-257d5094266a","system_id":"levelo_inurba_marseille","lat":43.27994,"lon":5.41663,"is_reserved":false,"is_disabled":false,"rental_uris":{"android":"levelo://app?vid=c4298285-757d-43d2-a4b0-257d5094266a","ios":"levelo://app?vid=c4298285-757d-43d2-a4b0-257d5094266a"},"vehicle_type_id":"4","last_reported":1728994650,"current_range_meters":34800,"station_id":"ce4bho12rcd13ifvqh1g","pricing_plan_id":"cebpf4jnsgd1na2vs0mg"},{"bike_id":"d8597bf4-185f-46b0-9306-434905261110","system_id":"levelo_inurba_marseille","lat":43.28274,"lon":5.35064,"is_reserved":false,"is_disabled":false,"rental_uris":{"android":"levelo://app?vid=d8597bf4-185f-46b0-9306-434905261110","ios":"levelo://app?vid=d8597bf4-185f-46b0-9306-434905261110"},"vehicle_type_id":"4","last_reported":1728994650,"current_range_meters":40000,"station_id":"ce4bhbp2rcd13ifvqerg","pricing_plan_id":"cebpf4jnsgd1na2vs0mg"},{"bike_id":"2bf080d3-3400-422e-aa27-adfe9054a7d5","system_id":"levelo_inurba_marseille","lat":43.29978,"lon":5.38478,"is_reserved":false,"is_disabled":false,"rental_uris":{"android":"levelo://app?vid=2bf080d3-3400-422e-aa27-adfe9054a7d5","ios":"levelo://app?vid=2bf080d3-3400-422e-aa27-adfe9054a7d5"},"vehicle_type_id":"4","last_reported":1728994650,"current_range_meters":38800,"station_id":"ce4bgj92rcd13ifvqbd0","pricing_plan_id":"cebpf4jnsgd1na2vs0mg"},{"bike_id":"38e8c1de-c0ca-4790-bba1-7aa6fb4b325a","system_id":"levelo_inurba_marseille","lat":43.337444,"lon":5.374475,"is_reserved":false,"is_disabled":false,"rental_uris":{"android":"levelo://app?vid=38e8c1de-c0ca-4790-bba1-7aa6fb4b325a","ios":"levelo://app?vid=38e8c1de-c0ca-4790-bba1-7aa6fb4b325a"},"vehicle_type_id":"4","last_reported":1728994650,"current_range_meters":26000,"station_id":"","pricing_plan_id":"cebpf4jnsgd1na2vs0mg"},{"bike_id":"9cd1e99e-2c98-48a1-ac8b-5e948f0b8848","system_id":"levelo_inurba_marseille","lat":43.31353,"lon":5.36697,"is_reserved":false,"is_disabled":false,"rental_uris":{"android":"levelo://app?vid=9cd1e99e-2c98-48a1-ac8b-5e948f0b8848","ios":"levelo://app?vid=9cd1e99e-2c98-48a1-ac8b-5e948f0b8848"},"vehicle_type_id":"4","last_reported":1728994650,"current_range_meters":19200,"station_id":"ce4bgr92rcd13ifvqc6g","pricing_plan_id":"cebpf4jnsgd1na2vs0mg"},{"bike_id":"e42a5c5b-19d2-48bc-8dfc-c8514ef28621","system_id":"levelo_inurba_marseille","lat":43.24169,"lon":5.36399,"is_reserved":false,"is_disabled":false,"rental_uris":{"android":"levelo://app?vid=e42a5c5b-19d2-48bc-8dfc-c8514ef28621","ios":"levelo://app?vid=e42a5c5b-19d2-48bc-8dfc-c8514ef28621"},"vehicle_type_id":"4","last_reported":1728994650,"current_range_meters":26000,"station_id":"cpo36qri1sfpv3e86is0","pricing_plan_id":"cebpf4jnsgd1na2vs0mg"},{"bike_id":"29ae45c1-626f-4e2b-92fa-69c89bb11e3d","system_id":"levelo_inurba_marseille","lat":43.2407,"lon":5.37764,"is_reserved":false,"is_disabled":false,"rental_uris":{"android":"levelo://app?vid=29ae45c1-626f-4e2b-92fa-69c89bb11e3d","ios":"levelo://app?vid=29ae45c1-626f-4e2b-92fa-69c89bb11e3d"},"vehicle_type_id":"4","last_reported":1728994650,"current_range_meters":24000,"station_id":"ce4bhnp2rcd13ifvqgvg","pricing_plan_id":"cebpf4jnsgd1na2vs0mg"},{"bike_id":"1989161d-8386-47b1-87a5-b86d93dc477e","system_id":"levelo_inurba_marseille","lat":43.25936,"lon":5.40915,"is_reserved":false,"is_disabled":false,"rental_uris":{"android":"levelo://app?vid=1989161d-8386-47b1-87a5-b86d93dc477e","ios":"levelo://app?vid=1989161d-8386-47b1-87a5-b86d93dc477e"},"vehicle_type_id":"4","last_reported":1728994650,"current_range_meters":33600,"station_id":"ce4bhm92rcd13ifvqglg","pricing_plan_id":"cebpf4jnsgd1na2vs0mg"},{"bike_id":"077c95e7-4063-4221-a7e3-5052c01d5740","system_id":"levelo_inurba_marseille","lat":43.30143,"lon":5.37405,"is_reserved":false,"is_disabled":false,"rental_uris":{"android":"levelo://app?vid=077c95e7-4063-4221-a7e3-5052c01d5740","ios":"levelo://app?vid=077c95e7-4063-4221-a7e3-5052c01d5740"},"vehicle_type_id":"4","last_reported":1728994650,"current_range_meters":20000,"station_id":"ce4bgs92rcd13ifvqcc0","pricing_plan_id":"cebpf4jnsgd1na2vs0mg"},{"bike_id":"3c2a72f7-bade-4da2-89d4-6f3504356f86","system_id":"levelo_inurba_marseille","lat":43.23181,"lon":5.39988,"is_reserved":false,"is_disabled":false,"rental_uris":{"android":"levelo://app?vid=3c2a72f7-bade-4da2-89d4-6f3504356f86","ios":"levelo://app?vid=3c2a72f7-bade-4da2-89d4-6f3504356f86"},"vehicle_type_id":"4","last_reported":1728994650,"current_range_meters":10800,"station_id":"ce4bhn12rcd13ifvqgqg","pricing_plan_id":"cebpf4jnsgd1na2vs0mg"},{"bike_id":"b5863d09-727b-46b5-bf24-7249441dc6ca","system_id":"levelo_inurba_marseille","lat":43.29218,"lon":5.36056,"is_reserved":false,"is_disabled":false,"rental_uris":{"android":"levelo://app?vid=b5863d09-727b-46b5-bf24-7249441dc6ca","ios":"levelo://app?vid=b5863d09-727b-46b5-bf24-7249441dc6ca"},"vehicle_type_id":"4","last_reported":1728994650,"current_range_meters":38800,"station_id":"ce4bhbh2rcd13ifvqeqg","pricing_plan_id":"cebpf4jnsgd1na2vs0mg"},{"bike_id":"e4959687-d16f-4e7a-b245-5e4434fc7178","system_id":"levelo_inurba_marseille","lat":43.337444,"lon":5.374475,"is_reserved":false,"is_disabled":false,"rental_uris":{"android":"levelo://app?vid=e4959687-d16f-4e7a-b245-5e4434fc7178","ios":"levelo://app?vid=e4959687-d16f-4e7a-b245-5e4434fc7178"},"vehicle_type_id":"4","last_reported":1728994650,"current_range_meters":38400,"station_id":"ce4bh192rcd13ifvqdb0","pricing_plan_id":"cebpf4jnsgd1na2vs0mg"},{"bike_id":"d06f24f3-1961-4c39-8b26-c72733863fe9","system_id":"levelo_inurba_marseille","lat":43.33781,"lon":5.37443,"is_reserved":false,"is_disabled":false,"rental_uris":{"android":"levelo://app?vid=d06f24f3-1961-4c39-8b26-c72733863fe9","ios":"levelo://app?vid=d06f24f3-1961-4c39-8b26-c72733863fe9"},"vehicle_type_id":"4","last_reported":1728994650,"current_range_meters":24800,"station_id":"","pricing_plan_id":"cebpf4jnsgd1na2vs0mg"},{"bike_id":"a7ce9ce1-7367-48ab-a192-ca36480fc2a1","system_id":"levelo_inurba_marseille","lat":43.29933,"lon":5.36535,"is_reserved":false,"is_disabled":false,"rental_uris":{"android":"levelo://app?vid=a7ce9ce1-7367-48ab-a192-ca36480fc2a1","ios":"levelo://app?vid=a7ce9ce1-7367-48ab-a192-ca36480fc2a1"},"vehicle_type_id":"4","last_reported":1728994650,"current_range_meters":25200,"station_id":"ce4bgm92rcd13ifvqbr0","pricing_plan_id":"cebpf4jnsgd1na2vs0mg"},{"bike_id":"e0238416-164a-4682-9e9e-af92274a953f","system_id":"levelo_inurba_marseille","lat":43.24075,"lon":5.37761,"is_reserved":false,"is_disabled":false,"rental_uris":{"android":"levelo://app?vid=e0238416-164a-4682-9e9e-af92274a953f","ios":"levelo://app?vid=e0238416-164a-4682-9e9e-af92274a953f"},"vehicle_type_id":"4","last_reported":1728994650,"current_range_meters":26000,"station_id":"ce4bhnp2rcd13ifvqgvg","pricing_plan_id":"cebpf4jnsgd1na2vs0mg"},{"bike_id":"4cdf2ec8-e58d-4f75-aec9-dd13f88cd4be","system_id":"levelo_inurba_marseille","lat":43.28478,"lon":5.38426,"is_reserved":false,"is_disabled":false,"rental_uris":{"android":"levelo://app?vid=4cdf2ec8-e58d-4f75-aec9-dd13f88cd4be","ios":"levelo://app?vid=4cdf2ec8-e58d-4f75-aec9-dd13f88cd4be"},"vehicle_type_id":"4","last_reported":1728994650,"current_range_meters":35200,"station_id":"ce4bh512rcd13ifvqe3g","pricing_plan_id":"cebpf4jnsgd1na2vs0mg"},{"bike_id":"b3540a48-b930-4f1f-8764-644ac9839ef9","system_id":"levelo_inurba_marseille","lat":43.27618,"lon":5.3612,"is_reserved":false,"is_disabled":false,"rental_uris":{"android":"levelo://app?vid=b3540a48-b930-4f1f-8764-644ac9839ef9","ios":"levelo://app?vid=b3540a48-b930-4f1f-8764-644ac9839ef9"},"vehicle_type_id":"4","last_reported":1728994650,"current_range_meters":35200,"station_id":"ce4bgj92rcd13ifvqbe0","pricing_plan_id":"cebpf4jnsgd1na2vs0mg"},{"bike_id":"d41309ab-1a1f-4395-acaa-455483c3f8e1","system_id":"levelo_inurba_marseille","lat":43.23195,"lon":5.3555,"is_reserved":false,"is_disabled":false,"rental_uris":{"android":"levelo://app?vid=d41309ab-1a1f-4395-acaa-455483c3f8e1","ios":"levelo://app?vid=d41309ab-1a1f-4395-acaa-455483c3f8e1"},"vehicle_type_id":"4","last_reported":1728994650,"current_range_meters":33200,"station_id":"ce4bhu92rcd13ifvqi70","pricing_plan_id":"cebpf4jnsgd1na2vs0mg"},{"bike_id":"80fd6813-cb43-4523-8b9f-794f5c23bd2d","system_id":"levelo_inurba_marseille","lat":43.25726,"lon":5.41106,"is_reserved":false,"is_disabled":false,"rental_uris":{"android":"levelo://app?vid=80fd6813-cb43-4523-8b9f-794f5c23bd2d","ios":"levelo://app?vid=80fd6813-cb43-4523-8b9f-794f5c23bd2d"},"vehicle_type_id":"4","last_reported":1728994650,"current_range_meters":11600,"station_id":"ce4bhkp2rcd13ifvqgd0","pricing_plan_id":"cebpf4jnsgd1na2vs0mg"},{"bike_id":"3e48e0e8-96b8-470c-8236-5761ff068152","system_id":"levelo_inurba_marseille","lat":43.26788,"lon":5.39414,"is_reserved":false,"is_disabled":false,"rental_uris":{"android":"levelo://app?vid=3e48e0e8-96b8-470c-8236-5761ff068152","ios":"levelo://app?vid=3e48e0e8-96b8-470c-8236-5761ff068152"},"vehicle_type_id":"4","last_reported":1728994650,"current_range_meters":11600,"station_id":"ce4bhh12rcd13ifvqfg0","pricing_plan_id":"cebpf4jnsgd1na2vs0mg"},{"bike_id":"99f0c192-6ea8-4d4e-969a-5ca59e2cc1f7","system_id":"levelo_inurba_marseille","lat":43.289078,"lon":5.397064,"is_reserved":false,"is_disabled":false,"rental_uris":{"android":"levelo://app?vid=99f0c192-6ea8-4d4e-969a-5ca59e2cc1f7","ios":"levelo://app?vid=99f0c192-6ea8-4d4e-969a-5ca59e2cc1f7"},"vehicle_type_id":"4","last_reported":1728994650,"current_range_meters":38400,"station_id":"ce4bh3h2rcd13ifvqdn0","pricing_plan_id":"cebpf4jnsgd1na2vs0mg"},{"bike_id":"1236bbf7-ed03-4263-9ab4-884e4d68a5c4","system_id":"levelo_inurba_marseille","lat":43.32479,"lon":5.36575,"is_reserved":false,"is_disabled":false,"rental_uris":{"android":"levelo://app?vid=1236bbf7-ed03-4263-9ab4-884e4d68a5c4","ios":"levelo://app?vid=1236bbf7-ed03-4263-9ab4-884e4d68a5c4"},"vehicle_type_id":"4","last_reported":1728994650,"current_range_meters":38800,"station_id":"ce4bhs12rcd13ifvqhvg","pricing_plan_id":"cebpf4jnsgd1na2vs0mg"},{"bike_id":"00580030-e939-4f91-a036-9143e8555b37","system_id":"levelo_inurba_marseille","lat":43.2705,"lon":5.40268,"is_reserved":false,"is_disabled":false,"rental_uris":{"android":"levelo://app?vid=00580030-e939-4f91-a036-9143e8555b37","ios":"levelo://app?vid=00580030-e939-4f91-a036-9143e8555b37"},"vehicle_type_id":"4","last_reported":1728994650,"current_range_meters":23200,"station_id":"ce4bhk92rcd13ifvqgc0","pricing_plan_id":"cebpf4jnsgd1na2vs0mg"},{"bike_id":"b0a151ff-ff42-4272-8ee7-e1b1d67c7ee0","system_id":"levelo_inurba_marseille","lat":43.30458,"lon":5.37906,"is_reserved":false,"is_disabled":false,"rental_uris":{"android":"levelo://app?vid=b0a151ff-ff42-4272-8ee7-e1b1d67c7ee0","ios":"levelo://app?vid=b0a151ff-ff42-4272-8ee7-e1b1d67c7ee0"},"vehicle_type_id":"4","last_reported":1728994650,"current_range_meters":30400,"station_id":"ce4bgup2rcd13ifvqcn0","pricing_plan_id":"cebpf4jnsgd1na2vs0mg"},{"bike_id":"d0572c50-bf39-484b-8379-7e1e98994bab","system_id":"levelo_inurba_marseille","lat":43.33608,"lon":5.41026,"is_reserved":false,"is_disabled":false,"rental_uris":{"android":"levelo://app?vid=d0572c50-bf39-484b-8379-7e1e98994bab","ios":"levelo://app?vid=d0572c50-bf39-484b-8379-7e1e98994bab"},"vehicle_type_id":"4","last_reported":1728994650,"current_range_meters":38800,"station_id":"ce4bhqh2rcd13ifvqhmg","pricing_plan_id":"cebpf4jnsgd1na2vs0mg"},{"bike_id":"c32f4a6f-2df0-48d0-8dc2-9214e5919d85","system_id":"levelo_inurba_marseille","lat":43.3248,"lon":5.36569,"is_reserved":false,"is_disabled":false,"rental_uris":{"android":"levelo://app?vid=c32f4a6f-2df0-48d0-8dc2-9214e5919d85","ios":"levelo://app?vid=c32f4a6f-2df0-48d0-8dc2-9214e5919d85"},"vehicle_type_id":"4","last_reported":1728994650,"current_range_meters":4800,"station_id":"ce4bhs12rcd13ifvqhvg","pricing_plan_id":"cebpf4jnsgd1na2vs0mg"},{"bike_id":"94041a4d-5b66-464c-9d5e-dc57da9352fe","system_id":"levelo_inurba_marseille","lat":43.30938,"lon":5.40137,"is_reserved":false,"is_disabled":false,"rental_uris":{"android":"levelo://app?vid=94041a4d-5b66-464c-9d5e-dc57da9352fe","ios":"levelo://app?vid=94041a4d-5b66-464c-9d5e-dc57da9352fe"},"vehicle_type_id":"4","last_reported":1728994650,"current_range_meters":9200,"station_id":"ce4bgvp2rcd13ifvqct0","pricing_plan_id":"cebpf4jnsgd1na2vs0mg"},{"bike_id":"42ddf1a3-c9fa-4405-9d7e-8b919329a107","system_id":"levelo_inurba_marseille","lat":43.30552,"lon":5.36526,"is_reserved":false,"is_disabled":false,"rental_uris":{"android":"levelo://app?vid=42ddf1a3-c9fa-4405-9d7e-8b919329a107","ios":"levelo://app?vid=42ddf1a3-c9fa-4405-9d7e-8b919329a107"},"vehicle_type_id":"4","last_reported":1728994650,"current_range_meters":40000,"station_id":"ce4bgs12rcd13ifvqcag","pricing_plan_id":"cebpf4jnsgd1na2vs0mg"},{"bike_id":"8e4415d0-6f5d-4d2e-8658-94571c87c835","system_id":"levelo_inurba_marseille","lat":43.286,"lon":5.41277,"is_reserved":false,"is_disabled":false,"rental_uris":{"android":"levelo://app?vid=8e4415d0-6f5d-4d2e-8658-94571c87c835","ios":"levelo://app?vid=8e4415d0-6f5d-4d2e-8658-94571c87c835"},"vehicle_type_id":"4","last_reported":1728994650,"current_range_meters":25200,"station_id":"ce4bhnp2rcd13ifvqh0g","pricing_plan_id":"cebpf4jnsgd1na2vs0mg"},{"bike_id":"5ac4b365-d20a-45e0-acfe-e7e86ca60b8f","system_id":"levelo_inurba_marseille","lat":43.25931,"lon":5.40903,"is_reserved":false,"is_disabled":false,"rental_uris":{"android":"levelo://app?vid=5ac4b365-d20a-45e0-acfe-e7e86ca60b8f","ios":"levelo://app?vid=5ac4b365-d20a-45e0-acfe-e7e86ca60b8f"},"vehicle_type_id":"4","last_reported":1728994650,"current_range_meters":36400,"station_id":"ce4bhm92rcd13ifvqglg","pricing_plan_id":"cebpf4jnsgd1na2vs0mg"},{"bike_id":"b8a150cc-6842-4ed1-a6b2-264cbeb395b7","system_id":"levelo_inurba_marseille","lat":43.2512,"lon":5.40318,"is_reserved":false,"is_disabled":false,"rental_uris":{"android":"levelo://app?vid=b8a150cc-6842-4ed1-a6b2-264cbeb395b7","ios":"levelo://app?vid=b8a150cc-6842-4ed1-a6b2-264cbeb395b7"},"vehicle_type_id":"4","last_reported":1728994650,"current_range_meters":5600,"station_id":"ce4bhlh2rcd13ifvqgig","pricing_plan_id":"cebpf4jnsgd1na2vs0mg"},{"bike_id":"1af2813b-98a0-4b62-aaf8-89652b30f639","system_id":"levelo_inurba_marseille","lat":43.22933,"lon":5.35381,"is_reserved":false,"is_disabled":false,"rental_uris":{"android":"levelo://app?vid=1af2813b-98a0-4b62-aaf8-89652b30f639","ios":"levelo://app?vid=1af2813b-98a0-4b62-aaf8-89652b30f639"},"vehicle_type_id":"4","last_reported":1728994650,"current_range_meters":30400,"station_id":"cpo3532slgdg3j2ikp40","pricing_plan_id":"cebpf4jnsgd1na2vs0mg"},{"bike_id":"e933622d-50e9-4399-b2c7-6b78123dd26c","system_id":"levelo_inurba_marseille","lat":43.25936,"lon":5.40895,"is_reserved":false,"is_disabled":false,"rental_uris":{"android":"levelo://app?vid=e933622d-50e9-4399-b2c7-6b78123dd26c","ios":"levelo://app?vid=e933622d-50e9-4399-b2c7-6b78123dd26c"},"vehicle_type_id":"4","last_reported":1728994650,"current_range_meters":4000,"station_id":"ce4bhm92rcd13ifvqglg","pricing_plan_id":"cebpf4jnsgd1na2vs0mg"},{"bike_id":"c518c0ad-ff11-4118-99a7-cda4d00057bb","system_id":"levelo_inurba_marseille","lat":43.29625,"lon":5.37155,"is_reserved":false,"is_disabled":false,"rental_uris":{"android":"levelo://app?vid=c518c0ad-ff11-4118-99a7-cda4d00057bb","ios":"levelo://app?vid=c518c0ad-ff11-4118-99a7-cda4d00057bb"},"vehicle_type_id":"4","last_reported":1728994650,"current_range_meters":29600,"station_id":"ce4bgnh2rcd13ifvqc0g","pricing_plan_id":"cebpf4jnsgd1na2vs0mg"},{"bike_id":"f93454e1-a669-4c63-a4ca-b572042c7971","system_id":"levelo_inurba_marseille","lat":43.23192,"lon":5.35558,"is_reserved":false,"is_disabled":false,"rental_uris":{"android":"levelo://app?vid=f93454e1-a669-4c63-a4ca-b572042c7971","ios":"levelo://app?vid=f93454e1-a669-4c63-a4ca-b572042c7971"},"vehicle_type_id":"4","last_reported":1728994650,"current_range_meters":26000,"station_id":"ce4bhu92rcd13ifvqi70","pricing_plan_id":"cebpf4jnsgd1na2vs0mg"},{"bike_id":"ab38c6ee-afe2-452b-b152-733408083f03","system_id":"levelo_inurba_marseille","lat":43.24074,"lon":5.37756,"is_reserved":false,"is_disabled":false,"rental_uris":{"android":"levelo://app?vid=ab38c6ee-afe2-452b-b152-733408083f03","ios":"levelo://app?vid=ab38c6ee-afe2-452b-b152-733408083f03"},"vehicle_type_id":"4","last_reported":1728994650,"current_range_meters":28400,"station_id":"ce4bhnp2rcd13ifvqgvg","pricing_plan_id":"cebpf4jnsgd1na2vs0mg"},{"bike_id":"fa7d7ce1-a6ee-4ffd-9015-5fae177f74cc","system_id":"levelo_inurba_marseille","lat":43.27494,"lon":5.4245,"is_reserved":false,"is_disabled":false,"rental_uris":{"android":"levelo://app?vid=fa7d7ce1-a6ee-4ffd-9015-5fae177f74cc","ios":"levelo://app?vid=fa7d7ce1-a6ee-4ffd-9015-5fae177f74cc"},"vehicle_type_id":"4","last_reported":1728994650,"current_range_meters":17600,"station_id":"ce4bhn92rcd13ifvqgrg","pricing_plan_id":"cebpf4jnsgd1na2vs0mg"},{"bike_id":"adbc8c3c-9ad4-4629-ad6b-7547178e2087","system_id":"levelo_inurba_marseille","lat":43.23149,"lon":5.43712,"is_reserved":false,"is_disabled":false,"rental_uris":{"android":"levelo://app?vid=adbc8c3c-9ad4-4629-ad6b-7547178e2087","ios":"levelo://app?vid=adbc8c3c-9ad4-4629-ad6b-7547178e2087"},"vehicle_type_id":"4","last_reported":1728994650,"current_range_meters":3600,"station_id":"ce4bhmp2rcd13ifvqgog","pricing_plan_id":"cebpf4jnsgd1na2vs0mg"},{"bike_id":"6a344486-14e7-432e-98bf-b8beed8e06c6","system_id":"levelo_inurba_marseille","lat":43.32336,"lon":5.38328,"is_reserved":false,"is_disabled":false,"rental_uris":{"android":"levelo://app?vid=6a344486-14e7-432e-98bf-b8beed8e06c6","ios":"levelo://app?vid=6a344486-14e7-432e-98bf-b8beed8e06c6"},"vehicle_type_id":"4","last_reported":1728994650,"current_range_meters":30800,"station_id":"","pricing_plan_id":"cebpf4jnsgd1na2vs0mg"},{"bike_id":"1c29ea6a-d424-450d-9c36-6b427ab42330","system_id":"levelo_inurba_marseille","lat":43.3415,"lon":5.40907,"is_reserved":false,"is_disabled":false,"rental_uris":{"android":"levelo://app?vid=1c29ea6a-d424-450d-9c36-6b427ab42330","ios":"levelo://app?vid=1c29ea6a-d424-450d-9c36-6b427ab42330"},"vehicle_type_id":"4","last_reported":1728994650,"current_range_meters":39200,"station_id":"ce4bhqh2rcd13ifvqhlg","pricing_plan_id":"cebpf4jnsgd1na2vs0mg"},{"bike_id":"79ddf1f5-186b-4457-a77e-9d424f43d6e3","system_id":"levelo_inurba_marseille","lat":43.24075,"lon":5.3775,"is_reserved":false,"is_disabled":false,"rental_uris":{"android":"levelo://app?vid=79ddf1f5-186b-4457-a77e-9d424f43d6e3","ios":"levelo://app?vid=79ddf1f5-186b-4457-a77e-9d424f43d6e3"},"vehicle_type_id":"4","last_reported":1728994650,"current_range_meters":14800,"station_id":"ce4bhnp2rcd13ifvqgvg","pricing_plan_id":"cebpf4jnsgd1na2vs0mg"},{"bike_id":"21ce9b67-fbf1-4b19-a726-0795e5cf3979","system_id":"levelo_inurba_marseille","lat":43.25081,"lon":5.39516,"is_reserved":false,"is_disabled":false,"rental_uris":{"android":"levelo://app?vid=21ce9b67-fbf1-4b19-a726-0795e5cf3979","ios":"levelo://app?vid=21ce9b67-fbf1-4b19-a726-0795e5cf3979"},"vehicle_type_id":"4","last_reported":1728994650,"current_range_meters":38400,"station_id":"ce4bhm12rcd13ifvqgkg","pricing_plan_id":"cebpf4jnsgd1na2vs0mg"},{"bike_id":"e890e235-e2ff-4a16-a8bd-4258b9a5605c","system_id":"levelo_inurba_marseille","lat":43.28274,"lon":5.3507,"is_reserved":false,"is_disabled":false,"rental_uris":{"android":"levelo://app?vid=e890e235-e2ff-4a16-a8bd-4258b9a5605c","ios":"levelo://app?vid=e890e235-e2ff-4a16-a8bd-4258b9a5605c"},"vehicle_type_id":"4","last_reported":1728994650,"current_range_meters":27600,"station_id":"ce4bhbp2rcd13ifvqerg","pricing_plan_id":"cebpf4jnsgd1na2vs0mg"},{"bike_id":"11af4c56-3918-45fe-865d-9cf9acc3a4ad","system_id":"levelo_inurba_marseille","lat":43.29576,"lon":5.36741,"is_reserved":false,"is_disabled":false,"rental_uris":{"android":"levelo://app?vid=11af4c56-3918-45fe-865d-9cf9acc3a4ad","ios":"levelo://app?vid=11af4c56-3918-45fe-865d-9cf9acc3a4ad"},"vehicle_type_id":"4","last_reported":1728994650,"current_range_meters":20000,"station_id":"ce4bgph2rcd13ifvqc2g","pricing_plan_id":"cebpf4jnsgd1na2vs0mg"},{"bike_id":"754da881-cbc9-4b35-beb2-51d368048841","system_id":"levelo_inurba_marseille","lat":43.33722,"lon":5.37446,"is_reserved":false,"is_disabled":false,"rental_uris":{"android":"levelo://app?vid=754da881-cbc9-4b35-beb2-51d368048841","ios":"levelo://app?vid=754da881-cbc9-4b35-beb2-51d368048841"},"vehicle_type_id":"4","last_reported":1728994650,"current_range_meters":36000,"station_id":"","pricing_plan_id":"cebpf4jnsgd1na2vs0mg"},{"bike_id":"3b37ab7d-c1fb-481c-9e15-87e9e64f3226","system_id":"levelo_inurba_marseille","lat":43.29783,"lon":5.37091,"is_reserved":false,"is_disabled":false,"rental_uris":{"android":"levelo://app?vid=3b37ab7d-c1fb-481c-9e15-87e9e64f3226","ios":"levelo://app?vid=3b37ab7d-c1fb-481c-9e15-87e9e64f3226"},"vehicle_type_id":"4","last_reported":1728994650,"current_range_meters":39200,"station_id":"ce4bgop2rcd13ifvqc1g","pricing_plan_id":"cebpf4jnsgd1na2vs0mg"},{"bike_id":"982702e0-e3ed-4c76-9014-7f4427361df7","system_id":"levelo_inurba_marseille","lat":43.25714,"lon":5.41112,"is_reserved":false,"is_disabled":false,"rental_uris":{"android":"levelo://app?vid=982702e0-e3ed-4c76-9014-7f4427361df7","ios":"levelo://app?vid=982702e0-e3ed-4c76-9014-7f4427361df7"},"vehicle_type_id":"4","last_reported":1728994650,"current_range_meters":16000,"station_id":"ce4bhkp2rcd13ifvqgd0","pricing_plan_id":"cebpf4jnsgd1na2vs0mg"},{"bike_id":"dde86e9c-08ab-447e-8977-98fcc15ceb96","system_id":"levelo_inurba_marseille","lat":43.24081,"lon":5.37742,"is_reserved":false,"is_disabled":false,"rental_uris":{"android":"levelo://app?vid=dde86e9c-08ab-447e-8977-98fcc15ceb96","ios":"levelo://app?vid=dde86e9c-08ab-447e-8977-98fcc15ceb96"},"vehicle_type_id":"4","last_reported":1728994650,"current_range_meters":12400,"station_id":"ce4bhnp2rcd13ifvqgvg","pricing_plan_id":"cebpf4jnsgd1na2vs0mg"},{"bike_id":"025c7901-36d6-400e-8cd5-dc801340b22e","system_id":"levelo_inurba_marseille","lat":43.26936,"lon":5.40251,"is_reserved":false,"is_disabled":false,"rental_uris":{"android":"levelo://app?vid=025c7901-36d6-400e-8cd5-dc801340b22e","ios":"levelo://app?vid=025c7901-36d6-400e-8cd5-dc801340b22e"},"vehicle_type_id":"4","last_reported":1728994650,"current_range_meters":38800,"station_id":"cjm6bp8fraef2m0cb0m0","pricing_plan_id":"cebpf4jnsgd1na2vs0mg"},{"bike_id":"694aecad-341c-4315-b84a-4a64891fd613","system_id":"levelo_inurba_marseille","lat":43.24804,"lon":5.37452,"is_reserved":false,"is_disabled":false,"rental_uris":{"android":"levelo://app?vid=694aecad-341c-4315-b84a-4a64891fd613","ios":"levelo://app?vid=694aecad-341c-4315-b84a-4a64891fd613"},"vehicle_type_id":"4","last_reported":1728994650,"current_range_meters":38400,"station_id":"ce4bhgh2rcd13ifvqfb0","pricing_plan_id":"cebpf4jnsgd1na2vs0mg"},{"bike_id":"6b8c82fb-6a59-4487-bb53-b60a83992cb1","system_id":"levelo_inurba_marseille","lat":43.30165,"lon":5.39325,"is_reserved":false,"is_disabled":false,"rental_uris":{"android":"levelo://app?vid=6b8c82fb-6a59-4487-bb53-b60a83992cb1","ios":"levelo://app?vid=6b8c82fb-6a59-4487-bb53-b60a83992cb1"},"vehicle_type_id":"4","last_reported":1728994650,"current_range_meters":20000,"station_id":"ce4bgkh2rcd13ifvqbl0","pricing_plan_id":"cebpf4jnsgd1na2vs0mg"},{"bike_id":"caacddb8-1c80-42f7-8570-bbd0cbc837d2","system_id":"levelo_inurba_marseille","lat":43.29423,"lon":5.38624,"is_reserved":false,"is_disabled":false,"rental_uris":{"android":"levelo://app?vid=caacddb8-1c80-42f7-8570-bbd0cbc837d2","ios":"levelo://app?vid=caacddb8-1c80-42f7-8570-bbd0cbc837d2"},"vehicle_type_id":"4","last_reported":1728994650,"current_range_meters":20000,"station_id":"ce4bh2h2rcd13ifvqdh0","pricing_plan_id":"cebpf4jnsgd1na2vs0mg"},{"bike_id":"e3c183f9-4fbd-46e0-9351-ef6423544024","system_id":"levelo_inurba_marseille","lat":43.28276,"lon":5.35069,"is_reserved":false,"is_disabled":false,"rental_uris":{"android":"levelo://app?vid=e3c183f9-4fbd-46e0-9351-ef6423544024","ios":"levelo://app?vid=e3c183f9-4fbd-46e0-9351-ef6423544024"},"vehicle_type_id":"4","last_reported":1728994650,"current_range_meters":9200,"station_id":"ce4bhbp2rcd13ifvqerg","pricing_plan_id":"cebpf4jnsgd1na2vs0mg"},{"bike_id":"7ae05b75-3c9b-4b58-bf00-e7cc03e8a549","system_id":"levelo_inurba_marseille","lat":43.25932,"lon":5.40913,"is_reserved":false,"is_disabled":false,"rental_uris":{"android":"levelo://app?vid=7ae05b75-3c9b-4b58-bf00-e7cc03e8a549","ios":"levelo://app?vid=7ae05b75-3c9b-4b58-bf00-e7cc03e8a549"},"vehicle_type_id":"4","last_reported":1728994650,"current_range_meters":8000,"station_id":"ce4bhm92rcd13ifvqglg","pricing_plan_id":"cebpf4jnsgd1na2vs0mg"},{"bike_id":"74bff1cf-997c-421e-8ba5-f46e12e1b0ab","system_id":"levelo_inurba_marseille","lat":43.28447,"lon":5.34969,"is_reserved":false,"is_disabled":false,"rental_uris":{"android":"levelo://app?vid=74bff1cf-997c-421e-8ba5-f46e12e1b0ab","ios":"levelo://app?vid=74bff1cf-997c-421e-8ba5-f46e12e1b0ab"},"vehicle_type_id":"4","last_reported":1728994650,"current_range_meters":26000,"station_id":"ce4bhbh2rcd13ifvqepg","pricing_plan_id":"cebpf4jnsgd1na2vs0mg"},{"bike_id":"d00945c9-4b1a-42e4-961f-6bc65f496869","system_id":"levelo_inurba_marseille","lat":43.27064,"lon":5.40263,"is_reserved":false,"is_disabled":false,"rental_uris":{"android":"levelo://app?vid=d00945c9-4b1a-42e4-961f-6bc65f496869","ios":"levelo://app?vid=d00945c9-4b1a-42e4-961f-6bc65f496869"},"vehicle_type_id":"4","last_reported":1728994650,"current_range_meters":17600,"station_id":"ce4bhk92rcd13ifvqgc0","pricing_plan_id":"cebpf4jnsgd1na2vs0mg"},{"bike_id":"cc66ace1-9125-4e97-b335-b44094069dfc","system_id":"levelo_inurba_marseille","lat":43.28616,"lon":5.35104,"is_reserved":false,"is_disabled":false,"rental_uris":{"android":"levelo://app?vid=cc66ace1-9125-4e97-b335-b44094069dfc","ios":"levelo://app?vid=cc66ace1-9125-4e97-b335-b44094069dfc"},"vehicle_type_id":"4","last_reported":1728994650,"current_range_meters":9200,"station_id":"ce4bhch2rcd13ifvqeug","pricing_plan_id":"cebpf4jnsgd1na2vs0mg"},{"bike_id":"35079bfa-9f11-43bd-97f8-36d54bf92833","system_id":"levelo_inurba_marseille","lat":43.33762,"lon":5.37447,"is_reserved":false,"is_disabled":false,"rental_uris":{"android":"levelo://app?vid=35079bfa-9f11-43bd-97f8-36d54bf92833","ios":"levelo://app?vid=35079bfa-9f11-43bd-97f8-36d54bf92833"},"vehicle_type_id":"4","last_reported":1728994650,"current_range_meters":36800,"station_id":"","pricing_plan_id":"cebpf4jnsgd1na2vs0mg"},{"bike_id":"f83487b8-cf5a-4d8b-a09a-2f8b8d0d5a46","system_id":"levelo_inurba_marseille","lat":43.337444,"lon":5.374475,"is_reserved":false,"is_disabled":false,"rental_uris":{"android":"levelo://app?vid=f83487b8-cf5a-4d8b-a09a-2f8b8d0d5a46","ios":"levelo://app?vid=f83487b8-cf5a-4d8b-a09a-2f8b8d0d5a46"},"vehicle_type_id":"4","last_reported":1728994650,"current_range_meters":32800,"station_id":"","pricing_plan_id":"cebpf4jnsgd1na2vs0mg"},{"bike_id":"7491faa0-2bcb-4a98-90c9-2e1e266b207c","system_id":"levelo_inurba_marseille","lat":43.24069,"lon":5.37759,"is_reserved":false,"is_disabled":false,"rental_uris":{"android":"levelo://app?vid=7491faa0-2bcb-4a98-90c9-2e1e266b207c","ios":"levelo://app?vid=7491faa0-2bcb-4a98-90c9-2e1e266b207c"},"vehicle_type_id":"4","last_reported":1728994650,"current_range_meters":3600,"station_id":"ce4bhnp2rcd13ifvqgvg","pricing_plan_id":"cebpf4jnsgd1na2vs0mg"},{"bike_id":"bc1cccbc-d9f5-48e2-8404-e65337ad61e4","system_id":"levelo_inurba_marseille","lat":43.28286,"lon":5.35055,"is_reserved":false,"is_disabled":false,"rental_uris":{"android":"levelo://app?vid=bc1cccbc-d9f5-48e2-8404-e65337ad61e4","ios":"levelo://app?vid=bc1cccbc-d9f5-48e2-8404-e65337ad61e4"},"vehicle_type_id":"4","last_reported":1728994650,"current_range_meters":16000,"station_id":"ce4bhbp2rcd13ifvqerg","pricing_plan_id":"cebpf4jnsgd1na2vs0mg"},{"bike_id":"56b1632d-5031-4653-8872-2f049669ec22","system_id":"levelo_inurba_marseille","lat":43.26954,"lon":5.3863,"is_reserved":false,"is_disabled":false,"rental_uris":{"android":"levelo://app?vid=56b1632d-5031-4653-8872-2f049669ec22","ios":"levelo://app?vid=56b1632d-5031-4653-8872-2f049669ec22"},"vehicle_type_id":"4","last_reported":1728994650,"current_range_meters":22800,"station_id":"ce4bhh92rcd13ifvqfh0","pricing_plan_id":"cebpf4jnsgd1na2vs0mg"},{"bike_id":"fb8b09bf-e615-4cf1-b4d1-bc37d6d0ccc6","system_id":"levelo_inurba_marseille","lat":43.2707,"lon":5.42278,"is_reserved":false,"is_disabled":false,"rental_uris":{"android":"levelo://app?vid=fb8b09bf-e615-4cf1-b4d1-bc37d6d0ccc6","ios":"levelo://app?vid=fb8b09bf-e615-4cf1-b4d1-bc37d6d0ccc6"},"vehicle_type_id":"4","last_reported":1728994650,"current_range_meters":6800,"station_id":"ce4bhk92rcd13ifvqgb0","pricing_plan_id":"cebpf4jnsgd1na2vs0mg"},{"bike_id":"f16fbad3-63fc-4626-acc0-4eba63def954","system_id":"levelo_inurba_marseille","lat":43.30798,"lon":5.38145,"is_reserved":false,"is_disabled":false,"rental_uris":{"android":"levelo://app?vid=f16fbad3-63fc-4626-acc0-4eba63def954","ios":"levelo://app?vid=f16fbad3-63fc-4626-acc0-4eba63def954"},"vehicle_type_id":"4","last_reported":1728994650,"current_range_meters":39200,"station_id":"ce4bgt12rcd13ifvqce0","pricing_plan_id":"cebpf4jnsgd1na2vs0mg"},{"bike_id":"1d00b4ac-1671-42a3-b557-c62005c588d3","system_id":"levelo_inurba_marseille","lat":43.29815,"lon":5.38088,"is_reserved":false,"is_disabled":false,"rental_uris":{"android":"levelo://app?vid=1d00b4ac-1671-42a3-b557-c62005c588d3","ios":"levelo://app?vid=1d00b4ac-1671-42a3-b557-c62005c588d3"},"vehicle_type_id":"4","last_reported":1728994650,"current_range_meters":40000,"station_id":"ce4bgip2rcd13ifvqbb0","pricing_plan_id":"cebpf4jnsgd1na2vs0mg"},{"bike_id":"f269126c-1b0b-4a1a-a1d6-f8c3716f5336","system_id":"levelo_inurba_marseille","lat":43.23197,"lon":5.35554,"is_reserved":false,"is_disabled":false,"rental_uris":{"android":"levelo://app?vid=f269126c-1b0b-4a1a-a1d6-f8c3716f5336","ios":"levelo://app?vid=f269126c-1b0b-4a1a-a1d6-f8c3716f5336"},"vehicle_type_id":"4","last_reported":1728994650,"current_range_meters":33600,"station_id":"ce4bhu92rcd13ifvqi70","pricing_plan_id":"cebpf4jnsgd1na2vs0mg"},{"bike_id":"fe6b4afa-2a50-4aea-8387-54ae8a6a8b53","system_id":"levelo_inurba_marseille","lat":43.31335,"lon":5.36731,"is_reserved":false,"is_disabled":false,"rental_uris":{"android":"levelo://app?vid=fe6b4afa-2a50-4aea-8387-54ae8a6a8b53","ios":"levelo://app?vid=fe6b4afa-2a50-4aea-8387-54ae8a6a8b53"},"vehicle_type_id":"4","last_reported":1728994650,"current_range_meters":21600,"station_id":"ce4bgr92rcd13ifvqc6g","pricing_plan_id":"cebpf4jnsgd1na2vs0mg"},{"bike_id":"8b659317-2528-4cac-8ccf-d2720fd97c76","system_id":"levelo_inurba_marseille","lat":43.29563,"lon":5.37515,"is_reserved":false,"is_disabled":false,"rental_uris":{"android":"levelo://app?vid=8b659317-2528-4cac-8ccf-d2720fd97c76","ios":"levelo://app?vid=8b659317-2528-4cac-8ccf-d2720fd97c76"},"vehicle_type_id":"4","last_reported":1728994650,"current_range_meters":36800,"station_id":"ce4bgh92rcd13ifvqb50","pricing_plan_id":"cebpf4jnsgd1na2vs0mg"},{"bike_id":"fdb22c39-2f80-4083-9649-f962ce91ab14","system_id":"levelo_inurba_marseille","lat":43.3046,"lon":5.37911,"is_reserved":false,"is_disabled":false,"rental_uris":{"android":"levelo://app?vid=fdb22c39-2f80-4083-9649-f962ce91ab14","ios":"levelo://app?vid=fdb22c39-2f80-4083-9649-f962ce91ab14"},"vehicle_type_id":"4","last_reported":1728994650,"current_range_meters":24400,"station_id":"ce4bgup2rcd13ifvqcn0","pricing_plan_id":"cebpf4jnsgd1na2vs0mg"},{"bike_id":"1401a772-579b-4f30-9fb5-3ae1d625bc68","system_id":"levelo_inurba_marseille","lat":43.28931,"lon":5.3839,"is_reserved":false,"is_disabled":false,"rental_uris":{"android":"levelo://app?vid=1401a772-579b-4f30-9fb5-3ae1d625bc68","ios":"levelo://app?vid=1401a772-579b-4f30-9fb5-3ae1d625bc68"},"vehicle_type_id":"4","last_reported":1728994650,"current_range_meters":26000,"station_id":"ce4bh612rcd13ifvqe6g","pricing_plan_id":"cebpf4jnsgd1na2vs0mg"},{"bike_id":"26ed18dd-2fec-4140-be66-4f0a8fbf0536","system_id":"levelo_inurba_marseille","lat":43.30937,"lon":5.40139,"is_reserved":false,"is_disabled":false,"rental_uris":{"android":"levelo://app?vid=26ed18dd-2fec-4140-be66-4f0a8fbf0536","ios":"levelo://app?vid=26ed18dd-2fec-4140-be66-4f0a8fbf0536"},"vehicle_type_id":"4","last_reported":1728994650,"current_range_meters":38800,"station_id":"ce4bgvp2rcd13ifvqct0","pricing_plan_id":"cebpf4jnsgd1na2vs0mg"},{"bike_id":"308b1ecd-9762-4b31-af28-773fadc0b017","system_id":"levelo_inurba_marseille","lat":43.29904,"lon":5.37464,"is_reserved":false,"is_disabled":false,"rental_uris":{"android":"levelo://app?vid=308b1ecd-9762-4b31-af28-773fadc0b017","ios":"levelo://app?vid=308b1ecd-9762-4b31-af28-773fadc0b017"},"vehicle_type_id":"4","last_reported":1728994650,"current_range_meters":11600,"station_id":"ce4bgjh2rcd13ifvqbg0","pricing_plan_id":"cebpf4jnsgd1na2vs0mg"},{"bike_id":"2714b3d6-51fc-4132-bf37-fe1c39eb9869","system_id":"levelo_inurba_marseille","lat":43.29842,"lon":5.36268,"is_reserved":false,"is_disabled":false,"rental_uris":{"android":"levelo://app?vid=2714b3d6-51fc-4132-bf37-fe1c39eb9869","ios":"levelo://app?vid=2714b3d6-51fc-4132-bf37-fe1c39eb9869"},"vehicle_type_id":"4","last_reported":1728994650,"current_range_meters":32800,"station_id":"ce4bgpp2rcd13ifvqc3g","pricing_plan_id":"cebpf4jnsgd1na2vs0mg"},{"bike_id":"d9200838-259f-4318-b9f7-5065548e4415","system_id":"levelo_inurba_marseille","lat":43.27999,"lon":5.41667,"is_reserved":false,"is_disabled":false,"rental_uris":{"android":"levelo://app?vid=d9200838-259f-4318-b9f7-5065548e4415","ios":"levelo://app?vid=d9200838-259f-4318-b9f7-5065548e4415"},"vehicle_type_id":"4","last_reported":1728994650,"current_range_meters":10000,"station_id":"ce4bho12rcd13ifvqh1g","pricing_plan_id":"cebpf4jnsgd1na2vs0mg"},{"bike_id":"94d48054-be54-488d-a425-2deb433f452c","system_id":"levelo_inurba_marseille","lat":43.298058,"lon":5.364326,"is_reserved":false,"is_disabled":false,"rental_uris":{"android":"levelo://app?vid=94d48054-be54-488d-a425-2deb433f452c","ios":"levelo://app?vid=94d48054-be54-488d-a425-2deb433f452c"},"vehicle_type_id":"4","last_reported":1728994650,"current_range_meters":24800,"station_id":"ce4bgnh2rcd13ifvqc0g","pricing_plan_id":"cebpf4jnsgd1na2vs0mg"},{"bike_id":"773a2138-853a-4482-9bcb-1ed5b264676d","system_id":"levelo_inurba_marseille","lat":43.25497,"lon":5.37648,"is_reserved":false,"is_disabled":false,"rental_uris":{"android":"levelo://app?vid=773a2138-853a-4482-9bcb-1ed5b264676d","ios":"levelo://app?vid=773a2138-853a-4482-9bcb-1ed5b264676d"},"vehicle_type_id":"4","last_reported":1728994650,"current_range_meters":19600,"station_id":"ce4bhh12rcd13ifvqff0","pricing_plan_id":"cebpf4jnsgd1na2vs0mg"},{"bike_id":"14ec08ed-3803-4409-89e3-ad9283233d7d","system_id":"levelo_inurba_marseille","lat":43.25725,"lon":5.41106,"is_reserved":false,"is_disabled":false,"rental_uris":{"android":"levelo://app?vid=14ec08ed-3803-4409-89e3-ad9283233d7d","ios":"levelo://app?vid=14ec08ed-3803-4409-89e3-ad9283233d7d"},"vehicle_type_id":"4","last_reported":1728994650,"current_range_meters":16800,"station_id":"ce4bhkp2rcd13ifvqgd0","pricing_plan_id":"cebpf4jnsgd1na2vs0mg"},