{"last_updated":1701083162,"ttl":30,"version":"2.2","data":{"bikes":[{"bike_id":"dbd22c5b-f318-460a-95cd-c007a476a760","system_id":"levelo_inurba_marseille","lat":43.31341,"lon":5.367098,"is_reserved":false,"is_disabled":false,"rental_uris":{"android":"levelo://app?vid=dbd22c5b-f318-460a-95cd-c007a476a760","ios":"levelo://app?vid=dbd22c5b-f318-460a-95cd-c007a476a760"},"vehicle_type_id":"4","last_reported":1701083163,"current_range_meters":28400,"station_id":"ce4bgr92rcd13ifvqc6g","pricing_plan_id":"free"},{"bike_id":"1e80ff6f-214d-452e-a1df-88c480549762","system_id":"levelo_inurba_marseille","lat":43.313391,"lon":5.36706,"is_reserved":false,"is_disabled":false,"rental_uris":{"android":"levelo://app?vid=1e80ff6f-214d-452e-a1df-88c480549762","ios":"levelo://app?vid=1e80ff6f-214d-452e-a1df-88c480549762"},"vehicle_type_id":"4","last_reported":1701083163,"current_range_meters":31200,"station_id":"ce4bgr92rcd13ifvqc6g","pricing_plan_id":"free"},{"bike_id":"0e07f4dc-f05c-4a47-a7fc-9cf5a2bc7aff","system_id":"levelo_inurba_marseille","lat":43.31341,"lon":5.367098,"is_reserved":false,"is_disabled":false,"rental_uris":{"android":"levelo://app?vid=0e07f4dc-f05c-4a47-a7fc-9cf5a2bc7aff","ios":"levelo://app?vid=0e07f4dc-f05c-4a47-a7fc-9cf5a2bc7aff"},"vehicle_type_id":"4","last_reported":1701083163,"current_range_meters":31200,"station_id":"ce4bgr92rcd13ifvqc6g","pricing_plan_id":"free"},{"bike_id":"d91cb1a5-9e69-484c-aa49-7e1232aa7a8e","system_id":"levelo_inurba_marseille","lat":43.31341,"lon":5.367098,"is_reserved":false,"is_disabled":false,"rental_uris":{"android":"levelo://app?vid=d91cb1a5-9e69-484c-aa49-7e1232aa7a8e","ios":"levelo://app?vid=d91cb1a5-9e69-484c-aa49-7e1232aa7a8e"},"vehicle_type_id":"4","last_reported":1701083163,"current_range_meters":4000,"station_id":"ce4bgr92rcd13ifvqc6g","pricing_plan_id":"free"},{"bike_id":"6d6fe16b-8fcd-4dda-95b2-f6e72b00fabb","system_id":"levelo_inurba_marseille","lat":43.313391,"lon":5.36706,"is_reserved":false,"is_disabled":false,"rental_uris":{"android":"levelo://app?vid=6d6fe16b-8fcd-4dda-95b2-f6e72b00fabb","ios":"levelo://app?vid=6d6fe16b-8fcd-4dda-95b2-f6e72b00fabb"},"vehicle_type_id":"4","last_reported":1701083163,"current_range_meters":26800,"station_id":"ce4bgr92rcd13ifvqc6g","pricing_plan_id":"free"},{"bike_id":"8d7fd8e2-e915-4a9b-ac22-a9a9c8c23e6d","system_id":"levelo_inurba_marseille","lat":43.31341,"lon":5.367098,"is_reserved":false,"is_disabled":false,"rental_uris":{"android":"levelo://app?vid=8d7fd8e2-e915-4a9b-ac22-a9a9c8c23e6d","ios":"levelo://app?vid=8d7fd8e2-e915-4a9b-ac22-a9a9c8c23e6d"},"vehicle_type_id":"4","last_reported":1701083163,"current_range_meters":27200,"station_id":"ce4bgr92rcd13ifvqc6g","pricing_plan_id":"free"},{"bike_id":"7e426172-5489-45eb-b667-9fa774e25806","system_id":"levelo_inurba_marseille","lat":43.313391,"lon":5.36706,"is_reserved":false,"is_disabled":false,"rental_uris":{"android":"levelo://app?vid=7e426172-5489-45eb-b667-9fa774e25806","ios":"levelo://app?vid=7e426172-5489-45eb-b667-9fa774e25806"},"vehicle_type_id":"4","last_reported":1701083163,"current_range_meters":18000,"station_id":"ce4bgr92rcd13ifvqc6g","pricing_plan_id":"free"},{"bike_id":"3214e857-702f-4f77-a7ed-15c1738fb98d","system_id":"levelo_inurba_marseille","lat":43.313391,"lon":5.36706,"is_reserved":false,"is_disabled":false,"rental_uris":{"android":"levelo://app?vid=3214e857-702f-4f77-a7ed-15c1738fb98d","ios":"levelo://app?vid=3214e857-702f-4f77-a7ed-15c1738fb98d"},"vehicle_type_id":"4","last_reported":1701083163,"current_range_meters":16400,"station_id":"ce4bgr92rcd13ifvqc6g","pricing_plan_id":"free"},{"bike_id":"f79e56b7-07fc-4cbb-8c5f-1219abdbaaa0","system_id":"levelo_inurba_marseille","lat":43.31351,"lon":5.3671,"is_reserved":false,"is_disabled":false,"rental_uris":{"android":"levelo://app?vid=f79e56b7-07fc-4cbb-8c5f-1219abdbaaa0","ios":"levelo://app?vid=f79e56b7-07fc-4cbb-8c5f-1219abdbaaa0"},"vehicle_type_id":"4","last_reported":1701083163,"current_range_meters":14000,"station_id":"","pricing_plan_id":"free"},{"bike_id":"196ffaf2-63f9-4e0e-beee-cd70322d6dc7","system_id":"levelo_inurba_marseille","lat":43.31341,"lon":5.367098,"is_reserved":false,"is_disabled":false,"rental_uris":{"android":"levelo://app?vid=196ffaf2-63f9-4e0e-beee-cd70322d6dc7","ios":"levelo://app?vid=196ffaf2-63f9-4e0e-beee-cd70322d6dc7"},"vehicle_type_id":"4","last_reported":1701083163,"current_range_meters":9200,"station_id":"ce4bgr92rcd13ifvqc6g","pricing_plan_id":"free"},{"bike_id":"0181b0ac-1d1e-43e1-bcf7-6197a5307a14","system_id":"levelo_inurba_marseille","lat":43.313391,"lon":5.36706,"is_reserved":false,"is_disabled":false,"rental_uris":{"android":"levelo://app?vid=0181b0ac-1d1e-43e1-bcf7-6197a5307a14","ios":"levelo://app?vid=0181b0ac-1d1e-43e1-bcf7-6197a5307a14"},"vehicle_type_id":"4","last_reported":1701083163,"current_range_meters":30800,"station_id":"ce4bgr92rcd13ifvqc6g","pricing_plan_id":"free"},{"bike_id":"5d884c0a-f441-4caa-800e-f8eec27a6b22","system_id":"levelo_inurba_marseille","lat":43.31364,"lon":5.36715,"is_reserved":false,"is_disabled":false,"rental_uris":{"android":"levelo://app?vid=5d884c0a-f441-4caa-800e-f8eec27a6b22","ios":"levelo://app?vid=5d884c0a-f441-4caa-800e-f8eec27a6b22"},"vehicle_type_id":"4","last_reported":1701083163,"current_range_meters":20000,"station_id":"ce4bgr92rcd13ifvqc6g","pricing_plan_id":"free"},{"bike_id":"df7f1710-213d-4be5-86a8-93f4a5b41e94","system_id":"levelo_inurba_marseille","lat":43.312239,"lon":5.368562,"is_reserved":false,"is_disabled":false,"rental_uris":{"android":"levelo://app?vid=df7f1710-213d-4be5-86a8-93f4a5b41e94","ios":"levelo://app?vid=df7f1710-213d-4be5-86a8-93f4a5b41e94"},"vehicle_type_id":"4","last_reported":1701083163,"current_range_meters":29600,"station_id":"ce4bgl92rcd13ifvqbq0","pricing_plan_id":"free"},{"bike_id":"ab2b6362-992a-4bf3-82a1-9d4fb97a4f03","system_id":"levelo_inurba_marseille","lat":43.312239,"lon":5.368562,"is_reserved":false,"is_disabled":false,"rental_uris":{"android":"levelo://app?vid=ab2b6362-992a-4bf3-82a1-9d4fb97a4f03","ios":"levelo://app?vid=ab2b6362-992a-4bf3-82a1-9d4fb97a4f03"},"vehicle_type_id":"4","last_reported":1701083163,"current_range_meters":16000,"station_id":"ce4bgl92rcd13ifvqbq0","pricing_plan_id":"free"},{"bike_id":"54a3edee-7dd6-450a-95cb-5e8e3887766b","system_id":"levelo_inurba_marseille","lat":43.312239,"lon":5.368562,"is_reserved":false,"is_disabled":false,"rental_uris":{"android":"levelo://app?vid=54a3edee-7dd6-450a-95cb-5e8e3887766b","ios":"levelo://app?vid=54a3edee-7dd6-450a-95cb-5e8e3887766b"},"vehicle_type_id":"4","last_reported":1701083163,"current_range_meters":31200,"station_id":"ce4bgl92rcd13ifvqbq0","pricing_plan_id":"free"},{"bike_id":"e627dfde-acbe-4c06-9bf7-27e07c1460dc","system_id":"levelo_inurba_marseille","lat":43.312239,"lon":5.368562,"is_reserved":false,"is_disabled":false,"rental_uris":{"android":"levelo://app?vid=e627dfde-acbe-4c06-9bf7-27e07c1460dc","ios":"levelo://app?vid=e627dfde-acbe-4c06-9bf7-27e07c1460dc"},"vehicle_type_id":"4","last_reported":1701083163,"current_range_meters":16400,"station_id":"ce4bgl92rcd13ifvqbq0","pricing_plan_id":"free"},{"bike_id":"12ba8f6d-2b00-46a4-b742-3c11d58ec4b2","system_id":"levelo_inurba_marseille","lat":43.312239,"lon":5.368562,"is_reserved":false,"is_disabled":false,"rental_uris":{"android":"levelo://app?vid=12ba8f6d-2b00-46a4-b742-3c11d58ec4b2","ios":"levelo://app?vid=12ba8f6d-2b00-46a4-b742-3c11d58ec4b2"},"vehicle_type_id":"4","last_reported":1701083163,"current_range_meters":24000,"station_id":"ce4bgl92rcd13ifvqbq0","pricing_plan_id":"free"},{"bike_id":"e9acd7ca-88eb-444c-b136-4a3cc05351db","system_id":"levelo_inurba_marseille","lat":43.312239,"lon":5.368562,"is_reserved":false,"is_disabled":false,"rental_uris":{"android":"levelo://app?vid=e9acd7ca-88eb-444c-b136-4a3cc05351db","ios":"levelo://app?vid=e9acd7ca-88eb-444c-b136-4a3cc05351db"},"vehicle_type_id":"4","last_reported":1701083163,"current_range_meters":23200,"station_id":"ce4bgl92rcd13ifvqbq0","pricing_plan_id":"free"},{"bike_id":"592bf423-8cd0-4d0b-97bd-bc6ceb739d49","system_id":"levelo_inurba_marseille","lat":43.309076,"lon":5.368465,"is_reserved":false,"is_disabled":false,"rental_uris":{"android":"levelo://app?vid=592bf423-8cd0-4d0b-97bd-bc6ceb739d49","ios":"levelo://app?vid=592bf423-8cd0-4d0b-97bd-bc6ceb739d49"},"vehicle_type_id":"4","last_reported":1701083163,"current_range_meters":31200,"station_id":"ce4bgn92rcd13ifvqbvg","pricing_plan_id":"free"},{"bike_id":"83ebfac8-dbe6-444d-b597-d89673b1bcc5","system_id":"levelo_inurba_marseille","lat":43.309076,"lon":5.368465,"is_reserved":false,"is_disabled":false,"rental_uris":{"android":"levelo://app?vid=83ebfac8-dbe6-444d-b597-d89673b1bcc5","ios":"levelo://app?vid=83ebfac8-dbe6-444d-b597-d89673b1bcc5"},"vehicle_type_id":"4","last_reported":1701083163,"current_range_meters":31200,"station_id":"ce4bgn92rcd13ifvqbvg","pricing_plan_id":"free"},{"bike_id":"c0bb7f49-ff87-427d-b841-623849910a14","system_id":"levelo_inurba_marseille","lat":43.309076,"lon":5.368465,"is_reserved":false,"is_disabled":false,"rental_uris":{"android":"levelo://app?vid=c0bb7f49-ff87-427d-b841-623849910a14","ios":"levelo://app?vid=c0bb7f49-ff87-427d-b841-623849910a14"},"vehicle_type_id":"4","last_reported":1701083163,"current_range_meters":26800,"station_id":"ce4bgn92rcd13ifvqbvg","pricing_plan_id":"free"},{"bike_id":"8678b2b8-c06c-49e1-9031-4e114abe705f","system_id":"levelo_inurba_marseille","lat":43.309076,"lon":5.368465,"is_reserved":false,"is_disabled":false,"rental_uris":{"android":"levelo://app?vid=8678b2b8-c06c-49e1-9031-4e114abe705f","ios":"levelo://app?vid=8678b2b8-c06c-49e1-9031-4e114abe705f"},"vehicle_type_id":"4","last_reported":1701083163,"current_range_meters":31600,"station_id":"ce4bgn92rcd13ifvqbvg","pricing_plan_id":"free"},{"bike_id":"9bf9af87-2aeb-4186-8549-3e3d5be773df","system_id":"levelo_inurba_marseille","lat":43.309076,"lon":5.368465,"is_reserved":false,"is_disabled":false,"rental_uris":{"android":"levelo://app?vid=9bf9af87-2aeb-4186-8549-3e3d5be773df","ios":"levelo://app?vid=9bf9af87-2aeb-4186-8549-3e3d5be773df"},"vehicle_type_id":"4","last_reported":1701083163,"current_range_meters":10400,"station_id":"ce4bgn92rcd13ifvqbvg","pricing_plan_id":"free"},{"bike_id":"cfa47124-069d-4f93-a30b-8ce1195b2bbf","system_id":"levelo_inurba_marseille","lat":43.314811,"lon":5.373103,"is_reserved":false,"is_disabled":false,"rental_uris":{"android":"levelo://app?vid=cfa47124-069d-4f93-a30b-8ce1195b2bbf","ios":"levelo://app?vid=cfa47124-069d-4f93-a30b-8ce1195b2bbf"},"vehicle_type_id":"4","last_reported":1701083163,"current_range_meters":28800,"station_id":"ce4bgt12rcd13ifvqcd0","pricing_plan_id":"free"},{"bike_id":"13cac5bd-d87b-4e3e-b541-9b83ab9234b0","system_id":"levelo_inurba_marseille","lat":43.314811,"lon":5.373103,"is_reserved":false,"is_disabled":false,"rental_uris":{"android":"levelo://app?vid=13cac5bd-d87b-4e3e-b541-9b83ab9234b0","ios":"levelo://app?vid=13cac5bd-d87b-4e3e-b541-9b83ab9234b0"},"vehicle_type_id":"4","last_reported":1701083163,"current_range_meters":22800,"station_id":"ce4bgt12rcd13ifvqcd0","pricing_plan_id":"free"},{"bike_id":"8c744303-e4fa-4bd9-b136-aabcbe448fd1","system_id":"levelo_inurba_marseille","lat":43.314811,"lon":5.373104,"is_reserved":false,"is_disabled":false,"rental_uris":{"android":"levelo://app?vid=8c744303-e4fa-4bd9-b136-aabcbe448fd1","ios":"levelo://app?vid=8c744303-e4fa-4bd9-b136-aabcbe448fd1"},"vehicle_type_id":"4","last_reported":1701083163,"current_range_meters":20400,"station_id":"ce4bgt12rcd13ifvqcd0","pricing_plan_id":"free"},{"bike_id":"b67a706d-c086-43d6-b25e-bdfbe6f9dd7f","system_id":"levelo_inurba_marseille","lat":43.314811,"lon":5.373103,"is_reserved":false,"is_disabled":false,"rental_uris":{"android":"levelo://app?vid=b67a706d-c086-43d6-b25e-bdfbe6f9dd7f","ios":"levelo://app?vid=b67a706d-c086-43d6-b25e-bdfbe6f9dd7f"},"vehicle_type_id":"4","last_reported":1701083163,"current_range_meters":16000,"station_id":"ce4bgt12rcd13ifvqcd0","pricing_plan_id":"free"},{"bike_id":"9bacf29e-8a10-4371-b665-519f6dee73c0","system_id":"levelo_inurba_marseille","lat":43.314811,"lon":5.373103,"is_reserved":false,"is_disabled":false,"rental_uris":{"android":"levelo://app?vid=9bacf29e-8a10-4371-b665-519f6dee73c0","ios":"levelo://app?vid=9bacf29e-8a10-4371-b665-519f6dee73c0"},"vehicle_type_id":"4","last_reported":1701083163,"current_range_meters":24000,"station_id":"ce4bgt12rcd13ifvqcd0","pricing_plan_id":"free"},{"bike_id":"410b9a53-0b85-42d8-9f78-f7cf07ee0954","system_id":"levelo_inurba_marseille","lat":43.314811,"lon":5.373104,"is_reserved":false,"is_disabled":false,"rental_uris":{"android":"levelo://app?vid=410b9a53-0b85-42d8-9f78-f7cf07ee0954","ios":"levelo://app?vid=410b9a53-0b85-42d8-9f78-f7cf07ee0954"},"vehicle_type_id":"4","last_reported":1701083163,"current_range_meters":28800,"station_id":"ce4bgt12rcd13ifvqcd0","pricing_plan_id":"free"},{"bike_id":"54ce28ec-2d07-4e52-bd8c-cf4d4d2a95ee","system_id":"levelo_inurba_marseille","lat":43.309039,"lon":5.371797,"is_reserved":false,"is_disabled":false,"rental_uris":{"android":"levelo://app?vid=54ce28ec-2d07-4e52-bd8c-cf4d4d2a95ee","ios":"levelo://app?vid=54ce28ec-2d07-4e52-bd8c-cf4d4d2a95ee"},"vehicle_type_id":"4","last_reported":1701083163,"current_range_meters":21200,"station_id":"ce4bguh2rcd13ifvqckg","pricing_plan_id":"free"},{"bike_id":"fa4c08a8-f79b-4419-8791-02374ece74c7","system_id":"levelo_inurba_marseille","lat":43.316929,"lon":5.372721,"is_reserved":false,"is_disabled":false,"rental_uris":{"android":"levelo://app?vid=fa4c08a8-f79b-4419-8791-02374ece74c7","ios":"levelo://app?vid=fa4c08a8-f79b-4419-8791-02374ece74c7"},"vehicle_type_id":"4","last_reported":1701083163,"current_range_meters":6400,"station_id":"","pricing_plan_id":"free"},{"bike_id":"07dd9e58-e5cc-4d6a-b664-833180db3f6b","system_id":"levelo_inurba_marseille","lat":43.305368,"lon":5.367343,"is_reserved":false,"is_disabled":false,"rental_uris":{"android":"levelo://app?vid=07dd9e58-e5cc-4d6a-b664-833180db3f6b","ios":"levelo://app?vid=07dd9e58-e5cc-4d6a-b664-833180db3f6b"},"vehicle_type_id":"4","last_reported":1701083163,"current_range_meters":24000,"station_id":"ce4bgrp2rcd13ifvqc9g","pricing_plan_id":"free"},{"bike_id":"1c8b667d-3f74-4307-ad41-8e61e63a63f7","system_id":"levelo_inurba_marseille","lat":43.30542,"lon":5.36698,"is_reserved":false,"is_disabled":false,"rental_uris":{"android":"levelo://app?vid=1c8b667d-3f74-4307-ad41-8e61e63a63f7","ios":"levelo://app?vid=1c8b667d-3f74-4307-ad41-8e61e63a63f7"},"vehicle_type_id":"4","last_reported":1701083163,"current_range_meters":22000,"station_id":"ce4bgrp2rcd13ifvqc9g","pricing_plan_id":"free"},{"bike_id":"d783f12e-d0e4-46f2-9f03-268448d77314","system_id":"levelo_inurba_marseille","lat":43.305368,"lon":5.367343,"is_reserved":false,"is_disabled":false,"rental_uris":{"android":"levelo://app?vid=d783f12e-d0e4-46f2-9f03-268448d77314","ios":"levelo://app?vid=d783f12e-d0e4-46f2-9f03-268448d77314"},"vehicle_type_id":"4","last_reported":1701083163,"current_range_meters":17200,"station_id":"ce4bgrp2rcd13ifvqc9g","pricing_plan_id":"free"},{"bike_id":"2268a2f4-fb49-46e5-bac7-c552d506e322","system_id":"levelo_inurba_marseille","lat":43.305714,"lon":5.365633,"is_reserved":false,"is_disabled":false,"rental_uris":{"android":"levelo://app?vid=2268a2f4-fb49-46e5-bac7-c552d506e322","ios":"levelo://app?vid=2268a2f4-fb49-46e5-bac7-c552d506e322"},"vehicle_type_id":"4","last_reported":1701083163,"current_range_meters":17200,"station_id":"ce4bgs12rcd13ifvqcag","pricing_plan_id":"free"},{"bike_id":"f8e46a7e-6953-452a-80e1-dd49ee8b550c","system_id":"levelo_inurba_marseille","lat":43.305368,"lon":5.367343,"is_reserved":false,"is_disabled":false,"rental_uris":{"android":"levelo://app?vid=f8e46a7e-6953-452a-80e1-dd49ee8b550c","ios":"levelo://app?vid=f8e46a7e-6953-452a-80e1-dd49ee8b550c"},"vehicle_type_id":"4","last_reported":1701083163,"current_range_meters":28000,"station_id":"ce4bgrp2rcd13ifvqc9g","pricing_plan_id":"free"},{"bike_id":"e986844b-901f-45bc-ad75-e081ca31eb3c","system_id":"levelo_inurba_marseille","lat":43.305714,"lon":5.365633,"is_reserved":false,"is_disabled":false,"rental_uris":{"android":"levelo://app?vid=e986844b-901f-45bc-ad75-e081ca31eb3c","ios":"levelo://app?vid=e986844b-901f-45bc-ad75-e081ca31eb3c"},"vehicle_type_id":"4","last_reported":1701083163,"current_range_meters":31600,"station_id":"ce4bgs12rcd13ifvqcag","pricing_plan_id":"free"},{"bike_id":"9798151f-f90c-4ba8-8293-cbf829f759b7","system_id":"levelo_inurba_marseille","lat":43.305714,"lon":5.365633,"is_reserved":false,"is_disabled":false,"rental_uris":{"android":"levelo://app?vid=9798151f-f90c-4ba8-8293-cbf829f759b7","ios":"levelo://app?vid=9798151f-f90c-4ba8-8293-cbf829f759b7"},"vehicle_type_id":"4","last_reported":1701083163,"current_range_meters":16400,"station_id":"ce4bgs12rcd13ifvqcag","pricing_plan_id":"free"},{"bike_id":"a7e7b01c-cece-48de-97be-e5c04ce16e86","system_id":"levelo_inurba_marseille","lat":43.305714,"lon":5.365633,"is_reserved":false,"is_disabled":false,"rental_uris":{"android":"levelo://app?vid=a7e7b01c-cece-48de-97be-e5c04ce16e86","ios":"levelo://app?vid=a7e7b01c-cece-48de-97be-e5c04ce16e86"},"vehicle_type_id":"4","last_reported":1701083163,"current_range_meters":21200,"station_id":"ce4bgs12rcd13ifvqcag","pricing_plan_id":"free"},{"bike_id":"9161c445-e810-419e-81cf-7ccecee3ce08","system_id":"levelo_inurba_marseille","lat":43.305714,"lon":5.365633,"is_reserved":false,"is_disabled":false,"rental_uris":{"android":"levelo://app?vid=9161c445-e810-419e-81cf-7ccecee3ce08","ios":"levelo://app?vid=9161c445-e810-419e-81cf-7ccecee3ce08"},"vehicle_type_id":"4","last_reported":1701083163,"current_range_meters":15200,"station_id":"ce4bgs12rcd13ifvqcag","pricing_plan_id":"free"},{"bike_id":"197b67a4-a9ac-42b1-91a9-2afbb865edce","system_id":"levelo_inurba_marseille","lat":43.305706,"lon":5.365654,"is_reserved":false,"is_disabled":false,"rental_uris":{"android":"levelo://app?vid=197b67a4-a9ac-42b1-91a9-2afbb865edce","ios":"levelo://app?vid=197b67a4-a9ac-42b1-91a9-2afbb865edce"},"vehicle_type_id":"4","last_reported":1701083163,"current_range_meters":20800,"station_id":"ce4bgs12rcd13ifvqcag","pricing_plan_id":"free"},{"bike_id":"b1cb7dd5-7e1e-4b8f-a0e9-4c4fdc0f6c22","system_id":"levelo_inurba_marseille","lat":43.305714,"lon":5.365633,"is_reserved":false,"is_disabled":false,"rental_uris":{"android":"levelo://app?vid=b1cb7dd5-7e1e-4b8f-a0e9-4c4fdc0f6c22","ios":"levelo://app?vid=b1cb7dd5-7e1e-4b8f-a0e9-4c4fdc0f6c22"},"vehicle_type_id":"4","last_reported":1701083163,"current_range_meters":28800,"station_id":"ce4bgs12rcd13ifvqcag","pricing_plan_id":"free"},{"bike_id":"9d01288a-b778-4e24-9b58-220029914c9c","system_id":"levelo_inurba_marseille","lat":43.305706,"lon":5.365654,"is_reserved":false,"is_disabled":false,"rental_uris":{"android":"levelo://app?vid=9d01288a-b778-4e24-9b58-220029914c9c","ios":"levelo://app?vid=9d01288a-b778-4e24-9b58-220029914c9c"},"vehicle_type_id":"4","last_reported":1701083163,"current_range_meters":30800,"station_id":"ce4bgs12rcd13ifvqcag","pricing_plan_id":"free"},{"bike_id":"1e704650-e46b-4c96-8a2f-660240057434","system_id":"levelo_inurba_marseille","lat":43.305706,"lon":5.365654,"is_reserved":false,"is_disabled":false,"rental_uris":{"android":"levelo://app?vid=1e704650-e46b-4c96-8a2f-660240057434","ios":"levelo://app?vid=1e704650-e46b-4c96-8a2f-660240057434"},"vehicle_type_id":"4","last_reported":1701083163,"current_range_meters":31200,"station_id":"ce4bgs12rcd13ifvqcag","pricing_plan_id":"free"},{"bike_id":"a178d0dc-f1a4-44e9-a3a5-7b90431c6dd4","system_id":"levelo_inurba_marseille","lat":43.306035,"lon":5.372211,"is_reserved":false,"is_disabled":false,"rental_uris":{"android":"levelo://app?vid=a178d0dc-f1a4-44e9-a3a5-7b90431c6dd4","ios":"levelo://app?vid=a178d0dc-f1a4-44e9-a3a5-7b90431c6dd4"},"vehicle_type_id":"4","last_reported":1701083163,"current_range_meters":0,"station_id":"ce4bgqh2rcd13ifvqc4g","pricing_plan_id":"free"},{"bike_id":"f427a2c3-6e4a-446b-ae2f-9be8aa7f4122","system_id":"levelo_inurba_marseille","lat":43.31719,"lon":5.376813,"is_reserved":false,"is_disabled":false,"rental_uris":{"android":"levelo://app?vid=f427a2c3-6e4a-446b-ae2f-9be8aa7f4122","ios":"levelo://app?vid=f427a2c3-6e4a-446b-ae2f-9be8aa7f4122"},"vehicle_type_id":"4","last_reported":1701083163,"current_range_meters":17600,"station_id":"ce4bgth2rcd13ifvqch0","pricing_plan_id":"free"},{"bike_id":"e913f328-1e31-4c22-bd87-f809ea246de4","system_id":"levelo_inurba_marseille","lat":43.317168,"lon":5.376883,"is_reserved":false,"is_disabled":false,"rental_uris":{"android":"levelo://app?vid=e913f328-1e31-4c22-bd87-f809ea246de4","ios":"levelo://app?vid=e913f328-1e31-4c22-bd87-f809ea246de4"},"vehicle_type_id":"4","last_reported":1701083163,"current_range_meters":20000,"station_id":"ce4bgth2rcd13ifvqch0","pricing_plan_id":"free"},{"bike_id":"d169dd41-5f17-415d-92c8-d82e2176279b","system_id":"levelo_inurba_marseille","lat":43.307945,"lon":5.376487,"is_reserved":false,"is_disabled":false,"rental_uris":{"android":"levelo://app?vid=d169dd41-5f17-415d-92c8-d82e2176279b","ios":"levelo://app?vid=d169dd41-5f17-415d-92c8-d82e2176279b"},"vehicle_type_id":"4","last_reported":1701083163,"current_range_meters":28400,"station_id":"ce4bgv92rcd13ifvqcq0","pricing_plan_id":"free"},{"bike_id":"4960cd84-5f51-4fcb-bf4f-043f77c0faa0","system_id":"levelo_inurba_marseille","lat":43.312307,"lon":5.37898,"is_reserved":false,"is_disabled":false,"rental_uris":{"android":"levelo://app?vid=4960cd84-5f51-4fcb-bf4f-043f77c0faa0","ios":"levelo://app?vid=4960cd84-5f51-4fcb-bf4f-043f77c0faa0"},"vehicle_type_id":"4","last_reported":1701083163,"current_range_meters":13600,"station_id":"","pricing_plan_id":"free"},{"bike_id":"bfa44d10-2349-4e3f-b242-25cbd14230cc","system_id":"levelo_inurba_marseille","lat":43.317044,"lon":5.377459,"is_reserved":false,"is_disabled":false,"rental_uris":{"android":"levelo://app?vid=bfa44d10-2349-4e3f-b242-25cbd14230cc","ios":"levelo://app?vid=bfa44d10-2349-4e3f-b242-25cbd14230cc"},"vehicle_type_id":"4","last_reported":1701083163,"current_range_meters":12400,"station_id":"ce4bgth2rcd13ifvqch0","pricing_plan_id":"free"},{"bike_id":"cca0b9fe-c5e0-4368-8873-c657446bffc2","system_id":"levelo_inurba_marseille","lat":43.324822,"lon":5.36574,"is_reserved":false,"is_disabled":false,"rental_uris":{"android":"levelo://app?vid=cca0b9fe-c5e0-4368-8873-c657446bffc2","ios":"levelo://app?vid=cca0b9fe-c5e0-4368-8873-c657446bffc2"},"vehicle_type_id":"4","last_reported":1701083163,"current_range_meters":8800,"station_id":"ce4bhs12rcd13ifvqhvg","pricing_plan_id":"free"},{"bike_id":"83c01ea3-1a20-4a6f-944b-833be987b804","system_id":"levelo_inurba_marseille","lat":43.30553,"lon":5.38078,"is_reserved":false,"is_disabled":false,"rental_uris":{"android":"levelo://app?vid=83c01ea3-1a20-4a6f-944b-833be987b804","ios":"levelo://app?vid=83c01ea3-1a20-4a6f-944b-833be987b804"},"vehicle_type_id":"4","last_reported":1701083163,"current_range_meters":0,"station_id":"","pricing_plan_id":"free"},{"bike_id":"eb502bdf-2709-427a-96f9-0ee4c3f2fb9e","system_id":"levelo_inurba_marseille","lat":43.319935,"lon":5.381699,"is_reserved":false,"is_disabled":false,"rental_uris":{"android":"levelo://app?vid=eb502bdf-2709-427a-96f9-0ee4c3f2fb9e","ios":"levelo://app?vid=eb502bdf-2709-427a-96f9-0ee4c3f2fb9e"},"vehicle_type_id":"4","last_reported":1701083163,"current_range_meters":10000,"station_id":"ce4bhr12rcd13ifvqhpg","pricing_plan_id":"free"},{"bike_id":"a112bfba-75af-4dd3-972d-2142a3fb1be9","system_id":"levelo_inurba_marseille","lat":43.313571,"lon":5.384829,"is_reserved":false,"is_disabled":false,"rental_uris":{"android":"levelo://app?vid=a112bfba-75af-4dd3-972d-2142a3fb1be9","ios":"levelo://app?vid=a112bfba-75af-4dd3-972d-2142a3fb1be9"},"vehicle_type_id":"4","last_reported":1701083163,"current_range_meters":28400,"station_id":"ce4bgt92rcd13ifvqcf0","pricing_plan_id":"free"},{"bike_id":"82443ffc-296d-47d2-aaaf-7e3ca64e9424","system_id":"levelo_inurba_marseille","lat":43.313571,"lon":5.384829,"is_reserved":false,"is_disabled":false,"rental_uris":{"android":"levelo://app?vid=82443ffc-296d-47d2-aaaf-7e3ca64e9424","ios":"levelo://app?vid=82443ffc-296d-47d2-aaaf-7e3ca64e9424"},"vehicle_type_id":"4","last_reported":1701083163,"current_range_meters":31200,"station_id":"ce4bgt92rcd13ifvqcf0","pricing_plan_id":"free"},{"bike_id":"203f5ba8-0e89-4784-aa27-b78132f1046a","system_id":"levelo_inurba_marseille","lat":43.298433,"lon":5.362774,"is_reserved":false,"is_disabled":false,"rental_uris":{"android":"levelo://app?vid=203f5ba8-0e89-4784-aa27-b78132f1046a","ios":"levelo://app?vid=203f5ba8-0e89-4784-aa27-b78132f1046a"},"vehicle_type_id":"4","last_reported":1701083163,"current_range_meters":28800,"station_id":"ce4bgpp2rcd13ifvqc3g","pricing_plan_id":"free"},{"bike_id":"07757741-7832-4823-a2d1-ac41495e3f29","system_id":"levelo_inurba_marseille","lat":43.298433,"lon":5.362774,"is_reserved":false,"is_disabled":false,"rental_uris":{"android":"levelo://app?vid=07757741-7832-4823-a2d1-ac41495e3f29","ios":"levelo://app?vid=07757741-7832-4823-a2d1-ac41495e3f29"},"vehicle_type_id":"4","last_reported":1701083163,"current_range_meters":20000,"station_id":"ce4bgpp2rcd13ifvqc3g","pricing_plan_id":"free"},{"bike_id":"f5a04daa-ddbf-40c5-9ac8-c8febd7e3518","system_id":"levelo_inurba_marseille","lat":43.298433,"lon":5.362774,"is_reserved":false,"is_disabled":false,"rental_uris":{"android":"levelo://app?vid=f5a04daa-ddbf-40c5-9ac8-c8febd7e3518","ios":"levelo://app?vid=f5a04daa-ddbf-40c5-9ac8-c8febd7e3518"},"vehicle_type_id":"4","last_reported":1701083163,"current_range_meters":20800,"station_id":"ce4bgpp2rcd13ifvqc3g","pricing_plan_id":"free"},{"bike_id":"984489f8-4f60-44ae-bd10-3b0ce30541c9","system_id":"levelo_inurba_marseille","lat":43.298433,"lon":5.362774,"is_reserved":false,"is_disabled":false,"rental_uris":{"android":"levelo://app?vid=984489f8-4f60-44ae-bd10-3b0ce30541c9","ios":"levelo://app?vid=984489f8-4f60-44ae-bd10-3b0ce30541c9"},"vehicle_type_id":"4","last_reported":1701083163,"current_range_meters":0,"station_id":"ce4bgpp2rcd13ifvqc3g","pricing_plan_id":"free"},{"bike_id":"590c398e-801c-4bf1-b43a-0987e9147a3f","system_id":"levelo_inurba_marseille","lat":43.298433,"lon":5.362774,"is_reserved":false,"is_disabled":false,"rental_uris":{"android":"levelo://app?vid=590c398e-801c-4bf1-b43a-0987e9147a3f","ios":"levelo://app?vid=590c398e-801c-4bf1-b43a-0987e9147a3f"},"vehicle_type_id":"4","last_reported":1701083163,"current_range_meters":8800,"station_id":"ce4bgpp2rcd13ifvqc3g","pricing_plan_id":"free"},{"bike_id":"41a7652b-304f-4f96-ac71-06689b9c904a","system_id":"levelo_inurba_marseille","lat":43.298433,"lon":5.362774,"is_reserved":false,"is_disabled":false,"rental_uris":{"android":"levelo://app?vid=41a7652b-304f-4f96-ac71-06689b9c904a","ios":"levelo://app?vid=41a7652b-304f-4f96-ac71-06689b9c904a"},"vehicle_type_id":"4","last_reported":1701083163,"current_range_meters":2000,"station_id":"ce4bgpp2rcd13ifvqc3g","pricing_plan_id":"free"},{"bike_id":"981224f2-722a-45e4-bb38-22ae7ba6910b","system_id":"levelo_inurba_marseille","lat":43.298433,"lon":5.362774,"is_reserved":false,"is_disabled":false,"rental_uris":{"android":"levelo://app?vid=981224f2-722a-45e4-bb38-22ae7ba6910b","ios":"levelo://app?vid=981224f2-722a-45e4-bb38-22ae7ba6910b"},"vehicle_type_id":"4","last_reported":1701083163,"current_range_meters":27600,"station_id":"ce4bgpp2rcd13ifvqc3g","pricing_plan_id":"free"},{"bike_id":"4dfe0b50-1a07-4147-9402-7c7abf3df656","system_id":"levelo_inurba_marseille","lat":43.298433,"lon":5.362774,"is_reserved":false,"is_disabled":false,"rental_uris":{"android":"levelo://app?vid=4dfe0b50-1a07-4147-9402-7c7abf3df656","ios":"levelo://app?vid=4dfe0b50-1a07-4147-9402-7c7abf3df656"},"vehicle_type_id":"4","last_reported":1701083163,"current_range_meters":23600,"station_id":"ce4bgpp2rcd13ifvqc3g","pricing_plan_id":"free"},{"bike_id":"a7fe4f51-10ec-45d6-82aa-98fc9fcfffbc","system_id":"levelo_inurba_marseille","lat":43.298433,"lon":5.362774,"is_reserved":false,"is_disabled":false,"rental_uris":{"android":"levelo://app?vid=a7fe4f51-10ec-45d6-82aa-98fc9fcfffbc","ios":"levelo://app?vid=a7fe4f51-10ec-45d6-82aa-98fc9fcfffbc"},"vehicle_type_id":"4","last_reported":1701083163,"current_range_meters":13600,"station_id":"ce4bgpp2rcd13ifvqc3g","pricing_plan_id":"free"},{"bike_id":"4c2c6467-937e-47cd-bd6e-b29f3e26e3a6","system_id":"levelo_inurba_marseille","lat":43.298433,"lon":5.362774,"is_reserved":false,"is_disabled":false,"rental_uris":{"android":"levelo://app?vid=4c2c6467-937e-47cd-bd6e-b29f3e26e3a6","ios":"levelo://app?vid=4c2c6467-937e-47cd-bd6e-b29f3e26e3a6"},"vehicle_type_id":"4","last_reported":1701083163,"current_range_meters":18400,"station_id":"ce4bgpp2rcd13ifvqc3g","pricing_plan_id":"free"},{"bike_id":"124eb19c-329f-43c7-993d-200197b8e23a","system_id":"levelo_inurba_marseille","lat":43.298433,"lon":5.362774,"is_reserved":false,"is_disabled":false,"rental_uris":{"android":"levelo://app?vid=124eb19c-329f-43c7-993d-200197b8e23a","ios":"levelo://app?vid=124eb19c-329f-43c7-993d-200197b8e23a"},"vehicle_type_id":"4","last_reported":1701083163,"current_range_meters":22400,"station_id":"ce4bgpp2rcd13ifvqc3g","pricing_plan_id":"free"},{"bike_id":"0754ef5c-fc99-4851-a033-881e32397101","system_id":"levelo_inurba_marseille","lat":43.311722,"lon":5.387247,"is_reserved":false,"is_disabled":false,"rental_uris":{"android":"levelo://app?vid=0754ef5c-fc99-4851-a033-881e32397101","ios":"levelo://app?vid=0754ef5c-fc99-4851-a033-881e32397101"},"vehicle_type_id":"4","last_reported":1701083163,"current_range_meters":23200,"station_id":"ce4bgv12rcd13ifvqcp0","pricing_plan_id":"free"},{"bike_id":"9f185ae0-fa90-49d0-9048-ad22764e9346","system_id":"levelo_inurba_marseille","lat":43.297163,"lon":5.365866,"is_reserved":false,"is_disabled":false,"rental_uris":{"android":"levelo://app?vid=9f185ae0-fa90-49d0-9048-ad22764e9346","ios":"levelo://app?vid=9f185ae0-fa90-49d0-9048-ad22764e9346"},"vehicle_type_id":"4","last_reported":1701083163,"current_range_meters":27200,"station_id":"ce4bgn12rcd13ifvqbt0","pricing_plan_id":"free"},{"bike_id":"0d6a931d-d307-44d1-977f-c073d6e7f5fd","system_id":"levelo_inurba_marseille","lat":43.297163,"lon":5.365866,"is_reserved":false,"is_disabled":false,"rental_uris":{"android":"levelo://app?vid=0d6a931d-d307-44d1-977f-c073d6e7f5fd","ios":"levelo://app?vid=0d6a931d-d307-44d1-977f-c073d6e7f5fd"},"vehicle_type_id":"4","last_reported":1701083163,"current_range_meters":23600,"station_id":"ce4bgn12rcd13ifvqbt0","pricing_plan_id":"free"},{"bike_id":"6fc153f3-ed9e-480e-8124-3f8e3fc34ae0","system_id":"levelo_inurba_marseille","lat":43.296131,"lon":5.370773,"is_reserved":false,"is_disabled":false,"rental_uris":{"android":"levelo://app?vid=6fc153f3-ed9e-480e-8124-3f8e3fc34ae0","ios":"levelo://app?vid=6fc153f3-ed9e-480e-8124-3f8e3fc34ae0"},"vehicle_type_id":"4","last_reported":1701083163,"current_range_meters":21200,"station_id":"ce4bgnh2rcd13ifvqc0g","pricing_plan_id":"free"},{"bike_id":"bd8e3978-9b5b-4461-9eab-9d80fc814246","system_id":"levelo_inurba_marseille","lat":43.29573,"lon":5.367355,"is_reserved":false,"is_disabled":false,"rental_uris":{"android":"levelo://app?vid=bd8e3978-9b5b-4461-9eab-9d80fc814246","ios":"levelo://app?vid=bd8e3978-9b5b-4461-9eab-9d80fc814246"},"vehicle_type_id":"4","last_reported":1701083163,"current_range_meters":31600,"station_id":"ce4bgph2rcd13ifvqc2g","pricing_plan_id":"free"},{"bike_id":"7e66ef08-9f91-4d9f-a3b9-a56f589c52ce","system_id":"levelo_inurba_marseille","lat":43.29573,"lon":5.367355,"is_reserved":false,"is_disabled":false,"rental_uris":{"android":"levelo://app?vid=7e66ef08-9f91-4d9f-a3b9-a56f589c52ce","ios":"levelo://app?vid=7e66ef08-9f91-4d9f-a3b9-a56f589c52ce"},"vehicle_type_id":"4","last_reported":1701083163,"current_range_meters":5200,"station_id":"ce4bgph2rcd13ifvqc2g","pricing_plan_id":"free"},{"bike_id":"01b710cc-5bf1-48d9-86c0-0c6e8ecdce75","system_id":"levelo_inurba_marseille","lat":43.29573,"lon":5.367355,"is_reserved":false,"is_disabled":false,"rental_uris":{"android":"levelo://app?vid=01b710cc-5bf1-48d9-86c0-0c6e8ecdce75","ios":"levelo://app?vid=01b710cc-5bf1-48d9-86c0-0c6e8ecdce75"},"vehicle_type_id":"4","last_reported":1701083163,"current_range_meters":20400,"station_id":"ce4bgph2rcd13ifvqc2g","pricing_plan_id":"free"},{"bike_id":"86e3c2a3-4964-4db5-8a5c-880a6773273d","system_id":"levelo_inurba_marseille","lat":43.296935,"lon":5.376544,"is_reserved":false,"is_disabled":false,"rental_uris":{"android":"levelo://app?vid=86e3c2a3-4964-4db5-8a5c-880a6773273d","ios":"levelo://app?vid=86e3c2a3-4964-4db5-8a5c-880a6773273d"},"vehicle_type_id":"4","last_reported":1701083163,"current_range_meters":14800,"station_id":"ce4bgkh2rcd13ifvqbl0","pricing_plan_id":"free"},{"bike_id":"11536b42-73e2-4d0e-987b-9f8d62e81754","system_id":"levelo_inurba_marseille","lat":43.309589,"lon":5.390258,"is_reserved":false,"is_disabled":false,"rental_uris":{"android":"levelo://app?vid=11536b42-73e2-4d0e-987b-9f8d62e81754","ios":"levelo://app?vid=11536b42-73e2-4d0e-987b-9f8d62e81754"},"vehicle_type_id":"4","last_reported":1701083163,"current_range_meters":12800,"station_id":"ce4bgup2rcd13ifvqco0","pricing_plan_id":"free"},{"bike_id":"233f9a4d-009b-410e-9f90-f58288651115","system_id":"levelo_inurba_marseille","lat":43.295748,"lon":5.37522,"is_reserved":false,"is_disabled":false,"rental_uris":{"android":"levelo://app?vid=233f9a4d-009b-410e-9f90-f58288651115","ios":"levelo://app?vid=233f9a4d-009b-410e-9f90-f58288651115"},"vehicle_type_id":"4","last_reported":1701083163,"current_range_meters":22400,"station_id":"ce4bgh92rcd13ifvqb50","pricing_plan_id":"free"},{"bike_id":"a41fa8bc-211f-43e8-a4ec-85c5c4018c87","system_id":"levelo_inurba_marseille","lat":43.29578,"lon":5.37518,"is_reserved":false,"is_disabled":false,"rental_uris":{"android":"levelo://app?vid=a41fa8bc-211f-43e8-a4ec-85c5c4018c87","ios":"levelo://app?vid=a41fa8bc-211f-43e8-a4ec-85c5c4018c87"},"vehicle_type_id":"4","last_reported":1701083163,"current_range_meters":0,"station_id":"ce4bgh92rcd13ifvqb50","pricing_plan_id":"free"},{"bike_id":"e8e1028c-69f7-49ec-b2fb-b16903f13611","system_id":"levelo_inurba_marseille","lat":43.29521,"lon":5.37512,"is_reserved":false,"is_disabled":false,"rental_uris":{"android":"levelo://app?vid=e8e1028c-69f7-49ec-b2fb-b16903f13611","ios":"levelo://app?vid=e8e1028c-69f7-49ec-b2fb-b16903f13611"},"vehicle_type_id":"4","last_reported":1701083163,"current_range_meters":23600,"station_id":"ce4bgkp2rcd13ifvqbmg","pricing_plan_id":"free"},{"bike_id":"6b621983-5e9e-42f7-990d-ad5a093820d2","system_id":"levelo_inurba_marseille","lat":43.293801,"lon":5.363066,"is_reserved":false,"is_disabled":false,"rental_uris":{"android":"levelo://app?vid=6b621983-5e9e-42f7-990d-ad5a093820d2","ios":"levelo://app?vid=6b621983-5e9e-42f7-990d-ad5a093820d2"},"vehicle_type_id":"4","last_reported":1701083163,"current_range_meters":0,"station_id":"","pricing_plan_id":"free"},{"bike_id":"ea9f2be5-8fe8-4bfc-99e6-739c18366b19","system_id":"levelo_inurba_marseille","lat":43.29601,"lon":5.381084,"is_reserved":false,"is_disabled":false,"rental_uris":{"android":"levelo://app?vid=ea9f2be5-8fe8-4bfc-99e6-739c18366b19","ios":"levelo://app?vid=ea9f2be5-8fe8-4bfc-99e6-739c18366b19"},"vehicle_type_id":"4","last_reported":1701083163,"current_range_meters":24000,"station_id":"ce4bgl12rcd13ifvqbo0","pricing_plan_id":"free"},{"bike_id":"e423462f-cf0c-4017-b586-a5e670d92311","system_id":"levelo_inurba_marseille","lat":43.29601,"lon":5.381084,"is_reserved":false,"is_disabled":false,"rental_uris":{"android":"levelo://app?vid=e423462f-cf0c-4017-b586-a5e670d92311","ios":"levelo://app?vid=e423462f-cf0c-4017-b586-a5e670d92311"},"vehicle_type_id":"4","last_reported":1701083163,"current_range_meters":3600,"station_id":"ce4bgl12rcd13ifvqbo0","pricing_plan_id":"free"},{"bike_id":"8e1e23a4-ec91-4238-831e-188daa736947","system_id":"levelo_inurba_marseille","lat":43.29602,"lon":5.381084,"is_reserved":false,"is_disabled":false,"rental_uris":{"android":"levelo://app?vid=8e1e23a4-ec91-4238-831e-188daa736947","ios":"levelo://app?vid=8e1e23a4-ec91-4238-831e-188daa736947"},"vehicle_type_id":"4","last_reported":1701083163,"current_range_meters":5200,"station_id":"ce4bgl12rcd13ifvqbo0","pricing_plan_id":"free"},{"bike_id":"ddd61bce-03d4-4f1e-8020-8ef45188a057","system_id":"levelo_inurba_marseille","lat":43.299891,"lon":5.387966,"is_reserved":false,"is_disabled":false,"rental_uris":{"android":"levelo://app?vid=ddd61bce-03d4-4f1e-8020-8ef45188a057","ios":"levelo://app?vid=ddd61bce-03d4-4f1e-8020-8ef45188a057"},"vehicle_type_id":"4","last_reported":1701083163,"current_range_meters":16000,"station_id":"","pricing_plan_id":"free"},{"bike_id":"d10d162f-9ba4-4e17-ba31-8f285633dc5f","system_id":"levelo_inurba_marseille","lat":43.2936,"lon":5.37835,"is_reserved":false,"is_disabled":false,"rental_uris":{"android":"levelo://app?vid=d10d162f-9ba4-4e17-ba31-8f285633dc5f","ios":"levelo://app?vid=d10d162f-9ba4-4e17-ba31-8f285633dc5f"},"vehicle_type_id":"4","last_reported":1701083163,"current_range_meters":26000,"station_id":"ce4bgjh2rcd13ifvqbf0","pricing_plan_id":"free"},{"bike_id":"e03b0c9e-2a5e-46bd-8615-c6dc96d9da62","system_id":"levelo_inurba_marseille","lat":43.2936,"lon":5.37835,"is_reserved":false,"is_disabled":false,"rental_uris":{"android":"levelo://app?vid=e03b0c9e-2a5e-46bd-8615-c6dc96d9da62","ios":"levelo://app?vid=e03b0c9e-2a5e-46bd-8615-c6dc96d9da62"},"vehicle_type_id":"4","last_reported":1701083163,"current_range_meters":15200,"station_id":"ce4bgjh2rcd13ifvqbf0","pricing_plan_id":"free"},{"bike_id":"335aa146-795d-44a9-a093-bc5e6e2e80d9","system_id":"levelo_inurba_marseille","lat":43.2936,"lon":5.37835,"is_reserved":false,"is_disabled":false,"rental_uris":{"android":"levelo://app?vid=335aa146-795d-44a9-a093-bc5e6e2e80d9","ios":"levelo://app?vid=335aa146-795d-44a9-a093-bc5e6e2e80d9"},"vehicle_type_id":"4","last_reported":1701083163,"current_range_meters":19600,"station_id":"ce4bgjh2rcd13ifvqbf0","pricing_plan_id":"free"},{"bike_id":"79bb36da-1a3f-4f26-bb8f-2df9c67b386c","system_id":"levelo_inurba_marseille","lat":43.2922,"lon":5.36047,"is_reserved":false,"is_disabled":false,"rental_uris":{"android":"levelo://app?vid=79bb36da-1a3f-4f26-bb8f-2df9c67b386c","ios":"levelo://app?vid=79bb36da-1a3f-4f26-bb8f-2df9c67b386c"},"vehicle_type_id":"4","last_reported":1701083163,"current_range_meters":26400,"station_id":"ce4bhbh2rcd13ifvqeqg","pricing_plan_id":"free"},{"bike_id":"95ec3e5b-e8b6-429d-8f4d-a50c756ab62c","system_id":"levelo_inurba_marseille","lat":43.292311,"lon":5.360731,"is_reserved":false,"is_disabled":false,"rental_uris":{"android":"levelo://app?vid=95ec3e5b-e8b6-429d-8f4d-a50c756ab62c","ios":"levelo://app?vid=95ec3e5b-e8b6-429d-8f4d-a50c756ab62c"},"vehicle_type_id":"4","last_reported":1701083163,"current_range_meters":23600,"station_id":"ce4bhbh2rcd13ifvqeqg","pricing_plan_id":"free"},{"bike_id":"2b79db7b-4966-4dfe-8f7a-8e5f899632a6","system_id":"levelo_inurba_marseille","lat":43.29266,"lon":5.3762,"is_reserved":false,"is_disabled":false,"rental_uris":{"android":"levelo://app?vid=2b79db7b-4966-4dfe-8f7a-8e5f899632a6","ios":"levelo://app?vid=2b79db7b-4966-4dfe-8f7a-8e5f899632a6"},"vehicle_type_id":"4","last_reported":1701083163,"current_range_meters":21200,"station_id":"ce4bgi12rcd13ifvqb80","pricing_plan_id":"free"},{"bike_id":"6001053d-2edb-4fc9-972d-c9241770c899","system_id":"levelo_inurba_marseille","lat":43.29264,"lon":5.37615,"is_reserved":false,"is_disabled":false,"rental_uris":{"android":"levelo://app?vid=6001053d-2edb-4fc9-972d-c9241770c899","ios":"levelo://app?vid=6001053d-2edb-4fc9-972d-c9241770c899"},"vehicle_type_id":"4","last_reported":1701083163,"current_range_meters":16400,"station_id":"ce4bgi12rcd13ifvqb80","pricing_plan_id":"free"},{"bike_id":"1bbbc5fe-26f2-448a-8b88-d2c29bd374b8","system_id":"levelo_inurba_marseille","lat":43.309038,"lon":5.396546,"is_reserved":false,"is_disabled":false,"rental_uris":{"android":"levelo://app?vid=1bbbc5fe-26f2-448a-8b88-d2c29bd374b8","ios":"levelo://app?vid=1bbbc5fe-26f2-448a-8b88-d2c29bd374b8"},"vehicle_type_id":"4","last_reported":1701083163,"current_range_meters":31200,"station_id":"ce4bh012rcd13ifvqcv0","pricing_plan_id":"free"},{"bike_id":"03f357a9-2e77-4a01-8698-f9148fd5a657","system_id":"levelo_inurba_marseille","lat":43.3088,"lon":5.396313,"is_reserved":false,"is_disabled":false,"rental_uris":{"android":"levelo://app?vid=03f357a9-2e77-4a01-8698-f9148fd5a657","ios":"levelo://app?vid=03f357a9-2e77-4a01-8698-f9148fd5a657"},"vehicle_type_id":"4","last_reported":1701083163,"current_range_meters":28000,"station_id":"ce4bh012rcd13ifvqcv0","pricing_plan_id":"free"},{"bike_id":"c21a8bbc-43ac-46a9-914e-0b35fe90d166","system_id":"levelo_inurba_marseille","lat":43.313291,"lon":5.396838,"is_reserved":false,"is_disabled":false,"rental_uris":{"android":"levelo://app?vid=c21a8bbc-43ac-46a9-914e-0b35fe90d166","ios":"levelo://app?vid=c21a8bbc-43ac-46a9-914e-0b35fe90d166"},"vehicle_type_id":"4","last_reported":1701083163,"current_range_meters":29200,"station_id":"ce4bgvp2rcd13ifvqcu0","pricing_plan_id":"free"},{"bike_id":"fcb88794-d241-418a-bcf5-ad83a8f68995","system_id":"levelo_inurba_marseille","lat":43.309038,"lon":5.396546,"is_reserved":false,"is_disabled":false,"rental_uris":{"android":"levelo://app?vid=fcb88794-d241-418a-bcf5-ad83a8f68995","ios":"levelo://app?vid=fcb88794-d241-418a-bcf5-ad83a8f68995"},"vehicle_type_id":"4","last_reported":1701083163,"current_range_meters":14800,"station_id":"ce4bh012rcd13ifvqcv0","pricing_plan_id":"free"},{"bike_id":"de199e16-449e-4ff8-8a51-952a0e560ba8","system_id":"levelo_inurba_marseille","lat":43.31331,"lon":5.39693,"is_reserved":false,"is_disabled":false,"rental_uris":{"android":"levelo://app?vid=de199e16-449e-4ff8-8a51-952a0e560ba8","ios":"levelo://app?vid=de199e16-449e-4ff8-8a51-952a0e560ba8"},"vehicle_type_id":"4","last_reported":1701083163,"current_range_meters":23600,"station_id":"ce4bgvp2rcd13ifvqcu0","pricing_plan_id":"free"},{"bike_id":"af593931-cc6c-43c2-97c7-5b216682e72e","system_id":"levelo_inurba_marseille","lat":43.31328,"lon":5.39695,"is_reserved":false,"is_disabled":false,"rental_uris":{"android":"levelo://app?vid=af593931-cc6c-43c2-97c7-5b216682e72e","ios":"levelo://app?vid=af593931-cc6c-43c2-97c7-5b216682e72e"},"vehicle_type_id":"4","last_reported":1701083163,"current_range_meters":24800,"station_id":"ce4bgvp2rcd13ifvqcu0","pricing_plan_id":"free"},{"bike_id":"16503674-aaf7-4c40-b903-25bd055f6a5b","system_id":"levelo_inurba_marseille","lat":43.31324,"lon":5.39697,"is_reserved":false,"is_disabled":false,"rental_uris":{"android":"levelo://app?vid=16503674-aaf7-4c40-b903-25bd055f6a5b","ios":"levelo://app?vid=16503674-aaf7-4c40-b903-25bd055f6a5b"},"vehicle_type_id":"4","last_reported":1701083163,"current_range_meters":14800,"station_id":"ce4bgvp2rcd13ifvqcu0","pricing_plan_id":"free"},{"bike_id":"4bd7dc38-06e7-4dac-9d75-e6664204b34f","system_id":"levelo_inurba_marseille","lat":43.31324,"lon":5.397,"is_reserved":false,"is_disabled":false,"rental_uris":{"android":"levelo://app?vid=4bd7dc38-06e7-4dac-9d75-e6664204b34f","ios":"levelo://app?vid=4bd7dc38-06e7-4dac-9d75-e6664204b34f"},"vehicle_type_id":"4","last_reported":1701083163,"current_range_meters":30000,"station_id":"ce4bgvp2rcd13ifvqcu0","pricing_plan_id":"free"},{"bike_id":"22abe3a2-92b2-4ff6-bae1-431ffb28d032","system_id":"levelo_inurba_marseille","lat":43.294153,"lon":5.386305,"is_reserved":false,"is_disabled":false,"rental_uris":{"android":"levelo://app?vid=22abe3a2-92b2-4ff6-bae1-431ffb28d032","ios":"levelo://app?vid=22abe3a2-92b2-4ff6-bae1-431ffb28d032"},"vehicle_type_id":"4","last_reported":1701083163,"current_range_meters":21600,"station_id":"ce4bh2h2rcd13ifvqdh0","pricing_plan_id":"free"},{"bike_id":"7ef5ff33-cc18-4fc8-b360-01c1af6123c2","system_id":"levelo_inurba_marseille","lat":43.294162,"lon":5.386292,"is_reserved":false,"is_disabled":false,"rental_uris":{"android":"levelo://app?vid=7ef5ff33-cc18-4fc8-b360-01c1af6123c2","ios":"levelo://app?vid=7ef5ff33-cc18-4fc8-b360-01c1af6123c2"},"vehicle_type_id":"4","last_reported":1701083163,"current_range_meters":10800,"station_id":"ce4bh2h2rcd13ifvqdh0","pricing_plan_id":"free"},{"bike_id":"eca77490-eddd-4b98-b08c-aa9b58bce88a","system_id":"levelo_inurba_marseille","lat":43.290327,"lon":5.375711,"is_reserved":false,"is_disabled":false,"rental_uris":{"android":"levelo://app?vid=eca77490-eddd-4b98-b08c-aa9b58bce88a","ios":"levelo://app?vid=eca77490-eddd-4b98-b08c-aa9b58bce88a"},"vehicle_type_id":"4","last_reported":1701083163,"current_range_meters":29600,"station_id":"ce4bh692rcd13ifvqe90","pricing_plan_id":"free"},{"bike_id":"53fd8a38-9bc7-45df-81f7-54483d4c69ae","system_id":"levelo_inurba_marseille","lat":43.289184,"lon":5.366408,"is_reserved":false,"is_disabled":false,"rental_uris":{"android":"levelo://app?vid=53fd8a38-9bc7-45df-81f7-54483d4c69ae","ios":"levelo://app?vid=53fd8a38-9bc7-45df-81f7-54483d4c69ae"},"vehicle_type_id":"4","last_reported":1701083163,"current_range_meters":17600,"station_id":"ce4bhap2rcd13ifvqek0","pricing_plan_id":"free"},{"bike_id":"deee9cb4-ab81-494b-b5fe-ce6c5a85587e","system_id":"levelo_inurba_marseille","lat":43.289184,"lon":5.366408,"is_reserved":false,"is_disabled":false,"rental_uris":{"android":"levelo://app?vid=deee9cb4-ab81-494b-b5fe-ce6c5a85587e","ios":"levelo://app?vid=deee9cb4-ab81-494b-b5fe-ce6c5a85587e"},"vehicle_type_id":"4","last_reported":1701083163,"current_range_meters":23200,"station_id":"ce4bhap2rcd13ifvqek0","pricing_plan_id":"free"},{"bike_id":"7f29f1ce-ffa4-4c61-9135-215ba876d3f4","system_id":"levelo_inurba_marseille","lat":43.3304,"lon":5.38921,"is_reserved":false,"is_disabled":false,"rental_uris":{"android":"levelo://app?vid=7f29f1ce-ffa4-4c61-9135-215ba876d3f4","ios":"levelo://app?vid=7f29f1ce-ffa4-4c61-9135-215ba876d3f4"},"vehicle_type_id":"4","last_reported":1701083163,"current_range_meters":14400,"station_id":"ce4bhr92rcd13ifvqhrg","pricing_plan_id":"free"},{"bike_id":"2af8dab9-23cc-441a-bc82-606a64cc8d2c","system_id":"levelo_inurba_marseille","lat":43.289741,"lon":5.378306,"is_reserved":false,"is_disabled":false,"rental_uris":{"android":"levelo://app?vid=2af8dab9-23cc-441a-bc82-606a64cc8d2c","ios":"levelo://app?vid=2af8dab9-23cc-441a-bc82-606a64cc8d2c"},"vehicle_type_id":"4","last_reported":1701083163,"current_range_meters":12400,"station_id":"ce4bh9p2rcd13ifvqed0","pricing_plan_id":"free"},{"bike_id":"ae820d4a-03f5-4d9b-8d01-e9ef48fb6ce7","system_id":"levelo_inurba_marseille","lat":43.309371,"lon":5.401449,"is_reserved":false,"is_disabled":false,"rental_uris":{"android":"levelo://app?vid=ae820d4a-03f5-4d9b-8d01-e9ef48fb6ce7","ios":"levelo://app?vid=ae820d4a-03f5-4d9b-8d01-e9ef48fb6ce7"},"vehicle_type_id":"4","last_reported":1701083163,"current_range_meters":16400,"station_id":"ce4bgvp2rcd13ifvqct0","pricing_plan_id":"free"},{"bike_id":"77b92ada-9f5a-471f-b1c7-4268607d94af","system_id":"levelo_inurba_marseille","lat":43.301117,"lon":5.398795,"is_reserved":false,"is_disabled":false,"rental_uris":{"android":"levelo://app?vid=77b92ada-9f5a-471f-b1c7-4268607d94af","ios":"levelo://app?vid=77b92ada-9f5a-471f-b1c7-4268607d94af"},"vehicle_type_id":"4","last_reported":1701083163,"current_range_meters":28400,"station_id":"ce4bh0h2rcd13ifvqd40","pricing_plan_id":"free"},{"bike_id":"c9a5158a-7209-46b9-8bc2-7e9c7bd2d8c5","system_id":"levelo_inurba_marseille","lat":43.301117,"lon":5.398795,"is_reserved":false,"is_disabled":false,"rental_uris":{"android":"levelo://app?vid=c9a5158a-7209-46b9-8bc2-7e9c7bd2d8c5","ios":"levelo://app?vid=c9a5158a-7209-46b9-8bc2-7e9c7bd2d8c5"},"vehicle_type_id":"4","last_reported":1701083163,"current_range_meters":30000,"station_id":"ce4bh0h2rcd13ifvqd40","pricing_plan_id":"free"},{"bike_id":"0ff10321-edf2-48af-857b-e4b33b4534ba","system_id":"levelo_inurba_marseille","lat":43.301117,"lon":5.398795,"is_reserved":false,"is_disabled":false,"rental_uris":{"android":"levelo://app?vid=0ff10321-edf2-48af-857b-e4b33b4534ba","ios":"levelo://app?vid=0ff10321-edf2-48af-857b-e4b33b4534ba"},"vehicle_type_id":"4","last_reported":1701083163,"current_range_meters":27200,"station_id":"ce4bh0h2rcd13ifvqd40","pricing_plan_id":"free"},{"bike_id":"ed994430-9391-4677-9c3d-12dbfddb3a4a","system_id":"levelo_inurba_marseille","lat":43.298681,"lon":5.397225,"is_reserved":false,"is_disabled":false,"rental_uris":{"android":"levelo://app?vid=ed994430-9391-4677-9c3d-12dbfddb3a4a","ios":"levelo://app?vid=ed994430-9391-4677-9c3d-12dbfddb3a4a"},"vehicle_type_id":"4","last_reported":1701083163,"current_range_meters":27200,"station_id":"ce4bh0h2rcd13ifvqd50","pricing_plan_id":"free"},{"bike_id":"ec115cbb-d116-449d-b46c-c7f9f1a3bfb7","system_id":"levelo_inurba_marseille","lat":43.302759,"lon":5.400793,"is_reserved":false,"is_disabled":false,"rental_uris":{"android":"levelo://app?vid=ec115cbb-d116-449d-b46c-c7f9f1a3bfb7","ios":"levelo://app?vid=ec115cbb-d116-449d-b46c-c7f9f1a3bfb7"},"vehicle_type_id":"4","last_reported":1701083163,"current_range_meters":28800,"station_id":"ce4bgvh2rcd13ifvqcs0","pricing_plan_id":"free"},{"bike_id":"42089b03-6411-4d4e-af8b-0bf22e5ae6ee","system_id":"levelo_inurba_marseille","lat":43.286024,"lon":5.370646,"is_reserved":false,"is_disabled":false,"rental_uris":{"android":"levelo://app?vid=42089b03-6411-4d4e-af8b-0bf22e5ae6ee","ios":"levelo://app?vid=42089b03-6411-4d4e-af8b-0bf22e5ae6ee"},"vehicle_type_id":"4","last_reported":1701083163,"current_range_meters":20800,"station_id":"ce4bht12rcd13ifvqi60","pricing_plan_id":"free"},{"bike_id":"85f46524-4e8b-48dc-aa01-69f773c1fe3e","system_id":"levelo_inurba_marseille","lat":43.291994,"lon":5.392907,"is_reserved":false,"is_disabled":false,"rental_uris":{"android":"levelo://app?vid=85f46524-4e8b-48dc-aa01-69f773c1fe3e","ios":"levelo://app?vid=85f46524-4e8b-48dc-aa01-69f773c1fe3e"},"vehicle_type_id":"4","last_reported":1701083163,"current_range_meters":4000,"station_id":"ce4bh192rcd13ifvqdd0","pricing_plan_id":"free"},{"bike_id":"125378e4-688e-4ac0-9d09-afdcdb362b15","system_id":"levelo_inurba_marseille","lat":43.294314,"lon":5.397498,"is_reserved":false,"is_disabled":false,"rental_uris":{"android":"levelo://app?vid=125378e4-688e-4ac0-9d09-afdcdb362b15","ios":"levelo://app?vid=125378e4-688e-4ac0-9d09-afdcdb362b15"},"vehicle_type_id":"4","last_reported":1701083163,"current_range_meters":27600,"station_id":"ce4bh3h2rcd13ifvqdo0","pricing_plan_id":"free"},{"bike_id":"6011775b-580e-47ab-a440-d38d142f5e03","system_id":"levelo_inurba_marseille","lat":43.295713,"lon":5.399639,"is_reserved":false,"is_disabled":false,"rental_uris":{"android":"levelo://app?vid=6011775b-580e-47ab-a440-d38d142f5e03","ios":"levelo://app?vid=6011775b-580e-47ab-a440-d38d142f5e03"},"vehicle_type_id":"4","last_reported":1701083163,"current_range_meters":11600,"station_id":"ce4bh312rcd13ifvqdj0","pricing_plan_id":"free"},{"bike_id":"8c9e9cd8-5f57-4ab0-b667-722229239e81","system_id":"levelo_inurba_marseille","lat":43.319179,"lon":5.407725,"is_reserved":false,"is_disabled":false,"rental_uris":{"android":"levelo://app?vid=8c9e9cd8-5f57-4ab0-b667-722229239e81","ios":"levelo://app?vid=8c9e9cd8-5f57-4ab0-b667-722229239e81"},"vehicle_type_id":"4","last_reported":1701083163,"current_range_meters":12800,"station_id":"ce4bhq12rcd13ifvqhig","pricing_plan_id":"free"},{"bike_id":"046b7a57-d5c8-4513-8038-799f881a3bbd","system_id":"levelo_inurba_marseille","lat":43.337168,"lon":5.391825,"is_reserved":false,"is_disabled":false,"rental_uris":{"android":"levelo://app?vid=046b7a57-d5c8-4513-8038-799f881a3bbd","ios":"levelo://app?vid=046b7a57-d5c8-4513-8038-799f881a3bbd"},"vehicle_type_id":"4","last_reported":1701083163,"current_range_meters":20000,"station_id":"ce4bhr92rcd13ifvqhsg","pricing_plan_id":"free"},{"bike_id":"f534b3b9-3a61-4a82-b5b6-e81a5baa0d45","system_id":"levelo_inurba_marseille","lat":43.28472,"lon":5.38406,"is_reserved":false,"is_disabled":false,"rental_uris":{"android":"levelo://app?vid=f534b3b9-3a61-4a82-b5b6-e81a5baa0d45","ios":"levelo://app?vid=f534b3b9-3a61-4a82-b5b6-e81a5baa0d45"},"vehicle_type_id":"4","last_reported":1701083163,"current_range_meters":22400,"station_id":"ce4bh512rcd13ifvqe3g","pricing_plan_id":"free"},{"bike_id":"c63afaa6-d592-49da-98f2-2e3ca4a0f0c3","system_id":"levelo_inurba_marseille","lat":43.28472,"lon":5.38407,"is_reserved":false,"is_disabled":false,"rental_uris":{"android":"levelo://app?vid=c63afaa6-d592-49da-98f2-2e3ca4a0f0c3","ios":"levelo://app?vid=c63afaa6-d592-49da-98f2-2e3ca4a0f0c3"},"vehicle_type_id":"4","last_reported":1701083163,"current_range_meters":10400,"station_id":"ce4bh512rcd13ifvqe3g","pricing_plan_id":"free"},{"bike_id":"e2284003-4e46-4e0a-93e7-73d05c3666d9","system_id":"levelo_inurba_marseille","lat":43.33508,"lon":5.397755,"is_reserved":false,"is_disabled":false,"rental_uris":{"android":"levelo://app?vid=e2284003-4e46-4e0a-93e7-73d05c3666d9","ios":"levelo://app?vid=e2284003-4e46-4e0a-93e7-73d05c3666d9"},"vehicle_type_id":"4","last_reported":1701083163,"current_range_meters":15200,"station_id":"","pricing_plan_id":"free"},{"bike_id":"d701ea87-f19b-4559-a125-98b538abde99","system_id":"levelo_inurba_marseille","lat":43.292724,"lon":5.401131,"is_reserved":false,"is_disabled":false,"rental_uris":{"android":"levelo://app?vid=d701ea87-f19b-4559-a125-98b538abde99","ios":"levelo://app?vid=d701ea87-f19b-4559-a125-98b538abde99"},"vehicle_type_id":"4","last_reported":1701083163,"current_range_meters":16000,"station_id":"ce4bh312rcd13ifvqdk0","pricing_plan_id":"free"},{"bike_id":"40dd487e-37b4-45f2-b489-c1f1db1cb705","system_id":"levelo_inurba_marseille","lat":43.292724,"lon":5.401131,"is_reserved":false,"is_disabled":false,"rental_uris":{"android":"levelo://app?vid=40dd487e-37b4-45f2-b489-c1f1db1cb705","ios":"levelo://app?vid=40dd487e-37b4-45f2-b489-c1f1db1cb705"},"vehicle_type_id":"4","last_reported":1701083163,"current_range_meters":24800,"station_id":"ce4bh312rcd13ifvqdk0","pricing_plan_id":"free"},{"bike_id":"16a97055-dbd6-44c0-9a19-9feee5927bfe","system_id":"levelo_inurba_marseille","lat":43.282703,"lon":5.35064,"is_reserved":false,"is_disabled":false,"rental_uris":{"android":"levelo://app?vid=16a97055-dbd6-44c0-9a19-9feee5927bfe","ios":"levelo://app?vid=16a97055-dbd6-44c0-9a19-9feee5927bfe"},"vehicle_type_id":"4","last_reported":1701083163,"current_range_meters":20000,"station_id":"ce4bhbp2rcd13ifvqerg","pricing_plan_id":"free"},{"bike_id":"d7e8e480-6499-4a55-92d6-79ba2fd4c926","system_id":"levelo_inurba_marseille","lat":43.282744,"lon":5.350533,"is_reserved":false,"is_disabled":false,"rental_uris":{"android":"levelo://app?vid=d7e8e480-6499-4a55-92d6-79ba2fd4c926","ios":"levelo://app?vid=d7e8e480-6499-4a55-92d6-79ba2fd4c926"},"vehicle_type_id":"4","last_reported":1701083163,"current_range_meters":22400,"station_id":"ce4bhbp2rcd13ifvqerg","pricing_plan_id":"free"},{"bike_id":"6c6d33cd-536e-4036-8c7b-f5e54b7c705d","system_id":"levelo_inurba_marseille","lat":43.282754,"lon":5.350519,"is_reserved":false,"is_disabled":false,"rental_uris":{"android":"levelo://app?vid=6c6d33cd-536e-4036-8c7b-f5e54b7c705d","ios":"levelo://app?vid=6c6d33cd-536e-4036-8c7b-f5e54b7c705d"},"vehicle_type_id":"4","last_reported":1701083163,"current_range_meters":24400,"station_id":"ce4bhbp2rcd13ifvqerg","pricing_plan_id":"free"},{"bike_id":"f7e47dd0-9175-4459-bf6c-3fc376e3be8f","system_id":"levelo_inurba_marseille","lat":43.282754,"lon":5.350519,"is_reserved":false,"is_disabled":false,"rental_uris":{"android":"levelo://app?vid=f7e47dd0-9175-4459-bf6c-3fc376e3be8f","ios":"levelo://app?vid=f7e47dd0-9175-4459-bf6c-3fc376e3be8f"},"vehicle_type_id":"4","last_reported":1701083163,"current_range_meters":24000,"station_id":"ce4bhbp2rcd13ifvqerg","pricing_plan_id":"free"},{"bike_id":"af636417-beb7-4375-b4a3-388b5fecdce1","system_id":"levelo_inurba_marseille","lat":43.282754,"lon":5.350519,"is_reserved":false,"is_disabled":false,"rental_uris":{"android":"levelo://app?vid=af636417-beb7-4375-b4a3-388b5fecdce1","ios":"levelo://app?vid=af636417-beb7-4375-b4a3-388b5fecdce1"},"vehicle_type_id":"4","last_reported":1701083163,"current_range_meters":16000,"station_id":"ce4bhbp2rcd13ifvqerg","pricing_plan_id":"free"},{"bike_id":"87cfdc82-71fe-4a2b-a965-dd7cb419b6e5","system_id":"levelo_inurba_marseille","lat":43.282754,"lon":5.350519,"is_reserved":false,"is_disabled":false,"rental_uris":{"android":"levelo://app?vid=87cfdc82-71fe-4a2b-a965-dd7cb419b6e5","ios":"levelo://app?vid=87cfdc82-71fe-4a2b-a965-dd7cb419b6e5"},"vehicle_type_id":"4","last_reported":1701083163,"current_range_meters":22400,"station_id":"ce4bhbp2rcd13ifvqerg","pricing_plan_id":"free"},{"bike_id":"afaa3978-337d-42bd-ac29-778f821e7594","system_id":"levelo_inurba_marseille","lat":43.29037,"lon":5.399755,"is_reserved":false,"is_disabled":false,"rental_uris":{"android":"levelo://app?vid=afaa3978-337d-42bd-ac29-778f821e7594","ios":"levelo://app?vid=afaa3978-337d-42bd-ac29-778f821e7594"},"vehicle_type_id":"4","last_reported":1701083163,"current_range_meters":0,"station_id":"ce4bh392rcd13ifvqdm0","pricing_plan_id":"free"},{"bike_id":"db1fce57-524e-4cfc-8d1d-f0834f437f36","system_id":"levelo_inurba_marseille","lat":43.296263,"lon":5.40601,"is_reserved":false,"is_disabled":false,"rental_uris":{"android":"levelo://app?vid=db1fce57-524e-4cfc-8d1d-f0834f437f36","ios":"levelo://app?vid=db1fce57-524e-4cfc-8d1d-f0834f437f36"},"vehicle_type_id":"4","last_reported":1701083163,"current_range_meters":24800,"station_id":"ce4bh0h2rcd13ifvqd60","pricing_plan_id":"free"},{"bike_id":"ca1fdd0a-b1cb-4d74-b5eb-2947e2baaec3","system_id":"levelo_inurba_marseille","lat":43.281044,"lon":5.378308,"is_reserved":false,"is_disabled":false,"rental_uris":{"android":"levelo://app?vid=ca1fdd0a-b1cb-4d74-b5eb-2947e2baaec3","ios":"levelo://app?vid=ca1fdd0a-b1cb-4d74-b5eb-2947e2baaec3"},"vehicle_type_id":"4","last_reported":1701083163,"current_range_meters":19200,"station_id":"ce4bha12rcd13ifvqee0","pricing_plan_id":"free"},{"bike_id":"a0831dfa-7767-4554-95f8-56d5d3183c31","system_id":"levelo_inurba_marseille","lat":43.326605,"lon":5.409903,"is_reserved":false,"is_disabled":false,"rental_uris":{"android":"levelo://app?vid=a0831dfa-7767-4554-95f8-56d5d3183c31","ios":"levelo://app?vid=a0831dfa-7767-4554-95f8-56d5d3183c31"},"vehicle_type_id":"4","last_reported":1701083163,"current_range_meters":31200,"station_id":"ce4bhpp2rcd13ifvqhgg","pricing_plan_id":"free"},{"bike_id":"c103b530-9c6d-4ac7-adf6-4ae019cb5aa9","system_id":"levelo_inurba_marseille","lat":43.29958,"lon":5.41317,"is_reserved":false,"is_disabled":false,"rental_uris":{"android":"levelo://app?vid=c103b530-9c6d-4ac7-adf6-4ae019cb5aa9","ios":"levelo://app?vid=c103b530-9c6d-4ac7-adf6-4ae019cb5aa9"},"vehicle_type_id":"4","last_reported":1701083163,"current_range_meters":30000,"station_id":"ce4bhp12rcd13ifvqh9g","pricing_plan_id":"free"},{"bike_id":"07494236-0f36-4a8a-990c-6daf42d3b07e","system_id":"levelo_inurba_marseille","lat":43.320045,"lon":5.415048,"is_reserved":false,"is_disabled":false,"rental_uris":{"android":"levelo://app?vid=07494236-0f36-4a8a-990c-6daf42d3b07e","ios":"levelo://app?vid=07494236-0f36-4a8a-990c-6daf42d3b07e"},"vehicle_type_id":"4","last_reported":1701083163,"current_range_meters":31200,"station_id":"ce4bhq92rcd13ifvqhkg","pricing_plan_id":"free"},{"bike_id":"8926dd54-72ef-4aa7-ac8a-d645997aec63","system_id":"levelo_inurba_marseille","lat":43.320045,"lon":5.415048,"is_reserved":false,"is_disabled":false,"rental_uris":{"android":"levelo://app?vid=8926dd54-72ef-4aa7-ac8a-d645997aec63","ios":"levelo://app?vid=8926dd54-72ef-4aa7-ac8a-d645997aec63"},"vehicle_type_id":"4","last_reported":1701083163,"current_range_meters":25200,"station_id":"ce4bhq92rcd13ifvqhkg","pricing_plan_id":"free"},{"bike_id":"6526cad1-2f4b-4db1-8d6b-ce04bc407b31","system_id":"levelo_inurba_marseille","lat":43.34883,"lon":5.37501,"is_reserved":false,"is_disabled":false,"rental_uris":{"android":"levelo://app?vid=6526cad1-2f4b-4db1-8d6b-ce04bc407b31","ios":"levelo://app?vid=6526cad1-2f4b-4db1-8d6b-ce04bc407b31"},"vehicle_type_id":"4","last_reported":1701083163,"current_range_meters":0,"station_id":"","pricing_plan_id":"free"},{"bike_id":"7e2d48f2-e932-4325-8443-338bec787538","system_id":"levelo_inurba_marseille","lat":43.325233,"lon":5.414318,"is_reserved":false,"is_disabled":false,"rental_uris":{"android":"levelo://app?vid=7e2d48f2-e932-4325-8443-338bec787538","ios":"levelo://app?vid=7e2d48f2-e932-4325-8443-338bec787538"},"vehicle_type_id":"4","last_reported":1701083163,"current_range_meters":30800,"station_id":"ce4bhq12rcd13ifvqhhg","pricing_plan_id":"free"},{"bike_id":"bf4eb13f-cbea-42d7-8dc7-4fac53914e76","system_id":"levelo_inurba_marseille","lat":43.325233,"lon":5.414318,"is_reserved":false,"is_disabled":false,"rental_uris":{"android":"levelo://app?vid=bf4eb13f-cbea-42d7-8dc7-4fac53914e76","ios":"levelo://app?vid=bf4eb13f-cbea-42d7-8dc7-4fac53914e76"},"vehicle_type_id":"4","last_reported":1701083163,"current_range_meters":14800,"station_id":"ce4bhq12rcd13ifvqhhg","pricing_plan_id":"free"},{"bike_id":"bbdb5489-40fe-4cfd-a58b-8a8da0ade43b","system_id":"levelo_inurba_marseille","lat":43.325233,"lon":5.414318,"is_reserved":false,"is_disabled":false,"rental_uris":{"android":"levelo://app?vid=bbdb5489-40fe-4cfd-a58b-8a8da0ade43b","ios":"levelo://app?vid=bbdb5489-40fe-4cfd-a58b-8a8da0ade43b"},"vehicle_type_id":"4","last_reported":1701083163,"current_range_meters":400,"station_id":"ce4bhq12rcd13ifvqhhg","pricing_plan_id":"free"},{"bike_id":"be9690c5-c7a1-4c76-a31f-e0ecc29f7955","system_id":"levelo_inurba_marseille","lat":43.28081,"lon":5.39662,"is_reserved":false,"is_disabled":false,"rental_uris":{"android":"levelo://app?vid=be9690c5-c7a1-4c76-a31f-e0ecc29f7955","ios":"levelo://app?vid=be9690c5-c7a1-4c76-a31f-e0ecc29f7955"},"vehicle_type_id":"4","last_reported":1701083163,"current_range_meters":14400,"station_id":"ce4bho12rcd13ifvqh2g","pricing_plan_id":"free"},{"bike_id":"365bb097-7fb7-460a-8b29-58b51680ab59","system_id":"levelo_inurba_marseille","lat":43.303837,"lon":5.418724,"is_reserved":false,"is_disabled":false,"rental_uris":{"android":"levelo://app?vid=365bb097-7fb7-460a-8b29-58b51680ab59","ios":"levelo://app?vid=365bb097-7fb7-460a-8b29-58b51680ab59"},"vehicle_type_id":"4","last_reported":1701083163,"current_range_meters":17600,"station_id":"ce4bhop2rcd13ifvqh7g","pricing_plan_id":"free"},{"bike_id":"c52bc606-e473-41e0-b019-eee382315cd7","system_id":"levelo_inurba_marseille","lat":43.278401,"lon":5.392152,"is_reserved":false,"is_disabled":false,"rental_uris":{"android":"levelo://app?vid=c52bc606-e473-41e0-b019-eee382315cd7","ios":"levelo://app?vid=c52bc606-e473-41e0-b019-eee382315cd7"},"vehicle_type_id":"4","last_reported":1701083163,"current_range_meters":21600,"station_id":"ce4bhjp2rcd13ifvqga0","pricing_plan_id":"free"},{"bike_id":"e8c5e820-8807-4563-b67f-96934be52191","system_id":"levelo_inurba_marseille","lat":43.278399,"lon":5.392139,"is_reserved":false,"is_disabled":false,"rental_uris":{"android":"levelo://app?vid=e8c5e820-8807-4563-b67f-96934be52191","ios":"levelo://app?vid=e8c5e820-8807-4563-b67f-96934be52191"},"vehicle_type_id":"4","last_reported":1701083163,"current_range_meters":24400,"station_id":"ce4bhjp2rcd13ifvqga0","pricing_plan_id":"free"},{"bike_id":"959a9a8d-b7e8-461b-aef4-eeff803564a4","system_id":"levelo_inurba_marseille","lat":43.33612,"lon":5.410321,"is_reserved":false,"is_disabled":false,"rental_uris":{"android":"levelo://app?vid=959a9a8d-b7e8-461b-aef4-eeff803564a4","ios":"levelo://app?vid=959a9a8d-b7e8-461b-aef4-eeff803564a4"},"vehicle_type_id":"4","last_reported":1701083163,"current_range_meters":2400,"station_id":"ce4bhqh2rcd13ifvqhmg","pricing_plan_id":"free"},{"bike_id":"529e1873-c67a-49df-a3f5-37d727adbcee","system_id":"levelo_inurba_marseille","lat":43.273613,"lon":5.362705,"is_reserved":false,"is_disabled":false,"rental_uris":{"android":"levelo://app?vid=529e1873-c67a-49df-a3f5-37d727adbcee","ios":"levelo://app?vid=529e1873-c67a-49df-a3f5-37d727adbcee"},"vehicle_type_id":"4","last_reported":1701083163,"current_range_meters":16400,"station_id":"ce4bhbh2rcd13ifvqeo0","pricing_plan_id":"free"},{"bike_id":"5e4dd1ba-0dc9-4649-b814-2845b724eaa8","system_id":"levelo_inurba_marseille","lat":43.273613,"lon":5.362705,"is_reserved":false,"is_disabled":false,"rental_uris":{"android":"levelo://app?vid=5e4dd1ba-0dc9-4649-b814-2845b724eaa8","ios":"levelo://app?vid=5e4dd1ba-0dc9-4649-b814-2845b724eaa8"},"vehicle_type_id":"4","last_reported":1701083163,"current_range_meters":22800,"station_id":"ce4bhbh2rcd13ifvqeo0","pricing_plan_id":"free"},{"bike_id":"15b1db88-f52a-4a09-b656-2d2992bda02d","system_id":"levelo_inurba_marseille","lat":43.275625,"lon":5.384392,"is_reserved":false,"is_disabled":false,"rental_uris":{"android":"levelo://app?vid=15b1db88-f52a-4a09-b656-2d2992bda02d","ios":"levelo://app?vid=15b1db88-f52a-4a09-b656-2d2992bda02d"},"vehicle_type_id":"4","last_reported":1701083163,"current_range_meters":30000,"station_id":"ce4bhh92rcd13ifvqfi0","pricing_plan_id":"free"},{"bike_id":"43a0b753-fb47-4881-91d9-d29a0815f06e","system_id":"levelo_inurba_marseille","lat":43.273609,"lon":5.362708,"is_reserved":false,"is_disabled":false,"rental_uris":{"android":"levelo://app?vid=43a0b753-fb47-4881-91d9-d29a0815f06e","ios":"levelo://app?vid=43a0b753-fb47-4881-91d9-d29a0815f06e"},"vehicle_type_id":"4","last_reported":1701083163,"current_range_meters":30000,"station_id":"ce4bhbh2rcd13ifvqeo0","pricing_plan_id":"free"},{"bike_id":"10ef5e8d-e710-433e-8260-44191e4a0a89","system_id":"levelo_inurba_marseille","lat":43.27372,"lon":5.3626,"is_reserved":false,"is_disabled":false,"rental_uris":{"android":"levelo://app?vid=10ef5e8d-e710-433e-8260-44191e4a0a89","ios":"levelo://app?vid=10ef5e8d-e710-433e-8260-44191e4a0a89"},"vehicle_type_id":"4","last_reported":1701083163,"current_range_meters":22000,"station_id":"ce4bhbh2rcd13ifvqeo0","pricing_plan_id":"free"},{"bike_id":"cabc1c47-d30a-47b0-b1d4-453bc16a89d7","system_id":"levelo_inurba_marseille","lat":43.275625,"lon":5.384392,"is_reserved":false,"is_disabled":false,"rental_uris":{"android":"levelo://app?vid=cabc1c47-d30a-47b0-b1d4-453bc16a89d7","ios":"levelo://app?vid=cabc1c47-d30a-47b0-b1d4-453bc16a89d7"},"vehicle_type_id":"4","last_reported":1701083163,"current_range_meters":20800,"station_id":"ce4bhh92rcd13ifvqfi0","pricing_plan_id":"free"},{"bike_id":"762a2d7a-e8cf-423b-a632-8002c3ad8f77","system_id":"levelo_inurba_marseille","lat":43.33612,"lon":5.410321,"is_reserved":false,"is_disabled":false,"rental_uris":{"android":"levelo://app?vid=762a2d7a-e8cf-423b-a632-8002c3ad8f77","ios":"levelo://app?vid=762a2d7a-e8cf-423b-a632-8002c3ad8f77"},"vehicle_type_id":"4","last_reported":1701083163,"current_range_meters":20400,"station_id":"ce4bhqh2rcd13ifvqhmg","pricing_plan_id":"free"},{"bike_id":"4f77d8aa-8cd2-4738-8736-452d5e520a45","system_id":"levelo_inurba_marseille","lat":43.33612,"lon":5.410321,"is_reserved":false,"is_disabled":false,"rental_uris":{"android":"levelo://app?vid=4f77d8aa-8cd2-4738-8736-452d5e520a45","ios":"levelo://app?vid=4f77d8aa-8cd2-4738-8736-452d5e520a45"},"vehicle_type_id":"4","last_reported":1701083163,"current_range_meters":31200,"station_id":"ce4bhqh2rcd13ifvqhmg","pricing_plan_id":"free"},{"bike_id":"b38ffad7-134a-40fa-bc8b-31f1166191a4","system_id":"levelo_inurba_marseille","lat":43.336134,"lon":5.410341,"is_reserved":false,"is_disabled":false,"rental_uris":{"android":"levelo://app?vid=b38ffad7-134a-40fa-bc8b-31f1166191a4","ios":"levelo://app?vid=b38ffad7-134a-40fa-bc8b-31f1166191a4"},"vehicle_type_id":"4","last_reported":1701083163,"current_range_meters":23600,"station_id":"ce4bhqh2rcd13ifvqhmg","pricing_plan_id":"free"},{"bike_id":"0eeae51c-7855-4686-ba49-5a63463d5444","system_id":"levelo_inurba_marseille","lat":43.33612,"lon":5.410321,"is_reserved":false,"is_disabled":false,"rental_uris":{"android":"levelo://app?vid=0eeae51c-7855-4686-ba49-5a63463d5444","ios":"levelo://app?vid=0eeae51c-7855-4686-ba49-5a63463d5444"},"vehicle_type_id":"4","last_reported":1701083163,"current_range_meters":31200,"station_id":"ce4bhqh2rcd13ifvqhmg","pricing_plan_id":"free"},{"bike_id":"bfa1e049-5f4d-48af-9a2f-d56a70573085","system_id":"levelo_inurba_marseille","lat":43.28,"lon":5.40007,"is_reserved":false,"is_disabled":false,"rental_uris":{"android":"levelo://app?vid=bfa1e049-5f4d-48af-9a2f-d56a70573085","ios":"levelo://app?vid=bfa1e049-5f4d-48af-9a2f-d56a70573085"},"vehicle_type_id":"4","last_reported":1701083163,"current_range_meters":28000,"station_id":"ce4bho92rcd13ifvqh4g","pricing_plan_id":"free"},{"bike_id":"82b5bb96-6569-4927-a4d2-f1faee99f1b8","system_id":"levelo_inurba_marseille","lat":43.340804,"lon":5.410219,"is_reserved":false,"is_disabled":false,"rental_uris":{"android":"levelo://app?vid=82b5bb96-6569-4927-a4d2-f1faee99f1b8","ios":"levelo://app?vid=82b5bb96-6569-4927-a4d2-f1faee99f1b8"},"vehicle_type_id":"4","last_reported":1701083163,"current_range_meters":28400,"station_id":"ce4bhqh2rcd13ifvqhlg","pricing_plan_id":"free"},{"bike_id":"296ba10b-0b9e-40a0-8499-92ee86de0c54","system_id":"levelo_inurba_marseille","lat":43.273125,"lon":5.390731,"is_reserved":false,"is_disabled":false,"rental_uris":{"android":"levelo://app?vid=296ba10b-0b9e-40a0-8499-92ee86de0c54","ios":"levelo://app?vid=296ba10b-0b9e-40a0-8499-92ee86de0c54"},"vehicle_type_id":"4","last_reported":1701083163,"current_range_meters":22000,"station_id":"ce4bhgp2rcd13ifvqfe0","pricing_plan_id":"free"},{"bike_id":"8e3f86f1-1a89-4963-8ab3-649d6d1a4e3e","system_id":"levelo_inurba_marseille","lat":43.274103,"lon":5.394016,"is_reserved":false,"is_disabled":false,"rental_uris":{"android":"levelo://app?vid=8e3f86f1-1a89-4963-8ab3-649d6d1a4e3e","ios":"levelo://app?vid=8e3f86f1-1a89-4963-8ab3-649d6d1a4e3e"},"vehicle_type_id":"4","last_reported":1701083163,"current_range_meters":29200,"station_id":"ce4bhdp2rcd13ifvqf20","pricing_plan_id":"free"},{"bike_id":"cd420afb-1e32-4800-a13e-d559c5cbee8a","system_id":"levelo_inurba_marseille","lat":43.273129,"lon":5.390725,"is_reserved":false,"is_disabled":false,"rental_uris":{"android":"levelo://app?vid=cd420afb-1e32-4800-a13e-d559c5cbee8a","ios":"levelo://app?vid=cd420afb-1e32-4800-a13e-d559c5cbee8a"},"vehicle_type_id":"4","last_reported":1701083163,"current_range_meters":19200,"station_id":"ce4bhgp2rcd13ifvqfe0","pricing_plan_id":"free"},{"bike_id":"47291279-5839-4e5b-8d1f-009cfd3586c4","system_id":"levelo_inurba_marseille","lat":43.273129,"lon":5.390725,"is_reserved":false,"is_disabled":false,"rental_uris":{"android":"levelo://app?vid=47291279-5839-4e5b-8d1f-009cfd3586c4","ios":"levelo://app?vid=47291279-5839-4e5b-8d1f-009cfd3586c4"},"vehicle_type_id":"4","last_reported":1701083163,"current_range_meters":21200,"station_id":"ce4bhgp2rcd13ifvqfe0","pricing_plan_id":"free"},{"bike_id":"345560fe-ab38-44f8-b8ec-8cd995480bd7","system_id":"levelo_inurba_marseille","lat":43.27315,"lon":5.39092,"is_reserved":false,"is_disabled":false,"rental_uris":{"android":"levelo://app?vid=345560fe-ab38-44f8-b8ec-8cd995480bd7","ios":"levelo://app?vid=345560fe-ab38-44f8-b8ec-8cd995480bd7"},"vehicle_type_id":"4","last_reported":1701083163,"current_range_meters":27600,"station_id":"ce4bhgp2rcd13ifvqfe0","pricing_plan_id":"free"},{"bike_id":"ea3c6ea1-e819-420b-b5dc-5dcaf1e4b19b","system_id":"levelo_inurba_marseille","lat":43.274099,"lon":5.394019,"is_reserved":false,"is_disabled":false,"rental_uris":{"android":"levelo://app?vid=ea3c6ea1-e819-420b-b5dc-5dcaf1e4b19b","ios":"levelo://app?vid=ea3c6ea1-e819-420b-b5dc-5dcaf1e4b19b"},"vehicle_type_id":"4","last_reported":1701083163,"current_range_meters":23600,"station_id":"ce4bhdp2rcd13ifvqf20","pricing_plan_id":"free"},{"bike_id":"44349d3b-24df-4893-b7c0-251b6ad4852f","system_id":"levelo_inurba_marseille","lat":43.274103,"lon":5.394016,"is_reserved":false,"is_disabled":false,"rental_uris":{"android":"levelo://app?vid=44349d3b-24df-4893-b7c0-251b6ad4852f","ios":"levelo://app?vid=44349d3b-24df-4893-b7c0-251b6ad4852f"},"vehicle_type_id":"4","last_reported":1701083163,"current_range_meters":10400,"station_id":"ce4bhdp2rcd13ifvqf20","pricing_plan_id":"free"},{"bike_id":"487e8935-2222-4e65-8507-6d483307a42a","system_id":"levelo_inurba_marseille","lat":43.295511,"lon":5.422926,"is_reserved":false,"is_disabled":false,"rental_uris":{"android":"levelo://app?vid=487e8935-2222-4e65-8507-6d483307a42a","ios":"levelo://app?vid=487e8935-2222-4e65-8507-6d483307a42a"},"vehicle_type_id":"4","last_reported":1701083163,"current_range_meters":31200,"station_id":"ce4bhph2rcd13ifvqhdg","pricing_plan_id":"free"},{"bike_id":"08fe44e4-201e-4497-b2af-1597ca570ac3","system_id":"levelo_inurba_marseille","lat":43.295511,"lon":5.422926,"is_reserved":false,"is_disabled":false,"rental_uris":{"android":"levelo://app?vid=08fe44e4-201e-4497-b2af-1597ca570ac3","ios":"levelo://app?vid=08fe44e4-201e-4497-b2af-1597ca570ac3"},"vehicle_type_id":"4","last_reported":1701083163,"current_range_meters":23600,"station_id":"ce4bhph2rcd13ifvqhdg","pricing_plan_id":"free"},{"bike_id":"b8c9d591-501f-4270-a3f9-232abbaeb33d","system_id":"levelo_inurba_marseille","lat":43.272124,"lon":5.391768,"is_reserved":false,"is_disabled":false,"rental_uris":{"android":"levelo://app?vid=b8c9d591-501f-4270-a3f9-232abbaeb33d","ios":"levelo://app?vid=b8c9d591-501f-4270-a3f9-232abbaeb33d"},"vehicle_type_id":"4","last_reported":1701083163,"current_range_meters":26800,"station_id":"ce4bhhp2rcd13ifvqfm0","pricing_plan_id":"free"},{"bike_id":"8ea7012e-3132-4769-b4ce-fdfe8cd10282","system_id":"levelo_inurba_marseille","lat":43.27219,"lon":5.39239,"is_reserved":false,"is_disabled":false,"rental_uris":{"android":"levelo://app?vid=8ea7012e-3132-4769-b4ce-fdfe8cd10282","ios":"levelo://app?vid=8ea7012e-3132-4769-b4ce-fdfe8cd10282"},"vehicle_type_id":"4","last_reported":1701083163,"current_range_meters":3200,"station_id":"","pricing_plan_id":"free"},{"bike_id":"3102529a-280f-4ea7-a00b-8697d0337818","system_id":"levelo_inurba_marseille","lat":43.290995,"lon":5.381361,"is_reserved":false,"is_disabled":false,"rental_uris":{"android":"levelo://app?vid=3102529a-280f-4ea7-a00b-8697d0337818","ios":"levelo://app?vid=3102529a-280f-4ea7-a00b-8697d0337818"},"vehicle_type_id":"4","last_reported":1701083163,"current_range_meters":12400,"station_id":"ce4bh512rcd13ifvqe2g","pricing_plan_id":"free"},{"bike_id":"ce31c57f-7845-4bbc-80f1-370420afe6f4","system_id":"levelo_inurba_marseille","lat":43.27194,"lon":5.39201,"is_reserved":false,"is_disabled":false,"rental_uris":{"android":"levelo://app?vid=ce31c57f-7845-4bbc-80f1-370420afe6f4","ios":"levelo://app?vid=ce31c57f-7845-4bbc-80f1-370420afe6f4"},"vehicle_type_id":"4","last_reported":1701083163,"current_range_meters":0,"station_id":"ce4bhhp2rcd13ifvqfm0","pricing_plan_id":"free"},{"bike_id":"9efe761d-4b17-4e3f-a49f-4e76c8ea96ba","system_id":"levelo_inurba_marseille","lat":43.27207,"lon":5.39248,"is_reserved":false,"is_disabled":false,"rental_uris":{"android":"levelo://app?vid=9efe761d-4b17-4e3f-a49f-4e76c8ea96ba","ios":"levelo://app?vid=9efe761d-4b17-4e3f-a49f-4e76c8ea96ba"},"vehicle_type_id":"4","last_reported":1701083163,"current_range_meters":22000,"station_id":"","pricing_plan_id":"free"},{"bike_id":"09eae8cb-51e8-4677-9c28-bfff4dce6bf5","system_id":"levelo_inurba_marseille","lat":43.27167,"lon":5.392747,"is_reserved":false,"is_disabled":false,"rental_uris":{"android":"levelo://app?vid=09eae8cb-51e8-4677-9c28-bfff4dce6bf5","ios":"levelo://app?vid=09eae8cb-51e8-4677-9c28-bfff4dce6bf5"},"vehicle_type_id":"4","last_reported":1701083163,"current_range_meters":29200,"station_id":"","pricing_plan_id":"free"},{"bike_id":"11c530ef-3a1e-4341-9786-f43509d01bc1","system_id":"levelo_inurba_marseille","lat":43.298015,"lon":5.426555,"is_reserved":false,"is_disabled":false,"rental_uris":{"android":"levelo://app?vid=11c530ef-3a1e-4341-9786-f43509d01bc1","ios":"levelo://app?vid=11c530ef-3a1e-4341-9786-f43509d01bc1"},"vehicle_type_id":"4","last_reported":1701083163,"current_range_meters":0,"station_id":"","pricing_plan_id":"free"},{"bike_id":"e9e92a22-b6bb-41d2-a28b-34c5d63656b8","system_id":"levelo_inurba_marseille","lat":43.269319,"lon":5.389397,"is_reserved":false,"is_disabled":false,"rental_uris":{"android":"levelo://app?vid=e9e92a22-b6bb-41d2-a28b-34c5d63656b8","ios":"levelo://app?vid=e9e92a22-b6bb-41d2-a28b-34c5d63656b8"},"vehicle_type_id":"4","last_reported":1701083163,"current_range_meters":27600,"station_id":"ce4bhhh2rcd13ifvqfl0","pricing_plan_id":"free"},{"bike_id":"e4b68f4a-2ca1-49c2-936e-c6a93135be9a","system_id":"levelo_inurba_marseille","lat":43.26681,"lon":5.382694,"is_reserved":false,"is_disabled":false,"rental_uris":{"android":"levelo://app?vid=e4b68f4a-2ca1-49c2-936e-c6a93135be9a","ios":"levelo://app?vid=e4b68f4a-2ca1-49c2-936e-c6a93135be9a"},"vehicle_type_id":"4","last_reported":1701083163,"current_range_meters":31600,"station_id":"ce4bhg92rcd13ifvqf90","pricing_plan_id":"free"},{"bike_id":"5844cac5-d8cf-4995-bae7-16b150717a41","system_id":"levelo_inurba_marseille","lat":43.26681,"lon":5.382694,"is_reserved":false,"is_disabled":false,"rental_uris":{"android":"levelo://app?vid=5844cac5-d8cf-4995-bae7-16b150717a41","ios":"levelo://app?vid=5844cac5-d8cf-4995-bae7-16b150717a41"},"vehicle_type_id":"4","last_reported":1701083163,"current_range_meters":14000,"station_id":"ce4bhg92rcd13ifvqf90","pricing_plan_id":"free"},{"bike_id":"3f118269-40dc-4f43-80d2-9f0573bdf414","system_id":"levelo_inurba_marseille","lat":43.26681,"lon":5.382694,"is_reserved":false,"is_disabled":false,"rental_uris":{"android":"levelo://app?vid=3f118269-40dc-4f43-80d2-9f0573bdf414","ios":"levelo://app?vid=3f118269-40dc-4f43-80d2-9f0573bdf414"},"vehicle_type_id":"4","last_reported":1701083163,"current_range_meters":26000,"station_id":"ce4bhg92rcd13ifvqf90","pricing_plan_id":"free"},{"bike_id":"b13a942b-5b83-431b-96ed-c53ee14198c7","system_id":"levelo_inurba_marseille","lat":43.26681,"lon":5.382694,"is_reserved":false,"is_disabled":false,"rental_uris":{"android":"levelo://app?vid=b13a942b-5b83-431b-96ed-c53ee14198c7","ios":"levelo://app?vid=b13a942b-5b83-431b-96ed-c53ee14198c7"},"vehicle_type_id":"4","last_reported":1701083163,"current_range_meters":30000,"station_id":"ce4bhg92rcd13ifvqf90","pricing_plan_id":"free"},{"bike_id":"85e14555-81ae-4c2b-bb64-c7d65db3d5a9","system_id":"levelo_inurba_marseille","lat":43.26681,"lon":5.382694,"is_reserved":false,"is_disabled":false,"rental_uris":{"android":"levelo://app?vid=85e14555-81ae-4c2b-bb64-c7d65db3d5a9","ios":"levelo://app?vid=85e14555-81ae-4c2b-bb64-c7d65db3d5a9"},"vehicle_type_id":"4","last_reported":1701083163,"current_range_meters":29600,"station_id":"ce4bhg92rcd13ifvqf90","pricing_plan_id":"free"},{"bike_id":"ab0b2c24-5dbf-4b3f-a440-f54420f798f1","system_id":"levelo_inurba_marseille","lat":43.26681,"lon":5.382694,"is_reserved":false,"is_disabled":false,"rental_uris":{"android":"levelo://app?vid=ab0b2c24-5dbf-4b3f-a440-f54420f798f1","ios":"levelo://app?vid=ab0b2c24-5dbf-4b3f-a440-f54420f798f1"},"vehicle_type_id":"4","last_reported":1701083163,"current_range_meters":8000,"station_id":"ce4bhg92rcd13ifvqf90","pricing_plan_id":"free"},{"bike_id":"7778668d-d420-499a-a45f-1b5180949567","system_id":"levelo_inurba_marseille","lat":43.26681,"lon":5.382694,"is_reserved":false,"is_disabled":false,"rental_uris":{"android":"levelo://app?vid=7778668d-d420-499a-a45f-1b5180949567","ios":"levelo://app?vid=7778668d-d420-499a-a45f-1b5180949567"},"vehicle_type_id":"4","last_reported":1701083163,"current_range_meters":14800,"station_id":"ce4bhg92rcd13ifvqf90","pricing_plan_id":"free"},{"bike_id":"4e935c36-90c4-402d-8a48-9c806e8c7f2f","system_id":"levelo_inurba_marseille","lat":43.26681,"lon":5.382694,"is_reserved":false,"is_disabled":false,"rental_uris":{"android":"levelo://app?vid=4e935c36-90c4-402d-8a48-9c806e8c7f2f","ios":"levelo://app?vid=4e935c36-90c4-402d-8a48-9c806e8c7f2f"},"vehicle_type_id":"4","last_reported":1701083163,"current_range_meters":31600,"station_id":"ce4bhg92rcd13ifvqf90","pricing_plan_id":"free"},{"bike_id":"4725fd96-49b6-4ab9-93ac-fefefc7f80e0","system_id":"levelo_inurba_marseille","lat":43.26681,"lon":5.382694,"is_reserved":false,"is_disabled":false,"rental_uris":{"android":"levelo://app?vid=4725fd96-49b6-4ab9-93ac-fefefc7f80e0","ios":"levelo://app?vid=4725fd96-49b6-4ab9-93ac-fefefc7f80e0"},"vehicle_type_id":"4","last_reported":1701083163,"current_range_meters":800,"station_id":"ce4bhg92rcd13ifvqf90","pricing_plan_id":"free"},{"bike_id":"045c779a-0de3-4f1a-9ff9-44572f00cc3e","system_id":"levelo_inurba_marseille","lat":43.26681,"lon":5.382694,"is_reserved":false,"is_disabled":false,"rental_uris":{"android":"levelo://app?vid=045c779a-0de3-4f1a-9ff9-44572f00cc3e","ios":"levelo://app?vid=045c779a-0de3-4f1a-9ff9-44572f00cc3e"},"vehicle_type_id":"4","last_reported":1701083163,"current_range_meters":31600,"station_id":"ce4bhg92rcd13ifvqf90","pricing_plan_id":"free"},{"bike_id":"72dbca0f-23b3-44ed-8277-c5031ec7553b","system_id":"levelo_inurba_marseille","lat":43.26681,"lon":5.382694,"is_reserved":false,"is_disabled":false,"rental_uris":{"android":"levelo://app?vid=72dbca0f-23b3-44ed-8277-c5031ec7553b","ios":"levelo://app?vid=72dbca0f-23b3-44ed-8277-c5031ec7553b"},"vehicle_type_id":"4","last_reported":1701083163,"current_range_meters":27600,"station_id":"ce4bhg92rcd13ifvqf90","pricing_plan_id":"free"},{"bike_id":"ea07f886-25ab-4762-bffe-79ccd5af5f43","system_id":"levelo_inurba_marseille","lat":43.26681,"lon":5.382694,"is_reserved":false,"is_disabled":false,"rental_uris":{"android":"levelo://app?vid=ea07f886-25ab-4762-bffe-79ccd5af5f43","ios":"levelo://app?vid=ea07f886-25ab-4762-bffe-79ccd5af5f43"},"vehicle_type_id":"4","last_reported":1701083163,"current_range_meters":17200,"station_id":"ce4bhg92rcd13ifvqf90","pricing_plan_id":"free"},{"bike_id":"f23d8119-b478-4639-98c5-6883279f9f84","system_id":"levelo_inurba_marseille","lat":43.32592,"lon":5.43067,"is_reserved":false,"is_disabled":false,"rental_uris":{"android":"levelo://app?vid=f23d8119-b478-4639-98c5-6883279f9f84","ios":"levelo://app?vid=f23d8119-b478-4639-98c5-6883279f9f84"},"vehicle_type_id":"4","last_reported":1701083163,"current_range_meters":19200,"station_id":"","pricing_plan_id":"free"},{"bike_id":"ed30d6a1-b23a-49e5-9c83-5546be72a734","system_id":"levelo_inurba_marseille","lat":43.3259,"lon":5.43075,"is_reserved":false,"is_disabled":false,"rental_uris":{"android":"levelo://app?vid=ed30d6a1-b23a-49e5-9c83-5546be72a734","ios":"levelo://app?vid=ed30d6a1-b23a-49e5-9c83-5546be72a734"},"vehicle_type_id":"4","last_reported":1701083163,"current_range_meters":14000,"station_id":"","pricing_plan_id":"free"},{"bike_id":"d67469ee-5362-4610-a163-fe05ae3cf4f7","system_id":"levelo_inurba_marseille","lat":43.32604,"lon":5.430817,"is_reserved":false,"is_disabled":false,"rental_uris":{"android":"levelo://app?vid=d67469ee-5362-4610-a163-fe05ae3cf4f7","ios":"levelo://app?vid=d67469ee-5362-4610-a163-fe05ae3cf4f7"},"vehicle_type_id":"4","last_reported":1701083163,"current_range_meters":2400,"station_id":"","pricing_plan_id":"free"},{"bike_id":"5986dab0-7b77-4674-8135-17288066df9b","system_id":"levelo_inurba_marseille","lat":43.275338,"lon":5.40943,"is_reserved":false,"is_disabled":false,"rental_uris":{"android":"levelo://app?vid=5986dab0-7b77-4674-8135-17288066df9b","ios":"levelo://app?vid=5986dab0-7b77-4674-8135-17288066df9b"},"vehicle_type_id":"4","last_reported":1701083163,"current_range_meters":18400,"station_id":"","pricing_plan_id":"free"},{"bike_id":"1782395a-dfb7-45ee-9295-2ba3829f456a","system_id":"levelo_inurba_marseille","lat":43.26779,"lon":5.3942,"is_reserved":false,"is_disabled":false,"rental_uris":{"android":"levelo://app?vid=1782395a-dfb7-45ee-9295-2ba3829f456a","ios":"levelo://app?vid=1782395a-dfb7-45ee-9295-2ba3829f456a"},"vehicle_type_id":"4","last_reported":1701083163,"current_range_meters":11600,"station_id":"ce4bhh12rcd13ifvqfg0","pricing_plan_id":"free"},{"bike_id":"763d1725-0aa9-4be8-bae5-c640272f83b4","system_id":"levelo_inurba_marseille","lat":43.265569,"lon":5.390047,"is_reserved":false,"is_disabled":false,"rental_uris":{"android":"levelo://app?vid=763d1725-0aa9-4be8-bae5-c640272f83b4","ios":"levelo://app?vid=763d1725-0aa9-4be8-bae5-c640272f83b4"},"vehicle_type_id":"4","last_reported":1701083163,"current_range_meters":27200,"station_id":"ce4bhe12rcd13ifvqf30","pricing_plan_id":"free"},{"bike_id":"248f4ede-5862-4185-85f0-9426285da8ca","system_id":"levelo_inurba_marseille","lat":43.265569,"lon":5.390047,"is_reserved":false,"is_disabled":false,"rental_uris":{"android":"levelo://app?vid=248f4ede-5862-4185-85f0-9426285da8ca","ios":"levelo://app?vid=248f4ede-5862-4185-85f0-9426285da8ca"},"vehicle_type_id":"4","last_reported":1701083163,"current_range_meters":4000,"station_id":"ce4bhe12rcd13ifvqf30","pricing_plan_id":"free"},{"bike_id":"791b00c5-2e5a-477f-860f-ce8be00c8748","system_id":"levelo_inurba_marseille","lat":43.269426,"lon":5.402481,"is_reserved":false,"is_disabled":false,"rental_uris":{"android":"levelo://app?vid=791b00c5-2e5a-477f-860f-ce8be00c8748","ios":"levelo://app?vid=791b00c5-2e5a-477f-860f-ce8be00c8748"},"vehicle_type_id":"4","last_reported":1701083163,"current_range_meters":4400,"station_id":"cjm6bp8fraef2m0cb0m0","pricing_plan_id":"free"},{"bike_id":"0702b027-d92c-4ecd-97a5-310236d5c197","system_id":"levelo_inurba_marseille","lat":43.283494,"lon":5.380945,"is_reserved":false,"is_disabled":false,"rental_uris":{"android":"levelo://app?vid=0702b027-d92c-4ecd-97a5-310236d5c197","ios":"levelo://app?vid=0702b027-d92c-4ecd-97a5-310236d5c197"},"vehicle_type_id":"4","last_reported":1701083163,"current_range_meters":20400,"station_id":"ce4bh412rcd13ifvqdr0","pricing_plan_id":"free"},{"bike_id":"f1075d32-6081-4fc3-8fda-f2e62f93e004","system_id":"levelo_inurba_marseille","lat":43.26949,"lon":5.40262,"is_reserved":false,"is_disabled":false,"rental_uris":{"android":"levelo://app?vid=f1075d32-6081-4fc3-8fda-f2e62f93e004","ios":"levelo://app?vid=f1075d32-6081-4fc3-8fda-f2e62f93e004"},"vehicle_type_id":"4","last_reported":1701083163,"current_range_meters":21600,"station_id":"cjm6bp8fraef2m0cb0m0","pricing_plan_id":"free"},{"bike_id":"0a4f731c-3eb7-4528-bc5f-67f098acc892","system_id":"levelo_inurba_marseille","lat":43.269395,"lon":5.402769,"is_reserved":false,"is_disabled":false,"rental_uris":{"android":"levelo://app?vid=0a4f731c-3eb7-4528-bc5f-67f098acc892","ios":"levelo://app?vid=0a4f731c-3eb7-4528-bc5f-67f098acc892"},"vehicle_type_id":"4","last_reported":1701083163,"current_range_meters":14800,"station_id":"cjm6bp8fraef2m0cb0m0","pricing_plan_id":"free"},{"bike_id":"7c5a83ac-336c-4b91-a5ea-82b3c6d6127d","system_id":"levelo_inurba_marseille","lat":43.298768,"lon":5.43643,"is_reserved":false,"is_disabled":false,"rental_uris":{"android":"levelo://app?vid=7c5a83ac-336c-4b91-a5ea-82b3c6d6127d","ios":"levelo://app?vid=7c5a83ac-336c-4b91-a5ea-82b3c6d6127d"},"vehicle_type_id":"4","last_reported":1701083163,"current_range_meters":30400,"station_id":"ce4bhpp2rcd13ifvqhfg","pricing_plan_id":"free"},{"bike_id":"f4f2e1d5-dafa-412d-9b3a-3611814786ce","system_id":"levelo_inurba_marseille","lat":43.298768,"lon":5.43643,"is_reserved":false,"is_disabled":false,"rental_uris":{"android":"levelo://app?vid=f4f2e1d5-dafa-412d-9b3a-3611814786ce","ios":"levelo://app?vid=f4f2e1d5-dafa-412d-9b3a-3611814786ce"},"vehicle_type_id":"4","last_reported":1701083163,"current_range_meters":31200,"station_id":"ce4bhpp2rcd13ifvqhfg","pricing_plan_id":"free"},{"bike_id":"9713bde9-c9a7-4d76-bb95-dac32047e32a","system_id":"levelo_inurba_marseille","lat":43.298768,"lon":5.43643,"is_reserved":false,"is_disabled":false,"rental_uris":{"android":"levelo://app?vid=9713bde9-c9a7-4d76-bb95-dac32047e32a","ios":"levelo://app?vid=9713bde9-c9a7-4d76-bb95-dac32047e32a"},"vehicle_type_id":"4","last_reported":1701083163,"current_range_meters":20800,"station_id":"ce4bhpp2rcd13ifvqhfg","pricing_plan_id":"free"},{"bike_id":"07fa2e3f-8690-4fe7-8a60-70694fe6260c","system_id":"levelo_inurba_marseille","lat":43.260219,"lon":5.37546,"is_reserved":false,"is_disabled":false,"rental_uris":{"android":"levelo://app?vid=07fa2e3f-8690-4fe7-8a60-70694fe6260c","ios":"levelo://app?vid=07fa2e3f-8690-4fe7-8a60-70694fe6260c"},"vehicle_type_id":"4","last_reported":1701083163,"current_range_meters":22400,"station_id":"ce4bhgh2rcd13ifvqfa0","pricing_plan_id":"free"},{"bike_id":"e23b723f-548a-48e5-96f6-5b49167940a2","system_id":"levelo_inurba_marseille","lat":43.281548,"lon":5.42643,"is_reserved":false,"is_disabled":false,"rental_uris":{"android":"levelo://app?vid=e23b723f-548a-48e5-96f6-5b49167940a2","ios":"levelo://app?vid=e23b723f-548a-48e5-96f6-5b49167940a2"},"vehicle_type_id":"4","last_reported":1701083163,"current_range_meters":22000,"station_id":"ce4bhnh2rcd13ifvqgug","pricing_plan_id":"free"},{"bike_id":"81dd8d55-76ce-4385-8abb-043e706ef176","system_id":"levelo_inurba_marseille","lat":43.2607,"lon":5.393983,"is_reserved":false,"is_disabled":false,"rental_uris":{"android":"levelo://app?vid=81dd8d55-76ce-4385-8abb-043e706ef176","ios":"levelo://app?vid=81dd8d55-76ce-4385-8abb-043e706ef176"},"vehicle_type_id":"4","last_reported":1701083163,"current_range_meters":15200,"station_id":"ce4bhh92rcd13ifvqfj0","pricing_plan_id":"free"},{"bike_id":"663e2856-97eb-4b81-94eb-bf862fd80921","system_id":"levelo_inurba_marseille","lat":43.2607,"lon":5.393983,"is_reserved":false,"is_disabled":false,"rental_uris":{"android":"levelo://app?vid=663e2856-97eb-4b81-94eb-bf862fd80921","ios":"levelo://app?vid=663e2856-97eb-4b81-94eb-bf862fd80921"},"vehicle_type_id":"4","last_reported":1701083163,"current_range_meters":21200,"station_id":"ce4bhh92rcd13ifvqfj0","pricing_plan_id":"free"},{"bike_id":"155eb1f4-e4ff-4151-870f-9f53e6430e9c","system_id":"levelo_inurba_marseille","lat":43.275028,"lon":5.424534,"is_reserved":false,"is_disabled":false,"rental_uris":{"android":"levelo://app?vid=155eb1f4-e4ff-4151-870f-9f53e6430e9c","ios":"levelo://app?vid=155eb1f4-e4ff-4151-870f-9f53e6430e9c"},"vehicle_type_id":"4","last_reported":1701083163,"current_range_meters":31600,"station_id":"ce4bhn92rcd13ifvqgrg","pricing_plan_id":"free"},{"bike_id":"af2159a7-533c-44b2-9f91-55ad689fd878","system_id":"levelo_inurba_marseille","lat":43.275028,"lon":5.424534,"is_reserved":false,"is_disabled":false,"rental_uris":{"android":"levelo://app?vid=af2159a7-533c-44b2-9f91-55ad689fd878","ios":"levelo://app?vid=af2159a7-533c-44b2-9f91-55ad689fd878"},"vehicle_type_id":"4","last_reported":1701083163,"current_range_meters":25600,"station_id":"ce4bhn92rcd13ifvqgrg","pricing_plan_id":"free"},{"bike_id":"a546cec7-c461-4563-8f9d-9c8f6cf81155","system_id":"levelo_inurba_marseille","lat":43.275028,"lon":5.424534,"is_reserved":false,"is_disabled":false,"rental_uris":{"android":"levelo://app?vid=a546cec7-c461-4563-8f9d-9c8f6cf81155","ios":"levelo://app?vid=a546cec7-c461-4563-8f9d-9c8f6cf81155"},"vehicle_type_id":"4","last_reported":1701083163,"current_range_meters":21200,"station_id":"ce4bhn92rcd13ifvqgrg","pricing_plan_id":"free"},{"bike_id":"1dad8be2-a25a-4d6a-8d77-523cccd2cf17","system_id":"levelo_inurba_marseille","lat":43.275028,"lon":5.424534,"is_reserved":false,"is_disabled":false,"rental_uris":{"android":"levelo://app?vid=1dad8be2-a25a-4d6a-8d77-523cccd2cf17","ios":"levelo://app?vid=1dad8be2-a25a-4d6a-8d77-523cccd2cf17"},"vehicle_type_id":"4","last_reported":1701083163,"current_range_meters":12800,"station_id":"ce4bhn92rcd13ifvqgrg","pricing_plan_id":"free"},{"bike_id":"308d4f6a-f219-456a-bab2-50b410bff3d3","system_id":"levelo_inurba_marseille","lat":43.275028,"lon":5.424534,"is_reserved":false,"is_disabled":false,"rental_uris":{"android":"levelo://app?vid=308d4f6a-f219-456a-bab2-50b410bff3d3","ios":"levelo://app?vid=308d4f6a-f219-456a-bab2-50b410bff3d3"},"vehicle_type_id":"4","last_reported":1701083163,"current_range_meters":23600,"station_id":"ce4bhn92rcd13ifvqgrg","pricing_plan_id":"free"},{"bike_id":"0833633d-26ae-4ca8-9da5-0a1ffd3c3484","system_id":"levelo_inurba_marseille","lat":43.275028,"lon":5.424534,"is_reserved":false,"is_disabled":false,"rental_uris":{"android":"levelo://app?vid=0833633d-26ae-4ca8-9da5-0a1ffd3c3484","ios":"levelo://app?vid=0833633d-26ae-4ca8-9da5-0a1ffd3c3484"},"vehicle_type_id":"4","last_reported":1701083163,"current_range_meters":23600,"station_id":"ce4bhn92rcd13ifvqgrg","pricing_plan_id":"free"},{"bike_id":"04e4528d-3dca-4718-a06e-9b9442ef1733","system_id":"levelo_inurba_marseille","lat":43.275028,"lon":5.424534,"is_reserved":false,"is_disabled":false,"rental_uris":{"android":"levelo://app?vid=04e4528d-3dca-4718-a06e-9b9442ef1733","ios":"levelo://app?vid=04e4528d-3dca-4718-a06e-9b9442ef1733"},"vehicle_type_id":"4","last_reported":1701083163,"current_range_meters":17600,"station_id":"ce4bhn92rcd13ifvqgrg","pricing_plan_id":"free"},{"bike_id":"c85f7616-3a9e-47a4-ae16-28a03e51ab4f","system_id":"levelo_inurba_marseille","lat":43.28929,"lon":5.438754,"is_reserved":false,"is_disabled":false,"rental_uris":{"android":"levelo://app?vid=c85f7616-3a9e-47a4-ae16-28a03e51ab4f","ios":"levelo://app?vid=c85f7616-3a9e-47a4-ae16-28a03e51ab4f"},"vehicle_type_id":"4","last_reported":1701083163,"current_range_meters":7600,"station_id":"","pricing_plan_id":"free"},{"bike_id":"90b92ef4-41f7-422c-81d7-0e758e35d98c","system_id":"levelo_inurba_marseille","lat":43.258273,"lon":5.394435,"is_reserved":false,"is_disabled":false,"rental_uris":{"android":"levelo://app?vid=90b92ef4-41f7-422c-81d7-0e758e35d98c","ios":"levelo://app?vid=90b92ef4-41f7-422c-81d7-0e758e35d98c"},"vehicle_type_id":"4","last_reported":1701083163,"current_range_meters":25600,"station_id":"ce4bhip2rcd13ifvqft0","pricing_plan_id":"free"},{"bike_id":"bb03d128-ef00-4706-a798-f82ccd3fae64","system_id":"levelo_inurba_marseille","lat":43.255757,"lon":5.382406,"is_reserved":false,"is_disabled":false,"rental_uris":{"android":"levelo://app?vid=bb03d128-ef00-4706-a798-f82ccd3fae64","ios":"levelo://app?vid=bb03d128-ef00-4706-a798-f82ccd3fae64"},"vehicle_type_id":"4","last_reported":1701083163,"current_range_meters":0,"station_id":"ce4bhih2rcd13ifvqfs0","pricing_plan_id":"free"},{"bike_id":"fbade9f0-b682-486a-8605-a02662753e6c","system_id":"levelo_inurba_marseille","lat":43.270721,"lon":5.422764,"is_reserved":false,"is_disabled":false,"rental_uris":{"android":"levelo://app?vid=fbade9f0-b682-486a-8605-a02662753e6c","ios":"levelo://app?vid=fbade9f0-b682-486a-8605-a02662753e6c"},"vehicle_type_id":"4","last_reported":1701083163,"current_range_meters":20000,"station_id":"ce4bhk92rcd13ifvqgb0","pricing_plan_id":"free"},{"bike_id":"fa94e1b3-924d-484c-aa3a-070aacbdbbfd","system_id":"levelo_inurba_marseille","lat":43.270695,"lon":5.422769,"is_reserved":false,"is_disabled":false,"rental_uris":{"android":"levelo://app?vid=fa94e1b3-924d-484c-aa3a-070aacbdbbfd","ios":"levelo://app?vid=fa94e1b3-924d-484c-aa3a-070aacbdbbfd"},"vehicle_type_id":"4","last_reported":1701083163,"current_range_meters":24800,"station_id":"ce4bhk92rcd13ifvqgb0","pricing_plan_id":"free"},{"bike_id":"3764d48b-8e61-4222-bf2f-e0a7f6536aa8","system_id":"levelo_inurba_marseille","lat":43.270675,"lon":5.422785,"is_reserved":false,"is_disabled":false,"rental_uris":{"android":"levelo://app?vid=3764d48b-8e61-4222-bf2f-e0a7f6536aa8","ios":"levelo://app?vid=3764d48b-8e61-4222-bf2f-e0a7f6536aa8"},"vehicle_type_id":"4","last_reported":1701083163,"current_range_meters":26000,"station_id":"ce4bhk92rcd13ifvqgb0","pricing_plan_id":"free"},{"bike_id":"cc4c1f87-69d2-4692-bdc7-151dd9e5b434","system_id":"levelo_inurba_marseille","lat":43.259009,"lon":5.40929,"is_reserved":false,"is_disabled":false,"rental_uris":{"android":"levelo://app?vid=cc4c1f87-69d2-4692-bdc7-151dd9e5b434","ios":"levelo://app?vid=cc4c1f87-69d2-4692-bdc7-151dd9e5b434"},"vehicle_type_id":"4","last_reported":1701083163,"current_range_meters":22000,"station_id":"ce4bhm92rcd13ifvqglg","pricing_plan_id":"free"},{"bike_id":"e3d2e1b2-9afa-4a30-88d0-edbb58a5b6e1","system_id":"levelo_inurba_marseille","lat":43.25941,"lon":5.40906,"is_reserved":false,"is_disabled":false,"rental_uris":{"android":"levelo://app?vid=e3d2e1b2-9afa-4a30-88d0-edbb58a5b6e1","ios":"levelo://app?vid=e3d2e1b2-9afa-4a30-88d0-edbb58a5b6e1"},"vehicle_type_id":"4","last_reported":1701083163,"current_range_meters":19600,"station_id":"ce4bhm92rcd13ifvqglg","pricing_plan_id":"free"},{"bike_id":"3e61ca31-0ede-4d4d-9f16-4dafe7b96d27","system_id":"levelo_inurba_marseille","lat":43.259013,"lon":5.409301,"is_reserved":false,"is_disabled":false,"rental_uris":{"android":"levelo://app?vid=3e61ca31-0ede-4d4d-9f16-4dafe7b96d27","ios":"levelo://app?vid=3e61ca31-0ede-4d4d-9f16-4dafe7b96d27"},"vehicle_type_id":"4","last_reported":1701083163,"current_range_meters":22800,"station_id":"ce4bhm92rcd13ifvqglg","pricing_plan_id":"free"},{"bike_id":"77abd008-784c-4ccd-a750-8bdfaff62a24","system_id":"levelo_inurba_marseille","lat":43.25938,"lon":5.40908,"is_reserved":false,"is_disabled":false,"rental_uris":{"android":"levelo://app?vid=77abd008-784c-4ccd-a750-8bdfaff62a24","ios":"levelo://app?vid=77abd008-784c-4ccd-a750-8bdfaff62a24"},"vehicle_type_id":"4","last_reported":1701083163,"current_range_meters":14800,"station_id":"ce4bhm92rcd13ifvqglg","pricing_plan_id":"free"},{"bike_id":"91465675-1e5d-439d-9a54-c9ce949abf39","system_id":"levelo_inurba_marseille","lat":43.259013,"lon":5.409301,"is_reserved":false,"is_disabled":false,"rental_uris":{"android":"levelo://app?vid=91465675-1e5d-439d-9a54-c9ce949abf39","ios":"levelo://app?vid=91465675-1e5d-439d-9a54-c9ce949abf39"},"vehicle_type_id":"4","last_reported":1701083163,"current_range_meters":20400,"station_id":"ce4bhm92rcd13ifvqglg","pricing_plan_id":"free"},{"bike_id":"8996178d-25f0-40d2-947b-1feb5661f950","system_id":"levelo_inurba_marseille","lat":43.25929,"lon":5.40917,"is_reserved":false,"is_disabled":false,"rental_uris":{"android":"levelo://app?vid=8996178d-25f0-40d2-947b-1feb5661f950","ios":"levelo://app?vid=8996178d-25f0-40d2-947b-1feb5661f950"},"vehicle_type_id":"4","last_reported":1701083163,"current_range_meters":16000,"station_id":"ce4bhm92rcd13ifvqglg","pricing_plan_id":"free"},{"bike_id":"2c93c4fe-24ef-47a9-9569-5fc975cae917","system_id":"levelo_inurba_marseille","lat":43.25929,"lon":5.40918,"is_reserved":false,"is_disabled":false,"rental_uris":{"android":"levelo://app?vid=2c93c4fe-24ef-47a9-9569-5fc975cae917","ios":"levelo://app?vid=2c93c4fe-24ef-47a9-9569-5fc975cae917"},"vehicle_type_id":"4","last_reported":1701083163,"current_range_meters":20000,"station_id":"ce4bhm92rcd13ifvqglg","pricing_plan_id":"free"},{"bike_id":"a3db2d3f-7cb8-4611-8b38-01ed171cfc8d","system_id":"levelo_inurba_marseille","lat":43.250009,"lon":5.389195,"is_reserved":false,"is_disabled":false,"rental_uris":{"android":"levelo://app?vid=a3db2d3f-7cb8-4611-8b38-01ed171cfc8d","ios":"levelo://app?vid=a3db2d3f-7cb8-4611-8b38-01ed171cfc8d"},"vehicle_type_id":"4","last_reported":1701083163,"current_range_meters":31200,"station_id":"ce4bhgp2rcd13ifvqfd0","pricing_plan_id":"free"},{"bike_id":"0284ba9c-df4d-482e-a059-8b2fc7ba0456","system_id":"levelo_inurba_marseille","lat":43.25001,"lon":5.38931,"is_reserved":false,"is_disabled":false,"rental_uris":{"android":"levelo://app?vid=0284ba9c-df4d-482e-a059-8b2fc7ba0456","ios":"levelo://app?vid=0284ba9c-df4d-482e-a059-8b2fc7ba0456"},"vehicle_type_id":"4","last_reported":1701083163,"current_range_meters":31200,"station_id":"ce4bhgp2rcd13ifvqfd0","pricing_plan_id":"free"},{"bike_id":"bc88c9a7-fdf4-496e-a32e-c95913867183","system_id":"levelo_inurba_marseille","lat":43.2479,"lon":5.374457,"is_reserved":false,"is_disabled":false,"rental_uris":{"android":"levelo://app?vid=bc88c9a7-fdf4-496e-a32e-c95913867183","ios":"levelo://app?vid=bc88c9a7-fdf4-496e-a32e-c95913867183"},"vehicle_type_id":"4","last_reported":1701083163,"current_range_meters":25600,"station_id":"ce4bhgh2rcd13ifvqfb0","pricing_plan_id":"free"},{"bike_id":"89412ba4-212d-4f5d-a8d4-70ad6119b1da","system_id":"levelo_inurba_marseille","lat":43.2479,"lon":5.374457,"is_reserved":false,"is_disabled":false,"rental_uris":{"android":"levelo://app?vid=89412ba4-212d-4f5d-a8d4-70ad6119b1da","ios":"levelo://app?vid=89412ba4-212d-4f5d-a8d4-70ad6119b1da"},