{"last_updated":1720375783,"ttl":30,"version":"2.2","data":{"bikes":[{"bike_id":"abb473d4-e4f3-4046-a75a-fef3d60f3dd7","system_id":"levelo_inurba_marseille","lat":43.312239,"lon":5.368562,"is_reserved":false,"is_disabled":false,"rental_uris":{"android":"levelo://app?vid=abb473d4-e4f3-4046-a75a-fef3d60f3dd7","ios":"levelo://app?vid=abb473d4-e4f3-4046-a75a-fef3d60f3dd7"},"vehicle_type_id":"4","last_reported":1720375783,"current_range_meters":5600,"station_id":"ce4bgl92rcd13ifvqbq0","pricing_plan_id":"cebpf4jnsgd1na2vs0mg"},{"bike_id":"1d28d230-2005-4c49-8b2a-c74e540cc277","system_id":"levelo_inurba_marseille","lat":43.312239,"lon":5.368562,"is_reserved":false,"is_disabled":false,"rental_uris":{"android":"levelo://app?vid=1d28d230-2005-4c49-8b2a-c74e540cc277","ios":"levelo://app?vid=1d28d230-2005-4c49-8b2a-c74e540cc277"},"vehicle_type_id":"4","last_reported":1720375783,"current_range_meters":0,"station_id":"ce4bgl92rcd13ifvqbq0","pricing_plan_id":"cebpf4jnsgd1na2vs0mg"},{"bike_id":"979ac04d-a26d-49c0-8714-64bbf850f025","system_id":"levelo_inurba_marseille","lat":43.3122,"lon":5.3686,"is_reserved":false,"is_disabled":false,"rental_uris":{"android":"levelo://app?vid=979ac04d-a26d-49c0-8714-64bbf850f025","ios":"levelo://app?vid=979ac04d-a26d-49c0-8714-64bbf850f025"},"vehicle_type_id":"4","last_reported":1720375783,"current_range_meters":0,"station_id":"ce4bgl92rcd13ifvqbq0","pricing_plan_id":"cebpf4jnsgd1na2vs0mg"},{"bike_id":"c230b3f3-ca32-414a-b116-e5da4b57b18a","system_id":"levelo_inurba_marseille","lat":43.31489,"lon":5.37304,"is_reserved":false,"is_disabled":false,"rental_uris":{"android":"levelo://app?vid=c230b3f3-ca32-414a-b116-e5da4b57b18a","ios":"levelo://app?vid=c230b3f3-ca32-414a-b116-e5da4b57b18a"},"vehicle_type_id":"4","last_reported":1720375783,"current_range_meters":0,"station_id":"ce4bgt12rcd13ifvqcd0","pricing_plan_id":"cebpf4jnsgd1na2vs0mg"},{"bike_id":"b2210067-1ddb-4598-a9f1-74cf077f9893","system_id":"levelo_inurba_marseille","lat":43.309039,"lon":5.371797,"is_reserved":false,"is_disabled":false,"rental_uris":{"android":"levelo://app?vid=b2210067-1ddb-4598-a9f1-74cf077f9893","ios":"levelo://app?vid=b2210067-1ddb-4598-a9f1-74cf077f9893"},"vehicle_type_id":"4","last_reported":1720375783,"current_range_meters":4800,"station_id":"ce4bguh2rcd13ifvqckg","pricing_plan_id":"cebpf4jnsgd1na2vs0mg"},{"bike_id":"41cdcdd6-ded1-4424-b142-2da7b544bf9d","system_id":"levelo_inurba_marseille","lat":43.317868,"lon":5.369399,"is_reserved":false,"is_disabled":false,"rental_uris":{"android":"levelo://app?vid=41cdcdd6-ded1-4424-b142-2da7b544bf9d","ios":"levelo://app?vid=41cdcdd6-ded1-4424-b142-2da7b544bf9d"},"vehicle_type_id":"4","last_reported":1720375783,"current_range_meters":0,"station_id":"","pricing_plan_id":"cebpf4jnsgd1na2vs0mg"},{"bike_id":"a959135e-73bb-4d74-a703-61fd9ed332ec","system_id":"levelo_inurba_marseille","lat":43.30534,"lon":5.36661,"is_reserved":false,"is_disabled":false,"rental_uris":{"android":"levelo://app?vid=a959135e-73bb-4d74-a703-61fd9ed332ec","ios":"levelo://app?vid=a959135e-73bb-4d74-a703-61fd9ed332ec"},"vehicle_type_id":"4","last_reported":1720375783,"current_range_meters":28000,"station_id":"","pricing_plan_id":"cebpf4jnsgd1na2vs0mg"},{"bike_id":"e923fce0-c9a6-438a-880f-32580d30a652","system_id":"levelo_inurba_marseille","lat":43.305989,"lon":5.37225,"is_reserved":false,"is_disabled":false,"rental_uris":{"android":"levelo://app?vid=e923fce0-c9a6-438a-880f-32580d30a652","ios":"levelo://app?vid=e923fce0-c9a6-438a-880f-32580d30a652"},"vehicle_type_id":"4","last_reported":1720375783,"current_range_meters":4800,"station_id":"ce4bgqh2rcd13ifvqc4g","pricing_plan_id":"cebpf4jnsgd1na2vs0mg"},{"bike_id":"60dacfae-6492-4a4a-b60b-b3090afd148a","system_id":"levelo_inurba_marseille","lat":43.305989,"lon":5.37225,"is_reserved":false,"is_disabled":false,"rental_uris":{"android":"levelo://app?vid=60dacfae-6492-4a4a-b60b-b3090afd148a","ios":"levelo://app?vid=60dacfae-6492-4a4a-b60b-b3090afd148a"},"vehicle_type_id":"4","last_reported":1720375783,"current_range_meters":31200,"station_id":"ce4bgqh2rcd13ifvqc4g","pricing_plan_id":"cebpf4jnsgd1na2vs0mg"},{"bike_id":"dff90b8c-9e7b-4d76-ba99-d3ecd86cb88f","system_id":"levelo_inurba_marseille","lat":43.311125,"lon":5.377624,"is_reserved":false,"is_disabled":false,"rental_uris":{"android":"levelo://app?vid=dff90b8c-9e7b-4d76-ba99-d3ecd86cb88f","ios":"levelo://app?vid=dff90b8c-9e7b-4d76-ba99-d3ecd86cb88f"},"vehicle_type_id":"4","last_reported":1720375783,"current_range_meters":24000,"station_id":"ce4bgt92rcd13ifvqcg0","pricing_plan_id":"cebpf4jnsgd1na2vs0mg"},{"bike_id":"1c2f430b-09cf-4538-b365-4f88b05fd743","system_id":"levelo_inurba_marseille","lat":43.305047,"lon":5.371,"is_reserved":false,"is_disabled":false,"rental_uris":{"android":"levelo://app?vid=1c2f430b-09cf-4538-b365-4f88b05fd743","ios":"levelo://app?vid=1c2f430b-09cf-4538-b365-4f88b05fd743"},"vehicle_type_id":"4","last_reported":1720375783,"current_range_meters":0,"station_id":"","pricing_plan_id":"cebpf4jnsgd1na2vs0mg"},{"bike_id":"db3339ad-3f75-4f82-bbda-978f8ae99067","system_id":"levelo_inurba_marseille","lat":43.307945,"lon":5.376487,"is_reserved":false,"is_disabled":false,"rental_uris":{"android":"levelo://app?vid=db3339ad-3f75-4f82-bbda-978f8ae99067","ios":"levelo://app?vid=db3339ad-3f75-4f82-bbda-978f8ae99067"},"vehicle_type_id":"4","last_reported":1720375783,"current_range_meters":800,"station_id":"ce4bgv92rcd13ifvqcq0","pricing_plan_id":"cebpf4jnsgd1na2vs0mg"},{"bike_id":"cc77634b-8db9-4e2b-90f3-a78c131cbe3f","system_id":"levelo_inurba_marseille","lat":43.317075,"lon":5.377367,"is_reserved":false,"is_disabled":false,"rental_uris":{"android":"levelo://app?vid=cc77634b-8db9-4e2b-90f3-a78c131cbe3f","ios":"levelo://app?vid=cc77634b-8db9-4e2b-90f3-a78c131cbe3f"},"vehicle_type_id":"4","last_reported":1720375783,"current_range_meters":18800,"station_id":"ce4bgth2rcd13ifvqch0","pricing_plan_id":"cebpf4jnsgd1na2vs0mg"},{"bike_id":"0500739c-2b3e-438d-8155-01a015689bc8","system_id":"levelo_inurba_marseille","lat":43.315289,"lon":5.380349,"is_reserved":false,"is_disabled":false,"rental_uris":{"android":"levelo://app?vid=0500739c-2b3e-438d-8155-01a015689bc8","ios":"levelo://app?vid=0500739c-2b3e-438d-8155-01a015689bc8"},"vehicle_type_id":"4","last_reported":1720375783,"current_range_meters":0,"station_id":"ce4bhsp2rcd13ifvqi50","pricing_plan_id":"cebpf4jnsgd1na2vs0mg"},{"bike_id":"3ce211d9-94db-4c95-8495-4ebffbe42253","system_id":"levelo_inurba_marseille","lat":43.301939,"lon":5.366286,"is_reserved":false,"is_disabled":false,"rental_uris":{"android":"levelo://app?vid=3ce211d9-94db-4c95-8495-4ebffbe42253","ios":"levelo://app?vid=3ce211d9-94db-4c95-8495-4ebffbe42253"},"vehicle_type_id":"4","last_reported":1720375783,"current_range_meters":4000,"station_id":"ce4bgrh2rcd13ifvqc8g","pricing_plan_id":"cebpf4jnsgd1na2vs0mg"},{"bike_id":"de7f94a0-f3a6-4702-b950-2ed30e4e8005","system_id":"levelo_inurba_marseille","lat":43.31624,"lon":5.3821,"is_reserved":false,"is_disabled":false,"rental_uris":{"android":"levelo://app?vid=de7f94a0-f3a6-4702-b950-2ed30e4e8005","ios":"levelo://app?vid=de7f94a0-f3a6-4702-b950-2ed30e4e8005"},"vehicle_type_id":"4","last_reported":1720375783,"current_range_meters":11200,"station_id":"","pricing_plan_id":"cebpf4jnsgd1na2vs0mg"},{"bike_id":"9aa32af0-726f-410e-baec-978c66aec0e2","system_id":"levelo_inurba_marseille","lat":43.308012,"lon":5.381511,"is_reserved":false,"is_disabled":false,"rental_uris":{"android":"levelo://app?vid=9aa32af0-726f-410e-baec-978c66aec0e2","ios":"levelo://app?vid=9aa32af0-726f-410e-baec-978c66aec0e2"},"vehicle_type_id":"4","last_reported":1720375783,"current_range_meters":400,"station_id":"ce4bgt12rcd13ifvqce0","pricing_plan_id":"cebpf4jnsgd1na2vs0mg"},{"bike_id":"04a6fe77-22af-4339-8d0c-754d6e0c09ec","system_id":"levelo_inurba_marseille","lat":43.311513,"lon":5.382947,"is_reserved":false,"is_disabled":false,"rental_uris":{"android":"levelo://app?vid=04a6fe77-22af-4339-8d0c-754d6e0c09ec","ios":"levelo://app?vid=04a6fe77-22af-4339-8d0c-754d6e0c09ec"},"vehicle_type_id":"4","last_reported":1720375783,"current_range_meters":29200,"station_id":"","pricing_plan_id":"cebpf4jnsgd1na2vs0mg"},{"bike_id":"10547e81-fc8d-4808-b367-a784008cf1cb","system_id":"levelo_inurba_marseille","lat":43.301008,"lon":5.368712,"is_reserved":false,"is_disabled":false,"rental_uris":{"android":"levelo://app?vid=10547e81-fc8d-4808-b367-a784008cf1cb","ios":"levelo://app?vid=10547e81-fc8d-4808-b367-a784008cf1cb"},"vehicle_type_id":"4","last_reported":1720375783,"current_range_meters":15200,"station_id":"","pricing_plan_id":"cebpf4jnsgd1na2vs0mg"},{"bike_id":"39a58e57-5190-4507-8a81-60b4a55e969e","system_id":"levelo_inurba_marseille","lat":43.304606,"lon":5.379026,"is_reserved":false,"is_disabled":false,"rental_uris":{"android":"levelo://app?vid=39a58e57-5190-4507-8a81-60b4a55e969e","ios":"levelo://app?vid=39a58e57-5190-4507-8a81-60b4a55e969e"},"vehicle_type_id":"4","last_reported":1720375783,"current_range_meters":0,"station_id":"ce4bgup2rcd13ifvqcn0","pricing_plan_id":"cebpf4jnsgd1na2vs0mg"},{"bike_id":"4cdce938-6cac-4bba-9bcc-ca47debef506","system_id":"levelo_inurba_marseille","lat":43.324771,"lon":5.36557,"is_reserved":false,"is_disabled":false,"rental_uris":{"android":"levelo://app?vid=4cdce938-6cac-4bba-9bcc-ca47debef506","ios":"levelo://app?vid=4cdce938-6cac-4bba-9bcc-ca47debef506"},"vehicle_type_id":"4","last_reported":1720375783,"current_range_meters":2400,"station_id":"ce4bhs12rcd13ifvqhvg","pricing_plan_id":"cebpf4jnsgd1na2vs0mg"},{"bike_id":"aa3888bb-ddf5-4f7c-b892-26275fd79652","system_id":"levelo_inurba_marseille","lat":43.324771,"lon":5.36557,"is_reserved":false,"is_disabled":false,"rental_uris":{"android":"levelo://app?vid=aa3888bb-ddf5-4f7c-b892-26275fd79652","ios":"levelo://app?vid=aa3888bb-ddf5-4f7c-b892-26275fd79652"},"vehicle_type_id":"4","last_reported":1720375783,"current_range_meters":11600,"station_id":"ce4bhs12rcd13ifvqhvg","pricing_plan_id":"cebpf4jnsgd1na2vs0mg"},{"bike_id":"f094d6e9-8310-4f1f-94a2-7cd8812ca797","system_id":"levelo_inurba_marseille","lat":43.32484,"lon":5.36564,"is_reserved":false,"is_disabled":false,"rental_uris":{"android":"levelo://app?vid=f094d6e9-8310-4f1f-94a2-7cd8812ca797","ios":"levelo://app?vid=f094d6e9-8310-4f1f-94a2-7cd8812ca797"},"vehicle_type_id":"4","last_reported":1720375783,"current_range_meters":0,"station_id":"ce4bhs12rcd13ifvqhvg","pricing_plan_id":"cebpf4jnsgd1na2vs0mg"},{"bike_id":"cba06cdd-58a4-4e5d-bbdd-20cdfd8568b3","system_id":"levelo_inurba_marseille","lat":43.32485,"lon":5.36557,"is_reserved":false,"is_disabled":false,"rental_uris":{"android":"levelo://app?vid=cba06cdd-58a4-4e5d-bbdd-20cdfd8568b3","ios":"levelo://app?vid=cba06cdd-58a4-4e5d-bbdd-20cdfd8568b3"},"vehicle_type_id":"4","last_reported":1720375783,"current_range_meters":2800,"station_id":"ce4bhs12rcd13ifvqhvg","pricing_plan_id":"cebpf4jnsgd1na2vs0mg"},{"bike_id":"d087032e-da91-49dc-80aa-b03e887826a6","system_id":"levelo_inurba_marseille","lat":43.32488,"lon":5.36555,"is_reserved":false,"is_disabled":false,"rental_uris":{"android":"levelo://app?vid=d087032e-da91-49dc-80aa-b03e887826a6","ios":"levelo://app?vid=d087032e-da91-49dc-80aa-b03e887826a6"},"vehicle_type_id":"4","last_reported":1720375783,"current_range_meters":5600,"station_id":"ce4bhs12rcd13ifvqhvg","pricing_plan_id":"cebpf4jnsgd1na2vs0mg"},{"bike_id":"195a3c08-b51e-480b-818f-9838d543d9ee","system_id":"levelo_inurba_marseille","lat":43.31077,"lon":5.38347,"is_reserved":false,"is_disabled":false,"rental_uris":{"android":"levelo://app?vid=195a3c08-b51e-480b-818f-9838d543d9ee","ios":"levelo://app?vid=195a3c08-b51e-480b-818f-9838d543d9ee"},"vehicle_type_id":"4","last_reported":1720375783,"current_range_meters":0,"station_id":"ce4bgv92rcd13ifvqcr0","pricing_plan_id":"cebpf4jnsgd1na2vs0mg"},{"bike_id":"30e66234-049d-41b6-bf27-4cb1b04e5a3f","system_id":"levelo_inurba_marseille","lat":43.31078,"lon":5.38352,"is_reserved":false,"is_disabled":false,"rental_uris":{"android":"levelo://app?vid=30e66234-049d-41b6-bf27-4cb1b04e5a3f","ios":"levelo://app?vid=30e66234-049d-41b6-bf27-4cb1b04e5a3f"},"vehicle_type_id":"4","last_reported":1720375783,"current_range_meters":0,"station_id":"ce4bgv92rcd13ifvqcr0","pricing_plan_id":"cebpf4jnsgd1na2vs0mg"},{"bike_id":"6b5d6ca5-8f40-4763-aca4-9e18f0ebea8c","system_id":"levelo_inurba_marseille","lat":43.310745,"lon":5.38358,"is_reserved":false,"is_disabled":false,"rental_uris":{"android":"levelo://app?vid=6b5d6ca5-8f40-4763-aca4-9e18f0ebea8c","ios":"levelo://app?vid=6b5d6ca5-8f40-4763-aca4-9e18f0ebea8c"},"vehicle_type_id":"4","last_reported":1720375783,"current_range_meters":0,"station_id":"ce4bgv92rcd13ifvqcr0","pricing_plan_id":"cebpf4jnsgd1na2vs0mg"},{"bike_id":"94cae2a2-a5f5-49ff-b57f-f156c9bdcba6","system_id":"levelo_inurba_marseille","lat":43.324771,"lon":5.36557,"is_reserved":false,"is_disabled":false,"rental_uris":{"android":"levelo://app?vid=94cae2a2-a5f5-49ff-b57f-f156c9bdcba6","ios":"levelo://app?vid=94cae2a2-a5f5-49ff-b57f-f156c9bdcba6"},"vehicle_type_id":"4","last_reported":1720375783,"current_range_meters":3600,"station_id":"ce4bhs12rcd13ifvqhvg","pricing_plan_id":"cebpf4jnsgd1na2vs0mg"},{"bike_id":"a5b97dc8-de9a-4dec-8674-11378d364ff3","system_id":"levelo_inurba_marseille","lat":43.310804,"lon":5.38359,"is_reserved":false,"is_disabled":false,"rental_uris":{"android":"levelo://app?vid=a5b97dc8-de9a-4dec-8674-11378d364ff3","ios":"levelo://app?vid=a5b97dc8-de9a-4dec-8674-11378d364ff3"},"vehicle_type_id":"4","last_reported":1720375783,"current_range_meters":0,"station_id":"ce4bgv92rcd13ifvqcr0","pricing_plan_id":"cebpf4jnsgd1na2vs0mg"},{"bike_id":"24b7bd78-4a58-4d09-a2b0-c915ec6d0133","system_id":"levelo_inurba_marseille","lat":43.30143,"lon":5.37413,"is_reserved":false,"is_disabled":false,"rental_uris":{"android":"levelo://app?vid=24b7bd78-4a58-4d09-a2b0-c915ec6d0133","ios":"levelo://app?vid=24b7bd78-4a58-4d09-a2b0-c915ec6d0133"},"vehicle_type_id":"4","last_reported":1720375783,"current_range_meters":28400,"station_id":"ce4bgs92rcd13ifvqcc0","pricing_plan_id":"cebpf4jnsgd1na2vs0mg"},{"bike_id":"7a8d868a-89fb-4ea6-aadd-30183b2f95ac","system_id":"levelo_inurba_marseille","lat":43.319935,"lon":5.381699,"is_reserved":false,"is_disabled":false,"rental_uris":{"android":"levelo://app?vid=7a8d868a-89fb-4ea6-aadd-30183b2f95ac","ios":"levelo://app?vid=7a8d868a-89fb-4ea6-aadd-30183b2f95ac"},"vehicle_type_id":"4","last_reported":1720375783,"current_range_meters":16400,"station_id":"ce4bhr12rcd13ifvqhpg","pricing_plan_id":"cebpf4jnsgd1na2vs0mg"},{"bike_id":"74845915-9ce4-45f0-86c8-d5d5be2721c2","system_id":"levelo_inurba_marseille","lat":43.313571,"lon":5.384829,"is_reserved":false,"is_disabled":false,"rental_uris":{"android":"levelo://app?vid=74845915-9ce4-45f0-86c8-d5d5be2721c2","ios":"levelo://app?vid=74845915-9ce4-45f0-86c8-d5d5be2721c2"},"vehicle_type_id":"4","last_reported":1720375783,"current_range_meters":400,"station_id":"ce4bgt92rcd13ifvqcf0","pricing_plan_id":"cebpf4jnsgd1na2vs0mg"},{"bike_id":"229c394f-c25f-4b37-ac6b-a6c6cd72870d","system_id":"levelo_inurba_marseille","lat":43.313571,"lon":5.384829,"is_reserved":false,"is_disabled":false,"rental_uris":{"android":"levelo://app?vid=229c394f-c25f-4b37-ac6b-a6c6cd72870d","ios":"levelo://app?vid=229c394f-c25f-4b37-ac6b-a6c6cd72870d"},"vehicle_type_id":"4","last_reported":1720375783,"current_range_meters":0,"station_id":"ce4bgt92rcd13ifvqcf0","pricing_plan_id":"cebpf4jnsgd1na2vs0mg"},{"bike_id":"dabeb2c2-10f4-49ec-84b5-eb4ebc43f17a","system_id":"levelo_inurba_marseille","lat":43.30001,"lon":5.37177,"is_reserved":false,"is_disabled":false,"rental_uris":{"android":"levelo://app?vid=dabeb2c2-10f4-49ec-84b5-eb4ebc43f17a","ios":"levelo://app?vid=dabeb2c2-10f4-49ec-84b5-eb4ebc43f17a"},"vehicle_type_id":"4","last_reported":1720375783,"current_range_meters":3200,"station_id":"","pricing_plan_id":"cebpf4jnsgd1na2vs0mg"},{"bike_id":"f618ac1c-0bbb-4a62-9f8a-0a330d5dcb52","system_id":"levelo_inurba_marseille","lat":43.299363,"lon":5.365488,"is_reserved":false,"is_disabled":false,"rental_uris":{"android":"levelo://app?vid=f618ac1c-0bbb-4a62-9f8a-0a330d5dcb52","ios":"levelo://app?vid=f618ac1c-0bbb-4a62-9f8a-0a330d5dcb52"},"vehicle_type_id":"4","last_reported":1720375783,"current_range_meters":0,"station_id":"ce4bgm92rcd13ifvqbr0","pricing_plan_id":"cebpf4jnsgd1na2vs0mg"},{"bike_id":"ebc84eff-3278-4579-953d-66369bd14bd0","system_id":"levelo_inurba_marseille","lat":43.29974,"lon":5.37171,"is_reserved":false,"is_disabled":false,"rental_uris":{"android":"levelo://app?vid=ebc84eff-3278-4579-953d-66369bd14bd0","ios":"levelo://app?vid=ebc84eff-3278-4579-953d-66369bd14bd0"},"vehicle_type_id":"4","last_reported":1720375783,"current_range_meters":31200,"station_id":"ce4bgr92rcd13ifvqc7g","pricing_plan_id":"cebpf4jnsgd1na2vs0mg"},{"bike_id":"01d598f2-73c6-47ce-a03a-be5cc5f6833b","system_id":"levelo_inurba_marseille","lat":43.299724,"lon":5.371829,"is_reserved":false,"is_disabled":false,"rental_uris":{"android":"levelo://app?vid=01d598f2-73c6-47ce-a03a-be5cc5f6833b","ios":"levelo://app?vid=01d598f2-73c6-47ce-a03a-be5cc5f6833b"},"vehicle_type_id":"4","last_reported":1720375783,"current_range_meters":3600,"station_id":"ce4bgr92rcd13ifvqc7g","pricing_plan_id":"cebpf4jnsgd1na2vs0mg"},{"bike_id":"52aec3f6-22c4-4aa9-8bc2-a3e5389264b8","system_id":"levelo_inurba_marseille","lat":43.29854,"lon":5.36288,"is_reserved":false,"is_disabled":false,"rental_uris":{"android":"levelo://app?vid=52aec3f6-22c4-4aa9-8bc2-a3e5389264b8","ios":"levelo://app?vid=52aec3f6-22c4-4aa9-8bc2-a3e5389264b8"},"vehicle_type_id":"4","last_reported":1720375783,"current_range_meters":0,"station_id":"ce4bgpp2rcd13ifvqc3g","pricing_plan_id":"cebpf4jnsgd1na2vs0mg"},{"bike_id":"82666603-d3fd-4583-a0d7-36dd337764db","system_id":"levelo_inurba_marseille","lat":43.29928,"lon":5.37449,"is_reserved":false,"is_disabled":false,"rental_uris":{"android":"levelo://app?vid=82666603-d3fd-4583-a0d7-36dd337764db","ios":"levelo://app?vid=82666603-d3fd-4583-a0d7-36dd337764db"},"vehicle_type_id":"4","last_reported":1720375783,"current_range_meters":31200,"station_id":"ce4bgjh2rcd13ifvqbg0","pricing_plan_id":"cebpf4jnsgd1na2vs0mg"},{"bike_id":"a877a202-f795-408b-b62f-3213e65a0dd0","system_id":"levelo_inurba_marseille","lat":43.311722,"lon":5.387247,"is_reserved":false,"is_disabled":false,"rental_uris":{"android":"levelo://app?vid=a877a202-f795-408b-b62f-3213e65a0dd0","ios":"levelo://app?vid=a877a202-f795-408b-b62f-3213e65a0dd0"},"vehicle_type_id":"4","last_reported":1720375783,"current_range_meters":2400,"station_id":"ce4bgv12rcd13ifvqcp0","pricing_plan_id":"cebpf4jnsgd1na2vs0mg"},{"bike_id":"62db7c11-383d-4a54-9b01-9ef2675a2860","system_id":"levelo_inurba_marseille","lat":43.298325,"lon":5.362466,"is_reserved":false,"is_disabled":false,"rental_uris":{"android":"levelo://app?vid=62db7c11-383d-4a54-9b01-9ef2675a2860","ios":"levelo://app?vid=62db7c11-383d-4a54-9b01-9ef2675a2860"},"vehicle_type_id":"4","last_reported":1720375783,"current_range_meters":6800,"station_id":"ce4bgs12rcd13ifvqcag","pricing_plan_id":"cebpf4jnsgd1na2vs0mg"},{"bike_id":"9d46b302-10c7-4b3b-8975-c4969a8373e1","system_id":"levelo_inurba_marseille","lat":43.311722,"lon":5.387247,"is_reserved":false,"is_disabled":false,"rental_uris":{"android":"levelo://app?vid=9d46b302-10c7-4b3b-8975-c4969a8373e1","ios":"levelo://app?vid=9d46b302-10c7-4b3b-8975-c4969a8373e1"},"vehicle_type_id":"4","last_reported":1720375783,"current_range_meters":1600,"station_id":"ce4bgv12rcd13ifvqcp0","pricing_plan_id":"cebpf4jnsgd1na2vs0mg"},{"bike_id":"7704cbbf-4c9c-4eb3-9576-7b61085d26b4","system_id":"levelo_inurba_marseille","lat":43.29779,"lon":5.37095,"is_reserved":false,"is_disabled":false,"rental_uris":{"android":"levelo://app?vid=7704cbbf-4c9c-4eb3-9576-7b61085d26b4","ios":"levelo://app?vid=7704cbbf-4c9c-4eb3-9576-7b61085d26b4"},"vehicle_type_id":"4","last_reported":1720375783,"current_range_meters":0,"station_id":"ce4bgop2rcd13ifvqc1g","pricing_plan_id":"cebpf4jnsgd1na2vs0mg"},{"bike_id":"5d1aba9c-ba51-4455-9048-3dfaf580a469","system_id":"levelo_inurba_marseille","lat":43.32289,"lon":5.3826,"is_reserved":false,"is_disabled":false,"rental_uris":{"android":"levelo://app?vid=5d1aba9c-ba51-4455-9048-3dfaf580a469","ios":"levelo://app?vid=5d1aba9c-ba51-4455-9048-3dfaf580a469"},"vehicle_type_id":"4","last_reported":1720375783,"current_range_meters":12400,"station_id":"ce4bhr12rcd13ifvqhqg","pricing_plan_id":"cebpf4jnsgd1na2vs0mg"},{"bike_id":"ca69c753-22f9-460a-ac6f-7bbe9d4833df","system_id":"levelo_inurba_marseille","lat":43.297163,"lon":5.365866,"is_reserved":false,"is_disabled":false,"rental_uris":{"android":"levelo://app?vid=ca69c753-22f9-460a-ac6f-7bbe9d4833df","ios":"levelo://app?vid=ca69c753-22f9-460a-ac6f-7bbe9d4833df"},"vehicle_type_id":"4","last_reported":1720375783,"current_range_meters":0,"station_id":"ce4bgn12rcd13ifvqbt0","pricing_plan_id":"cebpf4jnsgd1na2vs0mg"},{"bike_id":"280525b4-850d-4349-9c72-4f70d3424eeb","system_id":"levelo_inurba_marseille","lat":43.32724,"lon":5.37849,"is_reserved":false,"is_disabled":false,"rental_uris":{"android":"levelo://app?vid=280525b4-850d-4349-9c72-4f70d3424eeb","ios":"levelo://app?vid=280525b4-850d-4349-9c72-4f70d3424eeb"},"vehicle_type_id":"4","last_reported":1720375783,"current_range_meters":6400,"station_id":"","pricing_plan_id":"cebpf4jnsgd1na2vs0mg"},{"bike_id":"c27e8371-e4ec-464e-9bda-f15a4285f366","system_id":"levelo_inurba_marseille","lat":43.31128,"lon":5.3899,"is_reserved":false,"is_disabled":false,"rental_uris":{"android":"levelo://app?vid=c27e8371-e4ec-464e-9bda-f15a4285f366","ios":"levelo://app?vid=c27e8371-e4ec-464e-9bda-f15a4285f366"},"vehicle_type_id":"4","last_reported":1720375783,"current_range_meters":0,"station_id":"","pricing_plan_id":"cebpf4jnsgd1na2vs0mg"},{"bike_id":"81f4d725-5436-4f3a-98af-b0cb3907a283","system_id":"levelo_inurba_marseille","lat":43.296129,"lon":5.370777,"is_reserved":false,"is_disabled":false,"rental_uris":{"android":"levelo://app?vid=81f4d725-5436-4f3a-98af-b0cb3907a283","ios":"levelo://app?vid=81f4d725-5436-4f3a-98af-b0cb3907a283"},"vehicle_type_id":"4","last_reported":1720375783,"current_range_meters":22800,"station_id":"ce4bgnh2rcd13ifvqc0g","pricing_plan_id":"cebpf4jnsgd1na2vs0mg"},{"bike_id":"7a69e508-eeb0-4a89-96ac-0b7bed63d7e0","system_id":"levelo_inurba_marseille","lat":43.298037,"lon":5.381066,"is_reserved":false,"is_disabled":false,"rental_uris":{"android":"levelo://app?vid=7a69e508-eeb0-4a89-96ac-0b7bed63d7e0","ios":"levelo://app?vid=7a69e508-eeb0-4a89-96ac-0b7bed63d7e0"},"vehicle_type_id":"4","last_reported":1720375783,"current_range_meters":0,"station_id":"ce4bgip2rcd13ifvqbb0","pricing_plan_id":"cebpf4jnsgd1na2vs0mg"},{"bike_id":"65d7bbda-fcc2-45a9-9c1f-3d02455a7aa5","system_id":"levelo_inurba_marseille","lat":43.295748,"lon":5.37522,"is_reserved":false,"is_disabled":false,"rental_uris":{"android":"levelo://app?vid=65d7bbda-fcc2-45a9-9c1f-3d02455a7aa5","ios":"levelo://app?vid=65d7bbda-fcc2-45a9-9c1f-3d02455a7aa5"},"vehicle_type_id":"4","last_reported":1720375783,"current_range_meters":0,"station_id":"ce4bgh92rcd13ifvqb50","pricing_plan_id":"cebpf4jnsgd1na2vs0mg"},{"bike_id":"149b1021-c697-4bbe-b6e2-5a2844a0f654","system_id":"levelo_inurba_marseille","lat":43.304274,"lon":5.388873,"is_reserved":false,"is_disabled":false,"rental_uris":{"android":"levelo://app?vid=149b1021-c697-4bbe-b6e2-5a2844a0f654","ios":"levelo://app?vid=149b1021-c697-4bbe-b6e2-5a2844a0f654"},"vehicle_type_id":"4","last_reported":1720375783,"current_range_meters":2400,"station_id":"ce4bgk12rcd13ifvqbi0","pricing_plan_id":"cebpf4jnsgd1na2vs0mg"},{"bike_id":"2c195b47-9a2a-4800-aad6-459b7a371f29","system_id":"levelo_inurba_marseille","lat":43.304274,"lon":5.388873,"is_reserved":false,"is_disabled":false,"rental_uris":{"android":"levelo://app?vid=2c195b47-9a2a-4800-aad6-459b7a371f29","ios":"levelo://app?vid=2c195b47-9a2a-4800-aad6-459b7a371f29"},"vehicle_type_id":"4","last_reported":1720375783,"current_range_meters":0,"station_id":"ce4bgk12rcd13ifvqbi0","pricing_plan_id":"cebpf4jnsgd1na2vs0mg"},{"bike_id":"64009d82-008b-4d52-88bf-d8f2f28f6c9b","system_id":"levelo_inurba_marseille","lat":43.296277,"lon":5.377108,"is_reserved":false,"is_disabled":false,"rental_uris":{"android":"levelo://app?vid=64009d82-008b-4d52-88bf-d8f2f28f6c9b","ios":"levelo://app?vid=64009d82-008b-4d52-88bf-d8f2f28f6c9b"},"vehicle_type_id":"4","last_reported":1720375783,"current_range_meters":400,"station_id":"ce4bgi92rcd13ifvqb90","pricing_plan_id":"cebpf4jnsgd1na2vs0mg"},{"bike_id":"a1c77f5e-f042-4d4b-b349-02e8505a8a1b","system_id":"levelo_inurba_marseille","lat":43.29752,"lon":5.38085,"is_reserved":false,"is_disabled":false,"rental_uris":{"android":"levelo://app?vid=a1c77f5e-f042-4d4b-b349-02e8505a8a1b","ios":"levelo://app?vid=a1c77f5e-f042-4d4b-b349-02e8505a8a1b"},"vehicle_type_id":"4","last_reported":1720375783,"current_range_meters":0,"station_id":"ce4bgip2rcd13ifvqbb0","pricing_plan_id":"cebpf4jnsgd1na2vs0mg"},{"bike_id":"dfdbea42-b445-4e80-a2d5-f39e16923706","system_id":"levelo_inurba_marseille","lat":43.29602,"lon":5.37717,"is_reserved":false,"is_disabled":false,"rental_uris":{"android":"levelo://app?vid=dfdbea42-b445-4e80-a2d5-f39e16923706","ios":"levelo://app?vid=dfdbea42-b445-4e80-a2d5-f39e16923706"},"vehicle_type_id":"4","last_reported":1720375783,"current_range_meters":0,"station_id":"ce4bgi92rcd13ifvqb90","pricing_plan_id":"cebpf4jnsgd1na2vs0mg"},{"bike_id":"b452a5fc-2d1a-47f8-8721-f4ddc38ef731","system_id":"levelo_inurba_marseille","lat":43.295279,"lon":5.375048,"is_reserved":false,"is_disabled":false,"rental_uris":{"android":"levelo://app?vid=b452a5fc-2d1a-47f8-8721-f4ddc38ef731","ios":"levelo://app?vid=b452a5fc-2d1a-47f8-8721-f4ddc38ef731"},"vehicle_type_id":"4","last_reported":1720375783,"current_range_meters":0,"station_id":"ce4bgkp2rcd13ifvqbmg","pricing_plan_id":"cebpf4jnsgd1na2vs0mg"},{"bike_id":"9ac086e3-603f-45a8-b395-3394b7d17d0b","system_id":"levelo_inurba_marseille","lat":43.301396,"lon":5.387812,"is_reserved":false,"is_disabled":false,"rental_uris":{"android":"levelo://app?vid=9ac086e3-603f-45a8-b395-3394b7d17d0b","ios":"levelo://app?vid=9ac086e3-603f-45a8-b395-3394b7d17d0b"},"vehicle_type_id":"4","last_reported":1720375783,"current_range_meters":0,"station_id":"ce4bghh2rcd13ifvqb60","pricing_plan_id":"cebpf4jnsgd1na2vs0mg"},{"bike_id":"5a65e832-892d-45dd-a115-38f520e7e901","system_id":"levelo_inurba_marseille","lat":43.32367,"lon":5.388836,"is_reserved":false,"is_disabled":false,"rental_uris":{"android":"levelo://app?vid=5a65e832-892d-45dd-a115-38f520e7e901","ios":"levelo://app?vid=5a65e832-892d-45dd-a115-38f520e7e901"},"vehicle_type_id":"4","last_reported":1720375783,"current_range_meters":0,"station_id":"ce4bhqp2rcd13ifvqhog","pricing_plan_id":"cebpf4jnsgd1na2vs0mg"},{"bike_id":"ce2b170c-f212-4cad-914d-78e2f9970b4c","system_id":"levelo_inurba_marseille","lat":43.32367,"lon":5.388836,"is_reserved":false,"is_disabled":false,"rental_uris":{"android":"levelo://app?vid=ce2b170c-f212-4cad-914d-78e2f9970b4c","ios":"levelo://app?vid=ce2b170c-f212-4cad-914d-78e2f9970b4c"},"vehicle_type_id":"4","last_reported":1720375783,"current_range_meters":0,"station_id":"ce4bhqp2rcd13ifvqhog","pricing_plan_id":"cebpf4jnsgd1na2vs0mg"},{"bike_id":"5217b388-abab-4800-a461-af3856c12d8c","system_id":"levelo_inurba_marseille","lat":43.29387,"lon":5.37277,"is_reserved":false,"is_disabled":false,"rental_uris":{"android":"levelo://app?vid=5217b388-abab-4800-a461-af3856c12d8c","ios":"levelo://app?vid=5217b388-abab-4800-a461-af3856c12d8c"},"vehicle_type_id":"4","last_reported":1720375783,"current_range_meters":0,"station_id":"","pricing_plan_id":"cebpf4jnsgd1na2vs0mg"},{"bike_id":"dc6e1896-67c5-4c42-9447-6128b92751bd","system_id":"levelo_inurba_marseille","lat":43.29602,"lon":5.381084,"is_reserved":false,"is_disabled":false,"rental_uris":{"android":"levelo://app?vid=dc6e1896-67c5-4c42-9447-6128b92751bd","ios":"levelo://app?vid=dc6e1896-67c5-4c42-9447-6128b92751bd"},"vehicle_type_id":"4","last_reported":1720375783,"current_range_meters":3200,"station_id":"ce4bgl12rcd13ifvqbo0","pricing_plan_id":"cebpf4jnsgd1na2vs0mg"},{"bike_id":"ca31e220-a2d1-4e2d-8755-9d0d99471933","system_id":"levelo_inurba_marseille","lat":43.29601,"lon":5.381084,"is_reserved":false,"is_disabled":false,"rental_uris":{"android":"levelo://app?vid=ca31e220-a2d1-4e2d-8755-9d0d99471933","ios":"levelo://app?vid=ca31e220-a2d1-4e2d-8755-9d0d99471933"},"vehicle_type_id":"4","last_reported":1720375783,"current_range_meters":12000,"station_id":"ce4bgl12rcd13ifvqbo0","pricing_plan_id":"cebpf4jnsgd1na2vs0mg"},{"bike_id":"27a8ce02-51d0-4452-a0b5-f557c21c1003","system_id":"levelo_inurba_marseille","lat":43.292749,"lon":5.368402,"is_reserved":false,"is_disabled":false,"rental_uris":{"android":"levelo://app?vid=27a8ce02-51d0-4452-a0b5-f557c21c1003","ios":"levelo://app?vid=27a8ce02-51d0-4452-a0b5-f557c21c1003"},"vehicle_type_id":"4","last_reported":1720375783,"current_range_meters":23200,"station_id":"ce4bhbp2rcd13ifvqesg","pricing_plan_id":"cebpf4jnsgd1na2vs0mg"},{"bike_id":"cd90d865-3663-4d37-b4f0-cfd9b5892393","system_id":"levelo_inurba_marseille","lat":43.29273,"lon":5.36839,"is_reserved":false,"is_disabled":false,"rental_uris":{"android":"levelo://app?vid=cd90d865-3663-4d37-b4f0-cfd9b5892393","ios":"levelo://app?vid=cd90d865-3663-4d37-b4f0-cfd9b5892393"},"vehicle_type_id":"4","last_reported":1720375783,"current_range_meters":0,"station_id":"ce4bhbp2rcd13ifvqesg","pricing_plan_id":"cebpf4jnsgd1na2vs0mg"},{"bike_id":"b2762deb-b5f2-4ade-bb4d-7a5b0a32eac9","system_id":"levelo_inurba_marseille","lat":43.29272,"lon":5.36839,"is_reserved":false,"is_disabled":false,"rental_uris":{"android":"levelo://app?vid=b2762deb-b5f2-4ade-bb4d-7a5b0a32eac9","ios":"levelo://app?vid=b2762deb-b5f2-4ade-bb4d-7a5b0a32eac9"},"vehicle_type_id":"4","last_reported":1720375783,"current_range_meters":0,"station_id":"ce4bhbp2rcd13ifvqesg","pricing_plan_id":"cebpf4jnsgd1na2vs0mg"},{"bike_id":"7321149b-842b-4c96-99c7-c88f6d8bc904","system_id":"levelo_inurba_marseille","lat":43.293,"lon":5.37456,"is_reserved":false,"is_disabled":false,"rental_uris":{"android":"levelo://app?vid=7321149b-842b-4c96-99c7-c88f6d8bc904","ios":"levelo://app?vid=7321149b-842b-4c96-99c7-c88f6d8bc904"},"vehicle_type_id":"4","last_reported":1720375783,"current_range_meters":0,"station_id":"ce4bgi12rcd13ifvqb70","pricing_plan_id":"cebpf4jnsgd1na2vs0mg"},{"bike_id":"27f74947-97c5-4bfe-9e40-c5f47484a95f","system_id":"levelo_inurba_marseille","lat":43.29296,"lon":5.37466,"is_reserved":false,"is_disabled":false,"rental_uris":{"android":"levelo://app?vid=27f74947-97c5-4bfe-9e40-c5f47484a95f","ios":"levelo://app?vid=27f74947-97c5-4bfe-9e40-c5f47484a95f"},"vehicle_type_id":"4","last_reported":1720375783,"current_range_meters":0,"station_id":"ce4bgi12rcd13ifvqb70","pricing_plan_id":"cebpf4jnsgd1na2vs0mg"},{"bike_id":"f0a986a9-b551-4a54-a210-d8c4a7a26100","system_id":"levelo_inurba_marseille","lat":43.303002,"lon":5.392142,"is_reserved":false,"is_disabled":false,"rental_uris":{"android":"levelo://app?vid=f0a986a9-b551-4a54-a210-d8c4a7a26100","ios":"levelo://app?vid=f0a986a9-b551-4a54-a210-d8c4a7a26100"},"vehicle_type_id":"4","last_reported":1720375783,"current_range_meters":0,"station_id":"ce4bgkh2rcd13ifvqbk0","pricing_plan_id":"cebpf4jnsgd1na2vs0mg"},{"bike_id":"2e25483b-a825-4fa0-ada8-24bc80b5f61a","system_id":"levelo_inurba_marseille","lat":43.303002,"lon":5.392142,"is_reserved":false,"is_disabled":false,"rental_uris":{"android":"levelo://app?vid=2e25483b-a825-4fa0-ada8-24bc80b5f61a","ios":"levelo://app?vid=2e25483b-a825-4fa0-ada8-24bc80b5f61a"},"vehicle_type_id":"4","last_reported":1720375783,"current_range_meters":10000,"station_id":"ce4bgkh2rcd13ifvqbk0","pricing_plan_id":"cebpf4jnsgd1na2vs0mg"},{"bike_id":"3aee20f1-d2c4-482b-9904-76d2a557b23b","system_id":"levelo_inurba_marseille","lat":43.30085,"lon":5.390856,"is_reserved":false,"is_disabled":false,"rental_uris":{"android":"levelo://app?vid=3aee20f1-d2c4-482b-9904-76d2a557b23b","ios":"levelo://app?vid=3aee20f1-d2c4-482b-9904-76d2a557b23b"},"vehicle_type_id":"4","last_reported":1720375783,"current_range_meters":2800,"station_id":"ce4bh192rcd13ifvqdb0","pricing_plan_id":"cebpf4jnsgd1na2vs0mg"},{"bike_id":"9444ff0f-875d-4f5f-9b49-55e5f8aee535","system_id":"levelo_inurba_marseille","lat":43.292311,"lon":5.360731,"is_reserved":false,"is_disabled":false,"rental_uris":{"android":"levelo://app?vid=9444ff0f-875d-4f5f-9b49-55e5f8aee535","ios":"levelo://app?vid=9444ff0f-875d-4f5f-9b49-55e5f8aee535"},"vehicle_type_id":"4","last_reported":1720375783,"current_range_meters":0,"station_id":"ce4bhbh2rcd13ifvqeqg","pricing_plan_id":"cebpf4jnsgd1na2vs0mg"},{"bike_id":"197474e2-478f-42bc-842a-3bea9b841049","system_id":"levelo_inurba_marseille","lat":43.298764,"lon":5.388973,"is_reserved":false,"is_disabled":false,"rental_uris":{"android":"levelo://app?vid=197474e2-478f-42bc-842a-3bea9b841049","ios":"levelo://app?vid=197474e2-478f-42bc-842a-3bea9b841049"},"vehicle_type_id":"4","last_reported":1720375783,"current_range_meters":0,"station_id":"ce4bh392rcd13ifvqdl0","pricing_plan_id":"cebpf4jnsgd1na2vs0mg"},{"bike_id":"89775e39-08c1-417a-bfab-1fe5dc5fd079","system_id":"levelo_inurba_marseille","lat":43.291675,"lon":5.371583,"is_reserved":false,"is_disabled":false,"rental_uris":{"android":"levelo://app?vid=89775e39-08c1-417a-bfab-1fe5dc5fd079","ios":"levelo://app?vid=89775e39-08c1-417a-bfab-1fe5dc5fd079"},"vehicle_type_id":"4","last_reported":1720375783,"current_range_meters":8400,"station_id":"ce4bha92rcd13ifvqeh0","pricing_plan_id":"cebpf4jnsgd1na2vs0mg"},{"bike_id":"2d2ef4d7-0a79-41ce-8093-1369e6c86426","system_id":"levelo_inurba_marseille","lat":43.291671,"lon":5.371575,"is_reserved":false,"is_disabled":false,"rental_uris":{"android":"levelo://app?vid=2d2ef4d7-0a79-41ce-8093-1369e6c86426","ios":"levelo://app?vid=2d2ef4d7-0a79-41ce-8093-1369e6c86426"},"vehicle_type_id":"4","last_reported":1720375783,"current_range_meters":0,"station_id":"ce4bha92rcd13ifvqeh0","pricing_plan_id":"cebpf4jnsgd1na2vs0mg"},{"bike_id":"e5847840-27e0-4d89-a997-1b4642f4031a","system_id":"levelo_inurba_marseille","lat":43.291994,"lon":5.357886,"is_reserved":false,"is_disabled":false,"rental_uris":{"android":"levelo://app?vid=e5847840-27e0-4d89-a997-1b4642f4031a","ios":"levelo://app?vid=e5847840-27e0-4d89-a997-1b4642f4031a"},"vehicle_type_id":"4","last_reported":1720375783,"current_range_meters":3200,"station_id":"ce4bhb12rcd13ifvqel0","pricing_plan_id":"cebpf4jnsgd1na2vs0mg"},{"bike_id":"f9657e9c-4052-4b3e-8bd8-5f1c7a8d4411","system_id":"levelo_inurba_marseille","lat":43.313291,"lon":5.396838,"is_reserved":false,"is_disabled":false,"rental_uris":{"android":"levelo://app?vid=f9657e9c-4052-4b3e-8bd8-5f1c7a8d4411","ios":"levelo://app?vid=f9657e9c-4052-4b3e-8bd8-5f1c7a8d4411"},"vehicle_type_id":"4","last_reported":1720375783,"current_range_meters":0,"station_id":"ce4bgvp2rcd13ifvqcu0","pricing_plan_id":"cebpf4jnsgd1na2vs0mg"},{"bike_id":"9077c79f-9280-4c3f-9baf-a32b7dd75f5f","system_id":"levelo_inurba_marseille","lat":43.309038,"lon":5.396546,"is_reserved":false,"is_disabled":false,"rental_uris":{"android":"levelo://app?vid=9077c79f-9280-4c3f-9baf-a32b7dd75f5f","ios":"levelo://app?vid=9077c79f-9280-4c3f-9baf-a32b7dd75f5f"},"vehicle_type_id":"4","last_reported":1720375783,"current_range_meters":2400,"station_id":"ce4bh012rcd13ifvqcv0","pricing_plan_id":"cebpf4jnsgd1na2vs0mg"},{"bike_id":"25cbbee2-61be-419d-870d-a3f927a28b58","system_id":"levelo_inurba_marseille","lat":43.294153,"lon":5.386305,"is_reserved":false,"is_disabled":false,"rental_uris":{"android":"levelo://app?vid=25cbbee2-61be-419d-870d-a3f927a28b58","ios":"levelo://app?vid=25cbbee2-61be-419d-870d-a3f927a28b58"},"vehicle_type_id":"4","last_reported":1720375783,"current_range_meters":0,"station_id":"ce4bh2h2rcd13ifvqdh0","pricing_plan_id":"cebpf4jnsgd1na2vs0mg"},{"bike_id":"d7b5c356-0137-45a1-87c4-2b04b0041edf","system_id":"levelo_inurba_marseille","lat":43.294153,"lon":5.386305,"is_reserved":false,"is_disabled":false,"rental_uris":{"android":"levelo://app?vid=d7b5c356-0137-45a1-87c4-2b04b0041edf","ios":"levelo://app?vid=d7b5c356-0137-45a1-87c4-2b04b0041edf"},"vehicle_type_id":"4","last_reported":1720375783,"current_range_meters":1200,"station_id":"ce4bh2h2rcd13ifvqdh0","pricing_plan_id":"cebpf4jnsgd1na2vs0mg"},{"bike_id":"26d18e7c-78fd-40ad-87cc-9d2e3207f87a","system_id":"levelo_inurba_marseille","lat":43.28941,"lon":5.36636,"is_reserved":false,"is_disabled":false,"rental_uris":{"android":"levelo://app?vid=26d18e7c-78fd-40ad-87cc-9d2e3207f87a","ios":"levelo://app?vid=26d18e7c-78fd-40ad-87cc-9d2e3207f87a"},"vehicle_type_id":"4","last_reported":1720375783,"current_range_meters":0,"station_id":"ce4bhap2rcd13ifvqek0","pricing_plan_id":"cebpf4jnsgd1na2vs0mg"},{"bike_id":"e8efdb41-3e8b-4a38-8bd8-c5ebcdf1798f","system_id":"levelo_inurba_marseille","lat":43.289468,"lon":5.363719,"is_reserved":false,"is_disabled":false,"rental_uris":{"android":"levelo://app?vid=e8efdb41-3e8b-4a38-8bd8-c5ebcdf1798f","ios":"levelo://app?vid=e8efdb41-3e8b-4a38-8bd8-c5ebcdf1798f"},"vehicle_type_id":"4","last_reported":1720375783,"current_range_meters":0,"station_id":"ce4bhc92rcd13ifvqetg","pricing_plan_id":"cebpf4jnsgd1na2vs0mg"},{"bike_id":"e6b6c67a-6619-4a6e-a43a-da754d54db71","system_id":"levelo_inurba_marseille","lat":43.292642,"lon":5.384254,"is_reserved":false,"is_disabled":false,"rental_uris":{"android":"levelo://app?vid=e6b6c67a-6619-4a6e-a43a-da754d54db71","ios":"levelo://app?vid=e6b6c67a-6619-4a6e-a43a-da754d54db71"},"vehicle_type_id":"4","last_reported":1720375783,"current_range_meters":8400,"station_id":"ce4bh692rcd13ifvqea0","pricing_plan_id":"cebpf4jnsgd1na2vs0mg"},{"bike_id":"414799ce-91fd-4cf5-b726-f8eb27d0c5df","system_id":"levelo_inurba_marseille","lat":43.292642,"lon":5.384254,"is_reserved":false,"is_disabled":false,"rental_uris":{"android":"levelo://app?vid=414799ce-91fd-4cf5-b726-f8eb27d0c5df","ios":"levelo://app?vid=414799ce-91fd-4cf5-b726-f8eb27d0c5df"},"vehicle_type_id":"4","last_reported":1720375783,"current_range_meters":0,"station_id":"ce4bh692rcd13ifvqea0","pricing_plan_id":"cebpf4jnsgd1na2vs0mg"},{"bike_id":"7c96f78c-3609-498d-bcd6-badbdb5b0375","system_id":"levelo_inurba_marseille","lat":43.290995,"lon":5.381361,"is_reserved":false,"is_disabled":false,"rental_uris":{"android":"levelo://app?vid=7c96f78c-3609-498d-bcd6-badbdb5b0375","ios":"levelo://app?vid=7c96f78c-3609-498d-bcd6-badbdb5b0375"},"vehicle_type_id":"4","last_reported":1720375783,"current_range_meters":1600,"station_id":"ce4bh512rcd13ifvqe2g","pricing_plan_id":"cebpf4jnsgd1na2vs0mg"},{"bike_id":"29f8ff55-b7cc-4aec-9fce-3aaff89dd0dc","system_id":"levelo_inurba_marseille","lat":43.29782,"lon":5.3934,"is_reserved":false,"is_disabled":false,"rental_uris":{"android":"levelo://app?vid=29f8ff55-b7cc-4aec-9fce-3aaff89dd0dc","ios":"levelo://app?vid=29f8ff55-b7cc-4aec-9fce-3aaff89dd0dc"},"vehicle_type_id":"4","last_reported":1720375783,"current_range_meters":11200,"station_id":"chh1huq6cuj3fo74tm60","pricing_plan_id":"cebpf4jnsgd1na2vs0mg"},{"bike_id":"3f7d0b1c-224c-4a21-962b-d08c48c9e76f","system_id":"levelo_inurba_marseille","lat":43.330442,"lon":5.389148,"is_reserved":false,"is_disabled":false,"rental_uris":{"android":"levelo://app?vid=3f7d0b1c-224c-4a21-962b-d08c48c9e76f","ios":"levelo://app?vid=3f7d0b1c-224c-4a21-962b-d08c48c9e76f"},"vehicle_type_id":"4","last_reported":1720375783,"current_range_meters":26400,"station_id":"ce4bhr92rcd13ifvqhrg","pricing_plan_id":"cebpf4jnsgd1na2vs0mg"},{"bike_id":"512d2506-5d55-4c4c-b58c-ba20090dc293","system_id":"levelo_inurba_marseille","lat":43.289741,"lon":5.378306,"is_reserved":false,"is_disabled":false,"rental_uris":{"android":"levelo://app?vid=512d2506-5d55-4c4c-b58c-ba20090dc293","ios":"levelo://app?vid=512d2506-5d55-4c4c-b58c-ba20090dc293"},"vehicle_type_id":"4","last_reported":1720375783,"current_range_meters":7600,"station_id":"ce4bh9p2rcd13ifvqed0","pricing_plan_id":"cebpf4jnsgd1na2vs0mg"},{"bike_id":"d928cc06-f741-48d6-96ea-ec9d4ab19e15","system_id":"levelo_inurba_marseille","lat":43.330442,"lon":5.389148,"is_reserved":false,"is_disabled":false,"rental_uris":{"android":"levelo://app?vid=d928cc06-f741-48d6-96ea-ec9d4ab19e15","ios":"levelo://app?vid=d928cc06-f741-48d6-96ea-ec9d4ab19e15"},"vehicle_type_id":"4","last_reported":1720375783,"current_range_meters":17200,"station_id":"ce4bhr92rcd13ifvqhrg","pricing_plan_id":"cebpf4jnsgd1na2vs0mg"},{"bike_id":"c6ebcb42-1253-489c-a760-790935dbd60d","system_id":"levelo_inurba_marseille","lat":43.330442,"lon":5.389148,"is_reserved":false,"is_disabled":false,"rental_uris":{"android":"levelo://app?vid=c6ebcb42-1253-489c-a760-790935dbd60d","ios":"levelo://app?vid=c6ebcb42-1253-489c-a760-790935dbd60d"},"vehicle_type_id":"4","last_reported":1720375783,"current_range_meters":24400,"station_id":"ce4bhr92rcd13ifvqhrg","pricing_plan_id":"cebpf4jnsgd1na2vs0mg"},{"bike_id":"1d82a0c8-1968-4764-96db-f60bdcdb23fc","system_id":"levelo_inurba_marseille","lat":43.330442,"lon":5.389148,"is_reserved":false,"is_disabled":false,"rental_uris":{"android":"levelo://app?vid=1d82a0c8-1968-4764-96db-f60bdcdb23fc","ios":"levelo://app?vid=1d82a0c8-1968-4764-96db-f60bdcdb23fc"},"vehicle_type_id":"4","last_reported":1720375783,"current_range_meters":2400,"station_id":"ce4bhr92rcd13ifvqhrg","pricing_plan_id":"cebpf4jnsgd1na2vs0mg"},{"bike_id":"3f0f7325-8241-4b59-8b0a-fc3db0acdd7b","system_id":"levelo_inurba_marseille","lat":43.330442,"lon":5.389148,"is_reserved":false,"is_disabled":false,"rental_uris":{"android":"levelo://app?vid=3f0f7325-8241-4b59-8b0a-fc3db0acdd7b","ios":"levelo://app?vid=3f0f7325-8241-4b59-8b0a-fc3db0acdd7b"},"vehicle_type_id":"4","last_reported":1720375783,"current_range_meters":20000,"station_id":"ce4bhr92rcd13ifvqhrg","pricing_plan_id":"cebpf4jnsgd1na2vs0mg"},{"bike_id":"edd784a5-5bab-4f3e-90cf-c2878e16fab3","system_id":"levelo_inurba_marseille","lat":43.289722,"lon":5.378378,"is_reserved":false,"is_disabled":false,"rental_uris":{"android":"levelo://app?vid=edd784a5-5bab-4f3e-90cf-c2878e16fab3","ios":"levelo://app?vid=edd784a5-5bab-4f3e-90cf-c2878e16fab3"},"vehicle_type_id":"4","last_reported":1720375783,"current_range_meters":0,"station_id":"ce4bh9p2rcd13ifvqed0","pricing_plan_id":"cebpf4jnsgd1na2vs0mg"},{"bike_id":"62fcbbda-6953-4a2f-a177-bcc3e0286669","system_id":"levelo_inurba_marseille","lat":43.295169,"lon":5.390426,"is_reserved":false,"is_disabled":false,"rental_uris":{"android":"levelo://app?vid=62fcbbda-6953-4a2f-a177-bcc3e0286669","ios":"levelo://app?vid=62fcbbda-6953-4a2f-a177-bcc3e0286669"},"vehicle_type_id":"4","last_reported":1720375783,"current_range_meters":6800,"station_id":"ce4bh3p2rcd13ifvqdp0","pricing_plan_id":"cebpf4jnsgd1na2vs0mg"},{"bike_id":"1df894c9-c7b6-4ca0-9e46-d25545cc6efb","system_id":"levelo_inurba_marseille","lat":43.28856,"lon":5.358371,"is_reserved":false,"is_disabled":false,"rental_uris":{"android":"levelo://app?vid=1df894c9-c7b6-4ca0-9e46-d25545cc6efb","ios":"levelo://app?vid=1df894c9-c7b6-4ca0-9e46-d25545cc6efb"},"vehicle_type_id":"4","last_reported":1720375783,"current_range_meters":0,"station_id":"ce4bhb12rcd13ifvqem0","pricing_plan_id":"cebpf4jnsgd1na2vs0mg"},{"bike_id":"5d87f85b-d917-44fd-9ba0-19701a78fb69","system_id":"levelo_inurba_marseille","lat":43.28856,"lon":5.358371,"is_reserved":false,"is_disabled":false,"rental_uris":{"android":"levelo://app?vid=5d87f85b-d917-44fd-9ba0-19701a78fb69","ios":"levelo://app?vid=5d87f85b-d917-44fd-9ba0-19701a78fb69"},"vehicle_type_id":"4","last_reported":1720375783,"current_range_meters":1200,"station_id":"ce4bhb12rcd13ifvqem0","pricing_plan_id":"cebpf4jnsgd1na2vs0mg"},{"bike_id":"0605d7c2-1fe3-4178-a5af-1a72291b2120","system_id":"levelo_inurba_marseille","lat":43.294162,"lon":5.386292,"is_reserved":false,"is_disabled":false,"rental_uris":{"android":"levelo://app?vid=0605d7c2-1fe3-4178-a5af-1a72291b2120","ios":"levelo://app?vid=0605d7c2-1fe3-4178-a5af-1a72291b2120"},"vehicle_type_id":"4","last_reported":1720375783,"current_range_meters":12800,"station_id":"ce4bh2h2rcd13ifvqdh0","pricing_plan_id":"cebpf4jnsgd1na2vs0mg"},{"bike_id":"fdbfcc29-04c6-4739-ba7e-441fb2e2593e","system_id":"levelo_inurba_marseille","lat":43.337408,"lon":5.374532,"is_reserved":false,"is_disabled":false,"rental_uris":{"android":"levelo://app?vid=fdbfcc29-04c6-4739-ba7e-441fb2e2593e","ios":"levelo://app?vid=fdbfcc29-04c6-4739-ba7e-441fb2e2593e"},"vehicle_type_id":"4","last_reported":1720375783,"current_range_meters":30400,"station_id":"","pricing_plan_id":"cebpf4jnsgd1na2vs0mg"},{"bike_id":"851d3ad5-6749-4c20-a8da-b849e944e522","system_id":"levelo_inurba_marseille","lat":43.30929,"lon":5.40139,"is_reserved":false,"is_disabled":false,"rental_uris":{"android":"levelo://app?vid=851d3ad5-6749-4c20-a8da-b849e944e522","ios":"levelo://app?vid=851d3ad5-6749-4c20-a8da-b849e944e522"},"vehicle_type_id":"4","last_reported":1720375783,"current_range_meters":26000,"station_id":"ce4bgvp2rcd13ifvqct0","pricing_plan_id":"cebpf4jnsgd1na2vs0mg"},{"bike_id":"88f27a2f-daa4-4dfc-b23a-0cfd244fc967","system_id":"levelo_inurba_marseille","lat":43.337447,"lon":5.374523,"is_reserved":false,"is_disabled":false,"rental_uris":{"android":"levelo://app?vid=88f27a2f-daa4-4dfc-b23a-0cfd244fc967","ios":"levelo://app?vid=88f27a2f-daa4-4dfc-b23a-0cfd244fc967"},"vehicle_type_id":"4","last_reported":1720375783,"current_range_meters":12800,"station_id":"","pricing_plan_id":"cebpf4jnsgd1na2vs0mg"},{"bike_id":"d18fc15d-e9a7-4dbb-9aed-fc17bcc86552","system_id":"levelo_inurba_marseille","lat":43.337583,"lon":5.374261,"is_reserved":false,"is_disabled":false,"rental_uris":{"android":"levelo://app?vid=d18fc15d-e9a7-4dbb-9aed-fc17bcc86552","ios":"levelo://app?vid=d18fc15d-e9a7-4dbb-9aed-fc17bcc86552"},"vehicle_type_id":"4","last_reported":1720375783,"current_range_meters":12400,"station_id":"","pricing_plan_id":"cebpf4jnsgd1na2vs0mg"},{"bike_id":"41fcb31e-469f-4a07-8a88-fbe57c2d85f5","system_id":"levelo_inurba_marseille","lat":43.33755,"lon":5.37455,"is_reserved":false,"is_disabled":false,"rental_uris":{"android":"levelo://app?vid=41fcb31e-469f-4a07-8a88-fbe57c2d85f5","ios":"levelo://app?vid=41fcb31e-469f-4a07-8a88-fbe57c2d85f5"},"vehicle_type_id":"4","last_reported":1720375783,"current_range_meters":22800,"station_id":"","pricing_plan_id":"cebpf4jnsgd1na2vs0mg"},{"bike_id":"568e51fe-3317-4e32-82a4-2bd4944c6912","system_id":"levelo_inurba_marseille","lat":43.337601,"lon":5.374277,"is_reserved":false,"is_disabled":false,"rental_uris":{"android":"levelo://app?vid=568e51fe-3317-4e32-82a4-2bd4944c6912","ios":"levelo://app?vid=568e51fe-3317-4e32-82a4-2bd4944c6912"},"vehicle_type_id":"4","last_reported":1720375783,"current_range_meters":2000,"station_id":"","pricing_plan_id":"cebpf4jnsgd1na2vs0mg"},{"bike_id":"ba77c056-6fe7-4228-884f-a9f07e3f5ccc","system_id":"levelo_inurba_marseille","lat":43.337603,"lon":5.374403,"is_reserved":false,"is_disabled":false,"rental_uris":{"android":"levelo://app?vid=ba77c056-6fe7-4228-884f-a9f07e3f5ccc","ios":"levelo://app?vid=ba77c056-6fe7-4228-884f-a9f07e3f5ccc"},"vehicle_type_id":"4","last_reported":1720375783,"current_range_meters":30000,"station_id":"ce4rr2p2rcd13i802rgg","pricing_plan_id":"cebpf4jnsgd1na2vs0mg"},{"bike_id":"22664dbb-05c6-44b7-ac76-723d395f476e","system_id":"levelo_inurba_marseille","lat":43.337645,"lon":5.374287,"is_reserved":false,"is_disabled":false,"rental_uris":{"android":"levelo://app?vid=22664dbb-05c6-44b7-ac76-723d395f476e","ios":"levelo://app?vid=22664dbb-05c6-44b7-ac76-723d395f476e"},"vehicle_type_id":"4","last_reported":1720375783,"current_range_meters":24400,"station_id":"","pricing_plan_id":"cebpf4jnsgd1na2vs0mg"},{"bike_id":"e8043679-5e2d-45ca-af32-4c2eeb2d3b4d","system_id":"levelo_inurba_marseille","lat":43.337665,"lon":5.374356,"is_reserved":false,"is_disabled":false,"rental_uris":{"android":"levelo://app?vid=e8043679-5e2d-45ca-af32-4c2eeb2d3b4d","ios":"levelo://app?vid=e8043679-5e2d-45ca-af32-4c2eeb2d3b4d"},"vehicle_type_id":"4","last_reported":1720375783,"current_range_meters":14400,"station_id":"","pricing_plan_id":"cebpf4jnsgd1na2vs0mg"},{"bike_id":"ca28a750-034c-4926-945c-7b5f8a0741a9","system_id":"levelo_inurba_marseille","lat":43.337684,"lon":5.374419,"is_reserved":false,"is_disabled":false,"rental_uris":{"android":"levelo://app?vid=ca28a750-034c-4926-945c-7b5f8a0741a9","ios":"levelo://app?vid=ca28a750-034c-4926-945c-7b5f8a0741a9"},"vehicle_type_id":"4","last_reported":1720375783,"current_range_meters":25600,"station_id":"","pricing_plan_id":"cebpf4jnsgd1na2vs0mg"},{"bike_id":"68a00e55-7382-47f2-846f-91a476bf2e8e","system_id":"levelo_inurba_marseille","lat":43.301117,"lon":5.398795,"is_reserved":false,"is_disabled":false,"rental_uris":{"android":"levelo://app?vid=68a00e55-7382-47f2-846f-91a476bf2e8e","ios":"levelo://app?vid=68a00e55-7382-47f2-846f-91a476bf2e8e"},"vehicle_type_id":"4","last_reported":1720375783,"current_range_meters":8800,"station_id":"ce4bh0h2rcd13ifvqd40","pricing_plan_id":"cebpf4jnsgd1na2vs0mg"},{"bike_id":"c253c1a1-3e46-4666-8dd6-9bdfbf842c27","system_id":"levelo_inurba_marseille","lat":43.28727,"lon":5.36078,"is_reserved":false,"is_disabled":false,"rental_uris":{"android":"levelo://app?vid=c253c1a1-3e46-4666-8dd6-9bdfbf842c27","ios":"levelo://app?vid=c253c1a1-3e46-4666-8dd6-9bdfbf842c27"},"vehicle_type_id":"4","last_reported":1720375783,"current_range_meters":2000,"station_id":"cki0cbj6b192h4jlfktg","pricing_plan_id":"cebpf4jnsgd1na2vs0mg"},{"bike_id":"521138e1-cc76-4f6c-a6ca-333c20821687","system_id":"levelo_inurba_marseille","lat":43.33737,"lon":5.35581,"is_reserved":false,"is_disabled":false,"rental_uris":{"android":"levelo://app?vid=521138e1-cc76-4f6c-a6ca-333c20821687","ios":"levelo://app?vid=521138e1-cc76-4f6c-a6ca-333c20821687"},"vehicle_type_id":"4","last_reported":1720375783,"current_range_meters":26000,"station_id":"","pricing_plan_id":"cebpf4jnsgd1na2vs0mg"},{"bike_id":"9359f27e-5358-485b-aa8b-36c314591b4e","system_id":"levelo_inurba_marseille","lat":43.295196,"lon":5.39397,"is_reserved":false,"is_disabled":false,"rental_uris":{"android":"levelo://app?vid=9359f27e-5358-485b-aa8b-36c314591b4e","ios":"levelo://app?vid=9359f27e-5358-485b-aa8b-36c314591b4e"},"vehicle_type_id":"4","last_reported":1720375783,"current_range_meters":800,"station_id":"ce4bh292rcd13ifvqdf0","pricing_plan_id":"cebpf4jnsgd1na2vs0mg"},{"bike_id":"4845eea2-2ec1-4fd3-8ddc-da11faaf3940","system_id":"levelo_inurba_marseille","lat":43.298681,"lon":5.397225,"is_reserved":false,"is_disabled":false,"rental_uris":{"android":"levelo://app?vid=4845eea2-2ec1-4fd3-8ddc-da11faaf3940","ios":"levelo://app?vid=4845eea2-2ec1-4fd3-8ddc-da11faaf3940"},"vehicle_type_id":"4","last_reported":1720375783,"current_range_meters":3600,"station_id":"ce4bh0h2rcd13ifvqd50","pricing_plan_id":"cebpf4jnsgd1na2vs0mg"},{"bike_id":"1013e222-c4e1-40b1-8991-1f1f46bd49a1","system_id":"levelo_inurba_marseille","lat":43.2952,"lon":5.39404,"is_reserved":false,"is_disabled":false,"rental_uris":{"android":"levelo://app?vid=1013e222-c4e1-40b1-8991-1f1f46bd49a1","ios":"levelo://app?vid=1013e222-c4e1-40b1-8991-1f1f46bd49a1"},"vehicle_type_id":"4","last_reported":1720375783,"current_range_meters":0,"station_id":"ce4bh292rcd13ifvqdf0","pricing_plan_id":"cebpf4jnsgd1na2vs0mg"},{"bike_id":"e721d716-0787-4288-9554-b7e1cb61f388","system_id":"levelo_inurba_marseille","lat":43.290345,"lon":5.38646,"is_reserved":false,"is_disabled":false,"rental_uris":{"android":"levelo://app?vid=e721d716-0787-4288-9554-b7e1cb61f388","ios":"levelo://app?vid=e721d716-0787-4288-9554-b7e1cb61f388"},"vehicle_type_id":"4","last_reported":1720375783,"current_range_meters":25600,"station_id":"ce4bh4p2rcd13ifvqe0g","pricing_plan_id":"cebpf4jnsgd1na2vs0mg"},{"bike_id":"0546d34c-31d1-4bbb-bf91-85242d6e2018","system_id":"levelo_inurba_marseille","lat":43.3026,"lon":5.40067,"is_reserved":false,"is_disabled":false,"rental_uris":{"android":"levelo://app?vid=0546d34c-31d1-4bbb-bf91-85242d6e2018","ios":"levelo://app?vid=0546d34c-31d1-4bbb-bf91-85242d6e2018"},"vehicle_type_id":"4","last_reported":1720375783,"current_range_meters":0,"station_id":"ce4bgvh2rcd13ifvqcs0","pricing_plan_id":"cebpf4jnsgd1na2vs0mg"},{"bike_id":"8d5bc0b8-41bb-470a-94b2-36ba3b8593e3","system_id":"levelo_inurba_marseille","lat":43.289307,"lon":5.38406,"is_reserved":false,"is_disabled":false,"rental_uris":{"android":"levelo://app?vid=8d5bc0b8-41bb-470a-94b2-36ba3b8593e3","ios":"levelo://app?vid=8d5bc0b8-41bb-470a-94b2-36ba3b8593e3"},"vehicle_type_id":"4","last_reported":1720375783,"current_range_meters":800,"station_id":"ce4bh612rcd13ifvqe6g","pricing_plan_id":"cebpf4jnsgd1na2vs0mg"},{"bike_id":"cb4af983-b60c-4988-8ceb-fef74db8e694","system_id":"levelo_inurba_marseille","lat":43.29022,"lon":5.38633,"is_reserved":false,"is_disabled":false,"rental_uris":{"android":"levelo://app?vid=cb4af983-b60c-4988-8ceb-fef74db8e694","ios":"levelo://app?vid=cb4af983-b60c-4988-8ceb-fef74db8e694"},"vehicle_type_id":"4","last_reported":1720375783,"current_range_meters":0,"station_id":"ce4bh4p2rcd13ifvqe0g","pricing_plan_id":"cebpf4jnsgd1na2vs0mg"},{"bike_id":"e8a9b574-cfbb-4607-8967-b31bb77dff04","system_id":"levelo_inurba_marseille","lat":43.302759,"lon":5.400793,"is_reserved":false,"is_disabled":false,"rental_uris":{"android":"levelo://app?vid=e8a9b574-cfbb-4607-8967-b31bb77dff04","ios":"levelo://app?vid=e8a9b574-cfbb-4607-8967-b31bb77dff04"},"vehicle_type_id":"4","last_reported":1720375783,"current_range_meters":1200,"station_id":"ce4bgvh2rcd13ifvqcs0","pricing_plan_id":"cebpf4jnsgd1na2vs0mg"},{"bike_id":"edd03247-35a9-4f85-89c6-97a43bb9d561","system_id":"levelo_inurba_marseille","lat":43.286039,"lon":5.370679,"is_reserved":false,"is_disabled":false,"rental_uris":{"android":"levelo://app?vid=edd03247-35a9-4f85-89c6-97a43bb9d561","ios":"levelo://app?vid=edd03247-35a9-4f85-89c6-97a43bb9d561"},"vehicle_type_id":"4","last_reported":1720375783,"current_range_meters":10000,"station_id":"ce4bht12rcd13ifvqi60","pricing_plan_id":"cebpf4jnsgd1na2vs0mg"},{"bike_id":"56276240-f665-4d17-b457-f9235abc6860","system_id":"levelo_inurba_marseille","lat":43.287184,"lon":5.37937,"is_reserved":false,"is_disabled":false,"rental_uris":{"android":"levelo://app?vid=56276240-f665-4d17-b457-f9235abc6860","ios":"levelo://app?vid=56276240-f665-4d17-b457-f9235abc6860"},"vehicle_type_id":"4","last_reported":1720375783,"current_range_meters":8800,"station_id":"ce4bh9p2rcd13ifvqec0","pricing_plan_id":"cebpf4jnsgd1na2vs0mg"},{"bike_id":"762752b4-888b-4f2f-8dcb-e0b912fe3157","system_id":"levelo_inurba_marseille","lat":43.31612,"lon":5.404,"is_reserved":false,"is_disabled":false,"rental_uris":{"android":"levelo://app?vid=762752b4-888b-4f2f-8dcb-e0b912fe3157","ios":"levelo://app?vid=762752b4-888b-4f2f-8dcb-e0b912fe3157"},"vehicle_type_id":"4","last_reported":1720375783,"current_range_meters":4800,"station_id":"","pricing_plan_id":"cebpf4jnsgd1na2vs0mg"},{"bike_id":"21180023-fd31-4a3f-8a3c-4236df3bf61c","system_id":"levelo_inurba_marseille","lat":43.31684,"lon":5.40462,"is_reserved":false,"is_disabled":false,"rental_uris":{"android":"levelo://app?vid=21180023-fd31-4a3f-8a3c-4236df3bf61c","ios":"levelo://app?vid=21180023-fd31-4a3f-8a3c-4236df3bf61c"},"vehicle_type_id":"4","last_reported":1720375783,"current_range_meters":14400,"station_id":"","pricing_plan_id":"cebpf4jnsgd1na2vs0mg"},{"bike_id":"69961ca8-91ec-42c8-a0b8-c3ff35d5168a","system_id":"levelo_inurba_marseille","lat":43.3169,"lon":5.40474,"is_reserved":false,"is_disabled":false,"rental_uris":{"android":"levelo://app?vid=69961ca8-91ec-42c8-a0b8-c3ff35d5168a","ios":"levelo://app?vid=69961ca8-91ec-42c8-a0b8-c3ff35d5168a"},"vehicle_type_id":"4","last_reported":1720375783,"current_range_meters":14000,"station_id":"","pricing_plan_id":"cebpf4jnsgd1na2vs0mg"},{"bike_id":"da37514c-24bb-409f-b126-8a4e7ba5d794","system_id":"levelo_inurba_marseille","lat":43.316821,"lon":5.404737,"is_reserved":false,"is_disabled":false,"rental_uris":{"android":"levelo://app?vid=da37514c-24bb-409f-b126-8a4e7ba5d794","ios":"levelo://app?vid=da37514c-24bb-409f-b126-8a4e7ba5d794"},"vehicle_type_id":"4","last_reported":1720375783,"current_range_meters":7600,"station_id":"ce4bh012rcd13ifvqd00","pricing_plan_id":"cebpf4jnsgd1na2vs0mg"},{"bike_id":"ca5a5b86-d8fc-493e-b24b-f5c24bc3ac99","system_id":"levelo_inurba_marseille","lat":43.31703,"lon":5.40494,"is_reserved":false,"is_disabled":false,"rental_uris":{"android":"levelo://app?vid=ca5a5b86-d8fc-493e-b24b-f5c24bc3ac99","ios":"levelo://app?vid=ca5a5b86-d8fc-493e-b24b-f5c24bc3ac99"},"vehicle_type_id":"4","last_reported":1720375783,"current_range_meters":0,"station_id":"","pricing_plan_id":"cebpf4jnsgd1na2vs0mg"},{"bike_id":"a70af41c-8178-4375-b9de-d1eada2ab744","system_id":"levelo_inurba_marseille","lat":43.28806,"lon":5.3856,"is_reserved":false,"is_disabled":false,"rental_uris":{"android":"levelo://app?vid=a70af41c-8178-4375-b9de-d1eada2ab744","ios":"levelo://app?vid=a70af41c-8178-4375-b9de-d1eada2ab744"},"vehicle_type_id":"4","last_reported":1720375783,"current_range_meters":7600,"station_id":"","pricing_plan_id":"cebpf4jnsgd1na2vs0mg"},{"bike_id":"ff673b66-6d06-4bad-aff8-3fed648c5b68","system_id":"levelo_inurba_marseille","lat":43.28548,"lon":5.37851,"is_reserved":false,"is_disabled":false,"rental_uris":{"android":"levelo://app?vid=ff673b66-6d06-4bad-aff8-3fed648c5b68","ios":"levelo://app?vid=ff673b66-6d06-4bad-aff8-3fed648c5b68"},"vehicle_type_id":"4","last_reported":1720375783,"current_range_meters":0,"station_id":"ce4bhh92rcd13ifvqfi0","pricing_plan_id":"cebpf4jnsgd1na2vs0mg"},{"bike_id":"6c18ef54-281a-4f1d-a664-992261b47415","system_id":"levelo_inurba_marseille","lat":43.29442,"lon":5.39747,"is_reserved":false,"is_disabled":false,"rental_uris":{"android":"levelo://app?vid=6c18ef54-281a-4f1d-a664-992261b47415","ios":"levelo://app?vid=6c18ef54-281a-4f1d-a664-992261b47415"},"vehicle_type_id":"4","last_reported":1720375783,"current_range_meters":3600,"station_id":"ce4bh3h2rcd13ifvqdo0","pricing_plan_id":"cebpf4jnsgd1na2vs0mg"},{"bike_id":"7627668b-b208-4ba0-a2aa-d78587108efa","system_id":"levelo_inurba_marseille","lat":43.291994,"lon":5.392907,"is_reserved":false,"is_disabled":false,"rental_uris":{"android":"levelo://app?vid=7627668b-b208-4ba0-a2aa-d78587108efa","ios":"levelo://app?vid=7627668b-b208-4ba0-a2aa-d78587108efa"},"vehicle_type_id":"4","last_reported":1720375783,"current_range_meters":28800,"station_id":"ce4bh192rcd13ifvqdd0","pricing_plan_id":"cebpf4jnsgd1na2vs0mg"},{"bike_id":"9f5559d4-b9b8-4dd7-9b2f-0dc0d1d31589","system_id":"levelo_inurba_marseille","lat":43.28615,"lon":5.35102,"is_reserved":false,"is_disabled":false,"rental_uris":{"android":"levelo://app?vid=9f5559d4-b9b8-4dd7-9b2f-0dc0d1d31589","ios":"levelo://app?vid=9f5559d4-b9b8-4dd7-9b2f-0dc0d1d31589"},"vehicle_type_id":"4","last_reported":1720375783,"current_range_meters":0,"station_id":"ce4bhch2rcd13ifvqeug","pricing_plan_id":"cebpf4jnsgd1na2vs0mg"},{"bike_id":"6935044f-b67f-4948-9488-463821e65b38","system_id":"levelo_inurba_marseille","lat":43.294314,"lon":5.397498,"is_reserved":false,"is_disabled":false,"rental_uris":{"android":"levelo://app?vid=6935044f-b67f-4948-9488-463821e65b38","ios":"levelo://app?vid=6935044f-b67f-4948-9488-463821e65b38"},"vehicle_type_id":"4","last_reported":1720375783,"current_range_meters":14400,"station_id":"ce4bh3h2rcd13ifvqdo0","pricing_plan_id":"cebpf4jnsgd1na2vs0mg"},{"bike_id":"a4baa058-8dbf-4de6-af0a-626a22002920","system_id":"levelo_inurba_marseille","lat":43.28613,"lon":5.35102,"is_reserved":false,"is_disabled":false,"rental_uris":{"android":"levelo://app?vid=a4baa058-8dbf-4de6-af0a-626a22002920","ios":"levelo://app?vid=a4baa058-8dbf-4de6-af0a-626a22002920"},"vehicle_type_id":"4","last_reported":1720375783,"current_range_meters":0,"station_id":"ce4bhch2rcd13ifvqeug","pricing_plan_id":"cebpf4jnsgd1na2vs0mg"},{"bike_id":"1bb675b3-8205-4b1f-993e-d350a963135a","system_id":"levelo_inurba_marseille","lat":43.283998,"lon":5.375062,"is_reserved":false,"is_disabled":false,"rental_uris":{"android":"levelo://app?vid=1bb675b3-8205-4b1f-993e-d350a963135a","ios":"levelo://app?vid=1bb675b3-8205-4b1f-993e-d350a963135a"},"vehicle_type_id":"4","last_reported":1720375783,"current_range_meters":3200,"station_id":"ce4bh412rcd13ifvqds0","pricing_plan_id":"cebpf4jnsgd1na2vs0mg"},{"bike_id":"66bd48cf-8c0d-47d5-b01c-f8a0ca0b9929","system_id":"levelo_inurba_marseille","lat":43.295713,"lon":5.399639,"is_reserved":false,"is_disabled":false,"rental_uris":{"android":"levelo://app?vid=66bd48cf-8c0d-47d5-b01c-f8a0ca0b9929","ios":"levelo://app?vid=66bd48cf-8c0d-47d5-b01c-f8a0ca0b9929"},"vehicle_type_id":"4","last_reported":1720375783,"current_range_meters":0,"station_id":"ce4bh312rcd13ifvqdj0","pricing_plan_id":"cebpf4jnsgd1na2vs0mg"},{"bike_id":"fc4d1c9b-a331-4110-92d1-f9549d9bfb27","system_id":"levelo_inurba_marseille","lat":43.283998,"lon":5.375062,"is_reserved":false,"is_disabled":false,"rental_uris":{"android":"levelo://app?vid=fc4d1c9b-a331-4110-92d1-f9549d9bfb27","ios":"levelo://app?vid=fc4d1c9b-a331-4110-92d1-f9549d9bfb27"},"vehicle_type_id":"4","last_reported":1720375783,"current_range_meters":800,"station_id":"ce4bh412rcd13ifvqds0","pricing_plan_id":"cebpf4jnsgd1na2vs0mg"},{"bike_id":"74ad0030-65ce-4b28-8424-6f7da2bca578","system_id":"levelo_inurba_marseille","lat":43.295713,"lon":5.399639,"is_reserved":false,"is_disabled":false,"rental_uris":{"android":"levelo://app?vid=74ad0030-65ce-4b28-8424-6f7da2bca578","ios":"levelo://app?vid=74ad0030-65ce-4b28-8424-6f7da2bca578"},"vehicle_type_id":"4","last_reported":1720375783,"current_range_meters":4400,"station_id":"ce4bh312rcd13ifvqdj0","pricing_plan_id":"cebpf4jnsgd1na2vs0mg"},{"bike_id":"906eb329-fb9c-4c3e-a450-e2212eed7285","system_id":"levelo_inurba_marseille","lat":43.29953,"lon":5.40327,"is_reserved":false,"is_disabled":false,"rental_uris":{"android":"levelo://app?vid=906eb329-fb9c-4c3e-a450-e2212eed7285","ios":"levelo://app?vid=906eb329-fb9c-4c3e-a450-e2212eed7285"},"vehicle_type_id":"4","last_reported":1720375783,"current_range_meters":17200,"station_id":"","pricing_plan_id":"cebpf4jnsgd1na2vs0mg"},{"bike_id":"f8631b14-c113-4212-8b1e-6825121324af","system_id":"levelo_inurba_marseille","lat":43.28607,"lon":5.38465,"is_reserved":false,"is_disabled":false,"rental_uris":{"android":"levelo://app?vid=f8631b14-c113-4212-8b1e-6825121324af","ios":"levelo://app?vid=f8631b14-c113-4212-8b1e-6825121324af"},"vehicle_type_id":"4","last_reported":1720375783,"current_range_meters":9600,"station_id":"","pricing_plan_id":"cebpf4jnsgd1na2vs0mg"},{"bike_id":"7c0d4826-16d1-4e06-8851-9750690f3353","system_id":"levelo_inurba_marseille","lat":43.286595,"lon":5.386795,"is_reserved":false,"is_disabled":false,"rental_uris":{"android":"levelo://app?vid=7c0d4826-16d1-4e06-8851-9750690f3353","ios":"levelo://app?vid=7c0d4826-16d1-4e06-8851-9750690f3353"},"vehicle_type_id":"4","last_reported":1720375783,"current_range_meters":25600,"station_id":"ce4bh492rcd13ifvqdug","pricing_plan_id":"cebpf4jnsgd1na2vs0mg"},{"bike_id":"a45ef25d-9b1b-4276-8eeb-1949104434b9","system_id":"levelo_inurba_marseille","lat":43.31876,"lon":5.40758,"is_reserved":false,"is_disabled":false,"rental_uris":{"android":"levelo://app?vid=a45ef25d-9b1b-4276-8eeb-1949104434b9","ios":"levelo://app?vid=a45ef25d-9b1b-4276-8eeb-1949104434b9"},"vehicle_type_id":"4","last_reported":1720375783,"current_range_meters":2400,"station_id":"ce4bhq12rcd13ifvqhig","pricing_plan_id":"cebpf4jnsgd1na2vs0mg"},{"bike_id":"5f79a5a1-51c1-4edd-80a7-7c9bef5071a5","system_id":"levelo_inurba_marseille","lat":43.337168,"lon":5.391825,"is_reserved":false,"is_disabled":false,"rental_uris":{"android":"levelo://app?vid=5f79a5a1-51c1-4edd-80a7-7c9bef5071a5","ios":"levelo://app?vid=5f79a5a1-51c1-4edd-80a7-7c9bef5071a5"},"vehicle_type_id":"4","last_reported":1720375783,"current_range_meters":2000,"station_id":"ce4bhr92rcd13ifvqhsg","pricing_plan_id":"cebpf4jnsgd1na2vs0mg"},{"bike_id":"9a6ca5be-03ba-474f-9fc2-84cef8019b71","system_id":"levelo_inurba_marseille","lat":43.323464,"lon":5.406297,"is_reserved":false,"is_disabled":false,"rental_uris":{"android":"levelo://app?vid=9a6ca5be-03ba-474f-9fc2-84cef8019b71","ios":"levelo://app?vid=9a6ca5be-03ba-474f-9fc2-84cef8019b71"},"vehicle_type_id":"4","last_reported":1720375783,"current_range_meters":22800,"station_id":"ce4bhq92rcd13ifvqhjg","pricing_plan_id":"cebpf4jnsgd1na2vs0mg"},{"bike_id":"436efe09-6bb2-4646-9a25-f1eac1d288d3","system_id":"levelo_inurba_marseille","lat":43.284787,"lon":5.384116,"is_reserved":false,"is_disabled":false,"rental_uris":{"android":"levelo://app?vid=436efe09-6bb2-4646-9a25-f1eac1d288d3","ios":"levelo://app?vid=436efe09-6bb2-4646-9a25-f1eac1d288d3"},"vehicle_type_id":"4","last_reported":1720375783,"current_range_meters":2000,"station_id":"ce4bh512rcd13ifvqe3g","pricing_plan_id":"cebpf4jnsgd1na2vs0mg"},{"bike_id":"583846cb-5b1f-43f5-9c67-6a186df6aad6","system_id":"levelo_inurba_marseille","lat":43.297946,"lon":5.404063,"is_reserved":false,"is_disabled":false,"rental_uris":{"android":"levelo://app?vid=583846cb-5b1f-43f5-9c67-6a186df6aad6","ios":"levelo://app?vid=583846cb-5b1f-43f5-9c67-6a186df6aad6"},"vehicle_type_id":"4","last_reported":1720375783,"current_range_meters":0,"station_id":"ce4bh112rcd13ifvqd90","pricing_plan_id":"cebpf4jnsgd1na2vs0mg"},{"bike_id":"627dcdab-3f3c-4bd6-ab59-cb25cfd35c8c","system_id":"levelo_inurba_marseille","lat":43.29795,"lon":5.404086,"is_reserved":false,"is_disabled":false,"rental_uris":{"android":"levelo://app?vid=627dcdab-3f3c-4bd6-ab59-cb25cfd35c8c","ios":"levelo://app?vid=627dcdab-3f3c-4bd6-ab59-cb25cfd35c8c"},"vehicle_type_id":"4","last_reported":1720375783,"current_range_meters":4800,"station_id":"ce4bh112rcd13ifvqd90","pricing_plan_id":"cebpf4jnsgd1na2vs0mg"},{"bike_id":"f6c82657-3ac2-46b7-873f-070f34f2c4cc","system_id":"levelo_inurba_marseille","lat":43.28478,"lon":5.38537,"is_reserved":false,"is_disabled":false,"rental_uris":{"android":"levelo://app?vid=f6c82657-3ac2-46b7-873f-070f34f2c4cc","ios":"levelo://app?vid=f6c82657-3ac2-46b7-873f-070f34f2c4cc"},"vehicle_type_id":"4","last_reported":1720375783,"current_range_meters":6000,"station_id":"","pricing_plan_id":"cebpf4jnsgd1na2vs0mg"},{"bike_id":"2572411f-401f-4658-9a5a-73dce5a0cb8f","system_id":"levelo_inurba_marseille","lat":43.284219,"lon":5.3497,"is_reserved":false,"is_disabled":false,"rental_uris":{"android":"levelo://app?vid=2572411f-401f-4658-9a5a-73dce5a0cb8f","ios":"levelo://app?vid=2572411f-401f-4658-9a5a-73dce5a0cb8f"},"vehicle_type_id":"4","last_reported":1720375783,"current_range_meters":0,"station_id":"ce4bhbh2rcd13ifvqepg","pricing_plan_id":"cebpf4jnsgd1na2vs0mg"},{"bike_id":"f28ee9f4-a414-4e31-a7ef-4c06f8ef87b8","system_id":"levelo_inurba_marseille","lat":43.293712,"lon":5.401178,"is_reserved":false,"is_disabled":false,"rental_uris":{"android":"levelo://app?vid=f28ee9f4-a414-4e31-a7ef-4c06f8ef87b8","ios":"levelo://app?vid=f28ee9f4-a414-4e31-a7ef-4c06f8ef87b8"},"vehicle_type_id":"4","last_reported":1720375783,"current_range_meters":0,"station_id":"","pricing_plan_id":"cebpf4jnsgd1na2vs0mg"},{"bike_id":"9fa2f7ae-a9d7-4bbd-88fa-6575288656f9","system_id":"levelo_inurba_marseille","lat":43.2842,"lon":5.38559,"is_reserved":false,"is_disabled":false,"rental_uris":{"android":"levelo://app?vid=9fa2f7ae-a9d7-4bbd-88fa-6575288656f9","ios":"levelo://app?vid=9fa2f7ae-a9d7-4bbd-88fa-6575288656f9"},"vehicle_type_id":"4","last_reported":1720375783,"current_range_meters":400,"station_id":"","pricing_plan_id":"cebpf4jnsgd1na2vs0mg"},{"bike_id":"3ad05910-7247-4cb7-8fb4-6d986e06ca32","system_id":"levelo_inurba_marseille","lat":43.29282,"lon":5.40104,"is_reserved":false,"is_disabled":false,"rental_uris":{"android":"levelo://app?vid=3ad05910-7247-4cb7-8fb4-6d986e06ca32","ios":"levelo://app?vid=3ad05910-7247-4cb7-8fb4-6d986e06ca32"},"vehicle_type_id":"4","last_reported":1720375783,"current_range_meters":0,"station_id":"ce4bh312rcd13ifvqdk0","pricing_plan_id":"cebpf4jnsgd1na2vs0mg"},{"bike_id":"58b852dd-4e73-4400-a5dc-781e96c59b46","system_id":"levelo_inurba_marseille","lat":43.28276,"lon":5.35066,"is_reserved":false,"is_disabled":false,"rental_uris":{"android":"levelo://app?vid=58b852dd-4e73-4400-a5dc-781e96c59b46","ios":"levelo://app?vid=58b852dd-4e73-4400-a5dc-781e96c59b46"},"vehicle_type_id":"4","last_reported":1720375783,"current_range_meters":0,"station_id":"ce4bhbp2rcd13ifvqerg","pricing_plan_id":"cebpf4jnsgd1na2vs0mg"},{"bike_id":"da1833fd-2df7-431a-b8f2-8809356c36c7","system_id":"levelo_inurba_marseille","lat":43.28039,"lon":5.369297,"is_reserved":false,"is_disabled":false,"rental_uris":{"android":"levelo://app?vid=da1833fd-2df7-431a-b8f2-8809356c36c7","ios":"levelo://app?vid=da1833fd-2df7-431a-b8f2-8809356c36c7"},"vehicle_type_id":"4","last_reported":1720375783,"current_range_meters":0,"station_id":"ce4bha12rcd13ifvqef0","pricing_plan_id":"cebpf4jnsgd1na2vs0mg"},{"bike_id":"2ea9b3d5-43dd-4491-982f-92857c66e150","system_id":"levelo_inurba_marseille","lat":43.28104,"lon":5.37837,"is_reserved":false,"is_disabled":false,"rental_uris":{"android":"levelo://app?vid=2ea9b3d5-43dd-4491-982f-92857c66e150","ios":"levelo://app?vid=2ea9b3d5-43dd-4491-982f-92857c66e150"},"vehicle_type_id":"4","last_reported":1720375783,"current_range_meters":0,"station_id":"ce4bha12rcd13ifvqee0","pricing_plan_id":"cebpf4jnsgd1na2vs0mg"},{"bike_id":"6d1a131c-2640-46b8-adce-de553122a25b","system_id":"levelo_inurba_marseille","lat":43.29034,"lon":5.39981,"is_reserved":false,"is_disabled":false,"rental_uris":{"android":"levelo://app?vid=6d1a131c-2640-46b8-adce-de553122a25b","ios":"levelo://app?vid=6d1a131c-2640-46b8-adce-de553122a25b"},"vehicle_type_id":"4","last_reported":1720375783,"current_range_meters":20000,"station_id":"ce4bh392rcd13ifvqdm0","pricing_plan_id":"cebpf4jnsgd1na2vs0mg"},{"bike_id":"6703c49e-7541-46dc-ae0d-81cae47ab36c","system_id":"levelo_inurba_marseille","lat":43.28106,"lon":5.3785,"is_reserved":false,"is_disabled":false,"rental_uris":{"android":"levelo://app?vid=6703c49e-7541-46dc-ae0d-81cae47ab36c","ios":"levelo://app?vid=6703c49e-7541-46dc-ae0d-81cae47ab36c"},"vehicle_type_id":"4","last_reported":1720375783,"current_range_meters":0,"station_id":"ce4bha12rcd13ifvqee0","pricing_plan_id":"cebpf4jnsgd1na2vs0mg"},{"bike_id":"d85ea366-4669-4ad2-b0ec-46428269b818","system_id":"levelo_inurba_marseille","lat":43.29041,"lon":5.399634,"is_reserved":false,"is_disabled":false,"rental_uris":{"android":"levelo://app?vid=d85ea366-4669-4ad2-b0ec-46428269b818","ios":"levelo://app?vid=d85ea366-4669-4ad2-b0ec-46428269b818"},"vehicle_type_id":"4","last_reported":1720375783,"current_range_meters":1200,"station_id":"ce4bh392rcd13ifvqdm0","pricing_plan_id":"cebpf4jnsgd1na2vs0mg"},{"bike_id":"f9b6ca1d-2466-4373-8346-ed6b115c7b63","system_id":"levelo_inurba_marseille","lat":43.296263,"lon":5.40601,"is_reserved":false,"is_disabled":false,"rental_uris":{"android":"levelo://app?vid=f9b6ca1d-2466-4373-8346-ed6b115c7b63","ios":"levelo://app?vid=f9b6ca1d-2466-4373-8346-ed6b115c7b63"},"vehicle_type_id":"4","last_reported":1720375783,"current_range_meters":5200,"station_id":"ce4bh0h2rcd13ifvqd60","pricing_plan_id":"cebpf4jnsgd1na2vs0mg"},{"bike_id":"eec2fb2e-fee9-4f6e-a705-3e2c4f4b741e","system_id":"levelo_inurba_marseille","lat":43.28099,"lon":5.37838,"is_reserved":false,"is_disabled":false,"rental_uris":{"android":"levelo://app?vid=eec2fb2e-fee9-4f6e-a705-3e2c4f4b741e","ios":"levelo://app?vid=eec2fb2e-fee9-4f6e-a705-3e2c4f4b741e"},"vehicle_type_id":"4","last_reported":1720375783,"current_range_meters":0,"station_id":"ce4bha12rcd13ifvqee0","pricing_plan_id":"cebpf4jnsgd1na2vs0mg"},{"bike_id":"8028ec23-89a3-4324-aedd-5691dff54687","system_id":"levelo_inurba_marseille","lat":43.281044,"lon":5.378308,"is_reserved":false,"is_disabled":false,"rental_uris":{"android":"levelo://app?vid=8028ec23-89a3-4324-aedd-5691dff54687","ios":"levelo://app?vid=8028ec23-89a3-4324-aedd-5691dff54687"},"vehicle_type_id":"4","last_reported":1720375783,"current_range_meters":8400,"station_id":"ce4bha12rcd13ifvqee0","pricing_plan_id":"cebpf4jnsgd1na2vs0mg"},{"bike_id":"6f91cde2-cc82-4f95-9ebc-71f3b105aed8","system_id":"levelo_inurba_marseille","lat":43.280983,"lon":5.378433,"is_reserved":false,"is_disabled":false,"rental_uris":{"android":"levelo://app?vid=6f91cde2-cc82-4f95-9ebc-71f3b105aed8","ios":"levelo://app?vid=6f91cde2-cc82-4f95-9ebc-71f3b105aed8"},"vehicle_type_id":"4","last_reported":1720375783,"current_range_meters":0,"station_id":"ce4bha12rcd13ifvqee0","pricing_plan_id":"cebpf4jnsgd1na2vs0mg"},{"bike_id":"3efb7c0f-c0f1-4a9e-9499-4a5c47fa55ea","system_id":"levelo_inurba_marseille","lat":43.296263,"lon":5.40601,"is_reserved":false,"is_disabled":false,"rental_uris":{"android":"levelo://app?vid=3efb7c0f-c0f1-4a9e-9499-4a5c47fa55ea","ios":"levelo://app?vid=3efb7c0f-c0f1-4a9e-9499-4a5c47fa55ea"},"vehicle_type_id":"4","last_reported":1720375783,"current_range_meters":5600,"station_id":"ce4bh0h2rcd13ifvqd60","pricing_plan_id":"cebpf4jnsgd1na2vs0mg"},{"bike_id":"5a4bdde9-8aaf-4f35-9b3f-94cf3b19be98","system_id":"levelo_inurba_marseille","lat":43.284462,"lon":5.392121,"is_reserved":false,"is_disabled":false,"rental_uris":{"android":"levelo://app?vid=5a4bdde9-8aaf-4f35-9b3f-94cf3b19be98","ios":"levelo://app?vid=5a4bdde9-8aaf-4f35-9b3f-94cf3b19be98"},"vehicle_type_id":"4","last_reported":1720375783,"current_range_meters":800,"station_id":"ce4bhoh2rcd13ifvqh5g","pricing_plan_id":"cebpf4jnsgd1na2vs0mg"},{"bike_id":"cf88cb88-f988-4960-b83c-755083cea036","system_id":"levelo_inurba_marseille","lat":43.284462,"lon":5.392121,"is_reserved":false,"is_disabled":false,"rental_uris":{"android":"levelo://app?vid=cf88cb88-f988-4960-b83c-755083cea036","ios":"levelo://app?vid=cf88cb88-f988-4960-b83c-755083cea036"},"vehicle_type_id":"4","last_reported":1720375783,"current_range_meters":1600,"station_id":"ce4bhoh2rcd13ifvqh5g","pricing_plan_id":"cebpf4jnsgd1na2vs0mg"},{"bike_id":"e6cd2958-a067-495d-9991-9190aaec3484","system_id":"levelo_inurba_marseille","lat":43.285747,"lon":5.394857,"is_reserved":false,"is_disabled":false,"rental_uris":{"android":"levelo://app?vid=e6cd2958-a067-495d-9991-9190aaec3484","ios":"levelo://app?vid=e6cd2958-a067-495d-9991-9190aaec3484"},"vehicle_type_id":"4","last_reported":1720375783,"current_range_meters":0,"station_id":"ce4bh292rcd13ifvqdg0","pricing_plan_id":"cebpf4jnsgd1na2vs0mg"},{"bike_id":"10a55cce-a65c-4581-b089-9693887aa20d","system_id":"levelo_inurba_marseille","lat":43.28046,"lon":5.35088,"is_reserved":false,"is_disabled":false,"rental_uris":{"android":"levelo://app?vid=10a55cce-a65c-4581-b089-9693887aa20d","ios":"levelo://app?vid=10a55cce-a65c-4581-b089-9693887aa20d"},"vehicle_type_id":"4","last_reported":1720375783,"current_range_meters":29200,"station_id":"","pricing_plan_id":"cebpf4jnsgd1na2vs0mg"},{"bike_id":"c9fbe7de-7396-4b0a-bead-c95b207c407e","system_id":"levelo_inurba_marseille","lat":43.30427,"lon":5.41317,"is_reserved":false,"is_disabled":false,"rental_uris":{"android":"levelo://app?vid=c9fbe7de-7396-4b0a-bead-c95b207c407e","ios":"levelo://app?vid=c9fbe7de-7396-4b0a-bead-c95b207c407e"},"vehicle_type_id":"4","last_reported":1720375783,"current_range_meters":2800,"station_id":"ce4bhop2rcd13ifvqh8g","pricing_plan_id":"cebpf4jnsgd1na2vs0mg"},{"bike_id":"9c6f66ba-7fba-4f78-9ac7-25b7bacc7310","system_id":"levelo_inurba_marseille","lat":43.279087,"lon":5.380114,"is_reserved":false,"is_disabled":false,"rental_uris":{"android":"levelo://app?vid=9c6f66ba-7fba-4f78-9ac7-25b7bacc7310","ios":"levelo://app?vid=9c6f66ba-7fba-4f78-9ac7-25b7bacc7310"},"vehicle_type_id":"4","last_reported":1720375783,"current_range_meters":8000,"station_id":"ce4bhf92rcd13ifvqf50","pricing_plan_id":"cebpf4jnsgd1na2vs0mg"},{"bike_id":"7e9c03f1-34ca-4c5b-a621-1e1537e4f735","system_id":"levelo_inurba_marseille","lat":43.279087,"lon":5.380114,"is_reserved":false,"is_disabled":false,"rental_uris":{"android":"levelo://app?vid=7e9c03f1-34ca-4c5b-a621-1e1537e4f735","ios":"levelo://app?vid=7e9c03f1-34ca-4c5b-a621-1e1537e4f735"},"vehicle_type_id":"4","last_reported":1720375783,"current_range_meters":2400,"station_id":"ce4bhf92rcd13ifvqf50","pricing_plan_id":"cebpf4jnsgd1na2vs0mg"},{"bike_id":"42a1fde7-669f-4c45-8506-a31356aa2404","system_id":"levelo_inurba_marseille","lat":43.279087,"lon":5.380114,"is_reserved":false,"is_disabled":false,"rental_uris":{"android":"levelo://app?vid=42a1fde7-669f-4c45-8506-a31356aa2404","ios":"levelo://app?vid=42a1fde7-669f-4c45-8506-a31356aa2404"},"vehicle_type_id":"4","last_reported":1720375783,"current_range_meters":22400,"station_id":"ce4bhf92rcd13ifvqf50","pricing_plan_id":"cebpf4jnsgd1na2vs0mg"},{"bike_id":"8f8ec9c4-fc24-44fe-8582-9b2acc9256af","system_id":"levelo_inurba_marseille","lat":43.279087,"lon":5.380114,"is_reserved":false,"is_disabled":false,"rental_uris":{"android":"levelo://app?vid=8f8ec9c4-fc24-44fe-8582-9b2acc9256af","ios":"levelo://app?vid=8f8ec9c4-fc24-44fe-8582-9b2acc9256af"},"vehicle_type_id":"4","last_reported":1720375783,"current_range_meters":17600,"station_id":"ce4bhf92rcd13ifvqf50","pricing_plan_id":"cebpf4jnsgd1na2vs0mg"},{"bike_id":"65875d16-6718-4ba3-8be5-b135a7f38a79","system_id":"levelo_inurba_marseille","lat":43.287154,"lon":5.399979,"is_reserved":false,"is_disabled":false,"rental_uris":{"android":"levelo://app?vid=65875d16-6718-4ba3-8be5-b135a7f38a79","ios":"levelo://app?vid=65875d16-6718-4ba3-8be5-b135a7f38a79"},"vehicle_type_id":"4","last_reported":1720375783,"current_range_meters":27200,"station_id":"ce4bho92rcd13ifvqh3g","pricing_plan_id":"cebpf4jnsgd1na2vs0mg"},{"bike_id":"9649c6fe-814e-4532-a351-4e58539465ad","system_id":"levelo_inurba_marseille","lat":43.287154,"lon":5.399979,"is_reserved":false,"is_disabled":false,"rental_uris":{"android":"levelo://app?vid=9649c6fe-814e-4532-a351-4e58539465ad","ios":"levelo://app?vid=9649c6fe-814e-4532-a351-4e58539465ad"},"vehicle_type_id":"4","last_reported":1720375783,"current_range_meters":0,"station_id":"ce4bho92rcd13ifvqh3g","pricing_plan_id":"cebpf4jnsgd1na2vs0mg"},{"bike_id":"7a6ee590-816c-4c53-a090-2423a834231f","system_id":"levelo_inurba_marseille","lat":43.27909,"lon":5.38303,"is_reserved":false,"is_disabled":false,"rental_uris":{"android":"levelo://app?vid=7a6ee590-816c-4c53-a090-2423a834231f","ios":"levelo://app?vid=7a6ee590-816c-4c53-a090-2423a834231f"},"vehicle_type_id":"4","last_reported":1720375783,"current_range_meters":8000,"station_id":"","pricing_plan_id":"cebpf4jnsgd1na2vs0mg"},{"bike_id":"ac23f3ce-3c2a-4cbc-8f81-d06398e71969","system_id":"levelo_inurba_marseille","lat":43.320045,"lon":5.415046,"is_reserved":false,"is_disabled":false,"rental_uris":{"android":"levelo://app?vid=ac23f3ce-3c2a-4cbc-8f81-d06398e71969","ios":"levelo://app?vid=ac23f3ce-3c2a-4cbc-8f81-d06398e71969"},"vehicle_type_id":"4","last_reported":1720375783,"current_range_meters":8000,"station_id":"ce4bhq92rcd13ifvqhkg","pricing_plan_id":"cebpf4jnsgd1na2vs0mg"},{"bike_id":"1c808ff0-8c75-4feb-95aa-205e629d6c8b","system_id":"levelo_inurba_marseille","lat":43.299577,"lon":5.413277,"is_reserved":false,"is_disabled":false,"rental_uris":{"android":"levelo://app?vid=1c808ff0-8c75-4feb-95aa-205e629d6c8b","ios":"levelo://app?vid=1c808ff0-8c75-4feb-95aa-205e629d6c8b"},"vehicle_type_id":"4","last_reported":1720375783,"current_range_meters":10400,"station_id":"ce4bhp12rcd13ifvqh9g","pricing_plan_id":"cebpf4jnsgd1na2vs0mg"},{"bike_id":"e4593f0b-ebe2-4e96-b47d-805c30b73462","system_id":"levelo_inurba_marseille","lat":43.27962,"lon":5.38699,"is_reserved":false,"is_disabled":false,"rental_uris":{"android":"levelo://app?vid=e4593f0b-ebe2-4e96-b47d-805c30b73462","ios":"levelo://app?vid=e4593f0b-ebe2-4e96-b47d-805c30b73462"},"vehicle_type_id":"4","last_reported":1720375783,"current_range_meters":0,"station_id":"ce4bhg12rcd13ifvqf80","pricing_plan_id":"cebpf4jnsgd1na2vs0mg"},{"bike_id":"376da4d6-0100-432e-8b3a-feca8d238ebc","system_id":"levelo_inurba_marseille","lat":43.27931,"lon":5.38679,"is_reserved":false,"is_disabled":false,"rental_uris":{"android":"levelo://app?vid=376da4d6-0100-432e-8b3a-feca8d238ebc","ios":"levelo://app?vid=376da4d6-0100-432e-8b3a-feca8d238ebc"},"vehicle_type_id":"4","last_reported":1720375783,"current_range_meters":3600,"station_id":"","pricing_plan_id":"cebpf4jnsgd1na2vs0mg"},{"bike_id":"5a2f2fdc-a965-42d1-9ef9-ae7d1693a5ed","system_id":"levelo_inurba_marseille","lat":43.292571,"lon":5.409107,"is_reserved":false,"is_disabled":false,"rental_uris":{"android":"levelo://app?vid=5a2f2fdc-a965-42d1-9ef9-ae7d1693a5ed","ios":"levelo://app?vid=5a2f2fdc-a965-42d1-9ef9-ae7d1693a5ed"},"vehicle_type_id":"4","last_reported":1720375783,"current_range_meters":4400,"station_id":"ce4bh192rcd13ifvqdc0","pricing_plan_id":"cebpf4jnsgd1na2vs0mg"},{"bike_id":"75b00cf3-1018-485b-b76f-77e591c32203","system_id":"levelo_inurba_marseille","lat":43.292571,"lon":5.409107,"is_reserved":false,"is_disabled":false,"rental_uris":{"android":"levelo://app?vid=75b00cf3-1018-485b-b76f-77e591c32203","ios":"levelo://app?vid=75b00cf3-1018-485b-b76f-77e591c32203"},"vehicle_type_id":"4","last_reported":1720375783,"current_range_meters":2000,"station_id":"ce4bh192rcd13ifvqdc0","pricing_plan_id":"cebpf4jnsgd1na2vs0mg"},{"bike_id":"ea8d9471-4d8b-44dd-ae1d-e672ae9538ba","system_id":"levelo_inurba_marseille","lat":43.292569,"lon":5.409107,"is_reserved":false,"is_disabled":false,"rental_uris":{"android":"levelo://app?vid=ea8d9471-4d8b-44dd-ae1d-e672ae9538ba","ios":"levelo://app?vid=ea8d9471-4d8b-44dd-ae1d-e672ae9538ba"},"vehicle_type_id":"4","last_reported":1720375783,"current_range_meters":2800,"station_id":"ce4bh192rcd13ifvqdc0","pricing_plan_id":"cebpf4jnsgd1na2vs0mg"},{"bike_id":"b201e0a9-c29c-4d09-b127-a6f857dafe81","system_id":"levelo_inurba_marseille","lat":43.292569,"lon":5.409107,"is_reserved":false,"is_disabled":false,"rental_uris":{"android":"levelo://app?vid=b201e0a9-c29c-4d09-b127-a6f857dafe81","ios":"levelo://app?vid=b201e0a9-c29c-4d09-b127-a6f857dafe81"},"vehicle_type_id":"4","last_reported":1720375783,"current_range_meters":31600,"station_id":"ce4bh192rcd13ifvqdc0","pricing_plan_id":"cebpf4jnsgd1na2vs0mg"},{"bike_id":"382a8291-49e8-486c-9c7d-ce244b6a3ff4","system_id":"levelo_inurba_marseille","lat":43.27612,"lon":5.36101,"is_reserved":false,"is_disabled":false,"rental_uris":{"android":"levelo://app?vid=382a8291-49e8-486c-9c7d-ce244b6a3ff4","ios":"levelo://app?vid=382a8291-49e8-486c-9c7d-ce244b6a3ff4"},"vehicle_type_id":"4","last_reported":1720375783,"current_range_meters":0,"station_id":"ce4bgj92rcd13ifvqbe0","pricing_plan_id":"cebpf4jnsgd1na2vs0mg"},{"bike_id":"6566244d-4b03-4030-be50-0993c11e562d","system_id":"levelo_inurba_marseille","lat":43.278401,"lon":5.392152,"is_reserved":false,"is_disabled":false,"rental_uris":{"android":"levelo://app?vid=6566244d-4b03-4030-be50-0993c11e562d","ios":"levelo://app?vid=6566244d-4b03-4030-be50-0993c11e562d"},"vehicle_type_id":"4","last_reported":1720375783,"current_range_meters":10000,"station_id":"ce4bhjp2rcd13ifvqga0","pricing_plan_id":"cebpf4jnsgd1na2vs0mg"},{"bike_id":"18cf9d76-3c0b-40cd-bcd5-00a15661b600","system_id":"levelo_inurba_marseille","lat":43.278399,"lon":5.392139,"is_reserved":false,"is_disabled":false,"rental_uris":{"android":"levelo://app?vid=18cf9d76-3c0b-40cd-bcd5-00a15661b600","ios":"levelo://app?vid=18cf9d76-3c0b-40cd-bcd5-00a15661b600"},"vehicle_type_id":"4","last_reported":1720375783,"current_range_meters":14400,"station_id":"ce4bhjp2rcd13ifvqga0","pricing_plan_id":"cebpf4jnsgd1na2vs0mg"},{"bike_id":"5fc41c2a-6444-49c0-86b6-535662aa99e5","system_id":"levelo_inurba_marseille","lat":43.27563,"lon":5.38413,"is_reserved":false,"is_disabled":false,"rental_uris":{"android":"levelo://app?vid=5fc41c2a-6444-49c0-86b6-535662aa99e5","ios":"levelo://app?vid=5fc41c2a-6444-49c0-86b6-535662aa99e5"},"vehicle_type_id":"4","last_reported":1720375783,"current_range_meters":0,"station_id":"ce4bhh92rcd13ifvqfi0","pricing_plan_id":"cebpf4jnsgd1na2vs0mg"},{"bike_id":"1e00dcdc-c095-4752-8e3d-92e738a48324","system_id":"levelo_inurba_marseille","lat":43.336134,"lon":5.410341,"is_reserved":false,"is_disabled":false,"rental_uris":{"android":"levelo://app?vid=1e00dcdc-c095-4752-8e3d-92e738a48324","ios":"levelo://app?vid=1e00dcdc-c095-4752-8e3d-92e738a48324"},"vehicle_type_id":"4","last_reported":1720375783,"current_range_meters":5600,"station_id":"ce4bhqh2rcd13ifvqhmg","pricing_plan_id":"cebpf4jnsgd1na2vs0mg"},{"bike_id":"7f055830-4e3a-4798-8a8f-4e8a8fa83853","system_id":"levelo_inurba_marseille","lat":43.276769,"lon":5.388787,"is_reserved":false,"is_disabled":false,"rental_uris":{"android":"levelo://app?vid=7f055830-4e3a-4798-8a8f-4e8a8fa83853","ios":"levelo://app?vid=7f055830-4e3a-4798-8a8f-4e8a8fa83853"},"vehicle_type_id":"4","last_reported":1720375783,"current_range_meters":0,"station_id":"ce4bhi12rcd13ifvqfo0","pricing_plan_id":"cebpf4jnsgd1na2vs0mg"},{"bike_id":"fd986e2c-5010-4aa1-a30e-50d958a9c6a8","system_id":"levelo_inurba_marseille","lat":43.336148,"lon":5.410349,"is_reserved":false,"is_disabled":false,"rental_uris":{"android":"levelo://app?vid=fd986e2c-5010-4aa1-a30e-50d958a9c6a8","ios":"levelo://app?vid=fd986e2c-5010-4aa1-a30e-50d958a9c6a8"},"vehicle_type_id":"4","last_reported":1720375783,"current_range_meters":5600,"station_id":"ce4bhqh2rcd13ifvqhmg","pricing_plan_id":"cebpf4jnsgd1na2vs0mg"},{"bike_id":"b8bad30f-149b-4c5e-bf83-908af300a02e","system_id":"levelo_inurba_marseille","lat":43.276771,"lon":5.388799,"is_reserved":false,"is_disabled":false,"rental_uris":{"android":"levelo://app?vid=b8bad30f-149b-4c5e-bf83-908af300a02e","ios":"levelo://app?vid=b8bad30f-149b-4c5e-bf83-908af300a02e"},"vehicle_type_id":"4","last_reported":1720375783,"current_range_meters":800,"station_id":"ce4bhi12rcd13ifvqfo0","pricing_plan_id":"cebpf4jnsgd1na2vs0mg"},{"bike_id":"97ab271c-9f97-4b8f-b126-e4ac9a9bbcde","system_id":"levelo_inurba_marseille","lat":43.279185,"lon":5.395692,"is_reserved":false,"is_disabled":false,"rental_uris":{"android":"levelo://app?vid=97ab271c-9f97-4b8f-b126-e4ac9a9bbcde","ios":"levelo://app?vid=97ab271c-9f97-4b8f-b126-e4ac9a9bbcde"},"vehicle_type_id":"4","last_reported":1720375783,"current_range_meters":0,"station_id":"ce4bhf92rcd13ifvqf40","pricing_plan_id":"cebpf4jnsgd1na2vs0mg"},{"bike_id":"6794011d-688c-4c1c-a763-585ac4552f19","system_id":"levelo_inurba_marseille","lat":43.35235,"lon":5.366965,"is_reserved":false,"is_disabled":false,"rental_uris":{"android":"levelo://app?vid=6794011d-688c-4c1c-a763-585ac4552f19","ios":"levelo://app?vid=6794011d-688c-4c1c-a763-585ac4552f19"},"vehicle_type_id":"4","last_reported":1720375783,"current_range_meters":17200,"station_id":"","pricing_plan_id":"cebpf4jnsgd1na2vs0mg"},{"bike_id":"50af3ece-858f-4ed5-942b-6c4ee00fba1b","system_id":"levelo_inurba_marseille","lat":43.27501,"lon":5.38939,"is_reserved":false,"is_disabled":false,"rental_uris":{"android":"levelo://app?vid=50af3ece-858f-4ed5-942b-6c4ee00fba1b","ios":"levelo://app?vid=50af3ece-858f-4ed5-942b-6c4ee00fba1b"},"vehicle_type_id":"4","last_reported":1720375783,"current_range_meters":0,"station_id":"","pricing_plan_id":"cebpf4jnsgd1na2vs0mg"},{"bike_id":"af1b1893-7007-420b-af0c-6ff2b8883330","system_id":"levelo_inurba_marseille","lat":43.317121,"lon":5.423936,"is_reserved":false,"is_disabled":false,"rental_uris":{"android":"levelo://app?vid=af1b1893-7007-420b-af0c-6ff2b8883330","ios":"levelo://app?vid=af1b1893-7007-420b-af0c-6ff2b8883330"},"vehicle_type_id":"4","last_reported":1720375783,"current_range_meters":16400,"station_id":"ce4bhp92rcd13ifvqhbg","pricing_plan_id":"cebpf4jnsgd1na2vs0mg"},{"bike_id":"62b817e9-bbd5-42ab-9ac5-dbca3bfefb9b","system_id":"levelo_inurba_marseille","lat":43.317121,"lon":5.423936,"is_reserved":false,"is_disabled":false,"rental_uris":{"android":"levelo://app?vid=62b817e9-bbd5-42ab-9ac5-dbca3bfefb9b","ios":"levelo://app?vid=62b817e9-bbd5-42ab-9ac5-dbca3bfefb9b"},"vehicle_type_id":"4","last_reported":1720375783,"current_range_meters":7200,"station_id":"ce4bhp92rcd13ifvqhbg","pricing_plan_id":"cebpf4jnsgd1na2vs0mg"},{"bike_id":"d5c7a449-be51-4b96-98a8-f25f62fa47c6","system_id":"levelo_inurba_marseille","lat":43.310785,"lon":5.424305,"is_reserved":false,"is_disabled":false,"rental_uris":{"android":"levelo://app?vid=d5c7a449-be51-4b96-98a8-f25f62fa47c6","ios":"levelo://app?vid=d5c7a449-be51-4b96-98a8-f25f62fa47c6"},"vehicle_type_id":"4","last_reported":1720375783,"current_range_meters":22400,"station_id":"ce4bhp92rcd13ifvqhag","pricing_plan_id":"cebpf4jnsgd1na2vs0mg"},{"bike_id":"3489ce5f-73cd-4a5e-ab35-e408f579617b","system_id":"levelo_inurba_marseille","lat":43.274099,"lon":5.394019,"is_reserved":false,"is_disabled":false,"rental_uris":{"android":"levelo://app?vid=3489ce5f-73cd-4a5e-ab35-e408f579617b","ios":"levelo://app?vid=3489ce5f-73cd-4a5e-ab35-e408f579617b"},"vehicle_type_id":"4","last_reported":1720375783,"current_range_meters":10000,"station_id":"ce4bhdp2rcd13ifvqf20","pricing_plan_id":"cebpf4jnsgd1na2vs0mg"},{"bike_id":"78fe79f7-07b1-4e33-9bea-53b63dd9151d","system_id":"levelo_inurba_marseille","lat":43.274103,"lon":5.394016,"is_reserved":false,"is_disabled":false,"rental_uris":{"android":"levelo://app?vid=78fe79f7-07b1-4e33-9bea-53b63dd9151d","ios":"levelo://app?vid=78fe79f7-07b1-4e33-9bea-53b63dd9151d"},"vehicle_type_id":"4","last_reported":1720375783,"current_range_meters":14000,"station_id":"ce4bhdp2rcd13ifvqf20","pricing_plan_id":"cebpf4jnsgd1na2vs0mg"},{"bike_id":"6d8f7a76-25b0-4c96-92fb-5575fe8adaa8","system_id":"levelo_inurba_marseille","lat":43.274099,"lon":5.394019,"is_reserved":false,"is_disabled":false,"rental_uris":{"android":"levelo://app?vid=6d8f7a76-25b0-4c96-92fb-5575fe8adaa8","ios":"levelo://app?vid=6d8f7a76-25b0-4c96-92fb-5575fe8adaa8"},"vehicle_type_id":"4","last_reported":1720375783,"current_range_meters":16800,"station_id":"ce4bhdp2rcd13ifvqf20","pricing_plan_id":"cebpf4jnsgd1na2vs0mg"},{"bike_id":"eff67d35-6d7e-4bcf-9a66-657436f0b878","system_id":"levelo_inurba_marseille","lat":43.295523,"lon":5.422926,"is_reserved":false,"is_disabled":false,"rental_uris":{"android":"levelo://app?vid=eff67d35-6d7e-4bcf-9a66-657436f0b878","ios":"levelo://app?vid=eff67d35-6d7e-4bcf-9a66-657436f0b878"},"vehicle_type_id":"4","last_reported":1720375783,"current_range_meters":12800,"station_id":"ce4bhph2rcd13ifvqhdg","pricing_plan_id":"cebpf4jnsgd1na2vs0mg"},{"bike_id":"ee104e94-ffd4-4ad5-8f2e-28311b8dcaff","system_id":"levelo_inurba_marseille","lat":43.295523,"lon":5.422926,"is_reserved":false,"is_disabled":false,"rental_uris":{"android":"levelo://app?vid=ee104e94-ffd4-4ad5-8f2e-28311b8dcaff","ios":"levelo://app?vid=ee104e94-ffd4-4ad5-8f2e-28311b8dcaff"},"vehicle_type_id":"4","last_reported":1720375783,"current_range_meters":20400,"station_id":"ce4bhph2rcd13ifvqhdg","pricing_plan_id":"cebpf4jnsgd1na2vs0mg"},{"bike_id":"d2d95581-d89e-4061-b3f7-00f28ff52aa9","system_id":"levelo_inurba_marseille","lat":43.295511,"lon":5.422926,"is_reserved":false,"is_disabled":false,"rental_uris":{"android":"levelo://app?vid=d2d95581-d89e-4061-b3f7-00f28ff52aa9","ios":"levelo://app?vid=d2d95581-d89e-4061-b3f7-00f28ff52aa9"},"vehicle_type_id":"4","last_reported":1720375783,"current_range_meters":6400,"station_id":"ce4bhph2rcd13ifvqhdg","pricing_plan_id":"cebpf4jnsgd1na2vs0mg"},{"bike_id":"d822f59c-681e-4336-a63c-6e2ab75306a0","system_id":"levelo_inurba_marseille","lat":43.29553,"lon":5.42292,"is_reserved":false,"is_disabled":false,"rental_uris":{"android":"levelo://app?vid=d822f59c-681e-4336-a63c-6e2ab75306a0","ios":"levelo://app?vid=d822f59c-681e-4336-a63c-6e2ab75306a0"},"vehicle_type_id":"4","last_reported":1720375783,"current_range_meters":5200,"station_id":"ce4bhph2rcd13ifvqhdg","pricing_plan_id":"cebpf4jnsgd1na2vs0mg"},{"bike_id":"35bab625-52b0-42ee-a597-e9eca46091a4","system_id":"levelo_inurba_marseille","lat":43.27814,"lon":5.40711,"is_reserved":false,"is_disabled":false,"rental_uris":{"android":"levelo://app?vid=35bab625-52b0-42ee-a597-e9eca46091a4","ios":"levelo://app?vid=35bab625-52b0-42ee-a597-e9eca46091a4"},"vehicle_type_id":"4","last_reported":1720375783,"current_range_meters":0,"station_id":"ce4bhnh2rcd13ifvqgtg","pricing_plan_id":"cebpf4jnsgd1na2vs0mg"},{"bike_id":"9bf584d8-5b0d-4bab-9194-ac79045cc1cd","system_id":"levelo_inurba_marseille","lat":43.278128,"lon":5.407195,"is_reserved":false,"is_disabled":false,"rental_uris":{"android":"levelo://app?vid=9bf584d8-5b0d-4bab-9194-ac79045cc1cd","ios":"levelo://app?vid=9bf584d8-5b0d-4bab-9194-ac79045cc1cd"},"vehicle_type_id":"4","last_reported":1720375783,"current_range_meters":1200,"station_id":"ce4bhnh2rcd13ifvqgtg","pricing_plan_id":"cebpf4jnsgd1na2vs0mg"},{"bike_id":"542d6fc2-9298-4c57-8c0c-296d3e8fb25c","system_id":"levelo_inurba_marseille","lat":43.27944,"lon":5.41043,"is_reserved":false,"is_disabled":false,"rental_uris":{"android":"levelo://app?vid=542d6fc2-9298-4c57-8c0c-296d3e8fb25c","ios":"levelo://app?vid=542d6fc2-9298-4c57-8c0c-296d3e8fb25c"},"vehicle_type_id":"4","last_reported":1720375783,"current_range_meters":0,"station_id":"ce4bhnp2rcd13ifvqh0g","pricing_plan_id":"cebpf4jnsgd1na2vs0mg"},{"bike_id":"8b3acd97-c665-4b7d-8879-03a427b2252a","system_id":"levelo_inurba_marseille","lat":43.279465,"lon":5.410561,"is_reserved":false,"is_disabled":false,"rental_uris":{"android":"levelo://app?vid=8b3acd97-c665-4b7d-8879-03a427b2252a","ios":"levelo://app?vid=8b3acd97-c665-4b7d-8879-03a427b2252a"},"vehicle_type_id":"4","last_reported":1720375783,"current_range_meters":23200,"station_id":"ce4bhnp2rcd13ifvqh0g","pricing_plan_id":"cebpf4jnsgd1na2vs0mg"},{"bike_id":"456f46dd-c95a-4c37-ad25-d81c10b0c3df","system_id":"levelo_inurba_marseille","lat":43.2897,"lon":5.42531,"is_reserved":false,"is_disabled":false,"rental_uris":{"android":"levelo://app?vid=456f46dd-c95a-4c37-ad25-d81c10b0c3df","ios":"levelo://app?vid=456f46dd-c95a-4c37-ad25-d81c10b0c3df"},"vehicle_type_id":"4","last_reported":1720375783,"current_range_meters":6800,"station_id":"","pricing_plan_id":"cebpf4jnsgd1na2vs0mg"},{"bike_id":"8444270b-0d6c-4388-9d90-c481ce6b5321","system_id":"levelo_inurba_marseille","lat":43.28853,"lon":5.4249,"is_reserved":false,"is_disabled":false,"rental_uris":{"android":"levelo://app?vid=8444270b-0d6c-4388-9d90-c481ce6b5321","ios":"levelo://app?vid=8444270b-0d6c-4388-9d90-c481ce6b5321"},"vehicle_type_id":"4","last_reported":1720375783,"current_range_meters":6000,"station_id":"","pricing_plan_id":"cebpf4jnsgd1na2vs0mg"},{"bike_id":"284343a2-7d05-42f6-ae74-53b7d5bd706f","system_id":"levelo_inurba_marseille","lat":43.279984,"lon":5.416641,"is_reserved":false,"is_disabled":false,"rental_uris":{"android":"levelo://app?vid=284343a2-7d05-42f6-ae74-53b7d5bd706f","ios":"levelo://app?vid=284343a2-7d05-42f6-ae74-53b7d5bd706f"},"vehicle_type_id":"4","last_reported":1720375783,"current_range_meters":0,"station_id":"ce4bho12rcd13ifvqh1g","pricing_plan_id":"cebpf4jnsgd1na2vs0mg"},{"bike_id":"7f84c58e-001d-4ce9-84f5-78f4602b6f20","system_id":"levelo_inurba_marseille","lat":43.27994,"lon":5.41663,"is_reserved":false,"is_disabled":false,"rental_uris":{"android":"levelo://app?vid=7f84c58e-001d-4ce9-84f5-78f4602b6f20","ios":"levelo://app?vid=7f84c58e-001d-4ce9-84f5-78f4602b6f20"},"vehicle_type_id":"4","last_reported":1720375783,"current_range_meters":0,"station_id":"ce4bho12rcd13ifvqh1g","pricing_plan_id":"cebpf4jnsgd1na2vs0mg"},{"bike_id":"1731c8a0-6c1b-46b5-ae19-e213b98448c0","system_id":"levelo_inurba_marseille","lat":43.267966,"lon":5.393976,"is_reserved":false,"is_disabled":false,"rental_uris":{"android":"levelo://app?vid=1731c8a0-6c1b-46b5-ae19-e213b98448c0","ios":"levelo://app?vid=1731c8a0-6c1b-46b5-ae19-e213b98448c0"},"vehicle_type_id":"4","last_reported":1720375783,"current_range_meters":1200,"station_id":"ce4bhh12rcd13ifvqfg0","pricing_plan_id":"cebpf4jnsgd1na2vs0mg"},{"bike_id":"96fc85d2-b858-4e41-bfad-86c37d03a879","system_id":"levelo_inurba_marseille","lat":43.27162,"lon":5.40453,"is_reserved":false,"is_disabled":false,"rental_uris":{"android":"levelo://app?vid=96fc85d2-b858-4e41-bfad-86c37d03a879","ios":"levelo://app?vid=96fc85d2-b858-4e41-bfad-86c37d03a879"},"vehicle_type_id":"4","last_reported":1720375783,"current_range_meters":12400,"station_id":"","pricing_plan_id":"cebpf4jnsgd1na2vs0mg"},{"bike_id":"014747a9-6651-4f69-aa12-d40ca5af42a2","system_id":"levelo_inurba_marseille","lat":43.3342,"lon":5.42882,"is_reserved":false,"is_disabled":false,"rental_uris":{"android":"levelo://app?vid=014747a9-6651-4f69-aa12-d40ca5af42a2","ios":"levelo://app?vid=014747a9-6651-4f69-aa12-d40ca5af42a2"},"vehicle_type_id":"4","last_reported":1720375783,"current_range_meters":2400,"station_id":"","pricing_plan_id":"cebpf4jnsgd1na2vs0mg"},{"bike_id":"b1d7114c-6aa0-469e-8aa0-65a5f3409633","system_id":"levelo_inurba_marseille","lat":43.26947,"lon":5.4024,"is_reserved":false,"is_disabled":false,"rental_uris":{"android":"levelo://app?vid=b1d7114c-6aa0-469e-8aa0-65a5f3409633","ios":"levelo://app?vid=b1d7114c-6aa0-469e-8aa0-65a5f3409633"},"vehicle_type_id":"4","last_reported":1720375783,"current_range_meters":0,"station_id":"cjm6bp8fraef2m0cb0m0","pricing_plan_id":"cebpf4jnsgd1na2vs0mg"},{"bike_id":"74022b37-0e21-4781-9230-9de79fe87682","system_id":"levelo_inurba_marseille","lat":43.2694,"lon":5.40261,"is_reserved":false,"is_disabled":false,"rental_uris":{"android":"levelo://app?vid=74022b37-0e21-4781-9230-9de79fe87682","ios":"levelo://app?vid=74022b37-0e21-4781-9230-9de79fe87682"},"vehicle_type_id":"4","last_reported":1720375783,"current_range_meters":0,"station_id":"cjm6bp8fraef2m0cb0m0","pricing_plan_id":"cebpf4jnsgd1na2vs0mg"},{"bike_id":"d0468274-f823-409d-b811-64c9cf0ebe52","system_id":"levelo_inurba_marseille","lat":43.26203,"lon":5.370517,"is_reserved":false,"is_disabled":false,"rental_uris":{"android":"levelo://app?vid=d0468274-f823-409d-b811-64c9cf0ebe52","ios":"levelo://app?vid=d0468274-f823-409d-b811-64c9cf0ebe52"},"vehicle_type_id":"4","last_reported":1720375783,"current_range_meters":5200,"station_id":"","pricing_plan_id":"cebpf4jnsgd1na2vs0mg"},{"bike_id":"a01a3565-a763-4d38-af52-047ad439a3f6","system_id":"levelo_inurba_marseille","lat":43.26215,"lon":5.37442,"is_reserved":false,"is_disabled":false,"rental_uris":{"android":"levelo://app?vid=a01a3565-a763-4d38-af52-047ad439a3f6","ios":"levelo://app?vid=a01a3565-a763-4d38-af52-047ad439a3f6"},"vehicle_type_id":"4","last_reported":1720375783,"current_range_meters":0,"station_id":"ce4bhgp2rcd13ifvqfc0","pricing_plan_id":"cebpf4jnsgd1na2vs0mg"},{"bike_id":"efb01865-65cf-4156-8f36-37053c3ec3bf","system_id":"levelo_inurba_marseille","lat":43.261782,"lon":5.374515,"is_reserved":false,"is_disabled":false,"rental_uris":{"android":"levelo://app?vid=efb01865-65cf-4156-8f36-37053c3ec3bf","ios":"levelo://app?vid=efb01865-65cf-4156-8f36-37053c3ec3bf"},"vehicle_type_id":"4","last_reported":1720375783,"current_range_meters":0,"station_id":"ce4bhgp2rcd13ifvqfc0","pricing_plan_id":"cebpf4jnsgd1na2vs0mg"},{"bike_id":"2a370199-dcfb-4f43-8842-dad47ab78534","system_id":"levelo_inurba_marseille","lat":43.26213,"lon":5.37442,"is_reserved":false,"is_disabled":false,"rental_uris":{"android":"levelo://app?vid=2a370199-dcfb-4f43-8842-dad47ab78534","ios":"levelo://app?vid=2a370199-dcfb-4f43-8842-dad47ab78534"},"vehicle_type_id":"4","last_reported":1720375783,"current_range_meters":0,"station_id":"ce4bhgp2rcd13ifvqfc0","pricing_plan_id":"cebpf4jnsgd1na2vs0mg"},{"bike_id":"5061f4a4-73a8-4a3b-8318-d593ccc85b43","system_id":"levelo_inurba_marseille","lat":43.2621,"lon":5.37442,"is_reserved":false,"is_disabled":false,"rental_uris":{"android":"levelo://app?vid=5061f4a4-73a8-4a3b-8318-d593ccc85b43","ios":"levelo://app?vid=5061f4a4-73a8-4a3b-8318-d593ccc85b43"},"vehicle_type_id":"4","last_reported":1720375783,"current_range_meters":0,"station_id":"ce4bhgp2rcd13ifvqfc0","pricing_plan_id":"cebpf4jnsgd1na2vs0mg"},{"bike_id":"4ddb9aea-074e-4751-83f7-a58617684a86","system_id":"levelo_inurba_marseille","lat":43.261782,"lon":5.374515,"is_reserved":false,"is_disabled":false,"rental_uris":{"android":"levelo://app?vid=4ddb9aea-074e-4751-83f7-a58617684a86","ios":"levelo://app?vid=4ddb9aea-074e-4751-83f7-a58617684a86"},