{"last_updated":1743757859,"ttl":60,"version":"2.2","data":{"bikes":[{"bike_id":"9d13c440-da3b-4535-b70d-8105619f88bd","system_id":"levelo_inurba_marseille","lat":43.32365,"lon":5.38909,"is_reserved":false,"is_disabled":true,"rental_uris":{"android":"levelo://app?vid=9d13c440-da3b-4535-b70d-8105619f88bd","ios":"levelo://app?vid=9d13c440-da3b-4535-b70d-8105619f88bd"},"vehicle_type_id":"4","last_reported":1743757860,"current_range_meters":2800,"station_id":"ce4bhqp2rcd13ifvqhog","pricing_plan_id":"cebpf4jnsgd1na2vs0mg"},{"bike_id":"cdd58a93-b82b-4f86-b712-63c2b463db2f","system_id":"levelo_inurba_marseille","lat":43.26576,"lon":5.39014,"is_reserved":false,"is_disabled":false,"rental_uris":{"android":"levelo://app?vid=cdd58a93-b82b-4f86-b712-63c2b463db2f","ios":"levelo://app?vid=cdd58a93-b82b-4f86-b712-63c2b463db2f"},"vehicle_type_id":"4","last_reported":1743757860,"current_range_meters":2800,"station_id":"ce4bhe12rcd13ifvqf30","pricing_plan_id":"cebpf4jnsgd1na2vs0mg"},{"bike_id":"d6e46cc8-f36e-4c27-bbd3-25c79c58be51","system_id":"levelo_inurba_marseille","lat":43.29626,"lon":5.37171,"is_reserved":false,"is_disabled":false,"rental_uris":{"android":"levelo://app?vid=d6e46cc8-f36e-4c27-bbd3-25c79c58be51","ios":"levelo://app?vid=d6e46cc8-f36e-4c27-bbd3-25c79c58be51"},"vehicle_type_id":"4","last_reported":1743757860,"current_range_meters":3200,"station_id":"ce4bgnh2rcd13ifvqc0g","pricing_plan_id":"cebpf4jnsgd1na2vs0mg"},{"bike_id":"fed6a2d9-9606-4988-b76b-60843221cd39","system_id":"levelo_inurba_marseille","lat":43.28484,"lon":5.38406,"is_reserved":false,"is_disabled":false,"rental_uris":{"android":"levelo://app?vid=fed6a2d9-9606-4988-b76b-60843221cd39","ios":"levelo://app?vid=fed6a2d9-9606-4988-b76b-60843221cd39"},"vehicle_type_id":"4","last_reported":1743757860,"current_range_meters":3200,"station_id":"ce4bh512rcd13ifvqe3g","pricing_plan_id":"cebpf4jnsgd1na2vs0mg"},{"bike_id":"9684f4b4-207e-41dc-9a54-f1411fe6fae7","system_id":"levelo_inurba_marseille","lat":43.30611,"lon":5.36674,"is_reserved":false,"is_disabled":true,"rental_uris":{"android":"levelo://app?vid=9684f4b4-207e-41dc-9a54-f1411fe6fae7","ios":"levelo://app?vid=9684f4b4-207e-41dc-9a54-f1411fe6fae7"},"vehicle_type_id":"4","last_reported":1743757860,"current_range_meters":3600,"station_id":"","pricing_plan_id":"cebpf4jnsgd1na2vs0mg"},{"bike_id":"78346f8f-963e-4373-b063-c98ddd9b543a","system_id":"levelo_inurba_marseille","lat":43.24602,"lon":5.395307,"is_reserved":false,"is_disabled":false,"rental_uris":{"android":"levelo://app?vid=78346f8f-963e-4373-b063-c98ddd9b543a","ios":"levelo://app?vid=78346f8f-963e-4373-b063-c98ddd9b543a"},"vehicle_type_id":"4","last_reported":1743757860,"current_range_meters":3600,"station_id":"ce4bhlp2rcd13ifvqgjg","pricing_plan_id":"cebpf4jnsgd1na2vs0mg"},{"bike_id":"32a978e0-d0c2-43d4-9b03-19a5c41c27de","system_id":"levelo_inurba_marseille","lat":43.310706,"lon":5.383604,"is_reserved":false,"is_disabled":true,"rental_uris":{"android":"levelo://app?vid=32a978e0-d0c2-43d4-9b03-19a5c41c27de","ios":"levelo://app?vid=32a978e0-d0c2-43d4-9b03-19a5c41c27de"},"vehicle_type_id":"4","last_reported":1743757860,"current_range_meters":3600,"station_id":"ce4bgv92rcd13ifvqcr0","pricing_plan_id":"cebpf4jnsgd1na2vs0mg"},{"bike_id":"83b0c53b-03b9-4081-bbd1-0b0d0839dd26","system_id":"levelo_inurba_marseille","lat":43.31217,"lon":5.36851,"is_reserved":false,"is_disabled":false,"rental_uris":{"android":"levelo://app?vid=83b0c53b-03b9-4081-bbd1-0b0d0839dd26","ios":"levelo://app?vid=83b0c53b-03b9-4081-bbd1-0b0d0839dd26"},"vehicle_type_id":"4","last_reported":1743757860,"current_range_meters":4000,"station_id":"ce4bgl92rcd13ifvqbq0","pricing_plan_id":"cebpf4jnsgd1na2vs0mg"},{"bike_id":"c85f1f8b-cb4a-4680-86ae-6ea4ed3b0dcf","system_id":"levelo_inurba_marseille","lat":43.29291,"lon":5.40202,"is_reserved":false,"is_disabled":false,"rental_uris":{"android":"levelo://app?vid=c85f1f8b-cb4a-4680-86ae-6ea4ed3b0dcf","ios":"levelo://app?vid=c85f1f8b-cb4a-4680-86ae-6ea4ed3b0dcf"},"vehicle_type_id":"4","last_reported":1743757860,"current_range_meters":4000,"station_id":"","pricing_plan_id":"cebpf4jnsgd1na2vs0mg"},{"bike_id":"81179123-d7b4-4851-9622-51456881795f","system_id":"levelo_inurba_marseille","lat":43.2605,"lon":5.39397,"is_reserved":false,"is_disabled":false,"rental_uris":{"android":"levelo://app?vid=81179123-d7b4-4851-9622-51456881795f","ios":"levelo://app?vid=81179123-d7b4-4851-9622-51456881795f"},"vehicle_type_id":"4","last_reported":1743757860,"current_range_meters":4000,"station_id":"ce4bhh92rcd13ifvqfj0","pricing_plan_id":"cebpf4jnsgd1na2vs0mg"},{"bike_id":"237f4b52-fb30-477b-9d9b-400306194de0","system_id":"levelo_inurba_marseille","lat":43.29257,"lon":5.36844,"is_reserved":false,"is_disabled":false,"rental_uris":{"android":"levelo://app?vid=237f4b52-fb30-477b-9d9b-400306194de0","ios":"levelo://app?vid=237f4b52-fb30-477b-9d9b-400306194de0"},"vehicle_type_id":"4","last_reported":1743757860,"current_range_meters":4400,"station_id":"ce4bhbp2rcd13ifvqesg","pricing_plan_id":"cebpf4jnsgd1na2vs0mg"},{"bike_id":"44b9b2ec-6088-400c-a95c-ad4b003b25ca","system_id":"levelo_inurba_marseille","lat":43.275,"lon":5.42487,"is_reserved":false,"is_disabled":false,"rental_uris":{"android":"levelo://app?vid=44b9b2ec-6088-400c-a95c-ad4b003b25ca","ios":"levelo://app?vid=44b9b2ec-6088-400c-a95c-ad4b003b25ca"},"vehicle_type_id":"4","last_reported":1743757860,"current_range_meters":4400,"station_id":"ce4bhn92rcd13ifvqgrg","pricing_plan_id":"cebpf4jnsgd1na2vs0mg"},{"bike_id":"06e38700-0f4e-4c11-9177-348375c75fa1","system_id":"levelo_inurba_marseille","lat":43.30307,"lon":5.39197,"is_reserved":false,"is_disabled":false,"rental_uris":{"android":"levelo://app?vid=06e38700-0f4e-4c11-9177-348375c75fa1","ios":"levelo://app?vid=06e38700-0f4e-4c11-9177-348375c75fa1"},"vehicle_type_id":"4","last_reported":1743757860,"current_range_meters":4400,"station_id":"ce4bgkh2rcd13ifvqbk0","pricing_plan_id":"cebpf4jnsgd1na2vs0mg"},{"bike_id":"fede0e43-1609-4a28-9f97-913c3f149703","system_id":"levelo_inurba_marseille","lat":43.231911,"lon":5.355556,"is_reserved":false,"is_disabled":false,"rental_uris":{"android":"levelo://app?vid=fede0e43-1609-4a28-9f97-913c3f149703","ios":"levelo://app?vid=fede0e43-1609-4a28-9f97-913c3f149703"},"vehicle_type_id":"4","last_reported":1743757860,"current_range_meters":4800,"station_id":"ce4bhu92rcd13ifvqi70","pricing_plan_id":"cebpf4jnsgd1na2vs0mg"},{"bike_id":"c2e6881a-04a3-4a38-9cc0-75cacf165e78","system_id":"levelo_inurba_marseille","lat":43.28832,"lon":5.364645,"is_reserved":false,"is_disabled":false,"rental_uris":{"android":"levelo://app?vid=c2e6881a-04a3-4a38-9cc0-75cacf165e78","ios":"levelo://app?vid=c2e6881a-04a3-4a38-9cc0-75cacf165e78"},"vehicle_type_id":"4","last_reported":1743757860,"current_range_meters":5600,"station_id":"","pricing_plan_id":"cebpf4jnsgd1na2vs0mg"},{"bike_id":"960c8f6a-24ae-4fae-b269-0414a39cf5c3","system_id":"levelo_inurba_marseille","lat":43.26675,"lon":5.3826,"is_reserved":false,"is_disabled":false,"rental_uris":{"android":"levelo://app?vid=960c8f6a-24ae-4fae-b269-0414a39cf5c3","ios":"levelo://app?vid=960c8f6a-24ae-4fae-b269-0414a39cf5c3"},"vehicle_type_id":"4","last_reported":1743757860,"current_range_meters":5600,"station_id":"ce4bhg92rcd13ifvqf90","pricing_plan_id":"cebpf4jnsgd1na2vs0mg"},{"bike_id":"2af6679a-441d-446a-afdd-eb968d799112","system_id":"levelo_inurba_marseille","lat":43.29367,"lon":5.37846,"is_reserved":false,"is_disabled":false,"rental_uris":{"android":"levelo://app?vid=2af6679a-441d-446a-afdd-eb968d799112","ios":"levelo://app?vid=2af6679a-441d-446a-afdd-eb968d799112"},"vehicle_type_id":"4","last_reported":1743757860,"current_range_meters":4800,"station_id":"ce4bgjh2rcd13ifvqbf0","pricing_plan_id":"cebpf4jnsgd1na2vs0mg"},{"bike_id":"3fd283c5-171d-46ec-9324-2de2c345f1af","system_id":"levelo_inurba_marseille","lat":43.30901,"lon":5.3685,"is_reserved":false,"is_disabled":false,"rental_uris":{"android":"levelo://app?vid=3fd283c5-171d-46ec-9324-2de2c345f1af","ios":"levelo://app?vid=3fd283c5-171d-46ec-9324-2de2c345f1af"},"vehicle_type_id":"4","last_reported":1743757860,"current_range_meters":5600,"station_id":"ce4bgn92rcd13ifvqbvg","pricing_plan_id":"cebpf4jnsgd1na2vs0mg"},{"bike_id":"15ea3e20-e3c1-434f-8b50-88d1ebba3f71","system_id":"levelo_inurba_marseille","lat":43.23191,"lon":5.35574,"is_reserved":false,"is_disabled":false,"rental_uris":{"android":"levelo://app?vid=15ea3e20-e3c1-434f-8b50-88d1ebba3f71","ios":"levelo://app?vid=15ea3e20-e3c1-434f-8b50-88d1ebba3f71"},"vehicle_type_id":"4","last_reported":1743757860,"current_range_meters":5600,"station_id":"ce4bhu92rcd13ifvqi70","pricing_plan_id":"cebpf4jnsgd1na2vs0mg"},{"bike_id":"ed910235-7712-4f43-a3a3-b84c24c262e1","system_id":"levelo_inurba_marseille","lat":43.2835,"lon":5.38101,"is_reserved":false,"is_disabled":false,"rental_uris":{"android":"levelo://app?vid=ed910235-7712-4f43-a3a3-b84c24c262e1","ios":"levelo://app?vid=ed910235-7712-4f43-a3a3-b84c24c262e1"},"vehicle_type_id":"4","last_reported":1743757860,"current_range_meters":6000,"station_id":"ce4bh412rcd13ifvqdr0","pricing_plan_id":"cebpf4jnsgd1na2vs0mg"},{"bike_id":"7a4b1a9d-3bfa-43c5-aab2-8d873e2de0c5","system_id":"levelo_inurba_marseille","lat":43.2953,"lon":5.38545,"is_reserved":false,"is_disabled":false,"rental_uris":{"android":"levelo://app?vid=7a4b1a9d-3bfa-43c5-aab2-8d873e2de0c5","ios":"levelo://app?vid=7a4b1a9d-3bfa-43c5-aab2-8d873e2de0c5"},"vehicle_type_id":"4","last_reported":1743757860,"current_range_meters":6000,"station_id":"ce4bgih2rcd13ifvqba0","pricing_plan_id":"cebpf4jnsgd1na2vs0mg"},{"bike_id":"b25d5c52-a3b2-4e1d-9f2c-658fc628f8df","system_id":"levelo_inurba_marseille","lat":43.23193,"lon":5.35548,"is_reserved":false,"is_disabled":false,"rental_uris":{"android":"levelo://app?vid=b25d5c52-a3b2-4e1d-9f2c-658fc628f8df","ios":"levelo://app?vid=b25d5c52-a3b2-4e1d-9f2c-658fc628f8df"},"vehicle_type_id":"4","last_reported":1743757860,"current_range_meters":6000,"station_id":"ce4bhu92rcd13ifvqi70","pricing_plan_id":"cebpf4jnsgd1na2vs0mg"},{"bike_id":"cd83c8ac-ed09-4369-9279-b6f36f2bbd3c","system_id":"levelo_inurba_marseille","lat":43.30802,"lon":5.38249,"is_reserved":false,"is_disabled":false,"rental_uris":{"android":"levelo://app?vid=cd83c8ac-ed09-4369-9279-b6f36f2bbd3c","ios":"levelo://app?vid=cd83c8ac-ed09-4369-9279-b6f36f2bbd3c"},"vehicle_type_id":"4","last_reported":1743757860,"current_range_meters":6400,"station_id":"","pricing_plan_id":"cebpf4jnsgd1na2vs0mg"},{"bike_id":"51b37761-f4db-4850-a6e4-1f3b516e8001","system_id":"levelo_inurba_marseille","lat":43.23147,"lon":5.43721,"is_reserved":false,"is_disabled":false,"rental_uris":{"android":"levelo://app?vid=51b37761-f4db-4850-a6e4-1f3b516e8001","ios":"levelo://app?vid=51b37761-f4db-4850-a6e4-1f3b516e8001"},"vehicle_type_id":"4","last_reported":1743757860,"current_range_meters":6400,"station_id":"ce4bhmp2rcd13ifvqgog","pricing_plan_id":"cebpf4jnsgd1na2vs0mg"},{"bike_id":"24efc0e5-50e4-4002-a77f-6309831ac946","system_id":"levelo_inurba_marseille","lat":43.29554,"lon":5.42287,"is_reserved":false,"is_disabled":false,"rental_uris":{"android":"levelo://app?vid=24efc0e5-50e4-4002-a77f-6309831ac946","ios":"levelo://app?vid=24efc0e5-50e4-4002-a77f-6309831ac946"},"vehicle_type_id":"4","last_reported":1743757860,"current_range_meters":6400,"station_id":"ce4bhph2rcd13ifvqhdg","pricing_plan_id":"cebpf4jnsgd1na2vs0mg"},{"bike_id":"2f5ebb33-56ac-48ac-8004-513ec8b3c9df","system_id":"levelo_inurba_marseille","lat":43.25929,"lon":5.40907,"is_reserved":false,"is_disabled":false,"rental_uris":{"android":"levelo://app?vid=2f5ebb33-56ac-48ac-8004-513ec8b3c9df","ios":"levelo://app?vid=2f5ebb33-56ac-48ac-8004-513ec8b3c9df"},"vehicle_type_id":"4","last_reported":1743757860,"current_range_meters":6400,"station_id":"ce4bhm92rcd13ifvqglg","pricing_plan_id":"cebpf4jnsgd1na2vs0mg"},{"bike_id":"6242a91e-cd87-4d7a-bf34-c1bc4f1656b2","system_id":"levelo_inurba_marseille","lat":43.28705,"lon":5.37948,"is_reserved":false,"is_disabled":false,"rental_uris":{"android":"levelo://app?vid=6242a91e-cd87-4d7a-bf34-c1bc4f1656b2","ios":"levelo://app?vid=6242a91e-cd87-4d7a-bf34-c1bc4f1656b2"},"vehicle_type_id":"4","last_reported":1743757860,"current_range_meters":6400,"station_id":"ce4bh9p2rcd13ifvqec0","pricing_plan_id":"cebpf4jnsgd1na2vs0mg"},{"bike_id":"3232655f-8b00-4002-bd8e-1cd4f29e5a46","system_id":"levelo_inurba_marseille","lat":43.309058,"lon":5.368785,"is_reserved":false,"is_disabled":false,"rental_uris":{"android":"levelo://app?vid=3232655f-8b00-4002-bd8e-1cd4f29e5a46","ios":"levelo://app?vid=3232655f-8b00-4002-bd8e-1cd4f29e5a46"},"vehicle_type_id":"4","last_reported":1743757860,"current_range_meters":6800,"station_id":"ce4bgn92rcd13ifvqbvg","pricing_plan_id":"cebpf4jnsgd1na2vs0mg"},{"bike_id":"5eeb5e50-0db0-41c6-afc4-e17fd1bc146e","system_id":"levelo_inurba_marseille","lat":43.31482,"lon":5.3727,"is_reserved":false,"is_disabled":false,"rental_uris":{"android":"levelo://app?vid=5eeb5e50-0db0-41c6-afc4-e17fd1bc146e","ios":"levelo://app?vid=5eeb5e50-0db0-41c6-afc4-e17fd1bc146e"},"vehicle_type_id":"4","last_reported":1743757860,"current_range_meters":6800,"station_id":"ce4bgt12rcd13ifvqcd0","pricing_plan_id":"cebpf4jnsgd1na2vs0mg"},{"bike_id":"71e55f99-90e5-4133-8167-5af8b2b35d7e","system_id":"levelo_inurba_marseille","lat":43.23035,"lon":5.35467,"is_reserved":false,"is_disabled":false,"rental_uris":{"android":"levelo://app?vid=71e55f99-90e5-4133-8167-5af8b2b35d7e","ios":"levelo://app?vid=71e55f99-90e5-4133-8167-5af8b2b35d7e"},"vehicle_type_id":"4","last_reported":1743757860,"current_range_meters":6800,"station_id":"cpo3342slgdg3j2ifvpg","pricing_plan_id":"cebpf4jnsgd1na2vs0mg"},{"bike_id":"1d38907f-1a03-4a46-885f-495106bba42e","system_id":"levelo_inurba_marseille","lat":43.274923,"lon":5.424566,"is_reserved":false,"is_disabled":false,"rental_uris":{"android":"levelo://app?vid=1d38907f-1a03-4a46-885f-495106bba42e","ios":"levelo://app?vid=1d38907f-1a03-4a46-885f-495106bba42e"},"vehicle_type_id":"4","last_reported":1743757860,"current_range_meters":6800,"station_id":"ce4bhn92rcd13ifvqgrg","pricing_plan_id":"cebpf4jnsgd1na2vs0mg"},{"bike_id":"12722531-4a55-424a-91fd-8bea4f4d40da","system_id":"levelo_inurba_marseille","lat":43.30551,"lon":5.36707,"is_reserved":false,"is_disabled":true,"rental_uris":{"android":"levelo://app?vid=12722531-4a55-424a-91fd-8bea4f4d40da","ios":"levelo://app?vid=12722531-4a55-424a-91fd-8bea4f4d40da"},"vehicle_type_id":"4","last_reported":1743757860,"current_range_meters":6800,"station_id":"ce4bgrp2rcd13ifvqc9g","pricing_plan_id":"cebpf4jnsgd1na2vs0mg"},{"bike_id":"30640613-6ef4-478d-b894-ea1ca63934d4","system_id":"levelo_inurba_marseille","lat":43.25498,"lon":5.37653,"is_reserved":false,"is_disabled":false,"rental_uris":{"android":"levelo://app?vid=30640613-6ef4-478d-b894-ea1ca63934d4","ios":"levelo://app?vid=30640613-6ef4-478d-b894-ea1ca63934d4"},"vehicle_type_id":"4","last_reported":1743757860,"current_range_meters":6800,"station_id":"ce4bhh12rcd13ifvqff0","pricing_plan_id":"cebpf4jnsgd1na2vs0mg"},{"bike_id":"08412614-9a7f-42c5-91c9-6bf43ea0736a","system_id":"levelo_inurba_marseille","lat":43.23146,"lon":5.43718,"is_reserved":false,"is_disabled":false,"rental_uris":{"android":"levelo://app?vid=08412614-9a7f-42c5-91c9-6bf43ea0736a","ios":"levelo://app?vid=08412614-9a7f-42c5-91c9-6bf43ea0736a"},"vehicle_type_id":"4","last_reported":1743757860,"current_range_meters":6800,"station_id":"ce4bhmp2rcd13ifvqgog","pricing_plan_id":"cebpf4jnsgd1na2vs0mg"},{"bike_id":"54aa232c-bfa2-40dc-bb91-a4b8d7a609dd","system_id":"levelo_inurba_marseille","lat":43.24186,"lon":5.39704,"is_reserved":false,"is_disabled":false,"rental_uris":{"android":"levelo://app?vid=54aa232c-bfa2-40dc-bb91-a4b8d7a609dd","ios":"levelo://app?vid=54aa232c-bfa2-40dc-bb91-a4b8d7a609dd"},"vehicle_type_id":"4","last_reported":1743757860,"current_range_meters":6800,"station_id":"ce4bhn12rcd13ifvqgpg","pricing_plan_id":"cebpf4jnsgd1na2vs0mg"},{"bike_id":"abe82edf-86d7-443d-8856-ca4748d0da17","system_id":"levelo_inurba_marseille","lat":43.24993,"lon":5.38894,"is_reserved":false,"is_disabled":false,"rental_uris":{"android":"levelo://app?vid=abe82edf-86d7-443d-8856-ca4748d0da17","ios":"levelo://app?vid=abe82edf-86d7-443d-8856-ca4748d0da17"},"vehicle_type_id":"4","last_reported":1743757860,"current_range_meters":6800,"station_id":"ce4bhgp2rcd13ifvqfd0","pricing_plan_id":"cebpf4jnsgd1na2vs0mg"},{"bike_id":"0a6fda7c-342c-47ce-8c60-df2d591a98d3","system_id":"levelo_inurba_marseille","lat":43.2606,"lon":5.39395,"is_reserved":false,"is_disabled":false,"rental_uris":{"android":"levelo://app?vid=0a6fda7c-342c-47ce-8c60-df2d591a98d3","ios":"levelo://app?vid=0a6fda7c-342c-47ce-8c60-df2d591a98d3"},"vehicle_type_id":"4","last_reported":1743757860,"current_range_meters":6800,"station_id":"ce4bhh92rcd13ifvqfj0","pricing_plan_id":"cebpf4jnsgd1na2vs0mg"},{"bike_id":"8d7eab5b-bc43-48f5-9c97-0948b42ca6cf","system_id":"levelo_inurba_marseille","lat":43.22929,"lon":5.35421,"is_reserved":false,"is_disabled":false,"rental_uris":{"android":"levelo://app?vid=8d7eab5b-bc43-48f5-9c97-0948b42ca6cf","ios":"levelo://app?vid=8d7eab5b-bc43-48f5-9c97-0948b42ca6cf"},"vehicle_type_id":"4","last_reported":1743757860,"current_range_meters":6800,"station_id":"cpo3532slgdg3j2ikp40","pricing_plan_id":"cebpf4jnsgd1na2vs0mg"},{"bike_id":"9ef9a30a-02f2-4df3-a15e-d4ae47318a35","system_id":"levelo_inurba_marseille","lat":43.26791,"lon":5.39407,"is_reserved":false,"is_disabled":false,"rental_uris":{"android":"levelo://app?vid=9ef9a30a-02f2-4df3-a15e-d4ae47318a35","ios":"levelo://app?vid=9ef9a30a-02f2-4df3-a15e-d4ae47318a35"},"vehicle_type_id":"4","last_reported":1743757860,"current_range_meters":6800,"station_id":"ce4bhjp2rcd13ifvqga0","pricing_plan_id":"cebpf4jnsgd1na2vs0mg"},{"bike_id":"73d854ad-9eb6-4d68-8878-e9b2295ae65a","system_id":"levelo_inurba_marseille","lat":43.23061,"lon":5.35491,"is_reserved":false,"is_disabled":false,"rental_uris":{"android":"levelo://app?vid=73d854ad-9eb6-4d68-8878-e9b2295ae65a","ios":"levelo://app?vid=73d854ad-9eb6-4d68-8878-e9b2295ae65a"},"vehicle_type_id":"4","last_reported":1743757860,"current_range_meters":7200,"station_id":"cpo3342slgdg3j2ifvpg","pricing_plan_id":"cebpf4jnsgd1na2vs0mg"},{"bike_id":"6b47b7fa-3901-4c16-a18d-dd6c6e60c2b6","system_id":"levelo_inurba_marseille","lat":43.23149,"lon":5.43714,"is_reserved":false,"is_disabled":false,"rental_uris":{"android":"levelo://app?vid=6b47b7fa-3901-4c16-a18d-dd6c6e60c2b6","ios":"levelo://app?vid=6b47b7fa-3901-4c16-a18d-dd6c6e60c2b6"},"vehicle_type_id":"4","last_reported":1743757860,"current_range_meters":7200,"station_id":"ce4bhmp2rcd13ifvqgog","pricing_plan_id":"cebpf4jnsgd1na2vs0mg"},{"bike_id":"a0e3aab1-a2e4-4a1b-9e31-a34b290f48ef","system_id":"levelo_inurba_marseille","lat":43.28347,"lon":5.38083,"is_reserved":false,"is_disabled":false,"rental_uris":{"android":"levelo://app?vid=a0e3aab1-a2e4-4a1b-9e31-a34b290f48ef","ios":"levelo://app?vid=a0e3aab1-a2e4-4a1b-9e31-a34b290f48ef"},"vehicle_type_id":"4","last_reported":1743757860,"current_range_meters":6800,"station_id":"ce4bh412rcd13ifvqdr0","pricing_plan_id":"cebpf4jnsgd1na2vs0mg"},{"bike_id":"809ab426-da69-405a-9ff2-30b58e1aceb6","system_id":"levelo_inurba_marseille","lat":43.29976,"lon":5.38694,"is_reserved":false,"is_disabled":false,"rental_uris":{"android":"levelo://app?vid=809ab426-da69-405a-9ff2-30b58e1aceb6","ios":"levelo://app?vid=809ab426-da69-405a-9ff2-30b58e1aceb6"},"vehicle_type_id":"4","last_reported":1743757860,"current_range_meters":7200,"station_id":"","pricing_plan_id":"cebpf4jnsgd1na2vs0mg"},{"bike_id":"b4cb4e28-e514-44da-9db3-2c7d453900ef","system_id":"levelo_inurba_marseille","lat":43.28175,"lon":5.42698,"is_reserved":false,"is_disabled":false,"rental_uris":{"android":"levelo://app?vid=b4cb4e28-e514-44da-9db3-2c7d453900ef","ios":"levelo://app?vid=b4cb4e28-e514-44da-9db3-2c7d453900ef"},"vehicle_type_id":"4","last_reported":1743757860,"current_range_meters":7200,"station_id":"ce4bhnh2rcd13ifvqgug","pricing_plan_id":"cebpf4jnsgd1na2vs0mg"},{"bike_id":"abbadd4b-9448-44da-801d-66456e6b2a4e","system_id":"levelo_inurba_marseille","lat":43.28645,"lon":5.35081,"is_reserved":false,"is_disabled":true,"rental_uris":{"android":"levelo://app?vid=abbadd4b-9448-44da-801d-66456e6b2a4e","ios":"levelo://app?vid=abbadd4b-9448-44da-801d-66456e6b2a4e"},"vehicle_type_id":"4","last_reported":1743757860,"current_range_meters":7200,"station_id":"ce4bhch2rcd13ifvqeug","pricing_plan_id":"cebpf4jnsgd1na2vs0mg"},{"bike_id":"835ba050-c4e1-4478-9730-4d0cf0157070","system_id":"levelo_inurba_marseille","lat":43.27503,"lon":5.42454,"is_reserved":false,"is_disabled":false,"rental_uris":{"android":"levelo://app?vid=835ba050-c4e1-4478-9730-4d0cf0157070","ios":"levelo://app?vid=835ba050-c4e1-4478-9730-4d0cf0157070"},"vehicle_type_id":"4","last_reported":1743757860,"current_range_meters":7200,"station_id":"ce4bhn92rcd13ifvqgrg","pricing_plan_id":"cebpf4jnsgd1na2vs0mg"},{"bike_id":"c13336a2-47ce-488c-b5b6-77c01a3ac1d1","system_id":"levelo_inurba_marseille","lat":43.319035,"lon":5.407402,"is_reserved":false,"is_disabled":true,"rental_uris":{"android":"levelo://app?vid=c13336a2-47ce-488c-b5b6-77c01a3ac1d1","ios":"levelo://app?vid=c13336a2-47ce-488c-b5b6-77c01a3ac1d1"},"vehicle_type_id":"4","last_reported":1743757860,"current_range_meters":7200,"station_id":"ce4bhq12rcd13ifvqhig","pricing_plan_id":"cebpf4jnsgd1na2vs0mg"},{"bike_id":"446e803b-ba2a-4c33-8c33-6c261ff323ca","system_id":"levelo_inurba_marseille","lat":43.24077,"lon":5.37733,"is_reserved":false,"is_disabled":false,"rental_uris":{"android":"levelo://app?vid=446e803b-ba2a-4c33-8c33-6c261ff323ca","ios":"levelo://app?vid=446e803b-ba2a-4c33-8c33-6c261ff323ca"},"vehicle_type_id":"4","last_reported":1743757860,"current_range_meters":7200,"station_id":"ce4bhnp2rcd13ifvqgvg","pricing_plan_id":"cebpf4jnsgd1na2vs0mg"},{"bike_id":"e3a29d38-a611-4b12-87ef-2fb8a21c41d5","system_id":"levelo_inurba_marseille","lat":43.229286,"lon":5.353754,"is_reserved":false,"is_disabled":false,"rental_uris":{"android":"levelo://app?vid=e3a29d38-a611-4b12-87ef-2fb8a21c41d5","ios":"levelo://app?vid=e3a29d38-a611-4b12-87ef-2fb8a21c41d5"},"vehicle_type_id":"4","last_reported":1743757860,"current_range_meters":8000,"station_id":"cpo3532slgdg3j2ikp40","pricing_plan_id":"cebpf4jnsgd1na2vs0mg"},{"bike_id":"efddeda7-6eb2-4c14-868d-fa0ce0b35ef3","system_id":"levelo_inurba_marseille","lat":43.31286,"lon":5.38279,"is_reserved":false,"is_disabled":false,"rental_uris":{"android":"levelo://app?vid=efddeda7-6eb2-4c14-868d-fa0ce0b35ef3","ios":"levelo://app?vid=efddeda7-6eb2-4c14-868d-fa0ce0b35ef3"},"vehicle_type_id":"4","last_reported":1743757860,"current_range_meters":8000,"station_id":"","pricing_plan_id":"cebpf4jnsgd1na2vs0mg"},{"bike_id":"57291bbb-6580-4b9c-91ec-3202a0b1012f","system_id":"levelo_inurba_marseille","lat":43.33613,"lon":5.41009,"is_reserved":false,"is_disabled":false,"rental_uris":{"android":"levelo://app?vid=57291bbb-6580-4b9c-91ec-3202a0b1012f","ios":"levelo://app?vid=57291bbb-6580-4b9c-91ec-3202a0b1012f"},"vehicle_type_id":"4","last_reported":1743757860,"current_range_meters":8000,"station_id":"ce4bhqh2rcd13ifvqhmg","pricing_plan_id":"cebpf4jnsgd1na2vs0mg"},{"bike_id":"8a8a0584-e0fb-4a53-aa66-bcdf51fbf375","system_id":"levelo_inurba_marseille","lat":43.2815,"lon":5.42661,"is_reserved":false,"is_disabled":false,"rental_uris":{"android":"levelo://app?vid=8a8a0584-e0fb-4a53-aa66-bcdf51fbf375","ios":"levelo://app?vid=8a8a0584-e0fb-4a53-aa66-bcdf51fbf375"},"vehicle_type_id":"4","last_reported":1743757860,"current_range_meters":8000,"station_id":"ce4bhnh2rcd13ifvqgug","pricing_plan_id":"cebpf4jnsgd1na2vs0mg"},{"bike_id":"59cc0335-bc7c-4f7c-b695-a5cff05bf6b1","system_id":"levelo_inurba_marseille","lat":43.33603,"lon":5.41038,"is_reserved":false,"is_disabled":false,"rental_uris":{"android":"levelo://app?vid=59cc0335-bc7c-4f7c-b695-a5cff05bf6b1","ios":"levelo://app?vid=59cc0335-bc7c-4f7c-b695-a5cff05bf6b1"},"vehicle_type_id":"4","last_reported":1743757860,"current_range_meters":8000,"station_id":"ce4bhqh2rcd13ifvqhmg","pricing_plan_id":"cebpf4jnsgd1na2vs0mg"},{"bike_id":"4ef1f24a-cdc0-4dae-93b8-59602c159aa4","system_id":"levelo_inurba_marseille","lat":43.31803,"lon":5.37487,"is_reserved":false,"is_disabled":false,"rental_uris":{"android":"levelo://app?vid=4ef1f24a-cdc0-4dae-93b8-59602c159aa4","ios":"levelo://app?vid=4ef1f24a-cdc0-4dae-93b8-59602c159aa4"},"vehicle_type_id":"4","last_reported":1743757860,"current_range_meters":8400,"station_id":"","pricing_plan_id":"cebpf4jnsgd1na2vs0mg"},{"bike_id":"d76832c4-3604-4de9-b7a5-182f7c6e995c","system_id":"levelo_inurba_marseille","lat":43.31432,"lon":5.38517,"is_reserved":false,"is_disabled":true,"rental_uris":{"android":"levelo://app?vid=d76832c4-3604-4de9-b7a5-182f7c6e995c","ios":"levelo://app?vid=d76832c4-3604-4de9-b7a5-182f7c6e995c"},"vehicle_type_id":"4","last_reported":1743757860,"current_range_meters":8400,"station_id":"","pricing_plan_id":"cebpf4jnsgd1na2vs0mg"},{"bike_id":"69acddf6-1674-4a48-b247-b816dce31989","system_id":"levelo_inurba_marseille","lat":43.341437,"lon":5.409174,"is_reserved":false,"is_disabled":false,"rental_uris":{"android":"levelo://app?vid=69acddf6-1674-4a48-b247-b816dce31989","ios":"levelo://app?vid=69acddf6-1674-4a48-b247-b816dce31989"},"vehicle_type_id":"4","last_reported":1743757860,"current_range_meters":8400,"station_id":"ce4bhqh2rcd13ifvqhlg","pricing_plan_id":"cebpf4jnsgd1na2vs0mg"},{"bike_id":"0ab3b6ef-336a-4056-bd5f-1786f8b2b472","system_id":"levelo_inurba_marseille","lat":43.26584,"lon":5.39008,"is_reserved":false,"is_disabled":false,"rental_uris":{"android":"levelo://app?vid=0ab3b6ef-336a-4056-bd5f-1786f8b2b472","ios":"levelo://app?vid=0ab3b6ef-336a-4056-bd5f-1786f8b2b472"},"vehicle_type_id":"4","last_reported":1743757860,"current_range_meters":8400,"station_id":"ce4bhe12rcd13ifvqf30","pricing_plan_id":"cebpf4jnsgd1na2vs0mg"},{"bike_id":"4d021dc5-da23-461e-96b2-594066586ca8","system_id":"levelo_inurba_marseille","lat":43.27926,"lon":5.40882,"is_reserved":false,"is_disabled":false,"rental_uris":{"android":"levelo://app?vid=4d021dc5-da23-461e-96b2-594066586ca8","ios":"levelo://app?vid=4d021dc5-da23-461e-96b2-594066586ca8"},"vehicle_type_id":"4","last_reported":1743757860,"current_range_meters":8400,"station_id":"","pricing_plan_id":"cebpf4jnsgd1na2vs0mg"},{"bike_id":"b3eac9c5-b95b-4848-a104-d84634d1a70c","system_id":"levelo_inurba_marseille","lat":43.30979,"lon":5.37988,"is_reserved":false,"is_disabled":false,"rental_uris":{"android":"levelo://app?vid=b3eac9c5-b95b-4848-a104-d84634d1a70c","ios":"levelo://app?vid=b3eac9c5-b95b-4848-a104-d84634d1a70c"},"vehicle_type_id":"4","last_reported":1743757860,"current_range_meters":8400,"station_id":"","pricing_plan_id":"cebpf4jnsgd1na2vs0mg"},{"bike_id":"19224d95-e048-4cbb-8884-43e0e6b3db9b","system_id":"levelo_inurba_marseille","lat":43.2987,"lon":5.39744,"is_reserved":false,"is_disabled":true,"rental_uris":{"android":"levelo://app?vid=19224d95-e048-4cbb-8884-43e0e6b3db9b","ios":"levelo://app?vid=19224d95-e048-4cbb-8884-43e0e6b3db9b"},"vehicle_type_id":"4","last_reported":1743757860,"current_range_meters":8400,"station_id":"ce4bh0h2rcd13ifvqd50","pricing_plan_id":"cebpf4jnsgd1na2vs0mg"},{"bike_id":"832a2c8f-6e92-47ce-92d5-6b41675d215c","system_id":"levelo_inurba_marseille","lat":43.23144,"lon":5.43712,"is_reserved":false,"is_disabled":false,"rental_uris":{"android":"levelo://app?vid=832a2c8f-6e92-47ce-92d5-6b41675d215c","ios":"levelo://app?vid=832a2c8f-6e92-47ce-92d5-6b41675d215c"},"vehicle_type_id":"4","last_reported":1743757860,"current_range_meters":8400,"station_id":"ce4bhmp2rcd13ifvqgog","pricing_plan_id":"cebpf4jnsgd1na2vs0mg"},{"bike_id":"b7ef7853-a7bf-439e-9af6-a24e26292122","system_id":"levelo_inurba_marseille","lat":43.28499,"lon":5.38558,"is_reserved":false,"is_disabled":false,"rental_uris":{"android":"levelo://app?vid=b7ef7853-a7bf-439e-9af6-a24e26292122","ios":"levelo://app?vid=b7ef7853-a7bf-439e-9af6-a24e26292122"},"vehicle_type_id":"4","last_reported":1743757860,"current_range_meters":8400,"station_id":"ce4bh8p2rcd13ifvqeb0","pricing_plan_id":"cebpf4jnsgd1na2vs0mg"},{"bike_id":"63c19073-a7de-46ed-a396-8639743b910e","system_id":"levelo_inurba_marseille","lat":43.23192,"lon":5.35553,"is_reserved":false,"is_disabled":false,"rental_uris":{"android":"levelo://app?vid=63c19073-a7de-46ed-a396-8639743b910e","ios":"levelo://app?vid=63c19073-a7de-46ed-a396-8639743b910e"},"vehicle_type_id":"4","last_reported":1743757860,"current_range_meters":8400,"station_id":"ce4bhu92rcd13ifvqi70","pricing_plan_id":"cebpf4jnsgd1na2vs0mg"},{"bike_id":"b4b08b05-1760-4096-8194-3aa4e6b37d85","system_id":"levelo_inurba_marseille","lat":43.27813,"lon":5.40711,"is_reserved":false,"is_disabled":false,"rental_uris":{"android":"levelo://app?vid=b4b08b05-1760-4096-8194-3aa4e6b37d85","ios":"levelo://app?vid=b4b08b05-1760-4096-8194-3aa4e6b37d85"},"vehicle_type_id":"4","last_reported":1743757860,"current_range_meters":8400,"station_id":"ce4bhnh2rcd13ifvqgtg","pricing_plan_id":"cebpf4jnsgd1na2vs0mg"},{"bike_id":"9e611599-fc3a-4a2f-a1ae-af0629db6ee7","system_id":"levelo_inurba_marseille","lat":43.26573,"lon":5.39018,"is_reserved":false,"is_disabled":false,"rental_uris":{"android":"levelo://app?vid=9e611599-fc3a-4a2f-a1ae-af0629db6ee7","ios":"levelo://app?vid=9e611599-fc3a-4a2f-a1ae-af0629db6ee7"},"vehicle_type_id":"4","last_reported":1743757860,"current_range_meters":8800,"station_id":"ce4bhe12rcd13ifvqf30","pricing_plan_id":"cebpf4jnsgd1na2vs0mg"},{"bike_id":"c67bd703-e1c0-488a-ad5d-0f5eb148fcd0","system_id":"levelo_inurba_marseille","lat":43.300825,"lon":5.386915,"is_reserved":false,"is_disabled":false,"rental_uris":{"android":"levelo://app?vid=c67bd703-e1c0-488a-ad5d-0f5eb148fcd0","ios":"levelo://app?vid=c67bd703-e1c0-488a-ad5d-0f5eb148fcd0"},"vehicle_type_id":"4","last_reported":1743757860,"current_range_meters":8800,"station_id":"ce4bghh2rcd13ifvqb60","pricing_plan_id":"cebpf4jnsgd1na2vs0mg"},{"bike_id":"3cf22d29-90b6-4c79-a643-886bc3743ca7","system_id":"levelo_inurba_marseille","lat":43.33425,"lon":5.4005,"is_reserved":false,"is_disabled":false,"rental_uris":{"android":"levelo://app?vid=3cf22d29-90b6-4c79-a643-886bc3743ca7","ios":"levelo://app?vid=3cf22d29-90b6-4c79-a643-886bc3743ca7"},"vehicle_type_id":"4","last_reported":1743757860,"current_range_meters":8800,"station_id":"","pricing_plan_id":"cebpf4jnsgd1na2vs0mg"},{"bike_id":"396ded93-b352-4cdf-a81f-cf9880b8e7f1","system_id":"levelo_inurba_marseille","lat":43.24077,"lon":5.37751,"is_reserved":false,"is_disabled":false,"rental_uris":{"android":"levelo://app?vid=396ded93-b352-4cdf-a81f-cf9880b8e7f1","ios":"levelo://app?vid=396ded93-b352-4cdf-a81f-cf9880b8e7f1"},"vehicle_type_id":"4","last_reported":1743757860,"current_range_meters":8800,"station_id":"ce4bhnp2rcd13ifvqgvg","pricing_plan_id":"cebpf4jnsgd1na2vs0mg"},{"bike_id":"f8b2c79b-cdce-45d6-8548-7d58c58e0694","system_id":"levelo_inurba_marseille","lat":43.28451,"lon":5.35888,"is_reserved":false,"is_disabled":false,"rental_uris":{"android":"levelo://app?vid=f8b2c79b-cdce-45d6-8548-7d58c58e0694","ios":"levelo://app?vid=f8b2c79b-cdce-45d6-8548-7d58c58e0694"},"vehicle_type_id":"4","last_reported":1743757860,"current_range_meters":8800,"station_id":"ce4bhah2rcd13ifvqei0","pricing_plan_id":"cebpf4jnsgd1na2vs0mg"},{"bike_id":"abb3a774-cdd1-457e-b7b5-5b21eb1a1a36","system_id":"levelo_inurba_marseille","lat":43.31455,"lon":5.37294,"is_reserved":false,"is_disabled":false,"rental_uris":{"android":"levelo://app?vid=abb3a774-cdd1-457e-b7b5-5b21eb1a1a36","ios":"levelo://app?vid=abb3a774-cdd1-457e-b7b5-5b21eb1a1a36"},"vehicle_type_id":"4","last_reported":1743757860,"current_range_meters":8800,"station_id":"ce4bgt12rcd13ifvqcd0","pricing_plan_id":"cebpf4jnsgd1na2vs0mg"},{"bike_id":"2ff3068f-074f-4569-bb32-aaa56c528ef2","system_id":"levelo_inurba_marseille","lat":43.27916,"lon":5.39574,"is_reserved":false,"is_disabled":false,"rental_uris":{"android":"levelo://app?vid=2ff3068f-074f-4569-bb32-aaa56c528ef2","ios":"levelo://app?vid=2ff3068f-074f-4569-bb32-aaa56c528ef2"},"vehicle_type_id":"4","last_reported":1743757860,"current_range_meters":8800,"station_id":"ce4bhf92rcd13ifvqf40","pricing_plan_id":"cebpf4jnsgd1na2vs0mg"},{"bike_id":"f7bb8436-ecd2-4874-be2e-726e23b6b5f6","system_id":"levelo_inurba_marseille","lat":43.33591,"lon":5.41028,"is_reserved":false,"is_disabled":false,"rental_uris":{"android":"levelo://app?vid=f7bb8436-ecd2-4874-be2e-726e23b6b5f6","ios":"levelo://app?vid=f7bb8436-ecd2-4874-be2e-726e23b6b5f6"},"vehicle_type_id":"4","last_reported":1743757860,"current_range_meters":8800,"station_id":"ce4bhqh2rcd13ifvqhmg","pricing_plan_id":"cebpf4jnsgd1na2vs0mg"},{"bike_id":"e20ac1d1-8faa-44a4-adc4-b0129429db12","system_id":"levelo_inurba_marseille","lat":43.28445,"lon":5.35887,"is_reserved":false,"is_disabled":false,"rental_uris":{"android":"levelo://app?vid=e20ac1d1-8faa-44a4-adc4-b0129429db12","ios":"levelo://app?vid=e20ac1d1-8faa-44a4-adc4-b0129429db12"},"vehicle_type_id":"4","last_reported":1743757860,"current_range_meters":8800,"station_id":"ce4bhah2rcd13ifvqei0","pricing_plan_id":"cebpf4jnsgd1na2vs0mg"},{"bike_id":"77e1cca1-9afa-4062-8d36-bac30c3b0ae7","system_id":"levelo_inurba_marseille","lat":43.32355,"lon":5.36732,"is_reserved":false,"is_disabled":false,"rental_uris":{"android":"levelo://app?vid=77e1cca1-9afa-4062-8d36-bac30c3b0ae7","ios":"levelo://app?vid=77e1cca1-9afa-4062-8d36-bac30c3b0ae7"},"vehicle_type_id":"4","last_reported":1743757860,"current_range_meters":9200,"station_id":"ce4bhsh2rcd13ifvqi2g","pricing_plan_id":"cebpf4jnsgd1na2vs0mg"},{"bike_id":"63139285-137c-4e8d-8e95-6c2a275f8333","system_id":"levelo_inurba_marseille","lat":43.32115,"lon":5.36807,"is_reserved":false,"is_disabled":false,"rental_uris":{"android":"levelo://app?vid=63139285-137c-4e8d-8e95-6c2a275f8333","ios":"levelo://app?vid=63139285-137c-4e8d-8e95-6c2a275f8333"},"vehicle_type_id":"4","last_reported":1743757860,"current_range_meters":9200,"station_id":"ce4bhrh2rcd13ifvqhug","pricing_plan_id":"cebpf4jnsgd1na2vs0mg"},{"bike_id":"0e54924c-c421-47dc-a19b-78867bf9bea0","system_id":"levelo_inurba_marseille","lat":43.30373,"lon":5.42489,"is_reserved":false,"is_disabled":false,"rental_uris":{"android":"levelo://app?vid=0e54924c-c421-47dc-a19b-78867bf9bea0","ios":"levelo://app?vid=0e54924c-c421-47dc-a19b-78867bf9bea0"},"vehicle_type_id":"4","last_reported":1743757860,"current_range_meters":9200,"station_id":"ce4bhoh2rcd13ifvqh6g","pricing_plan_id":"cebpf4jnsgd1na2vs0mg"},{"bike_id":"9d1f36cc-f1de-4fc6-bfce-0d04d66ab256","system_id":"levelo_inurba_marseille","lat":43.30557,"lon":5.36546,"is_reserved":false,"is_disabled":false,"rental_uris":{"android":"levelo://app?vid=9d1f36cc-f1de-4fc6-bfce-0d04d66ab256","ios":"levelo://app?vid=9d1f36cc-f1de-4fc6-bfce-0d04d66ab256"},"vehicle_type_id":"4","last_reported":1743757860,"current_range_meters":9200,"station_id":"ce4bgs12rcd13ifvqcag","pricing_plan_id":"cebpf4jnsgd1na2vs0mg"},{"bike_id":"5f46717b-05d1-4f34-a220-8087932d755b","system_id":"levelo_inurba_marseille","lat":43.30108,"lon":5.36945,"is_reserved":false,"is_disabled":false,"rental_uris":{"android":"levelo://app?vid=5f46717b-05d1-4f34-a220-8087932d755b","ios":"levelo://app?vid=5f46717b-05d1-4f34-a220-8087932d755b"},"vehicle_type_id":"4","last_reported":1743757860,"current_range_meters":9200,"station_id":"","pricing_plan_id":"cebpf4jnsgd1na2vs0mg"},{"bike_id":"fb8d1bfa-64e9-428f-b24d-9012899fe97f","system_id":"levelo_inurba_marseille","lat":43.30129,"lon":5.38784,"is_reserved":false,"is_disabled":false,"rental_uris":{"android":"levelo://app?vid=fb8d1bfa-64e9-428f-b24d-9012899fe97f","ios":"levelo://app?vid=fb8d1bfa-64e9-428f-b24d-9012899fe97f"},"vehicle_type_id":"4","last_reported":1743757860,"current_range_meters":9200,"station_id":"ce4bghh2rcd13ifvqb60","pricing_plan_id":"cebpf4jnsgd1na2vs0mg"},{"bike_id":"40b1a489-3550-4c62-b43f-1d634f10d2cf","system_id":"levelo_inurba_marseille","lat":43.27489,"lon":5.42463,"is_reserved":false,"is_disabled":false,"rental_uris":{"android":"levelo://app?vid=40b1a489-3550-4c62-b43f-1d634f10d2cf","ios":"levelo://app?vid=40b1a489-3550-4c62-b43f-1d634f10d2cf"},"vehicle_type_id":"4","last_reported":1743757860,"current_range_meters":9600,"station_id":"ce4bhn92rcd13ifvqgrg","pricing_plan_id":"cebpf4jnsgd1na2vs0mg"},{"bike_id":"433f021f-d390-46a8-8bff-f5d45dc61da5","system_id":"levelo_inurba_marseille","lat":43.29599,"lon":5.38094,"is_reserved":false,"is_disabled":false,"rental_uris":{"android":"levelo://app?vid=433f021f-d390-46a8-8bff-f5d45dc61da5","ios":"levelo://app?vid=433f021f-d390-46a8-8bff-f5d45dc61da5"},"vehicle_type_id":"4","last_reported":1743757860,"current_range_meters":9600,"station_id":"ce4bgl12rcd13ifvqbo0","pricing_plan_id":"cebpf4jnsgd1na2vs0mg"},{"bike_id":"eb8f1344-88f4-4455-94c0-64b99c700333","system_id":"levelo_inurba_marseille","lat":43.29256,"lon":5.40897,"is_reserved":false,"is_disabled":false,"rental_uris":{"android":"levelo://app?vid=eb8f1344-88f4-4455-94c0-64b99c700333","ios":"levelo://app?vid=eb8f1344-88f4-4455-94c0-64b99c700333"},"vehicle_type_id":"4","last_reported":1743757860,"current_range_meters":9200,"station_id":"ce4bh192rcd13ifvqdc0","pricing_plan_id":"cebpf4jnsgd1na2vs0mg"},{"bike_id":"69c0db05-6ded-4dc6-9720-2452c83c1020","system_id":"levelo_inurba_marseille","lat":43.22941,"lon":5.35392,"is_reserved":false,"is_disabled":false,"rental_uris":{"android":"levelo://app?vid=69c0db05-6ded-4dc6-9720-2452c83c1020","ios":"levelo://app?vid=69c0db05-6ded-4dc6-9720-2452c83c1020"},"vehicle_type_id":"4","last_reported":1743757860,"current_range_meters":9600,"station_id":"cpo3532slgdg3j2ikp40","pricing_plan_id":"cebpf4jnsgd1na2vs0mg"},{"bike_id":"beac940e-322f-412b-b16f-b42717173c0c","system_id":"levelo_inurba_marseille","lat":43.28939,"lon":5.39628,"is_reserved":false,"is_disabled":false,"rental_uris":{"android":"levelo://app?vid=beac940e-322f-412b-b16f-b42717173c0c","ios":"levelo://app?vid=beac940e-322f-412b-b16f-b42717173c0c"},"vehicle_type_id":"4","last_reported":1743757860,"current_range_meters":10000,"station_id":"ce4bh3h2rcd13ifvqdn0","pricing_plan_id":"cebpf4jnsgd1na2vs0mg"},{"bike_id":"66320bc1-008b-48fe-b35a-1ba41c7b488a","system_id":"levelo_inurba_marseille","lat":43.30547,"lon":5.36529,"is_reserved":false,"is_disabled":false,"rental_uris":{"android":"levelo://app?vid=66320bc1-008b-48fe-b35a-1ba41c7b488a","ios":"levelo://app?vid=66320bc1-008b-48fe-b35a-1ba41c7b488a"},"vehicle_type_id":"4","last_reported":1743757860,"current_range_meters":10000,"station_id":"ce4bgs12rcd13ifvqcag","pricing_plan_id":"cebpf4jnsgd1na2vs0mg"},{"bike_id":"80538649-1945-45e9-99ba-56f08f5ca6f8","system_id":"levelo_inurba_marseille","lat":43.26685,"lon":5.38273,"is_reserved":false,"is_disabled":false,"rental_uris":{"android":"levelo://app?vid=80538649-1945-45e9-99ba-56f08f5ca6f8","ios":"levelo://app?vid=80538649-1945-45e9-99ba-56f08f5ca6f8"},"vehicle_type_id":"4","last_reported":1743757860,"current_range_meters":10000,"station_id":"ce4bhg92rcd13ifvqf90","pricing_plan_id":"cebpf4jnsgd1na2vs0mg"},{"bike_id":"f259431a-e985-4bd4-9468-aeef8a8469e4","system_id":"levelo_inurba_marseille","lat":43.30479,"lon":5.37905,"is_reserved":false,"is_disabled":false,"rental_uris":{"android":"levelo://app?vid=f259431a-e985-4bd4-9468-aeef8a8469e4","ios":"levelo://app?vid=f259431a-e985-4bd4-9468-aeef8a8469e4"},"vehicle_type_id":"4","last_reported":1743757860,"current_range_meters":10000,"station_id":"ce4bgup2rcd13ifvqcn0","pricing_plan_id":"cebpf4jnsgd1na2vs0mg"},{"bike_id":"a52d72a6-ba7a-43e9-b553-3ae21bcc94ae","system_id":"levelo_inurba_marseille","lat":43.27211,"lon":5.39173,"is_reserved":false,"is_disabled":false,"rental_uris":{"android":"levelo://app?vid=a52d72a6-ba7a-43e9-b553-3ae21bcc94ae","ios":"levelo://app?vid=a52d72a6-ba7a-43e9-b553-3ae21bcc94ae"},"vehicle_type_id":"4","last_reported":1743757860,"current_range_meters":10800,"station_id":"ce4bhhp2rcd13ifvqfm0","pricing_plan_id":"cebpf4jnsgd1na2vs0mg"},{"bike_id":"3a0b0f90-790c-4160-b50c-b4d5547d0490","system_id":"levelo_inurba_marseille","lat":43.30346,"lon":5.42518,"is_reserved":false,"is_disabled":false,"rental_uris":{"android":"levelo://app?vid=3a0b0f90-790c-4160-b50c-b4d5547d0490","ios":"levelo://app?vid=3a0b0f90-790c-4160-b50c-b4d5547d0490"},"vehicle_type_id":"4","last_reported":1743757860,"current_range_meters":10800,"station_id":"ce4bhoh2rcd13ifvqh6g","pricing_plan_id":"cebpf4jnsgd1na2vs0mg"},{"bike_id":"cf65ed8c-317d-4d5b-9505-8d0b999d79c8","system_id":"levelo_inurba_marseille","lat":43.27493,"lon":5.42453,"is_reserved":false,"is_disabled":false,"rental_uris":{"android":"levelo://app?vid=cf65ed8c-317d-4d5b-9505-8d0b999d79c8","ios":"levelo://app?vid=cf65ed8c-317d-4d5b-9505-8d0b999d79c8"},"vehicle_type_id":"4","last_reported":1743757860,"current_range_meters":10800,"station_id":"ce4bhn92rcd13ifvqgrg","pricing_plan_id":"cebpf4jnsgd1na2vs0mg"},{"bike_id":"66f6483b-72aa-42fe-9592-4f630cfdf76c","system_id":"levelo_inurba_marseille","lat":43.28763,"lon":5.35889,"is_reserved":false,"is_disabled":false,"rental_uris":{"android":"levelo://app?vid=66f6483b-72aa-42fe-9592-4f630cfdf76c","ios":"levelo://app?vid=66f6483b-72aa-42fe-9592-4f630cfdf76c"},"vehicle_type_id":"4","last_reported":1743757860,"current_range_meters":10800,"station_id":"ce4bhb12rcd13ifvqem0","pricing_plan_id":"cebpf4jnsgd1na2vs0mg"},{"bike_id":"93363628-de10-45eb-ab0b-325aef5e74bf","system_id":"levelo_inurba_marseille","lat":43.314936,"lon":5.372997,"is_reserved":false,"is_disabled":false,"rental_uris":{"android":"levelo://app?vid=93363628-de10-45eb-ab0b-325aef5e74bf","ios":"levelo://app?vid=93363628-de10-45eb-ab0b-325aef5e74bf"},"vehicle_type_id":"4","last_reported":1743757860,"current_range_meters":10000,"station_id":"ce4bhop2rcd13ifvqh7g","pricing_plan_id":"cebpf4jnsgd1na2vs0mg"},{"bike_id":"64cd3283-8a55-4240-818a-8735273cc3b9","system_id":"levelo_inurba_marseille","lat":43.26677,"lon":5.38271,"is_reserved":false,"is_disabled":false,"rental_uris":{"android":"levelo://app?vid=64cd3283-8a55-4240-818a-8735273cc3b9","ios":"levelo://app?vid=64cd3283-8a55-4240-818a-8735273cc3b9"},"vehicle_type_id":"4","last_reported":1743757860,"current_range_meters":10800,"station_id":"ce4bhg92rcd13ifvqf90","pricing_plan_id":"cebpf4jnsgd1na2vs0mg"},{"bike_id":"8d31e431-b807-4419-826d-dae3ba08c7d2","system_id":"levelo_inurba_marseille","lat":43.23179,"lon":5.39987,"is_reserved":false,"is_disabled":false,"rental_uris":{"android":"levelo://app?vid=8d31e431-b807-4419-826d-dae3ba08c7d2","ios":"levelo://app?vid=8d31e431-b807-4419-826d-dae3ba08c7d2"},"vehicle_type_id":"4","last_reported":1743757860,"current_range_meters":10800,"station_id":"ce4bhn12rcd13ifvqgqg","pricing_plan_id":"cebpf4jnsgd1na2vs0mg"},{"bike_id":"af67a4da-0229-47ca-a49a-0689342fdde7","system_id":"levelo_inurba_marseille","lat":43.26494,"lon":5.39541,"is_reserved":false,"is_disabled":false,"rental_uris":{"android":"levelo://app?vid=af67a4da-0229-47ca-a49a-0689342fdde7","ios":"levelo://app?vid=af67a4da-0229-47ca-a49a-0689342fdde7"},"vehicle_type_id":"4","last_reported":1743757860,"current_range_meters":10800,"station_id":"ce4bhi12rcd13ifvqfq0","pricing_plan_id":"cebpf4jnsgd1na2vs0mg"},{"bike_id":"cba5f339-105b-4de0-8f86-b9a561d6d186","system_id":"levelo_inurba_marseille","lat":43.23178,"lon":5.39986,"is_reserved":false,"is_disabled":false,"rental_uris":{"android":"levelo://app?vid=cba5f339-105b-4de0-8f86-b9a561d6d186","ios":"levelo://app?vid=cba5f339-105b-4de0-8f86-b9a561d6d186"},"vehicle_type_id":"4","last_reported":1743757860,"current_range_meters":10000,"station_id":"ce4bhn12rcd13ifvqgqg","pricing_plan_id":"cebpf4jnsgd1na2vs0mg"},{"bike_id":"758c2355-846a-4f3d-bcd8-eac4b3145cd6","system_id":"levelo_inurba_marseille","lat":43.23192,"lon":5.35555,"is_reserved":false,"is_disabled":false,"rental_uris":{"android":"levelo://app?vid=758c2355-846a-4f3d-bcd8-eac4b3145cd6","ios":"levelo://app?vid=758c2355-846a-4f3d-bcd8-eac4b3145cd6"},"vehicle_type_id":"4","last_reported":1743757860,"current_range_meters":10800,"station_id":"ce4bhu92rcd13ifvqi70","pricing_plan_id":"cebpf4jnsgd1na2vs0mg"},{"bike_id":"ed6a53d1-d0a4-4aba-bd09-cf4286c2770f","system_id":"levelo_inurba_marseille","lat":43.23152,"lon":5.43706,"is_reserved":false,"is_disabled":false,"rental_uris":{"android":"levelo://app?vid=ed6a53d1-d0a4-4aba-bd09-cf4286c2770f","ios":"levelo://app?vid=ed6a53d1-d0a4-4aba-bd09-cf4286c2770f"},"vehicle_type_id":"4","last_reported":1743757860,"current_range_meters":10800,"station_id":"ce4bhmp2rcd13ifvqgog","pricing_plan_id":"cebpf4jnsgd1na2vs0mg"},{"bike_id":"ed034283-1492-4da7-9409-35bdead80f30","system_id":"levelo_inurba_marseille","lat":43.30144,"lon":5.38765,"is_reserved":false,"is_disabled":true,"rental_uris":{"android":"levelo://app?vid=ed034283-1492-4da7-9409-35bdead80f30","ios":"levelo://app?vid=ed034283-1492-4da7-9409-35bdead80f30"},"vehicle_type_id":"4","last_reported":1743757860,"current_range_meters":10800,"station_id":"ce4bghh2rcd13ifvqb60","pricing_plan_id":"cebpf4jnsgd1na2vs0mg"},{"bike_id":"873c31b7-1ed3-4551-9039-d8861202b6bf","system_id":"levelo_inurba_marseille","lat":43.30155,"lon":5.37405,"is_reserved":false,"is_disabled":false,"rental_uris":{"android":"levelo://app?vid=873c31b7-1ed3-4551-9039-d8861202b6bf","ios":"levelo://app?vid=873c31b7-1ed3-4551-9039-d8861202b6bf"},"vehicle_type_id":"4","last_reported":1743757860,"current_range_meters":10800,"station_id":"ce4bgs92rcd13ifvqcc0","pricing_plan_id":"cebpf4jnsgd1na2vs0mg"},{"bike_id":"f1e5f20d-e5bb-4349-9a72-f7ab8a004414","system_id":"levelo_inurba_marseille","lat":43.3035,"lon":5.40426,"is_reserved":false,"is_disabled":true,"rental_uris":{"android":"levelo://app?vid=f1e5f20d-e5bb-4349-9a72-f7ab8a004414","ios":"levelo://app?vid=f1e5f20d-e5bb-4349-9a72-f7ab8a004414"},"vehicle_type_id":"4","last_reported":1743757860,"current_range_meters":10800,"station_id":"ce4bh012rcd13ifvqd10","pricing_plan_id":"cebpf4jnsgd1na2vs0mg"},{"bike_id":"74a13a18-430a-4f50-ba26-e7dfbad23482","system_id":"levelo_inurba_marseille","lat":43.23064,"lon":5.35491,"is_reserved":false,"is_disabled":false,"rental_uris":{"android":"levelo://app?vid=74a13a18-430a-4f50-ba26-e7dfbad23482","ios":"levelo://app?vid=74a13a18-430a-4f50-ba26-e7dfbad23482"},"vehicle_type_id":"4","last_reported":1743757860,"current_range_meters":10800,"station_id":"cpo3342slgdg3j2ifvpg","pricing_plan_id":"cebpf4jnsgd1na2vs0mg"},{"bike_id":"9396f31d-e485-4f45-a818-9888089b5bb6","system_id":"levelo_inurba_marseille","lat":43.23185,"lon":5.35536,"is_reserved":false,"is_disabled":false,"rental_uris":{"android":"levelo://app?vid=9396f31d-e485-4f45-a818-9888089b5bb6","ios":"levelo://app?vid=9396f31d-e485-4f45-a818-9888089b5bb6"},"vehicle_type_id":"4","last_reported":1743757860,"current_range_meters":10800,"station_id":"ce4bhu92rcd13ifvqi70","pricing_plan_id":"cebpf4jnsgd1na2vs0mg"},{"bike_id":"386f038a-a86c-4c6a-bf90-638d2a627842","system_id":"levelo_inurba_marseille","lat":43.32474,"lon":5.36569,"is_reserved":false,"is_disabled":false,"rental_uris":{"android":"levelo://app?vid=386f038a-a86c-4c6a-bf90-638d2a627842","ios":"levelo://app?vid=386f038a-a86c-4c6a-bf90-638d2a627842"},"vehicle_type_id":"4","last_reported":1743757860,"current_range_meters":11200,"station_id":"ce4bhs12rcd13ifvqhvg","pricing_plan_id":"cebpf4jnsgd1na2vs0mg"},{"bike_id":"2464a9cc-f9f7-466f-aa41-994b6fa88f32","system_id":"levelo_inurba_marseille","lat":43.30925,"lon":5.36855,"is_reserved":false,"is_disabled":false,"rental_uris":{"android":"levelo://app?vid=2464a9cc-f9f7-466f-aa41-994b6fa88f32","ios":"levelo://app?vid=2464a9cc-f9f7-466f-aa41-994b6fa88f32"},"vehicle_type_id":"4","last_reported":1743757860,"current_range_meters":11200,"station_id":"ce4bgn92rcd13ifvqbvg","pricing_plan_id":"cebpf4jnsgd1na2vs0mg"},{"bike_id":"9d2e5acf-5c57-4136-b4b1-d8a7474fb9a6","system_id":"levelo_inurba_marseille","lat":43.28124,"lon":5.37806,"is_reserved":false,"is_disabled":false,"rental_uris":{"android":"levelo://app?vid=9d2e5acf-5c57-4136-b4b1-d8a7474fb9a6","ios":"levelo://app?vid=9d2e5acf-5c57-4136-b4b1-d8a7474fb9a6"},"vehicle_type_id":"4","last_reported":1743757860,"current_range_meters":11200,"station_id":"ce4bha12rcd13ifvqee0","pricing_plan_id":"cebpf4jnsgd1na2vs0mg"},{"bike_id":"fb348b09-6abb-47a4-a266-91f2eeaee291","system_id":"levelo_inurba_marseille","lat":43.32233,"lon":5.36748,"is_reserved":false,"is_disabled":false,"rental_uris":{"android":"levelo://app?vid=fb348b09-6abb-47a4-a266-91f2eeaee291","ios":"levelo://app?vid=fb348b09-6abb-47a4-a266-91f2eeaee291"},"vehicle_type_id":"4","last_reported":1743757860,"current_range_meters":11600,"station_id":"","pricing_plan_id":"cebpf4jnsgd1na2vs0mg"},{"bike_id":"d2d33889-dc59-4357-9996-def521543f37","system_id":"levelo_inurba_marseille","lat":43.29065,"lon":5.37164,"is_reserved":false,"is_disabled":false,"rental_uris":{"android":"levelo://app?vid=d2d33889-dc59-4357-9996-def521543f37","ios":"levelo://app?vid=d2d33889-dc59-4357-9996-def521543f37"},"vehicle_type_id":"4","last_reported":1743757860,"current_range_meters":11600,"station_id":"ce4bh5p2rcd13ifvqe4g","pricing_plan_id":"cebpf4jnsgd1na2vs0mg"},{"bike_id":"1036ccb8-28c1-4319-bb97-6f6b9f195cc5","system_id":"levelo_inurba_marseille","lat":43.30171,"lon":5.38103,"is_reserved":false,"is_disabled":false,"rental_uris":{"android":"levelo://app?vid=1036ccb8-28c1-4319-bb97-6f6b9f195cc5","ios":"levelo://app?vid=1036ccb8-28c1-4319-bb97-6f6b9f195cc5"},"vehicle_type_id":"4","last_reported":1743757860,"current_range_meters":11600,"station_id":"ce4bgjp2rcd13ifvqbh0","pricing_plan_id":"cebpf4jnsgd1na2vs0mg"},{"bike_id":"bfb11b41-82f2-4c9c-851a-97bba3e1d8be","system_id":"levelo_inurba_marseille","lat":43.28918,"lon":5.38826,"is_reserved":false,"is_disabled":true,"rental_uris":{"android":"levelo://app?vid=bfb11b41-82f2-4c9c-851a-97bba3e1d8be","ios":"levelo://app?vid=bfb11b41-82f2-4c9c-851a-97bba3e1d8be"},"vehicle_type_id":"4","last_reported":1743757860,"current_range_meters":11600,"station_id":"","pricing_plan_id":"cebpf4jnsgd1na2vs0mg"},{"bike_id":"55ebdf25-0357-4ec1-a3b5-737d5b6b88c2","system_id":"levelo_inurba_marseille","lat":43.30556,"lon":5.36533,"is_reserved":false,"is_disabled":false,"rental_uris":{"android":"levelo://app?vid=55ebdf25-0357-4ec1-a3b5-737d5b6b88c2","ios":"levelo://app?vid=55ebdf25-0357-4ec1-a3b5-737d5b6b88c2"},"vehicle_type_id":"4","last_reported":1743757860,"current_range_meters":11600,"station_id":"ce4bgs12rcd13ifvqcag","pricing_plan_id":"cebpf4jnsgd1na2vs0mg"},{"bike_id":"eb912de0-3a85-4846-aec3-1cc4a250653e","system_id":"levelo_inurba_marseille","lat":43.28665,"lon":5.36353,"is_reserved":false,"is_disabled":false,"rental_uris":{"android":"levelo://app?vid=eb912de0-3a85-4846-aec3-1cc4a250653e","ios":"levelo://app?vid=eb912de0-3a85-4846-aec3-1cc4a250653e"},"vehicle_type_id":"4","last_reported":1743757860,"current_range_meters":11600,"station_id":"ce4bhah2rcd13ifvqej0","pricing_plan_id":"cebpf4jnsgd1na2vs0mg"},{"bike_id":"f60fe2e8-775e-4eb5-a2f8-7834a2bf71a0","system_id":"levelo_inurba_marseille","lat":43.31221,"lon":5.3686,"is_reserved":false,"is_disabled":false,"rental_uris":{"android":"levelo://app?vid=f60fe2e8-775e-4eb5-a2f8-7834a2bf71a0","ios":"levelo://app?vid=f60fe2e8-775e-4eb5-a2f8-7834a2bf71a0"},"vehicle_type_id":"4","last_reported":1743757860,"current_range_meters":11600,"station_id":"ce4bgl92rcd13ifvqbq0","pricing_plan_id":"cebpf4jnsgd1na2vs0mg"},{"bike_id":"7b602871-0a68-47e6-b31b-78235f3c21af","system_id":"levelo_inurba_marseille","lat":43.30951,"lon":5.39033,"is_reserved":false,"is_disabled":false,"rental_uris":{"android":"levelo://app?vid=7b602871-0a68-47e6-b31b-78235f3c21af","ios":"levelo://app?vid=7b602871-0a68-47e6-b31b-78235f3c21af"},"vehicle_type_id":"4","last_reported":1743757860,"current_range_meters":12000,"station_id":"ce4bgup2rcd13ifvqco0","pricing_plan_id":"cebpf4jnsgd1na2vs0mg"},{"bike_id":"1b07f5d0-df62-4495-a42c-4a12cca8ef22","system_id":"levelo_inurba_marseille","lat":43.302411,"lon":5.400632,"is_reserved":false,"is_disabled":true,"rental_uris":{"android":"levelo://app?vid=1b07f5d0-df62-4495-a42c-4a12cca8ef22","ios":"levelo://app?vid=1b07f5d0-df62-4495-a42c-4a12cca8ef22"},"vehicle_type_id":"4","last_reported":1743757860,"current_range_meters":12000,"station_id":"ce4bgvh2rcd13ifvqcs0","pricing_plan_id":"cebpf4jnsgd1na2vs0mg"},{"bike_id":"988930ae-cf6e-4cc6-a663-6be8d5a86333","system_id":"levelo_inurba_marseille","lat":43.321043,"lon":5.368004,"is_reserved":false,"is_disabled":true,"rental_uris":{"android":"levelo://app?vid=988930ae-cf6e-4cc6-a663-6be8d5a86333","ios":"levelo://app?vid=988930ae-cf6e-4cc6-a663-6be8d5a86333"},"vehicle_type_id":"4","last_reported":1743757860,"current_range_meters":12000,"station_id":"ce4bhrh2rcd13ifvqhug","pricing_plan_id":"cebpf4jnsgd1na2vs0mg"},{"bike_id":"2a703c63-309e-4968-9499-32bb5d047b07","system_id":"levelo_inurba_marseille","lat":43.24078,"lon":5.37752,"is_reserved":false,"is_disabled":false,"rental_uris":{"android":"levelo://app?vid=2a703c63-309e-4968-9499-32bb5d047b07","ios":"levelo://app?vid=2a703c63-309e-4968-9499-32bb5d047b07"},"vehicle_type_id":"4","last_reported":1743757860,"current_range_meters":12000,"station_id":"ce4bhnp2rcd13ifvqgvg","pricing_plan_id":"cebpf4jnsgd1na2vs0mg"},{"bike_id":"4621ad45-29bf-48cb-8077-88f2e1f7279f","system_id":"levelo_inurba_marseille","lat":43.23188,"lon":5.35554,"is_reserved":false,"is_disabled":false,"rental_uris":{"android":"levelo://app?vid=4621ad45-29bf-48cb-8077-88f2e1f7279f","ios":"levelo://app?vid=4621ad45-29bf-48cb-8077-88f2e1f7279f"},"vehicle_type_id":"4","last_reported":1743757860,"current_range_meters":12400,"station_id":"ce4bhu92rcd13ifvqi70","pricing_plan_id":"cebpf4jnsgd1na2vs0mg"},{"bike_id":"b2fe3062-6f99-485a-a5ab-06b091755bb3","system_id":"levelo_inurba_marseille","lat":43.23204,"lon":5.35555,"is_reserved":false,"is_disabled":false,"rental_uris":{"android":"levelo://app?vid=b2fe3062-6f99-485a-a5ab-06b091755bb3","ios":"levelo://app?vid=b2fe3062-6f99-485a-a5ab-06b091755bb3"},"vehicle_type_id":"4","last_reported":1743757860,"current_range_meters":12400,"station_id":"ce4bhu92rcd13ifvqi70","pricing_plan_id":"cebpf4jnsgd1na2vs0mg"},{"bike_id":"5a8f5ee5-69ef-4467-a713-2b1a8a882f99","system_id":"levelo_inurba_marseille","lat":43.29601,"lon":5.377157,"is_reserved":false,"is_disabled":true,"rental_uris":{"android":"levelo://app?vid=5a8f5ee5-69ef-4467-a713-2b1a8a882f99","ios":"levelo://app?vid=5a8f5ee5-69ef-4467-a713-2b1a8a882f99"},"vehicle_type_id":"4","last_reported":1743757860,"current_range_meters":12400,"station_id":"ce4bgi92rcd13ifvqb90","pricing_plan_id":"cebpf4jnsgd1na2vs0mg"},{"bike_id":"46e40aa5-72ae-444f-9358-a676d369a477","system_id":"levelo_inurba_marseille","lat":43.33001,"lon":5.43778,"is_reserved":false,"is_disabled":false,"rental_uris":{"android":"levelo://app?vid=46e40aa5-72ae-444f-9358-a676d369a477","ios":"levelo://app?vid=46e40aa5-72ae-444f-9358-a676d369a477"},"vehicle_type_id":"4","last_reported":1743757860,"current_range_meters":12400,"station_id":"","pricing_plan_id":"cebpf4jnsgd1na2vs0mg"},{"bike_id":"aedc5b1f-732b-487a-b512-4b2f211caf36","system_id":"levelo_inurba_marseille","lat":43.26694,"lon":5.38274,"is_reserved":false,"is_disabled":true,"rental_uris":{"android":"levelo://app?vid=aedc5b1f-732b-487a-b512-4b2f211caf36","ios":"levelo://app?vid=aedc5b1f-732b-487a-b512-4b2f211caf36"},"vehicle_type_id":"4","last_reported":1743757860,"current_range_meters":12400,"station_id":"ce4bhg92rcd13ifvqf90","pricing_plan_id":"cebpf4jnsgd1na2vs0mg"},{"bike_id":"2df3b5e0-fa04-4284-bdcb-e49276cc5fb3","system_id":"levelo_inurba_marseille","lat":43.25012,"lon":5.38938,"is_reserved":false,"is_disabled":false,"rental_uris":{"android":"levelo://app?vid=2df3b5e0-fa04-4284-bdcb-e49276cc5fb3","ios":"levelo://app?vid=2df3b5e0-fa04-4284-bdcb-e49276cc5fb3"},"vehicle_type_id":"4","last_reported":1743757860,"current_range_meters":12400,"station_id":"ce4bhgp2rcd13ifvqfd0","pricing_plan_id":"cebpf4jnsgd1na2vs0mg"},{"bike_id":"c6f4d592-cd67-4536-ac34-585a4a6a050a","system_id":"levelo_inurba_marseille","lat":43.27506,"lon":5.42461,"is_reserved":false,"is_disabled":false,"rental_uris":{"android":"levelo://app?vid=c6f4d592-cd67-4536-ac34-585a4a6a050a","ios":"levelo://app?vid=c6f4d592-cd67-4536-ac34-585a4a6a050a"},"vehicle_type_id":"4","last_reported":1743757860,"current_range_meters":12400,"station_id":"ce4bhn92rcd13ifvqgrg","pricing_plan_id":"cebpf4jnsgd1na2vs0mg"},{"bike_id":"2a877350-b835-4223-9491-4ace09844217","system_id":"levelo_inurba_marseille","lat":43.23113,"lon":5.43698,"is_reserved":false,"is_disabled":false,"rental_uris":{"android":"levelo://app?vid=2a877350-b835-4223-9491-4ace09844217","ios":"levelo://app?vid=2a877350-b835-4223-9491-4ace09844217"},"vehicle_type_id":"4","last_reported":1743757860,"current_range_meters":12400,"station_id":"ce4bhmp2rcd13ifvqgog","pricing_plan_id":"cebpf4jnsgd1na2vs0mg"},{"bike_id":"fe021999-f491-4e4e-ba59-10f5fa9f56ca","system_id":"levelo_inurba_marseille","lat":43.27664,"lon":5.38917,"is_reserved":false,"is_disabled":true,"rental_uris":{"android":"levelo://app?vid=fe021999-f491-4e4e-ba59-10f5fa9f56ca","ios":"levelo://app?vid=fe021999-f491-4e4e-ba59-10f5fa9f56ca"},"vehicle_type_id":"4","last_reported":1743757860,"current_range_meters":12400,"station_id":"ce4bhi12rcd13ifvqfo0","pricing_plan_id":"cebpf4jnsgd1na2vs0mg"},{"bike_id":"9575620c-f10b-46e1-909b-8878ce6dd241","system_id":"levelo_inurba_marseille","lat":43.26936,"lon":5.40261,"is_reserved":false,"is_disabled":false,"rental_uris":{"android":"levelo://app?vid=9575620c-f10b-46e1-909b-8878ce6dd241","ios":"levelo://app?vid=9575620c-f10b-46e1-909b-8878ce6dd241"},"vehicle_type_id":"4","last_reported":1743757860,"current_range_meters":12400,"station_id":"cjm6bp8fraef2m0cb0m0","pricing_plan_id":"cebpf4jnsgd1na2vs0mg"},{"bike_id":"66a078d0-f110-4e76-b508-93197b7850b1","system_id":"levelo_inurba_marseille","lat":43.23152,"lon":5.43706,"is_reserved":false,"is_disabled":false,"rental_uris":{"android":"levelo://app?vid=66a078d0-f110-4e76-b508-93197b7850b1","ios":"levelo://app?vid=66a078d0-f110-4e76-b508-93197b7850b1"},"vehicle_type_id":"4","last_reported":1743757860,"current_range_meters":12400,"station_id":"ce4bhmp2rcd13ifvqgog","pricing_plan_id":"cebpf4jnsgd1na2vs0mg"},{"bike_id":"3dcff572-b321-4388-bbf2-ae8edfcc3a0e","system_id":"levelo_inurba_marseille","lat":43.255042,"lon":5.376589,"is_reserved":false,"is_disabled":false,"rental_uris":{"android":"levelo://app?vid=3dcff572-b321-4388-bbf2-ae8edfcc3a0e","ios":"levelo://app?vid=3dcff572-b321-4388-bbf2-ae8edfcc3a0e"},"vehicle_type_id":"4","last_reported":1743757860,"current_range_meters":12400,"station_id":"ce4bhh12rcd13ifvqff0","pricing_plan_id":"cebpf4jnsgd1na2vs0mg"},{"bike_id":"649cceb3-fb83-43b1-9c52-b8b2f5db690d","system_id":"levelo_inurba_marseille","lat":43.28267,"lon":5.35078,"is_reserved":false,"is_disabled":false,"rental_uris":{"android":"levelo://app?vid=649cceb3-fb83-43b1-9c52-b8b2f5db690d","ios":"levelo://app?vid=649cceb3-fb83-43b1-9c52-b8b2f5db690d"},"vehicle_type_id":"4","last_reported":1743757860,"current_range_meters":12800,"station_id":"ce4bhbp2rcd13ifvqerg","pricing_plan_id":"cebpf4jnsgd1na2vs0mg"},{"bike_id":"cb02cba4-8859-4243-b700-40407cf9d104","system_id":"levelo_inurba_marseille","lat":43.29268,"lon":5.36845,"is_reserved":false,"is_disabled":false,"rental_uris":{"android":"levelo://app?vid=cb02cba4-8859-4243-b700-40407cf9d104","ios":"levelo://app?vid=cb02cba4-8859-4243-b700-40407cf9d104"},"vehicle_type_id":"4","last_reported":1743757860,"current_range_meters":12800,"station_id":"ce4bhbp2rcd13ifvqesg","pricing_plan_id":"cebpf4jnsgd1na2vs0mg"},{"bike_id":"c9ab5bfd-fa91-4b45-8fa2-52813c43fa45","system_id":"levelo_inurba_marseille","lat":43.2305,"lon":5.35472,"is_reserved":false,"is_disabled":false,"rental_uris":{"android":"levelo://app?vid=c9ab5bfd-fa91-4b45-8fa2-52813c43fa45","ios":"levelo://app?vid=c9ab5bfd-fa91-4b45-8fa2-52813c43fa45"},"vehicle_type_id":"4","last_reported":1743757860,"current_range_meters":12800,"station_id":"cpo3342slgdg3j2ifvpg","pricing_plan_id":"cebpf4jnsgd1na2vs0mg"},{"bike_id":"8336c2e5-6021-4a8f-8e32-78361134cd8d","system_id":"levelo_inurba_marseille","lat":43.26695,"lon":5.38275,"is_reserved":false,"is_disabled":false,"rental_uris":{"android":"levelo://app?vid=8336c2e5-6021-4a8f-8e32-78361134cd8d","ios":"levelo://app?vid=8336c2e5-6021-4a8f-8e32-78361134cd8d"},"vehicle_type_id":"4","last_reported":1743757860,"current_range_meters":12800,"station_id":"ce4bhg92rcd13ifvqf90","pricing_plan_id":"cebpf4jnsgd1na2vs0mg"},{"bike_id":"4d509cfe-9541-4805-8bd0-3e2eabcf98c4","system_id":"levelo_inurba_marseille","lat":43.29417,"lon":5.3863,"is_reserved":false,"is_disabled":false,"rental_uris":{"android":"levelo://app?vid=4d509cfe-9541-4805-8bd0-3e2eabcf98c4","ios":"levelo://app?vid=4d509cfe-9541-4805-8bd0-3e2eabcf98c4"},"vehicle_type_id":"4","last_reported":1743757860,"current_range_meters":12800,"station_id":"ce4bh2h2rcd13ifvqdh0","pricing_plan_id":"cebpf4jnsgd1na2vs0mg"},{"bike_id":"a5767c78-124d-4df5-9a34-444b742cb735","system_id":"levelo_inurba_marseille","lat":43.241836,"lon":5.39723,"is_reserved":false,"is_disabled":false,"rental_uris":{"android":"levelo://app?vid=a5767c78-124d-4df5-9a34-444b742cb735","ios":"levelo://app?vid=a5767c78-124d-4df5-9a34-444b742cb735"},"vehicle_type_id":"4","last_reported":1743757860,"current_range_meters":12800,"station_id":"ce4bhn12rcd13ifvqgpg","pricing_plan_id":"cebpf4jnsgd1na2vs0mg"},{"bike_id":"d5eb734a-0dad-45cb-9066-59b24053bcd7","system_id":"levelo_inurba_marseille","lat":43.23192,"lon":5.39982,"is_reserved":false,"is_disabled":false,"rental_uris":{"android":"levelo://app?vid=d5eb734a-0dad-45cb-9066-59b24053bcd7","ios":"levelo://app?vid=d5eb734a-0dad-45cb-9066-59b24053bcd7"},"vehicle_type_id":"4","last_reported":1743757860,"current_range_meters":12800,"station_id":"ce4bhn12rcd13ifvqgqg","pricing_plan_id":"cebpf4jnsgd1na2vs0mg"},{"bike_id":"7afa6d4d-386e-4919-8274-859a595b4373","system_id":"levelo_inurba_marseille","lat":43.33602,"lon":5.40998,"is_reserved":false,"is_disabled":false,"rental_uris":{"android":"levelo://app?vid=7afa6d4d-386e-4919-8274-859a595b4373","ios":"levelo://app?vid=7afa6d4d-386e-4919-8274-859a595b4373"},"vehicle_type_id":"4","last_reported":1743757860,"current_range_meters":13600,"station_id":"ce4bhqh2rcd13ifvqhmg","pricing_plan_id":"cebpf4jnsgd1na2vs0mg"},{"bike_id":"f40fc4e8-cfdd-40aa-8507-3bd8857476a8","system_id":"levelo_inurba_marseille","lat":43.3024,"lon":5.40048,"is_reserved":false,"is_disabled":true,"rental_uris":{"android":"levelo://app?vid=f40fc4e8-cfdd-40aa-8507-3bd8857476a8","ios":"levelo://app?vid=f40fc4e8-cfdd-40aa-8507-3bd8857476a8"},"vehicle_type_id":"4","last_reported":1743757860,"current_range_meters":13600,"station_id":"ce4bgvh2rcd13ifvqcs0","pricing_plan_id":"cebpf4jnsgd1na2vs0mg"},{"bike_id":"538954b0-bc54-45c5-9cef-16a29fd18cc8","system_id":"levelo_inurba_marseille","lat":43.25944,"lon":5.40898,"is_reserved":false,"is_disabled":false,"rental_uris":{"android":"levelo://app?vid=538954b0-bc54-45c5-9cef-16a29fd18cc8","ios":"levelo://app?vid=538954b0-bc54-45c5-9cef-16a29fd18cc8"},"vehicle_type_id":"4","last_reported":1743757860,"current_range_meters":13600,"station_id":"ce4bhm92rcd13ifvqglg","pricing_plan_id":"cebpf4jnsgd1na2vs0mg"},{"bike_id":"64fdbb2b-e20c-450b-87b0-deaa705d4ef0","system_id":"levelo_inurba_marseille","lat":43.31387,"lon":5.36741,"is_reserved":false,"is_disabled":false,"rental_uris":{"android":"levelo://app?vid=64fdbb2b-e20c-450b-87b0-deaa705d4ef0","ios":"levelo://app?vid=64fdbb2b-e20c-450b-87b0-deaa705d4ef0"},"vehicle_type_id":"4","last_reported":1743757860,"current_range_meters":13600,"station_id":"","pricing_plan_id":"cebpf4jnsgd1na2vs0mg"},{"bike_id":"df2b21a7-d23b-4e81-8ba8-409cb58860a7","system_id":"levelo_inurba_marseille","lat":43.27946,"lon":5.41041,"is_reserved":false,"is_disabled":false,"rental_uris":{"android":"levelo://app?vid=df2b21a7-d23b-4e81-8ba8-409cb58860a7","ios":"levelo://app?vid=df2b21a7-d23b-4e81-8ba8-409cb58860a7"},"vehicle_type_id":"4","last_reported":1743757860,"current_range_meters":13600,"station_id":"ce4bhnp2rcd13ifvqh0g","pricing_plan_id":"cebpf4jnsgd1na2vs0mg"},{"bike_id":"7518bbf0-5e0c-4693-9826-ecfe0f23e6c5","system_id":"levelo_inurba_marseille","lat":43.30184,"lon":5.3738,"is_reserved":false,"is_disabled":false,"rental_uris":{"android":"levelo://app?vid=7518bbf0-5e0c-4693-9826-ecfe0f23e6c5","ios":"levelo://app?vid=7518bbf0-5e0c-4693-9826-ecfe0f23e6c5"},"vehicle_type_id":"4","last_reported":1743757860,"current_range_meters":14000,"station_id":"","pricing_plan_id":"cebpf4jnsgd1na2vs0mg"},{"bike_id":"a2c79be4-a0ce-4d3e-bee1-4b6c2c046382","system_id":"levelo_inurba_marseille","lat":43.28355,"lon":5.38096,"is_reserved":false,"is_disabled":false,"rental_uris":{"android":"levelo://app?vid=a2c79be4-a0ce-4d3e-bee1-4b6c2c046382","ios":"levelo://app?vid=a2c79be4-a0ce-4d3e-bee1-4b6c2c046382"},"vehicle_type_id":"4","last_reported":1743757860,"current_range_meters":14000,"station_id":"ce4bh412rcd13ifvqdr0","pricing_plan_id":"cebpf4jnsgd1na2vs0mg"},{"bike_id":"38371386-3cbc-47ee-a0d8-78b080ed16d0","system_id":"levelo_inurba_marseille","lat":43.27315,"lon":5.39067,"is_reserved":false,"is_disabled":false,"rental_uris":{"android":"levelo://app?vid=38371386-3cbc-47ee-a0d8-78b080ed16d0","ios":"levelo://app?vid=38371386-3cbc-47ee-a0d8-78b080ed16d0"},"vehicle_type_id":"4","last_reported":1743757860,"current_range_meters":14000,"station_id":"ce4bhgp2rcd13ifvqfe0","pricing_plan_id":"cebpf4jnsgd1na2vs0mg"},{"bike_id":"630dcca0-042d-4a2d-82d5-e3b2350029d7","system_id":"levelo_inurba_marseille","lat":43.29099,"lon":5.38103,"is_reserved":false,"is_disabled":false,"rental_uris":{"android":"levelo://app?vid=630dcca0-042d-4a2d-82d5-e3b2350029d7","ios":"levelo://app?vid=630dcca0-042d-4a2d-82d5-e3b2350029d7"},"vehicle_type_id":"4","last_reported":1743757860,"current_range_meters":14000,"station_id":"ce4bh512rcd13ifvqe2g","pricing_plan_id":"cebpf4jnsgd1na2vs0mg"},{"bike_id":"ccbaad60-ee1e-4837-a1f8-1af8e79dfa40","system_id":"levelo_inurba_marseille","lat":43.306,"lon":5.39365,"is_reserved":false,"is_disabled":true,"rental_uris":{"android":"levelo://app?vid=ccbaad60-ee1e-4837-a1f8-1af8e79dfa40","ios":"levelo://app?vid=ccbaad60-ee1e-4837-a1f8-1af8e79dfa40"},"vehicle_type_id":"4","last_reported":1743757860,"current_range_meters":14000,"station_id":"ce4bh0p2rcd13ifvqd80","pricing_plan_id":"cebpf4jnsgd1na2vs0mg"},{"bike_id":"05d00f93-8e3a-4dda-843a-8c55f4e7abcc","system_id":"levelo_inurba_marseille","lat":43.31359,"lon":5.36697,"is_reserved":false,"is_disabled":false,"rental_uris":{"android":"levelo://app?vid=05d00f93-8e3a-4dda-843a-8c55f4e7abcc","ios":"levelo://app?vid=05d00f93-8e3a-4dda-843a-8c55f4e7abcc"},"vehicle_type_id":"4","last_reported":1743757860,"current_range_meters":14000,"station_id":"ce4bgr92rcd13ifvqc6g","pricing_plan_id":"cebpf4jnsgd1na2vs0mg"},{"bike_id":"983ea277-bb42-4be6-9ee6-86e1ff75b31f","system_id":"levelo_inurba_marseille","lat":43.29952,"lon":5.37478,"is_reserved":false,"is_disabled":false,"rental_uris":{"android":"levelo://app?vid=983ea277-bb42-4be6-9ee6-86e1ff75b31f","ios":"levelo://app?vid=983ea277-bb42-4be6-9ee6-86e1ff75b31f"},"vehicle_type_id":"4","last_reported":1743757860,"current_range_meters":14000,"station_id":"ce4bgjh2rcd13ifvqbg0","pricing_plan_id":"cebpf4jnsgd1na2vs0mg"},{"bike_id":"f2c7295c-edaa-4723-b578-50b4f377b10a","system_id":"levelo_inurba_marseille","lat":43.33606,"lon":5.40999,"is_reserved":false,"is_disabled":false,"rental_uris":{"android":"levelo://app?vid=f2c7295c-edaa-4723-b578-50b4f377b10a","ios":"levelo://app?vid=f2c7295c-edaa-4723-b578-50b4f377b10a"},"vehicle_type_id":"4","last_reported":1743757860,"current_range_meters":14400,"station_id":"ce4bhqh2rcd13ifvqhmg","pricing_plan_id":"cebpf4jnsgd1na2vs0mg"},{"bike_id":"3b4ad8c6-6244-4378-90d7-dac703d1508d","system_id":"levelo_inurba_marseille","lat":43.23192,"lon":5.35561,"is_reserved":false,"is_disabled":false,"rental_uris":{"android":"levelo://app?vid=3b4ad8c6-6244-4378-90d7-dac703d1508d","ios":"levelo://app?vid=3b4ad8c6-6244-4378-90d7-dac703d1508d"},"vehicle_type_id":"4","last_reported":1743757860,"current_range_meters":14400,"station_id":"ce4bhu92rcd13ifvqi70","pricing_plan_id":"cebpf4jnsgd1na2vs0mg"},{"bike_id":"a6303451-5b45-435c-bf0e-748f94cc010d","system_id":"levelo_inurba_marseille","lat":43.23207,"lon":5.35565,"is_reserved":false,"is_disabled":false,"rental_uris":{"android":"levelo://app?vid=a6303451-5b45-435c-bf0e-748f94cc010d","ios":"levelo://app?vid=a6303451-5b45-435c-bf0e-748f94cc010d"},"vehicle_type_id":"4","last_reported":1743757860,"current_range_meters":14400,"station_id":"ce4bhu92rcd13ifvqi70","pricing_plan_id":"cebpf4jnsgd1na2vs0mg"},{"bike_id":"978f00e3-47d2-481d-80c8-31e1e7283ad6","system_id":"levelo_inurba_marseille","lat":43.2292,"lon":5.35376,"is_reserved":false,"is_disabled":false,"rental_uris":{"android":"levelo://app?vid=978f00e3-47d2-481d-80c8-31e1e7283ad6","ios":"levelo://app?vid=978f00e3-47d2-481d-80c8-31e1e7283ad6"},"vehicle_type_id":"4","last_reported":1743757860,"current_range_meters":14400,"station_id":"cpo3532slgdg3j2ikp40","pricing_plan_id":"cebpf4jnsgd1na2vs0mg"},{"bike_id":"c2055a2a-1cff-4f19-a52d-9b52baeaa63f","system_id":"levelo_inurba_marseille","lat":43.31994,"lon":5.38146,"is_reserved":false,"is_disabled":true,"rental_uris":{"android":"levelo://app?vid=c2055a2a-1cff-4f19-a52d-9b52baeaa63f","ios":"levelo://app?vid=c2055a2a-1cff-4f19-a52d-9b52baeaa63f"},"vehicle_type_id":"4","last_reported":1743757860,"current_range_meters":14400,"station_id":"ce4bhr12rcd13ifvqhpg","pricing_plan_id":"cebpf4jnsgd1na2vs0mg"},{"bike_id":"604985d4-92ce-478f-aa52-92760a12c1e2","system_id":"levelo_inurba_marseille","lat":43.26823,"lon":5.39384,"is_reserved":false,"is_disabled":false,"rental_uris":{"android":"levelo://app?vid=604985d4-92ce-478f-aa52-92760a12c1e2","ios":"levelo://app?vid=604985d4-92ce-478f-aa52-92760a12c1e2"},"vehicle_type_id":"4","last_reported":1743757860,"current_range_meters":14400,"station_id":"ce4bhh12rcd13ifvqfg0","pricing_plan_id":"cebpf4jnsgd1na2vs0mg"},{"bike_id":"656aca35-99dc-4820-a421-fb97048e94da","system_id":"levelo_inurba_marseille","lat":43.31348,"lon":5.38488,"is_reserved":false,"is_disabled":false,"rental_uris":{"android":"levelo://app?vid=656aca35-99dc-4820-a421-fb97048e94da","ios":"levelo://app?vid=656aca35-99dc-4820-a421-fb97048e94da"},"vehicle_type_id":"4","last_reported":1743757860,"current_range_meters":14800,"station_id":"ce4bgt92rcd13ifvqcf0","pricing_plan_id":"cebpf4jnsgd1na2vs0mg"},{"bike_id":"27ebc7eb-5de4-43f0-933c-44535f627bc9","system_id":"levelo_inurba_marseille","lat":43.25384,"lon":5.41859,"is_reserved":false,"is_disabled":false,"rental_uris":{"android":"levelo://app?vid=27ebc7eb-5de4-43f0-933c-44535f627bc9","ios":"levelo://app?vid=27ebc7eb-5de4-43f0-933c-44535f627bc9"},"vehicle_type_id":"4","last_reported":1743757860,"current_range_meters":14800,"station_id":"","pricing_plan_id":"cebpf4jnsgd1na2vs0mg"},{"bike_id":"0e971649-0408-4b65-a036-b992dd17429e","system_id":"levelo_inurba_marseille","lat":43.23201,"lon":5.3556,"is_reserved":false,"is_disabled":false,"rental_uris":{"android":"levelo://app?vid=0e971649-0408-4b65-a036-b992dd17429e","ios":"levelo://app?vid=0e971649-0408-4b65-a036-b992dd17429e"},"vehicle_type_id":"4","last_reported":1743757860,"current_range_meters":14800,"station_id":"ce4bhu92rcd13ifvqi70","pricing_plan_id":"cebpf4jnsgd1na2vs0mg"},{"bike_id":"0eb30f16-826e-404e-9494-cbd59d704ab7","system_id":"levelo_inurba_marseille","lat":43.29011,"lon":5.38639,"is_reserved":false,"is_disabled":true,"rental_uris":{"android":"levelo://app?vid=0eb30f16-826e-404e-9494-cbd59d704ab7","ios":"levelo://app?vid=0eb30f16-826e-404e-9494-cbd59d704ab7"},"vehicle_type_id":"4","last_reported":1743757860,"current_range_meters":14800,"station_id":"ce4bh4p2rcd13ifvqe0g","pricing_plan_id":"cebpf4jnsgd1na2vs0mg"},{"bike_id":"d1d13155-8627-4226-a423-2fd2dca5c5f7","system_id":"levelo_inurba_marseille","lat":43.26052,"lon":5.39393,"is_reserved":false,"is_disabled":false,"rental_uris":{"android":"levelo://app?vid=d1d13155-8627-4226-a423-2fd2dca5c5f7","ios":"levelo://app?vid=d1d13155-8627-4226-a423-2fd2dca5c5f7"},"vehicle_type_id":"4","last_reported":1743757860,"current_range_meters":15200,"station_id":"ce4bhh92rcd13ifvqfj0","pricing_plan_id":"cebpf4jnsgd1na2vs0mg"},{"bike_id":"71db68e7-72b2-4d03-b75c-7dcf0093df31","system_id":"levelo_inurba_marseille","lat":43.28615,"lon":5.35104,"is_reserved":false,"is_disabled":false,"rental_uris":{"android":"levelo://app?vid=71db68e7-72b2-4d03-b75c-7dcf0093df31","ios":"levelo://app?vid=71db68e7-72b2-4d03-b75c-7dcf0093df31"},"vehicle_type_id":"4","last_reported":1743757860,"current_range_meters":15200,"station_id":"ce4bhch2rcd13ifvqeug","pricing_plan_id":"cebpf4jnsgd1na2vs0mg"},{"bike_id":"515a3a99-0044-46be-bb14-af93fc4752e9","system_id":"levelo_inurba_marseille","lat":43.29018,"lon":5.3812,"is_reserved":false,"is_disabled":false,"rental_uris":{"android":"levelo://app?vid=515a3a99-0044-46be-bb14-af93fc4752e9","ios":"levelo://app?vid=515a3a99-0044-46be-bb14-af93fc4752e9"},"vehicle_type_id":"4","last_reported":1743757860,"current_range_meters":14800,"station_id":"ce4bh4p2rcd13ifvqe1g","pricing_plan_id":"cebpf4jnsgd1na2vs0mg"},{"bike_id":"3322a63f-fa47-4e25-9e63-917a1533ff72","system_id":"levelo_inurba_marseille","lat":43.27936,"lon":5.41043,"is_reserved":false,"is_disabled":false,"rental_uris":{"android":"levelo://app?vid=3322a63f-fa47-4e25-9e63-917a1533ff72","ios":"levelo://app?vid=3322a63f-fa47-4e25-9e63-917a1533ff72"},"vehicle_type_id":"4","last_reported":1743757860,"current_range_meters":15200,"station_id":"ce4bhnp2rcd13ifvqh0g","pricing_plan_id":"cebpf4jnsgd1na2vs0mg"},{"bike_id":"0182140a-2247-43c8-9f4c-a243aeffefba","system_id":"levelo_inurba_marseille","lat":43.27488,"lon":5.42458,"is_reserved":false,"is_disabled":false,"rental_uris":{"android":"levelo://app?vid=0182140a-2247-43c8-9f4c-a243aeffefba","ios":"levelo://app?vid=0182140a-2247-43c8-9f4c-a243aeffefba"},"vehicle_type_id":"4","last_reported":1743757860,"current_range_meters":15200,"station_id":"ce4bhn92rcd13ifvqgrg","pricing_plan_id":"cebpf4jnsgd1na2vs0mg"},{"bike_id":"3b8b7064-cf02-4422-b691-d49e705fd2db","system_id":"levelo_inurba_marseille","lat":43.25576,"lon":5.38245,"is_reserved":false,"is_disabled":false,"rental_uris":{"android":"levelo://app?vid=3b8b7064-cf02-4422-b691-d49e705fd2db","ios":"levelo://app?vid=3b8b7064-cf02-4422-b691-d49e705fd2db"},"vehicle_type_id":"4","last_reported":1743757860,"current_range_meters":15200,"station_id":"ce4bhih2rcd13ifvqfs0","pricing_plan_id":"cebpf4jnsgd1na2vs0mg"},{"bike_id":"92a11702-751b-40ad-94af-943ae47fc73a","system_id":"levelo_inurba_marseille","lat":43.28931,"lon":5.36634,"is_reserved":false,"is_disabled":false,"rental_uris":{"android":"levelo://app?vid=92a11702-751b-40ad-94af-943ae47fc73a","ios":"levelo://app?vid=92a11702-751b-40ad-94af-943ae47fc73a"},"vehicle_type_id":"4","last_reported":1743757860,"current_range_meters":15200,"station_id":"ce4bhap2rcd13ifvqek0","pricing_plan_id":"cebpf4jnsgd1na2vs0mg"},{"bike_id":"cccce150-77a7-4565-8ca1-36858ce9e6b0","system_id":"levelo_inurba_marseille","lat":43.32116,"lon":5.36791,"is_reserved":false,"is_disabled":false,"rental_uris":{"android":"levelo://app?vid=cccce150-77a7-4565-8ca1-36858ce9e6b0","ios":"levelo://app?vid=cccce150-77a7-4565-8ca1-36858ce9e6b0"},"vehicle_type_id":"4","last_reported":1743757860,"current_range_meters":15200,"station_id":"ce4bhrh2rcd13ifvqhug","pricing_plan_id":"cebpf4jnsgd1na2vs0mg"},{"bike_id":"1d5ef6d0-a413-45b3-8100-7222d11689f2","system_id":"levelo_inurba_marseille","lat":43.289203,"lon":5.38403,"is_reserved":false,"is_disabled":true,"rental_uris":{"android":"levelo://app?vid=1d5ef6d0-a413-45b3-8100-7222d11689f2","ios":"levelo://app?vid=1d5ef6d0-a413-45b3-8100-7222d11689f2"},"vehicle_type_id":"4","last_reported":1743757860,"current_range_meters":15200,"station_id":"ce4bh612rcd13ifvqe6g","pricing_plan_id":"cebpf4jnsgd1na2vs0mg"},{"bike_id":"eb79d1f9-7c91-4ea2-b5f8-796189743e1a","system_id":"levelo_inurba_marseille","lat":43.3373,"lon":5.391836,"is_reserved":false,"is_disabled":false,"rental_uris":{"android":"levelo://app?vid=eb79d1f9-7c91-4ea2-b5f8-796189743e1a","ios":"levelo://app?vid=eb79d1f9-7c91-4ea2-b5f8-796189743e1a"},"vehicle_type_id":"4","last_reported":1743757860,"current_range_meters":16000,"station_id":"ce4bhr92rcd13ifvqhsg","pricing_plan_id":"cebpf4jnsgd1na2vs0mg"},{"bike_id":"839fd345-8576-4b62-868a-d18d9259e15e","system_id":"levelo_inurba_marseille","lat":43.29709,"lon":5.37696,"is_reserved":false,"is_disabled":false,"rental_uris":{"android":"levelo://app?vid=839fd345-8576-4b62-868a-d18d9259e15e","ios":"levelo://app?vid=839fd345-8576-4b62-868a-d18d9259e15e"},"vehicle_type_id":"4","last_reported":1743757860,"current_range_meters":16000,"station_id":"ce4bgkh2rcd13ifvqbl0","pricing_plan_id":"cebpf4jnsgd1na2vs0mg"},{"bike_id":"35354df1-58d1-4693-a885-3624bc1a5277","system_id":"levelo_inurba_marseille","lat":43.30203,"lon":5.3663,"is_reserved":false,"is_disabled":false,"rental_uris":{"android":"levelo://app?vid=35354df1-58d1-4693-a885-3624bc1a5277","ios":"levelo://app?vid=35354df1-58d1-4693-a885-3624bc1a5277"},"vehicle_type_id":"4","last_reported":1743757860,"current_range_meters":16000,"station_id":"ce4bgrh2rcd13ifvqc8g","pricing_plan_id":"cebpf4jnsgd1na2vs0mg"},{"bike_id":"d3042e38-9f67-4da3-b699-bad26e65c5b0","system_id":"levelo_inurba_marseille","lat":43.265503,"lon":5.372902,"is_reserved":false,"is_disabled":true,"rental_uris":{"android":"levelo://app?vid=d3042e38-9f67-4da3-b699-bad26e65c5b0","ios":"levelo://app?vid=d3042e38-9f67-4da3-b699-bad26e65c5b0"},"vehicle_type_id":"4","last_reported":1743757860,"current_range_meters":16000,"station_id":"ce4bhg12rcd13ifvqf70","pricing_plan_id":"cebpf4jnsgd1na2vs0mg"},{"bike_id":"6758c403-5c67-4760-adef-8839b05994b2","system_id":"levelo_inurba_marseille","lat":43.30461,"lon":5.37903,"is_reserved":false,"is_disabled":false,"rental_uris":{"android":"levelo://app?vid=6758c403-5c67-4760-adef-8839b05994b2","ios":"levelo://app?vid=6758c403-5c67-4760-adef-8839b05994b2"},"vehicle_type_id":"4","last_reported":1743757860,"current_range_meters":16000,"station_id":"ce4bgup2rcd13ifvqcn0","pricing_plan_id":"cebpf4jnsgd1na2vs0mg"},{"bike_id":"c0b6e6ac-ed70-43f7-b18c-bce8f2821649","system_id":"levelo_inurba_marseille","lat":43.29606,"lon":5.37728,"is_reserved":false,"is_disabled":false,"rental_uris":{"android":"levelo://app?vid=c0b6e6ac-ed70-43f7-b18c-bce8f2821649","ios":"levelo://app?vid=c0b6e6ac-ed70-43f7-b18c-bce8f2821649"},"vehicle_type_id":"4","last_reported":1743757860,"current_range_meters":16000,"station_id":"ce4bgi92rcd13ifvqb90","pricing_plan_id":"cebpf4jnsgd1na2vs0mg"},{"bike_id":"48ec1fe3-fdf4-49a5-977a-526829b4e2e3","system_id":"levelo_inurba_marseille","lat":43.23054,"lon":5.35492,"is_reserved":false,"is_disabled":false,"rental_uris":{"android":"levelo://app?vid=48ec1fe3-fdf4-49a5-977a-526829b4e2e3","ios":"levelo://app?vid=48ec1fe3-fdf4-49a5-977a-526829b4e2e3"},"vehicle_type_id":"4","last_reported":1743757860,"current_range_meters":16000,"station_id":"cpo3342slgdg3j2ifvpg","pricing_plan_id":"cebpf4jnsgd1na2vs0mg"},{"bike_id":"188e01b9-65db-4a5b-b580-c3a2d1a3e000","system_id":"levelo_inurba_marseille","lat":43.28734,"lon":5.37108,"is_reserved":false,"is_disabled":false,"rental_uris":{"android":"levelo://app?vid=188e01b9-65db-4a5b-b580-c3a2d1a3e000","ios":"levelo://app?vid=188e01b9-65db-4a5b-b580-c3a2d1a3e000"},"vehicle_type_id":"4","last_reported":1743757860,"current_range_meters":16000,"station_id":"","pricing_plan_id":"cebpf4jnsgd1na2vs0mg"},{"bike_id":"6997e810-3f4c-46f4-a539-996e89fe73bb","system_id":"levelo_inurba_marseille","lat":43.28149,"lon":5.42619,"is_reserved":false,"is_disabled":false,"rental_uris":{"android":"levelo://app?vid=6997e810-3f4c-46f4-a539-996e89fe73bb","ios":"levelo://app?vid=6997e810-3f4c-46f4-a539-996e89fe73bb"},"vehicle_type_id":"4","last_reported":1743757860,"current_range_meters":16000,"station_id":"ce4bhnh2rcd13ifvqgug","pricing_plan_id":"cebpf4jnsgd1na2vs0mg"},{"bike_id":"ca8e2c30-70c1-4ec5-a309-c1cfa0470107","system_id":"levelo_inurba_marseille","lat":43.30144,"lon":5.37409,"is_reserved":false,"is_disabled":false,"rental_uris":{"android":"levelo://app?vid=ca8e2c30-70c1-4ec5-a309-c1cfa0470107","ios":"levelo://app?vid=ca8e2c30-70c1-4ec5-a309-c1cfa0470107"},"vehicle_type_id":"4","last_reported":1743757860,"current_range_meters":16000,"station_id":"ce4bgs92rcd13ifvqcc0","pricing_plan_id":"cebpf4jnsgd1na2vs0mg"},{"bike_id":"3cd93d1f-595a-4ee4-b64d-5aeb9061d218","system_id":"levelo_inurba_marseille","lat":43.24069,"lon":5.37749,"is_reserved":false,"is_disabled":false,"rental_uris":{"android":"levelo://app?vid=3cd93d1f-595a-4ee4-b64d-5aeb9061d218","ios":"levelo://app?vid=3cd93d1f-595a-4ee4-b64d-5aeb9061d218"},"vehicle_type_id":"4","last_reported":1743757860,"current_range_meters":16000,"station_id":"ce4bhnp2rcd13ifvqgvg","pricing_plan_id":"cebpf4jnsgd1na2vs0mg"},{"bike_id":"db0d0a1a-ca84-4fa3-aeb1-8799749b05d0","system_id":"levelo_inurba_marseille","lat":43.23154,"lon":5.43709,"is_reserved":false,"is_disabled":false,"rental_uris":{"android":"levelo://app?vid=db0d0a1a-ca84-4fa3-aeb1-8799749b05d0","ios":"levelo://app?vid=db0d0a1a-ca84-4fa3-aeb1-8799749b05d0"},"vehicle_type_id":"4","last_reported":1743757860,"current_range_meters":16000,"station_id":"ce4bhmp2rcd13ifvqgog","pricing_plan_id":"cebpf4jnsgd1na2vs0mg"},{"bike_id":"6d9715e6-045f-417b-844a-144b6e5c1132","system_id":"levelo_inurba_marseille","lat":43.29184,"lon":5.35722,"is_reserved":false,"is_disabled":false,"rental_uris":{"android":"levelo://app?vid=6d9715e6-045f-417b-844a-144b6e5c1132","ios":"levelo://app?vid=6d9715e6-045f-417b-844a-144b6e5c1132"},"vehicle_type_id":"4","last_reported":1743757860,"current_range_meters":16000,"station_id":"","pricing_plan_id":"cebpf4jnsgd1na2vs0mg"},{"bike_id":"19b80c7f-db25-40c8-945f-67fe43b6cc5f","system_id":"levelo_inurba_marseille","lat":43.30538,"lon":5.36531,"is_reserved":false,"is_disabled":false,"rental_uris":{"android":"levelo://app?vid=19b80c7f-db25-40c8-945f-67fe43b6cc5f","ios":"levelo://app?vid=19b80c7f-db25-40c8-945f-67fe43b6cc5f"},"vehicle_type_id":"4","last_reported":1743757860,"current_range_meters":16400,"station_id":"ce4bgs12rcd13ifvqcag","pricing_plan_id":"cebpf4jnsgd1na2vs0mg"},{"bike_id":"d72ae546-019d-42c4-ab8a-aa9b8ed4f063","system_id":"levelo_inurba_marseille","lat":43.30458,"lon":5.37894,"is_reserved":false,"is_disabled":false,"rental_uris":{"android":"levelo://app?vid=d72ae546-019d-42c4-ab8a-aa9b8ed4f063","ios":"levelo://app?vid=d72ae546-019d-42c4-ab8a-aa9b8ed4f063"},"vehicle_type_id":"4","last_reported":1743757860,"current_range_meters":16400,"station_id":"ce4bgup2rcd13ifvqcn0","pricing_plan_id":"cebpf4jnsgd1na2vs0mg"},{"bike_id":"621051f1-7a47-4f84-b12e-af5b7be70385","system_id":"levelo_inurba_marseille","lat":43.21743,"lon":5.34601,"is_reserved":false,"is_disabled":false,"rental_uris":{"android":"levelo://app?vid=621051f1-7a47-4f84-b12e-af5b7be70385","ios":"levelo://app?vid=621051f1-7a47-4f84-b12e-af5b7be70385"},"vehicle_type_id":"4","last_reported":1743757860,"current_range_meters":16400,"station_id":"","pricing_plan_id":"cebpf4jnsgd1na2vs0mg"},{"bike_id":"d4b87664-1a5d-4007-a865-88a227083b4c","system_id":"levelo_inurba_marseille","lat":43.26808,"lon":5.39432,"is_reserved":false,"is_disabled":false,"rental_uris":{"android":"levelo://app?vid=d4b87664-1a5d-4007-a865-88a227083b4c","ios":"levelo://app?vid=d4b87664-1a5d-4007-a865-88a227083b4c"},"vehicle_type_id":"4","last_reported":1743757860,"current_range_meters":16400,"station_id":"ce4bhh12rcd13ifvqfg0","pricing_plan_id":"cebpf4jnsgd1na2vs0mg"},{"bike_id":"fa3e5d89-fa1e-4836-97d3-3e5628c401c7","system_id":"levelo_inurba_marseille","lat":43.28605,"lon":5.37055,"is_reserved":false,"is_disabled":false,"rental_uris":{"android":"levelo://app?vid=fa3e5d89-fa1e-4836-97d3-3e5628c401c7","ios":"levelo://app?vid=fa3e5d89-fa1e-4836-97d3-3e5628c401c7"},"vehicle_type_id":"4","last_reported":1743757860,"current_range_meters":16400,"station_id":"ce4bht12rcd13ifvqi60","pricing_plan_id":"cebpf4jnsgd1na2vs0mg"},{"bike_id":"4602486f-8ebc-44c7-b0c3-55584c3862b1","system_id":"levelo_inurba_marseille","lat":43.23144,"lon":5.4372,"is_reserved":false,"is_disabled":false,"rental_uris":{"android":"levelo://app?vid=4602486f-8ebc-44c7-b0c3-55584c3862b1","ios":"levelo://app?vid=4602486f-8ebc-44c7-b0c3-55584c3862b1"},"vehicle_type_id":"4","last_reported":1743757860,"current_range_meters":16400,"station_id":"ce4bhmp2rcd13ifvqgog","pricing_plan_id":"cebpf4jnsgd1na2vs0mg"},{"bike_id":"ab52ed22-b137-4a55-b178-90d1ecb67d9a","system_id":"levelo_inurba_marseille","lat":43.30527,"lon":5.37908,"is_reserved":false,"is_disabled":false,"rental_uris":{"android":"levelo://app?vid=ab52ed22-b137-4a55-b178-90d1ecb67d9a","ios":"levelo://app?vid=ab52ed22-b137-4a55-b178-90d1ecb67d9a"},"vehicle_type_id":"4","last_reported":1743757860,"current_range_meters":16400,"station_id":"","pricing_plan_id":"cebpf4jnsgd1na2vs0mg"},{"bike_id":"eaf859a6-ff3d-4281-be3e-7de787fa533a","system_id":"levelo_inurba_marseille","lat":43.30298,"lon":5.39186,"is_reserved":false,"is_disabled":true,"rental_uris":{"android":"levelo://app?vid=eaf859a6-ff3d-4281-be3e-7de787fa533a","ios":"levelo://app?vid=eaf859a6-ff3d-4281-be3e-7de787fa533a"},"vehicle_type_id":"4","last_reported":1743757860,"current_range_meters":16800,"station_id":"ce4bgkh2rcd13ifvqbk0","pricing_plan_id":"cebpf4jnsgd1na2vs0mg"},{"bike_id":"1b186f9a-9e2f-4e16-a605-a4299a436671","system_id":"levelo_inurba_marseille","lat":43.30466,"lon":5.37918,"is_reserved":false,"is_disabled":false,"rental_uris":{"android":"levelo://app?vid=1b186f9a-9e2f-4e16-a605-a4299a436671","ios":"levelo://app?vid=1b186f9a-9e2f-4e16-a605-a4299a436671"},"vehicle_type_id":"4","last_reported":1743757860,"current_range_meters":16800,"station_id":"ce4bgup2rcd13ifvqcn0","pricing_plan_id":"cebpf4jnsgd1na2vs0mg"},{"bike_id":"85ea2a9c-8124-4772-a144-afc738e57457","system_id":"levelo_inurba_marseille","lat":43.3046,"lon":5.37911,"is_reserved":false,"is_disabled":false,"rental_uris":{"android":"levelo://app?vid=85ea2a9c-8124-4772-a144-afc738e57457","ios":"levelo://app?vid=85ea2a9c-8124-4772-a144-afc738e57457"},"vehicle_type_id":"4","last_reported":1743757860,"current_range_meters":16800,"station_id":"ce4bgup2rcd13ifvqcn0","pricing_plan_id":"cebpf4jnsgd1na2vs0mg"},{"bike_id":"07b4649e-584c-4dc9-b70c-ca6ee85c358c","system_id":"levelo_inurba_marseille","lat":43.30557,"lon":5.36524,"is_reserved":false,"is_disabled":false,"rental_uris":{"android":"levelo://app?vid=07b4649e-584c-4dc9-b70c-ca6ee85c358c","ios":"levelo://app?vid=07b4649e-584c-4dc9-b70c-ca6ee85c358c"},"vehicle_type_id":"4","last_reported":1743757860,"current_range_meters":16800,"station_id":"ce4bgs12rcd13ifvqcag","pricing_plan_id":"cebpf4jnsgd1na2vs0mg"},{"bike_id":"bce27f57-0341-43e9-87fd-9109712e4bf4","system_id":"levelo_inurba_marseille","lat":43.28706,"lon":5.37925,"is_reserved":false,"is_disabled":false,"rental_uris":{"android":"levelo://app?vid=bce27f57-0341-43e9-87fd-9109712e4bf4","ios":"levelo://app?vid=bce27f57-0341-43e9-87fd-9109712e4bf4"},"vehicle_type_id":"4","last_reported":1743757860,"current_range_meters":16800,"station_id":"ce4bh9p2rcd13ifvqec0","pricing_plan_id":"cebpf4jnsgd1na2vs0mg"},{"bike_id":"3fc8e405-9d14-4761-9714-c7527a0bc1ea","system_id":"levelo_inurba_marseille","lat":43.30143,"lon":5.38067,"is_reserved":false,"is_disabled":false,"rental_uris":{"android":"levelo://app?vid=3fc8e405-9d14-4761-9714-c7527a0bc1ea","ios":"levelo://app?vid=3fc8e405-9d14-4761-9714-c7527a0bc1ea"},"vehicle_type_id":"4","last_reported":1743757860,"current_range_meters":16800,"station_id":"ce4bgjp2rcd13ifvqbh0","pricing_plan_id":"cebpf4jnsgd1na2vs0mg"},{"bike_id":"63ae024a-8ee3-410c-84e6-dbd02d6980b1","system_id":"levelo_inurba_marseille","lat":43.29295,"lon":5.37457,"is_reserved":false,"is_disabled":false,"rental_uris":{"android":"levelo://app?vid=63ae024a-8ee3-410c-84e6-dbd02d6980b1","ios":"levelo://app?vid=63ae024a-8ee3-410c-84e6-dbd02d6980b1"},"vehicle_type_id":"4","last_reported":1743757860,"current_range_meters":16800,"station_id":"ce4bgi12rcd13ifvqb70","pricing_plan_id":"cebpf4jnsgd1na2vs0mg"},{"bike_id":"30b57730-cb66-4122-bd93-7dabcaba84e7","system_id":"levelo_inurba_marseille","lat":43.24907,"lon":5.40656,"is_reserved":false,"is_disabled":false,"rental_uris":{"android":"levelo://app?vid=30b57730-cb66-4122-bd93-7dabcaba84e7","ios":"levelo://app?vid=30b57730-cb66-4122-bd93-7dabcaba84e7"},"vehicle_type_id":"4","last_reported":1743757860,"current_range_meters":16800,"station_id":"","pricing_plan_id":"cebpf4jnsgd1na2vs0mg"},{"bike_id":"92c598b8-6143-4d5d-b090-5602fe1f7166","system_id":"levelo_inurba_marseille","lat":43.28351,"lon":5.38099,"is_reserved":false,"is_disabled":false,"rental_uris":{"android":"levelo://app?vid=92c598b8-6143-4d5d-b090-5602fe1f7166","ios":"levelo://app?vid=92c598b8-6143-4d5d-b090-5602fe1f7166"},"vehicle_type_id":"4","last_reported":1743757860,"current_range_meters":16800,"station_id":"ce4bh412rcd13ifvqdr0","pricing_plan_id":"cebpf4jnsgd1na2vs0mg"},{"bike_id":"e859a5c4-75ad-49fa-85bc-88f6fd522faa","system_id":"levelo_inurba_marseille","lat":43.24167,"lon":5.36392,"is_reserved":false,"is_disabled":false,"rental_uris":{"android":"levelo://app?vid=e859a5c4-75ad-49fa-85bc-88f6fd522faa","ios":"levelo://app?vid=e859a5c4-75ad-49fa-85bc-88f6fd522faa"},"vehicle_type_id":"4","last_reported":1743757860,"current_range_meters":16800,"station_id":"cpo36qri1sfpv3e86is0","pricing_plan_id":"cebpf4jnsgd1na2vs0mg"},{"bike_id":"65518e52-d299-4aa2-88c9-3cc76063340c","system_id":"levelo_inurba_marseille","lat":43.23194,"lon":5.39976,"is_reserved":false,"is_disabled":false,"rental_uris":{"android":"levelo://app?vid=65518e52-d299-4aa2-88c9-3cc76063340c","ios":"levelo://app?vid=65518e52-d299-4aa2-88c9-3cc76063340c"},"vehicle_type_id":"4","last_reported":1743757860,"current_range_meters":16800,"station_id":"ce4bhn12rcd13ifvqgqg","pricing_plan_id":"cebpf4jnsgd1na2vs0mg"},{"bike_id":"1c6a9a4d-5ef6-476b-b921-e44abfffd79e","system_id":"levelo_inurba_marseille","lat":43.25986,"lon":5.40979,"is_reserved":false,"is_disabled":false,"rental_uris":{"android":"levelo://app?vid=1c6a9a4d-5ef6-476b-b921-e44abfffd79e","ios":"levelo://app?vid=1c6a9a4d-5ef6-476b-b921-e44abfffd79e"},"vehicle_type_id":"4","last_reported":1743757860,"current_range_meters":17200,"station_id":"ce4bhm92rcd13ifvqglg","pricing_plan_id":"cebpf4jnsgd1na2vs0mg"},{"bike_id":"03754594-0ca1-4e29-b567-ef4299c73666","system_id":"levelo_inurba_marseille","lat":43.301869,"lon":5.366199,"is_reserved":false,"is_disabled":false,"rental_uris":{"android":"levelo://app?vid=03754594-0ca1-4e29-b567-ef4299c73666","ios":"levelo://app?vid=03754594-0ca1-4e29-b567-ef4299c73666"},"vehicle_type_id":"4","last_reported":1743757860,"current_range_meters":17200,"station_id":"ce4bgrh2rcd13ifvqc8g","pricing_plan_id":"cebpf4jnsgd1na2vs0mg"},{"bike_id":"873934dc-376b-4de8-9351-e83fa6178468","system_id":"levelo_inurba_marseille","lat":43.24164,"lon":5.36402,"is_reserved":false,"is_disabled":false,"rental_uris":{"android":"levelo://app?vid=873934dc-376b-4de8-9351-e83fa6178468","ios":"levelo://app?vid=873934dc-376b-4de8-9351-e83fa6178468"},"vehicle_type_id":"4","last_reported":1743757860,"current_range_meters":17200,"station_id":"cpo36qri1sfpv3e86is0","pricing_plan_id":"cebpf4jnsgd1na2vs0mg"},{"bike_id":"675fc0a8-10aa-40f4-ac3a-a3b605237bd7","system_id":"levelo_inurba_marseille","lat":43.23152,"lon":5.35414,"is_reserved":false,"is_disabled":false,"rental_uris":{"android":"levelo://app?vid=675fc0a8-10aa-40f4-ac3a-a3b605237bd7","ios":"levelo://app?vid=675fc0a8-10aa-40f4-ac3a-a3b605237bd7"},"vehicle_type_id":"4","last_reported":1743757860,"current_range_meters":17200,"station_id":"","pricing_plan_id":"cebpf4jnsgd1na2vs0mg"},{"bike_id":"0a6fa01c-7fdf-4e96-8a8c-79cb46d88dc5","system_id":"levelo_inurba_marseille","lat":43.30457,"lon":5.37903,"is_reserved":false,"is_disabled":false,"rental_uris":{"android":"levelo://app?vid=0a6fa01c-7fdf-4e96-8a8c-79cb46d88dc5","ios":"levelo://app?vid=0a6fa01c-7fdf-4e96-8a8c-79cb46d88dc5"},"vehicle_type_id":"4","last_reported":1743757860,"current_range_meters":17200,"station_id":"ce4bgup2rcd13ifvqcn0","pricing_plan_id":"cebpf4jnsgd1na2vs0mg"},{"bike_id":"2e0c68ea-3361-418e-9d72-bccb3e4de1ab","system_id":"levelo_inurba_marseille","lat":43.305309,"lon":5.365399,"is_reserved":false,"is_disabled":false,"rental_uris":{"android":"levelo://app?vid=2e0c68ea-3361-418e-9d72-bccb3e4de1ab","ios":"levelo://app?vid=2e0c68ea-3361-418e-9d72-bccb3e4de1ab"},"vehicle_type_id":"4","last_reported":1743757860,"current_range_meters":17200,"station_id":"ce4bgs12rcd13ifvqcag","pricing_plan_id":"cebpf4jnsgd1na2vs0mg"},{"bike_id":"1bb33d04-dbfe-4c3a-b70e-e236c9f3bdd9","system_id":"levelo_inurba_marseille","lat":43.3046,"lon":5.37919,"is_reserved":false,"is_disabled":false,"rental_uris":{"android":"levelo://app?vid=1bb33d04-dbfe-4c3a-b70e-e236c9f3bdd9","ios":"levelo://app?vid=1bb33d04-dbfe-4c3a-b70e-e236c9f3bdd9"},"vehicle_type_id":"4","last_reported":1743757860,"current_range_meters":17200,"station_id":"ce4bgup2rcd13ifvqcn0","pricing_plan_id":"cebpf4jnsgd1na2vs0mg"},{"bike_id":"07691b30-a8d6-48df-83af-def33f4d68e2","system_id":"levelo_inurba_marseille","lat":43.29677,"lon":5.36159,"is_reserved":false,"is_disabled":true,"rental_uris":{"android":"levelo://app?vid=07691b30-a8d6-48df-83af-def33f4d68e2","ios":"levelo://app?vid=07691b30-a8d6-48df-83af-def33f4d68e2"},"vehicle_type_id":"4","last_reported":1743757860,"current_range_meters":17600,"station_id":"","pricing_plan_id":"cebpf4jnsgd1na2vs0mg"},{"bike_id":"c14a22d5-3451-4a08-b284-d6e77e4b2064","system_id":"levelo_inurba_marseille","lat":43.30954,"lon":5.39034,"is_reserved":false,"is_disabled":false,"rental_uris":{"android":"levelo://app?vid=c14a22d5-3451-4a08-b284-d6e77e4b2064","ios":"levelo://app?vid=c14a22d5-3451-4a08-b284-d6e77e4b2064"},"vehicle_type_id":"4","last_reported":1743757860,"current_range_meters":17600,"station_id":"ce4bgup2rcd13ifvqco0","pricing_plan_id":"cebpf4jnsgd1na2vs0mg"},{"bike_id":"a440dd45-a160-4c54-a1fd-e0f23b0bf24a","system_id":"levelo_inurba_marseille","lat":43.25933,"lon":5.40911,"is_reserved":false,"is_disabled":false,"rental_uris":{"android":"levelo://app?vid=a440dd45-a160-4c54-a1fd-e0f23b0bf24a","ios":"levelo://app?vid=a440dd45-a160-4c54-a1fd-e0f23b0bf24a"},"vehicle_type_id":"4","last_reported":1743757860,"current_range_meters":17600,"station_id":"ce4bhm92rcd13ifvqglg","pricing_plan_id":"cebpf4jnsgd1na2vs0mg"},{"bike_id":"736503fe-5eb5-4102-87d0-78ca118e3ee2","system_id":"levelo_inurba_marseille","lat":43.274907,"lon":5.42452,"is_reserved":false,"is_disabled":false,"rental_uris":{"android":"levelo://app?vid=736503fe-5eb5-4102-87d0-78ca118e3ee2","ios":"levelo://app?vid=736503fe-5eb5-4102-87d0-78ca118e3ee2"},"vehicle_type_id":"4","last_reported":1743757860,"current_range_meters":17600,"station_id":"ce4bhn92rcd13ifvqgrg","pricing_plan_id":"cebpf4jnsgd1na2vs0mg"},{"bike_id":"9588ac9f-5950-4980-a43a-9a1c17bf5922","system_id":"levelo_inurba_marseille","lat":43.30181,"lon":5.38086,"is_reserved":false,"is_disabled":false,"rental_uris":{"android":"levelo://app?vid=9588ac9f-5950-4980-a43a-9a1c17bf5922","ios":"levelo://app?vid=9588ac9f-5950-4980-a43a-9a1c17bf5922"},"vehicle_type_id":"4","last_reported":1743757860,"current_range_meters":17600,"station_id":"ce4bgjp2rcd13ifvqbh0","pricing_plan_id":"cebpf4jnsgd1na2vs0mg"},{"bike_id":"9cf88250-cb1b-4afe-9f86-175249483bd4","system_id":"levelo_inurba_marseille","lat":43.30472,"lon":5.37911,"is_reserved":false,"is_disabled":false,"rental_uris":{"android":"levelo://app?vid=9cf88250-cb1b-4afe-9f86-175249483bd4","ios":"levelo://app?vid=9cf88250-cb1b-4afe-9f86-175249483bd4"},"vehicle_type_id":"4","last_reported":1743757860,"current_range_meters":18000,"station_id":"ce4bgup2rcd13ifvqcn0","pricing_plan_id":"cebpf4jnsgd1na2vs0mg"},{"bike_id":"345f3975-387d-4e37-ade6-90cb0db23e38","system_id":"levelo_inurba_marseille","lat":43.266785,"lon":5.382706,"is_reserved":false,"is_disabled":false,"rental_uris":{"android":"levelo://app?vid=345f3975-387d-4e37-ade6-90cb0db23e38","ios":"levelo://app?vid=345f3975-387d-4e37-ade6-90cb0db23e38"},"vehicle_type_id":"4","last_reported":1743757860,"current_range_meters":18000,"station_id":"ce4bhg92rcd13ifvqf90","pricing_plan_id":"cebpf4jnsgd1na2vs0mg"},{"bike_id":"933970a8-bef1-48ff-a73f-2af8f1c12f2b","system_id":"levelo_inurba_marseille","lat":43.24069,"lon":5.37754,"is_reserved":false,"is_disabled":false,"rental_uris":{"android":"levelo://app?vid=933970a8-bef1-48ff-a73f-2af8f1c12f2b","ios":"levelo://app?vid=933970a8-bef1-48ff-a73f-2af8f1c12f2b"},"vehicle_type_id":"4","last_reported":1743757860,"current_range_meters":18000,"station_id":"","pricing_plan_id":"cebpf4jnsgd1na2vs0mg"},{"bike_id":"c9009dfb-ac46-430e-9e34-8320b0bb0fb6","system_id":"levelo_inurba_marseille","lat":43.30957,"lon":5.39059,"is_reserved":false,"is_disabled":false,"rental_uris":{"android":"levelo://app?vid=c9009dfb-ac46-430e-9e34-8320b0bb0fb6","ios":"levelo://app?vid=c9009dfb-ac46-430e-9e34-8320b0bb0fb6"},"vehicle_type_id":"4","last_reported":1743757860,"current_range_meters":18000,"station_id":"ce4bgup2rcd13ifvqco0","pricing_plan_id":"cebpf4jnsgd1na2vs0mg"},{"bike_id":"d2a07d60-57ab-498a-9a05-2527f7931b4d","system_id":"levelo_inurba_marseille","lat":43.23061,"lon":5.35486,"is_reserved":false,"is_disabled":false,"rental_uris":{"android":"levelo://app?vid=d2a07d60-57ab-498a-9a05-2527f7931b4d","ios":"levelo://app?vid=d2a07d60-57ab-498a-9a05-2527f7931b4d"},"vehicle_type_id":"4","last_reported":1743757860,"current_range_meters":18800,"station_id":"cpo3342slgdg3j2ifvpg","pricing_plan_id":"cebpf4jnsgd1na2vs0mg"},{"bike_id":"ed81289f-b9f3-4d86-9f8f-d8896cd8f07f","system_id":"levelo_inurba_marseille","lat":43.30414,"lon":5.39744,"is_reserved":false,"is_disabled":true,"rental_uris":{"android":"levelo://app?vid=ed81289f-b9f3-4d86-9f8f-d8896cd8f07f","ios":"levelo://app?vid=ed81289f-b9f3-4d86-9f8f-d8896cd8f07f"},"vehicle_type_id":"4","last_reported":1743757860,"current_range_meters":18800,"station_id":"ce4bh092rcd13ifvqd20","pricing_plan_id":"cebpf4jnsgd1na2vs0mg"},{"bike_id":"13b2c0b4-342f-4564-8399-a17604a3a4b3","system_id":"levelo_inurba_marseille","lat":43.32493,"lon":5.36551,"is_reserved":false,"is_disabled":false,"rental_uris":{"android":"levelo://app?vid=13b2c0b4-342f-4564-8399-a17604a3a4b3","ios":"levelo://app?vid=13b2c0b4-342f-4564-8399-a17604a3a4b3"},"vehicle_type_id":"4","last_reported":1743757860,"current_range_meters":18800,"station_id":"ce4bhs12rcd13ifvqhvg","pricing_plan_id":"cebpf4jnsgd1na2vs0mg"},{"bike_id":"0b225a7c-f48f-4c62-9e45-afc2ef8c5279","system_id":"levelo_inurba_marseille","lat":43.274891,"lon":5.424554,"is_reserved":false,"is_disabled":false,"rental_uris":{"android":"levelo://app?vid=0b225a7c-f48f-4c62-9e45-afc2ef8c5279","ios":"levelo://app?vid=0b225a7c-f48f-4c62-9e45-afc2ef8c5279"},"vehicle_type_id":"4","last_reported":1743757860,"current_range_meters":18800,"station_id":"ce4bhn92rcd13ifvqgrg","pricing_plan_id":"cebpf4jnsgd1na2vs0mg"},{"bike_id":"b29b1ebd-590d-4842-9b2d-c178b7f38946","system_id":"levelo_inurba_marseille","lat":43.28353,"lon":5.38099,"is_reserved":false,"is_disabled":true,"rental_uris":{"android":"levelo://app?vid=b29b1ebd-590d-4842-9b2d-c178b7f38946","ios":"levelo://app?vid=b29b1ebd-590d-4842-9b2d-c178b7f38946"},"vehicle_type_id":"4","last_reported":1743757860,"current_range_meters":18800,"station_id":"ce4bh412rcd13ifvqdr0","pricing_plan_id":"cebpf4jnsgd1na2vs0mg"},{"bike_id":"21e33b40-e706-42b5-8017-94761fb72548","system_id":"levelo_inurba_marseille","lat":43.29291,"lon":5.37451,"is_reserved":false,"is_disabled":false,"rental_uris":{"android":"levelo://app?vid=21e33b40-e706-42b5-8017-94761fb72548","ios":"levelo://app?vid=21e33b40-e706-42b5-8017-94761fb72548"},"vehicle_type_id":"4","last_reported":1743757860,"current_range_meters":18800,"station_id":"ce4bgi12rcd13ifvqb70","pricing_plan_id":"cebpf4jnsgd1na2vs0mg"},