{"last_updated":1703538366,"ttl":30,"version":"2.2","data":{"bikes":[{"bike_id":"ced3cbce-397e-4c76-a340-718dc548fd23","system_id":"levelo_inurba_marseille","lat":43.312239,"lon":5.368562,"is_reserved":false,"is_disabled":false,"rental_uris":{"android":"levelo://app?vid=ced3cbce-397e-4c76-a340-718dc548fd23","ios":"levelo://app?vid=ced3cbce-397e-4c76-a340-718dc548fd23"},"vehicle_type_id":"4","last_reported":1703538366,"current_range_meters":25200,"station_id":"ce4bgl92rcd13ifvqbq0","pricing_plan_id":"free"},{"bike_id":"90d8504d-c4bd-4095-99a4-7178fe8bcca4","system_id":"levelo_inurba_marseille","lat":43.312239,"lon":5.368562,"is_reserved":false,"is_disabled":false,"rental_uris":{"android":"levelo://app?vid=90d8504d-c4bd-4095-99a4-7178fe8bcca4","ios":"levelo://app?vid=90d8504d-c4bd-4095-99a4-7178fe8bcca4"},"vehicle_type_id":"4","last_reported":1703538366,"current_range_meters":26000,"station_id":"ce4bgl92rcd13ifvqbq0","pricing_plan_id":"free"},{"bike_id":"90c4e781-4718-4887-9d11-bc440c61018f","system_id":"levelo_inurba_marseille","lat":43.309076,"lon":5.368465,"is_reserved":false,"is_disabled":false,"rental_uris":{"android":"levelo://app?vid=90c4e781-4718-4887-9d11-bc440c61018f","ios":"levelo://app?vid=90c4e781-4718-4887-9d11-bc440c61018f"},"vehicle_type_id":"4","last_reported":1703538366,"current_range_meters":19200,"station_id":"ce4bgn92rcd13ifvqbvg","pricing_plan_id":"free"},{"bike_id":"ee9d3b48-c0a5-4722-9212-da9753cff748","system_id":"levelo_inurba_marseille","lat":43.314811,"lon":5.373103,"is_reserved":false,"is_disabled":false,"rental_uris":{"android":"levelo://app?vid=ee9d3b48-c0a5-4722-9212-da9753cff748","ios":"levelo://app?vid=ee9d3b48-c0a5-4722-9212-da9753cff748"},"vehicle_type_id":"4","last_reported":1703538366,"current_range_meters":24800,"station_id":"ce4bgt12rcd13ifvqcd0","pricing_plan_id":"free"},{"bike_id":"d2be49f4-d512-450f-80de-370a6da97420","system_id":"levelo_inurba_marseille","lat":43.318964,"lon":5.36877,"is_reserved":false,"is_disabled":false,"rental_uris":{"android":"levelo://app?vid=d2be49f4-d512-450f-80de-370a6da97420","ios":"levelo://app?vid=d2be49f4-d512-450f-80de-370a6da97420"},"vehicle_type_id":"4","last_reported":1703538366,"current_range_meters":9200,"station_id":"","pricing_plan_id":"free"},{"bike_id":"cc2f4e4f-2b28-4e84-be8f-32c8a171c9e1","system_id":"levelo_inurba_marseille","lat":43.31381,"lon":5.3763,"is_reserved":false,"is_disabled":false,"rental_uris":{"android":"levelo://app?vid=cc2f4e4f-2b28-4e84-be8f-32c8a171c9e1","ios":"levelo://app?vid=cc2f4e4f-2b28-4e84-be8f-32c8a171c9e1"},"vehicle_type_id":"4","last_reported":1703538366,"current_range_meters":26800,"station_id":"","pricing_plan_id":"free"},{"bike_id":"8fef822f-8c06-4395-beea-4d9578bdea4b","system_id":"levelo_inurba_marseille","lat":43.305368,"lon":5.367343,"is_reserved":false,"is_disabled":false,"rental_uris":{"android":"levelo://app?vid=8fef822f-8c06-4395-beea-4d9578bdea4b","ios":"levelo://app?vid=8fef822f-8c06-4395-beea-4d9578bdea4b"},"vehicle_type_id":"4","last_reported":1703538366,"current_range_meters":19600,"station_id":"ce4bgrp2rcd13ifvqc9g","pricing_plan_id":"free"},{"bike_id":"ed0ee458-d167-4624-8c61-96e3c5ea9645","system_id":"levelo_inurba_marseille","lat":43.305706,"lon":5.365654,"is_reserved":false,"is_disabled":false,"rental_uris":{"android":"levelo://app?vid=ed0ee458-d167-4624-8c61-96e3c5ea9645","ios":"levelo://app?vid=ed0ee458-d167-4624-8c61-96e3c5ea9645"},"vehicle_type_id":"4","last_reported":1703538366,"current_range_meters":4400,"station_id":"ce4bgs12rcd13ifvqcag","pricing_plan_id":"free"},{"bike_id":"1a71022c-fdb5-4632-a425-38d7ef4f21e4","system_id":"levelo_inurba_marseille","lat":43.318369,"lon":5.373936,"is_reserved":false,"is_disabled":false,"rental_uris":{"android":"levelo://app?vid=1a71022c-fdb5-4632-a425-38d7ef4f21e4","ios":"levelo://app?vid=1a71022c-fdb5-4632-a425-38d7ef4f21e4"},"vehicle_type_id":"4","last_reported":1703538366,"current_range_meters":0,"station_id":"","pricing_plan_id":"free"},{"bike_id":"e9912c23-593b-4a91-a4de-d2a387ba4aa5","system_id":"levelo_inurba_marseille","lat":43.305989,"lon":5.37225,"is_reserved":false,"is_disabled":false,"rental_uris":{"android":"levelo://app?vid=e9912c23-593b-4a91-a4de-d2a387ba4aa5","ios":"levelo://app?vid=e9912c23-593b-4a91-a4de-d2a387ba4aa5"},"vehicle_type_id":"4","last_reported":1703538366,"current_range_meters":28400,"station_id":"ce4bgqh2rcd13ifvqc4g","pricing_plan_id":"free"},{"bike_id":"b3c57f60-fee0-41b5-aed7-9449da4de8df","system_id":"levelo_inurba_marseille","lat":43.306067,"lon":5.37229,"is_reserved":false,"is_disabled":false,"rental_uris":{"android":"levelo://app?vid=b3c57f60-fee0-41b5-aed7-9449da4de8df","ios":"levelo://app?vid=b3c57f60-fee0-41b5-aed7-9449da4de8df"},"vehicle_type_id":"4","last_reported":1703538366,"current_range_meters":1600,"station_id":"ce4bgqh2rcd13ifvqc4g","pricing_plan_id":"free"},{"bike_id":"672864be-bd3d-4b7a-a6e2-8860abd49c6e","system_id":"levelo_inurba_marseille","lat":43.305989,"lon":5.37225,"is_reserved":false,"is_disabled":false,"rental_uris":{"android":"levelo://app?vid=672864be-bd3d-4b7a-a6e2-8860abd49c6e","ios":"levelo://app?vid=672864be-bd3d-4b7a-a6e2-8860abd49c6e"},"vehicle_type_id":"4","last_reported":1703538366,"current_range_meters":24000,"station_id":"ce4bgqh2rcd13ifvqc4g","pricing_plan_id":"free"},{"bike_id":"9c0a7070-f843-4178-9889-659edeccc0a2","system_id":"levelo_inurba_marseille","lat":43.311278,"lon":5.377642,"is_reserved":false,"is_disabled":false,"rental_uris":{"android":"levelo://app?vid=9c0a7070-f843-4178-9889-659edeccc0a2","ios":"levelo://app?vid=9c0a7070-f843-4178-9889-659edeccc0a2"},"vehicle_type_id":"4","last_reported":1703538366,"current_range_meters":26000,"station_id":"ce4bgt92rcd13ifvqcg0","pricing_plan_id":"free"},{"bike_id":"d3de8212-6286-49a4-b0d3-fd02d927aba1","system_id":"levelo_inurba_marseille","lat":43.311128,"lon":5.377646,"is_reserved":false,"is_disabled":false,"rental_uris":{"android":"levelo://app?vid=d3de8212-6286-49a4-b0d3-fd02d927aba1","ios":"levelo://app?vid=d3de8212-6286-49a4-b0d3-fd02d927aba1"},"vehicle_type_id":"4","last_reported":1703538366,"current_range_meters":30400,"station_id":"ce4bgt92rcd13ifvqcg0","pricing_plan_id":"free"},{"bike_id":"988c8d7f-bb79-4a6c-b63c-0e5007b7494b","system_id":"levelo_inurba_marseille","lat":43.31119,"lon":5.37773,"is_reserved":false,"is_disabled":false,"rental_uris":{"android":"levelo://app?vid=988c8d7f-bb79-4a6c-b63c-0e5007b7494b","ios":"levelo://app?vid=988c8d7f-bb79-4a6c-b63c-0e5007b7494b"},"vehicle_type_id":"4","last_reported":1703538366,"current_range_meters":12800,"station_id":"ce4bgt92rcd13ifvqcg0","pricing_plan_id":"free"},{"bike_id":"9152484a-8e6d-4af8-a30f-445f3424d945","system_id":"levelo_inurba_marseille","lat":43.31125,"lon":5.37775,"is_reserved":false,"is_disabled":false,"rental_uris":{"android":"levelo://app?vid=9152484a-8e6d-4af8-a30f-445f3424d945","ios":"levelo://app?vid=9152484a-8e6d-4af8-a30f-445f3424d945"},"vehicle_type_id":"4","last_reported":1703538366,"current_range_meters":0,"station_id":"ce4bgt92rcd13ifvqcg0","pricing_plan_id":"free"},{"bike_id":"2d8b5c23-c41a-4957-afee-61b1c62778d1","system_id":"levelo_inurba_marseille","lat":43.31119,"lon":5.377767,"is_reserved":false,"is_disabled":false,"rental_uris":{"android":"levelo://app?vid=2d8b5c23-c41a-4957-afee-61b1c62778d1","ios":"levelo://app?vid=2d8b5c23-c41a-4957-afee-61b1c62778d1"},"vehicle_type_id":"4","last_reported":1703538366,"current_range_meters":20800,"station_id":"ce4bgt92rcd13ifvqcg0","pricing_plan_id":"free"},{"bike_id":"250e6aaf-85e0-4277-8f4c-3056acf37513","system_id":"levelo_inurba_marseille","lat":43.31115,"lon":5.37782,"is_reserved":false,"is_disabled":false,"rental_uris":{"android":"levelo://app?vid=250e6aaf-85e0-4277-8f4c-3056acf37513","ios":"levelo://app?vid=250e6aaf-85e0-4277-8f4c-3056acf37513"},"vehicle_type_id":"4","last_reported":1703538366,"current_range_meters":23200,"station_id":"ce4bgt92rcd13ifvqcg0","pricing_plan_id":"free"},{"bike_id":"2b288b27-0728-4f29-a448-a72d594ea851","system_id":"levelo_inurba_marseille","lat":43.317075,"lon":5.377367,"is_reserved":false,"is_disabled":false,"rental_uris":{"android":"levelo://app?vid=2b288b27-0728-4f29-a448-a72d594ea851","ios":"levelo://app?vid=2b288b27-0728-4f29-a448-a72d594ea851"},"vehicle_type_id":"4","last_reported":1703538366,"current_range_meters":22000,"station_id":"ce4bgth2rcd13ifvqch0","pricing_plan_id":"free"},{"bike_id":"117ebec8-b6b8-4b36-9c29-35bf70127c26","system_id":"levelo_inurba_marseille","lat":43.303046,"lon":5.368981,"is_reserved":false,"is_disabled":false,"rental_uris":{"android":"levelo://app?vid=117ebec8-b6b8-4b36-9c29-35bf70127c26","ios":"levelo://app?vid=117ebec8-b6b8-4b36-9c29-35bf70127c26"},"vehicle_type_id":"4","last_reported":1703538366,"current_range_meters":6400,"station_id":"ce4bgqh2rcd13ifvqc5g","pricing_plan_id":"free"},{"bike_id":"e6eefbd8-ecea-42cb-8c7a-0640952ddaea","system_id":"levelo_inurba_marseille","lat":43.31778,"lon":5.37908,"is_reserved":false,"is_disabled":false,"rental_uris":{"android":"levelo://app?vid=e6eefbd8-ecea-42cb-8c7a-0640952ddaea","ios":"levelo://app?vid=e6eefbd8-ecea-42cb-8c7a-0640952ddaea"},"vehicle_type_id":"4","last_reported":1703538366,"current_range_meters":22000,"station_id":"","pricing_plan_id":"free"},{"bike_id":"7985253e-b9af-4afa-9fc0-b27f40638f49","system_id":"levelo_inurba_marseille","lat":43.308012,"lon":5.381511,"is_reserved":false,"is_disabled":false,"rental_uris":{"android":"levelo://app?vid=7985253e-b9af-4afa-9fc0-b27f40638f49","ios":"levelo://app?vid=7985253e-b9af-4afa-9fc0-b27f40638f49"},"vehicle_type_id":"4","last_reported":1703538366,"current_range_meters":18000,"station_id":"ce4bgt12rcd13ifvqce0","pricing_plan_id":"free"},{"bike_id":"c179e3f6-d96b-484f-8c69-1c965447df14","system_id":"levelo_inurba_marseille","lat":43.324771,"lon":5.36557,"is_reserved":false,"is_disabled":false,"rental_uris":{"android":"levelo://app?vid=c179e3f6-d96b-484f-8c69-1c965447df14","ios":"levelo://app?vid=c179e3f6-d96b-484f-8c69-1c965447df14"},"vehicle_type_id":"4","last_reported":1703538366,"current_range_meters":1600,"station_id":"ce4bhs12rcd13ifvqhvg","pricing_plan_id":"free"},{"bike_id":"f5c0e4d6-16bd-47eb-ba92-aa201d0984ce","system_id":"levelo_inurba_marseille","lat":43.324771,"lon":5.36557,"is_reserved":false,"is_disabled":false,"rental_uris":{"android":"levelo://app?vid=f5c0e4d6-16bd-47eb-ba92-aa201d0984ce","ios":"levelo://app?vid=f5c0e4d6-16bd-47eb-ba92-aa201d0984ce"},"vehicle_type_id":"4","last_reported":1703538366,"current_range_meters":6800,"station_id":"ce4bhs12rcd13ifvqhvg","pricing_plan_id":"free"},{"bike_id":"673afe24-13ca-4117-906e-0ada444292f1","system_id":"levelo_inurba_marseille","lat":43.324771,"lon":5.36557,"is_reserved":false,"is_disabled":false,"rental_uris":{"android":"levelo://app?vid=673afe24-13ca-4117-906e-0ada444292f1","ios":"levelo://app?vid=673afe24-13ca-4117-906e-0ada444292f1"},"vehicle_type_id":"4","last_reported":1703538366,"current_range_meters":24400,"station_id":"ce4bhs12rcd13ifvqhvg","pricing_plan_id":"free"},{"bike_id":"9011995a-6fb0-4e38-9a9b-bdcc1110a2a4","system_id":"levelo_inurba_marseille","lat":43.30377,"lon":5.37851,"is_reserved":false,"is_disabled":false,"rental_uris":{"android":"levelo://app?vid=9011995a-6fb0-4e38-9a9b-bdcc1110a2a4","ios":"levelo://app?vid=9011995a-6fb0-4e38-9a9b-bdcc1110a2a4"},"vehicle_type_id":"4","last_reported":1703538366,"current_range_meters":21600,"station_id":"ce4bgup2rcd13ifvqcn0","pricing_plan_id":"free"},{"bike_id":"6fa31204-4f31-4fca-ab89-63291882e1f2","system_id":"levelo_inurba_marseille","lat":43.30143,"lon":5.37413,"is_reserved":false,"is_disabled":false,"rental_uris":{"android":"levelo://app?vid=6fa31204-4f31-4fca-ab89-63291882e1f2","ios":"levelo://app?vid=6fa31204-4f31-4fca-ab89-63291882e1f2"},"vehicle_type_id":"4","last_reported":1703538366,"current_range_meters":18800,"station_id":"ce4bgs92rcd13ifvqcc0","pricing_plan_id":"free"},{"bike_id":"7deb0ec6-805e-4b33-b191-7458dcee5f47","system_id":"levelo_inurba_marseille","lat":43.30143,"lon":5.37413,"is_reserved":false,"is_disabled":false,"rental_uris":{"android":"levelo://app?vid=7deb0ec6-805e-4b33-b191-7458dcee5f47","ios":"levelo://app?vid=7deb0ec6-805e-4b33-b191-7458dcee5f47"},"vehicle_type_id":"4","last_reported":1703538366,"current_range_meters":4000,"station_id":"ce4bgs92rcd13ifvqcc0","pricing_plan_id":"free"},{"bike_id":"70b0ad2a-6533-4324-9176-53aa3f1f6a7a","system_id":"levelo_inurba_marseille","lat":43.32,"lon":5.3814,"is_reserved":false,"is_disabled":false,"rental_uris":{"android":"levelo://app?vid=70b0ad2a-6533-4324-9176-53aa3f1f6a7a","ios":"levelo://app?vid=70b0ad2a-6533-4324-9176-53aa3f1f6a7a"},"vehicle_type_id":"4","last_reported":1703538366,"current_range_meters":5600,"station_id":"ce4bhr12rcd13ifvqhpg","pricing_plan_id":"free"},{"bike_id":"28941dab-2134-4d7a-bbf7-eba2c6616dfb","system_id":"levelo_inurba_marseille","lat":43.319935,"lon":5.381699,"is_reserved":false,"is_disabled":false,"rental_uris":{"android":"levelo://app?vid=28941dab-2134-4d7a-bbf7-eba2c6616dfb","ios":"levelo://app?vid=28941dab-2134-4d7a-bbf7-eba2c6616dfb"},"vehicle_type_id":"4","last_reported":1703538366,"current_range_meters":20800,"station_id":"ce4bhr12rcd13ifvqhpg","pricing_plan_id":"free"},{"bike_id":"bde236ab-7f3b-43db-8fed-22a76f00eb35","system_id":"levelo_inurba_marseille","lat":43.313571,"lon":5.384829,"is_reserved":false,"is_disabled":false,"rental_uris":{"android":"levelo://app?vid=bde236ab-7f3b-43db-8fed-22a76f00eb35","ios":"levelo://app?vid=bde236ab-7f3b-43db-8fed-22a76f00eb35"},"vehicle_type_id":"4","last_reported":1703538366,"current_range_meters":23200,"station_id":"ce4bgt92rcd13ifvqcf0","pricing_plan_id":"free"},{"bike_id":"3a21796f-521a-4ee5-b26e-ba8190bec170","system_id":"levelo_inurba_marseille","lat":43.299724,"lon":5.371829,"is_reserved":false,"is_disabled":false,"rental_uris":{"android":"levelo://app?vid=3a21796f-521a-4ee5-b26e-ba8190bec170","ios":"levelo://app?vid=3a21796f-521a-4ee5-b26e-ba8190bec170"},"vehicle_type_id":"4","last_reported":1703538366,"current_range_meters":25200,"station_id":"ce4bgr92rcd13ifvqc7g","pricing_plan_id":"free"},{"bike_id":"f543f3cb-5224-4220-9595-23590f9bce1f","system_id":"levelo_inurba_marseille","lat":43.299724,"lon":5.371829,"is_reserved":false,"is_disabled":false,"rental_uris":{"android":"levelo://app?vid=f543f3cb-5224-4220-9595-23590f9bce1f","ios":"levelo://app?vid=f543f3cb-5224-4220-9595-23590f9bce1f"},"vehicle_type_id":"4","last_reported":1703538366,"current_range_meters":30400,"station_id":"ce4bgr92rcd13ifvqc7g","pricing_plan_id":"free"},{"bike_id":"5bac5bb2-8e7e-4f13-9e51-770bec5839cf","system_id":"levelo_inurba_marseille","lat":43.305364,"lon":5.384119,"is_reserved":false,"is_disabled":false,"rental_uris":{"android":"levelo://app?vid=5bac5bb2-8e7e-4f13-9e51-770bec5839cf","ios":"levelo://app?vid=5bac5bb2-8e7e-4f13-9e51-770bec5839cf"},"vehicle_type_id":"4","last_reported":1703538366,"current_range_meters":28800,"station_id":"ce4bgg92rcd13ifvqb30","pricing_plan_id":"free"},{"bike_id":"e1882ce6-4daa-4a7c-a5c1-f19260980e94","system_id":"levelo_inurba_marseille","lat":43.305364,"lon":5.384119,"is_reserved":false,"is_disabled":false,"rental_uris":{"android":"levelo://app?vid=e1882ce6-4daa-4a7c-a5c1-f19260980e94","ios":"levelo://app?vid=e1882ce6-4daa-4a7c-a5c1-f19260980e94"},"vehicle_type_id":"4","last_reported":1703538366,"current_range_meters":26400,"station_id":"ce4bgg92rcd13ifvqb30","pricing_plan_id":"free"},{"bike_id":"31298916-1625-492b-9203-f37b6a58b086","system_id":"levelo_inurba_marseille","lat":43.298433,"lon":5.362774,"is_reserved":false,"is_disabled":false,"rental_uris":{"android":"levelo://app?vid=31298916-1625-492b-9203-f37b6a58b086","ios":"levelo://app?vid=31298916-1625-492b-9203-f37b6a58b086"},"vehicle_type_id":"4","last_reported":1703538366,"current_range_meters":26400,"station_id":"ce4bgpp2rcd13ifvqc3g","pricing_plan_id":"free"},{"bike_id":"25d8ed9f-8407-441e-8cdd-472eea14d9e6","system_id":"levelo_inurba_marseille","lat":43.298433,"lon":5.362774,"is_reserved":false,"is_disabled":false,"rental_uris":{"android":"levelo://app?vid=25d8ed9f-8407-441e-8cdd-472eea14d9e6","ios":"levelo://app?vid=25d8ed9f-8407-441e-8cdd-472eea14d9e6"},"vehicle_type_id":"4","last_reported":1703538366,"current_range_meters":31600,"station_id":"ce4bgpp2rcd13ifvqc3g","pricing_plan_id":"free"},{"bike_id":"e8774d34-77dc-4768-a649-c1a5482b0b09","system_id":"levelo_inurba_marseille","lat":43.298433,"lon":5.362774,"is_reserved":false,"is_disabled":false,"rental_uris":{"android":"levelo://app?vid=e8774d34-77dc-4768-a649-c1a5482b0b09","ios":"levelo://app?vid=e8774d34-77dc-4768-a649-c1a5482b0b09"},"vehicle_type_id":"4","last_reported":1703538366,"current_range_meters":19600,"station_id":"ce4bgpp2rcd13ifvqc3g","pricing_plan_id":"free"},{"bike_id":"c286a295-4ea1-454b-a803-148652a67652","system_id":"levelo_inurba_marseille","lat":43.305364,"lon":5.384119,"is_reserved":false,"is_disabled":false,"rental_uris":{"android":"levelo://app?vid=c286a295-4ea1-454b-a803-148652a67652","ios":"levelo://app?vid=c286a295-4ea1-454b-a803-148652a67652"},"vehicle_type_id":"4","last_reported":1703538366,"current_range_meters":24800,"station_id":"ce4bgg92rcd13ifvqb30","pricing_plan_id":"free"},{"bike_id":"18c3234f-1b26-4233-b58e-d98309a23aee","system_id":"levelo_inurba_marseille","lat":43.298433,"lon":5.362774,"is_reserved":false,"is_disabled":false,"rental_uris":{"android":"levelo://app?vid=18c3234f-1b26-4233-b58e-d98309a23aee","ios":"levelo://app?vid=18c3234f-1b26-4233-b58e-d98309a23aee"},"vehicle_type_id":"4","last_reported":1703538366,"current_range_meters":23600,"station_id":"ce4bgpp2rcd13ifvqc3g","pricing_plan_id":"free"},{"bike_id":"ffa18e00-56e1-42d2-b5e3-5555b04a51b4","system_id":"levelo_inurba_marseille","lat":43.298433,"lon":5.362774,"is_reserved":false,"is_disabled":false,"rental_uris":{"android":"levelo://app?vid=ffa18e00-56e1-42d2-b5e3-5555b04a51b4","ios":"levelo://app?vid=ffa18e00-56e1-42d2-b5e3-5555b04a51b4"},"vehicle_type_id":"4","last_reported":1703538366,"current_range_meters":25600,"station_id":"ce4bgpp2rcd13ifvqc3g","pricing_plan_id":"free"},{"bike_id":"14e113e1-e172-4c57-ae02-7bf73a95d21b","system_id":"levelo_inurba_marseille","lat":43.298433,"lon":5.362774,"is_reserved":false,"is_disabled":false,"rental_uris":{"android":"levelo://app?vid=14e113e1-e172-4c57-ae02-7bf73a95d21b","ios":"levelo://app?vid=14e113e1-e172-4c57-ae02-7bf73a95d21b"},"vehicle_type_id":"4","last_reported":1703538366,"current_range_meters":30400,"station_id":"ce4bgpp2rcd13ifvqc3g","pricing_plan_id":"free"},{"bike_id":"8b414ef6-e648-4831-9810-a223151100af","system_id":"levelo_inurba_marseille","lat":43.298433,"lon":5.362774,"is_reserved":false,"is_disabled":false,"rental_uris":{"android":"levelo://app?vid=8b414ef6-e648-4831-9810-a223151100af","ios":"levelo://app?vid=8b414ef6-e648-4831-9810-a223151100af"},"vehicle_type_id":"4","last_reported":1703538366,"current_range_meters":18000,"station_id":"ce4bgpp2rcd13ifvqc3g","pricing_plan_id":"free"},{"bike_id":"3540d652-83ee-4e54-82bb-c4527c65e1e6","system_id":"levelo_inurba_marseille","lat":43.299243,"lon":5.374807,"is_reserved":false,"is_disabled":false,"rental_uris":{"android":"levelo://app?vid=3540d652-83ee-4e54-82bb-c4527c65e1e6","ios":"levelo://app?vid=3540d652-83ee-4e54-82bb-c4527c65e1e6"},"vehicle_type_id":"4","last_reported":1703538366,"current_range_meters":24800,"station_id":"ce4bgjh2rcd13ifvqbg0","pricing_plan_id":"free"},{"bike_id":"b7c9965d-b68c-4e38-9540-fff6f9c239fb","system_id":"levelo_inurba_marseille","lat":43.311722,"lon":5.387247,"is_reserved":false,"is_disabled":false,"rental_uris":{"android":"levelo://app?vid=b7c9965d-b68c-4e38-9540-fff6f9c239fb","ios":"levelo://app?vid=b7c9965d-b68c-4e38-9540-fff6f9c239fb"},"vehicle_type_id":"4","last_reported":1703538366,"current_range_meters":7200,"station_id":"ce4bgv12rcd13ifvqcp0","pricing_plan_id":"free"},{"bike_id":"755e31db-0c7e-4e3e-9d1d-38bd7d5b4038","system_id":"levelo_inurba_marseille","lat":43.298433,"lon":5.362774,"is_reserved":false,"is_disabled":false,"rental_uris":{"android":"levelo://app?vid=755e31db-0c7e-4e3e-9d1d-38bd7d5b4038","ios":"levelo://app?vid=755e31db-0c7e-4e3e-9d1d-38bd7d5b4038"},"vehicle_type_id":"4","last_reported":1703538366,"current_range_meters":28400,"station_id":"ce4bgpp2rcd13ifvqc3g","pricing_plan_id":"free"},{"bike_id":"ab96af4a-dea2-445d-86c8-b091967ed0ee","system_id":"levelo_inurba_marseille","lat":43.311722,"lon":5.387247,"is_reserved":false,"is_disabled":false,"rental_uris":{"android":"levelo://app?vid=ab96af4a-dea2-445d-86c8-b091967ed0ee","ios":"levelo://app?vid=ab96af4a-dea2-445d-86c8-b091967ed0ee"},"vehicle_type_id":"4","last_reported":1703538366,"current_range_meters":16000,"station_id":"ce4bgv12rcd13ifvqcp0","pricing_plan_id":"free"},{"bike_id":"d226d4e9-7670-4781-b786-7baac415865d","system_id":"levelo_inurba_marseille","lat":43.311722,"lon":5.387247,"is_reserved":false,"is_disabled":false,"rental_uris":{"android":"levelo://app?vid=d226d4e9-7670-4781-b786-7baac415865d","ios":"levelo://app?vid=d226d4e9-7670-4781-b786-7baac415865d"},"vehicle_type_id":"4","last_reported":1703538366,"current_range_meters":19200,"station_id":"ce4bgv12rcd13ifvqcp0","pricing_plan_id":"free"},{"bike_id":"916a3e4e-4291-4c30-a6ac-c0fab32214fa","system_id":"levelo_inurba_marseille","lat":43.299243,"lon":5.37481,"is_reserved":false,"is_disabled":false,"rental_uris":{"android":"levelo://app?vid=916a3e4e-4291-4c30-a6ac-c0fab32214fa","ios":"levelo://app?vid=916a3e4e-4291-4c30-a6ac-c0fab32214fa"},"vehicle_type_id":"4","last_reported":1703538366,"current_range_meters":14000,"station_id":"ce4bgjh2rcd13ifvqbg0","pricing_plan_id":"free"},{"bike_id":"51714c4a-3132-4951-88ec-80e85fa125e8","system_id":"levelo_inurba_marseille","lat":43.327813,"lon":5.367067,"is_reserved":false,"is_disabled":false,"rental_uris":{"android":"levelo://app?vid=51714c4a-3132-4951-88ec-80e85fa125e8","ios":"levelo://app?vid=51714c4a-3132-4951-88ec-80e85fa125e8"},"vehicle_type_id":"4","last_reported":1703538366,"current_range_meters":8800,"station_id":"","pricing_plan_id":"free"},{"bike_id":"de708f00-7118-4d7c-9021-d7dcbd798473","system_id":"levelo_inurba_marseille","lat":43.32825,"lon":5.3668,"is_reserved":false,"is_disabled":false,"rental_uris":{"android":"levelo://app?vid=de708f00-7118-4d7c-9021-d7dcbd798473","ios":"levelo://app?vid=de708f00-7118-4d7c-9021-d7dcbd798473"},"vehicle_type_id":"4","last_reported":1703538366,"current_range_meters":28800,"station_id":"ce4bhs92rcd13ifvqi0g","pricing_plan_id":"free"},{"bike_id":"eba6867d-6d75-4354-b206-2059ecdc5071","system_id":"levelo_inurba_marseille","lat":43.328272,"lon":5.366765,"is_reserved":false,"is_disabled":false,"rental_uris":{"android":"levelo://app?vid=eba6867d-6d75-4354-b206-2059ecdc5071","ios":"levelo://app?vid=eba6867d-6d75-4354-b206-2059ecdc5071"},"vehicle_type_id":"4","last_reported":1703538366,"current_range_meters":10000,"station_id":"ce4bhs92rcd13ifvqi0g","pricing_plan_id":"free"},{"bike_id":"6f67326a-1664-406f-9978-902e013e2357","system_id":"levelo_inurba_marseille","lat":43.32828,"lon":5.36674,"is_reserved":false,"is_disabled":false,"rental_uris":{"android":"levelo://app?vid=6f67326a-1664-406f-9978-902e013e2357","ios":"levelo://app?vid=6f67326a-1664-406f-9978-902e013e2357"},"vehicle_type_id":"4","last_reported":1703538366,"current_range_meters":14000,"station_id":"ce4bhs92rcd13ifvqi0g","pricing_plan_id":"free"},{"bike_id":"d82e0fe3-0b0d-4ebc-8296-54c2b9d919cd","system_id":"levelo_inurba_marseille","lat":43.32833,"lon":5.36689,"is_reserved":false,"is_disabled":false,"rental_uris":{"android":"levelo://app?vid=d82e0fe3-0b0d-4ebc-8296-54c2b9d919cd","ios":"levelo://app?vid=d82e0fe3-0b0d-4ebc-8296-54c2b9d919cd"},"vehicle_type_id":"4","last_reported":1703538366,"current_range_meters":13200,"station_id":"ce4bhs92rcd13ifvqi0g","pricing_plan_id":"free"},{"bike_id":"0bb4153f-1504-485b-aa48-4570feec2be4","system_id":"levelo_inurba_marseille","lat":43.297163,"lon":5.365866,"is_reserved":false,"is_disabled":false,"rental_uris":{"android":"levelo://app?vid=0bb4153f-1504-485b-aa48-4570feec2be4","ios":"levelo://app?vid=0bb4153f-1504-485b-aa48-4570feec2be4"},"vehicle_type_id":"4","last_reported":1703538366,"current_range_meters":22000,"station_id":"ce4bgn12rcd13ifvqbt0","pricing_plan_id":"free"},{"bike_id":"a8e6e3d9-ce28-437e-9aa1-842db681aefa","system_id":"levelo_inurba_marseille","lat":43.2968,"lon":5.37291,"is_reserved":false,"is_disabled":false,"rental_uris":{"android":"levelo://app?vid=a8e6e3d9-ce28-437e-9aa1-842db681aefa","ios":"levelo://app?vid=a8e6e3d9-ce28-437e-9aa1-842db681aefa"},"vehicle_type_id":"4","last_reported":1703538366,"current_range_meters":28800,"station_id":"ce4bgk12rcd13ifvqbj0","pricing_plan_id":"free"},{"bike_id":"921b424d-ad0d-4c7a-9d74-66e3a49bfa19","system_id":"levelo_inurba_marseille","lat":43.32934,"lon":5.36612,"is_reserved":false,"is_disabled":false,"rental_uris":{"android":"levelo://app?vid=921b424d-ad0d-4c7a-9d74-66e3a49bfa19","ios":"levelo://app?vid=921b424d-ad0d-4c7a-9d74-66e3a49bfa19"},"vehicle_type_id":"4","last_reported":1703538366,"current_range_meters":23600,"station_id":"","pricing_plan_id":"free"},{"bike_id":"66f8b820-9601-495e-aed7-178b9a4c7b5b","system_id":"levelo_inurba_marseille","lat":43.296131,"lon":5.370773,"is_reserved":false,"is_disabled":false,"rental_uris":{"android":"levelo://app?vid=66f8b820-9601-495e-aed7-178b9a4c7b5b","ios":"levelo://app?vid=66f8b820-9601-495e-aed7-178b9a4c7b5b"},"vehicle_type_id":"4","last_reported":1703538366,"current_range_meters":16800,"station_id":"ce4bgnh2rcd13ifvqc0g","pricing_plan_id":"free"},{"bike_id":"06e957bd-df49-4d32-abc4-2e72cf631ab7","system_id":"levelo_inurba_marseille","lat":43.29573,"lon":5.367355,"is_reserved":false,"is_disabled":false,"rental_uris":{"android":"levelo://app?vid=06e957bd-df49-4d32-abc4-2e72cf631ab7","ios":"levelo://app?vid=06e957bd-df49-4d32-abc4-2e72cf631ab7"},"vehicle_type_id":"4","last_reported":1703538366,"current_range_meters":27200,"station_id":"ce4bgph2rcd13ifvqc2g","pricing_plan_id":"free"},{"bike_id":"168ff66e-d3f0-4405-8a42-4e492b51d94f","system_id":"levelo_inurba_marseille","lat":43.29582,"lon":5.36767,"is_reserved":false,"is_disabled":false,"rental_uris":{"android":"levelo://app?vid=168ff66e-d3f0-4405-8a42-4e492b51d94f","ios":"levelo://app?vid=168ff66e-d3f0-4405-8a42-4e492b51d94f"},"vehicle_type_id":"4","last_reported":1703538366,"current_range_meters":11600,"station_id":"ce4bgph2rcd13ifvqc2g","pricing_plan_id":"free"},{"bike_id":"f9420644-59a0-42e0-9e7d-7fb0b0dd81d2","system_id":"levelo_inurba_marseille","lat":43.296921,"lon":5.376579,"is_reserved":false,"is_disabled":false,"rental_uris":{"android":"levelo://app?vid=f9420644-59a0-42e0-9e7d-7fb0b0dd81d2","ios":"levelo://app?vid=f9420644-59a0-42e0-9e7d-7fb0b0dd81d2"},"vehicle_type_id":"4","last_reported":1703538366,"current_range_meters":30400,"station_id":"ce4bgkh2rcd13ifvqbl0","pricing_plan_id":"free"},{"bike_id":"89a283eb-dc87-422c-b7ed-761c11ff3d6f","system_id":"levelo_inurba_marseille","lat":43.309589,"lon":5.390258,"is_reserved":false,"is_disabled":false,"rental_uris":{"android":"levelo://app?vid=89a283eb-dc87-422c-b7ed-761c11ff3d6f","ios":"levelo://app?vid=89a283eb-dc87-422c-b7ed-761c11ff3d6f"},"vehicle_type_id":"4","last_reported":1703538366,"current_range_meters":26800,"station_id":"ce4bgup2rcd13ifvqco0","pricing_plan_id":"free"},{"bike_id":"f8f64ece-6363-4d47-8124-7f69d646e7b2","system_id":"levelo_inurba_marseille","lat":43.309589,"lon":5.390258,"is_reserved":false,"is_disabled":false,"rental_uris":{"android":"levelo://app?vid=f8f64ece-6363-4d47-8124-7f69d646e7b2","ios":"levelo://app?vid=f8f64ece-6363-4d47-8124-7f69d646e7b2"},"vehicle_type_id":"4","last_reported":1703538366,"current_range_meters":17200,"station_id":"ce4bgup2rcd13ifvqco0","pricing_plan_id":"free"},{"bike_id":"832e2173-c8ed-4c6f-a3b2-146af632aa3e","system_id":"levelo_inurba_marseille","lat":43.299028,"lon":5.381509,"is_reserved":false,"is_disabled":false,"rental_uris":{"android":"levelo://app?vid=832e2173-c8ed-4c6f-a3b2-146af632aa3e","ios":"levelo://app?vid=832e2173-c8ed-4c6f-a3b2-146af632aa3e"},"vehicle_type_id":"4","last_reported":1703538366,"current_range_meters":30800,"station_id":"ce4bgj12rcd13ifvqbc0","pricing_plan_id":"free"},{"bike_id":"90d9cf58-1dc5-4d8a-824f-802a3b33bbc1","system_id":"levelo_inurba_marseille","lat":43.317606,"lon":5.390155,"is_reserved":false,"is_disabled":false,"rental_uris":{"android":"levelo://app?vid=90d9cf58-1dc5-4d8a-824f-802a3b33bbc1","ios":"levelo://app?vid=90d9cf58-1dc5-4d8a-824f-802a3b33bbc1"},"vehicle_type_id":"4","last_reported":1703538366,"current_range_meters":28400,"station_id":"ce4bhqp2rcd13ifvqhng","pricing_plan_id":"free"},{"bike_id":"db4fc9cb-ac06-4925-99de-2b3414c2fe18","system_id":"levelo_inurba_marseille","lat":43.304274,"lon":5.388873,"is_reserved":false,"is_disabled":false,"rental_uris":{"android":"levelo://app?vid=db4fc9cb-ac06-4925-99de-2b3414c2fe18","ios":"levelo://app?vid=db4fc9cb-ac06-4925-99de-2b3414c2fe18"},"vehicle_type_id":"4","last_reported":1703538366,"current_range_meters":30800,"station_id":"ce4bgk12rcd13ifvqbi0","pricing_plan_id":"free"},{"bike_id":"3698a174-c9d0-4313-991e-4aeb2e4b52e8","system_id":"levelo_inurba_marseille","lat":43.309039,"lon":5.371797,"is_reserved":false,"is_disabled":false,"rental_uris":{"android":"levelo://app?vid=3698a174-c9d0-4313-991e-4aeb2e4b52e8","ios":"levelo://app?vid=3698a174-c9d0-4313-991e-4aeb2e4b52e8"},"vehicle_type_id":"4","last_reported":1703538366,"current_range_meters":10800,"station_id":"ce4bguh2rcd13ifvqckg","pricing_plan_id":"free"},{"bike_id":"f0f12ac5-1666-4a3a-a9a8-494990a6c085","system_id":"levelo_inurba_marseille","lat":43.32367,"lon":5.388836,"is_reserved":false,"is_disabled":false,"rental_uris":{"android":"levelo://app?vid=f0f12ac5-1666-4a3a-a9a8-494990a6c085","ios":"levelo://app?vid=f0f12ac5-1666-4a3a-a9a8-494990a6c085"},"vehicle_type_id":"4","last_reported":1703538366,"current_range_meters":19600,"station_id":"ce4bhqp2rcd13ifvqhog","pricing_plan_id":"free"},{"bike_id":"eef1f933-5063-4a69-8139-8df933d67171","system_id":"levelo_inurba_marseille","lat":43.29606,"lon":5.380985,"is_reserved":false,"is_disabled":false,"rental_uris":{"android":"levelo://app?vid=eef1f933-5063-4a69-8139-8df933d67171","ios":"levelo://app?vid=eef1f933-5063-4a69-8139-8df933d67171"},"vehicle_type_id":"4","last_reported":1703538366,"current_range_meters":21200,"station_id":"ce4bgl12rcd13ifvqbo0","pricing_plan_id":"free"},{"bike_id":"e995e259-3637-4863-9cd5-3d7156871c72","system_id":"levelo_inurba_marseille","lat":43.29602,"lon":5.381084,"is_reserved":false,"is_disabled":false,"rental_uris":{"android":"levelo://app?vid=e995e259-3637-4863-9cd5-3d7156871c72","ios":"levelo://app?vid=e995e259-3637-4863-9cd5-3d7156871c72"},"vehicle_type_id":"4","last_reported":1703538366,"current_range_meters":19200,"station_id":"ce4bgl12rcd13ifvqbo0","pricing_plan_id":"free"},{"bike_id":"6e6f338c-ecf0-4707-aeea-371d0cef4ce7","system_id":"levelo_inurba_marseille","lat":43.29602,"lon":5.381084,"is_reserved":false,"is_disabled":false,"rental_uris":{"android":"levelo://app?vid=6e6f338c-ecf0-4707-aeea-371d0cef4ce7","ios":"levelo://app?vid=6e6f338c-ecf0-4707-aeea-371d0cef4ce7"},"vehicle_type_id":"4","last_reported":1703538366,"current_range_meters":6800,"station_id":"ce4bgl12rcd13ifvqbo0","pricing_plan_id":"free"},{"bike_id":"9f7f291a-1702-46a9-8c45-de1ef52c3d1b","system_id":"levelo_inurba_marseille","lat":43.29602,"lon":5.381084,"is_reserved":false,"is_disabled":false,"rental_uris":{"android":"levelo://app?vid=9f7f291a-1702-46a9-8c45-de1ef52c3d1b","ios":"levelo://app?vid=9f7f291a-1702-46a9-8c45-de1ef52c3d1b"},"vehicle_type_id":"4","last_reported":1703538366,"current_range_meters":14000,"station_id":"ce4bgl12rcd13ifvqbo0","pricing_plan_id":"free"},{"bike_id":"e0f74817-3071-444d-9d77-cd26f5d66ea5","system_id":"levelo_inurba_marseille","lat":43.293259,"lon":5.371586,"is_reserved":false,"is_disabled":false,"rental_uris":{"android":"levelo://app?vid=e0f74817-3071-444d-9d77-cd26f5d66ea5","ios":"levelo://app?vid=e0f74817-3071-444d-9d77-cd26f5d66ea5"},"vehicle_type_id":"4","last_reported":1703538366,"current_range_meters":15600,"station_id":"ce4bgh92rcd13ifvqb40","pricing_plan_id":"free"},{"bike_id":"030d2fa3-310b-4963-800f-1cf053b25b8d","system_id":"levelo_inurba_marseille","lat":43.292749,"lon":5.368402,"is_reserved":false,"is_disabled":false,"rental_uris":{"android":"levelo://app?vid=030d2fa3-310b-4963-800f-1cf053b25b8d","ios":"levelo://app?vid=030d2fa3-310b-4963-800f-1cf053b25b8d"},"vehicle_type_id":"4","last_reported":1703538366,"current_range_meters":0,"station_id":"ce4bhbp2rcd13ifvqesg","pricing_plan_id":"free"},{"bike_id":"66090169-56d0-4327-ac4a-5a0739ff15e9","system_id":"levelo_inurba_marseille","lat":43.292749,"lon":5.368402,"is_reserved":false,"is_disabled":false,"rental_uris":{"android":"levelo://app?vid=66090169-56d0-4327-ac4a-5a0739ff15e9","ios":"levelo://app?vid=66090169-56d0-4327-ac4a-5a0739ff15e9"},"vehicle_type_id":"4","last_reported":1703538366,"current_range_meters":14400,"station_id":"ce4bhbp2rcd13ifvqesg","pricing_plan_id":"free"},{"bike_id":"06bd850f-eb79-4fca-bf70-822288b6fc83","system_id":"levelo_inurba_marseille","lat":43.292749,"lon":5.368402,"is_reserved":false,"is_disabled":false,"rental_uris":{"android":"levelo://app?vid=06bd850f-eb79-4fca-bf70-822288b6fc83","ios":"levelo://app?vid=06bd850f-eb79-4fca-bf70-822288b6fc83"},"vehicle_type_id":"4","last_reported":1703538366,"current_range_meters":6800,"station_id":"ce4bhbp2rcd13ifvqesg","pricing_plan_id":"free"},{"bike_id":"4d2763b8-5236-4d36-a485-5522b1a59298","system_id":"levelo_inurba_marseille","lat":43.292749,"lon":5.368402,"is_reserved":false,"is_disabled":false,"rental_uris":{"android":"levelo://app?vid=4d2763b8-5236-4d36-a485-5522b1a59298","ios":"levelo://app?vid=4d2763b8-5236-4d36-a485-5522b1a59298"},"vehicle_type_id":"4","last_reported":1703538366,"current_range_meters":12800,"station_id":"ce4bhbp2rcd13ifvqesg","pricing_plan_id":"free"},{"bike_id":"908e3f02-cb40-4717-807d-7922691c1e76","system_id":"levelo_inurba_marseille","lat":43.293009,"lon":5.374584,"is_reserved":false,"is_disabled":false,"rental_uris":{"android":"levelo://app?vid=908e3f02-cb40-4717-807d-7922691c1e76","ios":"levelo://app?vid=908e3f02-cb40-4717-807d-7922691c1e76"},"vehicle_type_id":"4","last_reported":1703538366,"current_range_meters":25600,"station_id":"ce4bgi12rcd13ifvqb70","pricing_plan_id":"free"},{"bike_id":"88faccf9-4dac-47c8-8fc3-abe94c500609","system_id":"levelo_inurba_marseille","lat":43.305994,"lon":5.393687,"is_reserved":false,"is_disabled":false,"rental_uris":{"android":"levelo://app?vid=88faccf9-4dac-47c8-8fc3-abe94c500609","ios":"levelo://app?vid=88faccf9-4dac-47c8-8fc3-abe94c500609"},"vehicle_type_id":"4","last_reported":1703538366,"current_range_meters":21600,"station_id":"ce4bh0p2rcd13ifvqd80","pricing_plan_id":"free"},{"bike_id":"3836ddd7-d479-4740-bc24-ff5fc507f761","system_id":"levelo_inurba_marseille","lat":43.305994,"lon":5.393687,"is_reserved":false,"is_disabled":false,"rental_uris":{"android":"levelo://app?vid=3836ddd7-d479-4740-bc24-ff5fc507f761","ios":"levelo://app?vid=3836ddd7-d479-4740-bc24-ff5fc507f761"},"vehicle_type_id":"4","last_reported":1703538366,"current_range_meters":2400,"station_id":"ce4bh0p2rcd13ifvqd80","pricing_plan_id":"free"},{"bike_id":"884182bf-3c6d-48d3-b8eb-c4065d87ab20","system_id":"levelo_inurba_marseille","lat":43.305994,"lon":5.393687,"is_reserved":false,"is_disabled":false,"rental_uris":{"android":"levelo://app?vid=884182bf-3c6d-48d3-b8eb-c4065d87ab20","ios":"levelo://app?vid=884182bf-3c6d-48d3-b8eb-c4065d87ab20"},"vehicle_type_id":"4","last_reported":1703538366,"current_range_meters":13200,"station_id":"ce4bh0p2rcd13ifvqd80","pricing_plan_id":"free"},{"bike_id":"4b5e2622-2241-45be-aeec-88aeebb5ac8e","system_id":"levelo_inurba_marseille","lat":43.293009,"lon":5.374584,"is_reserved":false,"is_disabled":false,"rental_uris":{"android":"levelo://app?vid=4b5e2622-2241-45be-aeec-88aeebb5ac8e","ios":"levelo://app?vid=4b5e2622-2241-45be-aeec-88aeebb5ac8e"},"vehicle_type_id":"4","last_reported":1703538366,"current_range_meters":28000,"station_id":"ce4bgi12rcd13ifvqb70","pricing_plan_id":"free"},{"bike_id":"017948cc-0888-48a5-8774-b81178370a52","system_id":"levelo_inurba_marseille","lat":43.305994,"lon":5.393687,"is_reserved":false,"is_disabled":false,"rental_uris":{"android":"levelo://app?vid=017948cc-0888-48a5-8774-b81178370a52","ios":"levelo://app?vid=017948cc-0888-48a5-8774-b81178370a52"},"vehicle_type_id":"4","last_reported":1703538366,"current_range_meters":4400,"station_id":"ce4bh0p2rcd13ifvqd80","pricing_plan_id":"free"},{"bike_id":"7b54090b-abd1-4186-8577-81595455f0f1","system_id":"levelo_inurba_marseille","lat":43.293009,"lon":5.374584,"is_reserved":false,"is_disabled":false,"rental_uris":{"android":"levelo://app?vid=7b54090b-abd1-4186-8577-81595455f0f1","ios":"levelo://app?vid=7b54090b-abd1-4186-8577-81595455f0f1"},"vehicle_type_id":"4","last_reported":1703538366,"current_range_meters":25200,"station_id":"ce4bgi12rcd13ifvqb70","pricing_plan_id":"free"},{"bike_id":"89867a69-c089-47be-910e-1c8a1d09a954","system_id":"levelo_inurba_marseille","lat":43.32586,"lon":5.38896,"is_reserved":false,"is_disabled":false,"rental_uris":{"android":"levelo://app?vid=89867a69-c089-47be-910e-1c8a1d09a954","ios":"levelo://app?vid=89867a69-c089-47be-910e-1c8a1d09a954"},"vehicle_type_id":"4","last_reported":1703538366,"current_range_meters":16400,"station_id":"","pricing_plan_id":"free"},{"bike_id":"9cdd4d54-1f83-4598-bf2c-8d1a82d18eb6","system_id":"levelo_inurba_marseille","lat":43.300852,"lon":5.390859,"is_reserved":false,"is_disabled":false,"rental_uris":{"android":"levelo://app?vid=9cdd4d54-1f83-4598-bf2c-8d1a82d18eb6","ios":"levelo://app?vid=9cdd4d54-1f83-4598-bf2c-8d1a82d18eb6"},"vehicle_type_id":"4","last_reported":1703538366,"current_range_meters":8800,"station_id":"ce4bh192rcd13ifvqdb0","pricing_plan_id":"free"},{"bike_id":"71634296-c8ee-4d85-9410-35340e19d460","system_id":"levelo_inurba_marseille","lat":43.300852,"lon":5.390859,"is_reserved":false,"is_disabled":false,"rental_uris":{"android":"levelo://app?vid=71634296-c8ee-4d85-9410-35340e19d460","ios":"levelo://app?vid=71634296-c8ee-4d85-9410-35340e19d460"},"vehicle_type_id":"4","last_reported":1703538366,"current_range_meters":31200,"station_id":"ce4bh192rcd13ifvqdb0","pricing_plan_id":"free"},{"bike_id":"cdd34418-3456-4602-98b7-45602e5418ad","system_id":"levelo_inurba_marseille","lat":43.30085,"lon":5.390856,"is_reserved":false,"is_disabled":false,"rental_uris":{"android":"levelo://app?vid=cdd34418-3456-4602-98b7-45602e5418ad","ios":"levelo://app?vid=cdd34418-3456-4602-98b7-45602e5418ad"},"vehicle_type_id":"4","last_reported":1703538366,"current_range_meters":28800,"station_id":"ce4bh192rcd13ifvqdb0","pricing_plan_id":"free"},{"bike_id":"2b8a7470-bf5d-4d76-95a7-5af72995e357","system_id":"levelo_inurba_marseille","lat":43.298752,"lon":5.389148,"is_reserved":false,"is_disabled":false,"rental_uris":{"android":"levelo://app?vid=2b8a7470-bf5d-4d76-95a7-5af72995e357","ios":"levelo://app?vid=2b8a7470-bf5d-4d76-95a7-5af72995e357"},"vehicle_type_id":"4","last_reported":1703538366,"current_range_meters":20400,"station_id":"","pricing_plan_id":"free"},{"bike_id":"16795684-1c67-4fd7-a6ea-58a1ad9d3782","system_id":"levelo_inurba_marseille","lat":43.309038,"lon":5.396546,"is_reserved":false,"is_disabled":false,"rental_uris":{"android":"levelo://app?vid=16795684-1c67-4fd7-a6ea-58a1ad9d3782","ios":"levelo://app?vid=16795684-1c67-4fd7-a6ea-58a1ad9d3782"},"vehicle_type_id":"4","last_reported":1703538366,"current_range_meters":23600,"station_id":"ce4bh012rcd13ifvqcv0","pricing_plan_id":"free"},{"bike_id":"a4894250-475a-4850-803d-b1f1e47758c8","system_id":"levelo_inurba_marseille","lat":43.309038,"lon":5.396546,"is_reserved":false,"is_disabled":false,"rental_uris":{"android":"levelo://app?vid=a4894250-475a-4850-803d-b1f1e47758c8","ios":"levelo://app?vid=a4894250-475a-4850-803d-b1f1e47758c8"},"vehicle_type_id":"4","last_reported":1703538366,"current_range_meters":28800,"station_id":"ce4bh012rcd13ifvqcv0","pricing_plan_id":"free"},{"bike_id":"511b17e2-5e78-4d33-84c5-ce65cb435dd6","system_id":"levelo_inurba_marseille","lat":43.291994,"lon":5.357886,"is_reserved":false,"is_disabled":false,"rental_uris":{"android":"levelo://app?vid=511b17e2-5e78-4d33-84c5-ce65cb435dd6","ios":"levelo://app?vid=511b17e2-5e78-4d33-84c5-ce65cb435dd6"},"vehicle_type_id":"4","last_reported":1703538366,"current_range_meters":22800,"station_id":"ce4bhb12rcd13ifvqel0","pricing_plan_id":"free"},{"bike_id":"5b23cfcf-e3f7-4476-a240-b688ce204afb","system_id":"levelo_inurba_marseille","lat":43.309038,"lon":5.396546,"is_reserved":false,"is_disabled":false,"rental_uris":{"android":"levelo://app?vid=5b23cfcf-e3f7-4476-a240-b688ce204afb","ios":"levelo://app?vid=5b23cfcf-e3f7-4476-a240-b688ce204afb"},"vehicle_type_id":"4","last_reported":1703538366,"current_range_meters":30800,"station_id":"ce4bh012rcd13ifvqcv0","pricing_plan_id":"free"},{"bike_id":"cbf87d32-5f9f-4e25-8d2a-c13a87fd1b81","system_id":"levelo_inurba_marseille","lat":43.309038,"lon":5.396546,"is_reserved":false,"is_disabled":false,"rental_uris":{"android":"levelo://app?vid=cbf87d32-5f9f-4e25-8d2a-c13a87fd1b81","ios":"levelo://app?vid=cbf87d32-5f9f-4e25-8d2a-c13a87fd1b81"},"vehicle_type_id":"4","last_reported":1703538366,"current_range_meters":23600,"station_id":"ce4bh012rcd13ifvqcv0","pricing_plan_id":"free"},{"bike_id":"2050bbd9-9ea3-4674-a01e-c5ff6f9b8ab7","system_id":"levelo_inurba_marseille","lat":43.313291,"lon":5.396838,"is_reserved":false,"is_disabled":false,"rental_uris":{"android":"levelo://app?vid=2050bbd9-9ea3-4674-a01e-c5ff6f9b8ab7","ios":"levelo://app?vid=2050bbd9-9ea3-4674-a01e-c5ff6f9b8ab7"},"vehicle_type_id":"4","last_reported":1703538366,"current_range_meters":13600,"station_id":"ce4bgvp2rcd13ifvqcu0","pricing_plan_id":"free"},{"bike_id":"3b6a2954-e5f3-459d-a612-236a61fd8a06","system_id":"levelo_inurba_marseille","lat":43.313291,"lon":5.396838,"is_reserved":false,"is_disabled":false,"rental_uris":{"android":"levelo://app?vid=3b6a2954-e5f3-459d-a612-236a61fd8a06","ios":"levelo://app?vid=3b6a2954-e5f3-459d-a612-236a61fd8a06"},"vehicle_type_id":"4","last_reported":1703538366,"current_range_meters":31200,"station_id":"ce4bgvp2rcd13ifvqcu0","pricing_plan_id":"free"},{"bike_id":"a09ebeed-7558-444f-95b7-aa722d223366","system_id":"levelo_inurba_marseille","lat":43.308808,"lon":5.396431,"is_reserved":false,"is_disabled":false,"rental_uris":{"android":"levelo://app?vid=a09ebeed-7558-444f-95b7-aa722d223366","ios":"levelo://app?vid=a09ebeed-7558-444f-95b7-aa722d223366"},"vehicle_type_id":"4","last_reported":1703538366,"current_range_meters":31200,"station_id":"ce4bh012rcd13ifvqcv0","pricing_plan_id":"free"},{"bike_id":"559788c7-5ce5-4749-98b3-3bfad09f16ba","system_id":"levelo_inurba_marseille","lat":43.313291,"lon":5.396838,"is_reserved":false,"is_disabled":false,"rental_uris":{"android":"levelo://app?vid=559788c7-5ce5-4749-98b3-3bfad09f16ba","ios":"levelo://app?vid=559788c7-5ce5-4749-98b3-3bfad09f16ba"},"vehicle_type_id":"4","last_reported":1703538366,"current_range_meters":24400,"station_id":"ce4bgvp2rcd13ifvqcu0","pricing_plan_id":"free"},{"bike_id":"fd7106b3-1b00-4cfd-b7e1-bebc56a9f351","system_id":"levelo_inurba_marseille","lat":43.313291,"lon":5.396838,"is_reserved":false,"is_disabled":false,"rental_uris":{"android":"levelo://app?vid=fd7106b3-1b00-4cfd-b7e1-bebc56a9f351","ios":"levelo://app?vid=fd7106b3-1b00-4cfd-b7e1-bebc56a9f351"},"vehicle_type_id":"4","last_reported":1703538366,"current_range_meters":22000,"station_id":"ce4bgvp2rcd13ifvqcu0","pricing_plan_id":"free"},{"bike_id":"03e32cbe-5393-440a-870a-77f5f867ef4f","system_id":"levelo_inurba_marseille","lat":43.309038,"lon":5.396546,"is_reserved":false,"is_disabled":false,"rental_uris":{"android":"levelo://app?vid=03e32cbe-5393-440a-870a-77f5f867ef4f","ios":"levelo://app?vid=03e32cbe-5393-440a-870a-77f5f867ef4f"},"vehicle_type_id":"4","last_reported":1703538366,"current_range_meters":27600,"station_id":"ce4bh012rcd13ifvqcv0","pricing_plan_id":"free"},{"bike_id":"9fc0733d-48bb-4d05-b1dc-f3030d55ee08","system_id":"levelo_inurba_marseille","lat":43.29529,"lon":5.385581,"is_reserved":false,"is_disabled":false,"rental_uris":{"android":"levelo://app?vid=9fc0733d-48bb-4d05-b1dc-f3030d55ee08","ios":"levelo://app?vid=9fc0733d-48bb-4d05-b1dc-f3030d55ee08"},"vehicle_type_id":"4","last_reported":1703538366,"current_range_meters":22000,"station_id":"ce4bgih2rcd13ifvqba0","pricing_plan_id":"free"},{"bike_id":"6098573f-4343-4363-b89f-9c71a3092806","system_id":"levelo_inurba_marseille","lat":43.290624,"lon":5.359245,"is_reserved":false,"is_disabled":false,"rental_uris":{"android":"levelo://app?vid=6098573f-4343-4363-b89f-9c71a3092806","ios":"levelo://app?vid=6098573f-4343-4363-b89f-9c71a3092806"},"vehicle_type_id":"4","last_reported":1703538366,"current_range_meters":30400,"station_id":"ce4bha92rcd13ifvqeg0","pricing_plan_id":"free"},{"bike_id":"ebef7b0e-3f21-4ee3-aeb3-e5539fa2d1bb","system_id":"levelo_inurba_marseille","lat":43.294153,"lon":5.386305,"is_reserved":false,"is_disabled":false,"rental_uris":{"android":"levelo://app?vid=ebef7b0e-3f21-4ee3-aeb3-e5539fa2d1bb","ios":"levelo://app?vid=ebef7b0e-3f21-4ee3-aeb3-e5539fa2d1bb"},"vehicle_type_id":"4","last_reported":1703538366,"current_range_meters":29600,"station_id":"ce4bh2h2rcd13ifvqdh0","pricing_plan_id":"free"},{"bike_id":"ff88f555-097f-4a79-ac5f-eae2de664228","system_id":"levelo_inurba_marseille","lat":43.29419,"lon":5.38623,"is_reserved":false,"is_disabled":false,"rental_uris":{"android":"levelo://app?vid=ff88f555-097f-4a79-ac5f-eae2de664228","ios":"levelo://app?vid=ff88f555-097f-4a79-ac5f-eae2de664228"},"vehicle_type_id":"4","last_reported":1703538366,"current_range_meters":6000,"station_id":"ce4bh2h2rcd13ifvqdh0","pricing_plan_id":"free"},{"bike_id":"afd6cb5c-b28a-4fbf-80f9-474cfc097466","system_id":"levelo_inurba_marseille","lat":43.294153,"lon":5.386305,"is_reserved":false,"is_disabled":false,"rental_uris":{"android":"levelo://app?vid=afd6cb5c-b28a-4fbf-80f9-474cfc097466","ios":"levelo://app?vid=afd6cb5c-b28a-4fbf-80f9-474cfc097466"},"vehicle_type_id":"4","last_reported":1703538366,"current_range_meters":20400,"station_id":"ce4bh2h2rcd13ifvqdh0","pricing_plan_id":"free"},{"bike_id":"86a8c4f5-29f4-4775-a780-1b2a5a0c7117","system_id":"levelo_inurba_marseille","lat":43.294162,"lon":5.386292,"is_reserved":false,"is_disabled":false,"rental_uris":{"android":"levelo://app?vid=86a8c4f5-29f4-4775-a780-1b2a5a0c7117","ios":"levelo://app?vid=86a8c4f5-29f4-4775-a780-1b2a5a0c7117"},"vehicle_type_id":"4","last_reported":1703538366,"current_range_meters":24000,"station_id":"ce4bh2h2rcd13ifvqdh0","pricing_plan_id":"free"},{"bike_id":"62bf6474-2f5b-467a-9de4-44c81cb637ee","system_id":"levelo_inurba_marseille","lat":43.289184,"lon":5.366408,"is_reserved":false,"is_disabled":false,"rental_uris":{"android":"levelo://app?vid=62bf6474-2f5b-467a-9de4-44c81cb637ee","ios":"levelo://app?vid=62bf6474-2f5b-467a-9de4-44c81cb637ee"},"vehicle_type_id":"4","last_reported":1703538366,"current_range_meters":31200,"station_id":"ce4bhap2rcd13ifvqek0","pricing_plan_id":"free"},{"bike_id":"f64b2816-740f-4ed3-9c66-5f8302a4b6ad","system_id":"levelo_inurba_marseille","lat":43.289184,"lon":5.366408,"is_reserved":false,"is_disabled":false,"rental_uris":{"android":"levelo://app?vid=f64b2816-740f-4ed3-9c66-5f8302a4b6ad","ios":"levelo://app?vid=f64b2816-740f-4ed3-9c66-5f8302a4b6ad"},"vehicle_type_id":"4","last_reported":1703538366,"current_range_meters":18000,"station_id":"ce4bhap2rcd13ifvqek0","pricing_plan_id":"free"},{"bike_id":"97ba2e97-6116-4a29-ba9d-47a0f6dd5782","system_id":"levelo_inurba_marseille","lat":43.289184,"lon":5.366408,"is_reserved":false,"is_disabled":false,"rental_uris":{"android":"levelo://app?vid=97ba2e97-6116-4a29-ba9d-47a0f6dd5782","ios":"levelo://app?vid=97ba2e97-6116-4a29-ba9d-47a0f6dd5782"},"vehicle_type_id":"4","last_reported":1703538366,"current_range_meters":31200,"station_id":"ce4bhap2rcd13ifvqek0","pricing_plan_id":"free"},{"bike_id":"c1dddbb1-6e43-4a11-9a98-1329171787de","system_id":"levelo_inurba_marseille","lat":43.289468,"lon":5.363719,"is_reserved":false,"is_disabled":false,"rental_uris":{"android":"levelo://app?vid=c1dddbb1-6e43-4a11-9a98-1329171787de","ios":"levelo://app?vid=c1dddbb1-6e43-4a11-9a98-1329171787de"},"vehicle_type_id":"4","last_reported":1703538366,"current_range_meters":26800,"station_id":"ce4bhc92rcd13ifvqetg","pricing_plan_id":"free"},{"bike_id":"0c796245-0468-4d2d-a7ff-ee305d874b7c","system_id":"levelo_inurba_marseille","lat":43.292644,"lon":5.384257,"is_reserved":false,"is_disabled":false,"rental_uris":{"android":"levelo://app?vid=0c796245-0468-4d2d-a7ff-ee305d874b7c","ios":"levelo://app?vid=0c796245-0468-4d2d-a7ff-ee305d874b7c"},"vehicle_type_id":"4","last_reported":1703538366,"current_range_meters":29200,"station_id":"ce4bh692rcd13ifvqea0","pricing_plan_id":"free"},{"bike_id":"03342be2-5666-4997-b837-dc351b246f83","system_id":"levelo_inurba_marseille","lat":43.292644,"lon":5.384257,"is_reserved":false,"is_disabled":false,"rental_uris":{"android":"levelo://app?vid=03342be2-5666-4997-b837-dc351b246f83","ios":"levelo://app?vid=03342be2-5666-4997-b837-dc351b246f83"},"vehicle_type_id":"4","last_reported":1703538366,"current_range_meters":18800,"station_id":"ce4bh692rcd13ifvqea0","pricing_plan_id":"free"},{"bike_id":"6e812414-33cc-4863-bb40-464f078725e9","system_id":"levelo_inurba_marseille","lat":43.290995,"lon":5.381361,"is_reserved":false,"is_disabled":false,"rental_uris":{"android":"levelo://app?vid=6e812414-33cc-4863-bb40-464f078725e9","ios":"levelo://app?vid=6e812414-33cc-4863-bb40-464f078725e9"},"vehicle_type_id":"4","last_reported":1703538366,"current_range_meters":16800,"station_id":"ce4bh512rcd13ifvqe2g","pricing_plan_id":"free"},{"bike_id":"4ac28f22-dcba-4116-9e3b-a1e232acf836","system_id":"levelo_inurba_marseille","lat":43.290103,"lon":5.356114,"is_reserved":false,"is_disabled":false,"rental_uris":{"android":"levelo://app?vid=4ac28f22-dcba-4116-9e3b-a1e232acf836","ios":"levelo://app?vid=4ac28f22-dcba-4116-9e3b-a1e232acf836"},"vehicle_type_id":"4","last_reported":1703538366,"current_range_meters":0,"station_id":"ce4bhb92rcd13ifvqen0","pricing_plan_id":"free"},{"bike_id":"328114d6-9072-4b5c-8f28-0299e432fd1b","system_id":"levelo_inurba_marseille","lat":43.29795,"lon":5.393394,"is_reserved":false,"is_disabled":false,"rental_uris":{"android":"levelo://app?vid=328114d6-9072-4b5c-8f28-0299e432fd1b","ios":"levelo://app?vid=328114d6-9072-4b5c-8f28-0299e432fd1b"},"vehicle_type_id":"4","last_reported":1703538366,"current_range_meters":5200,"station_id":"chh1huq6cuj3fo74tm60","pricing_plan_id":"free"},{"bike_id":"22313407-9d09-435f-b158-10ab3c8b5aa7","system_id":"levelo_inurba_marseille","lat":43.297865,"lon":5.393385,"is_reserved":false,"is_disabled":false,"rental_uris":{"android":"levelo://app?vid=22313407-9d09-435f-b158-10ab3c8b5aa7","ios":"levelo://app?vid=22313407-9d09-435f-b158-10ab3c8b5aa7"},"vehicle_type_id":"4","last_reported":1703538366,"current_range_meters":31200,"station_id":"chh1huq6cuj3fo74tm60","pricing_plan_id":"free"},{"bike_id":"bb83dc45-e053-4450-9e74-a139377979fd","system_id":"levelo_inurba_marseille","lat":43.297868,"lon":5.393399,"is_reserved":false,"is_disabled":false,"rental_uris":{"android":"levelo://app?vid=bb83dc45-e053-4450-9e74-a139377979fd","ios":"levelo://app?vid=bb83dc45-e053-4450-9e74-a139377979fd"},"vehicle_type_id":"4","last_reported":1703538366,"current_range_meters":12400,"station_id":"chh1huq6cuj3fo74tm60","pricing_plan_id":"free"},{"bike_id":"691c519e-00a0-4cdd-a6c1-8902066bf3de","system_id":"levelo_inurba_marseille","lat":43.330442,"lon":5.389148,"is_reserved":false,"is_disabled":false,"rental_uris":{"android":"levelo://app?vid=691c519e-00a0-4cdd-a6c1-8902066bf3de","ios":"levelo://app?vid=691c519e-00a0-4cdd-a6c1-8902066bf3de"},"vehicle_type_id":"4","last_reported":1703538366,"current_range_meters":0,"station_id":"ce4bhr92rcd13ifvqhrg","pricing_plan_id":"free"},{"bike_id":"5d1bde58-2c7b-438a-bd37-7bc100df62bf","system_id":"levelo_inurba_marseille","lat":43.33024,"lon":5.39037,"is_reserved":false,"is_disabled":false,"rental_uris":{"android":"levelo://app?vid=5d1bde58-2c7b-438a-bd37-7bc100df62bf","ios":"levelo://app?vid=5d1bde58-2c7b-438a-bd37-7bc100df62bf"},"vehicle_type_id":"4","last_reported":1703538366,"current_range_meters":16000,"station_id":"","pricing_plan_id":"free"},{"bike_id":"d66ba10a-fb8d-42bb-8cca-f983f5659773","system_id":"levelo_inurba_marseille","lat":43.330442,"lon":5.389148,"is_reserved":false,"is_disabled":false,"rental_uris":{"android":"levelo://app?vid=d66ba10a-fb8d-42bb-8cca-f983f5659773","ios":"levelo://app?vid=d66ba10a-fb8d-42bb-8cca-f983f5659773"},"vehicle_type_id":"4","last_reported":1703538366,"current_range_meters":11600,"station_id":"ce4bhr92rcd13ifvqhrg","pricing_plan_id":"free"},{"bike_id":"0bd10147-3df6-4a4c-989a-00c9b33d7e47","system_id":"levelo_inurba_marseille","lat":43.330442,"lon":5.389148,"is_reserved":false,"is_disabled":false,"rental_uris":{"android":"levelo://app?vid=0bd10147-3df6-4a4c-989a-00c9b33d7e47","ios":"levelo://app?vid=0bd10147-3df6-4a4c-989a-00c9b33d7e47"},"vehicle_type_id":"4","last_reported":1703538366,"current_range_meters":6800,"station_id":"ce4bhr92rcd13ifvqhrg","pricing_plan_id":"free"},{"bike_id":"7244b12c-a4ed-4fcc-a53c-0222ae84e7e2","system_id":"levelo_inurba_marseille","lat":43.33118,"lon":5.389753,"is_reserved":false,"is_disabled":false,"rental_uris":{"android":"levelo://app?vid=7244b12c-a4ed-4fcc-a53c-0222ae84e7e2","ios":"levelo://app?vid=7244b12c-a4ed-4fcc-a53c-0222ae84e7e2"},"vehicle_type_id":"4","last_reported":1703538366,"current_range_meters":28800,"station_id":"","pricing_plan_id":"free"},{"bike_id":"291658fa-737f-44e3-8f51-20fce16db607","system_id":"levelo_inurba_marseille","lat":43.290094,"lon":5.381264,"is_reserved":false,"is_disabled":false,"rental_uris":{"android":"levelo://app?vid=291658fa-737f-44e3-8f51-20fce16db607","ios":"levelo://app?vid=291658fa-737f-44e3-8f51-20fce16db607"},"vehicle_type_id":"4","last_reported":1703538366,"current_range_meters":11600,"station_id":"ce4bh4p2rcd13ifvqe1g","pricing_plan_id":"free"},{"bike_id":"4aac448d-ea19-4dee-b69b-8b32bd67559b","system_id":"levelo_inurba_marseille","lat":43.28856,"lon":5.358371,"is_reserved":false,"is_disabled":false,"rental_uris":{"android":"levelo://app?vid=4aac448d-ea19-4dee-b69b-8b32bd67559b","ios":"levelo://app?vid=4aac448d-ea19-4dee-b69b-8b32bd67559b"},"vehicle_type_id":"4","last_reported":1703538366,"current_range_meters":11600,"station_id":"ce4bhb12rcd13ifvqem0","pricing_plan_id":"free"},{"bike_id":"a32b0f98-c5b3-4da9-8322-44322d6de289","system_id":"levelo_inurba_marseille","lat":43.312609,"lon":5.401662,"is_reserved":false,"is_disabled":false,"rental_uris":{"android":"levelo://app?vid=a32b0f98-c5b3-4da9-8322-44322d6de289","ios":"levelo://app?vid=a32b0f98-c5b3-4da9-8322-44322d6de289"},"vehicle_type_id":"4","last_reported":1703538366,"current_range_meters":5600,"station_id":"ce4bh092rcd13ifvqd30","pricing_plan_id":"free"},{"bike_id":"5dfb9a39-c58e-4b57-bbe1-da39b9ae7ab4","system_id":"levelo_inurba_marseille","lat":43.30933,"lon":5.4015,"is_reserved":false,"is_disabled":false,"rental_uris":{"android":"levelo://app?vid=5dfb9a39-c58e-4b57-bbe1-da39b9ae7ab4","ios":"levelo://app?vid=5dfb9a39-c58e-4b57-bbe1-da39b9ae7ab4"},"vehicle_type_id":"4","last_reported":1703538366,"current_range_meters":0,"station_id":"ce4bgvp2rcd13ifvqct0","pricing_plan_id":"free"},{"bike_id":"75637737-35ea-4ea3-a8b3-22367431bccc","system_id":"levelo_inurba_marseille","lat":43.30642,"lon":5.401031,"is_reserved":false,"is_disabled":false,"rental_uris":{"android":"levelo://app?vid=75637737-35ea-4ea3-a8b3-22367431bccc","ios":"levelo://app?vid=75637737-35ea-4ea3-a8b3-22367431bccc"},"vehicle_type_id":"4","last_reported":1703538366,"current_range_meters":17200,"station_id":"ce4bh112rcd13ifvqda0","pricing_plan_id":"free"},{"bike_id":"ce2d60e5-1919-4a57-b910-f2369d6bbcee","system_id":"levelo_inurba_marseille","lat":43.301117,"lon":5.398795,"is_reserved":false,"is_disabled":false,"rental_uris":{"android":"levelo://app?vid=ce2d60e5-1919-4a57-b910-f2369d6bbcee","ios":"levelo://app?vid=ce2d60e5-1919-4a57-b910-f2369d6bbcee"},"vehicle_type_id":"4","last_reported":1703538366,"current_range_meters":16400,"station_id":"ce4bh0h2rcd13ifvqd40","pricing_plan_id":"free"},{"bike_id":"1dc0891e-bdae-4471-9be5-e8ba59d42c01","system_id":"levelo_inurba_marseille","lat":43.28727,"lon":5.36078,"is_reserved":false,"is_disabled":false,"rental_uris":{"android":"levelo://app?vid=1dc0891e-bdae-4471-9be5-e8ba59d42c01","ios":"levelo://app?vid=1dc0891e-bdae-4471-9be5-e8ba59d42c01"},"vehicle_type_id":"4","last_reported":1703538366,"current_range_meters":27200,"station_id":"cki0cbj6b192h4jlfktg","pricing_plan_id":"free"},{"bike_id":"4c73b77b-19bd-43ef-a3ea-8d96fd96cd22","system_id":"levelo_inurba_marseille","lat":43.298764,"lon":5.39733,"is_reserved":false,"is_disabled":false,"rental_uris":{"android":"levelo://app?vid=4c73b77b-19bd-43ef-a3ea-8d96fd96cd22","ios":"levelo://app?vid=4c73b77b-19bd-43ef-a3ea-8d96fd96cd22"},"vehicle_type_id":"4","last_reported":1703538366,"current_range_meters":11600,"station_id":"ce4bh0h2rcd13ifvqd50","pricing_plan_id":"free"},{"bike_id":"790ac815-6fb3-4772-9fb6-1d8b35d6fe27","system_id":"levelo_inurba_marseille","lat":43.286961,"lon":5.373785,"is_reserved":false,"is_disabled":false,"rental_uris":{"android":"levelo://app?vid=790ac815-6fb3-4772-9fb6-1d8b35d6fe27","ios":"levelo://app?vid=790ac815-6fb3-4772-9fb6-1d8b35d6fe27"},"vehicle_type_id":"4","last_reported":1703538366,"current_range_meters":31200,"station_id":"ce4bh3p2rcd13ifvqdq0","pricing_plan_id":"free"},{"bike_id":"f1e6b07c-b097-4f5e-a548-e044341b46f6","system_id":"levelo_inurba_marseille","lat":43.286961,"lon":5.373785,"is_reserved":false,"is_disabled":false,"rental_uris":{"android":"levelo://app?vid=f1e6b07c-b097-4f5e-a548-e044341b46f6","ios":"levelo://app?vid=f1e6b07c-b097-4f5e-a548-e044341b46f6"},"vehicle_type_id":"4","last_reported":1703538366,"current_range_meters":21200,"station_id":"ce4bh3p2rcd13ifvqdq0","pricing_plan_id":"free"},{"bike_id":"9496b644-3f9b-4d7b-9bed-90d4d931946f","system_id":"levelo_inurba_marseille","lat":43.290345,"lon":5.38646,"is_reserved":false,"is_disabled":false,"rental_uris":{"android":"levelo://app?vid=9496b644-3f9b-4d7b-9bed-90d4d931946f","ios":"levelo://app?vid=9496b644-3f9b-4d7b-9bed-90d4d931946f"},"vehicle_type_id":"4","last_reported":1703538366,"current_range_meters":22000,"station_id":"ce4bh4p2rcd13ifvqe0g","pricing_plan_id":"free"},{"bike_id":"137bbfc5-9177-4077-99a9-f5aca3ded894","system_id":"levelo_inurba_marseille","lat":43.290345,"lon":5.38646,"is_reserved":false,"is_disabled":false,"rental_uris":{"android":"levelo://app?vid=137bbfc5-9177-4077-99a9-f5aca3ded894","ios":"levelo://app?vid=137bbfc5-9177-4077-99a9-f5aca3ded894"},"vehicle_type_id":"4","last_reported":1703538366,"current_range_meters":31600,"station_id":"ce4bh4p2rcd13ifvqe0g","pricing_plan_id":"free"},{"bike_id":"a4f81d61-acdb-444b-af8b-b6298de33ea6","system_id":"levelo_inurba_marseille","lat":43.290345,"lon":5.38646,"is_reserved":false,"is_disabled":false,"rental_uris":{"android":"levelo://app?vid=a4f81d61-acdb-444b-af8b-b6298de33ea6","ios":"levelo://app?vid=a4f81d61-acdb-444b-af8b-b6298de33ea6"},"vehicle_type_id":"4","last_reported":1703538366,"current_range_meters":30000,"station_id":"ce4bh4p2rcd13ifvqe0g","pricing_plan_id":"free"},{"bike_id":"6f48802a-aabd-4cbf-92b7-90c8ca1b4c16","system_id":"levelo_inurba_marseille","lat":43.290345,"lon":5.38646,"is_reserved":false,"is_disabled":false,"rental_uris":{"android":"levelo://app?vid=6f48802a-aabd-4cbf-92b7-90c8ca1b4c16","ios":"levelo://app?vid=6f48802a-aabd-4cbf-92b7-90c8ca1b4c16"},"vehicle_type_id":"4","last_reported":1703538366,"current_range_meters":31600,"station_id":"ce4bh4p2rcd13ifvqe0g","pricing_plan_id":"free"},{"bike_id":"a0b03d8e-4166-4eac-aae3-14551c30d7f6","system_id":"levelo_inurba_marseille","lat":43.289307,"lon":5.38406,"is_reserved":false,"is_disabled":false,"rental_uris":{"android":"levelo://app?vid=a0b03d8e-4166-4eac-aae3-14551c30d7f6","ios":"levelo://app?vid=a0b03d8e-4166-4eac-aae3-14551c30d7f6"},"vehicle_type_id":"4","last_reported":1703538366,"current_range_meters":21200,"station_id":"ce4bh612rcd13ifvqe6g","pricing_plan_id":"free"},{"bike_id":"58287bc2-f798-447f-98f0-1feb0986d5f9","system_id":"levelo_inurba_marseille","lat":43.289307,"lon":5.38406,"is_reserved":false,"is_disabled":false,"rental_uris":{"android":"levelo://app?vid=58287bc2-f798-447f-98f0-1feb0986d5f9","ios":"levelo://app?vid=58287bc2-f798-447f-98f0-1feb0986d5f9"},"vehicle_type_id":"4","last_reported":1703538366,"current_range_meters":8800,"station_id":"ce4bh612rcd13ifvqe6g","pricing_plan_id":"free"},{"bike_id":"9d25bbe6-6121-406d-8803-a340738149c8","system_id":"levelo_inurba_marseille","lat":43.289307,"lon":5.38406,"is_reserved":false,"is_disabled":false,"rental_uris":{"android":"levelo://app?vid=9d25bbe6-6121-406d-8803-a340738149c8","ios":"levelo://app?vid=9d25bbe6-6121-406d-8803-a340738149c8"},"vehicle_type_id":"4","last_reported":1703538366,"current_range_meters":27200,"station_id":"ce4bh612rcd13ifvqe6g","pricing_plan_id":"free"},{"bike_id":"d59e8884-ab49-4eee-b8d1-c25f52a7bbc0","system_id":"levelo_inurba_marseille","lat":43.290345,"lon":5.38646,"is_reserved":false,"is_disabled":false,"rental_uris":{"android":"levelo://app?vid=d59e8884-ab49-4eee-b8d1-c25f52a7bbc0","ios":"levelo://app?vid=d59e8884-ab49-4eee-b8d1-c25f52a7bbc0"},"vehicle_type_id":"4","last_reported":1703538366,"current_range_meters":30400,"station_id":"ce4bh4p2rcd13ifvqe0g","pricing_plan_id":"free"},{"bike_id":"69043c95-7f11-44e3-9d9e-48493c9210d8","system_id":"levelo_inurba_marseille","lat":43.289307,"lon":5.38406,"is_reserved":false,"is_disabled":false,"rental_uris":{"android":"levelo://app?vid=69043c95-7f11-44e3-9d9e-48493c9210d8","ios":"levelo://app?vid=69043c95-7f11-44e3-9d9e-48493c9210d8"},"vehicle_type_id":"4","last_reported":1703538366,"current_range_meters":31200,"station_id":"ce4bh612rcd13ifvqe6g","pricing_plan_id":"free"},{"bike_id":"0431ec8b-6049-49b5-957e-db1ca8357dbd","system_id":"levelo_inurba_marseille","lat":43.302759,"lon":5.400793,"is_reserved":false,"is_disabled":false,"rental_uris":{"android":"levelo://app?vid=0431ec8b-6049-49b5-957e-db1ca8357dbd","ios":"levelo://app?vid=0431ec8b-6049-49b5-957e-db1ca8357dbd"},"vehicle_type_id":"4","last_reported":1703538366,"current_range_meters":9200,"station_id":"ce4bgvh2rcd13ifvqcs0","pricing_plan_id":"free"},{"bike_id":"52c029a7-64b7-4ecb-8d86-7dad3ee1d688","system_id":"levelo_inurba_marseille","lat":43.290336,"lon":5.386425,"is_reserved":false,"is_disabled":false,"rental_uris":{"android":"levelo://app?vid=52c029a7-64b7-4ecb-8d86-7dad3ee1d688","ios":"levelo://app?vid=52c029a7-64b7-4ecb-8d86-7dad3ee1d688"},"vehicle_type_id":"4","last_reported":1703538366,"current_range_meters":26000,"station_id":"ce4bh4p2rcd13ifvqe0g","pricing_plan_id":"free"},{"bike_id":"cf47eae7-64a8-4b5f-8cd7-ad467acd2fa2","system_id":"levelo_inurba_marseille","lat":43.290336,"lon":5.386425,"is_reserved":false,"is_disabled":false,"rental_uris":{"android":"levelo://app?vid=cf47eae7-64a8-4b5f-8cd7-ad467acd2fa2","ios":"levelo://app?vid=cf47eae7-64a8-4b5f-8cd7-ad467acd2fa2"},"vehicle_type_id":"4","last_reported":1703538366,"current_range_meters":20400,"station_id":"ce4bh4p2rcd13ifvqe0g","pricing_plan_id":"free"},{"bike_id":"6eb8d9bf-bb36-4f48-939a-2a05e59dc9ed","system_id":"levelo_inurba_marseille","lat":43.289307,"lon":5.38406,"is_reserved":false,"is_disabled":false,"rental_uris":{"android":"levelo://app?vid=6eb8d9bf-bb36-4f48-939a-2a05e59dc9ed","ios":"levelo://app?vid=6eb8d9bf-bb36-4f48-939a-2a05e59dc9ed"},"vehicle_type_id":"4","last_reported":1703538366,"current_range_meters":2800,"station_id":"ce4bh612rcd13ifvqe6g","pricing_plan_id":"free"},{"bike_id":"6408d4aa-7c57-4eee-bc6a-0f58515e5063","system_id":"levelo_inurba_marseille","lat":43.302759,"lon":5.400793,"is_reserved":false,"is_disabled":false,"rental_uris":{"android":"levelo://app?vid=6408d4aa-7c57-4eee-bc6a-0f58515e5063","ios":"levelo://app?vid=6408d4aa-7c57-4eee-bc6a-0f58515e5063"},"vehicle_type_id":"4","last_reported":1703538366,"current_range_meters":30000,"station_id":"ce4bgvh2rcd13ifvqcs0","pricing_plan_id":"free"},{"bike_id":"37fd181b-6d2e-4d1f-a271-afd41a974b1f","system_id":"levelo_inurba_marseille","lat":43.302759,"lon":5.400793,"is_reserved":false,"is_disabled":false,"rental_uris":{"android":"levelo://app?vid=37fd181b-6d2e-4d1f-a271-afd41a974b1f","ios":"levelo://app?vid=37fd181b-6d2e-4d1f-a271-afd41a974b1f"},"vehicle_type_id":"4","last_reported":1703538366,"current_range_meters":24800,"station_id":"ce4bgvh2rcd13ifvqcs0","pricing_plan_id":"free"},{"bike_id":"db07f5b4-ecf7-4acc-9bd3-4caf1d12d724","system_id":"levelo_inurba_marseille","lat":43.302759,"lon":5.400793,"is_reserved":false,"is_disabled":false,"rental_uris":{"android":"levelo://app?vid=db07f5b4-ecf7-4acc-9bd3-4caf1d12d724","ios":"levelo://app?vid=db07f5b4-ecf7-4acc-9bd3-4caf1d12d724"},"vehicle_type_id":"4","last_reported":1703538366,"current_range_meters":28800,"station_id":"ce4bgvh2rcd13ifvqcs0","pricing_plan_id":"free"},{"bike_id":"1c9e15db-de56-460a-8d90-c09411b07c32","system_id":"levelo_inurba_marseille","lat":43.28612,"lon":5.37058,"is_reserved":false,"is_disabled":false,"rental_uris":{"android":"levelo://app?vid=1c9e15db-de56-460a-8d90-c09411b07c32","ios":"levelo://app?vid=1c9e15db-de56-460a-8d90-c09411b07c32"},"vehicle_type_id":"4","last_reported":1703538366,"current_range_meters":9200,"station_id":"ce4bht12rcd13ifvqi60","pricing_plan_id":"free"},{"bike_id":"7dd98606-1ef1-4e2b-80af-0a5050aa1f68","system_id":"levelo_inurba_marseille","lat":43.286039,"lon":5.370679,"is_reserved":false,"is_disabled":false,"rental_uris":{"android":"levelo://app?vid=7dd98606-1ef1-4e2b-80af-0a5050aa1f68","ios":"levelo://app?vid=7dd98606-1ef1-4e2b-80af-0a5050aa1f68"},"vehicle_type_id":"4","last_reported":1703538366,"current_range_meters":14800,"station_id":"ce4bht12rcd13ifvqi60","pricing_plan_id":"free"},{"bike_id":"b269c749-19b3-457a-9f11-021ccc443c55","system_id":"levelo_inurba_marseille","lat":43.286039,"lon":5.370679,"is_reserved":false,"is_disabled":false,"rental_uris":{"android":"levelo://app?vid=b269c749-19b3-457a-9f11-021ccc443c55","ios":"levelo://app?vid=b269c749-19b3-457a-9f11-021ccc443c55"},"vehicle_type_id":"4","last_reported":1703538366,"current_range_meters":6800,"station_id":"ce4bht12rcd13ifvqi60","pricing_plan_id":"free"},{"bike_id":"96032c65-ad05-4627-9655-b64d1764d84b","system_id":"levelo_inurba_marseille","lat":43.28606,"lon":5.37062,"is_reserved":false,"is_disabled":false,"rental_uris":{"android":"levelo://app?vid=96032c65-ad05-4627-9655-b64d1764d84b","ios":"levelo://app?vid=96032c65-ad05-4627-9655-b64d1764d84b"},"vehicle_type_id":"4","last_reported":1703538366,"current_range_meters":6800,"station_id":"ce4bht12rcd13ifvqi60","pricing_plan_id":"free"},{"bike_id":"0ade99fb-20fc-423b-a697-58876a6bf0b1","system_id":"levelo_inurba_marseille","lat":43.28709,"lon":5.37948,"is_reserved":false,"is_disabled":false,"rental_uris":{"android":"levelo://app?vid=0ade99fb-20fc-423b-a697-58876a6bf0b1","ios":"levelo://app?vid=0ade99fb-20fc-423b-a697-58876a6bf0b1"},"vehicle_type_id":"4","last_reported":1703538366,"current_range_meters":20800,"station_id":"ce4bh9p2rcd13ifvqec0","pricing_plan_id":"free"},{"bike_id":"9da4e2c0-85e0-48e8-84ca-a8131ebea362","system_id":"levelo_inurba_marseille","lat":43.316828,"lon":5.404723,"is_reserved":false,"is_disabled":false,"rental_uris":{"android":"levelo://app?vid=9da4e2c0-85e0-48e8-84ca-a8131ebea362","ios":"levelo://app?vid=9da4e2c0-85e0-48e8-84ca-a8131ebea362"},"vehicle_type_id":"4","last_reported":1703538366,"current_range_meters":27600,"station_id":"ce4bh012rcd13ifvqd00","pricing_plan_id":"free"},{"bike_id":"10cebbf1-af0e-4a22-9946-79b30eaf225b","system_id":"levelo_inurba_marseille","lat":43.316821,"lon":5.404737,"is_reserved":false,"is_disabled":false,"rental_uris":{"android":"levelo://app?vid=10cebbf1-af0e-4a22-9946-79b30eaf225b","ios":"levelo://app?vid=10cebbf1-af0e-4a22-9946-79b30eaf225b"},"vehicle_type_id":"4","last_reported":1703538366,"current_range_meters":12800,"station_id":"ce4bh012rcd13ifvqd00","pricing_plan_id":"free"},{"bike_id":"880207f4-6a01-41ac-bf9d-6be9d2e67b87","system_id":"levelo_inurba_marseille","lat":43.316821,"lon":5.404737,"is_reserved":false,"is_disabled":false,"rental_uris":{"android":"levelo://app?vid=880207f4-6a01-41ac-bf9d-6be9d2e67b87","ios":"levelo://app?vid=880207f4-6a01-41ac-bf9d-6be9d2e67b87"},"vehicle_type_id":"4","last_reported":1703538366,"current_range_meters":7600,"station_id":"ce4bh012rcd13ifvqd00","pricing_plan_id":"free"},{"bike_id":"6ad63d7f-d25d-47bc-8c04-0a5f23d00133","system_id":"levelo_inurba_marseille","lat":43.29204,"lon":5.39325,"is_reserved":false,"is_disabled":false,"rental_uris":{"android":"levelo://app?vid=6ad63d7f-d25d-47bc-8c04-0a5f23d00133","ios":"levelo://app?vid=6ad63d7f-d25d-47bc-8c04-0a5f23d00133"},"vehicle_type_id":"4","last_reported":1703538366,"current_range_meters":0,"station_id":"ce4bh192rcd13ifvqdd0","pricing_plan_id":"free"},{"bike_id":"c6febd50-0b94-4d2d-b4bc-422cc8cd6be3","system_id":"levelo_inurba_marseille","lat":43.29197,"lon":5.39316,"is_reserved":false,"is_disabled":false,"rental_uris":{"android":"levelo://app?vid=c6febd50-0b94-4d2d-b4bc-422cc8cd6be3","ios":"levelo://app?vid=c6febd50-0b94-4d2d-b4bc-422cc8cd6be3"},"vehicle_type_id":"4","last_reported":1703538366,"current_range_meters":31200,"station_id":"ce4bh192rcd13ifvqdd0","pricing_plan_id":"free"},{"bike_id":"d3f87648-fa46-4e0f-85a3-39f063b748e0","system_id":"levelo_inurba_marseille","lat":43.332705,"lon":5.394389,"is_reserved":false,"is_disabled":false,"rental_uris":{"android":"levelo://app?vid=d3f87648-fa46-4e0f-85a3-39f063b748e0","ios":"levelo://app?vid=d3f87648-fa46-4e0f-85a3-39f063b748e0"},"vehicle_type_id":"4","last_reported":1703538366,"current_range_meters":28000,"station_id":"","pricing_plan_id":"free"},{"bike_id":"eaeca32f-cc6f-44c9-9d82-17efc22cd62b","system_id":"levelo_inurba_marseille","lat":43.291994,"lon":5.392907,"is_reserved":false,"is_disabled":false,"rental_uris":{"android":"levelo://app?vid=eaeca32f-cc6f-44c9-9d82-17efc22cd62b","ios":"levelo://app?vid=eaeca32f-cc6f-44c9-9d82-17efc22cd62b"},"vehicle_type_id":"4","last_reported":1703538366,"current_range_meters":29200,"station_id":"ce4bh192rcd13ifvqdd0","pricing_plan_id":"free"},{"bike_id":"7f6daaf6-8c88-4ae4-8839-35343aa252fd","system_id":"levelo_inurba_marseille","lat":43.291994,"lon":5.392907,"is_reserved":false,"is_disabled":false,"rental_uris":{"android":"levelo://app?vid=7f6daaf6-8c88-4ae4-8839-35343aa252fd","ios":"levelo://app?vid=7f6daaf6-8c88-4ae4-8839-35343aa252fd"},"vehicle_type_id":"4","last_reported":1703538366,"current_range_meters":31200,"station_id":"ce4bh192rcd13ifvqdd0","pricing_plan_id":"free"},{"bike_id":"e2adfa7c-882e-48a1-9ee4-b36e6186ebbf","system_id":"levelo_inurba_marseille","lat":43.330912,"lon":5.396935,"is_reserved":false,"is_disabled":false,"rental_uris":{"android":"levelo://app?vid=e2adfa7c-882e-48a1-9ee4-b36e6186ebbf","ios":"levelo://app?vid=e2adfa7c-882e-48a1-9ee4-b36e6186ebbf"},"vehicle_type_id":"4","last_reported":1703538366,"current_range_meters":5600,"station_id":"","pricing_plan_id":"free"},{"bike_id":"6fce6cf9-3857-4ce7-8dd8-c8d6febadb9e","system_id":"levelo_inurba_marseille","lat":43.284538,"lon":5.358657,"is_reserved":false,"is_disabled":false,"rental_uris":{"android":"levelo://app?vid=6fce6cf9-3857-4ce7-8dd8-c8d6febadb9e","ios":"levelo://app?vid=6fce6cf9-3857-4ce7-8dd8-c8d6febadb9e"},"vehicle_type_id":"4","last_reported":1703538366,"current_range_meters":31200,"station_id":"ce4bhah2rcd13ifvqei0","pricing_plan_id":"free"},{"bike_id":"fbcd6f70-0756-4675-acb3-7efc3adc3d5d","system_id":"levelo_inurba_marseille","lat":43.284534,"lon":5.358662,"is_reserved":false,"is_disabled":false,"rental_uris":{"android":"levelo://app?vid=fbcd6f70-0756-4675-acb3-7efc3adc3d5d","ios":"levelo://app?vid=fbcd6f70-0756-4675-acb3-7efc3adc3d5d"},"vehicle_type_id":"4","last_reported":1703538366,"current_range_meters":28000,"station_id":"ce4bhah2rcd13ifvqei0","pricing_plan_id":"free"},{"bike_id":"c0a238ae-9200-4c40-b7dc-2920d8ca5273","system_id":"levelo_inurba_marseille","lat":43.294314,"lon":5.397498,"is_reserved":false,"is_disabled":false,"rental_uris":{"android":"levelo://app?vid=c0a238ae-9200-4c40-b7dc-2920d8ca5273","ios":"levelo://app?vid=c0a238ae-9200-4c40-b7dc-2920d8ca5273"},"vehicle_type_id":"4","last_reported":1703538366,"current_range_meters":18800,"station_id":"ce4bh3h2rcd13ifvqdo0","pricing_plan_id":"free"},{"bike_id":"09bf41bc-9182-46d6-b064-880ab6e8dcbd","system_id":"levelo_inurba_marseille","lat":43.294314,"lon":5.397498,"is_reserved":false,"is_disabled":false,"rental_uris":{"android":"levelo://app?vid=09bf41bc-9182-46d6-b064-880ab6e8dcbd","ios":"levelo://app?vid=09bf41bc-9182-46d6-b064-880ab6e8dcbd"},"vehicle_type_id":"4","last_reported":1703538366,"current_range_meters":26800,"station_id":"ce4bh3h2rcd13ifvqdo0","pricing_plan_id":"free"},{"bike_id":"739a8e6f-1442-437a-9f38-ede859472acd","system_id":"levelo_inurba_marseille","lat":43.285856,"lon":5.350771,"is_reserved":false,"is_disabled":false,"rental_uris":{"android":"levelo://app?vid=739a8e6f-1442-437a-9f38-ede859472acd","ios":"levelo://app?vid=739a8e6f-1442-437a-9f38-ede859472acd"},"vehicle_type_id":"4","last_reported":1703538366,"current_range_meters":30000,"station_id":"ce4bhch2rcd13ifvqeug","pricing_plan_id":"free"},{"bike_id":"bdc90deb-ee84-4059-a9d5-d8c0dea7f16a","system_id":"levelo_inurba_marseille","lat":43.283998,"lon":5.375062,"is_reserved":false,"is_disabled":false,"rental_uris":{"android":"levelo://app?vid=bdc90deb-ee84-4059-a9d5-d8c0dea7f16a","ios":"levelo://app?vid=bdc90deb-ee84-4059-a9d5-d8c0dea7f16a"},"vehicle_type_id":"4","last_reported":1703538366,"current_range_meters":6000,"station_id":"ce4bh412rcd13ifvqds0","pricing_plan_id":"free"},{"bike_id":"48beaf25-d1bf-418f-9498-b59264478e75","system_id":"levelo_inurba_marseille","lat":43.283998,"lon":5.375062,"is_reserved":false,"is_disabled":false,"rental_uris":{"android":"levelo://app?vid=48beaf25-d1bf-418f-9498-b59264478e75","ios":"levelo://app?vid=48beaf25-d1bf-418f-9498-b59264478e75"},"vehicle_type_id":"4","last_reported":1703538366,"current_range_meters":21600,"station_id":"ce4bh412rcd13ifvqds0","pricing_plan_id":"free"},{"bike_id":"bcb850ea-4558-48f8-884b-17064076fc95","system_id":"levelo_inurba_marseille","lat":43.283998,"lon":5.375062,"is_reserved":false,"is_disabled":false,"rental_uris":{"android":"levelo://app?vid=bcb850ea-4558-48f8-884b-17064076fc95","ios":"levelo://app?vid=bcb850ea-4558-48f8-884b-17064076fc95"},"vehicle_type_id":"4","last_reported":1703538366,"current_range_meters":19600,"station_id":"ce4bh412rcd13ifvqds0","pricing_plan_id":"free"},{"bike_id":"039ceecd-3506-4419-ad48-bf31b196e9b3","system_id":"levelo_inurba_marseille","lat":43.283998,"lon":5.375062,"is_reserved":false,"is_disabled":false,"rental_uris":{"android":"levelo://app?vid=039ceecd-3506-4419-ad48-bf31b196e9b3","ios":"levelo://app?vid=039ceecd-3506-4419-ad48-bf31b196e9b3"},"vehicle_type_id":"4","last_reported":1703538366,"current_range_meters":31200,"station_id":"ce4bh412rcd13ifvqds0","pricing_plan_id":"free"},{"bike_id":"e485450b-2736-4f4c-b94b-0da5a69b88aa","system_id":"levelo_inurba_marseille","lat":43.33195,"lon":5.39738,"is_reserved":false,"is_disabled":false,"rental_uris":{"android":"levelo://app?vid=e485450b-2736-4f4c-b94b-0da5a69b88aa","ios":"levelo://app?vid=e485450b-2736-4f4c-b94b-0da5a69b88aa"},"vehicle_type_id":"4","last_reported":1703538366,"current_range_meters":24000,"station_id":"","pricing_plan_id":"free"},{"bike_id":"dbd7d69a-95c4-4131-a8d1-b3abda20f00e","system_id":"levelo_inurba_marseille","lat":43.295713,"lon":5.399639,"is_reserved":false,"is_disabled":false,"rental_uris":{"android":"levelo://app?vid=dbd7d69a-95c4-4131-a8d1-b3abda20f00e","ios":"levelo://app?vid=dbd7d69a-95c4-4131-a8d1-b3abda20f00e"},"vehicle_type_id":"4","last_reported":1703538366,"current_range_meters":12000,"station_id":"ce4bh312rcd13ifvqdj0","pricing_plan_id":"free"},{"bike_id":"4b388e93-8359-494a-93e7-a691dd1edc09","system_id":"levelo_inurba_marseille","lat":43.331578,"lon":5.398118,"is_reserved":false,"is_disabled":false,"rental_uris":{"android":"levelo://app?vid=4b388e93-8359-494a-93e7-a691dd1edc09","ios":"levelo://app?vid=4b388e93-8359-494a-93e7-a691dd1edc09"},"vehicle_type_id":"4","last_reported":1703538366,"current_range_meters":27600,"station_id":"","pricing_plan_id":"free"},{"bike_id":"c8e4841c-10ff-4802-9b08-54b764c03bb3","system_id":"levelo_inurba_marseille","lat":43.319179,"lon":5.407725,"is_reserved":false,"is_disabled":false,"rental_uris":{"android":"levelo://app?vid=c8e4841c-10ff-4802-9b08-54b764c03bb3","ios":"levelo://app?vid=c8e4841c-10ff-4802-9b08-54b764c03bb3"},"vehicle_type_id":"4","last_reported":1703538366,"current_range_meters":30000,"station_id":"ce4bhq12rcd13ifvqhig","pricing_plan_id":"free"},{"bike_id":"ff6ebe2d-10e0-4bee-8d5b-0d34d0573673","system_id":"levelo_inurba_marseille","lat":43.337118,"lon":5.391612,"is_reserved":false,"is_disabled":false,"rental_uris":{"android":"levelo://app?vid=ff6ebe2d-10e0-4bee-8d5b-0d34d0573673","ios":"levelo://app?vid=ff6ebe2d-10e0-4bee-8d5b-0d34d0573673"},"vehicle_type_id":"4","last_reported":1703538366,"current_range_meters":20800,"station_id":"ce4bhr92rcd13ifvqhsg","pricing_plan_id":"free"},{"bike_id":"63fae42d-a0bd-4901-961a-eefb9392deee","system_id":"levelo_inurba_marseille","lat":43.337168,"lon":5.391825,"is_reserved":false,"is_disabled":false,"rental_uris":{"android":"levelo://app?vid=63fae42d-a0bd-4901-961a-eefb9392deee","ios":"levelo://app?vid=63fae42d-a0bd-4901-961a-eefb9392deee"},"vehicle_type_id":"4","last_reported":1703538366,"current_range_meters":27600,"station_id":"ce4bhr92rcd13ifvqhsg","pricing_plan_id":"free"},{"bike_id":"9960fa43-3a3b-4d5b-8fe2-258b49d47b49","system_id":"levelo_inurba_marseille","lat":43.323464,"lon":5.406297,"is_reserved":false,"is_disabled":false,"rental_uris":{"android":"levelo://app?vid=9960fa43-3a3b-4d5b-8fe2-258b49d47b49","ios":"levelo://app?vid=9960fa43-3a3b-4d5b-8fe2-258b49d47b49"},"vehicle_type_id":"4","last_reported":1703538366,"current_range_meters":27600,"station_id":"ce4bhq92rcd13ifvqhjg","pricing_plan_id":"free"},{"bike_id":"24638d0b-818a-40d2-8729-8295f38f3ecf","system_id":"levelo_inurba_marseille","lat":43.284793,"lon":5.384113,"is_reserved":false,"is_disabled":false,"rental_uris":{"android":"levelo://app?vid=24638d0b-818a-40d2-8729-8295f38f3ecf","ios":"levelo://app?vid=24638d0b-818a-40d2-8729-8295f38f3ecf"},"vehicle_type_id":"4","last_reported":1703538366,"current_range_meters":9200,"station_id":"ce4bh512rcd13ifvqe3g","pricing_plan_id":"free"},{"bike_id":"a330c8f1-3748-4c5a-a422-58099001eb59","system_id":"levelo_inurba_marseille","lat":43.284793,"lon":5.384119,"is_reserved":false,"is_disabled":false,"rental_uris":{"android":"levelo://app?vid=a330c8f1-3748-4c5a-a422-58099001eb59","ios":"levelo://app?vid=a330c8f1-3748-4c5a-a422-58099001eb59"},"vehicle_type_id":"4","last_reported":1703538366,"current_range_meters":6400,"station_id":"ce4bh512rcd13ifvqe3g","pricing_plan_id":"free"},{"bike_id":"c23bfb09-46f4-4c45-a8df-1c4a34a35133","system_id":"levelo_inurba_marseille","lat":43.28473,"lon":5.38422,"is_reserved":false,"is_disabled":false,"rental_uris":{"android":"levelo://app?vid=c23bfb09-46f4-4c45-a8df-1c4a34a35133","ios":"levelo://app?vid=c23bfb09-46f4-4c45-a8df-1c4a34a35133"},"vehicle_type_id":"4","last_reported":1703538366,"current_range_meters":25200,"station_id":"ce4bh512rcd13ifvqe3g","pricing_plan_id":"free"},{"bike_id":"083b1d94-37b7-4f65-ad73-6ccd228910b2","system_id":"levelo_inurba_marseille","lat":43.288501,"lon":5.393087,"is_reserved":false,"is_disabled":false,"rental_uris":{"android":"levelo://app?vid=083b1d94-37b7-4f65-ad73-6ccd228910b2","ios":"levelo://app?vid=083b1d94-37b7-4f65-ad73-6ccd228910b2"},"vehicle_type_id":"4","last_reported":1703538366,"current_range_meters":29200,"station_id":"ce4bh2p2rcd13ifvqdi0","pricing_plan_id":"free"},{"bike_id":"f2f1ff8c-db1f-4a4e-bd4a-93f4fadac928","system_id":"levelo_inurba_marseille","lat":43.288501,"lon":5.393087,"is_reserved":false,"is_disabled":false,"rental_uris":{"android":"levelo://app?vid=f2f1ff8c-db1f-4a4e-bd4a-93f4fadac928","ios":"levelo://app?vid=f2f1ff8c-db1f-4a4e-bd4a-93f4fadac928"},"vehicle_type_id":"4","last_reported":1703538366,"current_range_meters":23200,"station_id":"ce4bh2p2rcd13ifvqdi0","pricing_plan_id":"free"},{"bike_id":"ce8e9d95-2001-4cdf-a694-73580b69e999","system_id":"levelo_inurba_marseille","lat":43.288467,"lon":5.393117,"is_reserved":false,"is_disabled":false,"rental_uris":{"android":"levelo://app?vid=ce8e9d95-2001-4cdf-a694-73580b69e999","ios":"levelo://app?vid=ce8e9d95-2001-4cdf-a694-73580b69e999"},"vehicle_type_id":"4","last_reported":1703538366,"current_range_meters":8800,"station_id":"ce4bh2p2rcd13ifvqdi0","pricing_plan_id":"free"},{"bike_id":"21c5977c-e44d-4792-8049-9fddceb8af16","system_id":"levelo_inurba_marseille","lat":43.283494,"lon":5.380945,"is_reserved":false,"is_disabled":false,"rental_uris":{"android":"levelo://app?vid=21c5977c-e44d-4792-8049-9fddceb8af16","ios":"levelo://app?vid=21c5977c-e44d-4792-8049-9fddceb8af16"},"vehicle_type_id":"4","last_reported":1703538366,"current_range_meters":27600,"station_id":"ce4bh412rcd13ifvqdr0","pricing_plan_id":"free"},{"bike_id":"947337ad-8e07-4f0c-baac-ef42a7c1a269","system_id":"levelo_inurba_marseille","lat":43.283494,"lon":5.380945,"is_reserved":false,"is_disabled":false,"rental_uris":{"android":"levelo://app?vid=947337ad-8e07-4f0c-baac-ef42a7c1a269","ios":"levelo://app?vid=947337ad-8e07-4f0c-baac-ef42a7c1a269"},"vehicle_type_id":"4","last_reported":1703538366,"current_range_meters":24400,"station_id":"ce4bh412rcd13ifvqdr0","pricing_plan_id":"free"},{"bike_id":"36200fb8-d55a-4742-968b-cab955b97ce3","system_id":"levelo_inurba_marseille","lat":43.288501,"lon":5.393087,"is_reserved":false,"is_disabled":false,"rental_uris":{"android":"levelo://app?vid=36200fb8-d55a-4742-968b-cab955b97ce3","ios":"levelo://app?vid=36200fb8-d55a-4742-968b-cab955b97ce3"},"vehicle_type_id":"4","last_reported":1703538366,"current_range_meters":26400,"station_id":"ce4bh2p2rcd13ifvqdi0","pricing_plan_id":"free"},{"bike_id":"6e7abeab-8b76-4ed9-ab3c-6c6bc0667291","system_id":"levelo_inurba_marseille","lat":43.292724,"lon":5.401131,"is_reserved":false,"is_disabled":false,"rental_uris":{"android":"levelo://app?vid=6e7abeab-8b76-4ed9-ab3c-6c6bc0667291","ios":"levelo://app?vid=6e7abeab-8b76-4ed9-ab3c-6c6bc0667291"},"vehicle_type_id":"4","last_reported":1703538366,"current_range_meters":28000,"station_id":"ce4bh312rcd13ifvqdk0","pricing_plan_id":"free"},{"bike_id":"67c860af-a545-462e-a832-ee135739c3ac","system_id":"levelo_inurba_marseille","lat":43.292724,"lon":5.401131,"is_reserved":false,"is_disabled":false,"rental_uris":{"android":"levelo://app?vid=67c860af-a545-462e-a832-ee135739c3ac","ios":"levelo://app?vid=67c860af-a545-462e-a832-ee135739c3ac"},"vehicle_type_id":"4","last_reported":1703538366,"current_range_meters":27200,"station_id":"ce4bh312rcd13ifvqdk0","pricing_plan_id":"free"},{"bike_id":"a5903c35-02ac-49f8-9021-9912f2b27929","system_id":"levelo_inurba_marseille","lat":43.292724,"lon":5.401131,"is_reserved":false,"is_disabled":false,"rental_uris":{"android":"levelo://app?vid=a5903c35-02ac-49f8-9021-9912f2b27929","ios":"levelo://app?vid=a5903c35-02ac-49f8-9021-9912f2b27929"},"vehicle_type_id":"4","last_reported":1703538366,"current_range_meters":9600,"station_id":"ce4bh312rcd13ifvqdk0","pricing_plan_id":"free"},{"bike_id":"23f42c90-f703-4dcb-9a0b-9ef346f75e5f","system_id":"levelo_inurba_marseille","lat":43.292724,"lon":5.401131,"is_reserved":false,"is_disabled":false,"rental_uris":{"android":"levelo://app?vid=23f42c90-f703-4dcb-9a0b-9ef346f75e5f","ios":"levelo://app?vid=23f42c90-f703-4dcb-9a0b-9ef346f75e5f"},"vehicle_type_id":"4","last_reported":1703538366,"current_range_meters":30800,"station_id":"ce4bh312rcd13ifvqdk0","pricing_plan_id":"free"},{"bike_id":"6e5263b3-89cd-47ec-b2ac-b9c98b7365c8","system_id":"levelo_inurba_marseille","lat":43.292724,"lon":5.401131,"is_reserved":false,"is_disabled":false,"rental_uris":{"android":"levelo://app?vid=6e5263b3-89cd-47ec-b2ac-b9c98b7365c8","ios":"levelo://app?vid=6e5263b3-89cd-47ec-b2ac-b9c98b7365c8"},"vehicle_type_id":"4","last_reported":1703538366,"current_range_meters":24400,"station_id":"ce4bh312rcd13ifvqdk0","pricing_plan_id":"free"},{"bike_id":"ab9919cd-9d87-43a5-815e-a50389f1cfca","system_id":"levelo_inurba_marseille","lat":43.282754,"lon":5.350519,"is_reserved":false,"is_disabled":false,"rental_uris":{"android":"levelo://app?vid=ab9919cd-9d87-43a5-815e-a50389f1cfca","ios":"levelo://app?vid=ab9919cd-9d87-43a5-815e-a50389f1cfca"},"vehicle_type_id":"4","last_reported":1703538366,"current_range_meters":3600,"station_id":"ce4bhbp2rcd13ifvqerg","pricing_plan_id":"free"},{"bike_id":"353cde31-cc8d-40f2-9681-7fefb09b4248","system_id":"levelo_inurba_marseille","lat":43.283502,"lon":5.386471,"is_reserved":false,"is_disabled":false,"rental_uris":{"android":"levelo://app?vid=353cde31-cc8d-40f2-9681-7fefb09b4248","ios":"levelo://app?vid=353cde31-cc8d-40f2-9681-7fefb09b4248"},"vehicle_type_id":"4","last_reported":1703538366,"current_range_meters":16800,"station_id":"ce4bh492rcd13ifvqdvg","pricing_plan_id":"free"},{"bike_id":"3c171db3-9a14-453d-8b46-614bd17edc56","system_id":"levelo_inurba_marseille","lat":43.282744,"lon":5.350533,"is_reserved":false,"is_disabled":false,"rental_uris":{"android":"levelo://app?vid=3c171db3-9a14-453d-8b46-614bd17edc56","ios":"levelo://app?vid=3c171db3-9a14-453d-8b46-614bd17edc56"},"vehicle_type_id":"4","last_reported":1703538366,"current_range_meters":6400,"station_id":"ce4bhbp2rcd13ifvqerg","pricing_plan_id":"free"},{"bike_id":"35a835d1-dc30-4a54-ad38-c7431250af65","system_id":"levelo_inurba_marseille","lat":43.282744,"lon":5.350533,"is_reserved":false,"is_disabled":false,"rental_uris":{"android":"levelo://app?vid=35a835d1-dc30-4a54-ad38-c7431250af65","ios":"levelo://app?vid=35a835d1-dc30-4a54-ad38-c7431250af65"},"vehicle_type_id":"4","last_reported":1703538366,"current_range_meters":25200,"station_id":"ce4bhbp2rcd13ifvqerg","pricing_plan_id":"free"},{"bike_id":"eab693ef-28fa-44d6-9255-f2069bdb2eca","system_id":"levelo_inurba_marseille","lat":43.283502,"lon":5.386471,"is_reserved":false,"is_disabled":false,"rental_uris":{"android":"levelo://app?vid=eab693ef-28fa-44d6-9255-f2069bdb2eca","ios":"levelo://app?vid=eab693ef-28fa-44d6-9255-f2069bdb2eca"},"vehicle_type_id":"4","last_reported":1703538366,"current_range_meters":15600,"station_id":"ce4bh492rcd13ifvqdvg","pricing_plan_id":"free"},{"bike_id":"b02f5bc1-8928-43c3-9ad0-daad87044c65","system_id":"levelo_inurba_marseille","lat":43.283502,"lon":5.386471,"is_reserved":false,"is_disabled":false,"rental_uris":{"android":"levelo://app?vid=b02f5bc1-8928-43c3-9ad0-daad87044c65","ios":"levelo://app?vid=b02f5bc1-8928-43c3-9ad0-daad87044c65"},"vehicle_type_id":"4","last_reported":1703538366,"current_range_meters":22000,"station_id":"ce4bh492rcd13ifvqdvg","pricing_plan_id":"free"},{"bike_id":"45d89010-e66e-46e9-8eb1-0d97202c8f8f","system_id":"levelo_inurba_marseille","lat":43.282754,"lon":5.350519,"is_reserved":false,"is_disabled":false,"rental_uris":{"android":"levelo://app?vid=45d89010-e66e-46e9-8eb1-0d97202c8f8f","ios":"levelo://app?vid=45d89010-e66e-46e9-8eb1-0d97202c8f8f"},"vehicle_type_id":"4","last_reported":1703538366,"current_range_meters":20400,"station_id":"ce4bhbp2rcd13ifvqerg","pricing_plan_id":"free"},{"bike_id":"3a037ea0-431d-458c-a6b7-2b64533cea37","system_id":"levelo_inurba_marseille","lat":43.29041,"lon":5.399634,"is_reserved":false,"is_disabled":false,"rental_uris":{"android":"levelo://app?vid=3a037ea0-431d-458c-a6b7-2b64533cea37","ios":"levelo://app?vid=3a037ea0-431d-458c-a6b7-2b64533cea37"},"vehicle_type_id":"4","last_reported":1703538366,"current_range_meters":28000,"station_id":"ce4bh392rcd13ifvqdm0","pricing_plan_id":"free"},{"bike_id":"553e18cd-1f68-46c0-83c2-9bcb3e5d7688","system_id":"levelo_inurba_marseille","lat":43.283502,"lon":5.386471,"is_reserved":false,"is_disabled":false,"rental_uris":{"android":"levelo://app?vid=553e18cd-1f68-46c0-83c2-9bcb3e5d7688","ios":"levelo://app?vid=553e18cd-1f68-46c0-83c2-9bcb3e5d7688"},"vehicle_type_id":"4","last_reported":1703538366,"current_range_meters":18400,"station_id":"ce4bh492rcd13ifvqdvg","pricing_plan_id":"free"},{"bike_id":"b249b881-2268-4fe7-b11a-6b7969ff6d3d","system_id":"levelo_inurba_marseille","lat":43.28105,"lon":5.37843,"is_reserved":false,"is_disabled":false,"rental_uris":{"android":"levelo://app?vid=b249b881-2268-4fe7-b11a-6b7969ff6d3d","ios":"levelo://app?vid=b249b881-2268-4fe7-b11a-6b7969ff6d3d"},"vehicle_type_id":"4","last_reported":1703538366,"current_range_meters":28800,"station_id":"ce4bha12rcd13ifvqee0","pricing_plan_id":"free"},{"bike_id":"c9b9528e-b886-4ad1-b739-64e9b7db55ce","system_id":"levelo_inurba_marseille","lat":43.28102,"lon":5.37839,"is_reserved":false,"is_disabled":false,"rental_uris":{"android":"levelo://app?vid=c9b9528e-b886-4ad1-b739-64e9b7db55ce","ios":"levelo://app?vid=c9b9528e-b886-4ad1-b739-64e9b7db55ce"},"vehicle_type_id":"4","last_reported":1703538366,"current_range_meters":28800,"station_id":"ce4bha12rcd13ifvqee0","pricing_plan_id":"free"},{"bike_id":"c8a60e82-3aa3-4d1b-aaad-6cd1c7b2d919","system_id":"levelo_inurba_marseille","lat":43.296263,"lon":5.40601,"is_reserved":false,"is_disabled":false,"rental_uris":{"android":"levelo://app?vid=c8a60e82-3aa3-4d1b-aaad-6cd1c7b2d919","ios":"levelo://app?vid=c8a60e82-3aa3-4d1b-aaad-6cd1c7b2d919"},"vehicle_type_id":"4","last_reported":1703538366,"current_range_meters":26000,"station_id":"ce4bh0h2rcd13ifvqd60","pricing_plan_id":"free"},{"bike_id":"e0fc6142-98ef-4764-966c-e402f88b477e","system_id":"levelo_inurba_marseille","lat":43.296287,"lon":5.405937,"is_reserved":false,"is_disabled":false,"rental_uris":{"android":"levelo://app?vid=e0fc6142-98ef-4764-966c-e402f88b477e","ios":"levelo://app?vid=e0fc6142-98ef-4764-966c-e402f88b477e"},"vehicle_type_id":"4","last_reported":1703538366,"current_range_meters":16000,"station_id":"ce4bh0h2rcd13ifvqd60","pricing_plan_id":"free"},{"bike_id":"c9029fdb-6b28-4937-9e57-397e4a9d9c8f","system_id":"levelo_inurba_marseille","lat":43.28101,"lon":5.37844,"is_reserved":false,"is_disabled":false,"rental_uris":{"android":"levelo://app?vid=c9029fdb-6b28-4937-9e57-397e4a9d9c8f","ios":"levelo://app?vid=c9029fdb-6b28-4937-9e57-397e4a9d9c8f"},"vehicle_type_id":"4","last_reported":1703538366,"current_range_meters":22800,"station_id":"ce4bha12rcd13ifvqee0","pricing_plan_id":"free"},{"bike_id":"c69da85f-d187-4101-86b1-31b5d6fb5e75","system_id":"levelo_inurba_marseille","lat":43.29625,"lon":5.40594,"is_reserved":false,"is_disabled":false,"rental_uris":{"android":"levelo://app?vid=c69da85f-d187-4101-86b1-31b5d6fb5e75","ios":"levelo://app?vid=c69da85f-d187-4101-86b1-31b5d6fb5e75"},"vehicle_type_id":"4","last_reported":1703538366,"current_range_meters":31200,"station_id":"ce4bh0h2rcd13ifvqd60","pricing_plan_id":"free"},{"bike_id":"d862f098-64c9-4b3d-b03f-1fef227b1db9","system_id":"levelo_inurba_marseille","lat":43.29626,"lon":5.40598,"is_reserved":false,"is_disabled":false,"rental_uris":{"android":"levelo://app?vid=d862f098-64c9-4b3d-b03f-1fef227b1db9","ios":"levelo://app?vid=d862f098-64c9-4b3d-b03f-1fef227b1db9"},"vehicle_type_id":"4","last_reported":1703538366,"current_range_meters":28400,"station_id":"ce4bh0h2rcd13ifvqd60","pricing_plan_id":"free"},{"bike_id":"8db6b4f9-191b-4caa-9cb4-1dec4ffefaf6","system_id":"levelo_inurba_marseille","lat":43.296263,"lon":5.40601,"is_reserved":false,"is_disabled":false,"rental_uris":{"android":"levelo://app?vid=8db6b4f9-191b-4caa-9cb4-1dec4ffefaf6","ios":"levelo://app?vid=8db6b4f9-191b-4caa-9cb4-1dec4ffefaf6"},"vehicle_type_id":"4","last_reported":1703538366,"current_range_meters":24000,"station_id":"ce4bh0h2rcd13ifvqd60","pricing_plan_id":"free"},{"bike_id":"e0a17cef-5a66-4d8e-a859-d3fd375ec4b1","system_id":"levelo_inurba_marseille","lat":43.284462,"lon":5.392121,"is_reserved":false,"is_disabled":false,"rental_uris":{"android":"levelo://app?vid=e0a17cef-5a66-4d8e-a859-d3fd375ec4b1","ios":"levelo://app?vid=e0a17cef-5a66-4d8e-a859-d3fd375ec4b1"},"vehicle_type_id":"4","last_reported":1703538366,"current_range_meters":29200,"station_id":"ce4bhoh2rcd13ifvqh5g","pricing_plan_id":"free"},{"bike_id":"3f64d92d-bd78-4747-8a6e-ff5758299350","system_id":"levelo_inurba_marseille","lat":43.326605,"lon":5.409903,"is_reserved":false,"is_disabled":false,"rental_uris":{"android":"levelo://app?vid=3f64d92d-bd78-4747-8a6e-ff5758299350","ios":"levelo://app?vid=3f64d92d-bd78-4747-8a6e-ff5758299350"},"vehicle_type_id":"4","last_reported":1703538366,"current_range_meters":28400,"station_id":"ce4bhpp2rcd13ifvqhgg","pricing_plan_id":"free"},{"bike_id":"a761166b-dccd-4f80-a7dd-20b28377f7ed","system_id":"levelo_inurba_marseille","lat":43.304188,"lon":5.412904,"is_reserved":false,"is_disabled":false,"rental_uris":{"android":"levelo://app?vid=a761166b-dccd-4f80-a7dd-20b28377f7ed","ios":"levelo://app?vid=a761166b-dccd-4f80-a7dd-20b28377f7ed"},"vehicle_type_id":"4","last_reported":1703538366,"current_range_meters":26800,"station_id":"ce4bhop2rcd13ifvqh8g","pricing_plan_id":"free"},{"bike_id":"bc1f7b15-1c1c-41f9-9939-342701df6c92","system_id":"levelo_inurba_marseille","lat":43.279087,"lon":5.380114,"is_reserved":false,"is_disabled":false,"rental_uris":{"android":"levelo://app?vid=bc1f7b15-1c1c-41f9-9939-342701df6c92","ios":"levelo://app?vid=bc1f7b15-1c1c-41f9-9939-342701df6c92"},"vehicle_type_id":"4","last_reported":1703538366,"current_range_meters":16400,"station_id":"ce4bhf92rcd13ifvqf50","pricing_plan_id":"free"},{"bike_id":"3be5b2ea-a08f-4fb2-a63f-0263ec672b46","system_id":"levelo_inurba_marseille","lat":43.279087,"lon":5.380114,"is_reserved":false,"is_disabled":false,"rental_uris":{"android":"levelo://app?vid=3be5b2ea-a08f-4fb2-a63f-0263ec672b46","ios":"levelo://app?vid=3be5b2ea-a08f-4fb2-a63f-0263ec672b46"},"vehicle_type_id":"4","last_reported":1703538366,"current_range_meters":24800,"station_id":"ce4bhf92rcd13ifvqf50","pricing_plan_id":"free"},{"bike_id":"56ff4b84-dd7d-4a56-aa26-c6b7250d3c55","system_id":"levelo_inurba_marseille","lat":43.287154,"lon":5.399979,"is_reserved":false,"is_disabled":false,"rental_uris":{"android":"levelo://app?vid=56ff4b84-dd7d-4a56-aa26-c6b7250d3c55","ios":"levelo://app?vid=56ff4b84-dd7d-4a56-aa26-c6b7250d3c55"},"vehicle_type_id":"4","last_reported":1703538366,"current_range_meters":30000,"station_id":"ce4bho92rcd13ifvqh3g","pricing_plan_id":"free"},{"bike_id":"34158c04-90ab-44ff-844e-fe8c6866438b","system_id":"levelo_inurba_marseille","lat":43.299577,"lon":5.413277,"is_reserved":false,"is_disabled":false,"rental_uris":{"android":"levelo://app?vid=34158c04-90ab-44ff-844e-fe8c6866438b","ios":"levelo://app?vid=34158c04-90ab-44ff-844e-fe8c6866438b"},"vehicle_type_id":"4","last_reported":1703538366,"current_range_meters":30400,"station_id":"ce4bhp12rcd13ifvqh9g","pricing_plan_id":"free"},{"bike_id":"8dc1a192-1b6f-467a-861b-d4c6f7601906","system_id":"levelo_inurba_marseille","lat":43.299579,"lon":5.413255,"is_reserved":false,"is_disabled":false,"rental_uris":{"android":"levelo://app?vid=8dc1a192-1b6f-467a-861b-d4c6f7601906","ios":"levelo://app?vid=8dc1a192-1b6f-467a-861b-d4c6f7601906"},"vehicle_type_id":"4","last_reported":1703538366,"current_range_meters":30000,"station_id":"ce4bhp12rcd13ifvqh9g","pricing_plan_id":"free"},{"bike_id":"2950f92c-3e43-4204-b7ae-3f0ac182f86d","system_id":"levelo_inurba_marseille","lat":43.279742,"lon":5.38744,"is_reserved":false,"is_disabled":false,"rental_uris":{"android":"levelo://app?vid=2950f92c-3e43-4204-b7ae-3f0ac182f86d","ios":"levelo://app?vid=2950f92c-3e43-4204-b7ae-3f0ac182f86d"},"vehicle_type_id":"4","last_reported":1703538366,"current_range_meters":30800,"station_id":"ce4bhg12rcd13ifvqf80","pricing_plan_id":"free"},{"bike_id":"13b69375-3cf8-42ac-a007-a493fa21a8c5","system_id":"levelo_inurba_marseille","lat":43.292571,"lon":5.409107,"is_reserved":false,"is_disabled":false,"rental_uris":{"android":"levelo://app?vid=13b69375-3cf8-42ac-a007-a493fa21a8c5","ios":"levelo://app?vid=13b69375-3cf8-42ac-a007-a493fa21a8c5"},"vehicle_type_id":"4","last_reported":1703538366,"current_range_meters":12000,"station_id":"ce4bh192rcd13ifvqdc0","pricing_plan_id":"free"},{"bike_id":"f9fa4fc7-c82d-4699-bb70-04a1c28e8703","system_id":"levelo_inurba_marseille","lat":43.292569,"lon":5.409107,"is_reserved":false,"is_disabled":false,"rental_uris":{"android":"levelo://app?vid=f9fa4fc7-c82d-4699-bb70-04a1c28e8703","ios":"levelo://app?vid=f9fa4fc7-c82d-4699-bb70-04a1c28e8703"},"vehicle_type_id":"4","last_reported":1703538366,"current_range_meters":27600,"station_id":"ce4bh192rcd13ifvqdc0","pricing_plan_id":"free"},{"bike_id":"1444f571-f69f-497a-8d96-3e3093001990","system_id":"levelo_inurba_marseille","lat":43.292569,"lon":5.409107,"is_reserved":false,"is_disabled":false,"rental_uris":{"android":"levelo://app?vid=1444f571-f69f-497a-8d96-3e3093001990","ios":"levelo://app?vid=1444f571-f69f-497a-8d96-3e3093001990"},"vehicle_type_id":"4","last_reported":1703538366,"current_range_meters":13200,"station_id":"ce4bh192rcd13ifvqdc0","pricing_plan_id":"free"},{"bike_id":"49e520e1-7c90-48f7-b38c-c853e4beed6a","system_id":"levelo_inurba_marseille","lat":43.325243,"lon":5.414326,"is_reserved":false,"is_disabled":false,"rental_uris":{"android":"levelo://app?vid=49e520e1-7c90-48f7-b38c-c853e4beed6a","ios":"levelo://app?vid=49e520e1-7c90-48f7-b38c-c853e4beed6a"},"vehicle_type_id":"4","last_reported":1703538366,"current_range_meters":24000,"station_id":"ce4bhq12rcd13ifvqhhg","pricing_plan_id":"free"},{"bike_id":"2316e8ee-f386-464a-852e-eabe92d886b0","system_id":"levelo_inurba_marseille","lat":43.27618,"lon":5.361009,"is_reserved":false,"is_disabled":false,"rental_uris":{"android":"levelo://app?vid=2316e8ee-f386-464a-852e-eabe92d886b0","ios":"levelo://app?vid=2316e8ee-f386-464a-852e-eabe92d886b0"},"vehicle_type_id":"4","last_reported":1703538366,"current_range_meters":24800,"station_id":"ce4bgj92rcd13ifvqbe0","pricing_plan_id":"free"},{"bike_id":"c7ceffd7-15f8-4a1a-a814-cd1193a51445","system_id":"levelo_inurba_marseille","lat":43.303837,"lon":5.418724,"is_reserved":false,"is_disabled":false,"rental_uris":{"android":"levelo://app?vid=c7ceffd7-15f8-4a1a-a814-cd1193a51445","ios":"levelo://app?vid=c7ceffd7-15f8-4a1a-a814-cd1193a51445"},"vehicle_type_id":"4","last_reported":1703538366,"current_range_meters":27200,"station_id":"ce4bhop2rcd13ifvqh7g","pricing_plan_id":"free"},{"bike_id":"5b7beb35-a65c-4d33-9bcd-e61c8014723c","system_id":"levelo_inurba_marseille","lat":43.278399,"lon":5.392139,"is_reserved":false,"is_disabled":false,"rental_uris":{"android":"levelo://app?vid=5b7beb35-a65c-4d33-9bcd-e61c8014723c","ios":"levelo://app?vid=5b7beb35-a65c-4d33-9bcd-e61c8014723c"},"vehicle_type_id":"4","last_reported":1703538366,"current_range_meters":10800,"station_id":"ce4bhjp2rcd13ifvqga0","pricing_plan_id":"free"},{"bike_id":"61a3cd88-5b11-4920-bf61-7bd2bbf20916","system_id":"levelo_inurba_marseille","lat":43.275625,"lon":5.384392,"is_reserved":false,"is_disabled":false,"rental_uris":{"android":"levelo://app?vid=61a3cd88-5b11-4920-bf61-7bd2bbf20916","ios":"levelo://app?vid=61a3cd88-5b11-4920-bf61-7bd2bbf20916"},"vehicle_type_id":"4","last_reported":1703538366,"current_range_meters":20400,"station_id":"ce4bhh92rcd13ifvqfi0","pricing_plan_id":"free"},