{"last_updated":1722197295,"ttl":30,"version":"2.2","data":{"bikes":[{"bike_id":"16b16635-4c46-4b81-bdbe-b615a9faf01e","system_id":"levelo_inurba_marseille","lat":43.31341,"lon":5.367098,"is_reserved":false,"is_disabled":false,"rental_uris":{"android":"levelo://app?vid=16b16635-4c46-4b81-bdbe-b615a9faf01e","ios":"levelo://app?vid=16b16635-4c46-4b81-bdbe-b615a9faf01e"},"vehicle_type_id":"4","last_reported":1722197295,"current_range_meters":1200,"station_id":"ce4bgr92rcd13ifvqc6g","pricing_plan_id":"cebpf4jnsgd1na2vs0mg"},{"bike_id":"e6b70fc6-8e32-48f9-91cc-54c58417e9de","system_id":"levelo_inurba_marseille","lat":43.312239,"lon":5.368562,"is_reserved":false,"is_disabled":false,"rental_uris":{"android":"levelo://app?vid=e6b70fc6-8e32-48f9-91cc-54c58417e9de","ios":"levelo://app?vid=e6b70fc6-8e32-48f9-91cc-54c58417e9de"},"vehicle_type_id":"4","last_reported":1722197295,"current_range_meters":18400,"station_id":"ce4bgl92rcd13ifvqbq0","pricing_plan_id":"cebpf4jnsgd1na2vs0mg"},{"bike_id":"85badd45-eb09-407c-8ab2-13dabc5a08e2","system_id":"levelo_inurba_marseille","lat":43.312239,"lon":5.368562,"is_reserved":false,"is_disabled":false,"rental_uris":{"android":"levelo://app?vid=85badd45-eb09-407c-8ab2-13dabc5a08e2","ios":"levelo://app?vid=85badd45-eb09-407c-8ab2-13dabc5a08e2"},"vehicle_type_id":"4","last_reported":1722197295,"current_range_meters":6800,"station_id":"ce4bgl92rcd13ifvqbq0","pricing_plan_id":"cebpf4jnsgd1na2vs0mg"},{"bike_id":"248a5d56-54f6-495f-aae5-edfd232af173","system_id":"levelo_inurba_marseille","lat":43.312239,"lon":5.368562,"is_reserved":false,"is_disabled":false,"rental_uris":{"android":"levelo://app?vid=248a5d56-54f6-495f-aae5-edfd232af173","ios":"levelo://app?vid=248a5d56-54f6-495f-aae5-edfd232af173"},"vehicle_type_id":"4","last_reported":1722197295,"current_range_meters":31200,"station_id":"ce4bgl92rcd13ifvqbq0","pricing_plan_id":"cebpf4jnsgd1na2vs0mg"},{"bike_id":"10e7107d-9d28-4b59-84fe-98f02a8862ea","system_id":"levelo_inurba_marseille","lat":43.309076,"lon":5.368465,"is_reserved":false,"is_disabled":false,"rental_uris":{"android":"levelo://app?vid=10e7107d-9d28-4b59-84fe-98f02a8862ea","ios":"levelo://app?vid=10e7107d-9d28-4b59-84fe-98f02a8862ea"},"vehicle_type_id":"4","last_reported":1722197295,"current_range_meters":10400,"station_id":"ce4bgn92rcd13ifvqbvg","pricing_plan_id":"cebpf4jnsgd1na2vs0mg"},{"bike_id":"7ace5f97-7888-4762-8f40-3273b0c955f2","system_id":"levelo_inurba_marseille","lat":43.314811,"lon":5.373103,"is_reserved":false,"is_disabled":false,"rental_uris":{"android":"levelo://app?vid=7ace5f97-7888-4762-8f40-3273b0c955f2","ios":"levelo://app?vid=7ace5f97-7888-4762-8f40-3273b0c955f2"},"vehicle_type_id":"4","last_reported":1722197295,"current_range_meters":26400,"station_id":"ce4bgt12rcd13ifvqcd0","pricing_plan_id":"cebpf4jnsgd1na2vs0mg"},{"bike_id":"14e40bc0-e642-4885-a15f-f9eaee420d6f","system_id":"levelo_inurba_marseille","lat":43.314811,"lon":5.373103,"is_reserved":false,"is_disabled":false,"rental_uris":{"android":"levelo://app?vid=14e40bc0-e642-4885-a15f-f9eaee420d6f","ios":"levelo://app?vid=14e40bc0-e642-4885-a15f-f9eaee420d6f"},"vehicle_type_id":"4","last_reported":1722197295,"current_range_meters":27200,"station_id":"ce4bgt12rcd13ifvqcd0","pricing_plan_id":"cebpf4jnsgd1na2vs0mg"},{"bike_id":"978a0795-7438-4c64-9a6a-b1e426d188d6","system_id":"levelo_inurba_marseille","lat":43.317503,"lon":5.368793,"is_reserved":false,"is_disabled":false,"rental_uris":{"android":"levelo://app?vid=978a0795-7438-4c64-9a6a-b1e426d188d6","ios":"levelo://app?vid=978a0795-7438-4c64-9a6a-b1e426d188d6"},"vehicle_type_id":"4","last_reported":1722197295,"current_range_meters":800,"station_id":"","pricing_plan_id":"cebpf4jnsgd1na2vs0mg"},{"bike_id":"cc0f7080-89e8-42cc-a1aa-d882639ff825","system_id":"levelo_inurba_marseille","lat":43.31494,"lon":5.37307,"is_reserved":false,"is_disabled":false,"rental_uris":{"android":"levelo://app?vid=cc0f7080-89e8-42cc-a1aa-d882639ff825","ios":"levelo://app?vid=cc0f7080-89e8-42cc-a1aa-d882639ff825"},"vehicle_type_id":"4","last_reported":1722197295,"current_range_meters":800,"station_id":"ce4bgt12rcd13ifvqcd0","pricing_plan_id":"cebpf4jnsgd1na2vs0mg"},{"bike_id":"2458b13d-a34a-4719-b245-9b583141791c","system_id":"levelo_inurba_marseille","lat":43.31494,"lon":5.37312,"is_reserved":false,"is_disabled":false,"rental_uris":{"android":"levelo://app?vid=2458b13d-a34a-4719-b245-9b583141791c","ios":"levelo://app?vid=2458b13d-a34a-4719-b245-9b583141791c"},"vehicle_type_id":"4","last_reported":1722197295,"current_range_meters":28000,"station_id":"ce4bgt12rcd13ifvqcd0","pricing_plan_id":"cebpf4jnsgd1na2vs0mg"},{"bike_id":"9f3bb714-553f-4586-a516-998447857eaa","system_id":"levelo_inurba_marseille","lat":43.309039,"lon":5.371797,"is_reserved":false,"is_disabled":false,"rental_uris":{"android":"levelo://app?vid=9f3bb714-553f-4586-a516-998447857eaa","ios":"levelo://app?vid=9f3bb714-553f-4586-a516-998447857eaa"},"vehicle_type_id":"4","last_reported":1722197295,"current_range_meters":27600,"station_id":"ce4bguh2rcd13ifvqckg","pricing_plan_id":"cebpf4jnsgd1na2vs0mg"},{"bike_id":"468c95b2-f494-49ec-baab-9cd3a537b866","system_id":"levelo_inurba_marseille","lat":43.305712,"lon":5.365641,"is_reserved":false,"is_disabled":false,"rental_uris":{"android":"levelo://app?vid=468c95b2-f494-49ec-baab-9cd3a537b866","ios":"levelo://app?vid=468c95b2-f494-49ec-baab-9cd3a537b866"},"vehicle_type_id":"4","last_reported":1722197295,"current_range_meters":12400,"station_id":"ce4bgs12rcd13ifvqcag","pricing_plan_id":"cebpf4jnsgd1na2vs0mg"},{"bike_id":"e31b7490-3e3e-448d-983c-d14bde2bf611","system_id":"levelo_inurba_marseille","lat":43.30706,"lon":5.37307,"is_reserved":false,"is_disabled":false,"rental_uris":{"android":"levelo://app?vid=e31b7490-3e3e-448d-983c-d14bde2bf611","ios":"levelo://app?vid=e31b7490-3e3e-448d-983c-d14bde2bf611"},"vehicle_type_id":"4","last_reported":1722197295,"current_range_meters":1600,"station_id":"","pricing_plan_id":"cebpf4jnsgd1na2vs0mg"},{"bike_id":"61c0e8b7-9c78-4781-9f72-fa7b1e0ef95d","system_id":"levelo_inurba_marseille","lat":43.305714,"lon":5.365633,"is_reserved":false,"is_disabled":false,"rental_uris":{"android":"levelo://app?vid=61c0e8b7-9c78-4781-9f72-fa7b1e0ef95d","ios":"levelo://app?vid=61c0e8b7-9c78-4781-9f72-fa7b1e0ef95d"},"vehicle_type_id":"4","last_reported":1722197295,"current_range_meters":31200,"station_id":"ce4bgs12rcd13ifvqcag","pricing_plan_id":"cebpf4jnsgd1na2vs0mg"},{"bike_id":"7738da81-f655-462e-bd67-fc49580d90e4","system_id":"levelo_inurba_marseille","lat":43.3058,"lon":5.37069,"is_reserved":false,"is_disabled":false,"rental_uris":{"android":"levelo://app?vid=7738da81-f655-462e-bd67-fc49580d90e4","ios":"levelo://app?vid=7738da81-f655-462e-bd67-fc49580d90e4"},"vehicle_type_id":"4","last_reported":1722197295,"current_range_meters":0,"station_id":"","pricing_plan_id":"cebpf4jnsgd1na2vs0mg"},{"bike_id":"94c0a73e-0de5-4c04-b093-292fe01aa3d0","system_id":"levelo_inurba_marseille","lat":43.305714,"lon":5.365633,"is_reserved":false,"is_disabled":false,"rental_uris":{"android":"levelo://app?vid=94c0a73e-0de5-4c04-b093-292fe01aa3d0","ios":"levelo://app?vid=94c0a73e-0de5-4c04-b093-292fe01aa3d0"},"vehicle_type_id":"4","last_reported":1722197295,"current_range_meters":28800,"station_id":"ce4bgs12rcd13ifvqcag","pricing_plan_id":"cebpf4jnsgd1na2vs0mg"},{"bike_id":"5816f406-7502-4e63-a906-158f6d5f1e48","system_id":"levelo_inurba_marseille","lat":43.305989,"lon":5.37225,"is_reserved":false,"is_disabled":false,"rental_uris":{"android":"levelo://app?vid=5816f406-7502-4e63-a906-158f6d5f1e48","ios":"levelo://app?vid=5816f406-7502-4e63-a906-158f6d5f1e48"},"vehicle_type_id":"4","last_reported":1722197295,"current_range_meters":28800,"station_id":"ce4bgqh2rcd13ifvqc4g","pricing_plan_id":"cebpf4jnsgd1na2vs0mg"},{"bike_id":"c35e4d6e-a43e-46c5-ae7a-a75ee0b2e005","system_id":"levelo_inurba_marseille","lat":43.305989,"lon":5.37225,"is_reserved":false,"is_disabled":false,"rental_uris":{"android":"levelo://app?vid=c35e4d6e-a43e-46c5-ae7a-a75ee0b2e005","ios":"levelo://app?vid=c35e4d6e-a43e-46c5-ae7a-a75ee0b2e005"},"vehicle_type_id":"4","last_reported":1722197295,"current_range_meters":15600,"station_id":"ce4bgqh2rcd13ifvqc4g","pricing_plan_id":"cebpf4jnsgd1na2vs0mg"},{"bike_id":"49cea3b7-4097-4571-ab24-c61cd596646c","system_id":"levelo_inurba_marseille","lat":43.305989,"lon":5.37225,"is_reserved":false,"is_disabled":false,"rental_uris":{"android":"levelo://app?vid=49cea3b7-4097-4571-ab24-c61cd596646c","ios":"levelo://app?vid=49cea3b7-4097-4571-ab24-c61cd596646c"},"vehicle_type_id":"4","last_reported":1722197295,"current_range_meters":9200,"station_id":"ce4bgqh2rcd13ifvqc4g","pricing_plan_id":"cebpf4jnsgd1na2vs0mg"},{"bike_id":"fdc002f4-3f29-4f8e-9a0a-672bcd2442e9","system_id":"levelo_inurba_marseille","lat":43.305989,"lon":5.37225,"is_reserved":false,"is_disabled":false,"rental_uris":{"android":"levelo://app?vid=fdc002f4-3f29-4f8e-9a0a-672bcd2442e9","ios":"levelo://app?vid=fdc002f4-3f29-4f8e-9a0a-672bcd2442e9"},"vehicle_type_id":"4","last_reported":1722197295,"current_range_meters":2800,"station_id":"ce4bgqh2rcd13ifvqc4g","pricing_plan_id":"cebpf4jnsgd1na2vs0mg"},{"bike_id":"e11e0090-dd91-4d12-a75d-f726ff399a2e","system_id":"levelo_inurba_marseille","lat":43.305989,"lon":5.37225,"is_reserved":false,"is_disabled":false,"rental_uris":{"android":"levelo://app?vid=e11e0090-dd91-4d12-a75d-f726ff399a2e","ios":"levelo://app?vid=e11e0090-dd91-4d12-a75d-f726ff399a2e"},"vehicle_type_id":"4","last_reported":1722197295,"current_range_meters":20800,"station_id":"ce4bgqh2rcd13ifvqc4g","pricing_plan_id":"cebpf4jnsgd1na2vs0mg"},{"bike_id":"41989224-0ae7-4afe-80d7-273b172b0e48","system_id":"levelo_inurba_marseille","lat":43.31114,"lon":5.37758,"is_reserved":false,"is_disabled":false,"rental_uris":{"android":"levelo://app?vid=41989224-0ae7-4afe-80d7-273b172b0e48","ios":"levelo://app?vid=41989224-0ae7-4afe-80d7-273b172b0e48"},"vehicle_type_id":"4","last_reported":1722197295,"current_range_meters":9200,"station_id":"ce4bgt92rcd13ifvqcg0","pricing_plan_id":"cebpf4jnsgd1na2vs0mg"},{"bike_id":"d960adb8-5377-4607-b771-3c62e541f796","system_id":"levelo_inurba_marseille","lat":43.311259,"lon":5.377644,"is_reserved":false,"is_disabled":false,"rental_uris":{"android":"levelo://app?vid=d960adb8-5377-4607-b771-3c62e541f796","ios":"levelo://app?vid=d960adb8-5377-4607-b771-3c62e541f796"},"vehicle_type_id":"4","last_reported":1722197295,"current_range_meters":19200,"station_id":"ce4bgt92rcd13ifvqcg0","pricing_plan_id":"cebpf4jnsgd1na2vs0mg"},{"bike_id":"2b33ff53-8786-4a11-8ba7-e98c3e8fb839","system_id":"levelo_inurba_marseille","lat":43.31123,"lon":5.37799,"is_reserved":false,"is_disabled":false,"rental_uris":{"android":"levelo://app?vid=2b33ff53-8786-4a11-8ba7-e98c3e8fb839","ios":"levelo://app?vid=2b33ff53-8786-4a11-8ba7-e98c3e8fb839"},"vehicle_type_id":"4","last_reported":1722197295,"current_range_meters":31200,"station_id":"ce4bgt92rcd13ifvqcg0","pricing_plan_id":"cebpf4jnsgd1na2vs0mg"},{"bike_id":"27a733fb-58d1-4cd2-b8c1-e0f4416f26ad","system_id":"levelo_inurba_marseille","lat":43.307945,"lon":5.376487,"is_reserved":false,"is_disabled":false,"rental_uris":{"android":"levelo://app?vid=27a733fb-58d1-4cd2-b8c1-e0f4416f26ad","ios":"levelo://app?vid=27a733fb-58d1-4cd2-b8c1-e0f4416f26ad"},"vehicle_type_id":"4","last_reported":1722197295,"current_range_meters":26000,"station_id":"ce4bgv92rcd13ifvqcq0","pricing_plan_id":"cebpf4jnsgd1na2vs0mg"},{"bike_id":"2876553e-114b-4988-ba71-b554d651846a","system_id":"levelo_inurba_marseille","lat":43.307945,"lon":5.376487,"is_reserved":false,"is_disabled":false,"rental_uris":{"android":"levelo://app?vid=2876553e-114b-4988-ba71-b554d651846a","ios":"levelo://app?vid=2876553e-114b-4988-ba71-b554d651846a"},"vehicle_type_id":"4","last_reported":1722197295,"current_range_meters":4000,"station_id":"ce4bgv92rcd13ifvqcq0","pricing_plan_id":"cebpf4jnsgd1na2vs0mg"},{"bike_id":"06cca1ee-45c5-41df-891b-e4eb136d29d0","system_id":"levelo_inurba_marseille","lat":43.307945,"lon":5.376487,"is_reserved":false,"is_disabled":false,"rental_uris":{"android":"levelo://app?vid=06cca1ee-45c5-41df-891b-e4eb136d29d0","ios":"levelo://app?vid=06cca1ee-45c5-41df-891b-e4eb136d29d0"},"vehicle_type_id":"4","last_reported":1722197295,"current_range_meters":31200,"station_id":"ce4bgv92rcd13ifvqcq0","pricing_plan_id":"cebpf4jnsgd1na2vs0mg"},{"bike_id":"7caba1f6-4e4d-4f96-9bbb-2ce3c96ac2f0","system_id":"levelo_inurba_marseille","lat":43.317075,"lon":5.377367,"is_reserved":false,"is_disabled":false,"rental_uris":{"android":"levelo://app?vid=7caba1f6-4e4d-4f96-9bbb-2ce3c96ac2f0","ios":"levelo://app?vid=7caba1f6-4e4d-4f96-9bbb-2ce3c96ac2f0"},"vehicle_type_id":"4","last_reported":1722197295,"current_range_meters":31600,"station_id":"ce4bgth2rcd13ifvqch0","pricing_plan_id":"cebpf4jnsgd1na2vs0mg"},{"bike_id":"2e7a1f78-45ae-41c6-8401-ea002638c417","system_id":"levelo_inurba_marseille","lat":43.315289,"lon":5.380349,"is_reserved":false,"is_disabled":false,"rental_uris":{"android":"levelo://app?vid=2e7a1f78-45ae-41c6-8401-ea002638c417","ios":"levelo://app?vid=2e7a1f78-45ae-41c6-8401-ea002638c417"},"vehicle_type_id":"4","last_reported":1722197295,"current_range_meters":4400,"station_id":"ce4bhsp2rcd13ifvqi50","pricing_plan_id":"cebpf4jnsgd1na2vs0mg"},{"bike_id":"fd5d8b70-ea3a-49db-b00f-15a298c7215a","system_id":"levelo_inurba_marseille","lat":43.301939,"lon":5.366286,"is_reserved":false,"is_disabled":false,"rental_uris":{"android":"levelo://app?vid=fd5d8b70-ea3a-49db-b00f-15a298c7215a","ios":"levelo://app?vid=fd5d8b70-ea3a-49db-b00f-15a298c7215a"},"vehicle_type_id":"4","last_reported":1722197295,"current_range_meters":2400,"station_id":"ce4bgrh2rcd13ifvqc8g","pricing_plan_id":"cebpf4jnsgd1na2vs0mg"},{"bike_id":"c7ffad53-44cc-4f9c-94dc-076b3e85e0f5","system_id":"levelo_inurba_marseille","lat":43.301939,"lon":5.366286,"is_reserved":false,"is_disabled":false,"rental_uris":{"android":"levelo://app?vid=c7ffad53-44cc-4f9c-94dc-076b3e85e0f5","ios":"levelo://app?vid=c7ffad53-44cc-4f9c-94dc-076b3e85e0f5"},"vehicle_type_id":"4","last_reported":1722197295,"current_range_meters":6800,"station_id":"ce4bgrh2rcd13ifvqc8g","pricing_plan_id":"cebpf4jnsgd1na2vs0mg"},{"bike_id":"7d2b7f19-f8bc-4fd9-ae00-dccc30a9033c","system_id":"levelo_inurba_marseille","lat":43.301939,"lon":5.366286,"is_reserved":false,"is_disabled":false,"rental_uris":{"android":"levelo://app?vid=7d2b7f19-f8bc-4fd9-ae00-dccc30a9033c","ios":"levelo://app?vid=7d2b7f19-f8bc-4fd9-ae00-dccc30a9033c"},"vehicle_type_id":"4","last_reported":1722197295,"current_range_meters":30000,"station_id":"ce4bgrh2rcd13ifvqc8g","pricing_plan_id":"cebpf4jnsgd1na2vs0mg"},{"bike_id":"ee9715eb-253f-4937-b7f6-36052fe05e2c","system_id":"levelo_inurba_marseille","lat":43.301939,"lon":5.366286,"is_reserved":false,"is_disabled":false,"rental_uris":{"android":"levelo://app?vid=ee9715eb-253f-4937-b7f6-36052fe05e2c","ios":"levelo://app?vid=ee9715eb-253f-4937-b7f6-36052fe05e2c"},"vehicle_type_id":"4","last_reported":1722197295,"current_range_meters":30000,"station_id":"ce4bgrh2rcd13ifvqc8g","pricing_plan_id":"cebpf4jnsgd1na2vs0mg"},{"bike_id":"e4841477-2de7-4454-a2c2-df7dc5109413","system_id":"levelo_inurba_marseille","lat":43.308012,"lon":5.381511,"is_reserved":false,"is_disabled":false,"rental_uris":{"android":"levelo://app?vid=e4841477-2de7-4454-a2c2-df7dc5109413","ios":"levelo://app?vid=e4841477-2de7-4454-a2c2-df7dc5109413"},"vehicle_type_id":"4","last_reported":1722197295,"current_range_meters":22400,"station_id":"ce4bgt12rcd13ifvqce0","pricing_plan_id":"cebpf4jnsgd1na2vs0mg"},{"bike_id":"0fad418a-db87-43b5-a7c5-d50373a42243","system_id":"levelo_inurba_marseille","lat":43.308012,"lon":5.381511,"is_reserved":false,"is_disabled":false,"rental_uris":{"android":"levelo://app?vid=0fad418a-db87-43b5-a7c5-d50373a42243","ios":"levelo://app?vid=0fad418a-db87-43b5-a7c5-d50373a42243"},"vehicle_type_id":"4","last_reported":1722197295,"current_range_meters":0,"station_id":"ce4bgt12rcd13ifvqce0","pricing_plan_id":"cebpf4jnsgd1na2vs0mg"},{"bike_id":"fcadd7f3-9ffe-48af-85e0-eed80bcc91aa","system_id":"levelo_inurba_marseille","lat":43.324771,"lon":5.36557,"is_reserved":false,"is_disabled":false,"rental_uris":{"android":"levelo://app?vid=fcadd7f3-9ffe-48af-85e0-eed80bcc91aa","ios":"levelo://app?vid=fcadd7f3-9ffe-48af-85e0-eed80bcc91aa"},"vehicle_type_id":"4","last_reported":1722197295,"current_range_meters":28000,"station_id":"ce4bhs12rcd13ifvqhvg","pricing_plan_id":"cebpf4jnsgd1na2vs0mg"},{"bike_id":"72d45011-5ba6-4753-844f-0cfa238eb832","system_id":"levelo_inurba_marseille","lat":43.32476,"lon":5.3657,"is_reserved":false,"is_disabled":false,"rental_uris":{"android":"levelo://app?vid=72d45011-5ba6-4753-844f-0cfa238eb832","ios":"levelo://app?vid=72d45011-5ba6-4753-844f-0cfa238eb832"},"vehicle_type_id":"4","last_reported":1722197295,"current_range_meters":0,"station_id":"ce4bhs12rcd13ifvqhvg","pricing_plan_id":"cebpf4jnsgd1na2vs0mg"},{"bike_id":"548f38fc-89ab-4849-b1e2-18d330f55f6a","system_id":"levelo_inurba_marseille","lat":43.324771,"lon":5.36557,"is_reserved":false,"is_disabled":false,"rental_uris":{"android":"levelo://app?vid=548f38fc-89ab-4849-b1e2-18d330f55f6a","ios":"levelo://app?vid=548f38fc-89ab-4849-b1e2-18d330f55f6a"},"vehicle_type_id":"4","last_reported":1722197295,"current_range_meters":27200,"station_id":"ce4bhs12rcd13ifvqhvg","pricing_plan_id":"cebpf4jnsgd1na2vs0mg"},{"bike_id":"57204721-7233-4d2f-a5f5-f5b23ea82e6f","system_id":"levelo_inurba_marseille","lat":43.324771,"lon":5.36557,"is_reserved":false,"is_disabled":false,"rental_uris":{"android":"levelo://app?vid=57204721-7233-4d2f-a5f5-f5b23ea82e6f","ios":"levelo://app?vid=57204721-7233-4d2f-a5f5-f5b23ea82e6f"},"vehicle_type_id":"4","last_reported":1722197295,"current_range_meters":29200,"station_id":"ce4bhs12rcd13ifvqhvg","pricing_plan_id":"cebpf4jnsgd1na2vs0mg"},{"bike_id":"826dd1ea-75fe-4767-bd9f-3b4b72a3748b","system_id":"levelo_inurba_marseille","lat":43.324771,"lon":5.36557,"is_reserved":false,"is_disabled":false,"rental_uris":{"android":"levelo://app?vid=826dd1ea-75fe-4767-bd9f-3b4b72a3748b","ios":"levelo://app?vid=826dd1ea-75fe-4767-bd9f-3b4b72a3748b"},"vehicle_type_id":"4","last_reported":1722197295,"current_range_meters":31200,"station_id":"ce4bhs12rcd13ifvqhvg","pricing_plan_id":"cebpf4jnsgd1na2vs0mg"},{"bike_id":"5704b211-9bae-4c0b-ad11-d91628bcc39f","system_id":"levelo_inurba_marseille","lat":43.310804,"lon":5.38359,"is_reserved":false,"is_disabled":false,"rental_uris":{"android":"levelo://app?vid=5704b211-9bae-4c0b-ad11-d91628bcc39f","ios":"levelo://app?vid=5704b211-9bae-4c0b-ad11-d91628bcc39f"},"vehicle_type_id":"4","last_reported":1722197295,"current_range_meters":0,"station_id":"ce4bgv92rcd13ifvqcr0","pricing_plan_id":"cebpf4jnsgd1na2vs0mg"},{"bike_id":"eb9fc5cc-8d95-4989-b679-0e99c5a9bf5b","system_id":"levelo_inurba_marseille","lat":43.310804,"lon":5.38359,"is_reserved":false,"is_disabled":false,"rental_uris":{"android":"levelo://app?vid=eb9fc5cc-8d95-4989-b679-0e99c5a9bf5b","ios":"levelo://app?vid=eb9fc5cc-8d95-4989-b679-0e99c5a9bf5b"},"vehicle_type_id":"4","last_reported":1722197295,"current_range_meters":0,"station_id":"ce4bgv92rcd13ifvqcr0","pricing_plan_id":"cebpf4jnsgd1na2vs0mg"},{"bike_id":"fc56241b-aad1-4fbd-8600-f73d7a506520","system_id":"levelo_inurba_marseille","lat":43.30143,"lon":5.37413,"is_reserved":false,"is_disabled":false,"rental_uris":{"android":"levelo://app?vid=fc56241b-aad1-4fbd-8600-f73d7a506520","ios":"levelo://app?vid=fc56241b-aad1-4fbd-8600-f73d7a506520"},"vehicle_type_id":"4","last_reported":1722197295,"current_range_meters":27200,"station_id":"ce4bgs92rcd13ifvqcc0","pricing_plan_id":"cebpf4jnsgd1na2vs0mg"},{"bike_id":"51bb31d1-1eba-459f-932c-893ee7f727fe","system_id":"levelo_inurba_marseille","lat":43.30143,"lon":5.37413,"is_reserved":false,"is_disabled":false,"rental_uris":{"android":"levelo://app?vid=51bb31d1-1eba-459f-932c-893ee7f727fe","ios":"levelo://app?vid=51bb31d1-1eba-459f-932c-893ee7f727fe"},"vehicle_type_id":"4","last_reported":1722197295,"current_range_meters":24000,"station_id":"ce4bgs92rcd13ifvqcc0","pricing_plan_id":"cebpf4jnsgd1na2vs0mg"},{"bike_id":"61186419-b126-4009-aa32-6c7ed3af3dc8","system_id":"levelo_inurba_marseille","lat":43.31104,"lon":5.38391,"is_reserved":false,"is_disabled":false,"rental_uris":{"android":"levelo://app?vid=61186419-b126-4009-aa32-6c7ed3af3dc8","ios":"levelo://app?vid=61186419-b126-4009-aa32-6c7ed3af3dc8"},"vehicle_type_id":"4","last_reported":1722197295,"current_range_meters":11200,"station_id":"","pricing_plan_id":"cebpf4jnsgd1na2vs0mg"},{"bike_id":"f04f8b9a-b7be-4045-a847-e23a8e84b321","system_id":"levelo_inurba_marseille","lat":43.30143,"lon":5.37413,"is_reserved":false,"is_disabled":false,"rental_uris":{"android":"levelo://app?vid=f04f8b9a-b7be-4045-a847-e23a8e84b321","ios":"levelo://app?vid=f04f8b9a-b7be-4045-a847-e23a8e84b321"},"vehicle_type_id":"4","last_reported":1722197295,"current_range_meters":0,"station_id":"ce4bgs92rcd13ifvqcc0","pricing_plan_id":"cebpf4jnsgd1na2vs0mg"},{"bike_id":"7cf6c23a-d12f-422b-9557-349039111532","system_id":"levelo_inurba_marseille","lat":43.302784,"lon":5.377158,"is_reserved":false,"is_disabled":false,"rental_uris":{"android":"levelo://app?vid=7cf6c23a-d12f-422b-9557-349039111532","ios":"levelo://app?vid=7cf6c23a-d12f-422b-9557-349039111532"},"vehicle_type_id":"4","last_reported":1722197295,"current_range_meters":0,"station_id":"ce4bguh2rcd13ifvqcj0","pricing_plan_id":"cebpf4jnsgd1na2vs0mg"},{"bike_id":"d500f78d-3d0c-462e-ab4e-fdd44e0124f0","system_id":"levelo_inurba_marseille","lat":43.31994,"lon":5.38142,"is_reserved":false,"is_disabled":false,"rental_uris":{"android":"levelo://app?vid=d500f78d-3d0c-462e-ab4e-fdd44e0124f0","ios":"levelo://app?vid=d500f78d-3d0c-462e-ab4e-fdd44e0124f0"},"vehicle_type_id":"4","last_reported":1722197295,"current_range_meters":31200,"station_id":"ce4bhr12rcd13ifvqhpg","pricing_plan_id":"cebpf4jnsgd1na2vs0mg"},{"bike_id":"4ce1f320-353a-4877-b337-14ebe4394225","system_id":"levelo_inurba_marseille","lat":43.319935,"lon":5.381699,"is_reserved":false,"is_disabled":false,"rental_uris":{"android":"levelo://app?vid=4ce1f320-353a-4877-b337-14ebe4394225","ios":"levelo://app?vid=4ce1f320-353a-4877-b337-14ebe4394225"},"vehicle_type_id":"4","last_reported":1722197295,"current_range_meters":31200,"station_id":"ce4bhr12rcd13ifvqhpg","pricing_plan_id":"cebpf4jnsgd1na2vs0mg"},{"bike_id":"ba751eab-e386-4f42-b81e-204bfba1b413","system_id":"levelo_inurba_marseille","lat":43.319935,"lon":5.381699,"is_reserved":false,"is_disabled":false,"rental_uris":{"android":"levelo://app?vid=ba751eab-e386-4f42-b81e-204bfba1b413","ios":"levelo://app?vid=ba751eab-e386-4f42-b81e-204bfba1b413"},"vehicle_type_id":"4","last_reported":1722197295,"current_range_meters":24000,"station_id":"ce4bhr12rcd13ifvqhpg","pricing_plan_id":"cebpf4jnsgd1na2vs0mg"},{"bike_id":"021fb77c-ef54-41de-97b9-e5366fe67f0d","system_id":"levelo_inurba_marseille","lat":43.319935,"lon":5.381699,"is_reserved":false,"is_disabled":false,"rental_uris":{"android":"levelo://app?vid=021fb77c-ef54-41de-97b9-e5366fe67f0d","ios":"levelo://app?vid=021fb77c-ef54-41de-97b9-e5366fe67f0d"},"vehicle_type_id":"4","last_reported":1722197295,"current_range_meters":27600,"station_id":"ce4bhr12rcd13ifvqhpg","pricing_plan_id":"cebpf4jnsgd1na2vs0mg"},{"bike_id":"a4f17773-6b14-48f5-b29c-d23c9848e4eb","system_id":"levelo_inurba_marseille","lat":43.30504,"lon":5.3815,"is_reserved":false,"is_disabled":false,"rental_uris":{"android":"levelo://app?vid=a4f17773-6b14-48f5-b29c-d23c9848e4eb","ios":"levelo://app?vid=a4f17773-6b14-48f5-b29c-d23c9848e4eb"},"vehicle_type_id":"4","last_reported":1722197295,"current_range_meters":0,"station_id":"","pricing_plan_id":"cebpf4jnsgd1na2vs0mg"},{"bike_id":"8d54d7b0-f943-40fa-b5dc-dda08faba254","system_id":"levelo_inurba_marseille","lat":43.29994,"lon":5.3722,"is_reserved":false,"is_disabled":false,"rental_uris":{"android":"levelo://app?vid=8d54d7b0-f943-40fa-b5dc-dda08faba254","ios":"levelo://app?vid=8d54d7b0-f943-40fa-b5dc-dda08faba254"},"vehicle_type_id":"4","last_reported":1722197295,"current_range_meters":28400,"station_id":"","pricing_plan_id":"cebpf4jnsgd1na2vs0mg"},{"bike_id":"88338220-0725-4c3b-bb77-89c1a0d15659","system_id":"levelo_inurba_marseille","lat":43.29983,"lon":5.37173,"is_reserved":false,"is_disabled":false,"rental_uris":{"android":"levelo://app?vid=88338220-0725-4c3b-bb77-89c1a0d15659","ios":"levelo://app?vid=88338220-0725-4c3b-bb77-89c1a0d15659"},"vehicle_type_id":"4","last_reported":1722197295,"current_range_meters":12400,"station_id":"ce4bgr92rcd13ifvqc7g","pricing_plan_id":"cebpf4jnsgd1na2vs0mg"},{"bike_id":"f5bab972-2696-4e03-839f-cf64bcfcfa0c","system_id":"levelo_inurba_marseille","lat":43.31436,"lon":5.38525,"is_reserved":false,"is_disabled":false,"rental_uris":{"android":"levelo://app?vid=f5bab972-2696-4e03-839f-cf64bcfcfa0c","ios":"levelo://app?vid=f5bab972-2696-4e03-839f-cf64bcfcfa0c"},"vehicle_type_id":"4","last_reported":1722197295,"current_range_meters":29200,"station_id":"","pricing_plan_id":"cebpf4jnsgd1na2vs0mg"},{"bike_id":"2645c5ee-2e79-426c-8113-e34efcd4d4f0","system_id":"levelo_inurba_marseille","lat":43.299328,"lon":5.365612,"is_reserved":false,"is_disabled":false,"rental_uris":{"android":"levelo://app?vid=2645c5ee-2e79-426c-8113-e34efcd4d4f0","ios":"levelo://app?vid=2645c5ee-2e79-426c-8113-e34efcd4d4f0"},"vehicle_type_id":"4","last_reported":1722197295,"current_range_meters":12400,"station_id":"","pricing_plan_id":"cebpf4jnsgd1na2vs0mg"},{"bike_id":"3ab3fb2b-f9ed-42ec-914e-ee2c5694c1df","system_id":"levelo_inurba_marseille","lat":43.299724,"lon":5.371829,"is_reserved":false,"is_disabled":false,"rental_uris":{"android":"levelo://app?vid=3ab3fb2b-f9ed-42ec-914e-ee2c5694c1df","ios":"levelo://app?vid=3ab3fb2b-f9ed-42ec-914e-ee2c5694c1df"},"vehicle_type_id":"4","last_reported":1722197295,"current_range_meters":21600,"station_id":"ce4bgr92rcd13ifvqc7g","pricing_plan_id":"cebpf4jnsgd1na2vs0mg"},{"bike_id":"987461d4-d4a8-43a2-9b10-87e5b6862b0c","system_id":"levelo_inurba_marseille","lat":43.299209,"lon":5.365547,"is_reserved":false,"is_disabled":false,"rental_uris":{"android":"levelo://app?vid=987461d4-d4a8-43a2-9b10-87e5b6862b0c","ios":"levelo://app?vid=987461d4-d4a8-43a2-9b10-87e5b6862b0c"},"vehicle_type_id":"4","last_reported":1722197295,"current_range_meters":27200,"station_id":"ce4bgm92rcd13ifvqbr0","pricing_plan_id":"cebpf4jnsgd1na2vs0mg"},{"bike_id":"83f7c6f0-397e-4c7a-99c5-4a05f5aa36bc","system_id":"levelo_inurba_marseille","lat":43.299724,"lon":5.371829,"is_reserved":false,"is_disabled":false,"rental_uris":{"android":"levelo://app?vid=83f7c6f0-397e-4c7a-99c5-4a05f5aa36bc","ios":"levelo://app?vid=83f7c6f0-397e-4c7a-99c5-4a05f5aa36bc"},"vehicle_type_id":"4","last_reported":1722197295,"current_range_meters":7200,"station_id":"ce4bgr92rcd13ifvqc7g","pricing_plan_id":"cebpf4jnsgd1na2vs0mg"},{"bike_id":"3be52efc-d971-4c78-8d21-e8567caf3da9","system_id":"levelo_inurba_marseille","lat":43.305364,"lon":5.384119,"is_reserved":false,"is_disabled":false,"rental_uris":{"android":"levelo://app?vid=3be52efc-d971-4c78-8d21-e8567caf3da9","ios":"levelo://app?vid=3be52efc-d971-4c78-8d21-e8567caf3da9"},"vehicle_type_id":"4","last_reported":1722197295,"current_range_meters":9200,"station_id":"ce4bgg92rcd13ifvqb30","pricing_plan_id":"cebpf4jnsgd1na2vs0mg"},{"bike_id":"40487929-b3bd-47d9-8936-14d89d6d8adb","system_id":"levelo_inurba_marseille","lat":43.299113,"lon":5.374633,"is_reserved":false,"is_disabled":false,"rental_uris":{"android":"levelo://app?vid=40487929-b3bd-47d9-8936-14d89d6d8adb","ios":"levelo://app?vid=40487929-b3bd-47d9-8936-14d89d6d8adb"},"vehicle_type_id":"4","last_reported":1722197295,"current_range_meters":0,"station_id":"ce4bgjh2rcd13ifvqbg0","pricing_plan_id":"cebpf4jnsgd1na2vs0mg"},{"bike_id":"ffe1e024-e87e-4980-a785-2bec27805982","system_id":"levelo_inurba_marseille","lat":43.29937,"lon":5.37559,"is_reserved":false,"is_disabled":false,"rental_uris":{"android":"levelo://app?vid=ffe1e024-e87e-4980-a785-2bec27805982","ios":"levelo://app?vid=ffe1e024-e87e-4980-a785-2bec27805982"},"vehicle_type_id":"4","last_reported":1722197295,"current_range_meters":3600,"station_id":"","pricing_plan_id":"cebpf4jnsgd1na2vs0mg"},{"bike_id":"f443894d-fbf7-4654-92ac-60ce93d7a53e","system_id":"levelo_inurba_marseille","lat":43.30155,"lon":5.38074,"is_reserved":false,"is_disabled":false,"rental_uris":{"android":"levelo://app?vid=f443894d-fbf7-4654-92ac-60ce93d7a53e","ios":"levelo://app?vid=f443894d-fbf7-4654-92ac-60ce93d7a53e"},"vehicle_type_id":"4","last_reported":1722197295,"current_range_meters":31200,"station_id":"","pricing_plan_id":"cebpf4jnsgd1na2vs0mg"},{"bike_id":"29be835e-8d74-4e1b-8107-64f34f6c8f94","system_id":"levelo_inurba_marseille","lat":43.301505,"lon":5.38078,"is_reserved":false,"is_disabled":false,"rental_uris":{"android":"levelo://app?vid=29be835e-8d74-4e1b-8107-64f34f6c8f94","ios":"levelo://app?vid=29be835e-8d74-4e1b-8107-64f34f6c8f94"},"vehicle_type_id":"4","last_reported":1722197295,"current_range_meters":27600,"station_id":"","pricing_plan_id":"cebpf4jnsgd1na2vs0mg"},{"bike_id":"aab82a0a-4ede-4a41-b0be-0fb5160f6557","system_id":"levelo_inurba_marseille","lat":43.27618,"lon":5.361009,"is_reserved":false,"is_disabled":false,"rental_uris":{"android":"levelo://app?vid=aab82a0a-4ede-4a41-b0be-0fb5160f6557","ios":"levelo://app?vid=aab82a0a-4ede-4a41-b0be-0fb5160f6557"},"vehicle_type_id":"4","last_reported":1722197295,"current_range_meters":31200,"station_id":"ce4bgj92rcd13ifvqbe0","pricing_plan_id":"cebpf4jnsgd1na2vs0mg"},{"bike_id":"68d13eb5-bd82-40de-92e9-475b15ca2209","system_id":"levelo_inurba_marseille","lat":43.29788,"lon":5.3711,"is_reserved":false,"is_disabled":false,"rental_uris":{"android":"levelo://app?vid=68d13eb5-bd82-40de-92e9-475b15ca2209","ios":"levelo://app?vid=68d13eb5-bd82-40de-92e9-475b15ca2209"},"vehicle_type_id":"4","last_reported":1722197295,"current_range_meters":21600,"station_id":"ce4bgop2rcd13ifvqc1g","pricing_plan_id":"cebpf4jnsgd1na2vs0mg"},{"bike_id":"bfdc79db-9407-4643-a4df-5ada5134d970","system_id":"levelo_inurba_marseille","lat":43.32197,"lon":5.38369,"is_reserved":false,"is_disabled":false,"rental_uris":{"android":"levelo://app?vid=bfdc79db-9407-4643-a4df-5ada5134d970","ios":"levelo://app?vid=bfdc79db-9407-4643-a4df-5ada5134d970"},"vehicle_type_id":"4","last_reported":1722197295,"current_range_meters":21600,"station_id":"","pricing_plan_id":"cebpf4jnsgd1na2vs0mg"},{"bike_id":"0c653501-29e3-481e-8e8c-25616cbd788c","system_id":"levelo_inurba_marseille","lat":43.319935,"lon":5.381699,"is_reserved":false,"is_disabled":false,"rental_uris":{"android":"levelo://app?vid=0c653501-29e3-481e-8e8c-25616cbd788c","ios":"levelo://app?vid=0c653501-29e3-481e-8e8c-25616cbd788c"},"vehicle_type_id":"4","last_reported":1722197295,"current_range_meters":8400,"station_id":"ce4bhr12rcd13ifvqhpg","pricing_plan_id":"cebpf4jnsgd1na2vs0mg"},{"bike_id":"79a14e6b-20bb-4cb2-b74a-264a2b4ba097","system_id":"levelo_inurba_marseille","lat":43.322872,"lon":5.382756,"is_reserved":false,"is_disabled":false,"rental_uris":{"android":"levelo://app?vid=79a14e6b-20bb-4cb2-b74a-264a2b4ba097","ios":"levelo://app?vid=79a14e6b-20bb-4cb2-b74a-264a2b4ba097"},"vehicle_type_id":"4","last_reported":1722197295,"current_range_meters":9600,"station_id":"ce4bhr12rcd13ifvqhqg","pricing_plan_id":"cebpf4jnsgd1na2vs0mg"},{"bike_id":"0cb9fca5-bf3c-423f-a18e-2816fdd8b752","system_id":"levelo_inurba_marseille","lat":43.322872,"lon":5.382756,"is_reserved":false,"is_disabled":false,"rental_uris":{"android":"levelo://app?vid=0cb9fca5-bf3c-423f-a18e-2816fdd8b752","ios":"levelo://app?vid=0cb9fca5-bf3c-423f-a18e-2816fdd8b752"},"vehicle_type_id":"4","last_reported":1722197295,"current_range_meters":14800,"station_id":"ce4bhr12rcd13ifvqhqg","pricing_plan_id":"cebpf4jnsgd1na2vs0mg"},{"bike_id":"035feb10-d44e-4d22-bc19-490480ee2d4f","system_id":"levelo_inurba_marseille","lat":43.322872,"lon":5.382756,"is_reserved":false,"is_disabled":false,"rental_uris":{"android":"levelo://app?vid=035feb10-d44e-4d22-bc19-490480ee2d4f","ios":"levelo://app?vid=035feb10-d44e-4d22-bc19-490480ee2d4f"},"vehicle_type_id":"4","last_reported":1722197295,"current_range_meters":31600,"station_id":"ce4bhr12rcd13ifvqhqg","pricing_plan_id":"cebpf4jnsgd1na2vs0mg"},{"bike_id":"1cf71551-e2ca-4f03-b632-c9418bc2943d","system_id":"levelo_inurba_marseille","lat":43.29776,"lon":5.36154,"is_reserved":false,"is_disabled":false,"rental_uris":{"android":"levelo://app?vid=1cf71551-e2ca-4f03-b632-c9418bc2943d","ios":"levelo://app?vid=1cf71551-e2ca-4f03-b632-c9418bc2943d"},"vehicle_type_id":"4","last_reported":1722197295,"current_range_meters":24000,"station_id":"","pricing_plan_id":"cebpf4jnsgd1na2vs0mg"},{"bike_id":"432efcad-8ee5-4cb5-b8bd-ac35862739c7","system_id":"levelo_inurba_marseille","lat":43.29771,"lon":5.36173,"is_reserved":false,"is_disabled":false,"rental_uris":{"android":"levelo://app?vid=432efcad-8ee5-4cb5-b8bd-ac35862739c7","ios":"levelo://app?vid=432efcad-8ee5-4cb5-b8bd-ac35862739c7"},"vehicle_type_id":"4","last_reported":1722197295,"current_range_meters":3600,"station_id":"","pricing_plan_id":"cebpf4jnsgd1na2vs0mg"},{"bike_id":"7918f30d-5324-405c-8e52-49603ff3af55","system_id":"levelo_inurba_marseille","lat":43.297163,"lon":5.365866,"is_reserved":false,"is_disabled":false,"rental_uris":{"android":"levelo://app?vid=7918f30d-5324-405c-8e52-49603ff3af55","ios":"levelo://app?vid=7918f30d-5324-405c-8e52-49603ff3af55"},"vehicle_type_id":"4","last_reported":1722197295,"current_range_meters":12800,"station_id":"ce4bgn12rcd13ifvqbt0","pricing_plan_id":"cebpf4jnsgd1na2vs0mg"},{"bike_id":"bcf20cf8-52b0-43d3-b64a-b5d716234be4","system_id":"levelo_inurba_marseille","lat":43.297116,"lon":5.366056,"is_reserved":false,"is_disabled":false,"rental_uris":{"android":"levelo://app?vid=bcf20cf8-52b0-43d3-b64a-b5d716234be4","ios":"levelo://app?vid=bcf20cf8-52b0-43d3-b64a-b5d716234be4"},"vehicle_type_id":"4","last_reported":1722197295,"current_range_meters":15200,"station_id":"","pricing_plan_id":"cebpf4jnsgd1na2vs0mg"},{"bike_id":"d9286129-0d5a-4cda-9fd3-c5b7c3ed5cb5","system_id":"levelo_inurba_marseille","lat":43.322872,"lon":5.382756,"is_reserved":false,"is_disabled":false,"rental_uris":{"android":"levelo://app?vid=d9286129-0d5a-4cda-9fd3-c5b7c3ed5cb5","ios":"levelo://app?vid=d9286129-0d5a-4cda-9fd3-c5b7c3ed5cb5"},"vehicle_type_id":"4","last_reported":1722197295,"current_range_meters":31600,"station_id":"ce4bhr12rcd13ifvqhqg","pricing_plan_id":"cebpf4jnsgd1na2vs0mg"},{"bike_id":"f7482354-1ab0-4e8a-b799-99b928117f31","system_id":"levelo_inurba_marseille","lat":43.298036,"lon":5.376667,"is_reserved":false,"is_disabled":false,"rental_uris":{"android":"levelo://app?vid=f7482354-1ab0-4e8a-b799-99b928117f31","ios":"levelo://app?vid=f7482354-1ab0-4e8a-b799-99b928117f31"},"vehicle_type_id":"4","last_reported":1722197295,"current_range_meters":30800,"station_id":"","pricing_plan_id":"cebpf4jnsgd1na2vs0mg"},{"bike_id":"77ebd6f7-0e15-4246-8feb-b1d720ac899a","system_id":"levelo_inurba_marseille","lat":43.300563,"lon":5.38216,"is_reserved":false,"is_disabled":false,"rental_uris":{"android":"levelo://app?vid=77ebd6f7-0e15-4246-8feb-b1d720ac899a","ios":"levelo://app?vid=77ebd6f7-0e15-4246-8feb-b1d720ac899a"},"vehicle_type_id":"4","last_reported":1722197295,"current_range_meters":14000,"station_id":"","pricing_plan_id":"cebpf4jnsgd1na2vs0mg"},{"bike_id":"56147068-1412-4fdf-8731-e8bc5ad88b78","system_id":"levelo_inurba_marseille","lat":43.296131,"lon":5.370791,"is_reserved":false,"is_disabled":false,"rental_uris":{"android":"levelo://app?vid=56147068-1412-4fdf-8731-e8bc5ad88b78","ios":"levelo://app?vid=56147068-1412-4fdf-8731-e8bc5ad88b78"},"vehicle_type_id":"4","last_reported":1722197295,"current_range_meters":27200,"station_id":"ce4bgnh2rcd13ifvqc0g","pricing_plan_id":"cebpf4jnsgd1na2vs0mg"},{"bike_id":"a0b07ea5-c905-4434-a8d0-b7fdfcb0784b","system_id":"levelo_inurba_marseille","lat":43.29573,"lon":5.367355,"is_reserved":false,"is_disabled":false,"rental_uris":{"android":"levelo://app?vid=a0b07ea5-c905-4434-a8d0-b7fdfcb0784b","ios":"levelo://app?vid=a0b07ea5-c905-4434-a8d0-b7fdfcb0784b"},"vehicle_type_id":"4","last_reported":1722197295,"current_range_meters":800,"station_id":"ce4bgph2rcd13ifvqc2g","pricing_plan_id":"cebpf4jnsgd1na2vs0mg"},{"bike_id":"1d90bc7e-1042-44bb-8447-2637002d1c3d","system_id":"levelo_inurba_marseille","lat":43.29573,"lon":5.367355,"is_reserved":false,"is_disabled":false,"rental_uris":{"android":"levelo://app?vid=1d90bc7e-1042-44bb-8447-2637002d1c3d","ios":"levelo://app?vid=1d90bc7e-1042-44bb-8447-2637002d1c3d"},"vehicle_type_id":"4","last_reported":1722197295,"current_range_meters":0,"station_id":"ce4bgph2rcd13ifvqc2g","pricing_plan_id":"cebpf4jnsgd1na2vs0mg"},{"bike_id":"7a46cb3f-bfd9-4ab1-8d48-0ab6e238fcfa","system_id":"levelo_inurba_marseille","lat":43.29598,"lon":5.361243,"is_reserved":false,"is_disabled":false,"rental_uris":{"android":"levelo://app?vid=7a46cb3f-bfd9-4ab1-8d48-0ab6e238fcfa","ios":"levelo://app?vid=7a46cb3f-bfd9-4ab1-8d48-0ab6e238fcfa"},"vehicle_type_id":"4","last_reported":1722197295,"current_range_meters":25600,"station_id":"","pricing_plan_id":"cebpf4jnsgd1na2vs0mg"},{"bike_id":"57a05a17-16a1-457d-aedc-b2a8a66fdd3b","system_id":"levelo_inurba_marseille","lat":43.296935,"lon":5.376544,"is_reserved":false,"is_disabled":false,"rental_uris":{"android":"levelo://app?vid=57a05a17-16a1-457d-aedc-b2a8a66fdd3b","ios":"levelo://app?vid=57a05a17-16a1-457d-aedc-b2a8a66fdd3b"},"vehicle_type_id":"4","last_reported":1722197295,"current_range_meters":9600,"station_id":"ce4bgkh2rcd13ifvqbl0","pricing_plan_id":"cebpf4jnsgd1na2vs0mg"},{"bike_id":"82dda571-5d66-425f-9a45-956b96fa2fce","system_id":"levelo_inurba_marseille","lat":43.3176,"lon":5.39016,"is_reserved":false,"is_disabled":false,"rental_uris":{"android":"levelo://app?vid=82dda571-5d66-425f-9a45-956b96fa2fce","ios":"levelo://app?vid=82dda571-5d66-425f-9a45-956b96fa2fce"},"vehicle_type_id":"4","last_reported":1722197295,"current_range_meters":31200,"station_id":"ce4bhqp2rcd13ifvqhng","pricing_plan_id":"cebpf4jnsgd1na2vs0mg"},{"bike_id":"c7f6eec2-5842-4c85-96c0-a3768584abeb","system_id":"levelo_inurba_marseille","lat":43.31761,"lon":5.39022,"is_reserved":false,"is_disabled":false,"rental_uris":{"android":"levelo://app?vid=c7f6eec2-5842-4c85-96c0-a3768584abeb","ios":"levelo://app?vid=c7f6eec2-5842-4c85-96c0-a3768584abeb"},"vehicle_type_id":"4","last_reported":1722197295,"current_range_meters":5600,"station_id":"ce4bhqp2rcd13ifvqhng","pricing_plan_id":"cebpf4jnsgd1na2vs0mg"},{"bike_id":"bfb3e28b-b76f-41be-a1f1-00264c38cda8","system_id":"levelo_inurba_marseille","lat":43.298147,"lon":5.381133,"is_reserved":false,"is_disabled":false,"rental_uris":{"android":"levelo://app?vid=bfb3e28b-b76f-41be-a1f1-00264c38cda8","ios":"levelo://app?vid=bfb3e28b-b76f-41be-a1f1-00264c38cda8"},"vehicle_type_id":"4","last_reported":1722197295,"current_range_meters":21200,"station_id":"ce4bgip2rcd13ifvqbb0","pricing_plan_id":"cebpf4jnsgd1na2vs0mg"},{"bike_id":"6d2fd793-ed24-4589-a2bd-77bede41bd80","system_id":"levelo_inurba_marseille","lat":43.296263,"lon":5.377094,"is_reserved":false,"is_disabled":false,"rental_uris":{"android":"levelo://app?vid=6d2fd793-ed24-4589-a2bd-77bede41bd80","ios":"levelo://app?vid=6d2fd793-ed24-4589-a2bd-77bede41bd80"},"vehicle_type_id":"4","last_reported":1722197295,"current_range_meters":4400,"station_id":"ce4bgi92rcd13ifvqb90","pricing_plan_id":"cebpf4jnsgd1na2vs0mg"},{"bike_id":"bf659bd0-3b1d-4d6a-a53b-fbf0bedec1da","system_id":"levelo_inurba_marseille","lat":43.299717,"lon":5.384845,"is_reserved":false,"is_disabled":false,"rental_uris":{"android":"levelo://app?vid=bf659bd0-3b1d-4d6a-a53b-fbf0bedec1da","ios":"levelo://app?vid=bf659bd0-3b1d-4d6a-a53b-fbf0bedec1da"},"vehicle_type_id":"4","last_reported":1722197295,"current_range_meters":31600,"station_id":"ce4bgj92rcd13ifvqbd0","pricing_plan_id":"cebpf4jnsgd1na2vs0mg"},{"bike_id":"44ad7f77-aa32-428e-ac5d-4f29d729f0e9","system_id":"levelo_inurba_marseille","lat":43.29619,"lon":5.3772,"is_reserved":false,"is_disabled":false,"rental_uris":{"android":"levelo://app?vid=44ad7f77-aa32-428e-ac5d-4f29d729f0e9","ios":"levelo://app?vid=44ad7f77-aa32-428e-ac5d-4f29d729f0e9"},"vehicle_type_id":"4","last_reported":1722197295,"current_range_meters":0,"station_id":"ce4bgi92rcd13ifvqb90","pricing_plan_id":"cebpf4jnsgd1na2vs0mg"},{"bike_id":"d37d794c-d4d4-448d-9f58-620dcc7efd5c","system_id":"levelo_inurba_marseille","lat":43.296093,"lon":5.37711,"is_reserved":false,"is_disabled":false,"rental_uris":{"android":"levelo://app?vid=d37d794c-d4d4-448d-9f58-620dcc7efd5c","ios":"levelo://app?vid=d37d794c-d4d4-448d-9f58-620dcc7efd5c"},"vehicle_type_id":"4","last_reported":1722197295,"current_range_meters":26400,"station_id":"ce4bgi92rcd13ifvqb90","pricing_plan_id":"cebpf4jnsgd1na2vs0mg"},{"bike_id":"d3f5a85c-72e3-403f-a02a-920b4824fbce","system_id":"levelo_inurba_marseille","lat":43.299707,"lon":5.384859,"is_reserved":false,"is_disabled":false,"rental_uris":{"android":"levelo://app?vid=d3f5a85c-72e3-403f-a02a-920b4824fbce","ios":"levelo://app?vid=d3f5a85c-72e3-403f-a02a-920b4824fbce"},"vehicle_type_id":"4","last_reported":1722197295,"current_range_meters":25600,"station_id":"ce4bgj92rcd13ifvqbd0","pricing_plan_id":"cebpf4jnsgd1na2vs0mg"},{"bike_id":"c8c3db54-9097-4d89-9343-a69c7049bab5","system_id":"levelo_inurba_marseille","lat":43.29978,"lon":5.38481,"is_reserved":false,"is_disabled":false,"rental_uris":{"android":"levelo://app?vid=c8c3db54-9097-4d89-9343-a69c7049bab5","ios":"levelo://app?vid=c8c3db54-9097-4d89-9343-a69c7049bab5"},"vehicle_type_id":"4","last_reported":1722197295,"current_range_meters":0,"station_id":"","pricing_plan_id":"cebpf4jnsgd1na2vs0mg"},{"bike_id":"c29d8bd4-73e4-4761-a535-9a945795d5e9","system_id":"levelo_inurba_marseille","lat":43.299793,"lon":5.384915,"is_reserved":false,"is_disabled":false,"rental_uris":{"android":"levelo://app?vid=c29d8bd4-73e4-4761-a535-9a945795d5e9","ios":"levelo://app?vid=c29d8bd4-73e4-4761-a535-9a945795d5e9"},"vehicle_type_id":"4","last_reported":1722197295,"current_range_meters":26400,"station_id":"ce4bgj92rcd13ifvqbd0","pricing_plan_id":"cebpf4jnsgd1na2vs0mg"},{"bike_id":"29b8996f-6a79-4221-8598-52c1098d7cf9","system_id":"levelo_inurba_marseille","lat":43.29977,"lon":5.38489,"is_reserved":false,"is_disabled":false,"rental_uris":{"android":"levelo://app?vid=29b8996f-6a79-4221-8598-52c1098d7cf9","ios":"levelo://app?vid=29b8996f-6a79-4221-8598-52c1098d7cf9"},"vehicle_type_id":"4","last_reported":1722197295,"current_range_meters":20000,"station_id":"ce4bgj92rcd13ifvqbd0","pricing_plan_id":"cebpf4jnsgd1na2vs0mg"},{"bike_id":"d3b9b7c1-136a-450c-b4ac-71bb845d929a","system_id":"levelo_inurba_marseille","lat":43.299717,"lon":5.384845,"is_reserved":false,"is_disabled":false,"rental_uris":{"android":"levelo://app?vid=d3b9b7c1-136a-450c-b4ac-71bb845d929a","ios":"levelo://app?vid=d3b9b7c1-136a-450c-b4ac-71bb845d929a"},"vehicle_type_id":"4","last_reported":1722197295,"current_range_meters":11600,"station_id":"ce4bgj92rcd13ifvqbd0","pricing_plan_id":"cebpf4jnsgd1na2vs0mg"},{"bike_id":"33bb6bc5-3e74-4735-b879-bb9002d441af","system_id":"levelo_inurba_marseille","lat":43.2997,"lon":5.3849,"is_reserved":false,"is_disabled":false,"rental_uris":{"android":"levelo://app?vid=33bb6bc5-3e74-4735-b879-bb9002d441af","ios":"levelo://app?vid=33bb6bc5-3e74-4735-b879-bb9002d441af"},"vehicle_type_id":"4","last_reported":1722197295,"current_range_meters":28000,"station_id":"ce4bgj92rcd13ifvqbd0","pricing_plan_id":"cebpf4jnsgd1na2vs0mg"},{"bike_id":"e43c39cd-d0e6-4d4d-bed8-b2d093ab6fff","system_id":"levelo_inurba_marseille","lat":43.299717,"lon":5.384845,"is_reserved":false,"is_disabled":false,"rental_uris":{"android":"levelo://app?vid=e43c39cd-d0e6-4d4d-bed8-b2d093ab6fff","ios":"levelo://app?vid=e43c39cd-d0e6-4d4d-bed8-b2d093ab6fff"},"vehicle_type_id":"4","last_reported":1722197295,"current_range_meters":15200,"station_id":"ce4bgj92rcd13ifvqbd0","pricing_plan_id":"cebpf4jnsgd1na2vs0mg"},{"bike_id":"303be525-5d5c-4ac3-9d6e-55a4fb08ca1b","system_id":"levelo_inurba_marseille","lat":43.299724,"lon":5.384848,"is_reserved":false,"is_disabled":false,"rental_uris":{"android":"levelo://app?vid=303be525-5d5c-4ac3-9d6e-55a4fb08ca1b","ios":"levelo://app?vid=303be525-5d5c-4ac3-9d6e-55a4fb08ca1b"},"vehicle_type_id":"4","last_reported":1722197295,"current_range_meters":400,"station_id":"ce4bgj92rcd13ifvqbd0","pricing_plan_id":"cebpf4jnsgd1na2vs0mg"},{"bike_id":"9cc216f0-adc5-467c-8071-028492d11c66","system_id":"levelo_inurba_marseille","lat":43.299717,"lon":5.384845,"is_reserved":false,"is_disabled":false,"rental_uris":{"android":"levelo://app?vid=9cc216f0-adc5-467c-8071-028492d11c66","ios":"levelo://app?vid=9cc216f0-adc5-467c-8071-028492d11c66"},"vehicle_type_id":"4","last_reported":1722197295,"current_range_meters":14400,"station_id":"ce4bgj92rcd13ifvqbd0","pricing_plan_id":"cebpf4jnsgd1na2vs0mg"},{"bike_id":"e1b4eb42-642a-4c86-9ccd-1af8c9f4160e","system_id":"levelo_inurba_marseille","lat":43.299717,"lon":5.384845,"is_reserved":false,"is_disabled":false,"rental_uris":{"android":"levelo://app?vid=e1b4eb42-642a-4c86-9ccd-1af8c9f4160e","ios":"levelo://app?vid=e1b4eb42-642a-4c86-9ccd-1af8c9f4160e"},"vehicle_type_id":"4","last_reported":1722197295,"current_range_meters":22400,"station_id":"ce4bgj92rcd13ifvqbd0","pricing_plan_id":"cebpf4jnsgd1na2vs0mg"},{"bike_id":"0154049d-942e-4180-aadf-05e2fcc372f0","system_id":"levelo_inurba_marseille","lat":43.299634,"lon":5.384943,"is_reserved":false,"is_disabled":false,"rental_uris":{"android":"levelo://app?vid=0154049d-942e-4180-aadf-05e2fcc372f0","ios":"levelo://app?vid=0154049d-942e-4180-aadf-05e2fcc372f0"},"vehicle_type_id":"4","last_reported":1722197295,"current_range_meters":18400,"station_id":"ce4bgj92rcd13ifvqbd0","pricing_plan_id":"cebpf4jnsgd1na2vs0mg"},{"bike_id":"519a9238-e6d9-42a9-9545-cc8eb2240095","system_id":"levelo_inurba_marseille","lat":43.299724,"lon":5.384848,"is_reserved":false,"is_disabled":false,"rental_uris":{"android":"levelo://app?vid=519a9238-e6d9-42a9-9545-cc8eb2240095","ios":"levelo://app?vid=519a9238-e6d9-42a9-9545-cc8eb2240095"},"vehicle_type_id":"4","last_reported":1722197295,"current_range_meters":31200,"station_id":"ce4bgj92rcd13ifvqbd0","pricing_plan_id":"cebpf4jnsgd1na2vs0mg"},{"bike_id":"34cadf25-1646-4235-b23b-5eb3bad29e2e","system_id":"levelo_inurba_marseille","lat":43.30143,"lon":5.38776,"is_reserved":false,"is_disabled":false,"rental_uris":{"android":"levelo://app?vid=34cadf25-1646-4235-b23b-5eb3bad29e2e","ios":"levelo://app?vid=34cadf25-1646-4235-b23b-5eb3bad29e2e"},"vehicle_type_id":"4","last_reported":1722197295,"current_range_meters":9600,"station_id":"ce4bghh2rcd13ifvqb60","pricing_plan_id":"cebpf4jnsgd1na2vs0mg"},{"bike_id":"78c7246b-78f8-48a7-8d0d-40a851691a8c","system_id":"levelo_inurba_marseille","lat":43.30136,"lon":5.38775,"is_reserved":false,"is_disabled":false,"rental_uris":{"android":"levelo://app?vid=78c7246b-78f8-48a7-8d0d-40a851691a8c","ios":"levelo://app?vid=78c7246b-78f8-48a7-8d0d-40a851691a8c"},"vehicle_type_id":"4","last_reported":1722197295,"current_range_meters":1200,"station_id":"ce4bghh2rcd13ifvqb60","pricing_plan_id":"cebpf4jnsgd1na2vs0mg"},{"bike_id":"f65716e3-187c-4a67-bcef-319e57968b9e","system_id":"levelo_inurba_marseille","lat":43.301396,"lon":5.387812,"is_reserved":false,"is_disabled":false,"rental_uris":{"android":"levelo://app?vid=f65716e3-187c-4a67-bcef-319e57968b9e","ios":"levelo://app?vid=f65716e3-187c-4a67-bcef-319e57968b9e"},"vehicle_type_id":"4","last_reported":1722197295,"current_range_meters":17200,"station_id":"ce4bghh2rcd13ifvqb60","pricing_plan_id":"cebpf4jnsgd1na2vs0mg"},{"bike_id":"5dca6f57-6c26-489d-b3ab-10933934f7f3","system_id":"levelo_inurba_marseille","lat":43.32363,"lon":5.38876,"is_reserved":false,"is_disabled":false,"rental_uris":{"android":"levelo://app?vid=5dca6f57-6c26-489d-b3ab-10933934f7f3","ios":"levelo://app?vid=5dca6f57-6c26-489d-b3ab-10933934f7f3"},"vehicle_type_id":"4","last_reported":1722197295,"current_range_meters":21200,"station_id":"ce4bhqp2rcd13ifvqhog","pricing_plan_id":"cebpf4jnsgd1na2vs0mg"},{"bike_id":"d119fb06-f5b1-46e8-a990-4e97f4919dca","system_id":"levelo_inurba_marseille","lat":43.32367,"lon":5.388836,"is_reserved":false,"is_disabled":false,"rental_uris":{"android":"levelo://app?vid=d119fb06-f5b1-46e8-a990-4e97f4919dca","ios":"levelo://app?vid=d119fb06-f5b1-46e8-a990-4e97f4919dca"},"vehicle_type_id":"4","last_reported":1722197295,"current_range_meters":24000,"station_id":"ce4bhqp2rcd13ifvqhog","pricing_plan_id":"cebpf4jnsgd1na2vs0mg"},{"bike_id":"cb7b9226-7861-4483-9c0a-ce4bd41643e5","system_id":"levelo_inurba_marseille","lat":43.32367,"lon":5.38879,"is_reserved":false,"is_disabled":false,"rental_uris":{"android":"levelo://app?vid=cb7b9226-7861-4483-9c0a-ce4bd41643e5","ios":"levelo://app?vid=cb7b9226-7861-4483-9c0a-ce4bd41643e5"},"vehicle_type_id":"4","last_reported":1722197295,"current_range_meters":18800,"station_id":"ce4bhqp2rcd13ifvqhog","pricing_plan_id":"cebpf4jnsgd1na2vs0mg"},{"bike_id":"7b4e5ed3-7212-45f8-8b69-d8c4b3f8bcdb","system_id":"levelo_inurba_marseille","lat":43.32367,"lon":5.388836,"is_reserved":false,"is_disabled":false,"rental_uris":{"android":"levelo://app?vid=7b4e5ed3-7212-45f8-8b69-d8c4b3f8bcdb","ios":"levelo://app?vid=7b4e5ed3-7212-45f8-8b69-d8c4b3f8bcdb"},"vehicle_type_id":"4","last_reported":1722197295,"current_range_meters":25200,"station_id":"ce4bhqp2rcd13ifvqhog","pricing_plan_id":"cebpf4jnsgd1na2vs0mg"},{"bike_id":"7f4e09ee-91bb-473b-9e72-e47ab9457747","system_id":"levelo_inurba_marseille","lat":43.32365,"lon":5.38882,"is_reserved":false,"is_disabled":false,"rental_uris":{"android":"levelo://app?vid=7f4e09ee-91bb-473b-9e72-e47ab9457747","ios":"levelo://app?vid=7f4e09ee-91bb-473b-9e72-e47ab9457747"},"vehicle_type_id":"4","last_reported":1722197295,"current_range_meters":16400,"station_id":"ce4bhqp2rcd13ifvqhog","pricing_plan_id":"cebpf4jnsgd1na2vs0mg"},{"bike_id":"c93bad5c-6fdd-4cf5-aaf2-eab5c5abd021","system_id":"levelo_inurba_marseille","lat":43.32367,"lon":5.388836,"is_reserved":false,"is_disabled":false,"rental_uris":{"android":"levelo://app?vid=c93bad5c-6fdd-4cf5-aaf2-eab5c5abd021","ios":"levelo://app?vid=c93bad5c-6fdd-4cf5-aaf2-eab5c5abd021"},"vehicle_type_id":"4","last_reported":1722197295,"current_range_meters":14000,"station_id":"ce4bhqp2rcd13ifvqhog","pricing_plan_id":"cebpf4jnsgd1na2vs0mg"},{"bike_id":"c15b24c4-b77e-49a6-bf53-30269e940a61","system_id":"levelo_inurba_marseille","lat":43.32367,"lon":5.388836,"is_reserved":false,"is_disabled":false,"rental_uris":{"android":"levelo://app?vid=c15b24c4-b77e-49a6-bf53-30269e940a61","ios":"levelo://app?vid=c15b24c4-b77e-49a6-bf53-30269e940a61"},"vehicle_type_id":"4","last_reported":1722197295,"current_range_meters":7600,"station_id":"ce4bhqp2rcd13ifvqhog","pricing_plan_id":"cebpf4jnsgd1na2vs0mg"},{"bike_id":"434f8072-c7a8-4cbd-8997-0e401b4f07af","system_id":"levelo_inurba_marseille","lat":43.298681,"lon":5.397225,"is_reserved":false,"is_disabled":false,"rental_uris":{"android":"levelo://app?vid=434f8072-c7a8-4cbd-8997-0e401b4f07af","ios":"levelo://app?vid=434f8072-c7a8-4cbd-8997-0e401b4f07af"},"vehicle_type_id":"4","last_reported":1722197295,"current_range_meters":1600,"station_id":"ce4bh0h2rcd13ifvqd50","pricing_plan_id":"cebpf4jnsgd1na2vs0mg"},{"bike_id":"fff9ce80-e3a6-4300-a750-f133cdb858c3","system_id":"levelo_inurba_marseille","lat":43.29351,"lon":5.37132,"is_reserved":false,"is_disabled":false,"rental_uris":{"android":"levelo://app?vid=fff9ce80-e3a6-4300-a750-f133cdb858c3","ios":"levelo://app?vid=fff9ce80-e3a6-4300-a750-f133cdb858c3"},"vehicle_type_id":"4","last_reported":1722197295,"current_range_meters":9600,"station_id":"","pricing_plan_id":"cebpf4jnsgd1na2vs0mg"},{"bike_id":"85541c6c-b4b3-4011-9094-244e2112ac99","system_id":"levelo_inurba_marseille","lat":43.29618,"lon":5.38117,"is_reserved":false,"is_disabled":false,"rental_uris":{"android":"levelo://app?vid=85541c6c-b4b3-4011-9094-244e2112ac99","ios":"levelo://app?vid=85541c6c-b4b3-4011-9094-244e2112ac99"},"vehicle_type_id":"4","last_reported":1722197295,"current_range_meters":16000,"station_id":"ce4bgl12rcd13ifvqbo0","pricing_plan_id":"cebpf4jnsgd1na2vs0mg"},{"bike_id":"5aa90752-8f39-49a5-85ce-197fd528d43a","system_id":"levelo_inurba_marseille","lat":43.29594,"lon":5.38103,"is_reserved":false,"is_disabled":false,"rental_uris":{"android":"levelo://app?vid=5aa90752-8f39-49a5-85ce-197fd528d43a","ios":"levelo://app?vid=5aa90752-8f39-49a5-85ce-197fd528d43a"},"vehicle_type_id":"4","last_reported":1722197295,"current_range_meters":0,"station_id":"ce4bgl12rcd13ifvqbo0","pricing_plan_id":"cebpf4jnsgd1na2vs0mg"},{"bike_id":"a0e0a73d-140d-42e9-8b0b-85ab62600c56","system_id":"levelo_inurba_marseille","lat":43.300852,"lon":5.390859,"is_reserved":false,"is_disabled":false,"rental_uris":{"android":"levelo://app?vid=a0e0a73d-140d-42e9-8b0b-85ab62600c56","ios":"levelo://app?vid=a0e0a73d-140d-42e9-8b0b-85ab62600c56"},"vehicle_type_id":"4","last_reported":1722197295,"current_range_meters":0,"station_id":"ce4bh192rcd13ifvqdb0","pricing_plan_id":"cebpf4jnsgd1na2vs0mg"},{"bike_id":"c438cdef-90ef-46a7-a3a8-c1771ba69bde","system_id":"levelo_inurba_marseille","lat":43.305994,"lon":5.393687,"is_reserved":false,"is_disabled":false,"rental_uris":{"android":"levelo://app?vid=c438cdef-90ef-46a7-a3a8-c1771ba69bde","ios":"levelo://app?vid=c438cdef-90ef-46a7-a3a8-c1771ba69bde"},"vehicle_type_id":"4","last_reported":1722197295,"current_range_meters":28800,"station_id":"ce4bh0p2rcd13ifvqd80","pricing_plan_id":"cebpf4jnsgd1na2vs0mg"},{"bike_id":"1732d59d-bc7f-4177-8375-1f1970209d4b","system_id":"levelo_inurba_marseille","lat":43.30595,"lon":5.39359,"is_reserved":false,"is_disabled":false,"rental_uris":{"android":"levelo://app?vid=1732d59d-bc7f-4177-8375-1f1970209d4b","ios":"levelo://app?vid=1732d59d-bc7f-4177-8375-1f1970209d4b"},"vehicle_type_id":"4","last_reported":1722197295,"current_range_meters":0,"station_id":"ce4bh0p2rcd13ifvqd80","pricing_plan_id":"cebpf4jnsgd1na2vs0mg"},{"bike_id":"eddfed29-3c27-4d12-808d-6947412ec0fd","system_id":"levelo_inurba_marseille","lat":43.30302,"lon":5.392,"is_reserved":false,"is_disabled":false,"rental_uris":{"android":"levelo://app?vid=eddfed29-3c27-4d12-808d-6947412ec0fd","ios":"levelo://app?vid=eddfed29-3c27-4d12-808d-6947412ec0fd"},"vehicle_type_id":"4","last_reported":1722197295,"current_range_meters":0,"station_id":"ce4bgkh2rcd13ifvqbk0","pricing_plan_id":"cebpf4jnsgd1na2vs0mg"},{"bike_id":"530c1746-d93e-4cab-8514-cc3e5ab210d4","system_id":"levelo_inurba_marseille","lat":43.302992,"lon":5.392136,"is_reserved":false,"is_disabled":false,"rental_uris":{"android":"levelo://app?vid=530c1746-d93e-4cab-8514-cc3e5ab210d4","ios":"levelo://app?vid=530c1746-d93e-4cab-8514-cc3e5ab210d4"},"vehicle_type_id":"4","last_reported":1722197295,"current_range_meters":31600,"station_id":"ce4bgkh2rcd13ifvqbk0","pricing_plan_id":"cebpf4jnsgd1na2vs0mg"},{"bike_id":"ec7cc42c-2bc9-4fe7-996c-450926fdd367","system_id":"levelo_inurba_marseille","lat":43.30302,"lon":5.3921,"is_reserved":false,"is_disabled":false,"rental_uris":{"android":"levelo://app?vid=ec7cc42c-2bc9-4fe7-996c-450926fdd367","ios":"levelo://app?vid=ec7cc42c-2bc9-4fe7-996c-450926fdd367"},"vehicle_type_id":"4","last_reported":1722197295,"current_range_meters":0,"station_id":"ce4bgkh2rcd13ifvqbk0","pricing_plan_id":"cebpf4jnsgd1na2vs0mg"},{"bike_id":"dff659f5-3d9c-43f1-85a2-a20d4901684a","system_id":"levelo_inurba_marseille","lat":43.30304,"lon":5.39216,"is_reserved":false,"is_disabled":false,"rental_uris":{"android":"levelo://app?vid=dff659f5-3d9c-43f1-85a2-a20d4901684a","ios":"levelo://app?vid=dff659f5-3d9c-43f1-85a2-a20d4901684a"},"vehicle_type_id":"4","last_reported":1722197295,"current_range_meters":0,"station_id":"ce4bgkh2rcd13ifvqbk0","pricing_plan_id":"cebpf4jnsgd1na2vs0mg"},{"bike_id":"0763b7c4-f42d-43ee-8fc7-390a0a3301b9","system_id":"levelo_inurba_marseille","lat":43.2936,"lon":5.37835,"is_reserved":false,"is_disabled":false,"rental_uris":{"android":"levelo://app?vid=0763b7c4-f42d-43ee-8fc7-390a0a3301b9","ios":"levelo://app?vid=0763b7c4-f42d-43ee-8fc7-390a0a3301b9"},"vehicle_type_id":"4","last_reported":1722197295,"current_range_meters":5600,"station_id":"ce4bgjh2rcd13ifvqbf0","pricing_plan_id":"cebpf4jnsgd1na2vs0mg"},{"bike_id":"b50f7da8-8069-452e-8579-e8a8f642fa59","system_id":"levelo_inurba_marseille","lat":43.300852,"lon":5.390859,"is_reserved":false,"is_disabled":false,"rental_uris":{"android":"levelo://app?vid=b50f7da8-8069-452e-8579-e8a8f642fa59","ios":"levelo://app?vid=b50f7da8-8069-452e-8579-e8a8f642fa59"},"vehicle_type_id":"4","last_reported":1722197295,"current_range_meters":0,"station_id":"ce4bh192rcd13ifvqdb0","pricing_plan_id":"cebpf4jnsgd1na2vs0mg"},{"bike_id":"00420952-768b-4863-bb0a-b02417272fb6","system_id":"levelo_inurba_marseille","lat":43.292311,"lon":5.360731,"is_reserved":false,"is_disabled":false,"rental_uris":{"android":"levelo://app?vid=00420952-768b-4863-bb0a-b02417272fb6","ios":"levelo://app?vid=00420952-768b-4863-bb0a-b02417272fb6"},"vehicle_type_id":"4","last_reported":1722197295,"current_range_meters":0,"station_id":"ce4bhbh2rcd13ifvqeqg","pricing_plan_id":"cebpf4jnsgd1na2vs0mg"},{"bike_id":"3fc81f0f-7934-4e96-8d13-7c81ccb84a24","system_id":"levelo_inurba_marseille","lat":43.29238,"lon":5.3739,"is_reserved":false,"is_disabled":false,"rental_uris":{"android":"levelo://app?vid=3fc81f0f-7934-4e96-8d13-7c81ccb84a24","ios":"levelo://app?vid=3fc81f0f-7934-4e96-8d13-7c81ccb84a24"},"vehicle_type_id":"4","last_reported":1722197295,"current_range_meters":9600,"station_id":"","pricing_plan_id":"cebpf4jnsgd1na2vs0mg"},{"bike_id":"312cedb9-241f-4e39-9c18-c1a55faf284d","system_id":"levelo_inurba_marseille","lat":43.292311,"lon":5.360731,"is_reserved":false,"is_disabled":false,"rental_uris":{"android":"levelo://app?vid=312cedb9-241f-4e39-9c18-c1a55faf284d","ios":"levelo://app?vid=312cedb9-241f-4e39-9c18-c1a55faf284d"},"vehicle_type_id":"4","last_reported":1722197295,"current_range_meters":22000,"station_id":"ce4bhbh2rcd13ifvqeqg","pricing_plan_id":"cebpf4jnsgd1na2vs0mg"},{"bike_id":"bbc308b0-4943-4364-a69f-78d3bbc756a5","system_id":"levelo_inurba_marseille","lat":43.298764,"lon":5.388973,"is_reserved":false,"is_disabled":false,"rental_uris":{"android":"levelo://app?vid=bbc308b0-4943-4364-a69f-78d3bbc756a5","ios":"levelo://app?vid=bbc308b0-4943-4364-a69f-78d3bbc756a5"},"vehicle_type_id":"4","last_reported":1722197295,"current_range_meters":24800,"station_id":"ce4bh392rcd13ifvqdl0","pricing_plan_id":"cebpf4jnsgd1na2vs0mg"},{"bike_id":"6e13f46d-9b3a-4484-9a47-9aa3114abc90","system_id":"levelo_inurba_marseille","lat":43.298764,"lon":5.388973,"is_reserved":false,"is_disabled":false,"rental_uris":{"android":"levelo://app?vid=6e13f46d-9b3a-4484-9a47-9aa3114abc90","ios":"levelo://app?vid=6e13f46d-9b3a-4484-9a47-9aa3114abc90"},"vehicle_type_id":"4","last_reported":1722197295,"current_range_meters":22000,"station_id":"ce4bh392rcd13ifvqdl0","pricing_plan_id":"cebpf4jnsgd1na2vs0mg"},{"bike_id":"caa256a2-ffbb-4471-879a-84d78637af97","system_id":"levelo_inurba_marseille","lat":43.291671,"lon":5.371575,"is_reserved":false,"is_disabled":false,"rental_uris":{"android":"levelo://app?vid=caa256a2-ffbb-4471-879a-84d78637af97","ios":"levelo://app?vid=caa256a2-ffbb-4471-879a-84d78637af97"},"vehicle_type_id":"4","last_reported":1722197295,"current_range_meters":1200,"station_id":"ce4bha92rcd13ifvqeh0","pricing_plan_id":"cebpf4jnsgd1na2vs0mg"},{"bike_id":"c064ab57-bb74-4495-9135-f477bbefe134","system_id":"levelo_inurba_marseille","lat":43.298764,"lon":5.388973,"is_reserved":false,"is_disabled":false,"rental_uris":{"android":"levelo://app?vid=c064ab57-bb74-4495-9135-f477bbefe134","ios":"levelo://app?vid=c064ab57-bb74-4495-9135-f477bbefe134"},"vehicle_type_id":"4","last_reported":1722197295,"current_range_meters":31200,"station_id":"ce4bh392rcd13ifvqdl0","pricing_plan_id":"cebpf4jnsgd1na2vs0mg"},{"bike_id":"7ee8c078-fcf5-4aaa-973f-729e7bf75079","system_id":"levelo_inurba_marseille","lat":43.313291,"lon":5.396838,"is_reserved":false,"is_disabled":false,"rental_uris":{"android":"levelo://app?vid=7ee8c078-fcf5-4aaa-973f-729e7bf75079","ios":"levelo://app?vid=7ee8c078-fcf5-4aaa-973f-729e7bf75079"},"vehicle_type_id":"4","last_reported":1722197295,"current_range_meters":16800,"station_id":"ce4bgvp2rcd13ifvqcu0","pricing_plan_id":"cebpf4jnsgd1na2vs0mg"},{"bike_id":"cd06a6b6-8779-4edc-9405-6996a39337d5","system_id":"levelo_inurba_marseille","lat":43.313291,"lon":5.396838,"is_reserved":false,"is_disabled":false,"rental_uris":{"android":"levelo://app?vid=cd06a6b6-8779-4edc-9405-6996a39337d5","ios":"levelo://app?vid=cd06a6b6-8779-4edc-9405-6996a39337d5"},"vehicle_type_id":"4","last_reported":1722197295,"current_range_meters":9200,"station_id":"ce4bgvp2rcd13ifvqcu0","pricing_plan_id":"cebpf4jnsgd1na2vs0mg"},{"bike_id":"2cb98afd-90e8-4b30-8c11-b99a9437afa2","system_id":"levelo_inurba_marseille","lat":43.313291,"lon":5.396838,"is_reserved":false,"is_disabled":false,"rental_uris":{"android":"levelo://app?vid=2cb98afd-90e8-4b30-8c11-b99a9437afa2","ios":"levelo://app?vid=2cb98afd-90e8-4b30-8c11-b99a9437afa2"},"vehicle_type_id":"4","last_reported":1722197295,"current_range_meters":10800,"station_id":"ce4bgvp2rcd13ifvqcu0","pricing_plan_id":"cebpf4jnsgd1na2vs0mg"},{"bike_id":"c394fe6c-a981-4b3e-bb5a-9cba3501c2d5","system_id":"levelo_inurba_marseille","lat":43.313291,"lon":5.396838,"is_reserved":false,"is_disabled":false,"rental_uris":{"android":"levelo://app?vid=c394fe6c-a981-4b3e-bb5a-9cba3501c2d5","ios":"levelo://app?vid=c394fe6c-a981-4b3e-bb5a-9cba3501c2d5"},"vehicle_type_id":"4","last_reported":1722197295,"current_range_meters":31600,"station_id":"ce4bgvp2rcd13ifvqcu0","pricing_plan_id":"cebpf4jnsgd1na2vs0mg"},{"bike_id":"74b1cece-b7fb-4802-8c45-ea28115f0412","system_id":"levelo_inurba_marseille","lat":43.313291,"lon":5.396838,"is_reserved":false,"is_disabled":false,"rental_uris":{"android":"levelo://app?vid=74b1cece-b7fb-4802-8c45-ea28115f0412","ios":"levelo://app?vid=74b1cece-b7fb-4802-8c45-ea28115f0412"},"vehicle_type_id":"4","last_reported":1722197295,"current_range_meters":30800,"station_id":"ce4bgvp2rcd13ifvqcu0","pricing_plan_id":"cebpf4jnsgd1na2vs0mg"},{"bike_id":"3349778a-c2f2-4e4c-8bb7-db2302103e63","system_id":"levelo_inurba_marseille","lat":43.313291,"lon":5.396838,"is_reserved":false,"is_disabled":false,"rental_uris":{"android":"levelo://app?vid=3349778a-c2f2-4e4c-8bb7-db2302103e63","ios":"levelo://app?vid=3349778a-c2f2-4e4c-8bb7-db2302103e63"},"vehicle_type_id":"4","last_reported":1722197295,"current_range_meters":7600,"station_id":"ce4bgvp2rcd13ifvqcu0","pricing_plan_id":"cebpf4jnsgd1na2vs0mg"},{"bike_id":"cc6e4641-f928-4531-b854-6bc797fa58a6","system_id":"levelo_inurba_marseille","lat":43.31329,"lon":5.39691,"is_reserved":false,"is_disabled":false,"rental_uris":{"android":"levelo://app?vid=cc6e4641-f928-4531-b854-6bc797fa58a6","ios":"levelo://app?vid=cc6e4641-f928-4531-b854-6bc797fa58a6"},"vehicle_type_id":"4","last_reported":1722197295,"current_range_meters":8000,"station_id":"ce4bgvp2rcd13ifvqcu0","pricing_plan_id":"cebpf4jnsgd1na2vs0mg"},{"bike_id":"086d5d76-aecb-4cf4-b7a9-5fb469ec96f2","system_id":"levelo_inurba_marseille","lat":43.313291,"lon":5.396838,"is_reserved":false,"is_disabled":false,"rental_uris":{"android":"levelo://app?vid=086d5d76-aecb-4cf4-b7a9-5fb469ec96f2","ios":"levelo://app?vid=086d5d76-aecb-4cf4-b7a9-5fb469ec96f2"},"vehicle_type_id":"4","last_reported":1722197295,"current_range_meters":29600,"station_id":"ce4bgvp2rcd13ifvqcu0","pricing_plan_id":"cebpf4jnsgd1na2vs0mg"},{"bike_id":"d68343a2-eb78-4ad3-b9c0-8efc65a42649","system_id":"levelo_inurba_marseille","lat":43.313291,"lon":5.396838,"is_reserved":false,"is_disabled":false,"rental_uris":{"android":"levelo://app?vid=d68343a2-eb78-4ad3-b9c0-8efc65a42649","ios":"levelo://app?vid=d68343a2-eb78-4ad3-b9c0-8efc65a42649"},"vehicle_type_id":"4","last_reported":1722197295,"current_range_meters":21200,"station_id":"ce4bgvp2rcd13ifvqcu0","pricing_plan_id":"cebpf4jnsgd1na2vs0mg"},{"bike_id":"8114cecf-fa87-4d51-a076-14f61b561780","system_id":"levelo_inurba_marseille","lat":43.313291,"lon":5.396838,"is_reserved":false,"is_disabled":false,"rental_uris":{"android":"levelo://app?vid=8114cecf-fa87-4d51-a076-14f61b561780","ios":"levelo://app?vid=8114cecf-fa87-4d51-a076-14f61b561780"},"vehicle_type_id":"4","last_reported":1722197295,"current_range_meters":0,"station_id":"ce4bgvp2rcd13ifvqcu0","pricing_plan_id":"cebpf4jnsgd1na2vs0mg"},{"bike_id":"cdca4bee-9080-4aff-aca3-3cbf14d19b74","system_id":"levelo_inurba_marseille","lat":43.29529,"lon":5.385581,"is_reserved":false,"is_disabled":false,"rental_uris":{"android":"levelo://app?vid=cdca4bee-9080-4aff-aca3-3cbf14d19b74","ios":"levelo://app?vid=cdca4bee-9080-4aff-aca3-3cbf14d19b74"},"vehicle_type_id":"4","last_reported":1722197295,"current_range_meters":28400,"station_id":"ce4bgih2rcd13ifvqba0","pricing_plan_id":"cebpf4jnsgd1na2vs0mg"},{"bike_id":"2e283c89-e3ab-48a6-a532-886512dfb492","system_id":"levelo_inurba_marseille","lat":43.29529,"lon":5.385581,"is_reserved":false,"is_disabled":false,"rental_uris":{"android":"levelo://app?vid=2e283c89-e3ab-48a6-a532-886512dfb492","ios":"levelo://app?vid=2e283c89-e3ab-48a6-a532-886512dfb492"},"vehicle_type_id":"4","last_reported":1722197295,"current_range_meters":31200,"station_id":"ce4bgih2rcd13ifvqba0","pricing_plan_id":"cebpf4jnsgd1na2vs0mg"},{"bike_id":"a05bc90f-367c-4414-8925-1bad23297a1e","system_id":"levelo_inurba_marseille","lat":43.29529,"lon":5.385581,"is_reserved":false,"is_disabled":false,"rental_uris":{"android":"levelo://app?vid=a05bc90f-367c-4414-8925-1bad23297a1e","ios":"levelo://app?vid=a05bc90f-367c-4414-8925-1bad23297a1e"},"vehicle_type_id":"4","last_reported":1722197295,"current_range_meters":8800,"station_id":"ce4bgih2rcd13ifvqba0","pricing_plan_id":"cebpf4jnsgd1na2vs0mg"},{"bike_id":"506bbb3d-fe56-404b-a6b9-159b3b6d8373","system_id":"levelo_inurba_marseille","lat":43.29529,"lon":5.385581,"is_reserved":false,"is_disabled":false,"rental_uris":{"android":"levelo://app?vid=506bbb3d-fe56-404b-a6b9-159b3b6d8373","ios":"levelo://app?vid=506bbb3d-fe56-404b-a6b9-159b3b6d8373"},"vehicle_type_id":"4","last_reported":1722197295,"current_range_meters":19200,"station_id":"ce4bgih2rcd13ifvqba0","pricing_plan_id":"cebpf4jnsgd1na2vs0mg"},{"bike_id":"bcb3ff6f-7361-4d31-8e86-014c2e47ddc8","system_id":"levelo_inurba_marseille","lat":43.29529,"lon":5.385581,"is_reserved":false,"is_disabled":false,"rental_uris":{"android":"levelo://app?vid=bcb3ff6f-7361-4d31-8e86-014c2e47ddc8","ios":"levelo://app?vid=bcb3ff6f-7361-4d31-8e86-014c2e47ddc8"},"vehicle_type_id":"4","last_reported":1722197295,"current_range_meters":18000,"station_id":"ce4bgih2rcd13ifvqba0","pricing_plan_id":"cebpf4jnsgd1na2vs0mg"},{"bike_id":"9ccc7d61-fd8b-405f-9cb5-f96ceabe9341","system_id":"levelo_inurba_marseille","lat":43.29532,"lon":5.38545,"is_reserved":false,"is_disabled":false,"rental_uris":{"android":"levelo://app?vid=9ccc7d61-fd8b-405f-9cb5-f96ceabe9341","ios":"levelo://app?vid=9ccc7d61-fd8b-405f-9cb5-f96ceabe9341"},"vehicle_type_id":"4","last_reported":1722197295,"current_range_meters":16800,"station_id":"ce4bgih2rcd13ifvqba0","pricing_plan_id":"cebpf4jnsgd1na2vs0mg"},{"bike_id":"03201b0a-7562-48bb-9219-023a14b6acc1","system_id":"levelo_inurba_marseille","lat":43.29529,"lon":5.385581,"is_reserved":false,"is_disabled":false,"rental_uris":{"android":"levelo://app?vid=03201b0a-7562-48bb-9219-023a14b6acc1","ios":"levelo://app?vid=03201b0a-7562-48bb-9219-023a14b6acc1"},"vehicle_type_id":"4","last_reported":1722197295,"current_range_meters":23200,"station_id":"ce4bgih2rcd13ifvqba0","pricing_plan_id":"cebpf4jnsgd1na2vs0mg"},{"bike_id":"5b4ed8bf-0e6a-4e22-bb61-561d0dc7ad0f","system_id":"levelo_inurba_marseille","lat":43.29529,"lon":5.385581,"is_reserved":false,"is_disabled":false,"rental_uris":{"android":"levelo://app?vid=5b4ed8bf-0e6a-4e22-bb61-561d0dc7ad0f","ios":"levelo://app?vid=5b4ed8bf-0e6a-4e22-bb61-561d0dc7ad0f"},"vehicle_type_id":"4","last_reported":1722197295,"current_range_meters":31200,"station_id":"ce4bgih2rcd13ifvqba0","pricing_plan_id":"cebpf4jnsgd1na2vs0mg"},{"bike_id":"62cc7796-da79-48d7-837f-e01e164190e0","system_id":"levelo_inurba_marseille","lat":43.29529,"lon":5.385581,"is_reserved":false,"is_disabled":false,"rental_uris":{"android":"levelo://app?vid=62cc7796-da79-48d7-837f-e01e164190e0","ios":"levelo://app?vid=62cc7796-da79-48d7-837f-e01e164190e0"},"vehicle_type_id":"4","last_reported":1722197295,"current_range_meters":23200,"station_id":"ce4bgih2rcd13ifvqba0","pricing_plan_id":"cebpf4jnsgd1na2vs0mg"},{"bike_id":"e4ad1662-7c63-4e87-9f59-a7b0458e5712","system_id":"levelo_inurba_marseille","lat":43.29529,"lon":5.385581,"is_reserved":false,"is_disabled":false,"rental_uris":{"android":"levelo://app?vid=e4ad1662-7c63-4e87-9f59-a7b0458e5712","ios":"levelo://app?vid=e4ad1662-7c63-4e87-9f59-a7b0458e5712"},"vehicle_type_id":"4","last_reported":1722197295,"current_range_meters":16800,"station_id":"ce4bgih2rcd13ifvqba0","pricing_plan_id":"cebpf4jnsgd1na2vs0mg"},{"bike_id":"975cc69a-42a4-43a2-b264-678285246edb","system_id":"levelo_inurba_marseille","lat":43.29529,"lon":5.385581,"is_reserved":false,"is_disabled":false,"rental_uris":{"android":"levelo://app?vid=975cc69a-42a4-43a2-b264-678285246edb","ios":"levelo://app?vid=975cc69a-42a4-43a2-b264-678285246edb"},"vehicle_type_id":"4","last_reported":1722197295,"current_range_meters":12000,"station_id":"ce4bgih2rcd13ifvqba0","pricing_plan_id":"cebpf4jnsgd1na2vs0mg"},{"bike_id":"6b713f56-35e1-421f-b22a-ebd69d980c46","system_id":"levelo_inurba_marseille","lat":43.29529,"lon":5.385581,"is_reserved":false,"is_disabled":false,"rental_uris":{"android":"levelo://app?vid=6b713f56-35e1-421f-b22a-ebd69d980c46","ios":"levelo://app?vid=6b713f56-35e1-421f-b22a-ebd69d980c46"},"vehicle_type_id":"4","last_reported":1722197295,"current_range_meters":17600,"station_id":"ce4bgih2rcd13ifvqba0","pricing_plan_id":"cebpf4jnsgd1na2vs0mg"},{"bike_id":"36860680-1a8d-44cc-8186-9678fa337e50","system_id":"levelo_inurba_marseille","lat":43.29529,"lon":5.385581,"is_reserved":false,"is_disabled":false,"rental_uris":{"android":"levelo://app?vid=36860680-1a8d-44cc-8186-9678fa337e50","ios":"levelo://app?vid=36860680-1a8d-44cc-8186-9678fa337e50"},"vehicle_type_id":"4","last_reported":1722197295,"current_range_meters":27600,"station_id":"ce4bgih2rcd13ifvqba0","pricing_plan_id":"cebpf4jnsgd1na2vs0mg"},{"bike_id":"eea1b632-ca0f-4bdd-9185-284bc2ec3211","system_id":"levelo_inurba_marseille","lat":43.290779,"lon":5.371482,"is_reserved":false,"is_disabled":false,"rental_uris":{"android":"levelo://app?vid=eea1b632-ca0f-4bdd-9185-284bc2ec3211","ios":"levelo://app?vid=eea1b632-ca0f-4bdd-9185-284bc2ec3211"},"vehicle_type_id":"4","last_reported":1722197295,"current_range_meters":0,"station_id":"ce4bh5p2rcd13ifvqe4g","pricing_plan_id":"cebpf4jnsgd1na2vs0mg"},{"bike_id":"4896ff12-5519-49ae-baec-65d3f5bcfb48","system_id":"levelo_inurba_marseille","lat":43.303002,"lon":5.392142,"is_reserved":false,"is_disabled":false,"rental_uris":{"android":"levelo://app?vid=4896ff12-5519-49ae-baec-65d3f5bcfb48","ios":"levelo://app?vid=4896ff12-5519-49ae-baec-65d3f5bcfb48"},"vehicle_type_id":"4","last_reported":1722197295,"current_range_meters":1600,"station_id":"ce4bgkh2rcd13ifvqbk0","pricing_plan_id":"cebpf4jnsgd1na2vs0mg"},{"bike_id":"adf2b95c-c23d-4107-8ccc-89d5c2d6efd9","system_id":"levelo_inurba_marseille","lat":43.290327,"lon":5.375711,"is_reserved":false,"is_disabled":false,"rental_uris":{"android":"levelo://app?vid=adf2b95c-c23d-4107-8ccc-89d5c2d6efd9","ios":"levelo://app?vid=adf2b95c-c23d-4107-8ccc-89d5c2d6efd9"},"vehicle_type_id":"4","last_reported":1722197295,"current_range_meters":2800,"station_id":"ce4bh692rcd13ifvqe90","pricing_plan_id":"cebpf4jnsgd1na2vs0mg"},{"bike_id":"e03f0866-b691-44ab-a179-8de1a9df6031","system_id":"levelo_inurba_marseille","lat":43.29423,"lon":5.38618,"is_reserved":false,"is_disabled":false,"rental_uris":{"android":"levelo://app?vid=e03f0866-b691-44ab-a179-8de1a9df6031","ios":"levelo://app?vid=e03f0866-b691-44ab-a179-8de1a9df6031"},"vehicle_type_id":"4","last_reported":1722197295,"current_range_meters":8800,"station_id":"ce4bh2h2rcd13ifvqdh0","pricing_plan_id":"cebpf4jnsgd1na2vs0mg"},{"bike_id":"db903dd6-a366-4a0a-8e4e-a3453a4af7c3","system_id":"levelo_inurba_marseille","lat":43.290327,"lon":5.375711,"is_reserved":false,"is_disabled":false,"rental_uris":{"android":"levelo://app?vid=db903dd6-a366-4a0a-8e4e-a3453a4af7c3","ios":"levelo://app?vid=db903dd6-a366-4a0a-8e4e-a3453a4af7c3"},"vehicle_type_id":"4","last_reported":1722197295,"current_range_meters":12800,"station_id":"ce4bh692rcd13ifvqe90","pricing_plan_id":"cebpf4jnsgd1na2vs0mg"},{"bike_id":"b140fd7c-9026-45b1-8637-9e1f959bbb68","system_id":"levelo_inurba_marseille","lat":43.29422,"lon":5.38618,"is_reserved":false,"is_disabled":false,"rental_uris":{"android":"levelo://app?vid=b140fd7c-9026-45b1-8637-9e1f959bbb68","ios":"levelo://app?vid=b140fd7c-9026-45b1-8637-9e1f959bbb68"},"vehicle_type_id":"4","last_reported":1722197295,"current_range_meters":5600,"station_id":"ce4bh2h2rcd13ifvqdh0","pricing_plan_id":"cebpf4jnsgd1na2vs0mg"},{"bike_id":"bfe992c0-f812-4673-83d7-abd7eca75f26","system_id":"levelo_inurba_marseille","lat":43.29418,"lon":5.38617,"is_reserved":false,"is_disabled":false,"rental_uris":{"android":"levelo://app?vid=bfe992c0-f812-4673-83d7-abd7eca75f26","ios":"levelo://app?vid=bfe992c0-f812-4673-83d7-abd7eca75f26"},"vehicle_type_id":"4","last_reported":1722197295,"current_range_meters":5200,"station_id":"ce4bh2h2rcd13ifvqdh0","pricing_plan_id":"cebpf4jnsgd1na2vs0mg"},{"bike_id":"8144b1ba-cdb2-4e77-8967-b6e80a4e08ee","system_id":"levelo_inurba_marseille","lat":43.29417,"lon":5.3862,"is_reserved":false,"is_disabled":false,"rental_uris":{"android":"levelo://app?vid=8144b1ba-cdb2-4e77-8967-b6e80a4e08ee","ios":"levelo://app?vid=8144b1ba-cdb2-4e77-8967-b6e80a4e08ee"},"vehicle_type_id":"4","last_reported":1722197295,"current_range_meters":21200,"station_id":"ce4bh2h2rcd13ifvqdh0","pricing_plan_id":"cebpf4jnsgd1na2vs0mg"},{"bike_id":"d9c1a21b-e800-493a-bca9-7b9a9632beae","system_id":"levelo_inurba_marseille","lat":43.29418,"lon":5.38622,"is_reserved":false,"is_disabled":false,"rental_uris":{"android":"levelo://app?vid=d9c1a21b-e800-493a-bca9-7b9a9632beae","ios":"levelo://app?vid=d9c1a21b-e800-493a-bca9-7b9a9632beae"},"vehicle_type_id":"4","last_reported":1722197295,"current_range_meters":4000,"station_id":"ce4bh2h2rcd13ifvqdh0","pricing_plan_id":"cebpf4jnsgd1na2vs0mg"},{"bike_id":"cd2d8fb6-05b1-4c4d-965c-c4bd5e556365","system_id":"levelo_inurba_marseille","lat":43.294162,"lon":5.386292,"is_reserved":false,"is_disabled":false,"rental_uris":{"android":"levelo://app?vid=cd2d8fb6-05b1-4c4d-965c-c4bd5e556365","ios":"levelo://app?vid=cd2d8fb6-05b1-4c4d-965c-c4bd5e556365"},"vehicle_type_id":"4","last_reported":1722197295,"current_range_meters":28000,"station_id":"ce4bh2h2rcd13ifvqdh0","pricing_plan_id":"cebpf4jnsgd1na2vs0mg"},{"bike_id":"b69f307a-b1c6-41dc-81cd-f77d1f598fc8","system_id":"levelo_inurba_marseille","lat":43.294162,"lon":5.386292,"is_reserved":false,"is_disabled":false,"rental_uris":{"android":"levelo://app?vid=b69f307a-b1c6-41dc-81cd-f77d1f598fc8","ios":"levelo://app?vid=b69f307a-b1c6-41dc-81cd-f77d1f598fc8"},"vehicle_type_id":"4","last_reported":1722197295,"current_range_meters":21600,"station_id":"ce4bh2h2rcd13ifvqdh0","pricing_plan_id":"cebpf4jnsgd1na2vs0mg"},{"bike_id":"d5607e68-61b2-4eeb-9f5e-5d0b825c8cc5","system_id":"levelo_inurba_marseille","lat":43.289448,"lon":5.366419,"is_reserved":false,"is_disabled":false,"rental_uris":{"android":"levelo://app?vid=d5607e68-61b2-4eeb-9f5e-5d0b825c8cc5","ios":"levelo://app?vid=d5607e68-61b2-4eeb-9f5e-5d0b825c8cc5"},"vehicle_type_id":"4","last_reported":1722197295,"current_range_meters":30800,"station_id":"ce4bhap2rcd13ifvqek0","pricing_plan_id":"cebpf4jnsgd1na2vs0mg"},{"bike_id":"79d13a7e-f805-4807-88e4-724e2e956a4c","system_id":"levelo_inurba_marseille","lat":43.294162,"lon":5.386292,"is_reserved":false,"is_disabled":false,"rental_uris":{"android":"levelo://app?vid=79d13a7e-f805-4807-88e4-724e2e956a4c","ios":"levelo://app?vid=79d13a7e-f805-4807-88e4-724e2e956a4c"},"vehicle_type_id":"4","last_reported":1722197295,"current_range_meters":13200,"station_id":"ce4bh2h2rcd13ifvqdh0","pricing_plan_id":"cebpf4jnsgd1na2vs0mg"},{"bike_id":"231c74d7-3433-4882-8117-7a471074767c","system_id":"levelo_inurba_marseille","lat":43.294162,"lon":5.386292,"is_reserved":false,"is_disabled":false,"rental_uris":{"android":"levelo://app?vid=231c74d7-3433-4882-8117-7a471074767c","ios":"levelo://app?vid=231c74d7-3433-4882-8117-7a471074767c"},"vehicle_type_id":"4","last_reported":1722197295,"current_range_meters":18000,"station_id":"ce4bh2h2rcd13ifvqdh0","pricing_plan_id":"cebpf4jnsgd1na2vs0mg"},{"bike_id":"f50a0403-34a8-4d28-88c1-d18c19a95a93","system_id":"levelo_inurba_marseille","lat":43.289184,"lon":5.366408,"is_reserved":false,"is_disabled":false,"rental_uris":{"android":"levelo://app?vid=f50a0403-34a8-4d28-88c1-d18c19a95a93","ios":"levelo://app?vid=f50a0403-34a8-4d28-88c1-d18c19a95a93"},"vehicle_type_id":"4","last_reported":1722197295,"current_range_meters":25600,"station_id":"ce4bhap2rcd13ifvqek0","pricing_plan_id":"cebpf4jnsgd1na2vs0mg"},{"bike_id":"11b42505-3e0a-4149-bddc-ecdd4399cbcb","system_id":"levelo_inurba_marseille","lat":43.290336,"lon":5.386425,"is_reserved":false,"is_disabled":false,"rental_uris":{"android":"levelo://app?vid=11b42505-3e0a-4149-bddc-ecdd4399cbcb","ios":"levelo://app?vid=11b42505-3e0a-4149-bddc-ecdd4399cbcb"},"vehicle_type_id":"4","last_reported":1722197295,"current_range_meters":30000,"station_id":"ce4bh4p2rcd13ifvqe0g","pricing_plan_id":"cebpf4jnsgd1na2vs0mg"},{"bike_id":"7d7976f3-4676-4b9f-829f-d91ebc634edf","system_id":"levelo_inurba_marseille","lat":43.290319,"lon":5.375732,"is_reserved":false,"is_disabled":false,"rental_uris":{"android":"levelo://app?vid=7d7976f3-4676-4b9f-829f-d91ebc634edf","ios":"levelo://app?vid=7d7976f3-4676-4b9f-829f-d91ebc634edf"},"vehicle_type_id":"4","last_reported":1722197295,"current_range_meters":4800,"station_id":"ce4bh692rcd13ifvqe90","pricing_plan_id":"cebpf4jnsgd1na2vs0mg"},{"bike_id":"50531a80-c521-4fba-a6d1-688140be5dca","system_id":"levelo_inurba_marseille","lat":43.289468,"lon":5.363719,"is_reserved":false,"is_disabled":false,"rental_uris":{"android":"levelo://app?vid=50531a80-c521-4fba-a6d1-688140be5dca","ios":"levelo://app?vid=50531a80-c521-4fba-a6d1-688140be5dca"},"vehicle_type_id":"4","last_reported":1722197295,"current_range_meters":7200,"station_id":"ce4bhc92rcd13ifvqetg","pricing_plan_id":"cebpf4jnsgd1na2vs0mg"},{"bike_id":"fc9c4445-85c9-4202-a975-927657be02f6","system_id":"levelo_inurba_marseille","lat":43.29276,"lon":5.38437,"is_reserved":false,"is_disabled":false,"rental_uris":{"android":"levelo://app?vid=fc9c4445-85c9-4202-a975-927657be02f6","ios":"levelo://app?vid=fc9c4445-85c9-4202-a975-927657be02f6"},"vehicle_type_id":"4","last_reported":1722197295,"current_range_meters":30000,"station_id":"ce4bh692rcd13ifvqea0","pricing_plan_id":"cebpf4jnsgd1na2vs0mg"},{"bike_id":"585ff369-0872-4ec2-ab4d-b32f273a0060","system_id":"levelo_inurba_marseille","lat":43.29269,"lon":5.38435,"is_reserved":false,"is_disabled":false,"rental_uris":{"android":"levelo://app?vid=585ff369-0872-4ec2-ab4d-b32f273a0060","ios":"levelo://app?vid=585ff369-0872-4ec2-ab4d-b32f273a0060"},"vehicle_type_id":"4","last_reported":1722197295,"current_range_meters":14000,"station_id":"ce4bh692rcd13ifvqea0","pricing_plan_id":"cebpf4jnsgd1na2vs0mg"},{"bike_id":"b8d955b7-4954-4cdf-87e0-c27017b2b97c","system_id":"levelo_inurba_marseille","lat":43.29275,"lon":5.38448,"is_reserved":false,"is_disabled":false,"rental_uris":{"android":"levelo://app?vid=b8d955b7-4954-4cdf-87e0-c27017b2b97c","ios":"levelo://app?vid=b8d955b7-4954-4cdf-87e0-c27017b2b97c"},"vehicle_type_id":"4","last_reported":1722197295,"current_range_meters":11200,"station_id":"ce4bh692rcd13ifvqea0","pricing_plan_id":"cebpf4jnsgd1na2vs0mg"},{"bike_id":"2ab2be47-be11-40de-8ad2-40dd5c5e4901","system_id":"levelo_inurba_marseille","lat":43.29269,"lon":5.38437,"is_reserved":false,"is_disabled":false,"rental_uris":{"android":"levelo://app?vid=2ab2be47-be11-40de-8ad2-40dd5c5e4901","ios":"levelo://app?vid=2ab2be47-be11-40de-8ad2-40dd5c5e4901"},"vehicle_type_id":"4","last_reported":1722197295,"current_range_meters":0,"station_id":"ce4bh692rcd13ifvqea0","pricing_plan_id":"cebpf4jnsgd1na2vs0mg"},{"bike_id":"eecb9841-dd45-496b-b2d7-df37783358ad","system_id":"levelo_inurba_marseille","lat":43.29268,"lon":5.38436,"is_reserved":false,"is_disabled":false,"rental_uris":{"android":"levelo://app?vid=eecb9841-dd45-496b-b2d7-df37783358ad","ios":"levelo://app?vid=eecb9841-dd45-496b-b2d7-df37783358ad"},"vehicle_type_id":"4","last_reported":1722197295,"current_range_meters":0,"station_id":"ce4bh692rcd13ifvqea0","pricing_plan_id":"cebpf4jnsgd1na2vs0mg"},{"bike_id":"978fc4bc-fce5-412b-ba2b-61c1b5a47b54","system_id":"levelo_inurba_marseille","lat":43.29265,"lon":5.38431,"is_reserved":false,"is_disabled":false,"rental_uris":{"android":"levelo://app?vid=978fc4bc-fce5-412b-ba2b-61c1b5a47b54","ios":"levelo://app?vid=978fc4bc-fce5-412b-ba2b-61c1b5a47b54"},"vehicle_type_id":"4","last_reported":1722197295,"current_range_meters":19600,"station_id":"ce4bh692rcd13ifvqea0","pricing_plan_id":"cebpf4jnsgd1na2vs0mg"},{"bike_id":"1484e99e-1bb5-46fd-a51b-4fcd7a107648","system_id":"levelo_inurba_marseille","lat":43.29266,"lon":5.38435,"is_reserved":false,"is_disabled":false,"rental_uris":{"android":"levelo://app?vid=1484e99e-1bb5-46fd-a51b-4fcd7a107648","ios":"levelo://app?vid=1484e99e-1bb5-46fd-a51b-4fcd7a107648"},"vehicle_type_id":"4","last_reported":1722197295,"current_range_meters":22800,"station_id":"ce4bh692rcd13ifvqea0","pricing_plan_id":"cebpf4jnsgd1na2vs0mg"},{"bike_id":"baa098f2-2ae8-4716-8bf0-8c53efc9db6c","system_id":"levelo_inurba_marseille","lat":43.292697,"lon":5.38444,"is_reserved":false,"is_disabled":false,"rental_uris":{"android":"levelo://app?vid=baa098f2-2ae8-4716-8bf0-8c53efc9db6c","ios":"levelo://app?vid=baa098f2-2ae8-4716-8bf0-8c53efc9db6c"},"vehicle_type_id":"4","last_reported":1722197295,"current_range_meters":28400,"station_id":"ce4bh692rcd13ifvqea0","pricing_plan_id":"cebpf4jnsgd1na2vs0mg"},{"bike_id":"560d1764-0788-4178-9a7a-d6359a4f7c5d","system_id":"levelo_inurba_marseille","lat":43.304296,"lon":5.397513,"is_reserved":false,"is_disabled":false,"rental_uris":{"android":"levelo://app?vid=560d1764-0788-4178-9a7a-d6359a4f7c5d","ios":"levelo://app?vid=560d1764-0788-4178-9a7a-d6359a4f7c5d"},"vehicle_type_id":"4","last_reported":1722197295,"current_range_meters":2400,"station_id":"ce4bh092rcd13ifvqd20","pricing_plan_id":"cebpf4jnsgd1na2vs0mg"},{"bike_id":"e0efa7f5-2dc1-4f74-b509-059b52a39141","system_id":"levelo_inurba_marseille","lat":43.29264,"lon":5.38433,"is_reserved":false,"is_disabled":false,"rental_uris":{"android":"levelo://app?vid=e0efa7f5-2dc1-4f74-b509-059b52a39141","ios":"levelo://app?vid=e0efa7f5-2dc1-4f74-b509-059b52a39141"},"vehicle_type_id":"4","last_reported":1722197295,"current_range_meters":22400,"station_id":"ce4bh692rcd13ifvqea0","pricing_plan_id":"cebpf4jnsgd1na2vs0mg"},{"bike_id":"0200398c-c63e-418b-adb0-b85a16666bfe","system_id":"levelo_inurba_marseille","lat":43.29261,"lon":5.3843,"is_reserved":false,"is_disabled":false,"rental_uris":{"android":"levelo://app?vid=0200398c-c63e-418b-adb0-b85a16666bfe","ios":"levelo://app?vid=0200398c-c63e-418b-adb0-b85a16666bfe"},"vehicle_type_id":"4","last_reported":1722197295,"current_range_meters":0,"station_id":"ce4bh692rcd13ifvqea0","pricing_plan_id":"cebpf4jnsgd1na2vs0mg"},{"bike_id":"e15c66bf-5dc8-46e9-a499-7857cbc8f536","system_id":"levelo_inurba_marseille","lat":43.29265,"lon":5.38439,"is_reserved":false,"is_disabled":false,"rental_uris":{"android":"levelo://app?vid=e15c66bf-5dc8-46e9-a499-7857cbc8f536","ios":"levelo://app?vid=e15c66bf-5dc8-46e9-a499-7857cbc8f536"},"vehicle_type_id":"4","last_reported":1722197295,"current_range_meters":0,"station_id":"ce4bh692rcd13ifvqea0","pricing_plan_id":"cebpf4jnsgd1na2vs0mg"},{"bike_id":"9102afc8-8ad6-46a0-949a-e09e0c45d8d1","system_id":"levelo_inurba_marseille","lat":43.292644,"lon":5.384257,"is_reserved":false,"is_disabled":false,"rental_uris":{"android":"levelo://app?vid=9102afc8-8ad6-46a0-949a-e09e0c45d8d1","ios":"levelo://app?vid=9102afc8-8ad6-46a0-949a-e09e0c45d8d1"},"vehicle_type_id":"4","last_reported":1722197295,"current_range_meters":28800,"station_id":"ce4bh692rcd13ifvqea0","pricing_plan_id":"cebpf4jnsgd1na2vs0mg"},{"bike_id":"48349313-c17b-4e48-9c21-1896ff776422","system_id":"levelo_inurba_marseille","lat":43.304296,"lon":5.397513,"is_reserved":false,"is_disabled":false,"rental_uris":{"android":"levelo://app?vid=48349313-c17b-4e48-9c21-1896ff776422","ios":"levelo://app?vid=48349313-c17b-4e48-9c21-1896ff776422"},"vehicle_type_id":"4","last_reported":1722197295,"current_range_meters":12400,"station_id":"ce4bh092rcd13ifvqd20","pricing_plan_id":"cebpf4jnsgd1na2vs0mg"},{"bike_id":"07043f1a-f787-42b9-a40a-c7887189b4c7","system_id":"levelo_inurba_marseille","lat":43.30275,"lon":5.3966,"is_reserved":false,"is_disabled":false,"rental_uris":{"android":"levelo://app?vid=07043f1a-f787-42b9-a40a-c7887189b4c7","ios":"levelo://app?vid=07043f1a-f787-42b9-a40a-c7887189b4c7"},"vehicle_type_id":"4","last_reported":1722197295,"current_range_meters":0,"station_id":"","pricing_plan_id":"cebpf4jnsgd1na2vs0mg"},{"bike_id":"c26321f6-3ee1-4bec-992e-4de9d29a222e","system_id":"levelo_inurba_marseille","lat":43.30422,"lon":5.39746,"is_reserved":false,"is_disabled":false,"rental_uris":{"android":"levelo://app?vid=c26321f6-3ee1-4bec-992e-4de9d29a222e","ios":"levelo://app?vid=c26321f6-3ee1-4bec-992e-4de9d29a222e"},"vehicle_type_id":"4","last_reported":1722197295,"current_range_meters":0,"station_id":"ce4bh092rcd13ifvqd20","pricing_plan_id":"cebpf4jnsgd1na2vs0mg"},{"bike_id":"0612ab59-460d-44d0-8f44-5ce683832853","system_id":"levelo_inurba_marseille","lat":43.29264,"lon":5.38443,"is_reserved":false,"is_disabled":false,"rental_uris":{"android":"levelo://app?vid=0612ab59-460d-44d0-8f44-5ce683832853","ios":"levelo://app?vid=0612ab59-460d-44d0-8f44-5ce683832853"},"vehicle_type_id":"4","last_reported":1722197295,"current_range_meters":4800,"station_id":"ce4bh692rcd13ifvqea0","pricing_plan_id":"cebpf4jnsgd1na2vs0mg"},{"bike_id":"6cfceba2-1f02-4fc2-bf75-4ac244744c72","system_id":"levelo_inurba_marseille","lat":43.29263,"lon":5.38441,"is_reserved":false,"is_disabled":false,"rental_uris":{"android":"levelo://app?vid=6cfceba2-1f02-4fc2-bf75-4ac244744c72","ios":"levelo://app?vid=6cfceba2-1f02-4fc2-bf75-4ac244744c72"},"vehicle_type_id":"4","last_reported":1722197295,"current_range_meters":0,"station_id":"ce4bh692rcd13ifvqea0","pricing_plan_id":"cebpf4jnsgd1na2vs0mg"},{"bike_id":"0198c55c-4557-4da5-98c2-1b12841597d1","system_id":"levelo_inurba_marseille","lat":43.292644,"lon":5.384257,"is_reserved":false,"is_disabled":false,"rental_uris":{"android":"levelo://app?vid=0198c55c-4557-4da5-98c2-1b12841597d1","ios":"levelo://app?vid=0198c55c-4557-4da5-98c2-1b12841597d1"},"vehicle_type_id":"4","last_reported":1722197295,"current_range_meters":6400,"station_id":"ce4bh692rcd13ifvqea0","pricing_plan_id":"cebpf4jnsgd1na2vs0mg"},{"bike_id":"82776c74-b64b-4a00-99aa-bd1e5507ab2e","system_id":"levelo_inurba_marseille","lat":43.29262,"lon":5.38444,"is_reserved":false,"is_disabled":false,"rental_uris":{"android":"levelo://app?vid=82776c74-b64b-4a00-99aa-bd1e5507ab2e","ios":"levelo://app?vid=82776c74-b64b-4a00-99aa-bd1e5507ab2e"},"vehicle_type_id":"4","last_reported":1722197295,"current_range_meters":8000,"station_id":"ce4bh692rcd13ifvqea0","pricing_plan_id":"cebpf4jnsgd1na2vs0mg"},{"bike_id":"774395fe-5cff-4e5f-8a92-9cb388511aad","system_id":"levelo_inurba_marseille","lat":43.2926,"lon":5.384417,"is_reserved":false,"is_disabled":false,"rental_uris":{"android":"levelo://app?vid=774395fe-5cff-4e5f-8a92-9cb388511aad","ios":"levelo://app?vid=774395fe-5cff-4e5f-8a92-9cb388511aad"},"vehicle_type_id":"4","last_reported":1722197295,"current_range_meters":0,"station_id":"ce4bh692rcd13ifvqea0","pricing_plan_id":"cebpf4jnsgd1na2vs0mg"},{"bike_id":"3b7aac95-5a63-4647-aef0-79b14b5a3c0e","system_id":"levelo_inurba_marseille","lat":43.29259,"lon":5.38448,"is_reserved":false,"is_disabled":false,"rental_uris":{"android":"levelo://app?vid=3b7aac95-5a63-4647-aef0-79b14b5a3c0e","ios":"levelo://app?vid=3b7aac95-5a63-4647-aef0-79b14b5a3c0e"},"vehicle_type_id":"4","last_reported":1722197295,"current_range_meters":28000,"station_id":"ce4bh692rcd13ifvqea0","pricing_plan_id":"cebpf4jnsgd1na2vs0mg"},{"bike_id":"c3d27a8a-7c85-4cb6-9916-ad3d28f0a21d","system_id":"levelo_inurba_marseille","lat":43.290027,"lon":5.356117,"is_reserved":false,"is_disabled":false,"rental_uris":{"android":"levelo://app?vid=c3d27a8a-7c85-4cb6-9916-ad3d28f0a21d","ios":"levelo://app?vid=c3d27a8a-7c85-4cb6-9916-ad3d28f0a21d"},"vehicle_type_id":"4","last_reported":1722197295,"current_range_meters":28400,"station_id":"ce4bhb92rcd13ifvqen0","pricing_plan_id":"cebpf4jnsgd1na2vs0mg"},{"bike_id":"cb608313-dee5-45a2-8dec-c372974b94c1","system_id":"levelo_inurba_marseille","lat":43.290995,"lon":5.381361,"is_reserved":false,"is_disabled":false,"rental_uris":{"android":"levelo://app?vid=cb608313-dee5-45a2-8dec-c372974b94c1","ios":"levelo://app?vid=cb608313-dee5-45a2-8dec-c372974b94c1"},"vehicle_type_id":"4","last_reported":1722197295,"current_range_meters":7600,"station_id":"ce4bh512rcd13ifvqe2g","pricing_plan_id":"cebpf4jnsgd1na2vs0mg"},{"bike_id":"b5df2606-ff4a-4b59-a67f-16de9fe45671","system_id":"levelo_inurba_marseille","lat":43.290995,"lon":5.381361,"is_reserved":false,"is_disabled":false,"rental_uris":{"android":"levelo://app?vid=b5df2606-ff4a-4b59-a67f-16de9fe45671","ios":"levelo://app?vid=b5df2606-ff4a-4b59-a67f-16de9fe45671"},"vehicle_type_id":"4","last_reported":1722197295,"current_range_meters":12400,"station_id":"ce4bh512rcd13ifvqe2g","pricing_plan_id":"cebpf4jnsgd1na2vs0mg"},{"bike_id":"b295bae0-edc7-4c95-a67c-325effda7a19","system_id":"levelo_inurba_marseille","lat":43.29014,"lon":5.35513,"is_reserved":false,"is_disabled":false,"rental_uris":{"android":"levelo://app?vid=b295bae0-edc7-4c95-a67c-325effda7a19","ios":"levelo://app?vid=b295bae0-edc7-4c95-a67c-325effda7a19"},"vehicle_type_id":"4","last_reported":1722197295,"current_range_meters":2800,"station_id":"","pricing_plan_id":"cebpf4jnsgd1na2vs0mg"},{"bike_id":"8a5f1f84-812b-40ff-9267-597ec49fc4df","system_id":"levelo_inurba_marseille","lat":43.290995,"lon":5.381361,"is_reserved":false,"is_disabled":false,"rental_uris":{"android":"levelo://app?vid=8a5f1f84-812b-40ff-9267-597ec49fc4df","ios":"levelo://app?vid=8a5f1f84-812b-40ff-9267-597ec49fc4df"},"vehicle_type_id":"4","last_reported":1722197295,"current_range_meters":8800,"station_id":"ce4bh512rcd13ifvqe2g","pricing_plan_id":"cebpf4jnsgd1na2vs0mg"},{"bike_id":"96ca8405-4da2-4b25-9a13-5e96c6552c1a","system_id":"levelo_inurba_marseille","lat":43.28846,"lon":5.36539,"is_reserved":false,"is_disabled":false,"rental_uris":{"android":"levelo://app?vid=96ca8405-4da2-4b25-9a13-5e96c6552c1a","ios":"levelo://app?vid=96ca8405-4da2-4b25-9a13-5e96c6552c1a"},"vehicle_type_id":"4","last_reported":1722197295,"current_range_meters":6000,"station_id":"","pricing_plan_id":"cebpf4jnsgd1na2vs0mg"},{"bike_id":"ef3f1bd3-e5de-4426-821f-777ec11eb0b7","system_id":"levelo_inurba_marseille","lat":43.290995,"lon":5.381361,"is_reserved":false,"is_disabled":false,"rental_uris":{"android":"levelo://app?vid=ef3f1bd3-e5de-4426-821f-777ec11eb0b7","ios":"levelo://app?vid=ef3f1bd3-e5de-4426-821f-777ec11eb0b7"},"vehicle_type_id":"4","last_reported":1722197295,"current_range_meters":14800,"station_id":"ce4bh512rcd13ifvqe2g","pricing_plan_id":"cebpf4jnsgd1na2vs0mg"},{"bike_id":"bca4ad43-0f75-402c-a77d-54a021ab7c81","system_id":"levelo_inurba_marseille","lat":43.289741,"lon":5.378306,"is_reserved":false,"is_disabled":false,"rental_uris":{"android":"levelo://app?vid=bca4ad43-0f75-402c-a77d-54a021ab7c81","ios":"levelo://app?vid=bca4ad43-0f75-402c-a77d-54a021ab7c81"},"vehicle_type_id":"4","last_reported":1722197295,"current_range_meters":400,"station_id":"ce4bh9p2rcd13ifvqed0","pricing_plan_id":"cebpf4jnsgd1na2vs0mg"},{"bike_id":"d7fcddb5-cf03-44aa-adfe-5701273f3510","system_id":"levelo_inurba_marseille","lat":43.330442,"lon":5.389148,"is_reserved":false,"is_disabled":false,"rental_uris":{"android":"levelo://app?vid=d7fcddb5-cf03-44aa-adfe-5701273f3510","ios":"levelo://app?vid=d7fcddb5-cf03-44aa-adfe-5701273f3510"},"vehicle_type_id":"4","last_reported":1722197295,"current_range_meters":4000,"station_id":"ce4bhr92rcd13ifvqhrg","pricing_plan_id":"cebpf4jnsgd1na2vs0mg"},{"bike_id":"40c18d0f-24d5-4590-8c06-cd374c4fea68","system_id":"levelo_inurba_marseille","lat":43.295169,"lon":5.390426,"is_reserved":false,"is_disabled":false,"rental_uris":{"android":"levelo://app?vid=40c18d0f-24d5-4590-8c06-cd374c4fea68","ios":"levelo://app?vid=40c18d0f-24d5-4590-8c06-cd374c4fea68"},"vehicle_type_id":"4","last_reported":1722197295,"current_range_meters":3600,"station_id":"ce4bh3p2rcd13ifvqdp0","pricing_plan_id":"cebpf4jnsgd1na2vs0mg"},{"bike_id":"0ef042e1-2c26-4767-b4ea-aecada682cd4","system_id":"levelo_inurba_marseille","lat":43.330442,"lon":5.389148,"is_reserved":false,"is_disabled":false,"rental_uris":{"android":"levelo://app?vid=0ef042e1-2c26-4767-b4ea-aecada682cd4","ios":"levelo://app?vid=0ef042e1-2c26-4767-b4ea-aecada682cd4"},"vehicle_type_id":"4","last_reported":1722197295,"current_range_meters":24800,"station_id":"ce4bhr92rcd13ifvqhrg","pricing_plan_id":"cebpf4jnsgd1na2vs0mg"},{"bike_id":"64e05515-8b36-4123-a136-d04989eb76ff","system_id":"levelo_inurba_marseille","lat":43.295169,"lon":5.390426,"is_reserved":false,"is_disabled":false,"rental_uris":{"android":"levelo://app?vid=64e05515-8b36-4123-a136-d04989eb76ff","ios":"levelo://app?vid=64e05515-8b36-4123-a136-d04989eb76ff"},"vehicle_type_id":"4","last_reported":1722197295,"current_range_meters":0,"station_id":"ce4bh3p2rcd13ifvqdp0","pricing_plan_id":"cebpf4jnsgd1na2vs0mg"},{"bike_id":"fcd86db7-aeec-4f01-b177-32946eac97b7","system_id":"levelo_inurba_marseille","lat":43.330442,"lon":5.389148,"is_reserved":false,"is_disabled":false,"rental_uris":{"android":"levelo://app?vid=fcd86db7-aeec-4f01-b177-32946eac97b7","ios":"levelo://app?vid=fcd86db7-aeec-4f01-b177-32946eac97b7"},"vehicle_type_id":"4","last_reported":1722197295,"current_range_meters":23200,"station_id":"ce4bhr92rcd13ifvqhrg","pricing_plan_id":"cebpf4jnsgd1na2vs0mg"},{"bike_id":"84854097-9123-4757-98f4-0ddab8ca2ad0","system_id":"levelo_inurba_marseille","lat":43.330442,"lon":5.389148,"is_reserved":false,"is_disabled":false,"rental_uris":{"android":"levelo://app?vid=84854097-9123-4757-98f4-0ddab8ca2ad0","ios":"levelo://app?vid=84854097-9123-4757-98f4-0ddab8ca2ad0"},"vehicle_type_id":"4","last_reported":1722197295,"current_range_meters":10400,"station_id":"ce4bhr92rcd13ifvqhrg","pricing_plan_id":"cebpf4jnsgd1na2vs0mg"},{"bike_id":"def1854e-7c84-4b18-b78a-3b76269e3d67","system_id":"levelo_inurba_marseille","lat":43.29025,"lon":5.381337,"is_reserved":false,"is_disabled":false,"rental_uris":{"android":"levelo://app?vid=def1854e-7c84-4b18-b78a-3b76269e3d67","ios":"levelo://app?vid=def1854e-7c84-4b18-b78a-3b76269e3d67"},"vehicle_type_id":"4","last_reported":1722197295,"current_range_meters":9600,"station_id":"ce4bh4p2rcd13ifvqe1g","pricing_plan_id":"cebpf4jnsgd1na2vs0mg"},{"bike_id":"ad46c024-e9f2-46c8-9cbb-91099e4e6442","system_id":"levelo_inurba_marseille","lat":43.29024,"lon":5.38144,"is_reserved":false,"is_disabled":false,"rental_uris":{"android":"levelo://app?vid=ad46c024-e9f2-46c8-9cbb-91099e4e6442","ios":"levelo://app?vid=ad46c024-e9f2-46c8-9cbb-91099e4e6442"},"vehicle_type_id":"4","last_reported":1722197295,"current_range_meters":18000,"station_id":"ce4bh4p2rcd13ifvqe1g","pricing_plan_id":"cebpf4jnsgd1na2vs0mg"},{"bike_id":"c9b33142-6603-42e1-b253-21a30d075070","system_id":"levelo_inurba_marseille","lat":43.2901,"lon":5.381269,"is_reserved":false,"is_disabled":false,"rental_uris":{"android":"levelo://app?vid=c9b33142-6603-42e1-b253-21a30d075070","ios":"levelo://app?vid=c9b33142-6603-42e1-b253-21a30d075070"},"vehicle_type_id":"4","last_reported":1722197295,"current_range_meters":800,"station_id":"ce4bh4p2rcd13ifvqe1g","pricing_plan_id":"cebpf4jnsgd1na2vs0mg"},{"bike_id":"22423617-7e4d-4881-9ad0-c1f83c041f84","system_id":"levelo_inurba_marseille","lat":43.2901,"lon":5.381269,"is_reserved":false,"is_disabled":false,"rental_uris":{"android":"levelo://app?vid=22423617-7e4d-4881-9ad0-c1f83c041f84","ios":"levelo://app?vid=22423617-7e4d-4881-9ad0-c1f83c041f84"},"vehicle_type_id":"4","last_reported":1722197295,"current_range_meters":2800,"station_id":"ce4bh4p2rcd13ifvqe1g","pricing_plan_id":"cebpf4jnsgd1na2vs0mg"},{"bike_id":"66057010-1d93-4e88-944c-b003015042b6","system_id":"levelo_inurba_marseille","lat":43.288457,"lon":5.358403,"is_reserved":false,"is_disabled":false,"rental_uris":{"android":"levelo://app?vid=66057010-1d93-4e88-944c-b003015042b6","ios":"levelo://app?vid=66057010-1d93-4e88-944c-b003015042b6"},"vehicle_type_id":"4","last_reported":1722197295,"current_range_meters":0,"station_id":"ce4bhb12rcd13ifvqem0","pricing_plan_id":"cebpf4jnsgd1na2vs0mg"},{"bike_id":"dd38e330-6e50-4db5-9114-03a928ab1797","system_id":"levelo_inurba_marseille","lat":43.312609,"lon":5.401662,"is_reserved":false,"is_disabled":false,"rental_uris":{"android":"levelo://app?vid=dd38e330-6e50-4db5-9114-03a928ab1797","ios":"levelo://app?vid=dd38e330-6e50-4db5-9114-03a928ab1797"},"vehicle_type_id":"4","last_reported":1722197295,"current_range_meters":25600,"station_id":"ce4bh092rcd13ifvqd30","pricing_plan_id":"cebpf4jnsgd1na2vs0mg"},{"bike_id":"3e79250c-7764-488c-b465-61fd16d31170","system_id":"levelo_inurba_marseille","lat":43.33736,"lon":5.37477,"is_reserved":false,"is_disabled":false,"rental_uris":{"android":"levelo://app?vid=3e79250c-7764-488c-b465-61fd16d31170","ios":"levelo://app?vid=3e79250c-7764-488c-b465-61fd16d31170"},"vehicle_type_id":"4","last_reported":1722197295,"current_range_meters":24400,"station_id":"","pricing_plan_id":"cebpf4jnsgd1na2vs0mg"},{"bike_id":"67a05b44-1b02-4bba-81fe-17dbe92868b5","system_id":"levelo_inurba_marseille","lat":43.287938,"lon":5.373701,"is_reserved":false,"is_disabled":false,"rental_uris":{"android":"levelo://app?vid=67a05b44-1b02-4bba-81fe-17dbe92868b5","ios":"levelo://app?vid=67a05b44-1b02-4bba-81fe-17dbe92868b5"},"vehicle_type_id":"4","last_reported":1722197295,"current_range_meters":16800,"station_id":"","pricing_plan_id":"cebpf4jnsgd1na2vs0mg"},{"bike_id":"e92bf1d5-b1ca-44cd-9b31-a0496082825d","system_id":"levelo_inurba_marseille","lat":43.33733,"lon":5.37507,"is_reserved":false,"is_disabled":false,"rental_uris":{"android":"levelo://app?vid=e92bf1d5-b1ca-44cd-9b31-a0496082825d","ios":"levelo://app?vid=e92bf1d5-b1ca-44cd-9b31-a0496082825d"},"vehicle_type_id":"4","last_reported":1722197295,"current_range_meters":24400,"station_id":"","pricing_plan_id":"cebpf4jnsgd1na2vs0mg"},{"bike_id":"20a7bf81-31fd-4cb5-b454-68d5314a31b8","system_id":"levelo_inurba_marseille","lat":43.337401,"lon":5.374655,"is_reserved":false,"is_disabled":false,"rental_uris":{"android":"levelo://app?vid=20a7bf81-31fd-4cb5-b454-68d5314a31b8","ios":"levelo://app?vid=20a7bf81-31fd-4cb5-b454-68d5314a31b8"},"vehicle_type_id":"4","last_reported":1722197295,"current_range_meters":26000,"station_id":"","pricing_plan_id":"cebpf4jnsgd1na2vs0mg"},{"bike_id":"0c529249-f34b-4b1f-aa82-fe86f00be1e0","system_id":"levelo_inurba_marseille","lat":43.312609,"lon":5.401662,"is_reserved":false,"is_disabled":false,"rental_uris":{"android":"levelo://app?vid=0c529249-f34b-4b1f-aa82-fe86f00be1e0","ios":"levelo://app?vid=0c529249-f34b-4b1f-aa82-fe86f00be1e0"},