{"last_updated":1779381200,"ttl":60,"version":"2.2","data":{"bikes":[{"bike_id":"7d641315-6110-49cb-a9dd-d637ff032de1","system_id":"levelo_inurba_marseille","lat":43.337444,"lon":5.374475,"is_reserved":false,"is_disabled":false,"rental_uris":{"android":"levelo://app?vid=7d641315-6110-49cb-a9dd-d637ff032de1","ios":"levelo://app?vid=7d641315-6110-49cb-a9dd-d637ff032de1"},"vehicle_type_id":"4","last_reported":1779381202,"current_range_meters":0,"station_id":"","pricing_plan_id":"cebpf4jnsgd1na2vs0mg"},{"bike_id":"37017d10-1f07-41fb-9f17-540118c914d4","system_id":"levelo_inurba_marseille","lat":43.27373,"lon":5.36239,"is_reserved":false,"is_disabled":true,"rental_uris":{"android":"levelo://app?vid=37017d10-1f07-41fb-9f17-540118c914d4","ios":"levelo://app?vid=37017d10-1f07-41fb-9f17-540118c914d4"},"vehicle_type_id":"4","last_reported":1779381202,"current_range_meters":2800,"station_id":"ce4bhbh2rcd13ifvqeo0","pricing_plan_id":"cebpf4jnsgd1na2vs0mg"},{"bike_id":"1a1e423d-336e-4f08-8cdb-839ca792da64","system_id":"levelo_inurba_marseille","lat":43.28495,"lon":5.48374,"is_reserved":false,"is_disabled":false,"rental_uris":{"android":"levelo://app?vid=1a1e423d-336e-4f08-8cdb-839ca792da64","ios":"levelo://app?vid=1a1e423d-336e-4f08-8cdb-839ca792da64"},"vehicle_type_id":"4","last_reported":1779381202,"current_range_meters":2800,"station_id":"st_d3svhcjqgbts73a3dn0g","pricing_plan_id":"cebpf4jnsgd1na2vs0mg"},{"bike_id":"c202bc15-6fd2-4b5b-b9f8-fe2a7981a9a0","system_id":"levelo_inurba_marseille","lat":43.23327,"lon":5.35902,"is_reserved":false,"is_disabled":false,"rental_uris":{"android":"levelo://app?vid=c202bc15-6fd2-4b5b-b9f8-fe2a7981a9a0","ios":"levelo://app?vid=c202bc15-6fd2-4b5b-b9f8-fe2a7981a9a0"},"vehicle_type_id":"4","last_reported":1779381202,"current_range_meters":2800,"station_id":"","pricing_plan_id":"cebpf4jnsgd1na2vs0mg"},{"bike_id":"ee5f0a9f-8e57-4319-b758-3a62f430626f","system_id":"levelo_inurba_marseille","lat":43.21196,"lon":5.35083,"is_reserved":false,"is_disabled":true,"rental_uris":{"android":"levelo://app?vid=ee5f0a9f-8e57-4319-b758-3a62f430626f","ios":"levelo://app?vid=ee5f0a9f-8e57-4319-b758-3a62f430626f"},"vehicle_type_id":"4","last_reported":1779381202,"current_range_meters":2800,"station_id":"st_cvj6sg6p6f1abm77japg","pricing_plan_id":"cebpf4jnsgd1na2vs0mg"},{"bike_id":"2bda5e08-dff1-424d-83db-34ef699e9cd4","system_id":"levelo_inurba_marseille","lat":43.28448,"lon":5.3921,"is_reserved":false,"is_disabled":false,"rental_uris":{"android":"levelo://app?vid=2bda5e08-dff1-424d-83db-34ef699e9cd4","ios":"levelo://app?vid=2bda5e08-dff1-424d-83db-34ef699e9cd4"},"vehicle_type_id":"4","last_reported":1779381202,"current_range_meters":2800,"station_id":"ce4bhoh2rcd13ifvqh5g","pricing_plan_id":"cebpf4jnsgd1na2vs0mg"},{"bike_id":"b44c5164-6ad7-4b9e-9e21-d7cbc137eadb","system_id":"levelo_inurba_marseille","lat":43.2617,"lon":5.37354,"is_reserved":false,"is_disabled":false,"rental_uris":{"android":"levelo://app?vid=b44c5164-6ad7-4b9e-9e21-d7cbc137eadb","ios":"levelo://app?vid=b44c5164-6ad7-4b9e-9e21-d7cbc137eadb"},"vehicle_type_id":"4","last_reported":1779381202,"current_range_meters":2800,"station_id":"ce4bhgp2rcd13ifvqfc0","pricing_plan_id":"cebpf4jnsgd1na2vs0mg"},{"bike_id":"47c9cb97-371d-4e9f-9c20-83aba40029f7","system_id":"levelo_inurba_marseille","lat":43.225321,"lon":5.348338,"is_reserved":false,"is_disabled":true,"rental_uris":{"android":"levelo://app?vid=47c9cb97-371d-4e9f-9c20-83aba40029f7","ios":"levelo://app?vid=47c9cb97-371d-4e9f-9c20-83aba40029f7"},"vehicle_type_id":"4","last_reported":1779381202,"current_range_meters":2800,"station_id":"st_cvj5dfep6f1abm77gieg","pricing_plan_id":"cebpf4jnsgd1na2vs0mg"},{"bike_id":"481f201d-0a19-4384-a6c9-4913a19b216d","system_id":"levelo_inurba_marseille","lat":43.30428,"lon":5.38889,"is_reserved":false,"is_disabled":false,"rental_uris":{"android":"levelo://app?vid=481f201d-0a19-4384-a6c9-4913a19b216d","ios":"levelo://app?vid=481f201d-0a19-4384-a6c9-4913a19b216d"},"vehicle_type_id":"4","last_reported":1779381202,"current_range_meters":2800,"station_id":"ce4bgk12rcd13ifvqbi0","pricing_plan_id":"cebpf4jnsgd1na2vs0mg"},{"bike_id":"fe82d7b6-496d-41ff-9170-9fbb20eca981","system_id":"levelo_inurba_marseille","lat":43.28276,"lon":5.35061,"is_reserved":false,"is_disabled":false,"rental_uris":{"android":"levelo://app?vid=fe82d7b6-496d-41ff-9170-9fbb20eca981","ios":"levelo://app?vid=fe82d7b6-496d-41ff-9170-9fbb20eca981"},"vehicle_type_id":"4","last_reported":1779381202,"current_range_meters":2800,"station_id":"ce4bhbp2rcd13ifvqerg","pricing_plan_id":"cebpf4jnsgd1na2vs0mg"},{"bike_id":"3663533d-97b4-4df4-863b-e98b3fdff864","system_id":"levelo_inurba_marseille","lat":43.31361,"lon":5.38489,"is_reserved":false,"is_disabled":false,"rental_uris":{"android":"levelo://app?vid=3663533d-97b4-4df4-863b-e98b3fdff864","ios":"levelo://app?vid=3663533d-97b4-4df4-863b-e98b3fdff864"},"vehicle_type_id":"4","last_reported":1779381202,"current_range_meters":2800,"station_id":"ce4bgt92rcd13ifvqcf0","pricing_plan_id":"cebpf4jnsgd1na2vs0mg"},{"bike_id":"33f03feb-5a9a-4aef-9050-eb913c6351c7","system_id":"levelo_inurba_marseille","lat":43.22917,"lon":5.35407,"is_reserved":false,"is_disabled":true,"rental_uris":{"android":"levelo://app?vid=33f03feb-5a9a-4aef-9050-eb913c6351c7","ios":"levelo://app?vid=33f03feb-5a9a-4aef-9050-eb913c6351c7"},"vehicle_type_id":"4","last_reported":1779381202,"current_range_meters":3200,"station_id":"cpo3532slgdg3j2ikp40","pricing_plan_id":"cebpf4jnsgd1na2vs0mg"},{"bike_id":"406368e3-66e9-40a0-91f6-5bca7b625515","system_id":"levelo_inurba_marseille","lat":43.25338,"lon":5.42165,"is_reserved":false,"is_disabled":false,"rental_uris":{"android":"levelo://app?vid=406368e3-66e9-40a0-91f6-5bca7b625515","ios":"levelo://app?vid=406368e3-66e9-40a0-91f6-5bca7b625515"},"vehicle_type_id":"4","last_reported":1779381202,"current_range_meters":3200,"station_id":"st_d2m65c5bi1j21697t3ng","pricing_plan_id":"cebpf4jnsgd1na2vs0mg"},{"bike_id":"b86de42e-fb9a-4ece-9264-c49ba92dd8db","system_id":"levelo_inurba_marseille","lat":43.29184,"lon":5.358,"is_reserved":false,"is_disabled":false,"rental_uris":{"android":"levelo://app?vid=b86de42e-fb9a-4ece-9264-c49ba92dd8db","ios":"levelo://app?vid=b86de42e-fb9a-4ece-9264-c49ba92dd8db"},"vehicle_type_id":"4","last_reported":1779381202,"current_range_meters":3200,"station_id":"ce4bhb12rcd13ifvqel0","pricing_plan_id":"cebpf4jnsgd1na2vs0mg"},{"bike_id":"93c8f4e4-8a2e-4df6-bc70-ed60da409506","system_id":"levelo_inurba_marseille","lat":43.29298,"lon":5.37459,"is_reserved":false,"is_disabled":false,"rental_uris":{"android":"levelo://app?vid=93c8f4e4-8a2e-4df6-bc70-ed60da409506","ios":"levelo://app?vid=93c8f4e4-8a2e-4df6-bc70-ed60da409506"},"vehicle_type_id":"4","last_reported":1779381202,"current_range_meters":3200,"station_id":"ce4bgi12rcd13ifvqb70","pricing_plan_id":"cebpf4jnsgd1na2vs0mg"},{"bike_id":"c73a9cf5-7d1a-4e0c-a908-c51bf0da8c23","system_id":"levelo_inurba_marseille","lat":43.30912,"lon":5.41633,"is_reserved":false,"is_disabled":false,"rental_uris":{"android":"levelo://app?vid=c73a9cf5-7d1a-4e0c-a908-c51bf0da8c23","ios":"levelo://app?vid=c73a9cf5-7d1a-4e0c-a908-c51bf0da8c23"},"vehicle_type_id":"4","last_reported":1779381202,"current_range_meters":3200,"station_id":"","pricing_plan_id":"cebpf4jnsgd1na2vs0mg"},{"bike_id":"ba3c90f4-f75e-45df-b59f-71c92d6ce8c3","system_id":"levelo_inurba_marseille","lat":43.24807,"lon":5.37465,"is_reserved":false,"is_disabled":false,"rental_uris":{"android":"levelo://app?vid=ba3c90f4-f75e-45df-b59f-71c92d6ce8c3","ios":"levelo://app?vid=ba3c90f4-f75e-45df-b59f-71c92d6ce8c3"},"vehicle_type_id":"4","last_reported":1779381202,"current_range_meters":3200,"station_id":"ce4bhgh2rcd13ifvqfb0","pricing_plan_id":"cebpf4jnsgd1na2vs0mg"},{"bike_id":"42d19f04-7302-4074-b0f2-f8bad5e4d35d","system_id":"levelo_inurba_marseille","lat":43.29535,"lon":5.38537,"is_reserved":false,"is_disabled":false,"rental_uris":{"android":"levelo://app?vid=42d19f04-7302-4074-b0f2-f8bad5e4d35d","ios":"levelo://app?vid=42d19f04-7302-4074-b0f2-f8bad5e4d35d"},"vehicle_type_id":"4","last_reported":1779381202,"current_range_meters":3200,"station_id":"ce4bgih2rcd13ifvqba0","pricing_plan_id":"cebpf4jnsgd1na2vs0mg"},{"bike_id":"74fe1e51-c8c1-48c7-87a3-bd97254ab7ff","system_id":"levelo_inurba_marseille","lat":43.271677,"lon":5.409814,"is_reserved":false,"is_disabled":false,"rental_uris":{"android":"levelo://app?vid=74fe1e51-c8c1-48c7-87a3-bd97254ab7ff","ios":"levelo://app?vid=74fe1e51-c8c1-48c7-87a3-bd97254ab7ff"},"vehicle_type_id":"4","last_reported":1779381202,"current_range_meters":3200,"station_id":"ce4bhl12rcd13ifvqgf0","pricing_plan_id":"cebpf4jnsgd1na2vs0mg"},{"bike_id":"126b249d-81a0-437a-826c-eeae84db297a","system_id":"levelo_inurba_marseille","lat":43.23178,"lon":5.39984,"is_reserved":false,"is_disabled":false,"rental_uris":{"android":"levelo://app?vid=126b249d-81a0-437a-826c-eeae84db297a","ios":"levelo://app?vid=126b249d-81a0-437a-826c-eeae84db297a"},"vehicle_type_id":"4","last_reported":1779381202,"current_range_meters":3200,"station_id":"ce4bhn12rcd13ifvqgqg","pricing_plan_id":"cebpf4jnsgd1na2vs0mg"},{"bike_id":"6c121baf-e12e-46a0-8eec-e6e87c1ea6cf","system_id":"levelo_inurba_marseille","lat":43.30187,"lon":5.36628,"is_reserved":false,"is_disabled":false,"rental_uris":{"android":"levelo://app?vid=6c121baf-e12e-46a0-8eec-e6e87c1ea6cf","ios":"levelo://app?vid=6c121baf-e12e-46a0-8eec-e6e87c1ea6cf"},"vehicle_type_id":"4","last_reported":1779381202,"current_range_meters":3200,"station_id":"ce4bgrh2rcd13ifvqc8g","pricing_plan_id":"cebpf4jnsgd1na2vs0mg"},{"bike_id":"1945c429-a6b3-4afe-8b4e-c989148ef8b4","system_id":"levelo_inurba_marseille","lat":43.28637,"lon":5.37798,"is_reserved":false,"is_disabled":false,"rental_uris":{"android":"levelo://app?vid=1945c429-a6b3-4afe-8b4e-c989148ef8b4","ios":"levelo://app?vid=1945c429-a6b3-4afe-8b4e-c989148ef8b4"},"vehicle_type_id":"4","last_reported":1779381202,"current_range_meters":3200,"station_id":"","pricing_plan_id":"cebpf4jnsgd1na2vs0mg"},{"bike_id":"ca5b8b13-5373-4377-b925-1d87c55b34ee","system_id":"levelo_inurba_marseille","lat":43.273791,"lon":5.362564,"is_reserved":false,"is_disabled":false,"rental_uris":{"android":"levelo://app?vid=ca5b8b13-5373-4377-b925-1d87c55b34ee","ios":"levelo://app?vid=ca5b8b13-5373-4377-b925-1d87c55b34ee"},"vehicle_type_id":"4","last_reported":1779381202,"current_range_meters":3600,"station_id":"ce4bhbh2rcd13ifvqeo0","pricing_plan_id":"cebpf4jnsgd1na2vs0mg"},{"bike_id":"16805dd8-f067-4c12-bfee-c82fa39fbe8c","system_id":"levelo_inurba_marseille","lat":43.30652,"lon":5.40099,"is_reserved":false,"is_disabled":false,"rental_uris":{"android":"levelo://app?vid=16805dd8-f067-4c12-bfee-c82fa39fbe8c","ios":"levelo://app?vid=16805dd8-f067-4c12-bfee-c82fa39fbe8c"},"vehicle_type_id":"4","last_reported":1779381202,"current_range_meters":3600,"station_id":"ce4bh112rcd13ifvqda0","pricing_plan_id":"cebpf4jnsgd1na2vs0mg"},{"bike_id":"eea3ddd4-01f3-487f-98d5-63e4cc52e4b4","system_id":"levelo_inurba_marseille","lat":43.29021,"lon":5.38146,"is_reserved":false,"is_disabled":false,"rental_uris":{"android":"levelo://app?vid=eea3ddd4-01f3-487f-98d5-63e4cc52e4b4","ios":"levelo://app?vid=eea3ddd4-01f3-487f-98d5-63e4cc52e4b4"},"vehicle_type_id":"4","last_reported":1779381202,"current_range_meters":3600,"station_id":"ce4bh4p2rcd13ifvqe1g","pricing_plan_id":"cebpf4jnsgd1na2vs0mg"},{"bike_id":"ffec9731-b295-4685-bd59-64042f5e41b4","system_id":"levelo_inurba_marseille","lat":43.31329,"lon":5.39684,"is_reserved":false,"is_disabled":false,"rental_uris":{"android":"levelo://app?vid=ffec9731-b295-4685-bd59-64042f5e41b4","ios":"levelo://app?vid=ffec9731-b295-4685-bd59-64042f5e41b4"},"vehicle_type_id":"4","last_reported":1779381202,"current_range_meters":3600,"station_id":"ce4bgvp2rcd13ifvqcu0","pricing_plan_id":"cebpf4jnsgd1na2vs0mg"},{"bike_id":"c5e693a5-5aee-4f2f-b3d3-ad6fe1a5da64","system_id":"levelo_inurba_marseille","lat":43.3246,"lon":5.36574,"is_reserved":false,"is_disabled":false,"rental_uris":{"android":"levelo://app?vid=c5e693a5-5aee-4f2f-b3d3-ad6fe1a5da64","ios":"levelo://app?vid=c5e693a5-5aee-4f2f-b3d3-ad6fe1a5da64"},"vehicle_type_id":"4","last_reported":1779381202,"current_range_meters":3600,"station_id":"ce4bhs12rcd13ifvqhvg","pricing_plan_id":"cebpf4jnsgd1na2vs0mg"},{"bike_id":"e38caa21-a14a-4197-88a1-db68aad57c56","system_id":"levelo_inurba_marseille","lat":43.28674,"lon":5.46792,"is_reserved":false,"is_disabled":false,"rental_uris":{"android":"levelo://app?vid=e38caa21-a14a-4197-88a1-db68aad57c56","ios":"levelo://app?vid=e38caa21-a14a-4197-88a1-db68aad57c56"},"vehicle_type_id":"4","last_reported":1779381202,"current_range_meters":3600,"station_id":"","pricing_plan_id":"cebpf4jnsgd1na2vs0mg"},{"bike_id":"a3071a58-220a-49d7-933f-639eaa20dffd","system_id":"levelo_inurba_marseille","lat":43.28729,"lon":5.42725,"is_reserved":false,"is_disabled":false,"rental_uris":{"android":"levelo://app?vid=a3071a58-220a-49d7-933f-639eaa20dffd","ios":"levelo://app?vid=a3071a58-220a-49d7-933f-639eaa20dffd"},"vehicle_type_id":"4","last_reported":1779381202,"current_range_meters":3600,"station_id":"","pricing_plan_id":"cebpf4jnsgd1na2vs0mg"},{"bike_id":"cd454b89-019f-4d85-b8f5-eb8c9fd64299","system_id":"levelo_inurba_marseille","lat":43.301415,"lon":5.374156,"is_reserved":false,"is_disabled":false,"rental_uris":{"android":"levelo://app?vid=cd454b89-019f-4d85-b8f5-eb8c9fd64299","ios":"levelo://app?vid=cd454b89-019f-4d85-b8f5-eb8c9fd64299"},"vehicle_type_id":"4","last_reported":1779381202,"current_range_meters":3600,"station_id":"ce4bgs92rcd13ifvqcc0","pricing_plan_id":"cebpf4jnsgd1na2vs0mg"},{"bike_id":"9ba2f491-c96a-4d42-8378-e9fceb7f9a6d","system_id":"levelo_inurba_marseille","lat":43.287379,"lon":5.376735,"is_reserved":false,"is_disabled":false,"rental_uris":{"android":"levelo://app?vid=9ba2f491-c96a-4d42-8378-e9fceb7f9a6d","ios":"levelo://app?vid=9ba2f491-c96a-4d42-8378-e9fceb7f9a6d"},"vehicle_type_id":"4","last_reported":1779381202,"current_range_meters":3600,"station_id":"ce4bh9p2rcd13ifvqec0","pricing_plan_id":"cebpf4jnsgd1na2vs0mg"},{"bike_id":"c3025e30-ddd8-4826-8873-206afadfa15c","system_id":"levelo_inurba_marseille","lat":43.28424,"lon":5.34994,"is_reserved":false,"is_disabled":false,"rental_uris":{"android":"levelo://app?vid=c3025e30-ddd8-4826-8873-206afadfa15c","ios":"levelo://app?vid=c3025e30-ddd8-4826-8873-206afadfa15c"},"vehicle_type_id":"4","last_reported":1779381202,"current_range_meters":3600,"station_id":"ce4bhbh2rcd13ifvqepg","pricing_plan_id":"cebpf4jnsgd1na2vs0mg"},{"bike_id":"06eb37d5-1a4f-4140-ba78-5e7e3fa649b2","system_id":"levelo_inurba_marseille","lat":43.23174,"lon":5.39987,"is_reserved":false,"is_disabled":false,"rental_uris":{"android":"levelo://app?vid=06eb37d5-1a4f-4140-ba78-5e7e3fa649b2","ios":"levelo://app?vid=06eb37d5-1a4f-4140-ba78-5e7e3fa649b2"},"vehicle_type_id":"4","last_reported":1779381202,"current_range_meters":3600,"station_id":"ce4bhn12rcd13ifvqgqg","pricing_plan_id":"cebpf4jnsgd1na2vs0mg"},{"bike_id":"4f66dd73-87e8-4fdb-a7a4-15863613812e","system_id":"levelo_inurba_marseille","lat":43.27976,"lon":5.38738,"is_reserved":false,"is_disabled":false,"rental_uris":{"android":"levelo://app?vid=4f66dd73-87e8-4fdb-a7a4-15863613812e","ios":"levelo://app?vid=4f66dd73-87e8-4fdb-a7a4-15863613812e"},"vehicle_type_id":"4","last_reported":1779381202,"current_range_meters":3600,"station_id":"ce4bhg12rcd13ifvqf80","pricing_plan_id":"cebpf4jnsgd1na2vs0mg"},{"bike_id":"a5725cbe-a49d-4244-8db4-6124b2600032","system_id":"levelo_inurba_marseille","lat":43.29536,"lon":5.38541,"is_reserved":false,"is_disabled":false,"rental_uris":{"android":"levelo://app?vid=a5725cbe-a49d-4244-8db4-6124b2600032","ios":"levelo://app?vid=a5725cbe-a49d-4244-8db4-6124b2600032"},"vehicle_type_id":"4","last_reported":1779381202,"current_range_meters":3600,"station_id":"ce4bgih2rcd13ifvqba0","pricing_plan_id":"cebpf4jnsgd1na2vs0mg"},{"bike_id":"83830cbb-b332-4b19-a7df-33ec2f7a70e9","system_id":"levelo_inurba_marseille","lat":43.28609,"lon":5.39869,"is_reserved":false,"is_disabled":false,"rental_uris":{"android":"levelo://app?vid=83830cbb-b332-4b19-a7df-33ec2f7a70e9","ios":"levelo://app?vid=83830cbb-b332-4b19-a7df-33ec2f7a70e9"},"vehicle_type_id":"4","last_reported":1779381202,"current_range_meters":3600,"station_id":"st_d4a7ka997mjs738ck50g","pricing_plan_id":"cebpf4jnsgd1na2vs0mg"},{"bike_id":"9d0b324b-faf1-44a6-83f2-c1cf3bf2545b","system_id":"levelo_inurba_marseille","lat":43.27174,"lon":5.40999,"is_reserved":false,"is_disabled":false,"rental_uris":{"android":"levelo://app?vid=9d0b324b-faf1-44a6-83f2-c1cf3bf2545b","ios":"levelo://app?vid=9d0b324b-faf1-44a6-83f2-c1cf3bf2545b"},"vehicle_type_id":"4","last_reported":1779381202,"current_range_meters":3600,"station_id":"ce4bhl12rcd13ifvqgf0","pricing_plan_id":"cebpf4jnsgd1na2vs0mg"},{"bike_id":"ca4cc5c7-9f48-446b-9a64-f1291ec26c37","system_id":"levelo_inurba_marseille","lat":43.304307,"lon":5.388834,"is_reserved":false,"is_disabled":false,"rental_uris":{"android":"levelo://app?vid=ca4cc5c7-9f48-446b-9a64-f1291ec26c37","ios":"levelo://app?vid=ca4cc5c7-9f48-446b-9a64-f1291ec26c37"},"vehicle_type_id":"4","last_reported":1779381202,"current_range_meters":3600,"station_id":"ce4bgk12rcd13ifvqbi0","pricing_plan_id":"cebpf4jnsgd1na2vs0mg"},{"bike_id":"d73080a3-343c-4318-8b78-b407bc84fd54","system_id":"levelo_inurba_marseille","lat":43.29447,"lon":5.39737,"is_reserved":false,"is_disabled":false,"rental_uris":{"android":"levelo://app?vid=d73080a3-343c-4318-8b78-b407bc84fd54","ios":"levelo://app?vid=d73080a3-343c-4318-8b78-b407bc84fd54"},"vehicle_type_id":"4","last_reported":1779381202,"current_range_meters":4000,"station_id":"ce4bh3h2rcd13ifvqdo0","pricing_plan_id":"cebpf4jnsgd1na2vs0mg"},{"bike_id":"8a809757-252a-431a-b597-16954e7ac50b","system_id":"levelo_inurba_marseille","lat":43.25713,"lon":5.4112,"is_reserved":false,"is_disabled":false,"rental_uris":{"android":"levelo://app?vid=8a809757-252a-431a-b597-16954e7ac50b","ios":"levelo://app?vid=8a809757-252a-431a-b597-16954e7ac50b"},"vehicle_type_id":"4","last_reported":1779381202,"current_range_meters":4000,"station_id":"ce4bhkp2rcd13ifvqgd0","pricing_plan_id":"cebpf4jnsgd1na2vs0mg"},{"bike_id":"7975b169-5677-4dff-9b59-bed9c727a531","system_id":"levelo_inurba_marseille","lat":43.3114,"lon":5.37787,"is_reserved":false,"is_disabled":true,"rental_uris":{"android":"levelo://app?vid=7975b169-5677-4dff-9b59-bed9c727a531","ios":"levelo://app?vid=7975b169-5677-4dff-9b59-bed9c727a531"},"vehicle_type_id":"4","last_reported":1779381202,"current_range_meters":4000,"station_id":"ce4bgt92rcd13ifvqcg0","pricing_plan_id":"cebpf4jnsgd1na2vs0mg"},{"bike_id":"54cf749c-171a-41c5-93f1-1f7979f6535d","system_id":"levelo_inurba_marseille","lat":43.25515,"lon":5.37657,"is_reserved":false,"is_disabled":true,"rental_uris":{"android":"levelo://app?vid=54cf749c-171a-41c5-93f1-1f7979f6535d","ios":"levelo://app?vid=54cf749c-171a-41c5-93f1-1f7979f6535d"},"vehicle_type_id":"4","last_reported":1779381202,"current_range_meters":4000,"station_id":"ce4bhh12rcd13ifvqff0","pricing_plan_id":"cebpf4jnsgd1na2vs0mg"},{"bike_id":"a115a2c2-6bbb-434b-861c-6e2569b32bbd","system_id":"levelo_inurba_marseille","lat":43.29043,"lon":5.39949,"is_reserved":false,"is_disabled":false,"rental_uris":{"android":"levelo://app?vid=a115a2c2-6bbb-434b-861c-6e2569b32bbd","ios":"levelo://app?vid=a115a2c2-6bbb-434b-861c-6e2569b32bbd"},"vehicle_type_id":"4","last_reported":1779381202,"current_range_meters":4000,"station_id":"ce4bh392rcd13ifvqdm0","pricing_plan_id":"cebpf4jnsgd1na2vs0mg"},{"bike_id":"553619dc-d839-4e00-bc6d-eecc5ecdba79","system_id":"levelo_inurba_marseille","lat":43.28159,"lon":5.42639,"is_reserved":false,"is_disabled":true,"rental_uris":{"android":"levelo://app?vid=553619dc-d839-4e00-bc6d-eecc5ecdba79","ios":"levelo://app?vid=553619dc-d839-4e00-bc6d-eecc5ecdba79"},"vehicle_type_id":"4","last_reported":1779381202,"current_range_meters":4000,"station_id":"ce4bhnh2rcd13ifvqgug","pricing_plan_id":"cebpf4jnsgd1na2vs0mg"},{"bike_id":"9828901c-707a-42fb-b7b8-29689c79b2e7","system_id":"levelo_inurba_marseille","lat":43.239687,"lon":5.366335,"is_reserved":false,"is_disabled":false,"rental_uris":{"android":"levelo://app?vid=9828901c-707a-42fb-b7b8-29689c79b2e7","ios":"levelo://app?vid=9828901c-707a-42fb-b7b8-29689c79b2e7"},"vehicle_type_id":"4","last_reported":1779381202,"current_range_meters":4000,"station_id":"ce4bhi12rcd13ifvqfp0","pricing_plan_id":"cebpf4jnsgd1na2vs0mg"},{"bike_id":"ad59525c-5a6f-485c-95d6-6b0b3888974f","system_id":"levelo_inurba_marseille","lat":43.28077,"lon":5.39668,"is_reserved":false,"is_disabled":false,"rental_uris":{"android":"levelo://app?vid=ad59525c-5a6f-485c-95d6-6b0b3888974f","ios":"levelo://app?vid=ad59525c-5a6f-485c-95d6-6b0b3888974f"},"vehicle_type_id":"4","last_reported":1779381202,"current_range_meters":4000,"station_id":"ce4bho12rcd13ifvqh2g","pricing_plan_id":"cebpf4jnsgd1na2vs0mg"},{"bike_id":"f96a15c3-ab0e-4dcf-9e84-e1b618ba2ac2","system_id":"levelo_inurba_marseille","lat":43.29225,"lon":5.36064,"is_reserved":false,"is_disabled":false,"rental_uris":{"android":"levelo://app?vid=f96a15c3-ab0e-4dcf-9e84-e1b618ba2ac2","ios":"levelo://app?vid=f96a15c3-ab0e-4dcf-9e84-e1b618ba2ac2"},"vehicle_type_id":"4","last_reported":1779381202,"current_range_meters":4000,"station_id":"ce4bhbh2rcd13ifvqeqg","pricing_plan_id":"cebpf4jnsgd1na2vs0mg"},{"bike_id":"4581f6a7-79e9-44cd-b96e-06f3561662b8","system_id":"levelo_inurba_marseille","lat":43.22537,"lon":5.34825,"is_reserved":false,"is_disabled":true,"rental_uris":{"android":"levelo://app?vid=4581f6a7-79e9-44cd-b96e-06f3561662b8","ios":"levelo://app?vid=4581f6a7-79e9-44cd-b96e-06f3561662b8"},"vehicle_type_id":"4","last_reported":1779381202,"current_range_meters":4000,"station_id":"st_cvj5dfep6f1abm77gieg","pricing_plan_id":"cebpf4jnsgd1na2vs0mg"},{"bike_id":"32b4c925-91f1-4aa8-a9aa-bd28aea84621","system_id":"levelo_inurba_marseille","lat":43.31102,"lon":5.42406,"is_reserved":false,"is_disabled":false,"rental_uris":{"android":"levelo://app?vid=32b4c925-91f1-4aa8-a9aa-bd28aea84621","ios":"levelo://app?vid=32b4c925-91f1-4aa8-a9aa-bd28aea84621"},"vehicle_type_id":"4","last_reported":1779381202,"current_range_meters":4000,"station_id":"ce4bhp92rcd13ifvqhag","pricing_plan_id":"cebpf4jnsgd1na2vs0mg"},{"bike_id":"b293a712-75e3-44ee-8362-9418df85367c","system_id":"levelo_inurba_marseille","lat":43.26221,"lon":5.38769,"is_reserved":false,"is_disabled":false,"rental_uris":{"android":"levelo://app?vid=b293a712-75e3-44ee-8362-9418df85367c","ios":"levelo://app?vid=b293a712-75e3-44ee-8362-9418df85367c"},"vehicle_type_id":"4","last_reported":1779381202,"current_range_meters":4000,"station_id":"","pricing_plan_id":"cebpf4jnsgd1na2vs0mg"},{"bike_id":"a453cced-2ad1-40e3-9aaf-825ffd82022d","system_id":"levelo_inurba_marseille","lat":43.28866,"lon":5.3584,"is_reserved":false,"is_disabled":false,"rental_uris":{"android":"levelo://app?vid=a453cced-2ad1-40e3-9aaf-825ffd82022d","ios":"levelo://app?vid=a453cced-2ad1-40e3-9aaf-825ffd82022d"},"vehicle_type_id":"4","last_reported":1779381202,"current_range_meters":4000,"station_id":"ce4bhb12rcd13ifvqem0","pricing_plan_id":"cebpf4jnsgd1na2vs0mg"},{"bike_id":"f7cad48c-5c1a-4d67-94c9-18752e134d03","system_id":"levelo_inurba_marseille","lat":43.23955,"lon":5.36617,"is_reserved":false,"is_disabled":false,"rental_uris":{"android":"levelo://app?vid=f7cad48c-5c1a-4d67-94c9-18752e134d03","ios":"levelo://app?vid=f7cad48c-5c1a-4d67-94c9-18752e134d03"},"vehicle_type_id":"4","last_reported":1779381202,"current_range_meters":4400,"station_id":"ce4bhi12rcd13ifvqfp0","pricing_plan_id":"cebpf4jnsgd1na2vs0mg"},{"bike_id":"75e2c68f-638a-4ae2-bede-4f34839c38af","system_id":"levelo_inurba_marseille","lat":43.32092,"lon":5.36792,"is_reserved":false,"is_disabled":false,"rental_uris":{"android":"levelo://app?vid=75e2c68f-638a-4ae2-bede-4f34839c38af","ios":"levelo://app?vid=75e2c68f-638a-4ae2-bede-4f34839c38af"},"vehicle_type_id":"4","last_reported":1779381202,"current_range_meters":4400,"station_id":"ce4bhrh2rcd13ifvqhug","pricing_plan_id":"cebpf4jnsgd1na2vs0mg"},{"bike_id":"f67d9006-45ae-4ebd-83f2-2bd7a5da5c44","system_id":"levelo_inurba_marseille","lat":43.25337,"lon":5.42174,"is_reserved":false,"is_disabled":false,"rental_uris":{"android":"levelo://app?vid=f67d9006-45ae-4ebd-83f2-2bd7a5da5c44","ios":"levelo://app?vid=f67d9006-45ae-4ebd-83f2-2bd7a5da5c44"},"vehicle_type_id":"4","last_reported":1779381202,"current_range_meters":4400,"station_id":"st_d2m65c5bi1j21697t3ng","pricing_plan_id":"cebpf4jnsgd1na2vs0mg"},{"bike_id":"282c9669-7dad-469f-b087-8dbbc861bbc4","system_id":"levelo_inurba_marseille","lat":43.274223,"lon":5.394069,"is_reserved":false,"is_disabled":true,"rental_uris":{"android":"levelo://app?vid=282c9669-7dad-469f-b087-8dbbc861bbc4","ios":"levelo://app?vid=282c9669-7dad-469f-b087-8dbbc861bbc4"},"vehicle_type_id":"4","last_reported":1779381202,"current_range_meters":4400,"station_id":"ce4bhdp2rcd13ifvqf20","pricing_plan_id":"cebpf4jnsgd1na2vs0mg"},{"bike_id":"018bc1b8-394d-4284-aee9-f1a543d506c1","system_id":"levelo_inurba_marseille","lat":43.26558,"lon":5.37295,"is_reserved":false,"is_disabled":true,"rental_uris":{"android":"levelo://app?vid=018bc1b8-394d-4284-aee9-f1a543d506c1","ios":"levelo://app?vid=018bc1b8-394d-4284-aee9-f1a543d506c1"},"vehicle_type_id":"4","last_reported":1779381202,"current_range_meters":4400,"station_id":"ce4bhg12rcd13ifvqf70","pricing_plan_id":"cebpf4jnsgd1na2vs0mg"},{"bike_id":"381a1687-3b4c-4e43-ada7-0b296f458493","system_id":"levelo_inurba_marseille","lat":43.28763,"lon":5.46714,"is_reserved":false,"is_disabled":false,"rental_uris":{"android":"levelo://app?vid=381a1687-3b4c-4e43-ada7-0b296f458493","ios":"levelo://app?vid=381a1687-3b4c-4e43-ada7-0b296f458493"},"vehicle_type_id":"4","last_reported":1779381202,"current_range_meters":4400,"station_id":"","pricing_plan_id":"cebpf4jnsgd1na2vs0mg"},{"bike_id":"051eb476-a462-40f5-811f-71276f1a8d25","system_id":"levelo_inurba_marseille","lat":43.2848,"lon":5.484,"is_reserved":false,"is_disabled":false,"rental_uris":{"android":"levelo://app?vid=051eb476-a462-40f5-811f-71276f1a8d25","ios":"levelo://app?vid=051eb476-a462-40f5-811f-71276f1a8d25"},"vehicle_type_id":"4","last_reported":1779381202,"current_range_meters":4400,"station_id":"st_d3svhcjqgbts73a3dn0g","pricing_plan_id":"cebpf4jnsgd1na2vs0mg"},{"bike_id":"8431ac70-bf4e-4b4e-8e06-a661e1c94489","system_id":"levelo_inurba_marseille","lat":43.30307,"lon":5.36889,"is_reserved":false,"is_disabled":false,"rental_uris":{"android":"levelo://app?vid=8431ac70-bf4e-4b4e-8e06-a661e1c94489","ios":"levelo://app?vid=8431ac70-bf4e-4b4e-8e06-a661e1c94489"},"vehicle_type_id":"4","last_reported":1779381202,"current_range_meters":4400,"station_id":"ce4bgqh2rcd13ifvqc5g","pricing_plan_id":"cebpf4jnsgd1na2vs0mg"},{"bike_id":"a7dcb7e6-59b7-4ada-a9a0-eb00b3467d13","system_id":"levelo_inurba_marseille","lat":43.24649,"lon":5.38895,"is_reserved":false,"is_disabled":true,"rental_uris":{"android":"levelo://app?vid=a7dcb7e6-59b7-4ada-a9a0-eb00b3467d13","ios":"levelo://app?vid=a7dcb7e6-59b7-4ada-a9a0-eb00b3467d13"},"vehicle_type_id":"4","last_reported":1779381202,"current_range_meters":4400,"station_id":"ce4bhg12rcd13ifvqf60","pricing_plan_id":"cebpf4jnsgd1na2vs0mg"},{"bike_id":"65862818-0c1b-4c8e-86d1-24b2cd72e5e1","system_id":"levelo_inurba_marseille","lat":43.29197,"lon":5.39331,"is_reserved":false,"is_disabled":false,"rental_uris":{"android":"levelo://app?vid=65862818-0c1b-4c8e-86d1-24b2cd72e5e1","ios":"levelo://app?vid=65862818-0c1b-4c8e-86d1-24b2cd72e5e1"},"vehicle_type_id":"4","last_reported":1779381202,"current_range_meters":4400,"station_id":"ce4bh192rcd13ifvqdd0","pricing_plan_id":"cebpf4jnsgd1na2vs0mg"},{"bike_id":"924fb5a7-6478-4e31-9ad7-34a2292df595","system_id":"levelo_inurba_marseille","lat":43.28478,"lon":5.43753,"is_reserved":false,"is_disabled":false,"rental_uris":{"android":"levelo://app?vid=924fb5a7-6478-4e31-9ad7-34a2292df595","ios":"levelo://app?vid=924fb5a7-6478-4e31-9ad7-34a2292df595"},"vehicle_type_id":"4","last_reported":1779381202,"current_range_meters":4400,"station_id":"","pricing_plan_id":"cebpf4jnsgd1na2vs0mg"},{"bike_id":"69ebca06-d718-42a0-a01a-6483b0463da6","system_id":"levelo_inurba_marseille","lat":43.27498,"lon":5.42453,"is_reserved":false,"is_disabled":false,"rental_uris":{"android":"levelo://app?vid=69ebca06-d718-42a0-a01a-6483b0463da6","ios":"levelo://app?vid=69ebca06-d718-42a0-a01a-6483b0463da6"},"vehicle_type_id":"4","last_reported":1779381202,"current_range_meters":4400,"station_id":"ce4bhn92rcd13ifvqgrg","pricing_plan_id":"cebpf4jnsgd1na2vs0mg"},{"bike_id":"9c7b01cb-3130-4dfa-9e9d-1b3fbc0bd680","system_id":"levelo_inurba_marseille","lat":43.2496,"lon":5.40497,"is_reserved":false,"is_disabled":false,"rental_uris":{"android":"levelo://app?vid=9c7b01cb-3130-4dfa-9e9d-1b3fbc0bd680","ios":"levelo://app?vid=9c7b01cb-3130-4dfa-9e9d-1b3fbc0bd680"},"vehicle_type_id":"4","last_reported":1779381202,"current_range_meters":4400,"station_id":"st_d2ngiaodas8pm72gd1h0","pricing_plan_id":"cebpf4jnsgd1na2vs0mg"},{"bike_id":"e0e39f66-158d-4ad9-b49b-f6c23d77bba1","system_id":"levelo_inurba_marseille","lat":43.28699,"lon":5.37406,"is_reserved":false,"is_disabled":false,"rental_uris":{"android":"levelo://app?vid=e0e39f66-158d-4ad9-b49b-f6c23d77bba1","ios":"levelo://app?vid=e0e39f66-158d-4ad9-b49b-f6c23d77bba1"},"vehicle_type_id":"4","last_reported":1779381202,"current_range_meters":4400,"station_id":"ce4bh3p2rcd13ifvqdq0","pricing_plan_id":"cebpf4jnsgd1na2vs0mg"},{"bike_id":"1757b586-6c96-4dde-9db6-7ce7d31e68a2","system_id":"levelo_inurba_marseille","lat":43.30933,"lon":5.36794,"is_reserved":false,"is_disabled":false,"rental_uris":{"android":"levelo://app?vid=1757b586-6c96-4dde-9db6-7ce7d31e68a2","ios":"levelo://app?vid=1757b586-6c96-4dde-9db6-7ce7d31e68a2"},"vehicle_type_id":"4","last_reported":1779381202,"current_range_meters":4400,"station_id":"","pricing_plan_id":"cebpf4jnsgd1na2vs0mg"},{"bike_id":"8c39b6dd-b754-48e2-823c-6f28d51803e0","system_id":"levelo_inurba_marseille","lat":43.29273,"lon":5.39836,"is_reserved":false,"is_disabled":false,"rental_uris":{"android":"levelo://app?vid=8c39b6dd-b754-48e2-823c-6f28d51803e0","ios":"levelo://app?vid=8c39b6dd-b754-48e2-823c-6f28d51803e0"},"vehicle_type_id":"4","last_reported":1779381202,"current_range_meters":4400,"station_id":"","pricing_plan_id":"cebpf4jnsgd1na2vs0mg"},{"bike_id":"605bdf70-cff6-4166-9104-ed8dc4e12d50","system_id":"levelo_inurba_marseille","lat":43.29528,"lon":5.3854,"is_reserved":false,"is_disabled":false,"rental_uris":{"android":"levelo://app?vid=605bdf70-cff6-4166-9104-ed8dc4e12d50","ios":"levelo://app?vid=605bdf70-cff6-4166-9104-ed8dc4e12d50"},"vehicle_type_id":"4","last_reported":1779381202,"current_range_meters":4800,"station_id":"ce4bgih2rcd13ifvqba0","pricing_plan_id":"cebpf4jnsgd1na2vs0mg"},{"bike_id":"260a55cf-6459-4633-a060-5b3c57c25a39","system_id":"levelo_inurba_marseille","lat":43.28616,"lon":5.35103,"is_reserved":false,"is_disabled":false,"rental_uris":{"android":"levelo://app?vid=260a55cf-6459-4633-a060-5b3c57c25a39","ios":"levelo://app?vid=260a55cf-6459-4633-a060-5b3c57c25a39"},"vehicle_type_id":"4","last_reported":1779381202,"current_range_meters":4800,"station_id":"ce4bhch2rcd13ifvqeug","pricing_plan_id":"cebpf4jnsgd1na2vs0mg"},{"bike_id":"74bb0400-bb66-433c-82b8-e3e134eb337f","system_id":"levelo_inurba_marseille","lat":43.30133,"lon":5.39851,"is_reserved":false,"is_disabled":false,"rental_uris":{"android":"levelo://app?vid=74bb0400-bb66-433c-82b8-e3e134eb337f","ios":"levelo://app?vid=74bb0400-bb66-433c-82b8-e3e134eb337f"},"vehicle_type_id":"4","last_reported":1779381202,"current_range_meters":4800,"station_id":"ce4bh0h2rcd13ifvqd40","pricing_plan_id":"cebpf4jnsgd1na2vs0mg"},{"bike_id":"f290376a-1210-44fa-ad73-d4a19d289169","system_id":"levelo_inurba_marseille","lat":43.30449,"lon":5.3889,"is_reserved":false,"is_disabled":true,"rental_uris":{"android":"levelo://app?vid=f290376a-1210-44fa-ad73-d4a19d289169","ios":"levelo://app?vid=f290376a-1210-44fa-ad73-d4a19d289169"},"vehicle_type_id":"4","last_reported":1779381202,"current_range_meters":4800,"station_id":"ce4bgk12rcd13ifvqbi0","pricing_plan_id":"cebpf4jnsgd1na2vs0mg"},{"bike_id":"835e74c7-26cd-4f55-8e4f-a09647dbdbf5","system_id":"levelo_inurba_marseille","lat":43.21761,"lon":5.34599,"is_reserved":false,"is_disabled":false,"rental_uris":{"android":"levelo://app?vid=835e74c7-26cd-4f55-8e4f-a09647dbdbf5","ios":"levelo://app?vid=835e74c7-26cd-4f55-8e4f-a09647dbdbf5"},"vehicle_type_id":"4","last_reported":1779381202,"current_range_meters":4800,"station_id":"st_cvj6r9ubvosntc0bgbag","pricing_plan_id":"cebpf4jnsgd1na2vs0mg"},{"bike_id":"6096ca9f-e19d-43dc-b67b-43fb4d7990f2","system_id":"levelo_inurba_marseille","lat":43.29971,"lon":5.41299,"is_reserved":false,"is_disabled":false,"rental_uris":{"android":"levelo://app?vid=6096ca9f-e19d-43dc-b67b-43fb4d7990f2","ios":"levelo://app?vid=6096ca9f-e19d-43dc-b67b-43fb4d7990f2"},"vehicle_type_id":"4","last_reported":1779381202,"current_range_meters":4800,"station_id":"ce4bhp12rcd13ifvqh9g","pricing_plan_id":"cebpf4jnsgd1na2vs0mg"},{"bike_id":"2f2a0e60-ad18-4c5b-a4bf-5dee0d4bbe9b","system_id":"levelo_inurba_marseille","lat":43.30208,"lon":5.39468,"is_reserved":false,"is_disabled":false,"rental_uris":{"android":"levelo://app?vid=2f2a0e60-ad18-4c5b-a4bf-5dee0d4bbe9b","ios":"levelo://app?vid=2f2a0e60-ad18-4c5b-a4bf-5dee0d4bbe9b"},"vehicle_type_id":"4","last_reported":1779381202,"current_range_meters":4800,"station_id":"ce4bh0p2rcd13ifvqd70","pricing_plan_id":"cebpf4jnsgd1na2vs0mg"},{"bike_id":"86a0fb52-613b-4a6c-942d-1abbde400b19","system_id":"levelo_inurba_marseille","lat":43.28434,"lon":5.35015,"is_reserved":false,"is_disabled":true,"rental_uris":{"android":"levelo://app?vid=86a0fb52-613b-4a6c-942d-1abbde400b19","ios":"levelo://app?vid=86a0fb52-613b-4a6c-942d-1abbde400b19"},"vehicle_type_id":"4","last_reported":1779381202,"current_range_meters":4800,"station_id":"ce4bhbh2rcd13ifvqepg","pricing_plan_id":"cebpf4jnsgd1na2vs0mg"},{"bike_id":"3a8bf2dd-1d04-4ee7-9d7d-732a70692881","system_id":"levelo_inurba_marseille","lat":43.30902,"lon":5.36845,"is_reserved":false,"is_disabled":false,"rental_uris":{"android":"levelo://app?vid=3a8bf2dd-1d04-4ee7-9d7d-732a70692881","ios":"levelo://app?vid=3a8bf2dd-1d04-4ee7-9d7d-732a70692881"},"vehicle_type_id":"4","last_reported":1779381202,"current_range_meters":4800,"station_id":"ce4bgn92rcd13ifvqbvg","pricing_plan_id":"cebpf4jnsgd1na2vs0mg"},{"bike_id":"f66d0e98-9812-4b19-9433-ee24232648fc","system_id":"levelo_inurba_marseille","lat":43.310375,"lon":5.371688,"is_reserved":false,"is_disabled":false,"rental_uris":{"android":"levelo://app?vid=f66d0e98-9812-4b19-9433-ee24232648fc","ios":"levelo://app?vid=f66d0e98-9812-4b19-9433-ee24232648fc"},"vehicle_type_id":"4","last_reported":1779381202,"current_range_meters":4800,"station_id":"st_d4kl2rp97mjs73e7tdfg","pricing_plan_id":"cebpf4jnsgd1na2vs0mg"},{"bike_id":"1032a4fd-f272-4834-a2d9-76288d72ea77","system_id":"levelo_inurba_marseille","lat":43.21748,"lon":5.34599,"is_reserved":false,"is_disabled":false,"rental_uris":{"android":"levelo://app?vid=1032a4fd-f272-4834-a2d9-76288d72ea77","ios":"levelo://app?vid=1032a4fd-f272-4834-a2d9-76288d72ea77"},"vehicle_type_id":"4","last_reported":1779381202,"current_range_meters":4800,"station_id":"","pricing_plan_id":"cebpf4jnsgd1na2vs0mg"},{"bike_id":"abbe3fc4-6c98-45ad-9f85-3bca96bf9039","system_id":"levelo_inurba_marseille","lat":43.26547,"lon":5.3729,"is_reserved":false,"is_disabled":false,"rental_uris":{"android":"levelo://app?vid=abbe3fc4-6c98-45ad-9f85-3bca96bf9039","ios":"levelo://app?vid=abbe3fc4-6c98-45ad-9f85-3bca96bf9039"},"vehicle_type_id":"4","last_reported":1779381202,"current_range_meters":4800,"station_id":"ce4bhg12rcd13ifvqf70","pricing_plan_id":"cebpf4jnsgd1na2vs0mg"},{"bike_id":"bb67f34d-a991-4ae7-bc94-6789b64af37a","system_id":"levelo_inurba_marseille","lat":43.22534,"lon":5.34833,"is_reserved":false,"is_disabled":false,"rental_uris":{"android":"levelo://app?vid=bb67f34d-a991-4ae7-bc94-6789b64af37a","ios":"levelo://app?vid=bb67f34d-a991-4ae7-bc94-6789b64af37a"},"vehicle_type_id":"4","last_reported":1779381202,"current_range_meters":4800,"station_id":"st_cvj5dfep6f1abm77gieg","pricing_plan_id":"cebpf4jnsgd1na2vs0mg"},{"bike_id":"038e4133-0300-478d-96e9-87f70c20fa38","system_id":"levelo_inurba_marseille","lat":43.273804,"lon":5.362564,"is_reserved":false,"is_disabled":false,"rental_uris":{"android":"levelo://app?vid=038e4133-0300-478d-96e9-87f70c20fa38","ios":"levelo://app?vid=038e4133-0300-478d-96e9-87f70c20fa38"},"vehicle_type_id":"4","last_reported":1779381202,"current_range_meters":4800,"station_id":"ce4bhbh2rcd13ifvqeo0","pricing_plan_id":"cebpf4jnsgd1na2vs0mg"},{"bike_id":"bdb8ea9e-f317-4a97-aecb-97370038e137","system_id":"levelo_inurba_marseille","lat":43.3108,"lon":5.4243,"is_reserved":false,"is_disabled":false,"rental_uris":{"android":"levelo://app?vid=bdb8ea9e-f317-4a97-aecb-97370038e137","ios":"levelo://app?vid=bdb8ea9e-f317-4a97-aecb-97370038e137"},"vehicle_type_id":"4","last_reported":1779381202,"current_range_meters":4800,"station_id":"ce4bhp92rcd13ifvqhag","pricing_plan_id":"cebpf4jnsgd1na2vs0mg"},{"bike_id":"85aa7030-1d2d-4efc-851d-09155d499f3c","system_id":"levelo_inurba_marseille","lat":43.31957,"lon":5.40945,"is_reserved":false,"is_disabled":false,"rental_uris":{"android":"levelo://app?vid=85aa7030-1d2d-4efc-851d-09155d499f3c","ios":"levelo://app?vid=85aa7030-1d2d-4efc-851d-09155d499f3c"},"vehicle_type_id":"4","last_reported":1779381202,"current_range_meters":4800,"station_id":"","pricing_plan_id":"cebpf4jnsgd1na2vs0mg"},{"bike_id":"38782380-39c6-48ec-9d98-d651c8bd5cfd","system_id":"levelo_inurba_marseille","lat":43.26056,"lon":5.39399,"is_reserved":false,"is_disabled":false,"rental_uris":{"android":"levelo://app?vid=38782380-39c6-48ec-9d98-d651c8bd5cfd","ios":"levelo://app?vid=38782380-39c6-48ec-9d98-d651c8bd5cfd"},"vehicle_type_id":"4","last_reported":1779381202,"current_range_meters":4800,"station_id":"ce4bhh92rcd13ifvqfj0","pricing_plan_id":"cebpf4jnsgd1na2vs0mg"},{"bike_id":"ae45453f-bbc5-4d75-b06e-8cae413315ea","system_id":"levelo_inurba_marseille","lat":43.29801,"lon":5.39331,"is_reserved":false,"is_disabled":false,"rental_uris":{"android":"levelo://app?vid=ae45453f-bbc5-4d75-b06e-8cae413315ea","ios":"levelo://app?vid=ae45453f-bbc5-4d75-b06e-8cae413315ea"},"vehicle_type_id":"4","last_reported":1779381202,"current_range_meters":4800,"station_id":"chh1huq6cuj3fo74tm60","pricing_plan_id":"cebpf4jnsgd1na2vs0mg"},{"bike_id":"64051050-f4ae-4731-8cac-b9d6286aac76","system_id":"levelo_inurba_marseille","lat":43.27996,"lon":5.41666,"is_reserved":false,"is_disabled":false,"rental_uris":{"android":"levelo://app?vid=64051050-f4ae-4731-8cac-b9d6286aac76","ios":"levelo://app?vid=64051050-f4ae-4731-8cac-b9d6286aac76"},"vehicle_type_id":"4","last_reported":1779381202,"current_range_meters":4800,"station_id":"ce4bho12rcd13ifvqh1g","pricing_plan_id":"cebpf4jnsgd1na2vs0mg"},{"bike_id":"cac3b04c-788d-43d7-96df-a997f2036361","system_id":"levelo_inurba_marseille","lat":43.23189,"lon":5.40001,"is_reserved":false,"is_disabled":false,"rental_uris":{"android":"levelo://app?vid=cac3b04c-788d-43d7-96df-a997f2036361","ios":"levelo://app?vid=cac3b04c-788d-43d7-96df-a997f2036361"},"vehicle_type_id":"4","last_reported":1779381202,"current_range_meters":4800,"station_id":"ce4bhn12rcd13ifvqgqg","pricing_plan_id":"cebpf4jnsgd1na2vs0mg"},{"bike_id":"1d1371af-930b-4bb2-a69d-74bda00db512","system_id":"levelo_inurba_marseille","lat":43.24383,"lon":5.37052,"is_reserved":false,"is_disabled":true,"rental_uris":{"android":"levelo://app?vid=1d1371af-930b-4bb2-a69d-74bda00db512","ios":"levelo://app?vid=1d1371af-930b-4bb2-a69d-74bda00db512"},"vehicle_type_id":"4","last_reported":1779381202,"current_range_meters":4800,"station_id":"ce4bhhh2rcd13ifvqfk0","pricing_plan_id":"cebpf4jnsgd1na2vs0mg"},{"bike_id":"2a345eaf-1b16-4721-b4e8-56a599e40ade","system_id":"levelo_inurba_marseille","lat":43.28854,"lon":5.39322,"is_reserved":false,"is_disabled":false,"rental_uris":{"android":"levelo://app?vid=2a345eaf-1b16-4721-b4e8-56a599e40ade","ios":"levelo://app?vid=2a345eaf-1b16-4721-b4e8-56a599e40ade"},"vehicle_type_id":"4","last_reported":1779381202,"current_range_meters":4800,"station_id":"ce4bh2p2rcd13ifvqdi0","pricing_plan_id":"cebpf4jnsgd1na2vs0mg"},{"bike_id":"b3c58742-0569-4988-8f74-9982023b97a6","system_id":"levelo_inurba_marseille","lat":43.31911,"lon":5.3678,"is_reserved":false,"is_disabled":false,"rental_uris":{"android":"levelo://app?vid=b3c58742-0569-4988-8f74-9982023b97a6","ios":"levelo://app?vid=b3c58742-0569-4988-8f74-9982023b97a6"},"vehicle_type_id":"4","last_reported":1779381202,"current_range_meters":5600,"station_id":"st_d6o2h0d0559c73evc1b0","pricing_plan_id":"cebpf4jnsgd1na2vs0mg"},{"bike_id":"94c49980-82e9-40c1-8742-79af726fe66b","system_id":"levelo_inurba_marseille","lat":43.29894,"lon":5.42063,"is_reserved":false,"is_disabled":false,"rental_uris":{"android":"levelo://app?vid=94c49980-82e9-40c1-8742-79af726fe66b","ios":"levelo://app?vid=94c49980-82e9-40c1-8742-79af726fe66b"},"vehicle_type_id":"4","last_reported":1779381202,"current_range_meters":5600,"station_id":"st_d6tc004otcvc738tfe70","pricing_plan_id":"cebpf4jnsgd1na2vs0mg"},{"bike_id":"df453e30-fa19-40f9-93b7-819911c90d8a","system_id":"levelo_inurba_marseille","lat":43.31707,"lon":5.43703,"is_reserved":false,"is_disabled":false,"rental_uris":{"android":"levelo://app?vid=df453e30-fa19-40f9-93b7-819911c90d8a","ios":"levelo://app?vid=df453e30-fa19-40f9-93b7-819911c90d8a"},"vehicle_type_id":"4","last_reported":1779381202,"current_range_meters":5600,"station_id":"ce4bhp92rcd13ifvqhcg","pricing_plan_id":"cebpf4jnsgd1na2vs0mg"},{"bike_id":"b3569826-84d9-49f2-826c-c44b2489e22f","system_id":"levelo_inurba_marseille","lat":43.28634,"lon":5.35111,"is_reserved":false,"is_disabled":false,"rental_uris":{"android":"levelo://app?vid=b3569826-84d9-49f2-826c-c44b2489e22f","ios":"levelo://app?vid=b3569826-84d9-49f2-826c-c44b2489e22f"},"vehicle_type_id":"4","last_reported":1779381202,"current_range_meters":5600,"station_id":"ce4bhch2rcd13ifvqeug","pricing_plan_id":"cebpf4jnsgd1na2vs0mg"},{"bike_id":"5aee5052-f82b-48a3-9797-313893695311","system_id":"levelo_inurba_marseille","lat":43.2841,"lon":5.34991,"is_reserved":false,"is_disabled":false,"rental_uris":{"android":"levelo://app?vid=5aee5052-f82b-48a3-9797-313893695311","ios":"levelo://app?vid=5aee5052-f82b-48a3-9797-313893695311"},"vehicle_type_id":"4","last_reported":1779381202,"current_range_meters":5600,"station_id":"ce4bhbh2rcd13ifvqepg","pricing_plan_id":"cebpf4jnsgd1na2vs0mg"},{"bike_id":"81e50eb4-275b-461a-bc5b-5d284d2639dc","system_id":"levelo_inurba_marseille","lat":43.28996,"lon":5.35611,"is_reserved":false,"is_disabled":false,"rental_uris":{"android":"levelo://app?vid=81e50eb4-275b-461a-bc5b-5d284d2639dc","ios":"levelo://app?vid=81e50eb4-275b-461a-bc5b-5d284d2639dc"},"vehicle_type_id":"4","last_reported":1779381202,"current_range_meters":5600,"station_id":"ce4bhb92rcd13ifvqen0","pricing_plan_id":"cebpf4jnsgd1na2vs0mg"},{"bike_id":"15a8d13c-fc9e-4e13-9398-c1cbd662c288","system_id":"levelo_inurba_marseille","lat":43.2965,"lon":5.38532,"is_reserved":false,"is_disabled":false,"rental_uris":{"android":"levelo://app?vid=15a8d13c-fc9e-4e13-9398-c1cbd662c288","ios":"levelo://app?vid=15a8d13c-fc9e-4e13-9398-c1cbd662c288"},"vehicle_type_id":"4","last_reported":1779381202,"current_range_meters":5600,"station_id":"","pricing_plan_id":"cebpf4jnsgd1na2vs0mg"},{"bike_id":"54ebc614-4655-4582-83f2-3a009523bce0","system_id":"levelo_inurba_marseille","lat":43.25523,"lon":5.37676,"is_reserved":false,"is_disabled":false,"rental_uris":{"android":"levelo://app?vid=54ebc614-4655-4582-83f2-3a009523bce0","ios":"levelo://app?vid=54ebc614-4655-4582-83f2-3a009523bce0"},"vehicle_type_id":"4","last_reported":1779381202,"current_range_meters":5600,"station_id":"ce4bhh12rcd13ifvqff0","pricing_plan_id":"cebpf4jnsgd1na2vs0mg"},{"bike_id":"66c57e81-f5f9-4d2b-a369-83edae4c17ce","system_id":"levelo_inurba_marseille","lat":43.23178,"lon":5.39987,"is_reserved":false,"is_disabled":false,"rental_uris":{"android":"levelo://app?vid=66c57e81-f5f9-4d2b-a369-83edae4c17ce","ios":"levelo://app?vid=66c57e81-f5f9-4d2b-a369-83edae4c17ce"},"vehicle_type_id":"4","last_reported":1779381202,"current_range_meters":5600,"station_id":"ce4bhn12rcd13ifvqgqg","pricing_plan_id":"cebpf4jnsgd1na2vs0mg"},{"bike_id":"be7a55b9-d169-4b9b-bbba-1a1c685fd2b6","system_id":"levelo_inurba_marseille","lat":43.3171,"lon":5.43707,"is_reserved":false,"is_disabled":false,"rental_uris":{"android":"levelo://app?vid=be7a55b9-d169-4b9b-bbba-1a1c685fd2b6","ios":"levelo://app?vid=be7a55b9-d169-4b9b-bbba-1a1c685fd2b6"},"vehicle_type_id":"4","last_reported":1779381202,"current_range_meters":5600,"station_id":"ce4bhp92rcd13ifvqhcg","pricing_plan_id":"cebpf4jnsgd1na2vs0mg"},{"bike_id":"ba500815-2af2-4949-a01a-ce2c02f73453","system_id":"levelo_inurba_marseille","lat":43.26926,"lon":5.38914,"is_reserved":false,"is_disabled":false,"rental_uris":{"android":"levelo://app?vid=ba500815-2af2-4949-a01a-ce2c02f73453","ios":"levelo://app?vid=ba500815-2af2-4949-a01a-ce2c02f73453"},"vehicle_type_id":"4","last_reported":1779381202,"current_range_meters":5600,"station_id":"ce4bhhh2rcd13ifvqfl0","pricing_plan_id":"cebpf4jnsgd1na2vs0mg"},{"bike_id":"444f289d-9451-418a-8dfd-4b21aeca0306","system_id":"levelo_inurba_marseille","lat":43.2737,"lon":5.36257,"is_reserved":false,"is_disabled":false,"rental_uris":{"android":"levelo://app?vid=444f289d-9451-418a-8dfd-4b21aeca0306","ios":"levelo://app?vid=444f289d-9451-418a-8dfd-4b21aeca0306"},"vehicle_type_id":"4","last_reported":1779381202,"current_range_meters":5600,"station_id":"ce4bhbh2rcd13ifvqeo0","pricing_plan_id":"cebpf4jnsgd1na2vs0mg"},{"bike_id":"0b9fb95c-cf6b-4ed5-8bf4-759fc5a571cc","system_id":"levelo_inurba_marseille","lat":43.26846,"lon":5.40689,"is_reserved":false,"is_disabled":false,"rental_uris":{"android":"levelo://app?vid=0b9fb95c-cf6b-4ed5-8bf4-759fc5a571cc","ios":"levelo://app?vid=0b9fb95c-cf6b-4ed5-8bf4-759fc5a571cc"},"vehicle_type_id":"4","last_reported":1779381202,"current_range_meters":5600,"station_id":"","pricing_plan_id":"cebpf4jnsgd1na2vs0mg"},{"bike_id":"d139227d-9a97-4242-837a-894cb8514c2b","system_id":"levelo_inurba_marseille","lat":43.28543,"lon":5.44091,"is_reserved":false,"is_disabled":false,"rental_uris":{"android":"levelo://app?vid=d139227d-9a97-4242-837a-894cb8514c2b","ios":"levelo://app?vid=d139227d-9a97-4242-837a-894cb8514c2b"},"vehicle_type_id":"4","last_reported":1779381202,"current_range_meters":5600,"station_id":"st_d3j3df2ikq2c7380ej80","pricing_plan_id":"cebpf4jnsgd1na2vs0mg"},{"bike_id":"d02fb0dd-1450-4d5f-ab63-6dcb463a069d","system_id":"levelo_inurba_marseille","lat":43.29711,"lon":5.36606,"is_reserved":false,"is_disabled":false,"rental_uris":{"android":"levelo://app?vid=d02fb0dd-1450-4d5f-ab63-6dcb463a069d","ios":"levelo://app?vid=d02fb0dd-1450-4d5f-ab63-6dcb463a069d"},"vehicle_type_id":"4","last_reported":1779381202,"current_range_meters":5600,"station_id":"ce4bgn12rcd13ifvqbt0","pricing_plan_id":"cebpf4jnsgd1na2vs0mg"},{"bike_id":"e87b889a-f2bb-4d44-ac70-bec20d1033d6","system_id":"levelo_inurba_marseille","lat":43.30091,"lon":5.39083,"is_reserved":false,"is_disabled":false,"rental_uris":{"android":"levelo://app?vid=e87b889a-f2bb-4d44-ac70-bec20d1033d6","ios":"levelo://app?vid=e87b889a-f2bb-4d44-ac70-bec20d1033d6"},"vehicle_type_id":"4","last_reported":1779381202,"current_range_meters":6000,"station_id":"ce4bh192rcd13ifvqdb0","pricing_plan_id":"cebpf4jnsgd1na2vs0mg"},{"bike_id":"e7b2834d-0414-4c8b-95bb-dbeba87a5cba","system_id":"levelo_inurba_marseille","lat":43.32928,"lon":5.38936,"is_reserved":false,"is_disabled":false,"rental_uris":{"android":"levelo://app?vid=e7b2834d-0414-4c8b-95bb-dbeba87a5cba","ios":"levelo://app?vid=e7b2834d-0414-4c8b-95bb-dbeba87a5cba"},"vehicle_type_id":"4","last_reported":1779381202,"current_range_meters":6000,"station_id":"","pricing_plan_id":"cebpf4jnsgd1na2vs0mg"},{"bike_id":"aad75fce-f297-4a66-8546-74ab6bfcd851","system_id":"levelo_inurba_marseille","lat":43.24176,"lon":5.364,"is_reserved":false,"is_disabled":false,"rental_uris":{"android":"levelo://app?vid=aad75fce-f297-4a66-8546-74ab6bfcd851","ios":"levelo://app?vid=aad75fce-f297-4a66-8546-74ab6bfcd851"},"vehicle_type_id":"4","last_reported":1779381202,"current_range_meters":6000,"station_id":"cpo36qri1sfpv3e86is0","pricing_plan_id":"cebpf4jnsgd1na2vs0mg"},{"bike_id":"7f3c61cb-4a5b-4e11-a4c2-54f2872ed76c","system_id":"levelo_inurba_marseille","lat":43.312183,"lon":5.368494,"is_reserved":false,"is_disabled":false,"rental_uris":{"android":"levelo://app?vid=7f3c61cb-4a5b-4e11-a4c2-54f2872ed76c","ios":"levelo://app?vid=7f3c61cb-4a5b-4e11-a4c2-54f2872ed76c"},"vehicle_type_id":"4","last_reported":1779381202,"current_range_meters":6000,"station_id":"ce4bgl92rcd13ifvqbq0","pricing_plan_id":"cebpf4jnsgd1na2vs0mg"},{"bike_id":"62e22dfc-3b4d-4a7f-b9ce-f853922f106e","system_id":"levelo_inurba_marseille","lat":43.26212,"lon":5.37441,"is_reserved":false,"is_disabled":false,"rental_uris":{"android":"levelo://app?vid=62e22dfc-3b4d-4a7f-b9ce-f853922f106e","ios":"levelo://app?vid=62e22dfc-3b4d-4a7f-b9ce-f853922f106e"},"vehicle_type_id":"4","last_reported":1779381202,"current_range_meters":6000,"station_id":"ce4bhgp2rcd13ifvqfc0","pricing_plan_id":"cebpf4jnsgd1na2vs0mg"},{"bike_id":"f93a4800-9d6b-4b2d-9b89-7e22c22c5fe7","system_id":"levelo_inurba_marseille","lat":43.28588,"lon":5.38076,"is_reserved":false,"is_disabled":false,"rental_uris":{"android":"levelo://app?vid=f93a4800-9d6b-4b2d-9b89-7e22c22c5fe7","ios":"levelo://app?vid=f93a4800-9d6b-4b2d-9b89-7e22c22c5fe7"},"vehicle_type_id":"4","last_reported":1779381202,"current_range_meters":6000,"station_id":"","pricing_plan_id":"cebpf4jnsgd1na2vs0mg"},{"bike_id":"0d90fa2f-3720-4fd1-bb15-0a253c4e7ffe","system_id":"levelo_inurba_marseille","lat":43.26559,"lon":5.37284,"is_reserved":false,"is_disabled":false,"rental_uris":{"android":"levelo://app?vid=0d90fa2f-3720-4fd1-bb15-0a253c4e7ffe","ios":"levelo://app?vid=0d90fa2f-3720-4fd1-bb15-0a253c4e7ffe"},"vehicle_type_id":"4","last_reported":1779381202,"current_range_meters":6000,"station_id":"ce4bhg12rcd13ifvqf70","pricing_plan_id":"cebpf4jnsgd1na2vs0mg"},{"bike_id":"2f77de68-91ef-4eea-809a-cf8e0b3ae4f1","system_id":"levelo_inurba_marseille","lat":43.29368,"lon":5.37843,"is_reserved":false,"is_disabled":false,"rental_uris":{"android":"levelo://app?vid=2f77de68-91ef-4eea-809a-cf8e0b3ae4f1","ios":"levelo://app?vid=2f77de68-91ef-4eea-809a-cf8e0b3ae4f1"},"vehicle_type_id":"4","last_reported":1779381202,"current_range_meters":6000,"station_id":"ce4bgjh2rcd13ifvqbf0","pricing_plan_id":"cebpf4jnsgd1na2vs0mg"},{"bike_id":"3844e730-cbf1-4fc4-bec6-d86fad485c6c","system_id":"levelo_inurba_marseille","lat":43.31533,"lon":5.38032,"is_reserved":false,"is_disabled":false,"rental_uris":{"android":"levelo://app?vid=3844e730-cbf1-4fc4-bec6-d86fad485c6c","ios":"levelo://app?vid=3844e730-cbf1-4fc4-bec6-d86fad485c6c"},"vehicle_type_id":"4","last_reported":1779381202,"current_range_meters":6000,"station_id":"ce4bhsp2rcd13ifvqi50","pricing_plan_id":"cebpf4jnsgd1na2vs0mg"},{"bike_id":"ccaf2f07-aef1-4b8c-808e-fd617408cb95","system_id":"levelo_inurba_marseille","lat":43.29616,"lon":5.3715,"is_reserved":false,"is_disabled":false,"rental_uris":{"android":"levelo://app?vid=ccaf2f07-aef1-4b8c-808e-fd617408cb95","ios":"levelo://app?vid=ccaf2f07-aef1-4b8c-808e-fd617408cb95"},"vehicle_type_id":"4","last_reported":1779381202,"current_range_meters":6000,"station_id":"ce4bgnh2rcd13ifvqc0g","pricing_plan_id":"cebpf4jnsgd1na2vs0mg"},{"bike_id":"2417956b-f325-4b75-806c-e42e7b7f598c","system_id":"levelo_inurba_marseille","lat":43.2495,"lon":5.41742,"is_reserved":false,"is_disabled":false,"rental_uris":{"android":"levelo://app?vid=2417956b-f325-4b75-806c-e42e7b7f598c","ios":"levelo://app?vid=2417956b-f325-4b75-806c-e42e7b7f598c"},"vehicle_type_id":"4","last_reported":1779381202,"current_range_meters":6000,"station_id":"","pricing_plan_id":"cebpf4jnsgd1na2vs0mg"},{"bike_id":"616259e1-99b9-477f-9be8-a931d2e539ff","system_id":"levelo_inurba_marseille","lat":43.231941,"lon":5.355529,"is_reserved":false,"is_disabled":false,"rental_uris":{"android":"levelo://app?vid=616259e1-99b9-477f-9be8-a931d2e539ff","ios":"levelo://app?vid=616259e1-99b9-477f-9be8-a931d2e539ff"},"vehicle_type_id":"4","last_reported":1779381202,"current_range_meters":6400,"station_id":"ce4bgi92rcd13ifvqb90","pricing_plan_id":"cebpf4jnsgd1na2vs0mg"},{"bike_id":"e67bbcc6-de61-403d-b7f3-ea21843f8e9f","system_id":"levelo_inurba_marseille","lat":43.28109,"lon":5.37883,"is_reserved":false,"is_disabled":false,"rental_uris":{"android":"levelo://app?vid=e67bbcc6-de61-403d-b7f3-ea21843f8e9f","ios":"levelo://app?vid=e67bbcc6-de61-403d-b7f3-ea21843f8e9f"},"vehicle_type_id":"4","last_reported":1779381202,"current_range_meters":6400,"station_id":"ce4bha12rcd13ifvqee0","pricing_plan_id":"cebpf4jnsgd1na2vs0mg"},{"bike_id":"f8727e59-ee64-4ccb-afc6-c1cfa05b9c35","system_id":"levelo_inurba_marseille","lat":43.28621,"lon":5.35102,"is_reserved":false,"is_disabled":false,"rental_uris":{"android":"levelo://app?vid=f8727e59-ee64-4ccb-afc6-c1cfa05b9c35","ios":"levelo://app?vid=f8727e59-ee64-4ccb-afc6-c1cfa05b9c35"},"vehicle_type_id":"4","last_reported":1779381202,"current_range_meters":6400,"station_id":"ce4bhch2rcd13ifvqeug","pricing_plan_id":"cebpf4jnsgd1na2vs0mg"},{"bike_id":"e881b10d-2342-49b2-9068-d59aba999c95","system_id":"levelo_inurba_marseille","lat":43.283749,"lon":5.386246,"is_reserved":false,"is_disabled":false,"rental_uris":{"android":"levelo://app?vid=e881b10d-2342-49b2-9068-d59aba999c95","ios":"levelo://app?vid=e881b10d-2342-49b2-9068-d59aba999c95"},"vehicle_type_id":"4","last_reported":1779381202,"current_range_meters":6400,"station_id":"ce4bh492rcd13ifvqdvg","pricing_plan_id":"cebpf4jnsgd1na2vs0mg"},{"bike_id":"0c89afcf-654a-497a-b601-5c5244c24554","system_id":"levelo_inurba_marseille","lat":43.21756,"lon":5.34607,"is_reserved":false,"is_disabled":false,"rental_uris":{"android":"levelo://app?vid=0c89afcf-654a-497a-b601-5c5244c24554","ios":"levelo://app?vid=0c89afcf-654a-497a-b601-5c5244c24554"},"vehicle_type_id":"4","last_reported":1779381202,"current_range_meters":6400,"station_id":"st_cvj6r9ubvosntc0bgbag","pricing_plan_id":"cebpf4jnsgd1na2vs0mg"},{"bike_id":"dd2357bd-f158-4e86-9cde-51d6a4679799","system_id":"levelo_inurba_marseille","lat":43.29787,"lon":5.40408,"is_reserved":false,"is_disabled":false,"rental_uris":{"android":"levelo://app?vid=dd2357bd-f158-4e86-9cde-51d6a4679799","ios":"levelo://app?vid=dd2357bd-f158-4e86-9cde-51d6a4679799"},"vehicle_type_id":"4","last_reported":1779381202,"current_range_meters":6400,"station_id":"ce4bh112rcd13ifvqd90","pricing_plan_id":"cebpf4jnsgd1na2vs0mg"},{"bike_id":"883418ce-d76e-41a9-9917-d0c7df1d2039","system_id":"levelo_inurba_marseille","lat":43.29529,"lon":5.38541,"is_reserved":false,"is_disabled":false,"rental_uris":{"android":"levelo://app?vid=883418ce-d76e-41a9-9917-d0c7df1d2039","ios":"levelo://app?vid=883418ce-d76e-41a9-9917-d0c7df1d2039"},"vehicle_type_id":"4","last_reported":1779381202,"current_range_meters":6400,"station_id":"ce4bgih2rcd13ifvqba0","pricing_plan_id":"cebpf4jnsgd1na2vs0mg"},{"bike_id":"8e7115e5-afd0-482b-bfd7-f75a7925e115","system_id":"levelo_inurba_marseille","lat":43.30216,"lon":5.41255,"is_reserved":false,"is_disabled":false,"rental_uris":{"android":"levelo://app?vid=8e7115e5-afd0-482b-bfd7-f75a7925e115","ios":"levelo://app?vid=8e7115e5-afd0-482b-bfd7-f75a7925e115"},"vehicle_type_id":"4","last_reported":1779381202,"current_range_meters":6400,"station_id":"","pricing_plan_id":"cebpf4jnsgd1na2vs0mg"},{"bike_id":"a91bf8e4-a6f7-46d0-9d7a-c07fd3929d37","system_id":"levelo_inurba_marseille","lat":43.29886,"lon":5.38911,"is_reserved":false,"is_disabled":false,"rental_uris":{"android":"levelo://app?vid=a91bf8e4-a6f7-46d0-9d7a-c07fd3929d37","ios":"levelo://app?vid=a91bf8e4-a6f7-46d0-9d7a-c07fd3929d37"},"vehicle_type_id":"4","last_reported":1779381202,"current_range_meters":6400,"station_id":"ce4bh392rcd13ifvqdl0","pricing_plan_id":"cebpf4jnsgd1na2vs0mg"},{"bike_id":"21ae792d-bd85-45eb-834a-ad40fdc09e1b","system_id":"levelo_inurba_marseille","lat":43.29317,"lon":5.37177,"is_reserved":false,"is_disabled":false,"rental_uris":{"android":"levelo://app?vid=21ae792d-bd85-45eb-834a-ad40fdc09e1b","ios":"levelo://app?vid=21ae792d-bd85-45eb-834a-ad40fdc09e1b"},"vehicle_type_id":"4","last_reported":1779381202,"current_range_meters":6400,"station_id":"ce4bgh92rcd13ifvqb40","pricing_plan_id":"cebpf4jnsgd1na2vs0mg"},{"bike_id":"5732480b-dec3-4276-b2b9-6368f05cf8cd","system_id":"levelo_inurba_marseille","lat":43.28441,"lon":5.39211,"is_reserved":false,"is_disabled":false,"rental_uris":{"android":"levelo://app?vid=5732480b-dec3-4276-b2b9-6368f05cf8cd","ios":"levelo://app?vid=5732480b-dec3-4276-b2b9-6368f05cf8cd"},"vehicle_type_id":"4","last_reported":1779381202,"current_range_meters":6400,"station_id":"ce4bhoh2rcd13ifvqh5g","pricing_plan_id":"cebpf4jnsgd1na2vs0mg"},{"bike_id":"ffe79387-d0e2-4e80-bfbf-efcfe675627b","system_id":"levelo_inurba_marseille","lat":43.2621,"lon":5.37446,"is_reserved":false,"is_disabled":false,"rental_uris":{"android":"levelo://app?vid=ffe79387-d0e2-4e80-bfbf-efcfe675627b","ios":"levelo://app?vid=ffe79387-d0e2-4e80-bfbf-efcfe675627b"},"vehicle_type_id":"4","last_reported":1779381202,"current_range_meters":6400,"station_id":"ce4bhgp2rcd13ifvqfc0","pricing_plan_id":"cebpf4jnsgd1na2vs0mg"},{"bike_id":"0b748142-c2e2-4116-a131-e5decabd430a","system_id":"levelo_inurba_marseille","lat":43.30126,"lon":5.37431,"is_reserved":false,"is_disabled":false,"rental_uris":{"android":"levelo://app?vid=0b748142-c2e2-4116-a131-e5decabd430a","ios":"levelo://app?vid=0b748142-c2e2-4116-a131-e5decabd430a"},"vehicle_type_id":"4","last_reported":1779381202,"current_range_meters":6400,"station_id":"ce4bgs92rcd13ifvqcc0","pricing_plan_id":"cebpf4jnsgd1na2vs0mg"},{"bike_id":"20a1a58a-0ce9-4903-8caf-13239357b776","system_id":"levelo_inurba_marseille","lat":43.29011,"lon":5.35602,"is_reserved":false,"is_disabled":false,"rental_uris":{"android":"levelo://app?vid=20a1a58a-0ce9-4903-8caf-13239357b776","ios":"levelo://app?vid=20a1a58a-0ce9-4903-8caf-13239357b776"},"vehicle_type_id":"4","last_reported":1779381202,"current_range_meters":6400,"station_id":"ce4bhb92rcd13ifvqen0","pricing_plan_id":"cebpf4jnsgd1na2vs0mg"},{"bike_id":"8e98aa19-a4e3-49f9-b217-22967d51a06b","system_id":"levelo_inurba_marseille","lat":43.29631,"lon":5.40595,"is_reserved":false,"is_disabled":false,"rental_uris":{"android":"levelo://app?vid=8e98aa19-a4e3-49f9-b217-22967d51a06b","ios":"levelo://app?vid=8e98aa19-a4e3-49f9-b217-22967d51a06b"},"vehicle_type_id":"4","last_reported":1779381202,"current_range_meters":6400,"station_id":"ce4bh0h2rcd13ifvqd60","pricing_plan_id":"cebpf4jnsgd1na2vs0mg"},{"bike_id":"4f3f817e-053e-4819-af39-6934b9bf8e10","system_id":"levelo_inurba_marseille","lat":43.296357,"lon":5.377183,"is_reserved":false,"is_disabled":false,"rental_uris":{"android":"levelo://app?vid=4f3f817e-053e-4819-af39-6934b9bf8e10","ios":"levelo://app?vid=4f3f817e-053e-4819-af39-6934b9bf8e10"},"vehicle_type_id":"4","last_reported":1779381202,"current_range_meters":6400,"station_id":"ce4bgi92rcd13ifvqb90","pricing_plan_id":"cebpf4jnsgd1na2vs0mg"},{"bike_id":"5b9a436a-1b3c-4592-b400-eb53d7f1ce6a","system_id":"levelo_inurba_marseille","lat":43.29201,"lon":5.35799,"is_reserved":false,"is_disabled":false,"rental_uris":{"android":"levelo://app?vid=5b9a436a-1b3c-4592-b400-eb53d7f1ce6a","ios":"levelo://app?vid=5b9a436a-1b3c-4592-b400-eb53d7f1ce6a"},"vehicle_type_id":"4","last_reported":1779381202,"current_range_meters":6400,"station_id":"ce4bhb12rcd13ifvqel0","pricing_plan_id":"cebpf4jnsgd1na2vs0mg"},{"bike_id":"53ed9b7c-fc12-457d-8889-c532bf1e9515","system_id":"levelo_inurba_marseille","lat":43.29199,"lon":5.35801,"is_reserved":false,"is_disabled":false,"rental_uris":{"android":"levelo://app?vid=53ed9b7c-fc12-457d-8889-c532bf1e9515","ios":"levelo://app?vid=53ed9b7c-fc12-457d-8889-c532bf1e9515"},"vehicle_type_id":"4","last_reported":1779381202,"current_range_meters":6400,"station_id":"ce4bhb12rcd13ifvqel0","pricing_plan_id":"cebpf4jnsgd1na2vs0mg"},{"bike_id":"5214102a-e4af-438c-97d4-913a708f0643","system_id":"levelo_inurba_marseille","lat":43.305549,"lon":5.365662,"is_reserved":false,"is_disabled":false,"rental_uris":{"android":"levelo://app?vid=5214102a-e4af-438c-97d4-913a708f0643","ios":"levelo://app?vid=5214102a-e4af-438c-97d4-913a708f0643"},"vehicle_type_id":"4","last_reported":1779381202,"current_range_meters":6400,"station_id":"ce4bgs12rcd13ifvqcag","pricing_plan_id":"cebpf4jnsgd1na2vs0mg"},{"bike_id":"54414197-7a79-46ce-891d-758db7720b8c","system_id":"levelo_inurba_marseille","lat":43.27316,"lon":5.39091,"is_reserved":false,"is_disabled":true,"rental_uris":{"android":"levelo://app?vid=54414197-7a79-46ce-891d-758db7720b8c","ios":"levelo://app?vid=54414197-7a79-46ce-891d-758db7720b8c"},"vehicle_type_id":"4","last_reported":1779381202,"current_range_meters":6400,"station_id":"ce4bhgp2rcd13ifvqfe0","pricing_plan_id":"cebpf4jnsgd1na2vs0mg"},{"bike_id":"b482cc12-7c05-48d4-97b0-14c8a0eee35e","system_id":"levelo_inurba_marseille","lat":43.28656,"lon":5.35079,"is_reserved":false,"is_disabled":false,"rental_uris":{"android":"levelo://app?vid=b482cc12-7c05-48d4-97b0-14c8a0eee35e","ios":"levelo://app?vid=b482cc12-7c05-48d4-97b0-14c8a0eee35e"},"vehicle_type_id":"4","last_reported":1779381202,"current_range_meters":6800,"station_id":"ce4bhch2rcd13ifvqeug","pricing_plan_id":"cebpf4jnsgd1na2vs0mg"},{"bike_id":"375ee5aa-b3a4-4687-9cb5-9ce27e5d544e","system_id":"levelo_inurba_marseille","lat":43.31072,"lon":5.42435,"is_reserved":false,"is_disabled":false,"rental_uris":{"android":"levelo://app?vid=375ee5aa-b3a4-4687-9cb5-9ce27e5d544e","ios":"levelo://app?vid=375ee5aa-b3a4-4687-9cb5-9ce27e5d544e"},"vehicle_type_id":"4","last_reported":1779381202,"current_range_meters":6800,"station_id":"ce4bhp92rcd13ifvqhag","pricing_plan_id":"cebpf4jnsgd1na2vs0mg"},{"bike_id":"7e6b3006-6462-42af-89e2-663341f26195","system_id":"levelo_inurba_marseille","lat":43.25507,"lon":5.37638,"is_reserved":false,"is_disabled":false,"rental_uris":{"android":"levelo://app?vid=7e6b3006-6462-42af-89e2-663341f26195","ios":"levelo://app?vid=7e6b3006-6462-42af-89e2-663341f26195"},"vehicle_type_id":"4","last_reported":1779381202,"current_range_meters":6800,"station_id":"ce4bhh12rcd13ifvqff0","pricing_plan_id":"cebpf4jnsgd1na2vs0mg"},{"bike_id":"5195998f-29c0-451a-9b35-063ca4547e00","system_id":"levelo_inurba_marseille","lat":43.24165,"lon":5.36405,"is_reserved":false,"is_disabled":false,"rental_uris":{"android":"levelo://app?vid=5195998f-29c0-451a-9b35-063ca4547e00","ios":"levelo://app?vid=5195998f-29c0-451a-9b35-063ca4547e00"},"vehicle_type_id":"4","last_reported":1779381202,"current_range_meters":6800,"station_id":"cpo36qri1sfpv3e86is0","pricing_plan_id":"cebpf4jnsgd1na2vs0mg"},{"bike_id":"26704c9e-c9b3-49bf-b6b9-473d8d2a521b","system_id":"levelo_inurba_marseille","lat":43.2558,"lon":5.38233,"is_reserved":false,"is_disabled":false,"rental_uris":{"android":"levelo://app?vid=26704c9e-c9b3-49bf-b6b9-473d8d2a521b","ios":"levelo://app?vid=26704c9e-c9b3-49bf-b6b9-473d8d2a521b"},"vehicle_type_id":"4","last_reported":1779381202,"current_range_meters":6800,"station_id":"ce4bhih2rcd13ifvqfs0","pricing_plan_id":"cebpf4jnsgd1na2vs0mg"},{"bike_id":"70bd1697-29a9-464f-a79a-74a540437e6e","system_id":"levelo_inurba_marseille","lat":43.33754,"lon":5.37469,"is_reserved":false,"is_disabled":false,"rental_uris":{"android":"levelo://app?vid=70bd1697-29a9-464f-a79a-74a540437e6e","ios":"levelo://app?vid=70bd1697-29a9-464f-a79a-74a540437e6e"},"vehicle_type_id":"4","last_reported":1779381202,"current_range_meters":6800,"station_id":"","pricing_plan_id":"cebpf4jnsgd1na2vs0mg"},{"bike_id":"a5c258e7-1eb1-469c-9622-022ffb07dc60","system_id":"levelo_inurba_marseille","lat":43.28873,"lon":5.35831,"is_reserved":false,"is_disabled":false,"rental_uris":{"android":"levelo://app?vid=a5c258e7-1eb1-469c-9622-022ffb07dc60","ios":"levelo://app?vid=a5c258e7-1eb1-469c-9622-022ffb07dc60"},"vehicle_type_id":"4","last_reported":1779381202,"current_range_meters":6800,"station_id":"ce4bhb12rcd13ifvqem0","pricing_plan_id":"cebpf4jnsgd1na2vs0mg"},{"bike_id":"0edd242f-4900-4f66-bcf0-609632b38d73","system_id":"levelo_inurba_marseille","lat":43.28437,"lon":5.39203,"is_reserved":false,"is_disabled":false,"rental_uris":{"android":"levelo://app?vid=0edd242f-4900-4f66-bcf0-609632b38d73","ios":"levelo://app?vid=0edd242f-4900-4f66-bcf0-609632b38d73"},"vehicle_type_id":"4","last_reported":1779381202,"current_range_meters":6800,"station_id":"ce4bhoh2rcd13ifvqh5g","pricing_plan_id":"cebpf4jnsgd1na2vs0mg"},{"bike_id":"72c448e1-1b04-4276-9c93-0bc997384711","system_id":"levelo_inurba_marseille","lat":43.2552,"lon":5.3766,"is_reserved":false,"is_disabled":false,"rental_uris":{"android":"levelo://app?vid=72c448e1-1b04-4276-9c93-0bc997384711","ios":"levelo://app?vid=72c448e1-1b04-4276-9c93-0bc997384711"},"vehicle_type_id":"4","last_reported":1779381202,"current_range_meters":6800,"station_id":"ce4bhh12rcd13ifvqff0","pricing_plan_id":"cebpf4jnsgd1na2vs0mg"},{"bike_id":"b54a0860-ff04-4417-9804-a7525879c950","system_id":"levelo_inurba_marseille","lat":43.29492,"lon":5.37509,"is_reserved":false,"is_disabled":false,"rental_uris":{"android":"levelo://app?vid=b54a0860-ff04-4417-9804-a7525879c950","ios":"levelo://app?vid=b54a0860-ff04-4417-9804-a7525879c950"},"vehicle_type_id":"4","last_reported":1779381202,"current_range_meters":6800,"station_id":"ce4bgkp2rcd13ifvqbmg","pricing_plan_id":"cebpf4jnsgd1na2vs0mg"},{"bike_id":"12481d7b-ca53-44d2-a72d-3641cbe06950","system_id":"levelo_inurba_marseille","lat":43.29922,"lon":5.40976,"is_reserved":false,"is_disabled":false,"rental_uris":{"android":"levelo://app?vid=12481d7b-ca53-44d2-a72d-3641cbe06950","ios":"levelo://app?vid=12481d7b-ca53-44d2-a72d-3641cbe06950"},"vehicle_type_id":"4","last_reported":1779381202,"current_range_meters":6800,"station_id":"","pricing_plan_id":"cebpf4jnsgd1na2vs0mg"},{"bike_id":"e8952b34-4674-4a40-acc5-93d126aed01f","system_id":"levelo_inurba_marseille","lat":43.26562,"lon":5.37304,"is_reserved":false,"is_disabled":false,"rental_uris":{"android":"levelo://app?vid=e8952b34-4674-4a40-acc5-93d126aed01f","ios":"levelo://app?vid=e8952b34-4674-4a40-acc5-93d126aed01f"},"vehicle_type_id":"4","last_reported":1779381202,"current_range_meters":6800,"station_id":"ce4bhg12rcd13ifvqf70","pricing_plan_id":"cebpf4jnsgd1na2vs0mg"},{"bike_id":"4eb37b30-f7e3-4913-bd59-ea47f104e22b","system_id":"levelo_inurba_marseille","lat":43.29031,"lon":5.35594,"is_reserved":false,"is_disabled":true,"rental_uris":{"android":"levelo://app?vid=4eb37b30-f7e3-4913-bd59-ea47f104e22b","ios":"levelo://app?vid=4eb37b30-f7e3-4913-bd59-ea47f104e22b"},"vehicle_type_id":"4","last_reported":1779381202,"current_range_meters":6800,"station_id":"ce4bhb92rcd13ifvqen0","pricing_plan_id":"cebpf4jnsgd1na2vs0mg"},{"bike_id":"7b08004a-52ed-40f1-b22f-9d04670b98b8","system_id":"levelo_inurba_marseille","lat":43.28206,"lon":5.39084,"is_reserved":false,"is_disabled":false,"rental_uris":{"android":"levelo://app?vid=7b08004a-52ed-40f1-b22f-9d04670b98b8","ios":"levelo://app?vid=7b08004a-52ed-40f1-b22f-9d04670b98b8"},"vehicle_type_id":"4","last_reported":1779381202,"current_range_meters":6800,"station_id":"ce4bhn92rcd13ifvqgsg","pricing_plan_id":"cebpf4jnsgd1na2vs0mg"},{"bike_id":"2f07cee4-f00b-40cc-8d51-00b8a29e58c5","system_id":"levelo_inurba_marseille","lat":43.2719,"lon":5.4098,"is_reserved":false,"is_disabled":false,"rental_uris":{"android":"levelo://app?vid=2f07cee4-f00b-40cc-8d51-00b8a29e58c5","ios":"levelo://app?vid=2f07cee4-f00b-40cc-8d51-00b8a29e58c5"},"vehicle_type_id":"4","last_reported":1779381202,"current_range_meters":6800,"station_id":"ce4bhl12rcd13ifvqgf0","pricing_plan_id":"cebpf4jnsgd1na2vs0mg"},{"bike_id":"6176dd16-a9d7-4120-bf2a-b28a1914c54d","system_id":"levelo_inurba_marseille","lat":43.29545,"lon":5.37515,"is_reserved":false,"is_disabled":true,"rental_uris":{"android":"levelo://app?vid=6176dd16-a9d7-4120-bf2a-b28a1914c54d","ios":"levelo://app?vid=6176dd16-a9d7-4120-bf2a-b28a1914c54d"},"vehicle_type_id":"4","last_reported":1779381202,"current_range_meters":6800,"station_id":"ce4bgkp2rcd13ifvqbmg","pricing_plan_id":"cebpf4jnsgd1na2vs0mg"},{"bike_id":"9a306a1f-5a5c-4ca5-a6cb-1b96a5b81659","system_id":"levelo_inurba_marseille","lat":43.29003,"lon":5.35615,"is_reserved":false,"is_disabled":false,"rental_uris":{"android":"levelo://app?vid=9a306a1f-5a5c-4ca5-a6cb-1b96a5b81659","ios":"levelo://app?vid=9a306a1f-5a5c-4ca5-a6cb-1b96a5b81659"},"vehicle_type_id":"4","last_reported":1779381202,"current_range_meters":6800,"station_id":"ce4bhb92rcd13ifvqen0","pricing_plan_id":"cebpf4jnsgd1na2vs0mg"},{"bike_id":"2ff6fe65-88ae-495b-9e5c-680ff14f4b1f","system_id":"levelo_inurba_marseille","lat":43.2861,"lon":5.39888,"is_reserved":false,"is_disabled":false,"rental_uris":{"android":"levelo://app?vid=2ff6fe65-88ae-495b-9e5c-680ff14f4b1f","ios":"levelo://app?vid=2ff6fe65-88ae-495b-9e5c-680ff14f4b1f"},"vehicle_type_id":"4","last_reported":1779381202,"current_range_meters":6800,"station_id":"st_d4a7ka997mjs738ck50g","pricing_plan_id":"cebpf4jnsgd1na2vs0mg"},{"bike_id":"1acbaf6e-4aa5-46a6-9c15-9c43628842d6","system_id":"levelo_inurba_marseille","lat":43.29516,"lon":5.39404,"is_reserved":false,"is_disabled":false,"rental_uris":{"android":"levelo://app?vid=1acbaf6e-4aa5-46a6-9c15-9c43628842d6","ios":"levelo://app?vid=1acbaf6e-4aa5-46a6-9c15-9c43628842d6"},"vehicle_type_id":"4","last_reported":1779381202,"current_range_meters":6800,"station_id":"ce4bh292rcd13ifvqdf0","pricing_plan_id":"cebpf4jnsgd1na2vs0mg"},{"bike_id":"d876f250-8123-419d-a895-9645003d3c01","system_id":"levelo_inurba_marseille","lat":43.27255,"lon":5.41645,"is_reserved":false,"is_disabled":false,"rental_uris":{"android":"levelo://app?vid=d876f250-8123-419d-a895-9645003d3c01","ios":"levelo://app?vid=d876f250-8123-419d-a895-9645003d3c01"},"vehicle_type_id":"4","last_reported":1779381202,"current_range_meters":6800,"station_id":"","pricing_plan_id":"cebpf4jnsgd1na2vs0mg"},{"bike_id":"b9d5e579-fb08-4ed9-868c-6d2194a70a17","system_id":"levelo_inurba_marseille","lat":43.2952,"lon":5.38534,"is_reserved":false,"is_disabled":false,"rental_uris":{"android":"levelo://app?vid=b9d5e579-fb08-4ed9-868c-6d2194a70a17","ios":"levelo://app?vid=b9d5e579-fb08-4ed9-868c-6d2194a70a17"},"vehicle_type_id":"4","last_reported":1779381202,"current_range_meters":6800,"station_id":"ce4bgih2rcd13ifvqba0","pricing_plan_id":"cebpf4jnsgd1na2vs0mg"},{"bike_id":"1bb24f07-9675-4464-b7a1-fada4f25d469","system_id":"levelo_inurba_marseille","lat":43.27379,"lon":5.3626,"is_reserved":false,"is_disabled":false,"rental_uris":{"android":"levelo://app?vid=1bb24f07-9675-4464-b7a1-fada4f25d469","ios":"levelo://app?vid=1bb24f07-9675-4464-b7a1-fada4f25d469"},"vehicle_type_id":"4","last_reported":1779381202,"current_range_meters":6800,"station_id":"ce4bhbh2rcd13ifvqeo0","pricing_plan_id":"cebpf4jnsgd1na2vs0mg"},{"bike_id":"08efb8b8-635e-4d6e-8b11-cce4cec8515c","system_id":"levelo_inurba_marseille","lat":43.30137,"lon":5.38066,"is_reserved":false,"is_disabled":false,"rental_uris":{"android":"levelo://app?vid=08efb8b8-635e-4d6e-8b11-cce4cec8515c","ios":"levelo://app?vid=08efb8b8-635e-4d6e-8b11-cce4cec8515c"},"vehicle_type_id":"4","last_reported":1779381202,"current_range_meters":6800,"station_id":"ce4bgjp2rcd13ifvqbh0","pricing_plan_id":"cebpf4jnsgd1na2vs0mg"},{"bike_id":"e27feea1-9bc4-4f71-870f-9ba99b38e6d2","system_id":"levelo_inurba_marseille","lat":43.29147,"lon":5.37301,"is_reserved":false,"is_disabled":false,"rental_uris":{"android":"levelo://app?vid=e27feea1-9bc4-4f71-870f-9ba99b38e6d2","ios":"levelo://app?vid=e27feea1-9bc4-4f71-870f-9ba99b38e6d2"},"vehicle_type_id":"4","last_reported":1779381202,"current_range_meters":6800,"station_id":"","pricing_plan_id":"cebpf4jnsgd1na2vs0mg"},{"bike_id":"48232e86-53df-4b71-9d4e-c2f74cdc3057","system_id":"levelo_inurba_marseille","lat":43.265498,"lon":5.37285,"is_reserved":false,"is_disabled":false,"rental_uris":{"android":"levelo://app?vid=48232e86-53df-4b71-9d4e-c2f74cdc3057","ios":"levelo://app?vid=48232e86-53df-4b71-9d4e-c2f74cdc3057"},"vehicle_type_id":"4","last_reported":1779381202,"current_range_meters":6800,"station_id":"ce4bhg12rcd13ifvqf70","pricing_plan_id":"cebpf4jnsgd1na2vs0mg"},{"bike_id":"922b1bf6-a463-472d-81aa-381000d8337f","system_id":"levelo_inurba_marseille","lat":43.30325,"lon":5.40432,"is_reserved":false,"is_disabled":false,"rental_uris":{"android":"levelo://app?vid=922b1bf6-a463-472d-81aa-381000d8337f","ios":"levelo://app?vid=922b1bf6-a463-472d-81aa-381000d8337f"},"vehicle_type_id":"4","last_reported":1779381202,"current_range_meters":6800,"station_id":"ce4bh012rcd13ifvqd10","pricing_plan_id":"cebpf4jnsgd1na2vs0mg"},{"bike_id":"e042833b-673f-4200-934d-4483f646248f","system_id":"levelo_inurba_marseille","lat":43.25352,"lon":5.42173,"is_reserved":false,"is_disabled":false,"rental_uris":{"android":"levelo://app?vid=e042833b-673f-4200-934d-4483f646248f","ios":"levelo://app?vid=e042833b-673f-4200-934d-4483f646248f"},"vehicle_type_id":"4","last_reported":1779381202,"current_range_meters":6800,"station_id":"st_d2m65c5bi1j21697t3ng","pricing_plan_id":"cebpf4jnsgd1na2vs0mg"},{"bike_id":"ce3cfeda-b437-49f1-b8e9-2e0fe0b695c6","system_id":"levelo_inurba_marseille","lat":43.29299,"lon":5.37445,"is_reserved":false,"is_disabled":false,"rental_uris":{"android":"levelo://app?vid=ce3cfeda-b437-49f1-b8e9-2e0fe0b695c6","ios":"levelo://app?vid=ce3cfeda-b437-49f1-b8e9-2e0fe0b695c6"},"vehicle_type_id":"4","last_reported":1779381202,"current_range_meters":7200,"station_id":"ce4bgi12rcd13ifvqb70","pricing_plan_id":"cebpf4jnsgd1na2vs0mg"},{"bike_id":"1f23276f-640a-45b0-96ab-5c9b5282ccf4","system_id":"levelo_inurba_marseille","lat":43.31253,"lon":5.38927,"is_reserved":false,"is_disabled":false,"rental_uris":{"android":"levelo://app?vid=1f23276f-640a-45b0-96ab-5c9b5282ccf4","ios":"levelo://app?vid=1f23276f-640a-45b0-96ab-5c9b5282ccf4"},"vehicle_type_id":"4","last_reported":1779381202,"current_range_meters":7200,"station_id":"","pricing_plan_id":"cebpf4jnsgd1na2vs0mg"},{"bike_id":"fc90e784-043f-409e-a0a5-40df412c8d0e","system_id":"levelo_inurba_marseille","lat":43.29252,"lon":5.38435,"is_reserved":false,"is_disabled":false,"rental_uris":{"android":"levelo://app?vid=fc90e784-043f-409e-a0a5-40df412c8d0e","ios":"levelo://app?vid=fc90e784-043f-409e-a0a5-40df412c8d0e"},"vehicle_type_id":"4","last_reported":1779381202,"current_range_meters":7200,"station_id":"ce4bh692rcd13ifvqea0","pricing_plan_id":"cebpf4jnsgd1na2vs0mg"},{"bike_id":"b4280beb-907b-4469-8c55-c02fc60114c4","system_id":"levelo_inurba_marseille","lat":43.2481,"lon":5.37457,"is_reserved":false,"is_disabled":false,"rental_uris":{"android":"levelo://app?vid=b4280beb-907b-4469-8c55-c02fc60114c4","ios":"levelo://app?vid=b4280beb-907b-4469-8c55-c02fc60114c4"},"vehicle_type_id":"4","last_reported":1779381202,"current_range_meters":7200,"station_id":"ce4bhgh2rcd13ifvqfb0","pricing_plan_id":"cebpf4jnsgd1na2vs0mg"},{"bike_id":"e7d55ff2-76c8-4b77-819b-53f9e3aa018a","system_id":"levelo_inurba_marseille","lat":43.23208,"lon":5.35528,"is_reserved":false,"is_disabled":false,"rental_uris":{"android":"levelo://app?vid=e7d55ff2-76c8-4b77-819b-53f9e3aa018a","ios":"levelo://app?vid=e7d55ff2-76c8-4b77-819b-53f9e3aa018a"},"vehicle_type_id":"4","last_reported":1779381202,"current_range_meters":7200,"station_id":"ce4bhu92rcd13ifvqi70","pricing_plan_id":"cebpf4jnsgd1na2vs0mg"},{"bike_id":"fcf153c2-cf2e-4c6d-8881-d4befe45b2a0","system_id":"levelo_inurba_marseille","lat":43.2979,"lon":5.381,"is_reserved":false,"is_disabled":false,"rental_uris":{"android":"levelo://app?vid=fcf153c2-cf2e-4c6d-8881-d4befe45b2a0","ios":"levelo://app?vid=fcf153c2-cf2e-4c6d-8881-d4befe45b2a0"},"vehicle_type_id":"4","last_reported":1779381202,"current_range_meters":7200,"station_id":"ce4bgip2rcd13ifvqbb0","pricing_plan_id":"cebpf4jnsgd1na2vs0mg"},{"bike_id":"fad71679-2dc3-4c61-9034-a8d77542050c","system_id":"levelo_inurba_marseille","lat":43.27057,"lon":5.38306,"is_reserved":false,"is_disabled":false,"rental_uris":{"android":"levelo://app?vid=fad71679-2dc3-4c61-9034-a8d77542050c","ios":"levelo://app?vid=fad71679-2dc3-4c61-9034-a8d77542050c"},"vehicle_type_id":"4","last_reported":1779381202,"current_range_meters":7200,"station_id":"st_d3n2fo6cfp8s73cte1j0","pricing_plan_id":"cebpf4jnsgd1na2vs0mg"},{"bike_id":"d7d48381-947d-4a72-828b-665922112042","system_id":"levelo_inurba_marseille","lat":43.2927,"lon":5.36832,"is_reserved":false,"is_disabled":true,"rental_uris":{"android":"levelo://app?vid=d7d48381-947d-4a72-828b-665922112042","ios":"levelo://app?vid=d7d48381-947d-4a72-828b-665922112042"},"vehicle_type_id":"4","last_reported":1779381202,"current_range_meters":7200,"station_id":"ce4bhbp2rcd13ifvqesg","pricing_plan_id":"cebpf4jnsgd1na2vs0mg"},{"bike_id":"bc222801-372c-45fa-b38b-e515f92d580b","system_id":"levelo_inurba_marseille","lat":43.30638,"lon":5.40083,"is_reserved":false,"is_disabled":false,"rental_uris":{"android":"levelo://app?vid=bc222801-372c-45fa-b38b-e515f92d580b","ios":"levelo://app?vid=bc222801-372c-45fa-b38b-e515f92d580b"},"vehicle_type_id":"4","last_reported":1779381202,"current_range_meters":7200,"station_id":"ce4bh112rcd13ifvqda0","pricing_plan_id":"cebpf4jnsgd1na2vs0mg"},{"bike_id":"81cae916-5196-4c9e-bde0-f3d43cdd813f","system_id":"levelo_inurba_marseille","lat":43.30444,"lon":5.36751,"is_reserved":false,"is_disabled":false,"rental_uris":{"android":"levelo://app?vid=81cae916-5196-4c9e-bde0-f3d43cdd813f","ios":"levelo://app?vid=81cae916-5196-4c9e-bde0-f3d43cdd813f"},"vehicle_type_id":"4","last_reported":1779381202,"current_range_meters":7200,"station_id":"","pricing_plan_id":"cebpf4jnsgd1na2vs0mg"},{"bike_id":"d58b3da0-fc46-4e6c-80f9-58fd3bcbba86","system_id":"levelo_inurba_marseille","lat":43.290084,"lon":5.356129,"is_reserved":false,"is_disabled":false,"rental_uris":{"android":"levelo://app?vid=d58b3da0-fc46-4e6c-80f9-58fd3bcbba86","ios":"levelo://app?vid=d58b3da0-fc46-4e6c-80f9-58fd3bcbba86"},"vehicle_type_id":"4","last_reported":1779381202,"current_range_meters":7200,"station_id":"ce4bhb92rcd13ifvqen0","pricing_plan_id":"cebpf4jnsgd1na2vs0mg"},{"bike_id":"3ada991f-b725-479b-8278-6b2e71168827","system_id":"levelo_inurba_marseille","lat":43.28425,"lon":5.35003,"is_reserved":false,"is_disabled":false,"rental_uris":{"android":"levelo://app?vid=3ada991f-b725-479b-8278-6b2e71168827","ios":"levelo://app?vid=3ada991f-b725-479b-8278-6b2e71168827"},"vehicle_type_id":"4","last_reported":1779381202,"current_range_meters":7200,"station_id":"ce4bhbh2rcd13ifvqepg","pricing_plan_id":"cebpf4jnsgd1na2vs0mg"},{"bike_id":"1572460c-9cac-4b28-a47c-361d4a6f4c69","system_id":"levelo_inurba_marseille","lat":43.26954,"lon":5.38626,"is_reserved":false,"is_disabled":false,"rental_uris":{"android":"levelo://app?vid=1572460c-9cac-4b28-a47c-361d4a6f4c69","ios":"levelo://app?vid=1572460c-9cac-4b28-a47c-361d4a6f4c69"},"vehicle_type_id":"4","last_reported":1779381202,"current_range_meters":7200,"station_id":"ce4bhh92rcd13ifvqfh0","pricing_plan_id":"cebpf4jnsgd1na2vs0mg"},{"bike_id":"95c5d010-0245-4fc5-8742-aaaf9e91284a","system_id":"levelo_inurba_marseille","lat":43.31329,"lon":5.39691,"is_reserved":false,"is_disabled":false,"rental_uris":{"android":"levelo://app?vid=95c5d010-0245-4fc5-8742-aaaf9e91284a","ios":"levelo://app?vid=95c5d010-0245-4fc5-8742-aaaf9e91284a"},"vehicle_type_id":"4","last_reported":1779381202,"current_range_meters":7200,"station_id":"ce4bgvp2rcd13ifvqcu0","pricing_plan_id":"cebpf4jnsgd1na2vs0mg"},{"bike_id":"248beed6-1527-4a65-8e36-988897c3ce4d","system_id":"levelo_inurba_marseille","lat":43.297926,"lon":5.380934,"is_reserved":false,"is_disabled":false,"rental_uris":{"android":"levelo://app?vid=248beed6-1527-4a65-8e36-988897c3ce4d","ios":"levelo://app?vid=248beed6-1527-4a65-8e36-988897c3ce4d"},"vehicle_type_id":"4","last_reported":1779381202,"current_range_meters":7200,"station_id":"ce4bgip2rcd13ifvqbb0","pricing_plan_id":"cebpf4jnsgd1na2vs0mg"},{"bike_id":"e52e8f5c-5ba4-4306-bb5f-fe4da0940e32","system_id":"levelo_inurba_marseille","lat":43.30908,"lon":5.40086,"is_reserved":false,"is_disabled":false,"rental_uris":{"android":"levelo://app?vid=e52e8f5c-5ba4-4306-bb5f-fe4da0940e32","ios":"levelo://app?vid=e52e8f5c-5ba4-4306-bb5f-fe4da0940e32"},"vehicle_type_id":"4","last_reported":1779381202,"current_range_meters":7200,"station_id":"","pricing_plan_id":"cebpf4jnsgd1na2vs0mg"},{"bike_id":"53399b6b-3c43-4f9d-84dd-66bb42918cc6","system_id":"levelo_inurba_marseille","lat":43.2846,"lon":5.35881,"is_reserved":false,"is_disabled":false,"rental_uris":{"android":"levelo://app?vid=53399b6b-3c43-4f9d-84dd-66bb42918cc6","ios":"levelo://app?vid=53399b6b-3c43-4f9d-84dd-66bb42918cc6"},"vehicle_type_id":"4","last_reported":1779381202,"current_range_meters":7200,"station_id":"ce4bhah2rcd13ifvqei0","pricing_plan_id":"cebpf4jnsgd1na2vs0mg"},{"bike_id":"3ff85327-858f-4e05-aa52-735c93b0b0d7","system_id":"levelo_inurba_marseille","lat":43.28615,"lon":5.39873,"is_reserved":false,"is_disabled":false,"rental_uris":{"android":"levelo://app?vid=3ff85327-858f-4e05-aa52-735c93b0b0d7","ios":"levelo://app?vid=3ff85327-858f-4e05-aa52-735c93b0b0d7"},"vehicle_type_id":"4","last_reported":1779381202,"current_range_meters":8000,"station_id":"st_d4a7ka997mjs738ck50g","pricing_plan_id":"cebpf4jnsgd1na2vs0mg"},{"bike_id":"e4f1f133-2456-42cd-b6a4-7ef8b050cd6c","system_id":"levelo_inurba_marseille","lat":43.27651,"lon":5.39703,"is_reserved":false,"is_disabled":false,"rental_uris":{"android":"levelo://app?vid=e4f1f133-2456-42cd-b6a4-7ef8b050cd6c","ios":"levelo://app?vid=e4f1f133-2456-42cd-b6a4-7ef8b050cd6c"},"vehicle_type_id":"4","last_reported":1779381202,"current_range_meters":8000,"station_id":"","pricing_plan_id":"cebpf4jnsgd1na2vs0mg"},{"bike_id":"ad6d8b73-6259-410d-979f-09e40ec16dc9","system_id":"levelo_inurba_marseille","lat":43.3082,"lon":5.37198,"is_reserved":false,"is_disabled":false,"rental_uris":{"android":"levelo://app?vid=ad6d8b73-6259-410d-979f-09e40ec16dc9","ios":"levelo://app?vid=ad6d8b73-6259-410d-979f-09e40ec16dc9"},"vehicle_type_id":"4","last_reported":1779381202,"current_range_meters":8000,"station_id":"","pricing_plan_id":"cebpf4jnsgd1na2vs0mg"},{"bike_id":"7cd911f2-d93f-4aa2-877e-1d430080e518","system_id":"levelo_inurba_marseille","lat":43.30889,"lon":5.39643,"is_reserved":false,"is_disabled":false,"rental_uris":{"android":"levelo://app?vid=7cd911f2-d93f-4aa2-877e-1d430080e518","ios":"levelo://app?vid=7cd911f2-d93f-4aa2-877e-1d430080e518"},"vehicle_type_id":"4","last_reported":1779381202,"current_range_meters":8000,"station_id":"ce4bh012rcd13ifvqcv0","pricing_plan_id":"cebpf4jnsgd1na2vs0mg"},{"bike_id":"868c7f6d-3724-4708-98f5-65cb966b2d4a","system_id":"levelo_inurba_marseille","lat":43.3355,"lon":5.37455,"is_reserved":false,"is_disabled":false,"rental_uris":{"android":"levelo://app?vid=868c7f6d-3724-4708-98f5-65cb966b2d4a","ios":"levelo://app?vid=868c7f6d-3724-4708-98f5-65cb966b2d4a"},"vehicle_type_id":"4","last_reported":1779381202,"current_range_meters":8000,"station_id":"st_d46tts09ee8s73dlu43g","pricing_plan_id":"cebpf4jnsgd1na2vs0mg"},{"bike_id":"96f5a2da-5f92-4d4c-8b8e-3f68a0c33fde","system_id":"levelo_inurba_marseille","lat":43.25518,"lon":5.37648,"is_reserved":false,"is_disabled":true,"rental_uris":{"android":"levelo://app?vid=96f5a2da-5f92-4d4c-8b8e-3f68a0c33fde","ios":"levelo://app?vid=96f5a2da-5f92-4d4c-8b8e-3f68a0c33fde"},"vehicle_type_id":"4","last_reported":1779381202,"current_range_meters":8000,"station_id":"ce4bhh12rcd13ifvqff0","pricing_plan_id":"cebpf4jnsgd1na2vs0mg"},{"bike_id":"7ec93175-8d9c-4b31-b534-34e06405c4e0","system_id":"levelo_inurba_marseille","lat":43.29622,"lon":5.44701,"is_reserved":false,"is_disabled":false,"rental_uris":{"android":"levelo://app?vid=7ec93175-8d9c-4b31-b534-34e06405c4e0","ios":"levelo://app?vid=7ec93175-8d9c-4b31-b534-34e06405c4e0"},"vehicle_type_id":"4","last_reported":1779381202,"current_range_meters":8000,"station_id":"","pricing_plan_id":"cebpf4jnsgd1na2vs0mg"},{"bike_id":"11564351-db80-4e0d-9b60-3f341fe50036","system_id":"levelo_inurba_marseille","lat":43.25112,"lon":5.4031,"is_reserved":false,"is_disabled":false,"rental_uris":{"android":"levelo://app?vid=11564351-db80-4e0d-9b60-3f341fe50036","ios":"levelo://app?vid=11564351-db80-4e0d-9b60-3f341fe50036"},"vehicle_type_id":"4","last_reported":1779381202,"current_range_meters":8000,"station_id":"ce4bhlh2rcd13ifvqgig","pricing_plan_id":"cebpf4jnsgd1na2vs0mg"},{"bike_id":"9c4521f1-b414-4b4a-8769-c16b8f3c97e7","system_id":"levelo_inurba_marseille","lat":43.25335,"lon":5.42167,"is_reserved":false,"is_disabled":false,"rental_uris":{"android":"levelo://app?vid=9c4521f1-b414-4b4a-8769-c16b8f3c97e7","ios":"levelo://app?vid=9c4521f1-b414-4b4a-8769-c16b8f3c97e7"},"vehicle_type_id":"4","last_reported":1779381202,"current_range_meters":8000,"station_id":"st_d2m65c5bi1j21697t3ng","pricing_plan_id":"cebpf4jnsgd1na2vs0mg"},{"bike_id":"b1f8e745-20cc-4e84-acf0-d5220eea7662","system_id":"levelo_inurba_marseille","lat":43.28638,"lon":5.35088,"is_reserved":false,"is_disabled":false,"rental_uris":{"android":"levelo://app?vid=b1f8e745-20cc-4e84-acf0-d5220eea7662","ios":"levelo://app?vid=b1f8e745-20cc-4e84-acf0-d5220eea7662"},"vehicle_type_id":"4","last_reported":1779381202,"current_range_meters":8000,"station_id":"ce4bhch2rcd13ifvqeug","pricing_plan_id":"cebpf4jnsgd1na2vs0mg"},{"bike_id":"97ad0b20-f295-45a5-9971-48f6a045955a","system_id":"levelo_inurba_marseille","lat":43.21751,"lon":5.34607,"is_reserved":false,"is_disabled":false,"rental_uris":{"android":"levelo://app?vid=97ad0b20-f295-45a5-9971-48f6a045955a","ios":"levelo://app?vid=97ad0b20-f295-45a5-9971-48f6a045955a"},"vehicle_type_id":"4","last_reported":1779381202,"current_range_meters":8000,"station_id":"st_cvj6r9ubvosntc0bgbag","pricing_plan_id":"cebpf4jnsgd1na2vs0mg"},{"bike_id":"8ae01fbd-13ec-4abe-9b2c-1050445b111f","system_id":"levelo_inurba_marseille","lat":43.22525,"lon":5.34841,"is_reserved":false,"is_disabled":false,"rental_uris":{"android":"levelo://app?vid=8ae01fbd-13ec-4abe-9b2c-1050445b111f","ios":"levelo://app?vid=8ae01fbd-13ec-4abe-9b2c-1050445b111f"},"vehicle_type_id":"4","last_reported":1779381202,"current_range_meters":8000,"station_id":"st_cvj5dfep6f1abm77gieg","pricing_plan_id":"cebpf4jnsgd1na2vs0mg"},{"bike_id":"4c6e7f96-bcc4-49a0-8b87-1e0b83a1c1d1","system_id":"levelo_inurba_marseille","lat":43.28559,"lon":5.39493,"is_reserved":false,"is_disabled":false,"rental_uris":{"android":"levelo://app?vid=4c6e7f96-bcc4-49a0-8b87-1e0b83a1c1d1","ios":"levelo://app?vid=4c6e7f96-bcc4-49a0-8b87-1e0b83a1c1d1"},"vehicle_type_id":"4","last_reported":1779381202,"current_range_meters":8000,"station_id":"ce4bh292rcd13ifvqdg0","pricing_plan_id":"cebpf4jnsgd1na2vs0mg"},{"bike_id":"a94b713a-e0c1-4888-8783-db618e94aa25","system_id":"levelo_inurba_marseille","lat":43.28939,"lon":5.36643,"is_reserved":false,"is_disabled":false,"rental_uris":{"android":"levelo://app?vid=a94b713a-e0c1-4888-8783-db618e94aa25","ios":"levelo://app?vid=a94b713a-e0c1-4888-8783-db618e94aa25"},"vehicle_type_id":"4","last_reported":1779381202,"current_range_meters":8000,"station_id":"ce4bhap2rcd13ifvqek0","pricing_plan_id":"cebpf4jnsgd1na2vs0mg"},{"bike_id":"1f9c22f8-b82c-4c90-8514-067c817ae886","system_id":"levelo_inurba_marseille","lat":43.26917,"lon":5.40261,"is_reserved":false,"is_disabled":false,"rental_uris":{"android":"levelo://app?vid=1f9c22f8-b82c-4c90-8514-067c817ae886","ios":"levelo://app?vid=1f9c22f8-b82c-4c90-8514-067c817ae886"},"vehicle_type_id":"4","last_reported":1779381202,"current_range_meters":8000,"station_id":"cjm6bp8fraef2m0cb0m0","pricing_plan_id":"cebpf4jnsgd1na2vs0mg"},{"bike_id":"7926970b-b546-4bd9-8ad0-0c1e21624b17","system_id":"levelo_inurba_marseille","lat":43.296,"lon":5.38077,"is_reserved":false,"is_disabled":true,"rental_uris":{"android":"levelo://app?vid=7926970b-b546-4bd9-8ad0-0c1e21624b17","ios":"levelo://app?vid=7926970b-b546-4bd9-8ad0-0c1e21624b17"},"vehicle_type_id":"4","last_reported":1779381202,"current_range_meters":8000,"station_id":"ce4bgl12rcd13ifvqbo0","pricing_plan_id":"cebpf4jnsgd1na2vs0mg"},{"bike_id":"adfbc4af-fb1f-4b51-ae6a-4c456542a95c","system_id":"levelo_inurba_marseille","lat":43.28005,"lon":5.40009,"is_reserved":false,"is_disabled":false,"rental_uris":{"android":"levelo://app?vid=adfbc4af-fb1f-4b51-ae6a-4c456542a95c","ios":"levelo://app?vid=adfbc4af-fb1f-4b51-ae6a-4c456542a95c"},"vehicle_type_id":"4","last_reported":1779381202,"current_range_meters":8000,"station_id":"ce4bho92rcd13ifvqh4g","pricing_plan_id":"cebpf4jnsgd1na2vs0mg"},{"bike_id":"3164d9e8-c839-4029-b458-2d3d9b344e5f","system_id":"levelo_inurba_marseille","lat":43.275716,"lon":5.396434,"is_reserved":false,"is_disabled":false,"rental_uris":{"android":"levelo://app?vid=3164d9e8-c839-4029-b458-2d3d9b344e5f","ios":"levelo://app?vid=3164d9e8-c839-4029-b458-2d3d9b344e5f"},"vehicle_type_id":"4","last_reported":1779381202,"current_range_meters":8000,"station_id":"","pricing_plan_id":"cebpf4jnsgd1na2vs0mg"},{"bike_id":"84c8f266-221c-49ba-92de-e872bed6eb20","system_id":"levelo_inurba_marseille","lat":43.28936,"lon":5.36643,"is_reserved":false,"is_disabled":false,"rental_uris":{"android":"levelo://app?vid=84c8f266-221c-49ba-92de-e872bed6eb20","ios":"levelo://app?vid=84c8f266-221c-49ba-92de-e872bed6eb20"},"vehicle_type_id":"4","last_reported":1779381202,"current_range_meters":8000,"station_id":"ce4bhap2rcd13ifvqek0","pricing_plan_id":"cebpf4jnsgd1na2vs0mg"},{"bike_id":"f8e68d37-4762-4349-aad2-eb001ba4258c","system_id":"levelo_inurba_marseille","lat":43.29623,"lon":5.37708,"is_reserved":false,"is_disabled":false,"rental_uris":{"android":"levelo://app?vid=f8e68d37-4762-4349-aad2-eb001ba4258c","ios":"levelo://app?vid=f8e68d37-4762-4349-aad2-eb001ba4258c"},"vehicle_type_id":"4","last_reported":1779381202,"current_range_meters":8000,"station_id":"ce4bgi92rcd13ifvqb90","pricing_plan_id":"cebpf4jnsgd1na2vs0mg"},{"bike_id":"3b7c6a7c-8def-4f67-896d-b1ec9dfb83ed","system_id":"levelo_inurba_marseille","lat":43.32346,"lon":5.38478,"is_reserved":false,"is_disabled":true,"rental_uris":{"android":"levelo://app?vid=3b7c6a7c-8def-4f67-896d-b1ec9dfb83ed","ios":"levelo://app?vid=3b7c6a7c-8def-4f67-896d-b1ec9dfb83ed"},"vehicle_type_id":"4","last_reported":1779381202,"current_range_meters":8000,"station_id":"st_d45171o9ee8s73djdqug","pricing_plan_id":"cebpf4jnsgd1na2vs0mg"},{"bike_id":"6774f205-2ee3-4625-997b-63c588f833ce","system_id":"levelo_inurba_marseille","lat":43.2601,"lon":5.37568,"is_reserved":false,"is_disabled":true,"rental_uris":{"android":"levelo://app?vid=6774f205-2ee3-4625-997b-63c588f833ce","ios":"levelo://app?vid=6774f205-2ee3-4625-997b-63c588f833ce"},"vehicle_type_id":"4","last_reported":1779381202,"current_range_meters":8000,"station_id":"ce4bhgh2rcd13ifvqfa0","pricing_plan_id":"cebpf4jnsgd1na2vs0mg"},{"bike_id":"179c166b-4811-4aa3-b99a-79fb635b47f8","system_id":"levelo_inurba_marseille","lat":43.29059,"lon":5.37163,"is_reserved":false,"is_disabled":false,"rental_uris":{"android":"levelo://app?vid=179c166b-4811-4aa3-b99a-79fb635b47f8","ios":"levelo://app?vid=179c166b-4811-4aa3-b99a-79fb635b47f8"},"vehicle_type_id":"4","last_reported":1779381202,"current_range_meters":8000,"station_id":"ce4bh5p2rcd13ifvqe4g","pricing_plan_id":"cebpf4jnsgd1na2vs0mg"},{"bike_id":"41a0187a-176a-43a8-b3f5-5ad9ac4e21c8","system_id":"levelo_inurba_marseille","lat":43.27906,"lon":5.39582,"is_reserved":false,"is_disabled":false,"rental_uris":{"android":"levelo://app?vid=41a0187a-176a-43a8-b3f5-5ad9ac4e21c8","ios":"levelo://app?vid=41a0187a-176a-43a8-b3f5-5ad9ac4e21c8"},"vehicle_type_id":"4","last_reported":1779381202,"current_range_meters":8000,"station_id":"ce4bhf92rcd13ifvqf40","pricing_plan_id":"cebpf4jnsgd1na2vs0mg"},{"bike_id":"45293363-f63c-4874-9424-7fafb150a4c9","system_id":"levelo_inurba_marseille","lat":43.29195,"lon":5.35797,"is_reserved":false,"is_disabled":false,"rental_uris":{"android":"levelo://app?vid=45293363-f63c-4874-9424-7fafb150a4c9","ios":"levelo://app?vid=45293363-f63c-4874-9424-7fafb150a4c9"},"vehicle_type_id":"4","last_reported":1779381202,"current_range_meters":8400,"station_id":"ce4bhb12rcd13ifvqel0","pricing_plan_id":"cebpf4jnsgd1na2vs0mg"},{"bike_id":"d0ec96fd-6062-4247-9815-0b37937b90d7","system_id":"levelo_inurba_marseille","lat":43.29,"lon":5.35617,"is_reserved":false,"is_disabled":false,"rental_uris":{"android":"levelo://app?vid=d0ec96fd-6062-4247-9815-0b37937b90d7","ios":"levelo://app?vid=d0ec96fd-6062-4247-9815-0b37937b90d7"},"vehicle_type_id":"4","last_reported":1779381202,"current_range_meters":8400,"station_id":"ce4bhb92rcd13ifvqen0","pricing_plan_id":"cebpf4jnsgd1na2vs0mg"},{"bike_id":"af3bd9e6-1729-497b-a1c4-4e65fe59efe1","system_id":"levelo_inurba_marseille","lat":43.29193,"lon":5.35795,"is_reserved":false,"is_disabled":false,"rental_uris":{"android":"levelo://app?vid=af3bd9e6-1729-497b-a1c4-4e65fe59efe1","ios":"levelo://app?vid=af3bd9e6-1729-497b-a1c4-4e65fe59efe1"},"vehicle_type_id":"4","last_reported":1779381202,"current_range_meters":8400,"station_id":"ce4bhb12rcd13ifvqel0","pricing_plan_id":"cebpf4jnsgd1na2vs0mg"},{"bike_id":"129d1c1e-a4ec-4956-9f3f-d6961f012ff9","system_id":"levelo_inurba_marseille","lat":43.28861,"lon":5.36659,"is_reserved":false,"is_disabled":false,"rental_uris":{"android":"levelo://app?vid=129d1c1e-a4ec-4956-9f3f-d6961f012ff9","ios":"levelo://app?vid=129d1c1e-a4ec-4956-9f3f-d6961f012ff9"},"vehicle_type_id":"4","last_reported":1779381202,"current_range_meters":8400,"station_id":"","pricing_plan_id":"cebpf4jnsgd1na2vs0mg"},{"bike_id":"47786595-b402-43f0-81d5-a02a10a5cfd1","system_id":"levelo_inurba_marseille","lat":43.25827,"lon":5.39432,"is_reserved":false,"is_disabled":false,"rental_uris":{"android":"levelo://app?vid=47786595-b402-43f0-81d5-a02a10a5cfd1","ios":"levelo://app?vid=47786595-b402-43f0-81d5-a02a10a5cfd1"},"vehicle_type_id":"4","last_reported":1779381202,"current_range_meters":8400,"station_id":"ce4bhip2rcd13ifvqft0","pricing_plan_id":"cebpf4jnsgd1na2vs0mg"},{"bike_id":"3c8e4601-2639-4196-a3e1-f497274faeed","system_id":"levelo_inurba_marseille","lat":43.26057,"lon":5.39375,"is_reserved":false,"is_disabled":false,"rental_uris":{"android":"levelo://app?vid=3c8e4601-2639-4196-a3e1-f497274faeed","ios":"levelo://app?vid=3c8e4601-2639-4196-a3e1-f497274faeed"},"vehicle_type_id":"4","last_reported":1779381202,"current_range_meters":8400,"station_id":"ce4bhh92rcd13ifvqfj0","pricing_plan_id":"cebpf4jnsgd1na2vs0mg"},{"bike_id":"6ecace9b-c16d-43aa-9c1a-0ebc2e7bcfc4","system_id":"levelo_inurba_marseille","lat":43.32113,"lon":5.3677,"is_reserved":false,"is_disabled":false,"rental_uris":{"android":"levelo://app?vid=6ecace9b-c16d-43aa-9c1a-0ebc2e7bcfc4","ios":"levelo://app?vid=6ecace9b-c16d-43aa-9c1a-0ebc2e7bcfc4"},"vehicle_type_id":"4","last_reported":1779381202,"current_range_meters":8400,"station_id":"ce4bhrh2rcd13ifvqhug","pricing_plan_id":"cebpf4jnsgd1na2vs0mg"},{"bike_id":"678c2486-f208-445a-a253-9dfac60b0dc7","system_id":"levelo_inurba_marseille","lat":43.3243,"lon":5.3694,"is_reserved":false,"is_disabled":false,"rental_uris":{"android":"levelo://app?vid=678c2486-f208-445a-a253-9dfac60b0dc7","ios":"levelo://app?vid=678c2486-f208-445a-a253-9dfac60b0dc7"},"vehicle_type_id":"4","last_reported":1779381202,"current_range_meters":8400,"station_id":"","pricing_plan_id":"cebpf4jnsgd1na2vs0mg"},{"bike_id":"c38d0aa5-3f7a-497b-a893-a1ad2df9e469","system_id":"levelo_inurba_marseille","lat":43.28443,"lon":5.392,"is_reserved":false,"is_disabled":false,"rental_uris":{"android":"levelo://app?vid=c38d0aa5-3f7a-497b-a893-a1ad2df9e469","ios":"levelo://app?vid=c38d0aa5-3f7a-497b-a893-a1ad2df9e469"},"vehicle_type_id":"4","last_reported":1779381202,"current_range_meters":8400,"station_id":"ce4bhoh2rcd13ifvqh5g","pricing_plan_id":"cebpf4jnsgd1na2vs0mg"},{"bike_id":"c9f48112-1b1d-4947-a74b-874cc5b6e116","system_id":"levelo_inurba_marseille","lat":43.2901,"lon":5.356189,"is_reserved":false,"is_disabled":false,"rental_uris":{"android":"levelo://app?vid=c9f48112-1b1d-4947-a74b-874cc5b6e116","ios":"levelo://app?vid=c9f48112-1b1d-4947-a74b-874cc5b6e116"},"vehicle_type_id":"4","last_reported":1779381202,"current_range_meters":8400,"station_id":"ce4bhb92rcd13ifvqen0","pricing_plan_id":"cebpf4jnsgd1na2vs0mg"},{"bike_id":"8cc471df-65ae-44c6-8232-d4d54c4b4320","system_id":"levelo_inurba_marseille","lat":43.30639,"lon":5.40101,"is_reserved":false,"is_disabled":false,"rental_uris":{"android":"levelo://app?vid=8cc471df-65ae-44c6-8232-d4d54c4b4320","ios":"levelo://app?vid=8cc471df-65ae-44c6-8232-d4d54c4b4320"},"vehicle_type_id":"4","last_reported":1779381202,"current_range_meters":8400,"station_id":"ce4bh112rcd13ifvqda0","pricing_plan_id":"cebpf4jnsgd1na2vs0mg"},{"bike_id":"4c73ac5b-f848-44b9-9488-246344552796","system_id":"levelo_inurba_marseille","lat":43.2852,"lon":5.44111,"is_reserved":false,"is_disabled":false,"rental_uris":{"android":"levelo://app?vid=4c73ac5b-f848-44b9-9488-246344552796","ios":"levelo://app?vid=4c73ac5b-f848-44b9-9488-246344552796"},"vehicle_type_id":"4","last_reported":1779381202,"current_range_meters":8400,"station_id":"st_d3j3df2ikq2c7380ej80","pricing_plan_id":"cebpf4jnsgd1na2vs0mg"},{"bike_id":"99c2ffc2-b64e-42cf-876d-0ae92fa2152a","system_id":"levelo_inurba_marseille","lat":43.300598,"lon":5.390774,"is_reserved":false,"is_disabled":false,"rental_uris":{"android":"levelo://app?vid=99c2ffc2-b64e-42cf-876d-0ae92fa2152a","ios":"levelo://app?vid=99c2ffc2-b64e-42cf-876d-0ae92fa2152a"},"vehicle_type_id":"4","last_reported":1779381202,"current_range_meters":8400,"station_id":"ce4bh192rcd13ifvqdb0","pricing_plan_id":"cebpf4jnsgd1na2vs0mg"},{"bike_id":"999c6034-2b26-4387-b10e-876eb416f9e2","system_id":"levelo_inurba_marseille","lat":43.28313,"lon":5.38542,"is_reserved":false,"is_disabled":false,"rental_uris":{"android":"levelo://app?vid=999c6034-2b26-4387-b10e-876eb416f9e2","ios":"levelo://app?vid=999c6034-2b26-4387-b10e-876eb416f9e2"},"vehicle_type_id":"4","last_reported":1779381202,"current_range_meters":8400,"station_id":"","pricing_plan_id":"cebpf4jnsgd1na2vs0mg"},{"bike_id":"43d9d8ea-182a-4572-8879-3fb2883009c7","system_id":"levelo_inurba_marseille","lat":43.31658,"lon":5.39601,"is_reserved":false,"is_disabled":false,"rental_uris":{"android":"levelo://app?vid=43d9d8ea-182a-4572-8879-3fb2883009c7","ios":"levelo://app?vid=43d9d8ea-182a-4572-8879-3fb2883009c7"},"vehicle_type_id":"4","last_reported":1779381202,"current_range_meters":8400,"station_id":"","pricing_plan_id":"cebpf4jnsgd1na2vs0mg"},{"bike_id":"c1ed57f6-f105-460c-8703-1c2eae17785a","system_id":"levelo_inurba_marseille","lat":43.22524,"lon":5.34838,"is_reserved":false,"is_disabled":false,"rental_uris":{"android":"levelo://app?vid=c1ed57f6-f105-460c-8703-1c2eae17785a","ios":"levelo://app?vid=c1ed57f6-f105-460c-8703-1c2eae17785a"},"vehicle_type_id":"4","last_reported":1779381202,"current_range_meters":8400,"station_id":"st_cvj5dfep6f1abm77gieg","pricing_plan_id":"cebpf4jnsgd1na2vs0mg"},{"bike_id":"9d34f1b6-a1ef-4d25-b269-78fcbb9161d7","system_id":"levelo_inurba_marseille","lat":43.25581,"lon":5.38235,"is_reserved":false,"is_disabled":false,"rental_uris":{"android":"levelo://app?vid=9d34f1b6-a1ef-4d25-b269-78fcbb9161d7","ios":"levelo://app?vid=9d34f1b6-a1ef-4d25-b269-78fcbb9161d7"},"vehicle_type_id":"4","last_reported":1779381202,"current_range_meters":8400,"station_id":"ce4bhih2rcd13ifvqfs0","pricing_plan_id":"cebpf4jnsgd1na2vs0mg"},