{"last_updated":1732605012,"ttl":60,"version":"2.2","data":{"bikes":[{"bike_id":"d9c28aa4-81a4-4d13-8fc9-100bb4e3d7e2","system_id":"levelo_inurba_marseille","lat":43.27403,"lon":5.38952,"is_reserved":false,"is_disabled":true,"rental_uris":{"android":"levelo://app?vid=d9c28aa4-81a4-4d13-8fc9-100bb4e3d7e2","ios":"levelo://app?vid=d9c28aa4-81a4-4d13-8fc9-100bb4e3d7e2"},"vehicle_type_id":"4","last_reported":1732605012,"current_range_meters":800,"station_id":"","pricing_plan_id":"cebpf4jnsgd1na2vs0mg"},{"bike_id":"b6977ecb-487d-42db-872e-554aa500f415","system_id":"levelo_inurba_marseille","lat":43.30787,"lon":5.37656,"is_reserved":false,"is_disabled":false,"rental_uris":{"android":"levelo://app?vid=b6977ecb-487d-42db-872e-554aa500f415","ios":"levelo://app?vid=b6977ecb-487d-42db-872e-554aa500f415"},"vehicle_type_id":"4","last_reported":1732605012,"current_range_meters":19600,"station_id":"ce4bgv92rcd13ifvqcq0","pricing_plan_id":"cebpf4jnsgd1na2vs0mg"},{"bike_id":"4f692a52-1462-40fe-98a6-7c9810e2f779","system_id":"levelo_inurba_marseille","lat":43.24079,"lon":5.37755,"is_reserved":false,"is_disabled":false,"rental_uris":{"android":"levelo://app?vid=4f692a52-1462-40fe-98a6-7c9810e2f779","ios":"levelo://app?vid=4f692a52-1462-40fe-98a6-7c9810e2f779"},"vehicle_type_id":"4","last_reported":1732605012,"current_range_meters":32800,"station_id":"ce4bhnp2rcd13ifvqgvg","pricing_plan_id":"cebpf4jnsgd1na2vs0mg"},{"bike_id":"0cdb76ca-4f28-47de-a451-d6d1d0a7e5d7","system_id":"levelo_inurba_marseille","lat":43.34168,"lon":5.40915,"is_reserved":false,"is_disabled":false,"rental_uris":{"android":"levelo://app?vid=0cdb76ca-4f28-47de-a451-d6d1d0a7e5d7","ios":"levelo://app?vid=0cdb76ca-4f28-47de-a451-d6d1d0a7e5d7"},"vehicle_type_id":"4","last_reported":1732605012,"current_range_meters":14000,"station_id":"ce4bhqh2rcd13ifvqhlg","pricing_plan_id":"cebpf4jnsgd1na2vs0mg"},{"bike_id":"ec4f7d45-a8eb-4d89-91f4-081f07b64193","system_id":"levelo_inurba_marseille","lat":43.28935,"lon":5.3664,"is_reserved":false,"is_disabled":false,"rental_uris":{"android":"levelo://app?vid=ec4f7d45-a8eb-4d89-91f4-081f07b64193","ios":"levelo://app?vid=ec4f7d45-a8eb-4d89-91f4-081f07b64193"},"vehicle_type_id":"4","last_reported":1732605012,"current_range_meters":31200,"station_id":"ce4bhap2rcd13ifvqek0","pricing_plan_id":"cebpf4jnsgd1na2vs0mg"},{"bike_id":"3b5d359f-2177-47e3-8926-ad81c70bf5cf","system_id":"levelo_inurba_marseille","lat":43.32542,"lon":5.414453,"is_reserved":false,"is_disabled":false,"rental_uris":{"android":"levelo://app?vid=3b5d359f-2177-47e3-8926-ad81c70bf5cf","ios":"levelo://app?vid=3b5d359f-2177-47e3-8926-ad81c70bf5cf"},"vehicle_type_id":"4","last_reported":1732605012,"current_range_meters":38800,"station_id":"ce4bhq12rcd13ifvqhhg","pricing_plan_id":"cebpf4jnsgd1na2vs0mg"},{"bike_id":"a3cf36da-4a50-4873-9af4-6c5c10fd4957","system_id":"levelo_inurba_marseille","lat":43.28612,"lon":5.35107,"is_reserved":false,"is_disabled":false,"rental_uris":{"android":"levelo://app?vid=a3cf36da-4a50-4873-9af4-6c5c10fd4957","ios":"levelo://app?vid=a3cf36da-4a50-4873-9af4-6c5c10fd4957"},"vehicle_type_id":"4","last_reported":1732605012,"current_range_meters":12400,"station_id":"ce4bhch2rcd13ifvqeug","pricing_plan_id":"cebpf4jnsgd1na2vs0mg"},{"bike_id":"59c23fbc-7d26-4dfe-81f5-7d518b79c65e","system_id":"levelo_inurba_marseille","lat":43.28851,"lon":5.35851,"is_reserved":false,"is_disabled":false,"rental_uris":{"android":"levelo://app?vid=59c23fbc-7d26-4dfe-81f5-7d518b79c65e","ios":"levelo://app?vid=59c23fbc-7d26-4dfe-81f5-7d518b79c65e"},"vehicle_type_id":"4","last_reported":1732605012,"current_range_meters":9600,"station_id":"ce4bhb12rcd13ifvqem0","pricing_plan_id":"cebpf4jnsgd1na2vs0mg"},{"bike_id":"573a48ed-5c69-476f-8216-366227186e18","system_id":"levelo_inurba_marseille","lat":43.23544,"lon":5.39899,"is_reserved":false,"is_disabled":true,"rental_uris":{"android":"levelo://app?vid=573a48ed-5c69-476f-8216-366227186e18","ios":"levelo://app?vid=573a48ed-5c69-476f-8216-366227186e18"},"vehicle_type_id":"4","last_reported":1732605012,"current_range_meters":0,"station_id":"","pricing_plan_id":"cebpf4jnsgd1na2vs0mg"},{"bike_id":"aff4222d-4134-4457-90df-b3debcb75bce","system_id":"levelo_inurba_marseille","lat":43.29532,"lon":5.37504,"is_reserved":false,"is_disabled":true,"rental_uris":{"android":"levelo://app?vid=aff4222d-4134-4457-90df-b3debcb75bce","ios":"levelo://app?vid=aff4222d-4134-4457-90df-b3debcb75bce"},"vehicle_type_id":"4","last_reported":1732605012,"current_range_meters":36000,"station_id":"ce4bgkp2rcd13ifvqbmg","pricing_plan_id":"cebpf4jnsgd1na2vs0mg"},{"bike_id":"cdfca92b-e20a-48b9-97eb-ccd390476149","system_id":"levelo_inurba_marseille","lat":43.30175,"lon":5.38053,"is_reserved":false,"is_disabled":false,"rental_uris":{"android":"levelo://app?vid=cdfca92b-e20a-48b9-97eb-ccd390476149","ios":"levelo://app?vid=cdfca92b-e20a-48b9-97eb-ccd390476149"},"vehicle_type_id":"4","last_reported":1732605012,"current_range_meters":34000,"station_id":"ce4bgjp2rcd13ifvqbh0","pricing_plan_id":"cebpf4jnsgd1na2vs0mg"},{"bike_id":"61ae9948-e0e5-4ce3-b06a-504522b4bbcc","system_id":"levelo_inurba_marseille","lat":43.32362,"lon":5.38886,"is_reserved":false,"is_disabled":false,"rental_uris":{"android":"levelo://app?vid=61ae9948-e0e5-4ce3-b06a-504522b4bbcc","ios":"levelo://app?vid=61ae9948-e0e5-4ce3-b06a-504522b4bbcc"},"vehicle_type_id":"4","last_reported":1732605012,"current_range_meters":22000,"station_id":"ce4bhqp2rcd13ifvqhog","pricing_plan_id":"cebpf4jnsgd1na2vs0mg"},{"bike_id":"6d5f4fae-cf02-451a-8d6f-89849b98eec3","system_id":"levelo_inurba_marseille","lat":43.31353,"lon":5.36745,"is_reserved":false,"is_disabled":false,"rental_uris":{"android":"levelo://app?vid=6d5f4fae-cf02-451a-8d6f-89849b98eec3","ios":"levelo://app?vid=6d5f4fae-cf02-451a-8d6f-89849b98eec3"},"vehicle_type_id":"4","last_reported":1732605012,"current_range_meters":9200,"station_id":"ce4bgr92rcd13ifvqc6g","pricing_plan_id":"cebpf4jnsgd1na2vs0mg"},{"bike_id":"75245aba-bdc7-40ee-bff8-ee295fc88ef3","system_id":"levelo_inurba_marseille","lat":43.30156,"lon":5.38088,"is_reserved":false,"is_disabled":false,"rental_uris":{"android":"levelo://app?vid=75245aba-bdc7-40ee-bff8-ee295fc88ef3","ios":"levelo://app?vid=75245aba-bdc7-40ee-bff8-ee295fc88ef3"},"vehicle_type_id":"4","last_reported":1732605012,"current_range_meters":34000,"station_id":"ce4bgjp2rcd13ifvqbh0","pricing_plan_id":"cebpf4jnsgd1na2vs0mg"},{"bike_id":"2c523655-0fb4-48b1-8ebe-e68817f5cb10","system_id":"levelo_inurba_marseille","lat":43.23195,"lon":5.35562,"is_reserved":false,"is_disabled":false,"rental_uris":{"android":"levelo://app?vid=2c523655-0fb4-48b1-8ebe-e68817f5cb10","ios":"levelo://app?vid=2c523655-0fb4-48b1-8ebe-e68817f5cb10"},"vehicle_type_id":"4","last_reported":1732605012,"current_range_meters":14800,"station_id":"ce4bhu92rcd13ifvqi70","pricing_plan_id":"cebpf4jnsgd1na2vs0mg"},{"bike_id":"59735367-1cdb-4821-a42a-d45ca06004e9","system_id":"levelo_inurba_marseille","lat":43.27945,"lon":5.4105,"is_reserved":false,"is_disabled":false,"rental_uris":{"android":"levelo://app?vid=59735367-1cdb-4821-a42a-d45ca06004e9","ios":"levelo://app?vid=59735367-1cdb-4821-a42a-d45ca06004e9"},"vehicle_type_id":"4","last_reported":1732605012,"current_range_meters":8400,"station_id":"ce4bhnp2rcd13ifvqh0g","pricing_plan_id":"cebpf4jnsgd1na2vs0mg"},{"bike_id":"38e5dd59-c780-4856-8550-b20273f4e496","system_id":"levelo_inurba_marseille","lat":43.30426,"lon":5.38907,"is_reserved":false,"is_disabled":true,"rental_uris":{"android":"levelo://app?vid=38e5dd59-c780-4856-8550-b20273f4e496","ios":"levelo://app?vid=38e5dd59-c780-4856-8550-b20273f4e496"},"vehicle_type_id":"4","last_reported":1732605012,"current_range_meters":26800,"station_id":"ce4bgk12rcd13ifvqbi0","pricing_plan_id":"cebpf4jnsgd1na2vs0mg"},{"bike_id":"180d52b1-e3f6-467e-86cc-07f6b5c872b5","system_id":"levelo_inurba_marseille","lat":43.28845,"lon":5.3584,"is_reserved":false,"is_disabled":false,"rental_uris":{"android":"levelo://app?vid=180d52b1-e3f6-467e-86cc-07f6b5c872b5","ios":"levelo://app?vid=180d52b1-e3f6-467e-86cc-07f6b5c872b5"},"vehicle_type_id":"4","last_reported":1732605012,"current_range_meters":36000,"station_id":"ce4bhb12rcd13ifvqem0","pricing_plan_id":"cebpf4jnsgd1na2vs0mg"},{"bike_id":"39b11e64-2962-470f-8250-90fe18d4a5f4","system_id":"levelo_inurba_marseille","lat":43.24748,"lon":5.39247,"is_reserved":false,"is_disabled":true,"rental_uris":{"android":"levelo://app?vid=39b11e64-2962-470f-8250-90fe18d4a5f4","ios":"levelo://app?vid=39b11e64-2962-470f-8250-90fe18d4a5f4"},"vehicle_type_id":"4","last_reported":1732605012,"current_range_meters":0,"station_id":"","pricing_plan_id":"cebpf4jnsgd1na2vs0mg"},{"bike_id":"2afa3bd9-75ff-494d-92c0-06bc4a273d97","system_id":"levelo_inurba_marseille","lat":43.28481,"lon":5.38428,"is_reserved":false,"is_disabled":true,"rental_uris":{"android":"levelo://app?vid=2afa3bd9-75ff-494d-92c0-06bc4a273d97","ios":"levelo://app?vid=2afa3bd9-75ff-494d-92c0-06bc4a273d97"},"vehicle_type_id":"4","last_reported":1732605012,"current_range_meters":1600,"station_id":"ce4bh512rcd13ifvqe3g","pricing_plan_id":"cebpf4jnsgd1na2vs0mg"},{"bike_id":"a6a25f36-b0ae-4164-84db-db959750c696","system_id":"levelo_inurba_marseille","lat":43.24537,"lon":5.37343,"is_reserved":false,"is_disabled":true,"rental_uris":{"android":"levelo://app?vid=a6a25f36-b0ae-4164-84db-db959750c696","ios":"levelo://app?vid=a6a25f36-b0ae-4164-84db-db959750c696"},"vehicle_type_id":"4","last_reported":1732605012,"current_range_meters":24800,"station_id":"","pricing_plan_id":"cebpf4jnsgd1na2vs0mg"},{"bike_id":"93390f46-9c7d-425e-aef0-5ad6d239c191","system_id":"levelo_inurba_marseille","lat":43.305649,"lon":5.383969,"is_reserved":false,"is_disabled":false,"rental_uris":{"android":"levelo://app?vid=93390f46-9c7d-425e-aef0-5ad6d239c191","ios":"levelo://app?vid=93390f46-9c7d-425e-aef0-5ad6d239c191"},"vehicle_type_id":"4","last_reported":1732605012,"current_range_meters":22400,"station_id":"ce4bgg92rcd13ifvqb30","pricing_plan_id":"cebpf4jnsgd1na2vs0mg"},{"bike_id":"5857cce5-6372-4852-894b-f3738389bfc8","system_id":"levelo_inurba_marseille","lat":43.30154,"lon":5.38084,"is_reserved":false,"is_disabled":false,"rental_uris":{"android":"levelo://app?vid=5857cce5-6372-4852-894b-f3738389bfc8","ios":"levelo://app?vid=5857cce5-6372-4852-894b-f3738389bfc8"},"vehicle_type_id":"4","last_reported":1732605012,"current_range_meters":28000,"station_id":"ce4bgjp2rcd13ifvqbh0","pricing_plan_id":"cebpf4jnsgd1na2vs0mg"},{"bike_id":"436dd976-416d-469e-afba-0c5538b79c29","system_id":"levelo_inurba_marseille","lat":43.25197,"lon":5.39133,"is_reserved":false,"is_disabled":true,"rental_uris":{"android":"levelo://app?vid=436dd976-416d-469e-afba-0c5538b79c29","ios":"levelo://app?vid=436dd976-416d-469e-afba-0c5538b79c29"},"vehicle_type_id":"4","last_reported":1732605012,"current_range_meters":0,"station_id":"","pricing_plan_id":"cebpf4jnsgd1na2vs0mg"},{"bike_id":"82586064-cbcb-4a47-a1f0-a253bb543dcc","system_id":"levelo_inurba_marseille","lat":43.24645,"lon":5.38186,"is_reserved":false,"is_disabled":false,"rental_uris":{"android":"levelo://app?vid=82586064-cbcb-4a47-a1f0-a253bb543dcc","ios":"levelo://app?vid=82586064-cbcb-4a47-a1f0-a253bb543dcc"},"vehicle_type_id":"4","last_reported":1732605012,"current_range_meters":11600,"station_id":"ce4bhih2rcd13ifvqfr0","pricing_plan_id":"cebpf4jnsgd1na2vs0mg"},{"bike_id":"48bd3c3a-cd9b-4f37-82a2-cb7f40bf6c43","system_id":"levelo_inurba_marseille","lat":43.292,"lon":5.39325,"is_reserved":false,"is_disabled":false,"rental_uris":{"android":"levelo://app?vid=48bd3c3a-cd9b-4f37-82a2-cb7f40bf6c43","ios":"levelo://app?vid=48bd3c3a-cd9b-4f37-82a2-cb7f40bf6c43"},"vehicle_type_id":"4","last_reported":1732605012,"current_range_meters":38800,"station_id":"ce4bh192rcd13ifvqdd0","pricing_plan_id":"cebpf4jnsgd1na2vs0mg"},{"bike_id":"73522c63-9b59-47b5-bce1-3920b1e359ec","system_id":"levelo_inurba_marseille","lat":43.27314,"lon":5.39078,"is_reserved":false,"is_disabled":false,"rental_uris":{"android":"levelo://app?vid=73522c63-9b59-47b5-bce1-3920b1e359ec","ios":"levelo://app?vid=73522c63-9b59-47b5-bce1-3920b1e359ec"},"vehicle_type_id":"4","last_reported":1732605012,"current_range_meters":33600,"station_id":"ce4bhgp2rcd13ifvqfe0","pricing_plan_id":"cebpf4jnsgd1na2vs0mg"},{"bike_id":"f42dcf9b-16ab-40c7-9a17-1509929eb3ba","system_id":"levelo_inurba_marseille","lat":43.30305,"lon":5.39706,"is_reserved":false,"is_disabled":true,"rental_uris":{"android":"levelo://app?vid=f42dcf9b-16ab-40c7-9a17-1509929eb3ba","ios":"levelo://app?vid=f42dcf9b-16ab-40c7-9a17-1509929eb3ba"},"vehicle_type_id":"4","last_reported":1732605012,"current_range_meters":1600,"station_id":"","pricing_plan_id":"cebpf4jnsgd1na2vs0mg"},{"bike_id":"26ec1a22-5020-45e4-ab45-512c7f67d5dd","system_id":"levelo_inurba_marseille","lat":43.32071,"lon":5.41557,"is_reserved":false,"is_disabled":true,"rental_uris":{"android":"levelo://app?vid=26ec1a22-5020-45e4-ab45-512c7f67d5dd","ios":"levelo://app?vid=26ec1a22-5020-45e4-ab45-512c7f67d5dd"},"vehicle_type_id":"4","last_reported":1732605012,"current_range_meters":38800,"station_id":"ce4bhq92rcd13ifvqhkg","pricing_plan_id":"cebpf4jnsgd1na2vs0mg"},{"bike_id":"9aa348fd-0e85-48e9-99e8-2d23054e9b23","system_id":"levelo_inurba_marseille","lat":43.29914,"lon":5.37475,"is_reserved":false,"is_disabled":false,"rental_uris":{"android":"levelo://app?vid=9aa348fd-0e85-48e9-99e8-2d23054e9b23","ios":"levelo://app?vid=9aa348fd-0e85-48e9-99e8-2d23054e9b23"},"vehicle_type_id":"4","last_reported":1732605012,"current_range_meters":38800,"station_id":"ce4bgjh2rcd13ifvqbg0","pricing_plan_id":"cebpf4jnsgd1na2vs0mg"},{"bike_id":"9f8aea45-6317-46b2-bfdf-12486e5e39e0","system_id":"levelo_inurba_marseille","lat":43.31267,"lon":5.36756,"is_reserved":false,"is_disabled":true,"rental_uris":{"android":"levelo://app?vid=9f8aea45-6317-46b2-bfdf-12486e5e39e0","ios":"levelo://app?vid=9f8aea45-6317-46b2-bfdf-12486e5e39e0"},"vehicle_type_id":"4","last_reported":1732605012,"current_range_meters":0,"station_id":"","pricing_plan_id":"cebpf4jnsgd1na2vs0mg"},{"bike_id":"4de3f7a9-dede-421a-9310-d6c21fee1591","system_id":"levelo_inurba_marseille","lat":43.2594,"lon":5.40911,"is_reserved":false,"is_disabled":false,"rental_uris":{"android":"levelo://app?vid=4de3f7a9-dede-421a-9310-d6c21fee1591","ios":"levelo://app?vid=4de3f7a9-dede-421a-9310-d6c21fee1591"},"vehicle_type_id":"4","last_reported":1732605012,"current_range_meters":32000,"station_id":"ce4bhm92rcd13ifvqglg","pricing_plan_id":"cebpf4jnsgd1na2vs0mg"},{"bike_id":"5bd354c9-f8eb-440c-951a-6ed81a04e9eb","system_id":"levelo_inurba_marseille","lat":43.24073,"lon":5.37767,"is_reserved":false,"is_disabled":false,"rental_uris":{"android":"levelo://app?vid=5bd354c9-f8eb-440c-951a-6ed81a04e9eb","ios":"levelo://app?vid=5bd354c9-f8eb-440c-951a-6ed81a04e9eb"},"vehicle_type_id":"4","last_reported":1732605012,"current_range_meters":34800,"station_id":"ce4bhnp2rcd13ifvqgvg","pricing_plan_id":"cebpf4jnsgd1na2vs0mg"},{"bike_id":"1e126baa-22b4-4cf7-a05e-1c0611873009","system_id":"levelo_inurba_marseille","lat":43.311192,"lon":5.377708,"is_reserved":false,"is_disabled":true,"rental_uris":{"android":"levelo://app?vid=1e126baa-22b4-4cf7-a05e-1c0611873009","ios":"levelo://app?vid=1e126baa-22b4-4cf7-a05e-1c0611873009"},"vehicle_type_id":"4","last_reported":1732605012,"current_range_meters":0,"station_id":"","pricing_plan_id":"cebpf4jnsgd1na2vs0mg"},{"bike_id":"46540e33-c0de-4a01-94c9-ac6ad457ae3d","system_id":"levelo_inurba_marseille","lat":43.3375,"lon":5.37452,"is_reserved":false,"is_disabled":false,"rental_uris":{"android":"levelo://app?vid=46540e33-c0de-4a01-94c9-ac6ad457ae3d","ios":"levelo://app?vid=46540e33-c0de-4a01-94c9-ac6ad457ae3d"},"vehicle_type_id":"4","last_reported":1732605012,"current_range_meters":38800,"station_id":"","pricing_plan_id":"cebpf4jnsgd1na2vs0mg"},{"bike_id":"88bd7da5-67ce-4e4d-a53b-fd892db2a7b8","system_id":"levelo_inurba_marseille","lat":43.29027,"lon":5.38142,"is_reserved":false,"is_disabled":true,"rental_uris":{"android":"levelo://app?vid=88bd7da5-67ce-4e4d-a53b-fd892db2a7b8","ios":"levelo://app?vid=88bd7da5-67ce-4e4d-a53b-fd892db2a7b8"},"vehicle_type_id":"4","last_reported":1732605012,"current_range_meters":38000,"station_id":"ce4bh4p2rcd13ifvqe1g","pricing_plan_id":"cebpf4jnsgd1na2vs0mg"},{"bike_id":"07373730-ba45-4ca8-b6a6-6db65250f6a1","system_id":"levelo_inurba_marseille","lat":43.29856,"lon":5.36294,"is_reserved":false,"is_disabled":true,"rental_uris":{"android":"levelo://app?vid=07373730-ba45-4ca8-b6a6-6db65250f6a1","ios":"levelo://app?vid=07373730-ba45-4ca8-b6a6-6db65250f6a1"},"vehicle_type_id":"4","last_reported":1732605012,"current_range_meters":17600,"station_id":"ce4bgpp2rcd13ifvqc3g","pricing_plan_id":"cebpf4jnsgd1na2vs0mg"},{"bike_id":"1aa157d2-2b13-49ae-a1ca-2010410cc0c1","system_id":"levelo_inurba_marseille","lat":43.24391,"lon":5.37064,"is_reserved":false,"is_disabled":false,"rental_uris":{"android":"levelo://app?vid=1aa157d2-2b13-49ae-a1ca-2010410cc0c1","ios":"levelo://app?vid=1aa157d2-2b13-49ae-a1ca-2010410cc0c1"},"vehicle_type_id":"4","last_reported":1732605012,"current_range_meters":2800,"station_id":"ce4bhhh2rcd13ifvqfk0","pricing_plan_id":"cebpf4jnsgd1na2vs0mg"},{"bike_id":"8bfd2db3-9c30-4ac4-82ab-dc0a88c4e9a9","system_id":"levelo_inurba_marseille","lat":43.23153,"lon":5.43715,"is_reserved":false,"is_disabled":false,"rental_uris":{"android":"levelo://app?vid=8bfd2db3-9c30-4ac4-82ab-dc0a88c4e9a9","ios":"levelo://app?vid=8bfd2db3-9c30-4ac4-82ab-dc0a88c4e9a9"},"vehicle_type_id":"4","last_reported":1732605012,"current_range_meters":24000,"station_id":"ce4bhmp2rcd13ifvqgog","pricing_plan_id":"cebpf4jnsgd1na2vs0mg"},{"bike_id":"67143d8e-e66e-42c7-ac82-4a20541642d4","system_id":"levelo_inurba_marseille","lat":43.29652,"lon":5.37218,"is_reserved":false,"is_disabled":true,"rental_uris":{"android":"levelo://app?vid=67143d8e-e66e-42c7-ac82-4a20541642d4","ios":"levelo://app?vid=67143d8e-e66e-42c7-ac82-4a20541642d4"},"vehicle_type_id":"4","last_reported":1732605012,"current_range_meters":38400,"station_id":"ce4bgk12rcd13ifvqbj0","pricing_plan_id":"cebpf4jnsgd1na2vs0mg"},{"bike_id":"dd08285a-8132-430d-a8bf-2aee58c7534b","system_id":"levelo_inurba_marseille","lat":43.24074,"lon":5.37764,"is_reserved":false,"is_disabled":false,"rental_uris":{"android":"levelo://app?vid=dd08285a-8132-430d-a8bf-2aee58c7534b","ios":"levelo://app?vid=dd08285a-8132-430d-a8bf-2aee58c7534b"},"vehicle_type_id":"4","last_reported":1732605012,"current_range_meters":25600,"station_id":"ce4bhnp2rcd13ifvqgvg","pricing_plan_id":"cebpf4jnsgd1na2vs0mg"},{"bike_id":"7668090d-d156-4b9f-b6e0-4ff3224fc3c9","system_id":"levelo_inurba_marseille","lat":43.28349,"lon":5.38111,"is_reserved":false,"is_disabled":false,"rental_uris":{"android":"levelo://app?vid=7668090d-d156-4b9f-b6e0-4ff3224fc3c9","ios":"levelo://app?vid=7668090d-d156-4b9f-b6e0-4ff3224fc3c9"},"vehicle_type_id":"4","last_reported":1732605012,"current_range_meters":33600,"station_id":"ce4bh412rcd13ifvqdr0","pricing_plan_id":"cebpf4jnsgd1na2vs0mg"},{"bike_id":"a014c88b-7ede-480d-8ad7-4c15e739fb68","system_id":"levelo_inurba_marseille","lat":43.26941,"lon":5.38919,"is_reserved":false,"is_disabled":false,"rental_uris":{"android":"levelo://app?vid=a014c88b-7ede-480d-8ad7-4c15e739fb68","ios":"levelo://app?vid=a014c88b-7ede-480d-8ad7-4c15e739fb68"},"vehicle_type_id":"4","last_reported":1732605012,"current_range_meters":38000,"station_id":"ce4bhhh2rcd13ifvqfl0","pricing_plan_id":"cebpf4jnsgd1na2vs0mg"},{"bike_id":"f7f7fd06-4983-4658-b605-e86318567bab","system_id":"levelo_inurba_marseille","lat":43.275631,"lon":5.384279,"is_reserved":false,"is_disabled":false,"rental_uris":{"android":"levelo://app?vid=f7f7fd06-4983-4658-b605-e86318567bab","ios":"levelo://app?vid=f7f7fd06-4983-4658-b605-e86318567bab"},"vehicle_type_id":"4","last_reported":1732605012,"current_range_meters":39200,"station_id":"ce4bhh92rcd13ifvqfi0","pricing_plan_id":"cebpf4jnsgd1na2vs0mg"},{"bike_id":"83f442cf-579e-46be-91e9-63bdc8bc05b6","system_id":"levelo_inurba_marseille","lat":43.259321,"lon":5.409119,"is_reserved":false,"is_disabled":true,"rental_uris":{"android":"levelo://app?vid=83f442cf-579e-46be-91e9-63bdc8bc05b6","ios":"levelo://app?vid=83f442cf-579e-46be-91e9-63bdc8bc05b6"},"vehicle_type_id":"4","last_reported":1732605012,"current_range_meters":36800,"station_id":"ce4bhm92rcd13ifvqglg","pricing_plan_id":"cebpf4jnsgd1na2vs0mg"},{"bike_id":"1e3d2aed-a3f4-4aef-8605-9a4732190938","system_id":"levelo_inurba_marseille","lat":43.26071,"lon":5.39403,"is_reserved":false,"is_disabled":false,"rental_uris":{"android":"levelo://app?vid=1e3d2aed-a3f4-4aef-8605-9a4732190938","ios":"levelo://app?vid=1e3d2aed-a3f4-4aef-8605-9a4732190938"},"vehicle_type_id":"4","last_reported":1732605012,"current_range_meters":35600,"station_id":"ce4bhh92rcd13ifvqfj0","pricing_plan_id":"cebpf4jnsgd1na2vs0mg"},{"bike_id":"c29462b2-6f03-4354-a0a3-f395b21c5128","system_id":"levelo_inurba_marseille","lat":43.27495,"lon":5.42449,"is_reserved":false,"is_disabled":true,"rental_uris":{"android":"levelo://app?vid=c29462b2-6f03-4354-a0a3-f395b21c5128","ios":"levelo://app?vid=c29462b2-6f03-4354-a0a3-f395b21c5128"},"vehicle_type_id":"4","last_reported":1732605012,"current_range_meters":800,"station_id":"ce4bhn92rcd13ifvqgrg","pricing_plan_id":"cebpf4jnsgd1na2vs0mg"},{"bike_id":"820f12a0-cf28-488c-8a74-3f1b9d2e4db5","system_id":"levelo_inurba_marseille","lat":43.23059,"lon":5.35486,"is_reserved":false,"is_disabled":false,"rental_uris":{"android":"levelo://app?vid=820f12a0-cf28-488c-8a74-3f1b9d2e4db5","ios":"levelo://app?vid=820f12a0-cf28-488c-8a74-3f1b9d2e4db5"},"vehicle_type_id":"4","last_reported":1732605012,"current_range_meters":25200,"station_id":"cpo3342slgdg3j2ifvpg","pricing_plan_id":"cebpf4jnsgd1na2vs0mg"},{"bike_id":"48aac818-51cc-4829-b4bd-a67368efea86","system_id":"levelo_inurba_marseille","lat":43.28342,"lon":5.38111,"is_reserved":false,"is_disabled":false,"rental_uris":{"android":"levelo://app?vid=48aac818-51cc-4829-b4bd-a67368efea86","ios":"levelo://app?vid=48aac818-51cc-4829-b4bd-a67368efea86"},"vehicle_type_id":"4","last_reported":1732605012,"current_range_meters":24400,"station_id":"ce4bh412rcd13ifvqdr0","pricing_plan_id":"cebpf4jnsgd1na2vs0mg"},{"bike_id":"a59b41fe-1604-402e-b5f5-83680998aa14","system_id":"levelo_inurba_marseille","lat":43.28713,"lon":5.39988,"is_reserved":false,"is_disabled":false,"rental_uris":{"android":"levelo://app?vid=a59b41fe-1604-402e-b5f5-83680998aa14","ios":"levelo://app?vid=a59b41fe-1604-402e-b5f5-83680998aa14"},"vehicle_type_id":"4","last_reported":1732605012,"current_range_meters":36000,"station_id":"ce4bho92rcd13ifvqh3g","pricing_plan_id":"cebpf4jnsgd1na2vs0mg"},{"bike_id":"9465545f-af87-4599-bf7e-091832e32b7b","system_id":"levelo_inurba_marseille","lat":43.295329,"lon":5.385389,"is_reserved":false,"is_disabled":true,"rental_uris":{"android":"levelo://app?vid=9465545f-af87-4599-bf7e-091832e32b7b","ios":"levelo://app?vid=9465545f-af87-4599-bf7e-091832e32b7b"},"vehicle_type_id":"4","last_reported":1732605012,"current_range_meters":22000,"station_id":"ce4bgih2rcd13ifvqba0","pricing_plan_id":"cebpf4jnsgd1na2vs0mg"},{"bike_id":"5601a4db-1304-4924-a7ea-f119ec4741ce","system_id":"levelo_inurba_marseille","lat":43.26559,"lon":5.37281,"is_reserved":false,"is_disabled":false,"rental_uris":{"android":"levelo://app?vid=5601a4db-1304-4924-a7ea-f119ec4741ce","ios":"levelo://app?vid=5601a4db-1304-4924-a7ea-f119ec4741ce"},"vehicle_type_id":"4","last_reported":1732605012,"current_range_meters":32000,"station_id":"ce4bhg12rcd13ifvqf70","pricing_plan_id":"cebpf4jnsgd1na2vs0mg"},{"bike_id":"15caf9dd-eac7-48e3-8306-dadef1405745","system_id":"levelo_inurba_marseille","lat":43.30466,"lon":5.37899,"is_reserved":false,"is_disabled":false,"rental_uris":{"android":"levelo://app?vid=15caf9dd-eac7-48e3-8306-dadef1405745","ios":"levelo://app?vid=15caf9dd-eac7-48e3-8306-dadef1405745"},"vehicle_type_id":"4","last_reported":1732605012,"current_range_meters":30400,"station_id":"ce4bgup2rcd13ifvqcn0","pricing_plan_id":"cebpf4jnsgd1na2vs0mg"},{"bike_id":"835b00c2-64c0-4cbe-82bb-c78dd70919e3","system_id":"levelo_inurba_marseille","lat":43.27958,"lon":5.40809,"is_reserved":false,"is_disabled":false,"rental_uris":{"android":"levelo://app?vid=835b00c2-64c0-4cbe-82bb-c78dd70919e3","ios":"levelo://app?vid=835b00c2-64c0-4cbe-82bb-c78dd70919e3"},"vehicle_type_id":"4","last_reported":1732605012,"current_range_meters":3600,"station_id":"","pricing_plan_id":"cebpf4jnsgd1na2vs0mg"},{"bike_id":"8a0248b1-347c-496b-ba2d-a8cf441d867e","system_id":"levelo_inurba_marseille","lat":43.29794,"lon":5.38127,"is_reserved":false,"is_disabled":false,"rental_uris":{"android":"levelo://app?vid=8a0248b1-347c-496b-ba2d-a8cf441d867e","ios":"levelo://app?vid=8a0248b1-347c-496b-ba2d-a8cf441d867e"},"vehicle_type_id":"4","last_reported":1732605012,"current_range_meters":28800,"station_id":"ce4bgip2rcd13ifvqbb0","pricing_plan_id":"cebpf4jnsgd1na2vs0mg"},{"bike_id":"89b6780b-49bf-480d-be31-e081c192075f","system_id":"levelo_inurba_marseille","lat":43.26066,"lon":5.39401,"is_reserved":false,"is_disabled":false,"rental_uris":{"android":"levelo://app?vid=89b6780b-49bf-480d-be31-e081c192075f","ios":"levelo://app?vid=89b6780b-49bf-480d-be31-e081c192075f"},"vehicle_type_id":"4","last_reported":1732605012,"current_range_meters":4400,"station_id":"ce4bhh92rcd13ifvqfj0","pricing_plan_id":"cebpf4jnsgd1na2vs0mg"},{"bike_id":"b164993a-11c9-40a7-831f-57a76ca20c93","system_id":"levelo_inurba_marseille","lat":43.2894,"lon":5.39625,"is_reserved":false,"is_disabled":false,"rental_uris":{"android":"levelo://app?vid=b164993a-11c9-40a7-831f-57a76ca20c93","ios":"levelo://app?vid=b164993a-11c9-40a7-831f-57a76ca20c93"},"vehicle_type_id":"4","last_reported":1732605012,"current_range_meters":36800,"station_id":"ce4bh3h2rcd13ifvqdn0","pricing_plan_id":"cebpf4jnsgd1na2vs0mg"},{"bike_id":"cde6615c-4e8d-4fb4-aa62-8ba20a37aaeb","system_id":"levelo_inurba_marseille","lat":43.28946,"lon":5.39626,"is_reserved":false,"is_disabled":false,"rental_uris":{"android":"levelo://app?vid=cde6615c-4e8d-4fb4-aa62-8ba20a37aaeb","ios":"levelo://app?vid=cde6615c-4e8d-4fb4-aa62-8ba20a37aaeb"},"vehicle_type_id":"4","last_reported":1732605012,"current_range_meters":38800,"station_id":"ce4bh3h2rcd13ifvqdn0","pricing_plan_id":"cebpf4jnsgd1na2vs0mg"},{"bike_id":"84efebf0-365e-4db5-a9a1-7e50d48a6878","system_id":"levelo_inurba_marseille","lat":43.2957,"lon":5.37516,"is_reserved":false,"is_disabled":false,"rental_uris":{"android":"levelo://app?vid=84efebf0-365e-4db5-a9a1-7e50d48a6878","ios":"levelo://app?vid=84efebf0-365e-4db5-a9a1-7e50d48a6878"},"vehicle_type_id":"4","last_reported":1732605012,"current_range_meters":26000,"station_id":"ce4bgh92rcd13ifvqb50","pricing_plan_id":"cebpf4jnsgd1na2vs0mg"},{"bike_id":"ba40495b-db19-44e7-929f-6d91e7f96b53","system_id":"levelo_inurba_marseille","lat":43.30785,"lon":5.3765,"is_reserved":false,"is_disabled":false,"rental_uris":{"android":"levelo://app?vid=ba40495b-db19-44e7-929f-6d91e7f96b53","ios":"levelo://app?vid=ba40495b-db19-44e7-929f-6d91e7f96b53"},"vehicle_type_id":"4","last_reported":1732605012,"current_range_meters":38400,"station_id":"ce4bgv92rcd13ifvqcq0","pricing_plan_id":"cebpf4jnsgd1na2vs0mg"},{"bike_id":"1061614f-529f-4514-827e-e70f5d5188a9","system_id":"levelo_inurba_marseille","lat":43.30586,"lon":5.39357,"is_reserved":false,"is_disabled":false,"rental_uris":{"android":"levelo://app?vid=1061614f-529f-4514-827e-e70f5d5188a9","ios":"levelo://app?vid=1061614f-529f-4514-827e-e70f5d5188a9"},"vehicle_type_id":"4","last_reported":1732605012,"current_range_meters":36800,"station_id":"ce4bh0p2rcd13ifvqd80","pricing_plan_id":"cebpf4jnsgd1na2vs0mg"},{"bike_id":"2dcc9ff5-e761-4d89-89e1-f55629775683","system_id":"levelo_inurba_marseille","lat":43.28722,"lon":5.36104,"is_reserved":false,"is_disabled":false,"rental_uris":{"android":"levelo://app?vid=2dcc9ff5-e761-4d89-89e1-f55629775683","ios":"levelo://app?vid=2dcc9ff5-e761-4d89-89e1-f55629775683"},"vehicle_type_id":"4","last_reported":1732605012,"current_range_meters":11600,"station_id":"cki0cbj6b192h4jlfktg","pricing_plan_id":"cebpf4jnsgd1na2vs0mg"},{"bike_id":"94205503-d435-4a82-bdd4-749c93948acd","system_id":"levelo_inurba_marseille","lat":43.30244,"lon":5.40058,"is_reserved":false,"is_disabled":false,"rental_uris":{"android":"levelo://app?vid=94205503-d435-4a82-bdd4-749c93948acd","ios":"levelo://app?vid=94205503-d435-4a82-bdd4-749c93948acd"},"vehicle_type_id":"4","last_reported":1732605012,"current_range_meters":22000,"station_id":"ce4bgvh2rcd13ifvqcs0","pricing_plan_id":"cebpf4jnsgd1na2vs0mg"},{"bike_id":"996eaa45-b0c7-46cb-8925-64784aabecef","system_id":"levelo_inurba_marseille","lat":43.25575,"lon":5.38258,"is_reserved":false,"is_disabled":false,"rental_uris":{"android":"levelo://app?vid=996eaa45-b0c7-46cb-8925-64784aabecef","ios":"levelo://app?vid=996eaa45-b0c7-46cb-8925-64784aabecef"},"vehicle_type_id":"4","last_reported":1732605012,"current_range_meters":38400,"station_id":"ce4bhih2rcd13ifvqfs0","pricing_plan_id":"cebpf4jnsgd1na2vs0mg"},{"bike_id":"5b8cd3b4-e243-4fba-aaf5-11d686fcd3e4","system_id":"levelo_inurba_marseille","lat":43.29007,"lon":5.3561,"is_reserved":false,"is_disabled":true,"rental_uris":{"android":"levelo://app?vid=5b8cd3b4-e243-4fba-aaf5-11d686fcd3e4","ios":"levelo://app?vid=5b8cd3b4-e243-4fba-aaf5-11d686fcd3e4"},"vehicle_type_id":"4","last_reported":1732605012,"current_range_meters":25200,"station_id":"ce4bhb92rcd13ifvqen0","pricing_plan_id":"cebpf4jnsgd1na2vs0mg"},{"bike_id":"1b07003e-cc73-4485-a4bd-21adb5308083","system_id":"levelo_inurba_marseille","lat":43.274248,"lon":5.394114,"is_reserved":false,"is_disabled":true,"rental_uris":{"android":"levelo://app?vid=1b07003e-cc73-4485-a4bd-21adb5308083","ios":"levelo://app?vid=1b07003e-cc73-4485-a4bd-21adb5308083"},"vehicle_type_id":"4","last_reported":1732605012,"current_range_meters":0,"station_id":"ce4bhdp2rcd13ifvqf20","pricing_plan_id":"cebpf4jnsgd1na2vs0mg"},{"bike_id":"27f743b5-5e65-476e-8487-cf9ef9ea79c3","system_id":"levelo_inurba_marseille","lat":43.28347,"lon":5.38115,"is_reserved":false,"is_disabled":false,"rental_uris":{"android":"levelo://app?vid=27f743b5-5e65-476e-8487-cf9ef9ea79c3","ios":"levelo://app?vid=27f743b5-5e65-476e-8487-cf9ef9ea79c3"},"vehicle_type_id":"4","last_reported":1732605012,"current_range_meters":9200,"station_id":"ce4bh412rcd13ifvqdr0","pricing_plan_id":"cebpf4jnsgd1na2vs0mg"},{"bike_id":"a89e4133-9c3e-400b-b449-778c86ce8142","system_id":"levelo_inurba_marseille","lat":43.28837,"lon":5.35864,"is_reserved":false,"is_disabled":false,"rental_uris":{"android":"levelo://app?vid=a89e4133-9c3e-400b-b449-778c86ce8142","ios":"levelo://app?vid=a89e4133-9c3e-400b-b449-778c86ce8142"},"vehicle_type_id":"4","last_reported":1732605012,"current_range_meters":38400,"station_id":"ce4bhb12rcd13ifvqem0","pricing_plan_id":"cebpf4jnsgd1na2vs0mg"},{"bike_id":"cf7c9153-0dc8-430f-83bc-b3f293869575","system_id":"levelo_inurba_marseille","lat":43.33726,"lon":5.39185,"is_reserved":false,"is_disabled":false,"rental_uris":{"android":"levelo://app?vid=cf7c9153-0dc8-430f-83bc-b3f293869575","ios":"levelo://app?vid=cf7c9153-0dc8-430f-83bc-b3f293869575"},"vehicle_type_id":"4","last_reported":1732605012,"current_range_meters":10800,"station_id":"ce4bhr92rcd13ifvqhsg","pricing_plan_id":"cebpf4jnsgd1na2vs0mg"},{"bike_id":"884a62b9-6871-40d2-9e68-265443f59c5c","system_id":"levelo_inurba_marseille","lat":43.29786,"lon":5.39361,"is_reserved":false,"is_disabled":true,"rental_uris":{"android":"levelo://app?vid=884a62b9-6871-40d2-9e68-265443f59c5c","ios":"levelo://app?vid=884a62b9-6871-40d2-9e68-265443f59c5c"},"vehicle_type_id":"4","last_reported":1732605012,"current_range_meters":38000,"station_id":"chh1huq6cuj3fo74tm60","pricing_plan_id":"cebpf4jnsgd1na2vs0mg"},{"bike_id":"23da8d6c-1082-4b0f-bc82-f82241b245a3","system_id":"levelo_inurba_marseille","lat":43.29064,"lon":5.37172,"is_reserved":false,"is_disabled":false,"rental_uris":{"android":"levelo://app?vid=23da8d6c-1082-4b0f-bc82-f82241b245a3","ios":"levelo://app?vid=23da8d6c-1082-4b0f-bc82-f82241b245a3"},"vehicle_type_id":"4","last_reported":1732605012,"current_range_meters":4000,"station_id":"ce4bh5p2rcd13ifvqe4g","pricing_plan_id":"cebpf4jnsgd1na2vs0mg"},{"bike_id":"1727785f-b8e7-4951-be6f-cc832b160a14","system_id":"levelo_inurba_marseille","lat":43.27494,"lon":5.4245,"is_reserved":false,"is_disabled":false,"rental_uris":{"android":"levelo://app?vid=1727785f-b8e7-4951-be6f-cc832b160a14","ios":"levelo://app?vid=1727785f-b8e7-4951-be6f-cc832b160a14"},"vehicle_type_id":"4","last_reported":1732605012,"current_range_meters":33600,"station_id":"ce4bhn92rcd13ifvqgrg","pricing_plan_id":"cebpf4jnsgd1na2vs0mg"},{"bike_id":"4d809776-4d2b-4bf5-8aa6-666b5b1fd18f","system_id":"levelo_inurba_marseille","lat":43.33721,"lon":5.39183,"is_reserved":false,"is_disabled":false,"rental_uris":{"android":"levelo://app?vid=4d809776-4d2b-4bf5-8aa6-666b5b1fd18f","ios":"levelo://app?vid=4d809776-4d2b-4bf5-8aa6-666b5b1fd18f"},"vehicle_type_id":"4","last_reported":1732605012,"current_range_meters":38800,"station_id":"ce4bhr92rcd13ifvqhsg","pricing_plan_id":"cebpf4jnsgd1na2vs0mg"},{"bike_id":"48463c71-0fc5-44bc-ab80-e71f5219ce7d","system_id":"levelo_inurba_marseille","lat":43.27493,"lon":5.42455,"is_reserved":false,"is_disabled":false,"rental_uris":{"android":"levelo://app?vid=48463c71-0fc5-44bc-ab80-e71f5219ce7d","ios":"levelo://app?vid=48463c71-0fc5-44bc-ab80-e71f5219ce7d"},"vehicle_type_id":"4","last_reported":1732605012,"current_range_meters":28400,"station_id":"ce4bhn92rcd13ifvqgrg","pricing_plan_id":"cebpf4jnsgd1na2vs0mg"},{"bike_id":"4f7110da-0bf4-459c-8864-6d1f39bd3867","system_id":"levelo_inurba_marseille","lat":43.29936,"lon":5.36535,"is_reserved":false,"is_disabled":false,"rental_uris":{"android":"levelo://app?vid=4f7110da-0bf4-459c-8864-6d1f39bd3867","ios":"levelo://app?vid=4f7110da-0bf4-459c-8864-6d1f39bd3867"},"vehicle_type_id":"4","last_reported":1732605012,"current_range_meters":25200,"station_id":"ce4bgm92rcd13ifvqbr0","pricing_plan_id":"cebpf4jnsgd1na2vs0mg"},{"bike_id":"d67d525c-d464-4f2c-91ff-d32e793da4df","system_id":"levelo_inurba_marseille","lat":43.29024,"lon":5.37814,"is_reserved":false,"is_disabled":false,"rental_uris":{"android":"levelo://app?vid=d67d525c-d464-4f2c-91ff-d32e793da4df","ios":"levelo://app?vid=d67d525c-d464-4f2c-91ff-d32e793da4df"},"vehicle_type_id":"4","last_reported":1732605012,"current_range_meters":12400,"station_id":"","pricing_plan_id":"cebpf4jnsgd1na2vs0mg"},{"bike_id":"ea94669e-1402-4144-b9c9-64418fa2ce05","system_id":"levelo_inurba_marseille","lat":43.296192,"lon":5.381552,"is_reserved":false,"is_disabled":true,"rental_uris":{"android":"levelo://app?vid=ea94669e-1402-4144-b9c9-64418fa2ce05","ios":"levelo://app?vid=ea94669e-1402-4144-b9c9-64418fa2ce05"},"vehicle_type_id":"4","last_reported":1732605012,"current_range_meters":28800,"station_id":"ce4bgl12rcd13ifvqbo0","pricing_plan_id":"cebpf4jnsgd1na2vs0mg"},{"bike_id":"c5ee2423-e250-4ce5-ad21-7d547928d26a","system_id":"levelo_inurba_marseille","lat":43.298,"lon":5.38117,"is_reserved":false,"is_disabled":false,"rental_uris":{"android":"levelo://app?vid=c5ee2423-e250-4ce5-ad21-7d547928d26a","ios":"levelo://app?vid=c5ee2423-e250-4ce5-ad21-7d547928d26a"},"vehicle_type_id":"4","last_reported":1732605012,"current_range_meters":36800,"station_id":"ce4bgip2rcd13ifvqbb0","pricing_plan_id":"cebpf4jnsgd1na2vs0mg"},{"bike_id":"c233603a-c83d-4654-aa22-df3f8d6e4f21","system_id":"levelo_inurba_marseille","lat":43.29598,"lon":5.38109,"is_reserved":false,"is_disabled":false,"rental_uris":{"android":"levelo://app?vid=c233603a-c83d-4654-aa22-df3f8d6e4f21","ios":"levelo://app?vid=c233603a-c83d-4654-aa22-df3f8d6e4f21"},"vehicle_type_id":"4","last_reported":1732605012,"current_range_meters":36400,"station_id":"ce4bgl12rcd13ifvqbo0","pricing_plan_id":"cebpf4jnsgd1na2vs0mg"},{"bike_id":"30e856e7-53f5-4729-a77e-238fa992e2d2","system_id":"levelo_inurba_marseille","lat":43.30533,"lon":5.36722,"is_reserved":false,"is_disabled":false,"rental_uris":{"android":"levelo://app?vid=30e856e7-53f5-4729-a77e-238fa992e2d2","ios":"levelo://app?vid=30e856e7-53f5-4729-a77e-238fa992e2d2"},"vehicle_type_id":"4","last_reported":1732605012,"current_range_meters":27600,"station_id":"ce4bgrp2rcd13ifvqc9g","pricing_plan_id":"cebpf4jnsgd1na2vs0mg"},{"bike_id":"aa717be1-dcce-416b-90e1-180e376a1e41","system_id":"levelo_inurba_marseille","lat":43.337444,"lon":5.374475,"is_reserved":false,"is_disabled":false,"rental_uris":{"android":"levelo://app?vid=aa717be1-dcce-416b-90e1-180e376a1e41","ios":"levelo://app?vid=aa717be1-dcce-416b-90e1-180e376a1e41"},"vehicle_type_id":"4","last_reported":1732605012,"current_range_meters":34800,"station_id":"","pricing_plan_id":"cebpf4jnsgd1na2vs0mg"},{"bike_id":"2a09209b-9e53-4e93-a4c9-9ab475d29893","system_id":"levelo_inurba_marseille","lat":43.30232,"lon":5.37467,"is_reserved":false,"is_disabled":true,"rental_uris":{"android":"levelo://app?vid=2a09209b-9e53-4e93-a4c9-9ab475d29893","ios":"levelo://app?vid=2a09209b-9e53-4e93-a4c9-9ab475d29893"},"vehicle_type_id":"4","last_reported":1732605012,"current_range_meters":17600,"station_id":"","pricing_plan_id":"cebpf4jnsgd1na2vs0mg"},{"bike_id":"294eeb79-af1b-495a-909f-216801ae6b41","system_id":"levelo_inurba_marseille","lat":43.33756,"lon":5.37444,"is_reserved":false,"is_disabled":false,"rental_uris":{"android":"levelo://app?vid=294eeb79-af1b-495a-909f-216801ae6b41","ios":"levelo://app?vid=294eeb79-af1b-495a-909f-216801ae6b41"},"vehicle_type_id":"4","last_reported":1732605012,"current_range_meters":9600,"station_id":"","pricing_plan_id":"cebpf4jnsgd1na2vs0mg"},{"bike_id":"537560b4-9094-4fb6-af68-76134d66b81a","system_id":"levelo_inurba_marseille","lat":43.29893,"lon":5.39737,"is_reserved":false,"is_disabled":true,"rental_uris":{"android":"levelo://app?vid=537560b4-9094-4fb6-af68-76134d66b81a","ios":"levelo://app?vid=537560b4-9094-4fb6-af68-76134d66b81a"},"vehicle_type_id":"4","last_reported":1732605012,"current_range_meters":29600,"station_id":"ce4bh0h2rcd13ifvqd50","pricing_plan_id":"cebpf4jnsgd1na2vs0mg"},{"bike_id":"aae8cb89-a134-47b2-ab4f-0558e1b9936e","system_id":"levelo_inurba_marseille","lat":43.2928,"lon":5.40127,"is_reserved":false,"is_disabled":false,"rental_uris":{"android":"levelo://app?vid=aae8cb89-a134-47b2-ab4f-0558e1b9936e","ios":"levelo://app?vid=aae8cb89-a134-47b2-ab4f-0558e1b9936e"},"vehicle_type_id":"4","last_reported":1732605012,"current_range_meters":10800,"station_id":"ce4bh312rcd13ifvqdk0","pricing_plan_id":"cebpf4jnsgd1na2vs0mg"},{"bike_id":"5a0e4739-0145-4a60-9d14-c1661f7c687b","system_id":"levelo_inurba_marseille","lat":43.29224,"lon":5.36056,"is_reserved":false,"is_disabled":false,"rental_uris":{"android":"levelo://app?vid=5a0e4739-0145-4a60-9d14-c1661f7c687b","ios":"levelo://app?vid=5a0e4739-0145-4a60-9d14-c1661f7c687b"},"vehicle_type_id":"4","last_reported":1732605012,"current_range_meters":36400,"station_id":"ce4bhbh2rcd13ifvqeqg","pricing_plan_id":"cebpf4jnsgd1na2vs0mg"},{"bike_id":"ae8832bc-cfd7-4f9c-9e40-c65929510f9c","system_id":"levelo_inurba_marseille","lat":43.30153,"lon":5.38087,"is_reserved":false,"is_disabled":false,"rental_uris":{"android":"levelo://app?vid=ae8832bc-cfd7-4f9c-9e40-c65929510f9c","ios":"levelo://app?vid=ae8832bc-cfd7-4f9c-9e40-c65929510f9c"},"vehicle_type_id":"4","last_reported":1732605012,"current_range_meters":31200,"station_id":"ce4bgjp2rcd13ifvqbh0","pricing_plan_id":"cebpf4jnsgd1na2vs0mg"},{"bike_id":"9fa237e5-c1df-41be-b8b9-e3d0d586410d","system_id":"levelo_inurba_marseille","lat":43.295908,"lon":5.403465,"is_reserved":false,"is_disabled":true,"rental_uris":{"android":"levelo://app?vid=9fa237e5-c1df-41be-b8b9-e3d0d586410d","ios":"levelo://app?vid=9fa237e5-c1df-41be-b8b9-e3d0d586410d"},"vehicle_type_id":"4","last_reported":1732605012,"current_range_meters":0,"station_id":"","pricing_plan_id":"cebpf4jnsgd1na2vs0mg"},{"bike_id":"db82adeb-77dd-48ce-a87d-b29ffa5a97fb","system_id":"levelo_inurba_marseille","lat":43.28845,"lon":5.35859,"is_reserved":false,"is_disabled":false,"rental_uris":{"android":"levelo://app?vid=db82adeb-77dd-48ce-a87d-b29ffa5a97fb","ios":"levelo://app?vid=db82adeb-77dd-48ce-a87d-b29ffa5a97fb"},"vehicle_type_id":"4","last_reported":1732605012,"current_range_meters":35600,"station_id":"ce4bhb12rcd13ifvqem0","pricing_plan_id":"cebpf4jnsgd1na2vs0mg"},{"bike_id":"41f5ea59-6ac8-4a51-8526-76bff29abe90","system_id":"levelo_inurba_marseille","lat":43.28342,"lon":5.38113,"is_reserved":false,"is_disabled":false,"rental_uris":{"android":"levelo://app?vid=41f5ea59-6ac8-4a51-8526-76bff29abe90","ios":"levelo://app?vid=41f5ea59-6ac8-4a51-8526-76bff29abe90"},"vehicle_type_id":"4","last_reported":1732605012,"current_range_meters":12800,"station_id":"ce4bh412rcd13ifvqdr0","pricing_plan_id":"cebpf4jnsgd1na2vs0mg"},{"bike_id":"777b7fed-d395-4c97-b504-dee7c3479d4f","system_id":"levelo_inurba_marseille","lat":43.29836,"lon":5.3785,"is_reserved":false,"is_disabled":true,"rental_uris":{"android":"levelo://app?vid=777b7fed-d395-4c97-b504-dee7c3479d4f","ios":"levelo://app?vid=777b7fed-d395-4c97-b504-dee7c3479d4f"},"vehicle_type_id":"4","last_reported":1732605012,"current_range_meters":0,"station_id":"","pricing_plan_id":"cebpf4jnsgd1na2vs0mg"},{"bike_id":"f6a6ddf5-3623-4303-b4dd-56a6aeb905d9","system_id":"levelo_inurba_marseille","lat":43.26954,"lon":5.38633,"is_reserved":false,"is_disabled":false,"rental_uris":{"android":"levelo://app?vid=f6a6ddf5-3623-4303-b4dd-56a6aeb905d9","ios":"levelo://app?vid=f6a6ddf5-3623-4303-b4dd-56a6aeb905d9"},"vehicle_type_id":"4","last_reported":1732605012,"current_range_meters":39200,"station_id":"ce4bhh92rcd13ifvqfh0","pricing_plan_id":"cebpf4jnsgd1na2vs0mg"},{"bike_id":"cd78312a-142a-42d0-92e1-dbc654bf8bb4","system_id":"levelo_inurba_marseille","lat":43.24184,"lon":5.39723,"is_reserved":false,"is_disabled":true,"rental_uris":{"android":"levelo://app?vid=cd78312a-142a-42d0-92e1-dbc654bf8bb4","ios":"levelo://app?vid=cd78312a-142a-42d0-92e1-dbc654bf8bb4"},"vehicle_type_id":"4","last_reported":1732605012,"current_range_meters":0,"station_id":"ce4bhn12rcd13ifvqgpg","pricing_plan_id":"cebpf4jnsgd1na2vs0mg"},{"bike_id":"41249b53-42aa-45f7-a470-76761e0f7179","system_id":"levelo_inurba_marseille","lat":43.27491,"lon":5.42453,"is_reserved":false,"is_disabled":false,"rental_uris":{"android":"levelo://app?vid=41249b53-42aa-45f7-a470-76761e0f7179","ios":"levelo://app?vid=41249b53-42aa-45f7-a470-76761e0f7179"},"vehicle_type_id":"4","last_reported":1732605012,"current_range_meters":33200,"station_id":"ce4bhn92rcd13ifvqgrg","pricing_plan_id":"cebpf4jnsgd1na2vs0mg"},{"bike_id":"8d9b5eca-df1e-45d2-aa96-e86919344716","system_id":"levelo_inurba_marseille","lat":43.24548,"lon":5.39521,"is_reserved":false,"is_disabled":false,"rental_uris":{"android":"levelo://app?vid=8d9b5eca-df1e-45d2-aa96-e86919344716","ios":"levelo://app?vid=8d9b5eca-df1e-45d2-aa96-e86919344716"},"vehicle_type_id":"4","last_reported":1732605012,"current_range_meters":38800,"station_id":"ce4bhlp2rcd13ifvqgjg","pricing_plan_id":"cebpf4jnsgd1na2vs0mg"},{"bike_id":"8f577752-a5a2-4e1e-a11d-40d37e2adf3d","system_id":"levelo_inurba_marseille","lat":43.26954,"lon":5.38641,"is_reserved":false,"is_disabled":false,"rental_uris":{"android":"levelo://app?vid=8f577752-a5a2-4e1e-a11d-40d37e2adf3d","ios":"levelo://app?vid=8f577752-a5a2-4e1e-a11d-40d37e2adf3d"},"vehicle_type_id":"4","last_reported":1732605012,"current_range_meters":20800,"station_id":"ce4bhh92rcd13ifvqfh0","pricing_plan_id":"cebpf4jnsgd1na2vs0mg"},{"bike_id":"cc8834ef-1c53-4bc8-b4f6-ca59dfbd2214","system_id":"levelo_inurba_marseille","lat":43.25572,"lon":5.38238,"is_reserved":false,"is_disabled":false,"rental_uris":{"android":"levelo://app?vid=cc8834ef-1c53-4bc8-b4f6-ca59dfbd2214","ios":"levelo://app?vid=cc8834ef-1c53-4bc8-b4f6-ca59dfbd2214"},"vehicle_type_id":"4","last_reported":1732605012,"current_range_meters":38800,"station_id":"ce4bhih2rcd13ifvqfs0","pricing_plan_id":"cebpf4jnsgd1na2vs0mg"},{"bike_id":"39b04c21-6a6a-40a7-a489-741c2b67c9bd","system_id":"levelo_inurba_marseille","lat":43.33727,"lon":5.39196,"is_reserved":false,"is_disabled":false,"rental_uris":{"android":"levelo://app?vid=39b04c21-6a6a-40a7-a489-741c2b67c9bd","ios":"levelo://app?vid=39b04c21-6a6a-40a7-a489-741c2b67c9bd"},"vehicle_type_id":"4","last_reported":1732605012,"current_range_meters":17600,"station_id":"ce4bhr92rcd13ifvqhsg","pricing_plan_id":"cebpf4jnsgd1na2vs0mg"},{"bike_id":"286e3948-07ae-4802-8804-293973ad1f43","system_id":"levelo_inurba_marseille","lat":43.311224,"lon":5.377716,"is_reserved":false,"is_disabled":true,"rental_uris":{"android":"levelo://app?vid=286e3948-07ae-4802-8804-293973ad1f43","ios":"levelo://app?vid=286e3948-07ae-4802-8804-293973ad1f43"},"vehicle_type_id":"4","last_reported":1732605012,"current_range_meters":28800,"station_id":"ce4bgt92rcd13ifvqcg0","pricing_plan_id":"cebpf4jnsgd1na2vs0mg"},{"bike_id":"10add33f-4195-400b-a925-26d7fb4aa689","system_id":"levelo_inurba_marseille","lat":43.26941,"lon":5.40247,"is_reserved":false,"is_disabled":false,"rental_uris":{"android":"levelo://app?vid=10add33f-4195-400b-a925-26d7fb4aa689","ios":"levelo://app?vid=10add33f-4195-400b-a925-26d7fb4aa689"},"vehicle_type_id":"4","last_reported":1732605012,"current_range_meters":36000,"station_id":"cjm6bp8fraef2m0cb0m0","pricing_plan_id":"cebpf4jnsgd1na2vs0mg"},{"bike_id":"24fc129a-3a98-4f25-9554-234fc3a2dc8d","system_id":"levelo_inurba_marseille","lat":43.30416,"lon":5.41285,"is_reserved":false,"is_disabled":true,"rental_uris":{"android":"levelo://app?vid=24fc129a-3a98-4f25-9554-234fc3a2dc8d","ios":"levelo://app?vid=24fc129a-3a98-4f25-9554-234fc3a2dc8d"},"vehicle_type_id":"4","last_reported":1732605012,"current_range_meters":20800,"station_id":"ce4bhop2rcd13ifvqh8g","pricing_plan_id":"cebpf4jnsgd1na2vs0mg"},{"bike_id":"03a1f7cf-4b1c-4e1e-8e58-12c6ff18c00d","system_id":"levelo_inurba_marseille","lat":43.30465,"lon":5.37906,"is_reserved":false,"is_disabled":true,"rental_uris":{"android":"levelo://app?vid=03a1f7cf-4b1c-4e1e-8e58-12c6ff18c00d","ios":"levelo://app?vid=03a1f7cf-4b1c-4e1e-8e58-12c6ff18c00d"},"vehicle_type_id":"4","last_reported":1732605012,"current_range_meters":1600,"station_id":"ce4bgup2rcd13ifvqcn0","pricing_plan_id":"cebpf4jnsgd1na2vs0mg"},{"bike_id":"bf329e63-a8ce-4873-a46c-8264ad6842cf","system_id":"levelo_inurba_marseille","lat":43.27811,"lon":5.40712,"is_reserved":false,"is_disabled":false,"rental_uris":{"android":"levelo://app?vid=bf329e63-a8ce-4873-a46c-8264ad6842cf","ios":"levelo://app?vid=bf329e63-a8ce-4873-a46c-8264ad6842cf"},"vehicle_type_id":"4","last_reported":1732605012,"current_range_meters":38800,"station_id":"ce4bhnh2rcd13ifvqgtg","pricing_plan_id":"cebpf4jnsgd1na2vs0mg"},{"bike_id":"a76d7b70-4db4-4fe5-b836-6f79d7df729a","system_id":"levelo_inurba_marseille","lat":43.25576,"lon":5.382343,"is_reserved":false,"is_disabled":false,"rental_uris":{"android":"levelo://app?vid=a76d7b70-4db4-4fe5-b836-6f79d7df729a","ios":"levelo://app?vid=a76d7b70-4db4-4fe5-b836-6f79d7df729a"},"vehicle_type_id":"4","last_reported":1732605012,"current_range_meters":38800,"station_id":"ce4bhih2rcd13ifvqfs0","pricing_plan_id":"cebpf4jnsgd1na2vs0mg"},{"bike_id":"45df81e2-5062-4d6c-8f6a-4bcb4627b44a","system_id":"levelo_inurba_marseille","lat":43.28463,"lon":5.35895,"is_reserved":false,"is_disabled":true,"rental_uris":{"android":"levelo://app?vid=45df81e2-5062-4d6c-8f6a-4bcb4627b44a","ios":"levelo://app?vid=45df81e2-5062-4d6c-8f6a-4bcb4627b44a"},"vehicle_type_id":"4","last_reported":1732605012,"current_range_meters":8400,"station_id":"ce4bhah2rcd13ifvqei0","pricing_plan_id":"cebpf4jnsgd1na2vs0mg"},{"bike_id":"120383cf-2453-4786-bbb8-39853ee211c7","system_id":"levelo_inurba_marseille","lat":43.2407,"lon":5.37766,"is_reserved":false,"is_disabled":false,"rental_uris":{"android":"levelo://app?vid=120383cf-2453-4786-bbb8-39853ee211c7","ios":"levelo://app?vid=120383cf-2453-4786-bbb8-39853ee211c7"},"vehicle_type_id":"4","last_reported":1732605012,"current_range_meters":38400,"station_id":"ce4bhnp2rcd13ifvqgvg","pricing_plan_id":"cebpf4jnsgd1na2vs0mg"},{"bike_id":"99a2afdc-f816-4e36-bd15-33e921cb1899","system_id":"levelo_inurba_marseille","lat":43.25823,"lon":5.39435,"is_reserved":false,"is_disabled":false,"rental_uris":{"android":"levelo://app?vid=99a2afdc-f816-4e36-bd15-33e921cb1899","ios":"levelo://app?vid=99a2afdc-f816-4e36-bd15-33e921cb1899"},"vehicle_type_id":"4","last_reported":1732605012,"current_range_meters":38800,"station_id":"ce4bhip2rcd13ifvqft0","pricing_plan_id":"cebpf4jnsgd1na2vs0mg"},{"bike_id":"d03668d1-eb94-4694-8976-fa4a5742f6d2","system_id":"levelo_inurba_marseille","lat":43.26581,"lon":5.38997,"is_reserved":false,"is_disabled":false,"rental_uris":{"android":"levelo://app?vid=d03668d1-eb94-4694-8976-fa4a5742f6d2","ios":"levelo://app?vid=d03668d1-eb94-4694-8976-fa4a5742f6d2"},"vehicle_type_id":"4","last_reported":1732605012,"current_range_meters":38400,"station_id":"ce4bhe12rcd13ifvqf30","pricing_plan_id":"cebpf4jnsgd1na2vs0mg"},{"bike_id":"62bcad95-d3e2-434c-81f4-127757d19c4c","system_id":"levelo_inurba_marseille","lat":43.29217,"lon":5.39588,"is_reserved":false,"is_disabled":true,"rental_uris":{"android":"levelo://app?vid=62bcad95-d3e2-434c-81f4-127757d19c4c","ios":"levelo://app?vid=62bcad95-d3e2-434c-81f4-127757d19c4c"},"vehicle_type_id":"4","last_reported":1732605012,"current_range_meters":0,"station_id":"","pricing_plan_id":"cebpf4jnsgd1na2vs0mg"},{"bike_id":"d8215ffb-387c-4f7b-bd95-aee53b75c23c","system_id":"levelo_inurba_marseille","lat":43.26788,"lon":5.39417,"is_reserved":false,"is_disabled":false,"rental_uris":{"android":"levelo://app?vid=d8215ffb-387c-4f7b-bd95-aee53b75c23c","ios":"levelo://app?vid=d8215ffb-387c-4f7b-bd95-aee53b75c23c"},"vehicle_type_id":"4","last_reported":1732605012,"current_range_meters":16000,"station_id":"ce4bhh12rcd13ifvqfg0","pricing_plan_id":"cebpf4jnsgd1na2vs0mg"},{"bike_id":"6675df3d-5e20-4072-be99-5a5eddd40672","system_id":"levelo_inurba_marseille","lat":43.23204,"lon":5.35554,"is_reserved":false,"is_disabled":false,"rental_uris":{"android":"levelo://app?vid=6675df3d-5e20-4072-be99-5a5eddd40672","ios":"levelo://app?vid=6675df3d-5e20-4072-be99-5a5eddd40672"},"vehicle_type_id":"4","last_reported":1732605012,"current_range_meters":10000,"station_id":"ce4bhu92rcd13ifvqi70","pricing_plan_id":"cebpf4jnsgd1na2vs0mg"},{"bike_id":"36296f5c-0176-4be0-97c8-7930cda9c369","system_id":"levelo_inurba_marseille","lat":43.32106,"lon":5.3677,"is_reserved":false,"is_disabled":false,"rental_uris":{"android":"levelo://app?vid=36296f5c-0176-4be0-97c8-7930cda9c369","ios":"levelo://app?vid=36296f5c-0176-4be0-97c8-7930cda9c369"},"vehicle_type_id":"4","last_reported":1732605012,"current_range_meters":24000,"station_id":"ce4bhrh2rcd13ifvqhug","pricing_plan_id":"cebpf4jnsgd1na2vs0mg"},{"bike_id":"17e4fdca-c1ff-4b58-ab50-cfa79f0dfdef","system_id":"levelo_inurba_marseille","lat":43.30952,"lon":5.39034,"is_reserved":false,"is_disabled":false,"rental_uris":{"android":"levelo://app?vid=17e4fdca-c1ff-4b58-ab50-cfa79f0dfdef","ios":"levelo://app?vid=17e4fdca-c1ff-4b58-ab50-cfa79f0dfdef"},"vehicle_type_id":"4","last_reported":1732605012,"current_range_meters":36400,"station_id":"ce4bgup2rcd13ifvqco0","pricing_plan_id":"cebpf4jnsgd1na2vs0mg"},{"bike_id":"87703e69-e2dd-47ca-ac7c-d25cc03900f2","system_id":"levelo_inurba_marseille","lat":43.31065,"lon":5.40107,"is_reserved":false,"is_disabled":false,"rental_uris":{"android":"levelo://app?vid=87703e69-e2dd-47ca-ac7c-d25cc03900f2","ios":"levelo://app?vid=87703e69-e2dd-47ca-ac7c-d25cc03900f2"},"vehicle_type_id":"4","last_reported":1732605012,"current_range_meters":38800,"station_id":"","pricing_plan_id":"cebpf4jnsgd1na2vs0mg"},{"bike_id":"b8234c4d-df37-4fb1-bf7c-afe20098c979","system_id":"levelo_inurba_marseille","lat":43.25813,"lon":5.39439,"is_reserved":false,"is_disabled":false,"rental_uris":{"android":"levelo://app?vid=b8234c4d-df37-4fb1-bf7c-afe20098c979","ios":"levelo://app?vid=b8234c4d-df37-4fb1-bf7c-afe20098c979"},"vehicle_type_id":"4","last_reported":1732605012,"current_range_meters":6000,"station_id":"ce4bhip2rcd13ifvqft0","pricing_plan_id":"cebpf4jnsgd1na2vs0mg"},{"bike_id":"4a281b07-afa6-4dd9-ac78-23c3b95b479a","system_id":"levelo_inurba_marseille","lat":43.30463,"lon":5.37922,"is_reserved":false,"is_disabled":false,"rental_uris":{"android":"levelo://app?vid=4a281b07-afa6-4dd9-ac78-23c3b95b479a","ios":"levelo://app?vid=4a281b07-afa6-4dd9-ac78-23c3b95b479a"},"vehicle_type_id":"4","last_reported":1732605012,"current_range_meters":25600,"station_id":"ce4bgup2rcd13ifvqcn0","pricing_plan_id":"cebpf4jnsgd1na2vs0mg"},{"bike_id":"91e84777-21c5-45fb-a8cf-2d0f109b233e","system_id":"levelo_inurba_marseille","lat":43.2893,"lon":5.39634,"is_reserved":false,"is_disabled":false,"rental_uris":{"android":"levelo://app?vid=91e84777-21c5-45fb-a8cf-2d0f109b233e","ios":"levelo://app?vid=91e84777-21c5-45fb-a8cf-2d0f109b233e"},"vehicle_type_id":"4","last_reported":1732605012,"current_range_meters":25600,"station_id":"ce4bh3h2rcd13ifvqdn0","pricing_plan_id":"cebpf4jnsgd1na2vs0mg"},{"bike_id":"1ebc2642-599e-41e5-89df-308a45bbfcfb","system_id":"levelo_inurba_marseille","lat":43.32102,"lon":5.36778,"is_reserved":false,"is_disabled":false,"rental_uris":{"android":"levelo://app?vid=1ebc2642-599e-41e5-89df-308a45bbfcfb","ios":"levelo://app?vid=1ebc2642-599e-41e5-89df-308a45bbfcfb"},"vehicle_type_id":"4","last_reported":1732605012,"current_range_meters":16400,"station_id":"ce4bhrh2rcd13ifvqhug","pricing_plan_id":"cebpf4jnsgd1na2vs0mg"},{"bike_id":"7185ef41-3a2b-447d-b041-2ae1094f59ec","system_id":"levelo_inurba_marseille","lat":43.305377,"lon":5.367349,"is_reserved":false,"is_disabled":false,"rental_uris":{"android":"levelo://app?vid=7185ef41-3a2b-447d-b041-2ae1094f59ec","ios":"levelo://app?vid=7185ef41-3a2b-447d-b041-2ae1094f59ec"},"vehicle_type_id":"4","last_reported":1732605012,"current_range_meters":8000,"station_id":"ce4bgrp2rcd13ifvqc9g","pricing_plan_id":"cebpf4jnsgd1na2vs0mg"},{"bike_id":"96ab67d7-31f8-416d-ac69-0c1c3ef969ce","system_id":"levelo_inurba_marseille","lat":43.31339,"lon":5.36743,"is_reserved":false,"is_disabled":false,"rental_uris":{"android":"levelo://app?vid=96ab67d7-31f8-416d-ac69-0c1c3ef969ce","ios":"levelo://app?vid=96ab67d7-31f8-416d-ac69-0c1c3ef969ce"},"vehicle_type_id":"4","last_reported":1732605012,"current_range_meters":37600,"station_id":"ce4bgr92rcd13ifvqc6g","pricing_plan_id":"cebpf4jnsgd1na2vs0mg"},{"bike_id":"baa6b116-33e8-4eeb-949d-8ad46185256a","system_id":"levelo_inurba_marseille","lat":43.325435,"lon":5.414385,"is_reserved":false,"is_disabled":false,"rental_uris":{"android":"levelo://app?vid=baa6b116-33e8-4eeb-949d-8ad46185256a","ios":"levelo://app?vid=baa6b116-33e8-4eeb-949d-8ad46185256a"},"vehicle_type_id":"4","last_reported":1732605012,"current_range_meters":38800,"station_id":"ce4bhq12rcd13ifvqhhg","pricing_plan_id":"cebpf4jnsgd1na2vs0mg"},{"bike_id":"e8a12a11-eb94-43a1-89dc-1a990d2d11f4","system_id":"levelo_inurba_marseille","lat":43.23146,"lon":5.43722,"is_reserved":false,"is_disabled":false,"rental_uris":{"android":"levelo://app?vid=e8a12a11-eb94-43a1-89dc-1a990d2d11f4","ios":"levelo://app?vid=e8a12a11-eb94-43a1-89dc-1a990d2d11f4"},"vehicle_type_id":"4","last_reported":1732605012,"current_range_meters":38800,"station_id":"ce4bhmp2rcd13ifvqgog","pricing_plan_id":"cebpf4jnsgd1na2vs0mg"},{"bike_id":"4bda66df-ca57-4b1d-9f82-654d7b0e75b5","system_id":"levelo_inurba_marseille","lat":43.2508,"lon":5.39522,"is_reserved":false,"is_disabled":false,"rental_uris":{"android":"levelo://app?vid=4bda66df-ca57-4b1d-9f82-654d7b0e75b5","ios":"levelo://app?vid=4bda66df-ca57-4b1d-9f82-654d7b0e75b5"},"vehicle_type_id":"4","last_reported":1732605012,"current_range_meters":27200,"station_id":"ce4bhm12rcd13ifvqgkg","pricing_plan_id":"cebpf4jnsgd1na2vs0mg"},{"bike_id":"3eaa6b4c-f768-4870-822c-5d2fe940ceb3","system_id":"levelo_inurba_marseille","lat":43.27176,"lon":5.41003,"is_reserved":false,"is_disabled":false,"rental_uris":{"android":"levelo://app?vid=3eaa6b4c-f768-4870-822c-5d2fe940ceb3","ios":"levelo://app?vid=3eaa6b4c-f768-4870-822c-5d2fe940ceb3"},"vehicle_type_id":"4","last_reported":1732605012,"current_range_meters":9200,"station_id":"ce4bhl12rcd13ifvqgf0","pricing_plan_id":"cebpf4jnsgd1na2vs0mg"},{"bike_id":"a0671414-075f-4c51-afa3-8a0544e0da0e","system_id":"levelo_inurba_marseille","lat":43.2407,"lon":5.3776,"is_reserved":false,"is_disabled":false,"rental_uris":{"android":"levelo://app?vid=a0671414-075f-4c51-afa3-8a0544e0da0e","ios":"levelo://app?vid=a0671414-075f-4c51-afa3-8a0544e0da0e"},"vehicle_type_id":"4","last_reported":1732605012,"current_range_meters":14800,"station_id":"ce4bhnp2rcd13ifvqgvg","pricing_plan_id":"cebpf4jnsgd1na2vs0mg"},{"bike_id":"5bf94cec-5d70-4fe6-850b-65fe88c67777","system_id":"levelo_inurba_marseille","lat":43.305446,"lon":5.365315,"is_reserved":false,"is_disabled":true,"rental_uris":{"android":"levelo://app?vid=5bf94cec-5d70-4fe6-850b-65fe88c67777","ios":"levelo://app?vid=5bf94cec-5d70-4fe6-850b-65fe88c67777"},"vehicle_type_id":"4","last_reported":1732605012,"current_range_meters":4000,"station_id":"ce4bgs12rcd13ifvqcag","pricing_plan_id":"cebpf4jnsgd1na2vs0mg"},{"bike_id":"129784fe-5192-4f91-b228-a5c5da2a1e5c","system_id":"levelo_inurba_marseille","lat":43.26203,"lon":5.37918,"is_reserved":false,"is_disabled":true,"rental_uris":{"android":"levelo://app?vid=129784fe-5192-4f91-b228-a5c5da2a1e5c","ios":"levelo://app?vid=129784fe-5192-4f91-b228-a5c5da2a1e5c"},"vehicle_type_id":"4","last_reported":1732605012,"current_range_meters":6400,"station_id":"ce4bhjp2rcd13ifvqg90","pricing_plan_id":"cebpf4jnsgd1na2vs0mg"},{"bike_id":"de9e3783-4df1-4bb8-b21c-29b191ed820e","system_id":"levelo_inurba_marseille","lat":43.28611,"lon":5.35112,"is_reserved":false,"is_disabled":false,"rental_uris":{"android":"levelo://app?vid=de9e3783-4df1-4bb8-b21c-29b191ed820e","ios":"levelo://app?vid=de9e3783-4df1-4bb8-b21c-29b191ed820e"},"vehicle_type_id":"4","last_reported":1732605012,"current_range_meters":18000,"station_id":"ce4bhch2rcd13ifvqeug","pricing_plan_id":"cebpf4jnsgd1na2vs0mg"},{"bike_id":"bba6d38a-bf93-497b-81e9-a809f5b88a60","system_id":"levelo_inurba_marseille","lat":43.27492,"lon":5.42464,"is_reserved":false,"is_disabled":false,"rental_uris":{"android":"levelo://app?vid=bba6d38a-bf93-497b-81e9-a809f5b88a60","ios":"levelo://app?vid=bba6d38a-bf93-497b-81e9-a809f5b88a60"},"vehicle_type_id":"4","last_reported":1732605012,"current_range_meters":26800,"station_id":"ce4bhn92rcd13ifvqgrg","pricing_plan_id":"cebpf4jnsgd1na2vs0mg"},{"bike_id":"b941cc26-ae84-4df0-9821-62aa141b6cc4","system_id":"levelo_inurba_marseille","lat":43.30475,"lon":5.37957,"is_reserved":false,"is_disabled":false,"rental_uris":{"android":"levelo://app?vid=b941cc26-ae84-4df0-9821-62aa141b6cc4","ios":"levelo://app?vid=b941cc26-ae84-4df0-9821-62aa141b6cc4"},"vehicle_type_id":"4","last_reported":1732605012,"current_range_meters":38800,"station_id":"ce4bgup2rcd13ifvqcn0","pricing_plan_id":"cebpf4jnsgd1na2vs0mg"},{"bike_id":"2495b441-39ff-4d05-9add-5c136ffeb4ba","system_id":"levelo_inurba_marseille","lat":43.293046,"lon":5.404983,"is_reserved":false,"is_disabled":false,"rental_uris":{"android":"levelo://app?vid=2495b441-39ff-4d05-9add-5c136ffeb4ba","ios":"levelo://app?vid=2495b441-39ff-4d05-9add-5c136ffeb4ba"},"vehicle_type_id":"4","last_reported":1732605012,"current_range_meters":24400,"station_id":"","pricing_plan_id":"cebpf4jnsgd1na2vs0mg"},{"bike_id":"6c03a6e6-5201-4f36-ac54-dc619c2a1897","system_id":"levelo_inurba_marseille","lat":43.31351,"lon":5.38508,"is_reserved":false,"is_disabled":false,"rental_uris":{"android":"levelo://app?vid=6c03a6e6-5201-4f36-ac54-dc619c2a1897","ios":"levelo://app?vid=6c03a6e6-5201-4f36-ac54-dc619c2a1897"},"vehicle_type_id":"4","last_reported":1732605012,"current_range_meters":35200,"station_id":"ce4bgt92rcd13ifvqcf0","pricing_plan_id":"cebpf4jnsgd1na2vs0mg"},{"bike_id":"bbb73ab9-d811-43f0-9f4c-10f596fcd1ce","system_id":"levelo_inurba_marseille","lat":43.31714,"lon":5.42402,"is_reserved":false,"is_disabled":false,"rental_uris":{"android":"levelo://app?vid=bbb73ab9-d811-43f0-9f4c-10f596fcd1ce","ios":"levelo://app?vid=bbb73ab9-d811-43f0-9f4c-10f596fcd1ce"},"vehicle_type_id":"4","last_reported":1732605012,"current_range_meters":22000,"station_id":"ce4bhp92rcd13ifvqhbg","pricing_plan_id":"cebpf4jnsgd1na2vs0mg"},{"bike_id":"6b6a9888-ed34-482e-8435-001e5cdf7b32","system_id":"levelo_inurba_marseille","lat":43.30149,"lon":5.38074,"is_reserved":false,"is_disabled":false,"rental_uris":{"android":"levelo://app?vid=6b6a9888-ed34-482e-8435-001e5cdf7b32","ios":"levelo://app?vid=6b6a9888-ed34-482e-8435-001e5cdf7b32"},"vehicle_type_id":"4","last_reported":1732605012,"current_range_meters":27600,"station_id":"ce4bgjp2rcd13ifvqbh0","pricing_plan_id":"cebpf4jnsgd1na2vs0mg"},{"bike_id":"cbc2167d-639d-4b33-b914-3ad6f36f2868","system_id":"levelo_inurba_marseille","lat":43.22925,"lon":5.35374,"is_reserved":false,"is_disabled":false,"rental_uris":{"android":"levelo://app?vid=cbc2167d-639d-4b33-b914-3ad6f36f2868","ios":"levelo://app?vid=cbc2167d-639d-4b33-b914-3ad6f36f2868"},"vehicle_type_id":"4","last_reported":1732605012,"current_range_meters":26800,"station_id":"cpo3532slgdg3j2ikp40","pricing_plan_id":"cebpf4jnsgd1na2vs0mg"},{"bike_id":"bfeceed4-70b5-4b57-9e5a-663d62b93db9","system_id":"levelo_inurba_marseille","lat":43.27497,"lon":5.42456,"is_reserved":false,"is_disabled":false,"rental_uris":{"android":"levelo://app?vid=bfeceed4-70b5-4b57-9e5a-663d62b93db9","ios":"levelo://app?vid=bfeceed4-70b5-4b57-9e5a-663d62b93db9"},"vehicle_type_id":"4","last_reported":1732605012,"current_range_meters":36000,"station_id":"ce4bhn92rcd13ifvqgrg","pricing_plan_id":"cebpf4jnsgd1na2vs0mg"},{"bike_id":"1f7f4d65-b3e7-48e4-8057-cdac55fb7577","system_id":"levelo_inurba_marseille","lat":43.28941,"lon":5.39635,"is_reserved":false,"is_disabled":false,"rental_uris":{"android":"levelo://app?vid=1f7f4d65-b3e7-48e4-8057-cdac55fb7577","ios":"levelo://app?vid=1f7f4d65-b3e7-48e4-8057-cdac55fb7577"},"vehicle_type_id":"4","last_reported":1732605012,"current_range_meters":33600,"station_id":"ce4bh3h2rcd13ifvqdn0","pricing_plan_id":"cebpf4jnsgd1na2vs0mg"},{"bike_id":"64d99805-5c2f-4296-94ac-5ea41a4650e3","system_id":"levelo_inurba_marseille","lat":43.2815,"lon":5.42649,"is_reserved":false,"is_disabled":false,"rental_uris":{"android":"levelo://app?vid=64d99805-5c2f-4296-94ac-5ea41a4650e3","ios":"levelo://app?vid=64d99805-5c2f-4296-94ac-5ea41a4650e3"},"vehicle_type_id":"4","last_reported":1732605012,"current_range_meters":17600,"station_id":"ce4bhnh2rcd13ifvqgug","pricing_plan_id":"cebpf4jnsgd1na2vs0mg"},{"bike_id":"efa0ed00-6534-4e7c-8d71-07bb629caa92","system_id":"levelo_inurba_marseille","lat":43.28849,"lon":5.35855,"is_reserved":false,"is_disabled":false,"rental_uris":{"android":"levelo://app?vid=efa0ed00-6534-4e7c-8d71-07bb629caa92","ios":"levelo://app?vid=efa0ed00-6534-4e7c-8d71-07bb629caa92"},"vehicle_type_id":"4","last_reported":1732605012,"current_range_meters":32400,"station_id":"ce4bhb12rcd13ifvqem0","pricing_plan_id":"cebpf4jnsgd1na2vs0mg"},{"bike_id":"7cdba1e0-37e6-4aeb-962b-9fb9570dfeff","system_id":"levelo_inurba_marseille","lat":43.24811,"lon":5.37461,"is_reserved":false,"is_disabled":false,"rental_uris":{"android":"levelo://app?vid=7cdba1e0-37e6-4aeb-962b-9fb9570dfeff","ios":"levelo://app?vid=7cdba1e0-37e6-4aeb-962b-9fb9570dfeff"},"vehicle_type_id":"4","last_reported":1732605012,"current_range_meters":37600,"station_id":"ce4bhgh2rcd13ifvqfb0","pricing_plan_id":"cebpf4jnsgd1na2vs0mg"},{"bike_id":"abcc7733-24ca-40e7-bed8-88a154357983","system_id":"levelo_inurba_marseille","lat":43.33789,"lon":5.37439,"is_reserved":false,"is_disabled":false,"rental_uris":{"android":"levelo://app?vid=abcc7733-24ca-40e7-bed8-88a154357983","ios":"levelo://app?vid=abcc7733-24ca-40e7-bed8-88a154357983"},"vehicle_type_id":"4","last_reported":1732605012,"current_range_meters":3200,"station_id":"","pricing_plan_id":"cebpf4jnsgd1na2vs0mg"},{"bike_id":"d0b8d481-6f4e-47a6-8c5b-ee06770e49a6","system_id":"levelo_inurba_marseille","lat":43.31758,"lon":5.39025,"is_reserved":false,"is_disabled":false,"rental_uris":{"android":"levelo://app?vid=d0b8d481-6f4e-47a6-8c5b-ee06770e49a6","ios":"levelo://app?vid=d0b8d481-6f4e-47a6-8c5b-ee06770e49a6"},"vehicle_type_id":"4","last_reported":1732605012,"current_range_meters":39200,"station_id":"ce4bhqp2rcd13ifvqhng","pricing_plan_id":"cebpf4jnsgd1na2vs0mg"},{"bike_id":"f1744f2f-1688-4975-a3f7-ae5fc7ef9a36","system_id":"levelo_inurba_marseille","lat":43.27492,"lon":5.4246,"is_reserved":false,"is_disabled":false,"rental_uris":{"android":"levelo://app?vid=f1744f2f-1688-4975-a3f7-ae5fc7ef9a36","ios":"levelo://app?vid=f1744f2f-1688-4975-a3f7-ae5fc7ef9a36"},"vehicle_type_id":"4","last_reported":1732605012,"current_range_meters":16400,"station_id":"ce4bhn92rcd13ifvqgrg","pricing_plan_id":"cebpf4jnsgd1na2vs0mg"},{"bike_id":"0ef3da94-ddea-4875-bfdd-7c4d4c2b6843","system_id":"levelo_inurba_marseille","lat":43.24067,"lon":5.37771,"is_reserved":false,"is_disabled":false,"rental_uris":{"android":"levelo://app?vid=0ef3da94-ddea-4875-bfdd-7c4d4c2b6843","ios":"levelo://app?vid=0ef3da94-ddea-4875-bfdd-7c4d4c2b6843"},"vehicle_type_id":"4","last_reported":1732605012,"current_range_meters":10000,"station_id":"ce4bhnp2rcd13ifvqgvg","pricing_plan_id":"cebpf4jnsgd1na2vs0mg"},{"bike_id":"3db35046-c6b2-4005-9f8c-54abdc1d3790","system_id":"levelo_inurba_marseille","lat":43.27483,"lon":5.42479,"is_reserved":false,"is_disabled":false,"rental_uris":{"android":"levelo://app?vid=3db35046-c6b2-4005-9f8c-54abdc1d3790","ios":"levelo://app?vid=3db35046-c6b2-4005-9f8c-54abdc1d3790"},"vehicle_type_id":"4","last_reported":1732605012,"current_range_meters":33200,"station_id":"ce4bhn92rcd13ifvqgrg","pricing_plan_id":"cebpf4jnsgd1na2vs0mg"},{"bike_id":"6a68e396-5073-4857-b6e3-2051f828e1e2","system_id":"levelo_inurba_marseille","lat":43.24073,"lon":5.37763,"is_reserved":false,"is_disabled":false,"rental_uris":{"android":"levelo://app?vid=6a68e396-5073-4857-b6e3-2051f828e1e2","ios":"levelo://app?vid=6a68e396-5073-4857-b6e3-2051f828e1e2"},"vehicle_type_id":"4","last_reported":1732605012,"current_range_meters":32800,"station_id":"ce4bhnp2rcd13ifvqgvg","pricing_plan_id":"cebpf4jnsgd1na2vs0mg"},{"bike_id":"ed00ff1c-a428-4ce5-a455-260378e65da7","system_id":"levelo_inurba_marseille","lat":43.28807,"lon":5.40014,"is_reserved":false,"is_disabled":true,"rental_uris":{"android":"levelo://app?vid=ed00ff1c-a428-4ce5-a455-260378e65da7","ios":"levelo://app?vid=ed00ff1c-a428-4ce5-a455-260378e65da7"},"vehicle_type_id":"4","last_reported":1732605012,"current_range_meters":0,"station_id":"","pricing_plan_id":"cebpf4jnsgd1na2vs0mg"},{"bike_id":"9c9cda8c-65de-41ec-a6f6-ab7be57b8d59","system_id":"levelo_inurba_marseille","lat":43.275599,"lon":5.384303,"is_reserved":false,"is_disabled":true,"rental_uris":{"android":"levelo://app?vid=9c9cda8c-65de-41ec-a6f6-ab7be57b8d59","ios":"levelo://app?vid=9c9cda8c-65de-41ec-a6f6-ab7be57b8d59"},"vehicle_type_id":"4","last_reported":1732605012,"current_range_meters":22000,"station_id":"ce4bhh92rcd13ifvqfi0","pricing_plan_id":"cebpf4jnsgd1na2vs0mg"},{"bike_id":"93d98018-8e4d-4be0-a482-22d28fca8152","system_id":"levelo_inurba_marseille","lat":43.29914,"lon":5.37487,"is_reserved":false,"is_disabled":false,"rental_uris":{"android":"levelo://app?vid=93d98018-8e4d-4be0-a482-22d28fca8152","ios":"levelo://app?vid=93d98018-8e4d-4be0-a482-22d28fca8152"},"vehicle_type_id":"4","last_reported":1732605012,"current_range_meters":25600,"station_id":"ce4bgjh2rcd13ifvqbg0","pricing_plan_id":"cebpf4jnsgd1na2vs0mg"},{"bike_id":"858b65e1-94fc-4151-a71e-8b168cb19dcb","system_id":"levelo_inurba_marseille","lat":43.32249,"lon":5.39241,"is_reserved":false,"is_disabled":true,"rental_uris":{"android":"levelo://app?vid=858b65e1-94fc-4151-a71e-8b168cb19dcb","ios":"levelo://app?vid=858b65e1-94fc-4151-a71e-8b168cb19dcb"},"vehicle_type_id":"4","last_reported":1732605012,"current_range_meters":0,"station_id":"","pricing_plan_id":"cebpf4jnsgd1na2vs0mg"},{"bike_id":"e805378b-54e5-426b-a4ad-eec5d153d959","system_id":"levelo_inurba_marseille","lat":43.25583,"lon":5.38231,"is_reserved":false,"is_disabled":false,"rental_uris":{"android":"levelo://app?vid=e805378b-54e5-426b-a4ad-eec5d153d959","ios":"levelo://app?vid=e805378b-54e5-426b-a4ad-eec5d153d959"},"vehicle_type_id":"4","last_reported":1732605012,"current_range_meters":14000,"station_id":"ce4bhih2rcd13ifvqfs0","pricing_plan_id":"cebpf4jnsgd1na2vs0mg"},{"bike_id":"fb6f267e-8f2f-4000-94c2-2899cf721536","system_id":"levelo_inurba_marseille","lat":43.3095,"lon":5.40595,"is_reserved":false,"is_disabled":false,"rental_uris":{"android":"levelo://app?vid=fb6f267e-8f2f-4000-94c2-2899cf721536","ios":"levelo://app?vid=fb6f267e-8f2f-4000-94c2-2899cf721536"},"vehicle_type_id":"4","last_reported":1732605012,"current_range_meters":8400,"station_id":"","pricing_plan_id":"cebpf4jnsgd1na2vs0mg"},{"bike_id":"a83da327-cc6e-409f-b844-cdcc6cb802d0","system_id":"levelo_inurba_marseille","lat":43.31357,"lon":5.38508,"is_reserved":false,"is_disabled":true,"rental_uris":{"android":"levelo://app?vid=a83da327-cc6e-409f-b844-cdcc6cb802d0","ios":"levelo://app?vid=a83da327-cc6e-409f-b844-cdcc6cb802d0"},"vehicle_type_id":"4","last_reported":1732605012,"current_range_meters":0,"station_id":"ce4bgt92rcd13ifvqcf0","pricing_plan_id":"cebpf4jnsgd1na2vs0mg"},{"bike_id":"2b076fd7-7460-4f2e-836d-531982b1a050","system_id":"levelo_inurba_marseille","lat":43.29627,"lon":5.37147,"is_reserved":false,"is_disabled":true,"rental_uris":{"android":"levelo://app?vid=2b076fd7-7460-4f2e-836d-531982b1a050","ios":"levelo://app?vid=2b076fd7-7460-4f2e-836d-531982b1a050"},"vehicle_type_id":"4","last_reported":1732605012,"current_range_meters":33600,"station_id":"ce4bgnh2rcd13ifvqc0g","pricing_plan_id":"cebpf4jnsgd1na2vs0mg"},{"bike_id":"3a027b97-13d4-4577-ae45-ae29359a0976","system_id":"levelo_inurba_marseille","lat":43.27568,"lon":5.38406,"is_reserved":false,"is_disabled":false,"rental_uris":{"android":"levelo://app?vid=3a027b97-13d4-4577-ae45-ae29359a0976","ios":"levelo://app?vid=3a027b97-13d4-4577-ae45-ae29359a0976"},"vehicle_type_id":"4","last_reported":1732605012,"current_range_meters":38800,"station_id":"ce4bhh92rcd13ifvqfi0","pricing_plan_id":"cebpf4jnsgd1na2vs0mg"},{"bike_id":"b1c57ecb-a6f9-4c41-8b27-61fe4188f5d5","system_id":"levelo_inurba_marseille","lat":43.2582,"lon":5.39445,"is_reserved":false,"is_disabled":false,"rental_uris":{"android":"levelo://app?vid=b1c57ecb-a6f9-4c41-8b27-61fe4188f5d5","ios":"levelo://app?vid=b1c57ecb-a6f9-4c41-8b27-61fe4188f5d5"},"vehicle_type_id":"4","last_reported":1732605012,"current_range_meters":32400,"station_id":"ce4bhip2rcd13ifvqft0","pricing_plan_id":"cebpf4jnsgd1na2vs0mg"},{"bike_id":"3bd4e758-1aa1-43e4-bf3f-c7c2dd799e60","system_id":"levelo_inurba_marseille","lat":43.23146,"lon":5.43733,"is_reserved":false,"is_disabled":false,"rental_uris":{"android":"levelo://app?vid=3bd4e758-1aa1-43e4-bf3f-c7c2dd799e60","ios":"levelo://app?vid=3bd4e758-1aa1-43e4-bf3f-c7c2dd799e60"},"vehicle_type_id":"4","last_reported":1732605012,"current_range_meters":39200,"station_id":"ce4bhmp2rcd13ifvqgog","pricing_plan_id":"cebpf4jnsgd1na2vs0mg"},{"bike_id":"bc0c529a-a8e3-4d1e-b42d-04fd73268cf8","system_id":"levelo_inurba_marseille","lat":43.3172,"lon":5.37752,"is_reserved":false,"is_disabled":false,"rental_uris":{"android":"levelo://app?vid=bc0c529a-a8e3-4d1e-b42d-04fd73268cf8","ios":"levelo://app?vid=bc0c529a-a8e3-4d1e-b42d-04fd73268cf8"},"vehicle_type_id":"4","last_reported":1732605012,"current_range_meters":36400,"station_id":"ce4bgth2rcd13ifvqch0","pricing_plan_id":"cebpf4jnsgd1na2vs0mg"},{"bike_id":"67e16480-e780-4208-9b33-54fa3e72e98e","system_id":"levelo_inurba_marseille","lat":43.29799,"lon":5.38099,"is_reserved":false,"is_disabled":false,"rental_uris":{"android":"levelo://app?vid=67e16480-e780-4208-9b33-54fa3e72e98e","ios":"levelo://app?vid=67e16480-e780-4208-9b33-54fa3e72e98e"},"vehicle_type_id":"4","last_reported":1732605012,"current_range_meters":22800,"station_id":"ce4bgip2rcd13ifvqbb0","pricing_plan_id":"cebpf4jnsgd1na2vs0mg"},{"bike_id":"7207e9f4-672d-4867-bf0f-32e122ccad83","system_id":"levelo_inurba_marseille","lat":43.26792,"lon":5.39409,"is_reserved":false,"is_disabled":false,"rental_uris":{"android":"levelo://app?vid=7207e9f4-672d-4867-bf0f-32e122ccad83","ios":"levelo://app?vid=7207e9f4-672d-4867-bf0f-32e122ccad83"},"vehicle_type_id":"4","last_reported":1732605012,"current_range_meters":34800,"station_id":"ce4bhh12rcd13ifvqfg0","pricing_plan_id":"cebpf4jnsgd1na2vs0mg"},{"bike_id":"f7f3756c-1ec7-4782-9c87-6273f87b6774","system_id":"levelo_inurba_marseille","lat":43.337444,"lon":5.374475,"is_reserved":false,"is_disabled":true,"rental_uris":{"android":"levelo://app?vid=f7f3756c-1ec7-4782-9c87-6273f87b6774","ios":"levelo://app?vid=f7f3756c-1ec7-4782-9c87-6273f87b6774"},"vehicle_type_id":"4","last_reported":1732605012,"current_range_meters":20400,"station_id":"","pricing_plan_id":"cebpf4jnsgd1na2vs0mg"},{"bike_id":"ad7bd4c1-8ad2-40d2-9490-ece3eee957e6","system_id":"levelo_inurba_marseille","lat":43.27868,"lon":5.38089,"is_reserved":false,"is_disabled":true,"rental_uris":{"android":"levelo://app?vid=ad7bd4c1-8ad2-40d2-9490-ece3eee957e6","ios":"levelo://app?vid=ad7bd4c1-8ad2-40d2-9490-ece3eee957e6"},"vehicle_type_id":"4","last_reported":1732605012,"current_range_meters":28800,"station_id":"","pricing_plan_id":"cebpf4jnsgd1na2vs0mg"},{"bike_id":"ae78cd95-0524-4346-8c3e-35a78db9a346","system_id":"levelo_inurba_marseille","lat":43.26064,"lon":5.39396,"is_reserved":false,"is_disabled":false,"rental_uris":{"android":"levelo://app?vid=ae78cd95-0524-4346-8c3e-35a78db9a346","ios":"levelo://app?vid=ae78cd95-0524-4346-8c3e-35a78db9a346"},"vehicle_type_id":"4","last_reported":1732605012,"current_range_meters":16400,"station_id":"ce4bhh92rcd13ifvqfj0","pricing_plan_id":"cebpf4jnsgd1na2vs0mg"},{"bike_id":"801ab7cc-190e-408c-b58b-6277fd206f37","system_id":"levelo_inurba_marseille","lat":43.30465,"lon":5.37912,"is_reserved":false,"is_disabled":false,"rental_uris":{"android":"levelo://app?vid=801ab7cc-190e-408c-b58b-6277fd206f37","ios":"levelo://app?vid=801ab7cc-190e-408c-b58b-6277fd206f37"},"vehicle_type_id":"4","last_reported":1732605012,"current_range_meters":24000,"station_id":"ce4bgup2rcd13ifvqcn0","pricing_plan_id":"cebpf4jnsgd1na2vs0mg"},{"bike_id":"3535d3f1-a640-420a-99ad-575f52613ddc","system_id":"levelo_inurba_marseille","lat":43.27968,"lon":5.38742,"is_reserved":false,"is_disabled":false,"rental_uris":{"android":"levelo://app?vid=3535d3f1-a640-420a-99ad-575f52613ddc","ios":"levelo://app?vid=3535d3f1-a640-420a-99ad-575f52613ddc"},"vehicle_type_id":"4","last_reported":1732605012,"current_range_meters":20000,"station_id":"ce4bhg12rcd13ifvqf80","pricing_plan_id":"cebpf4jnsgd1na2vs0mg"},{"bike_id":"a97e4d1b-4f4a-48fc-882e-058099634779","system_id":"levelo_inurba_marseille","lat":43.25492,"lon":5.3765,"is_reserved":false,"is_disabled":false,"rental_uris":{"android":"levelo://app?vid=a97e4d1b-4f4a-48fc-882e-058099634779","ios":"levelo://app?vid=a97e4d1b-4f4a-48fc-882e-058099634779"},"vehicle_type_id":"4","last_reported":1732605012,"current_range_meters":37600,"station_id":"ce4bhh12rcd13ifvqff0","pricing_plan_id":"cebpf4jnsgd1na2vs0mg"},{"bike_id":"348c7932-c38e-4401-9c08-aab87ce18ed7","system_id":"levelo_inurba_marseille","lat":43.31358,"lon":5.38503,"is_reserved":false,"is_disabled":false,"rental_uris":{"android":"levelo://app?vid=348c7932-c38e-4401-9c08-aab87ce18ed7","ios":"levelo://app?vid=348c7932-c38e-4401-9c08-aab87ce18ed7"},"vehicle_type_id":"4","last_reported":1732605012,"current_range_meters":33200,"station_id":"ce4bgt92rcd13ifvqcf0","pricing_plan_id":"cebpf4jnsgd1na2vs0mg"},{"bike_id":"467664cb-c364-4a36-91a7-a41408ef3e1b","system_id":"levelo_inurba_marseille","lat":43.29043,"lon":5.35934,"is_reserved":false,"is_disabled":false,"rental_uris":{"android":"levelo://app?vid=467664cb-c364-4a36-91a7-a41408ef3e1b","ios":"levelo://app?vid=467664cb-c364-4a36-91a7-a41408ef3e1b"},"vehicle_type_id":"4","last_reported":1732605012,"current_range_meters":14800,"station_id":"ce4bha92rcd13ifvqeg0","pricing_plan_id":"cebpf4jnsgd1na2vs0mg"},{"bike_id":"14f3c269-ea7b-4aeb-9a6e-2af7df033998","system_id":"levelo_inurba_marseille","lat":43.26058,"lon":5.39396,"is_reserved":false,"is_disabled":false,"rental_uris":{"android":"levelo://app?vid=14f3c269-ea7b-4aeb-9a6e-2af7df033998","ios":"levelo://app?vid=14f3c269-ea7b-4aeb-9a6e-2af7df033998"},"vehicle_type_id":"4","last_reported":1732605012,"current_range_meters":38800,"station_id":"ce4bhh92rcd13ifvqfj0","pricing_plan_id":"cebpf4jnsgd1na2vs0mg"},{"bike_id":"08a198d7-556c-4248-9fbd-1c21aaf2dd82","system_id":"levelo_inurba_marseille","lat":43.29278,"lon":5.36838,"is_reserved":false,"is_disabled":true,"rental_uris":{"android":"levelo://app?vid=08a198d7-556c-4248-9fbd-1c21aaf2dd82","ios":"levelo://app?vid=08a198d7-556c-4248-9fbd-1c21aaf2dd82"},"vehicle_type_id":"4","last_reported":1732605012,"current_range_meters":30400,"station_id":"ce4bhbp2rcd13ifvqesg","pricing_plan_id":"cebpf4jnsgd1na2vs0mg"},{"bike_id":"7f89b812-16cb-4135-bc5f-efa2b244ec26","system_id":"levelo_inurba_marseille","lat":43.2655,"lon":5.37284,"is_reserved":false,"is_disabled":true,"rental_uris":{"android":"levelo://app?vid=7f89b812-16cb-4135-bc5f-efa2b244ec26","ios":"levelo://app?vid=7f89b812-16cb-4135-bc5f-efa2b244ec26"},"vehicle_type_id":"4","last_reported":1732605012,"current_range_meters":32800,"station_id":"ce4bhg12rcd13ifvqf70","pricing_plan_id":"cebpf4jnsgd1na2vs0mg"},{"bike_id":"32c1e5f9-1fbd-4ac3-811a-d0ebf4b0f8e7","system_id":"levelo_inurba_marseille","lat":43.31485,"lon":5.37314,"is_reserved":false,"is_disabled":false,"rental_uris":{"android":"levelo://app?vid=32c1e5f9-1fbd-4ac3-811a-d0ebf4b0f8e7","ios":"levelo://app?vid=32c1e5f9-1fbd-4ac3-811a-d0ebf4b0f8e7"},"vehicle_type_id":"4","last_reported":1732605012,"current_range_meters":36800,"station_id":"ce4bgt12rcd13ifvqcd0","pricing_plan_id":"cebpf4jnsgd1na2vs0mg"},{"bike_id":"f5658b6b-05db-4270-b5a2-b12a283db2c3","system_id":"levelo_inurba_marseille","lat":43.32282,"lon":5.38292,"is_reserved":false,"is_disabled":false,"rental_uris":{"android":"levelo://app?vid=f5658b6b-05db-4270-b5a2-b12a283db2c3","ios":"levelo://app?vid=f5658b6b-05db-4270-b5a2-b12a283db2c3"},"vehicle_type_id":"4","last_reported":1732605012,"current_range_meters":38400,"station_id":"ce4bhr12rcd13ifvqhqg","pricing_plan_id":"cebpf4jnsgd1na2vs0mg"},{"bike_id":"be196a87-362f-4bbc-91cc-61d62d3179c7","system_id":"levelo_inurba_marseille","lat":43.26569,"lon":5.39013,"is_reserved":false,"is_disabled":false,"rental_uris":{"android":"levelo://app?vid=be196a87-362f-4bbc-91cc-61d62d3179c7","ios":"levelo://app?vid=be196a87-362f-4bbc-91cc-61d62d3179c7"},"vehicle_type_id":"4","last_reported":1732605012,"current_range_meters":11600,"station_id":"ce4bhe12rcd13ifvqf30","pricing_plan_id":"cebpf4jnsgd1na2vs0mg"},{"bike_id":"4ec0cf9e-acec-42dc-a4d1-2aeda856a839","system_id":"levelo_inurba_marseille","lat":43.30911,"lon":5.36857,"is_reserved":false,"is_disabled":false,"rental_uris":{"android":"levelo://app?vid=4ec0cf9e-acec-42dc-a4d1-2aeda856a839","ios":"levelo://app?vid=4ec0cf9e-acec-42dc-a4d1-2aeda856a839"},"vehicle_type_id":"4","last_reported":1732605012,"current_range_meters":32400,"station_id":"ce4bgn92rcd13ifvqbvg","pricing_plan_id":"cebpf4jnsgd1na2vs0mg"},{"bike_id":"a5909545-3e09-4859-9fda-9ffe4e6e4883","system_id":"levelo_inurba_marseille","lat":43.23065,"lon":5.35491,"is_reserved":false,"is_disabled":false,"rental_uris":{"android":"levelo://app?vid=a5909545-3e09-4859-9fda-9ffe4e6e4883","ios":"levelo://app?vid=a5909545-3e09-4859-9fda-9ffe4e6e4883"},"vehicle_type_id":"4","last_reported":1732605012,"current_range_meters":32800,"station_id":"cpo3342slgdg3j2ifvpg","pricing_plan_id":"cebpf4jnsgd1na2vs0mg"},{"bike_id":"70c3ee7d-a381-4c18-bd1a-20f27c8a88ed","system_id":"levelo_inurba_marseille","lat":43.27309,"lon":5.39134,"is_reserved":false,"is_disabled":false,"rental_uris":{"android":"levelo://app?vid=70c3ee7d-a381-4c18-bd1a-20f27c8a88ed","ios":"levelo://app?vid=70c3ee7d-a381-4c18-bd1a-20f27c8a88ed"},"vehicle_type_id":"4","last_reported":1732605012,"current_range_meters":38000,"station_id":"ce4bhgp2rcd13ifvqfe0","pricing_plan_id":"cebpf4jnsgd1na2vs0mg"},{"bike_id":"17b75900-f488-4de2-9e90-fbc8595d61ee","system_id":"levelo_inurba_marseille","lat":43.30485,"lon":5.37913,"is_reserved":false,"is_disabled":false,"rental_uris":{"android":"levelo://app?vid=17b75900-f488-4de2-9e90-fbc8595d61ee","ios":"levelo://app?vid=17b75900-f488-4de2-9e90-fbc8595d61ee"},"vehicle_type_id":"4","last_reported":1732605012,"current_range_meters":38800,"station_id":"ce4bgup2rcd13ifvqcn0","pricing_plan_id":"cebpf4jnsgd1na2vs0mg"},{"bike_id":"0e3841e7-049e-435a-ba83-2b896bfdb681","system_id":"levelo_inurba_marseille","lat":43.27941,"lon":5.41067,"is_reserved":false,"is_disabled":false,"rental_uris":{"android":"levelo://app?vid=0e3841e7-049e-435a-ba83-2b896bfdb681","ios":"levelo://app?vid=0e3841e7-049e-435a-ba83-2b896bfdb681"},"vehicle_type_id":"4","last_reported":1732605012,"current_range_meters":36400,"station_id":"ce4bhnp2rcd13ifvqh0g","pricing_plan_id":"cebpf4jnsgd1na2vs0mg"},{"bike_id":"180ea579-2742-49ec-b146-86e37413e735","system_id":"levelo_inurba_marseille","lat":43.31759,"lon":5.39021,"is_reserved":false,"is_disabled":false,"rental_uris":{"android":"levelo://app?vid=180ea579-2742-49ec-b146-86e37413e735","ios":"levelo://app?vid=180ea579-2742-49ec-b146-86e37413e735"},"vehicle_type_id":"4","last_reported":1732605012,"current_range_meters":34000,"station_id":"ce4bhqp2rcd13ifvqhng","pricing_plan_id":"cebpf4jnsgd1na2vs0mg"},{"bike_id":"d32e419a-46a3-4050-be6a-d2a299ac411f","system_id":"levelo_inurba_marseille","lat":43.2931,"lon":5.37184,"is_reserved":false,"is_disabled":true,"rental_uris":{"android":"levelo://app?vid=d32e419a-46a3-4050-be6a-d2a299ac411f","ios":"levelo://app?vid=d32e419a-46a3-4050-be6a-d2a299ac411f"},"vehicle_type_id":"4","last_reported":1732605012,"current_range_meters":23200,"station_id":"ce4bgh92rcd13ifvqb40","pricing_plan_id":"cebpf4jnsgd1na2vs0mg"},{"bike_id":"e55cb847-ae27-4fbd-b24c-f65df0e27256","system_id":"levelo_inurba_marseille","lat":43.28043,"lon":5.36945,"is_reserved":false,"is_disabled":true,"rental_uris":{"android":"levelo://app?vid=e55cb847-ae27-4fbd-b24c-f65df0e27256","ios":"levelo://app?vid=e55cb847-ae27-4fbd-b24c-f65df0e27256"},"vehicle_type_id":"4","last_reported":1732605012,"current_range_meters":26800,"station_id":"ce4bha12rcd13ifvqef0","pricing_plan_id":"cebpf4jnsgd1na2vs0mg"},{"bike_id":"bdcaac5a-04e1-44a7-a5fc-d9663817d6de","system_id":"levelo_inurba_marseille","lat":43.30157,"lon":5.38062,"is_reserved":false,"is_disabled":false,"rental_uris":{"android":"levelo://app?vid=bdcaac5a-04e1-44a7-a5fc-d9663817d6de","ios":"levelo://app?vid=bdcaac5a-04e1-44a7-a5fc-d9663817d6de"},"vehicle_type_id":"4","last_reported":1732605012,"current_range_meters":38400,"station_id":"ce4bgjp2rcd13ifvqbh0","pricing_plan_id":"cebpf4jnsgd1na2vs0mg"},{"bike_id":"e5951ee3-4a5a-4ebb-b469-096c5188dfa3","system_id":"levelo_inurba_marseille","lat":43.231873,"lon":5.355609,"is_reserved":false,"is_disabled":false,"rental_uris":{"android":"levelo://app?vid=e5951ee3-4a5a-4ebb-b469-096c5188dfa3","ios":"levelo://app?vid=e5951ee3-4a5a-4ebb-b469-096c5188dfa3"},"vehicle_type_id":"4","last_reported":1732605012,"current_range_meters":36800,"station_id":"ce4bhu92rcd13ifvqi70","pricing_plan_id":"cebpf4jnsgd1na2vs0mg"},{"bike_id":"22a5932f-61b7-4a58-8e7b-462f4d7b187a","system_id":"levelo_inurba_marseille","lat":43.29274,"lon":5.40116,"is_reserved":false,"is_disabled":false,"rental_uris":{"android":"levelo://app?vid=22a5932f-61b7-4a58-8e7b-462f4d7b187a","ios":"levelo://app?vid=22a5932f-61b7-4a58-8e7b-462f4d7b187a"},"vehicle_type_id":"4","last_reported":1732605012,"current_range_meters":14000,"station_id":"ce4bh312rcd13ifvqdk0","pricing_plan_id":"cebpf4jnsgd1na2vs0mg"},{"bike_id":"1ab7ace1-698f-40be-80a7-d6d8f7ff6b55","system_id":"levelo_inurba_marseille","lat":43.30246,"lon":5.40077,"is_reserved":false,"is_disabled":false,"rental_uris":{"android":"levelo://app?vid=1ab7ace1-698f-40be-80a7-d6d8f7ff6b55","ios":"levelo://app?vid=1ab7ace1-698f-40be-80a7-d6d8f7ff6b55"},"vehicle_type_id":"4","last_reported":1732605012,"current_range_meters":35600,"station_id":"ce4bgvh2rcd13ifvqcs0","pricing_plan_id":"cebpf4jnsgd1na2vs0mg"},{"bike_id":"ec2784af-2a59-4a4b-9888-bc06c45e7d3e","system_id":"levelo_inurba_marseille","lat":43.25111,"lon":5.40324,"is_reserved":false,"is_disabled":true,"rental_uris":{"android":"levelo://app?vid=ec2784af-2a59-4a4b-9888-bc06c45e7d3e","ios":"levelo://app?vid=ec2784af-2a59-4a4b-9888-bc06c45e7d3e"},"vehicle_type_id":"4","last_reported":1732605012,"current_range_meters":8800,"station_id":"ce4bhlh2rcd13ifvqgig","pricing_plan_id":"cebpf4jnsgd1na2vs0mg"},{"bike_id":"f960203b-2812-45ea-87dc-fdcf497b1e15","system_id":"levelo_inurba_marseille","lat":43.281526,"lon":5.426396,"is_reserved":false,"is_disabled":false,"rental_uris":{"android":"levelo://app?vid=f960203b-2812-45ea-87dc-fdcf497b1e15","ios":"levelo://app?vid=f960203b-2812-45ea-87dc-fdcf497b1e15"},"vehicle_type_id":"4","last_reported":1732605012,"current_range_meters":27200,"station_id":"ce4bhnh2rcd13ifvqgug","pricing_plan_id":"cebpf4jnsgd1na2vs0mg"},{"bike_id":"66aad5d7-efa9-4543-8e11-bbf0af584fcf","system_id":"levelo_inurba_marseille","lat":43.278189,"lon":5.407134,"is_reserved":false,"is_disabled":true,"rental_uris":{"android":"levelo://app?vid=66aad5d7-efa9-4543-8e11-bbf0af584fcf","ios":"levelo://app?vid=66aad5d7-efa9-4543-8e11-bbf0af584fcf"},"vehicle_type_id":"4","last_reported":1732605012,"current_range_meters":38800,"station_id":"ce4bhnh2rcd13ifvqgtg","pricing_plan_id":"cebpf4jnsgd1na2vs0mg"},{"bike_id":"ef06ed7d-8d56-4313-905a-43712677992f","system_id":"levelo_inurba_marseille","lat":43.29899,"lon":5.43671,"is_reserved":false,"is_disabled":false,"rental_uris":{"android":"levelo://app?vid=ef06ed7d-8d56-4313-905a-43712677992f","ios":"levelo://app?vid=ef06ed7d-8d56-4313-905a-43712677992f"},"vehicle_type_id":"4","last_reported":1732605012,"current_range_meters":24400,"station_id":"ce4bhpp2rcd13ifvqhfg","pricing_plan_id":"cebpf4jnsgd1na2vs0mg"},{"bike_id":"6c948e9c-d5b3-4fe5-a918-1bd2f7c83b02","system_id":"levelo_inurba_marseille","lat":43.32115,"lon":5.36766,"is_reserved":false,"is_disabled":false,"rental_uris":{"android":"levelo://app?vid=6c948e9c-d5b3-4fe5-a918-1bd2f7c83b02","ios":"levelo://app?vid=6c948e9c-d5b3-4fe5-a918-1bd2f7c83b02"},"vehicle_type_id":"4","last_reported":1732605012,"current_range_meters":19600,"station_id":"ce4bhrh2rcd13ifvqhug","pricing_plan_id":"cebpf4jnsgd1na2vs0mg"},{"bike_id":"9e620abf-d324-4f99-84fc-d67e71109f2a","system_id":"levelo_inurba_marseille","lat":43.31077,"lon":5.42435,"is_reserved":false,"is_disabled":true,"rental_uris":{"android":"levelo://app?vid=9e620abf-d324-4f99-84fc-d67e71109f2a","ios":"levelo://app?vid=9e620abf-d324-4f99-84fc-d67e71109f2a"},"vehicle_type_id":"4","last_reported":1732605012,"current_range_meters":0,"station_id":"ce4bhp92rcd13ifvqhag","pricing_plan_id":"cebpf4jnsgd1na2vs0mg"},{"bike_id":"de7004a3-b7db-49aa-9067-0b6ed2338314","system_id":"levelo_inurba_marseille","lat":43.31236,"lon":5.36871,"is_reserved":false,"is_disabled":true,"rental_uris":{"android":"levelo://app?vid=de7004a3-b7db-49aa-9067-0b6ed2338314","ios":"levelo://app?vid=de7004a3-b7db-49aa-9067-0b6ed2338314"},"vehicle_type_id":"4","last_reported":1732605012,"current_range_meters":27600,"station_id":"ce4bgl92rcd13ifvqbq0","pricing_plan_id":"cebpf4jnsgd1na2vs0mg"},{"bike_id":"7c91f2ac-1dd3-428c-aafd-49def36e722e","system_id":"levelo_inurba_marseille","lat":43.3378,"lon":5.37422,"is_reserved":false,"is_disabled":false,"rental_uris":{"android":"levelo://app?vid=7c91f2ac-1dd3-428c-aafd-49def36e722e","ios":"levelo://app?vid=7c91f2ac-1dd3-428c-aafd-49def36e722e"},"vehicle_type_id":"4","last_reported":1732605012,"current_range_meters":32000,"station_id":"","pricing_plan_id":"cebpf4jnsgd1na2vs0mg"},{"bike_id":"a86ec99d-dc67-4e15-8cd3-e0660eeb823c","system_id":"levelo_inurba_marseille","lat":43.31707,"lon":5.37741,"is_reserved":false,"is_disabled":false,"rental_uris":{"android":"levelo://app?vid=a86ec99d-dc67-4e15-8cd3-e0660eeb823c","ios":"levelo://app?vid=a86ec99d-dc67-4e15-8cd3-e0660eeb823c"},"vehicle_type_id":"4","last_reported":1732605012,"current_range_meters":30800,"station_id":"ce4bgth2rcd13ifvqch0","pricing_plan_id":"cebpf4jnsgd1na2vs0mg"},{"bike_id":"5c53cfbd-2547-413a-b79a-f8cc3b1ca992","system_id":"levelo_inurba_marseille","lat":43.32114,"lon":5.36773,"is_reserved":false,"is_disabled":false,"rental_uris":{"android":"levelo://app?vid=5c53cfbd-2547-413a-b79a-f8cc3b1ca992","ios":"levelo://app?vid=5c53cfbd-2547-413a-b79a-f8cc3b1ca992"},"vehicle_type_id":"4","last_reported":1732605012,"current_range_meters":33200,"station_id":"ce4bhrh2rcd13ifvqhug","pricing_plan_id":"cebpf4jnsgd1na2vs0mg"},{"bike_id":"83d8b04f-e3b7-4bd8-902b-55fd36d0783b","system_id":"levelo_inurba_marseille","lat":43.30354,"lon":5.41876,"is_reserved":false,"is_disabled":false,"rental_uris":{"android":"levelo://app?vid=83d8b04f-e3b7-4bd8-902b-55fd36d0783b","ios":"levelo://app?vid=83d8b04f-e3b7-4bd8-902b-55fd36d0783b"},"vehicle_type_id":"4","last_reported":1732605012,"current_range_meters":34000,"station_id":"ce4bhop2rcd13ifvqh7g","pricing_plan_id":"cebpf4jnsgd1na2vs0mg"},{"bike_id":"05f71b4c-9698-4216-bddf-307b5243d0ef","system_id":"levelo_inurba_marseille","lat":43.289426,"lon":5.396326,"is_reserved":false,"is_disabled":false,"rental_uris":{"android":"levelo://app?vid=05f71b4c-9698-4216-bddf-307b5243d0ef","ios":"levelo://app?vid=05f71b4c-9698-4216-bddf-307b5243d0ef"},"vehicle_type_id":"4","last_reported":1732605012,"current_range_meters":22800,"station_id":"ce4bh3h2rcd13ifvqdn0","pricing_plan_id":"cebpf4jnsgd1na2vs0mg"},{"bike_id":"5dc4bfe0-3e56-4a61-89a7-aae943824c6a","system_id":"levelo_inurba_marseille","lat":43.28344,"lon":5.38112,"is_reserved":false,"is_disabled":false,"rental_uris":{"android":"levelo://app?vid=5dc4bfe0-3e56-4a61-89a7-aae943824c6a","ios":"levelo://app?vid=5dc4bfe0-3e56-4a61-89a7-aae943824c6a"},"vehicle_type_id":"4","last_reported":1732605012,"current_range_meters":25600,"station_id":"ce4bh412rcd13ifvqdr0","pricing_plan_id":"cebpf4jnsgd1na2vs0mg"},{"bike_id":"38797bd8-7d10-45db-8fe7-33a4bde26bc3","system_id":"levelo_inurba_marseille","lat":43.23966,"lon":5.36634,"is_reserved":false,"is_disabled":false,"rental_uris":{"android":"levelo://app?vid=38797bd8-7d10-45db-8fe7-33a4bde26bc3","ios":"levelo://app?vid=38797bd8-7d10-45db-8fe7-33a4bde26bc3"},"vehicle_type_id":"4","last_reported":1732605012,"current_range_meters":20400,"station_id":"ce4bhi12rcd13ifvqfp0","pricing_plan_id":"cebpf4jnsgd1na2vs0mg"},{"bike_id":"0d1690c4-6933-4ecf-b7e6-a5c28e8b1076","system_id":"levelo_inurba_marseille","lat":43.30908,"lon":5.36843,"is_reserved":false,"is_disabled":false,"rental_uris":{"android":"levelo://app?vid=0d1690c4-6933-4ecf-b7e6-a5c28e8b1076","ios":"levelo://app?vid=0d1690c4-6933-4ecf-b7e6-a5c28e8b1076"},"vehicle_type_id":"4","last_reported":1732605012,"current_range_meters":36400,"station_id":"ce4bgn92rcd13ifvqbvg","pricing_plan_id":"cebpf4jnsgd1na2vs0mg"},{"bike_id":"317f9bfd-51e2-4651-803b-4962286d310b","system_id":"levelo_inurba_marseille","lat":43.29801,"lon":5.38109,"is_reserved":false,"is_disabled":false,"rental_uris":{"android":"levelo://app?vid=317f9bfd-51e2-4651-803b-4962286d310b","ios":"levelo://app?vid=317f9bfd-51e2-4651-803b-4962286d310b"},"vehicle_type_id":"4","last_reported":1732605012,"current_range_meters":28000,"station_id":"ce4bgip2rcd13ifvqbb0","pricing_plan_id":"cebpf4jnsgd1na2vs0mg"},{"bike_id":"40c7ddb8-0e1a-4eb1-9e2f-d3bf1a0f9d1e","system_id":"levelo_inurba_marseille","lat":43.28267,"lon":5.35069,"is_reserved":false,"is_disabled":true,"rental_uris":{"android":"levelo://app?vid=40c7ddb8-0e1a-4eb1-9e2f-d3bf1a0f9d1e","ios":"levelo://app?vid=40c7ddb8-0e1a-4eb1-9e2f-d3bf1a0f9d1e"},"vehicle_type_id":"4","last_reported":1732605012,"current_range_meters":22400,"station_id":"ce4bhbp2rcd13ifvqerg","pricing_plan_id":"cebpf4jnsgd1na2vs0mg"},{"bike_id":"46ac22a8-6f10-4221-98a6-34eba5c97bfb","system_id":"levelo_inurba_marseille","lat":43.29188,"lon":5.37308,"is_reserved":false,"is_disabled":true,"rental_uris":{"android":"levelo://app?vid=46ac22a8-6f10-4221-98a6-34eba5c97bfb","ios":"levelo://app?vid=46ac22a8-6f10-4221-98a6-34eba5c97bfb"},"vehicle_type_id":"4","last_reported":1732605012,"current_range_meters":0,"station_id":"","pricing_plan_id":"cebpf4jnsgd1na2vs0mg"},{"bike_id":"5846e7ee-045c-466d-b02c-9cd3eadc9db6","system_id":"levelo_inurba_marseille","lat":43.29191,"lon":5.35789,"is_reserved":false,"is_disabled":false,"rental_uris":{"android":"levelo://app?vid=5846e7ee-045c-466d-b02c-9cd3eadc9db6","ios":"levelo://app?vid=5846e7ee-045c-466d-b02c-9cd3eadc9db6"},"vehicle_type_id":"4","last_reported":1732605012,"current_range_meters":36400,"station_id":"ce4bhb12rcd13ifvqel0","pricing_plan_id":"cebpf4jnsgd1na2vs0mg"},{"bike_id":"bfab8c12-6f78-491f-80d1-b86e4a6c274a","system_id":"levelo_inurba_marseille","lat":43.27429,"lon":5.39426,"is_reserved":false,"is_disabled":false,"rental_uris":{"android":"levelo://app?vid=bfab8c12-6f78-491f-80d1-b86e4a6c274a","ios":"levelo://app?vid=bfab8c12-6f78-491f-80d1-b86e4a6c274a"},"vehicle_type_id":"4","last_reported":1732605012,"current_range_meters":33200,"station_id":"ce4bhdp2rcd13ifvqf20","pricing_plan_id":"cebpf4jnsgd1na2vs0mg"},{"bike_id":"a7c23f18-f635-4a80-b8ec-bf009a22a27c","system_id":"levelo_inurba_marseille","lat":43.2656,"lon":5.39019,"is_reserved":false,"is_disabled":false,"rental_uris":{"android":"levelo://app?vid=a7c23f18-f635-4a80-b8ec-bf009a22a27c","ios":"levelo://app?vid=a7c23f18-f635-4a80-b8ec-bf009a22a27c"},"vehicle_type_id":"4","last_reported":1732605012,"current_range_meters":38400,"station_id":"ce4bhe12rcd13ifvqf30","pricing_plan_id":"cebpf4jnsgd1na2vs0mg"},{"bike_id":"43746d86-8a13-4845-9faf-ae69b548d714","system_id":"levelo_inurba_marseille","lat":43.29459,"lon":5.37917,"is_reserved":false,"is_disabled":true,"rental_uris":{"android":"levelo://app?vid=43746d86-8a13-4845-9faf-ae69b548d714","ios":"levelo://app?vid=43746d86-8a13-4845-9faf-ae69b548d714"},"vehicle_type_id":"4","last_reported":1732605012,"current_range_meters":0,"station_id":"","pricing_plan_id":"cebpf4jnsgd1na2vs0mg"},{"bike_id":"7317920e-5975-4c67-a891-63736e89f140","system_id":"levelo_inurba_marseille","lat":43.29274,"lon":5.36786,"is_reserved":false,"is_disabled":true,"rental_uris":{"android":"levelo://app?vid=7317920e-5975-4c67-a891-63736e89f140","ios":"levelo://app?vid=7317920e-5975-4c67-a891-63736e89f140"},"vehicle_type_id":"4","last_reported":1732605012,"current_range_meters":20000,"station_id":"","pricing_plan_id":"cebpf4jnsgd1na2vs0mg"},{"bike_id":"e379a956-5754-438c-a6ee-4f17caa89d66","system_id":"levelo_inurba_marseille","lat":43.23957,"lon":5.36646,"is_reserved":false,"is_disabled":false,"rental_uris":{"android":"levelo://app?vid=e379a956-5754-438c-a6ee-4f17caa89d66","ios":"levelo://app?vid=e379a956-5754-438c-a6ee-4f17caa89d66"},"vehicle_type_id":"4","last_reported":1732605012,"current_range_meters":38800,"station_id":"ce4bhi12rcd13ifvqfp0","pricing_plan_id":"cebpf4jnsgd1na2vs0mg"},{"bike_id":"a2b09865-004d-45eb-b301-cf3640220a72","system_id":"levelo_inurba_marseille","lat":43.29605,"lon":5.38105,"is_reserved":false,"is_disabled":true,"rental_uris":{"android":"levelo://app?vid=a2b09865-004d-45eb-b301-cf3640220a72","ios":"levelo://app?vid=a2b09865-004d-45eb-b301-cf3640220a72"},"vehicle_type_id":"4","last_reported":1732605012,"current_range_meters":0,"station_id":"ce4bgl12rcd13ifvqbo0","pricing_plan_id":"cebpf4jnsgd1na2vs0mg"},{"bike_id":"62820653-d4bc-4fa4-93f8-e539cf2d4c33","system_id":"levelo_inurba_marseille","lat":43.30591,"lon":5.39354,"is_reserved":false,"is_disabled":false,"rental_uris":{"android":"levelo://app?vid=62820653-d4bc-4fa4-93f8-e539cf2d4c33","ios":"levelo://app?vid=62820653-d4bc-4fa4-93f8-e539cf2d4c33"},"vehicle_type_id":"4","last_reported":1732605012,"current_range_meters":16400,"station_id":"ce4bh0p2rcd13ifvqd80","pricing_plan_id":"cebpf4jnsgd1na2vs0mg"},{"bike_id":"f971abee-70f8-43dc-afe4-4050ccc8c3f7","system_id":"levelo_inurba_marseille","lat":43.25863,"lon":5.39948,"is_reserved":false,"is_disabled":true,"rental_uris":{"android":"levelo://app?vid=f971abee-70f8-43dc-afe4-4050ccc8c3f7","ios":"levelo://app?vid=f971abee-70f8-43dc-afe4-4050ccc8c3f7"},"vehicle_type_id":"4","last_reported":1732605012,"current_range_meters":37600,"station_id":"ce4bhl92rcd13ifvqghg","pricing_plan_id":"cebpf4jnsgd1na2vs0mg"},{"bike_id":"653ddf1e-a682-49db-9ca8-05f90528a1f1","system_id":"levelo_inurba_marseille","lat":43.30543,"lon":5.38368,"is_reserved":false,"is_disabled":true,"rental_uris":{"android":"levelo://app?vid=653ddf1e-a682-49db-9ca8-05f90528a1f1","ios":"levelo://app?vid=653ddf1e-a682-49db-9ca8-05f90528a1f1"},"vehicle_type_id":"4","last_reported":1732605012,"current_range_meters":0,"station_id":"ce4bgg92rcd13ifvqb30","pricing_plan_id":"cebpf4jnsgd1na2vs0mg"},{"bike_id":"14bd5244-1d0a-44fa-b41c-c8b57d73ed9d","system_id":"levelo_inurba_marseille","lat":43.30913,"lon":5.36853,"is_reserved":false,"is_disabled":false,"rental_uris":{"android":"levelo://app?vid=14bd5244-1d0a-44fa-b41c-c8b57d73ed9d","ios":"levelo://app?vid=14bd5244-1d0a-44fa-b41c-c8b57d73ed9d"},"vehicle_type_id":"4","last_reported":1732605012,"current_range_meters":35200,"station_id":"ce4bgn92rcd13ifvqbvg","pricing_plan_id":"cebpf4jnsgd1na2vs0mg"},{"bike_id":"d924f497-d38e-4636-9cb9-ed9c562d6d48","system_id":"levelo_inurba_marseille","lat":43.24075,"lon":5.37763,"is_reserved":false,"is_disabled":false,"rental_uris":{"android":"levelo://app?vid=d924f497-d38e-4636-9cb9-ed9c562d6d48","ios":"levelo://app?vid=d924f497-d38e-4636-9cb9-ed9c562d6d48"},"vehicle_type_id":"4","last_reported":1732605012,"current_range_meters":8000,"station_id":"ce4bhnp2rcd13ifvqgvg","pricing_plan_id":"cebpf4jnsgd1na2vs0mg"},{"bike_id":"f3965ae2-0ab2-4f92-a0f8-1dda63bb0fb8","system_id":"levelo_inurba_marseille","lat":43.24395,"lon":5.37079,"is_reserved":false,"is_disabled":false,"rental_uris":{"android":"levelo://app?vid=f3965ae2-0ab2-4f92-a0f8-1dda63bb0fb8","ios":"levelo://app?vid=f3965ae2-0ab2-4f92-a0f8-1dda63bb0fb8"},"vehicle_type_id":"4","last_reported":1732605012,"current_range_meters":37600,"station_id":"ce4bhhh2rcd13ifvqfk0","pricing_plan_id":"cebpf4jnsgd1na2vs0mg"},{"bike_id":"72fb82a7-c345-44fb-aaec-e1e1b258c57f","system_id":"levelo_inurba_marseille","lat":43.30325,"lon":5.40439,"is_reserved":false,"is_disabled":false,"rental_uris":{"android":"levelo://app?vid=72fb82a7-c345-44fb-aaec-e1e1b258c57f","ios":"levelo://app?vid=72fb82a7-c345-44fb-aaec-e1e1b258c57f"},"vehicle_type_id":"4","last_reported":1732605012,"current_range_meters":27200,"station_id":"ce4bh012rcd13ifvqd10","pricing_plan_id":"cebpf4jnsgd1na2vs0mg"},{"bike_id":"b9c2695d-397d-42b8-9037-6ec935848cb0","system_id":"levelo_inurba_marseille","lat":43.292807,"lon":5.401216,"is_reserved":false,"is_disabled":true,"rental_uris":{"android":"levelo://app?vid=b9c2695d-397d-42b8-9037-6ec935848cb0","ios":"levelo://app?vid=b9c2695d-397d-42b8-9037-6ec935848cb0"},"vehicle_type_id":"4","last_reported":1732605012,"current_range_meters":0,"station_id":"ce4bh312rcd13ifvqdk0","pricing_plan_id":"cebpf4jnsgd1na2vs0mg"},{"bike_id":"78922ddc-8c95-470c-86c3-cc659680d91d","system_id":"levelo_inurba_marseille","lat":43.23191,"lon":5.35563,"is_reserved":false,"is_disabled":false,"rental_uris":{"android":"levelo://app?vid=78922ddc-8c95-470c-86c3-cc659680d91d","ios":"levelo://app?vid=78922ddc-8c95-470c-86c3-cc659680d91d"},"vehicle_type_id":"4","last_reported":1732605012,"current_range_meters":26000,"station_id":"ce4bhu92rcd13ifvqi70","pricing_plan_id":"cebpf4jnsgd1na2vs0mg"},