{"last_updated":1740647406,"ttl":60,"version":"2.2","data":{"bikes":[{"bike_id":"67fb0d9f-e65a-48ec-939c-f8877b05448c","system_id":"levelo_inurba_marseille","lat":43.30568,"lon":5.36702,"is_reserved":false,"is_disabled":false,"rental_uris":{"android":"levelo://app?vid=67fb0d9f-e65a-48ec-939c-f8877b05448c","ios":"levelo://app?vid=67fb0d9f-e65a-48ec-939c-f8877b05448c"},"vehicle_type_id":"4","last_reported":1740647407,"current_range_meters":2800,"station_id":"ce4bgrp2rcd13ifvqc9g","pricing_plan_id":"cebpf4jnsgd1na2vs0mg"},{"bike_id":"77d72656-ec37-44f1-ab2b-c05ee9e3e3e9","system_id":"levelo_inurba_marseille","lat":43.29266,"lon":5.37559,"is_reserved":false,"is_disabled":false,"rental_uris":{"android":"levelo://app?vid=77d72656-ec37-44f1-ab2b-c05ee9e3e3e9","ios":"levelo://app?vid=77d72656-ec37-44f1-ab2b-c05ee9e3e3e9"},"vehicle_type_id":"4","last_reported":1740647407,"current_range_meters":2800,"station_id":"","pricing_plan_id":"cebpf4jnsgd1na2vs0mg"},{"bike_id":"0f6cc788-d0d0-4e86-99e9-c0d499902d7c","system_id":"levelo_inurba_marseille","lat":43.2944,"lon":5.39749,"is_reserved":false,"is_disabled":false,"rental_uris":{"android":"levelo://app?vid=0f6cc788-d0d0-4e86-99e9-c0d499902d7c","ios":"levelo://app?vid=0f6cc788-d0d0-4e86-99e9-c0d499902d7c"},"vehicle_type_id":"4","last_reported":1740647407,"current_range_meters":2800,"station_id":"ce4bh3h2rcd13ifvqdo0","pricing_plan_id":"cebpf4jnsgd1na2vs0mg"},{"bike_id":"e1df8887-57bd-458a-b049-5160ff90d97b","system_id":"levelo_inurba_marseille","lat":43.26948,"lon":5.3862,"is_reserved":false,"is_disabled":false,"rental_uris":{"android":"levelo://app?vid=e1df8887-57bd-458a-b049-5160ff90d97b","ios":"levelo://app?vid=e1df8887-57bd-458a-b049-5160ff90d97b"},"vehicle_type_id":"4","last_reported":1740647407,"current_range_meters":3200,"station_id":"ce4bhh92rcd13ifvqfh0","pricing_plan_id":"cebpf4jnsgd1na2vs0mg"},{"bike_id":"26f59472-0ab2-4e36-ba1c-28ed8253e740","system_id":"levelo_inurba_marseille","lat":43.27497,"lon":5.42461,"is_reserved":false,"is_disabled":false,"rental_uris":{"android":"levelo://app?vid=26f59472-0ab2-4e36-ba1c-28ed8253e740","ios":"levelo://app?vid=26f59472-0ab2-4e36-ba1c-28ed8253e740"},"vehicle_type_id":"4","last_reported":1740647407,"current_range_meters":3200,"station_id":"ce4bhn92rcd13ifvqgrg","pricing_plan_id":"cebpf4jnsgd1na2vs0mg"},{"bike_id":"454d2af4-b2d3-4bfb-b1d4-78b7a0e2e0c4","system_id":"levelo_inurba_marseille","lat":43.25117,"lon":5.4032,"is_reserved":false,"is_disabled":false,"rental_uris":{"android":"levelo://app?vid=454d2af4-b2d3-4bfb-b1d4-78b7a0e2e0c4","ios":"levelo://app?vid=454d2af4-b2d3-4bfb-b1d4-78b7a0e2e0c4"},"vehicle_type_id":"4","last_reported":1740647407,"current_range_meters":3200,"station_id":"ce4bhlh2rcd13ifvqgig","pricing_plan_id":"cebpf4jnsgd1na2vs0mg"},{"bike_id":"f71ae6e7-c012-4c0a-88e1-9e49fb16c718","system_id":"levelo_inurba_marseille","lat":43.30954,"lon":5.39036,"is_reserved":false,"is_disabled":false,"rental_uris":{"android":"levelo://app?vid=f71ae6e7-c012-4c0a-88e1-9e49fb16c718","ios":"levelo://app?vid=f71ae6e7-c012-4c0a-88e1-9e49fb16c718"},"vehicle_type_id":"4","last_reported":1740647407,"current_range_meters":3200,"station_id":"ce4bgup2rcd13ifvqco0","pricing_plan_id":"cebpf4jnsgd1na2vs0mg"},{"bike_id":"39c490fa-7a92-47db-bc32-fe7f8b3890e2","system_id":"levelo_inurba_marseille","lat":43.29268,"lon":5.36858,"is_reserved":false,"is_disabled":false,"rental_uris":{"android":"levelo://app?vid=39c490fa-7a92-47db-bc32-fe7f8b3890e2","ios":"levelo://app?vid=39c490fa-7a92-47db-bc32-fe7f8b3890e2"},"vehicle_type_id":"4","last_reported":1740647407,"current_range_meters":3200,"station_id":"ce4bhbp2rcd13ifvqesg","pricing_plan_id":"cebpf4jnsgd1na2vs0mg"},{"bike_id":"52d5ee79-d525-4b01-bacf-7296a60a754c","system_id":"levelo_inurba_marseille","lat":43.26207,"lon":5.3793,"is_reserved":false,"is_disabled":false,"rental_uris":{"android":"levelo://app?vid=52d5ee79-d525-4b01-bacf-7296a60a754c","ios":"levelo://app?vid=52d5ee79-d525-4b01-bacf-7296a60a754c"},"vehicle_type_id":"4","last_reported":1740647407,"current_range_meters":3200,"station_id":"ce4bhjp2rcd13ifvqg90","pricing_plan_id":"cebpf4jnsgd1na2vs0mg"},{"bike_id":"fe31a2c1-7438-4f8d-84af-a0ba63e41e52","system_id":"levelo_inurba_marseille","lat":43.279462,"lon":5.410501,"is_reserved":false,"is_disabled":false,"rental_uris":{"android":"levelo://app?vid=fe31a2c1-7438-4f8d-84af-a0ba63e41e52","ios":"levelo://app?vid=fe31a2c1-7438-4f8d-84af-a0ba63e41e52"},"vehicle_type_id":"4","last_reported":1740647407,"current_range_meters":3600,"station_id":"ce4bhnp2rcd13ifvqh0g","pricing_plan_id":"cebpf4jnsgd1na2vs0mg"},{"bike_id":"bd10b7cf-bdb7-4def-ac09-c6e9c328c697","system_id":"levelo_inurba_marseille","lat":43.31234,"lon":5.36877,"is_reserved":false,"is_disabled":false,"rental_uris":{"android":"levelo://app?vid=bd10b7cf-bdb7-4def-ac09-c6e9c328c697","ios":"levelo://app?vid=bd10b7cf-bdb7-4def-ac09-c6e9c328c697"},"vehicle_type_id":"4","last_reported":1740647407,"current_range_meters":3600,"station_id":"ce4bgl92rcd13ifvqbq0","pricing_plan_id":"cebpf4jnsgd1na2vs0mg"},{"bike_id":"d6f2517a-d7cb-4654-8976-90e0e6d3745a","system_id":"levelo_inurba_marseille","lat":43.30954,"lon":5.39038,"is_reserved":false,"is_disabled":false,"rental_uris":{"android":"levelo://app?vid=d6f2517a-d7cb-4654-8976-90e0e6d3745a","ios":"levelo://app?vid=d6f2517a-d7cb-4654-8976-90e0e6d3745a"},"vehicle_type_id":"4","last_reported":1740647407,"current_range_meters":3600,"station_id":"ce4bgup2rcd13ifvqco0","pricing_plan_id":"cebpf4jnsgd1na2vs0mg"},{"bike_id":"3f43ae96-be01-45ae-bb0d-8031a591d62d","system_id":"levelo_inurba_marseille","lat":43.28938,"lon":5.36639,"is_reserved":false,"is_disabled":false,"rental_uris":{"android":"levelo://app?vid=3f43ae96-be01-45ae-bb0d-8031a591d62d","ios":"levelo://app?vid=3f43ae96-be01-45ae-bb0d-8031a591d62d"},"vehicle_type_id":"4","last_reported":1740647407,"current_range_meters":4000,"station_id":"ce4bhap2rcd13ifvqek0","pricing_plan_id":"cebpf4jnsgd1na2vs0mg"},{"bike_id":"77bfe098-61b1-4714-94fd-ca85a31366fc","system_id":"levelo_inurba_marseille","lat":43.27366,"lon":5.39104,"is_reserved":false,"is_disabled":false,"rental_uris":{"android":"levelo://app?vid=77bfe098-61b1-4714-94fd-ca85a31366fc","ios":"levelo://app?vid=77bfe098-61b1-4714-94fd-ca85a31366fc"},"vehicle_type_id":"4","last_reported":1740647407,"current_range_meters":4000,"station_id":"","pricing_plan_id":"cebpf4jnsgd1na2vs0mg"},{"bike_id":"250d82fc-e5cd-4c16-ae03-955bf9644afe","system_id":"levelo_inurba_marseille","lat":43.24079,"lon":5.37756,"is_reserved":false,"is_disabled":false,"rental_uris":{"android":"levelo://app?vid=250d82fc-e5cd-4c16-ae03-955bf9644afe","ios":"levelo://app?vid=250d82fc-e5cd-4c16-ae03-955bf9644afe"},"vehicle_type_id":"4","last_reported":1740647407,"current_range_meters":4400,"station_id":"ce4bhnp2rcd13ifvqgvg","pricing_plan_id":"cebpf4jnsgd1na2vs0mg"},{"bike_id":"7b3b15f1-b7d5-44f6-8334-dc7755c96791","system_id":"levelo_inurba_marseille","lat":43.24073,"lon":5.37762,"is_reserved":false,"is_disabled":false,"rental_uris":{"android":"levelo://app?vid=7b3b15f1-b7d5-44f6-8334-dc7755c96791","ios":"levelo://app?vid=7b3b15f1-b7d5-44f6-8334-dc7755c96791"},"vehicle_type_id":"4","last_reported":1740647407,"current_range_meters":4400,"station_id":"ce4bhnp2rcd13ifvqgvg","pricing_plan_id":"cebpf4jnsgd1na2vs0mg"},{"bike_id":"8254c78c-2d41-42ec-a4db-9abe747fb197","system_id":"levelo_inurba_marseille","lat":43.29792,"lon":5.38108,"is_reserved":false,"is_disabled":false,"rental_uris":{"android":"levelo://app?vid=8254c78c-2d41-42ec-a4db-9abe747fb197","ios":"levelo://app?vid=8254c78c-2d41-42ec-a4db-9abe747fb197"},"vehicle_type_id":"4","last_reported":1740647407,"current_range_meters":4400,"station_id":"ce4bgip2rcd13ifvqbb0","pricing_plan_id":"cebpf4jnsgd1na2vs0mg"},{"bike_id":"b98ba550-672e-40a9-81e3-548852fe7589","system_id":"levelo_inurba_marseille","lat":43.31696,"lon":5.40474,"is_reserved":false,"is_disabled":false,"rental_uris":{"android":"levelo://app?vid=b98ba550-672e-40a9-81e3-548852fe7589","ios":"levelo://app?vid=b98ba550-672e-40a9-81e3-548852fe7589"},"vehicle_type_id":"4","last_reported":1740647407,"current_range_meters":4800,"station_id":"ce4bh012rcd13ifvqd00","pricing_plan_id":"cebpf4jnsgd1na2vs0mg"},{"bike_id":"c66c0356-cd17-4ad9-a007-6471f75bbd46","system_id":"levelo_inurba_marseille","lat":43.28362,"lon":5.38115,"is_reserved":false,"is_disabled":false,"rental_uris":{"android":"levelo://app?vid=c66c0356-cd17-4ad9-a007-6471f75bbd46","ios":"levelo://app?vid=c66c0356-cd17-4ad9-a007-6471f75bbd46"},"vehicle_type_id":"4","last_reported":1740647407,"current_range_meters":4800,"station_id":"ce4bh412rcd13ifvqdr0","pricing_plan_id":"cebpf4jnsgd1na2vs0mg"},{"bike_id":"ff4b3544-6ee2-4290-9c16-af3c2756ccd0","system_id":"levelo_inurba_marseille","lat":43.29878,"lon":5.39735,"is_reserved":false,"is_disabled":false,"rental_uris":{"android":"levelo://app?vid=ff4b3544-6ee2-4290-9c16-af3c2756ccd0","ios":"levelo://app?vid=ff4b3544-6ee2-4290-9c16-af3c2756ccd0"},"vehicle_type_id":"4","last_reported":1740647407,"current_range_meters":4800,"station_id":"ce4bh0h2rcd13ifvqd50","pricing_plan_id":"cebpf4jnsgd1na2vs0mg"},{"bike_id":"b5368874-e19e-4e33-8e44-b3ac25e43af6","system_id":"levelo_inurba_marseille","lat":43.31314,"lon":5.37082,"is_reserved":false,"is_disabled":false,"rental_uris":{"android":"levelo://app?vid=b5368874-e19e-4e33-8e44-b3ac25e43af6","ios":"levelo://app?vid=b5368874-e19e-4e33-8e44-b3ac25e43af6"},"vehicle_type_id":"4","last_reported":1740647407,"current_range_meters":4800,"station_id":"","pricing_plan_id":"cebpf4jnsgd1na2vs0mg"},{"bike_id":"9d1050b4-b686-4457-bbe8-f7f121788d0c","system_id":"levelo_inurba_marseille","lat":43.26691,"lon":5.38278,"is_reserved":false,"is_disabled":false,"rental_uris":{"android":"levelo://app?vid=9d1050b4-b686-4457-bbe8-f7f121788d0c","ios":"levelo://app?vid=9d1050b4-b686-4457-bbe8-f7f121788d0c"},"vehicle_type_id":"4","last_reported":1740647407,"current_range_meters":4800,"station_id":"ce4bhg92rcd13ifvqf90","pricing_plan_id":"cebpf4jnsgd1na2vs0mg"},{"bike_id":"590fd91f-447d-49fc-a9a5-5d0d81b4c6be","system_id":"levelo_inurba_marseille","lat":43.2408,"lon":5.37755,"is_reserved":false,"is_disabled":false,"rental_uris":{"android":"levelo://app?vid=590fd91f-447d-49fc-a9a5-5d0d81b4c6be","ios":"levelo://app?vid=590fd91f-447d-49fc-a9a5-5d0d81b4c6be"},"vehicle_type_id":"4","last_reported":1740647407,"current_range_meters":4800,"station_id":"ce4bhnp2rcd13ifvqgvg","pricing_plan_id":"cebpf4jnsgd1na2vs0mg"},{"bike_id":"a0e170af-fcd5-42fd-8976-c46998f9a0b5","system_id":"levelo_inurba_marseille","lat":43.28715,"lon":5.37939,"is_reserved":false,"is_disabled":false,"rental_uris":{"android":"levelo://app?vid=a0e170af-fcd5-42fd-8976-c46998f9a0b5","ios":"levelo://app?vid=a0e170af-fcd5-42fd-8976-c46998f9a0b5"},"vehicle_type_id":"4","last_reported":1740647407,"current_range_meters":5600,"station_id":"ce4bh9p2rcd13ifvqec0","pricing_plan_id":"cebpf4jnsgd1na2vs0mg"},{"bike_id":"bb03c98f-0d3d-4ab0-9cc9-d935bf751f15","system_id":"levelo_inurba_marseille","lat":43.2419,"lon":5.39745,"is_reserved":false,"is_disabled":false,"rental_uris":{"android":"levelo://app?vid=bb03c98f-0d3d-4ab0-9cc9-d935bf751f15","ios":"levelo://app?vid=bb03c98f-0d3d-4ab0-9cc9-d935bf751f15"},"vehicle_type_id":"4","last_reported":1740647407,"current_range_meters":4800,"station_id":"ce4bhn12rcd13ifvqgpg","pricing_plan_id":"cebpf4jnsgd1na2vs0mg"},{"bike_id":"cd3140da-ab9b-4cce-928f-66c6f7f97d26","system_id":"levelo_inurba_marseille","lat":43.2657,"lon":5.39,"is_reserved":false,"is_disabled":false,"rental_uris":{"android":"levelo://app?vid=cd3140da-ab9b-4cce-928f-66c6f7f97d26","ios":"levelo://app?vid=cd3140da-ab9b-4cce-928f-66c6f7f97d26"},"vehicle_type_id":"4","last_reported":1740647407,"current_range_meters":5600,"station_id":"ce4bhe12rcd13ifvqf30","pricing_plan_id":"cebpf4jnsgd1na2vs0mg"},{"bike_id":"531127f1-26e0-4f49-86ad-7affec4010be","system_id":"levelo_inurba_marseille","lat":43.263031,"lon":5.374088,"is_reserved":false,"is_disabled":false,"rental_uris":{"android":"levelo://app?vid=531127f1-26e0-4f49-86ad-7affec4010be","ios":"levelo://app?vid=531127f1-26e0-4f49-86ad-7affec4010be"},"vehicle_type_id":"4","last_reported":1740647407,"current_range_meters":6000,"station_id":"ce4bhbp2rcd13ifvqerg","pricing_plan_id":"cebpf4jnsgd1na2vs0mg"},{"bike_id":"2faa601c-5287-45f0-81bc-9a7c3e362990","system_id":"levelo_inurba_marseille","lat":43.30958,"lon":5.39026,"is_reserved":false,"is_disabled":false,"rental_uris":{"android":"levelo://app?vid=2faa601c-5287-45f0-81bc-9a7c3e362990","ios":"levelo://app?vid=2faa601c-5287-45f0-81bc-9a7c3e362990"},"vehicle_type_id":"4","last_reported":1740647407,"current_range_meters":6000,"station_id":"ce4bgup2rcd13ifvqco0","pricing_plan_id":"cebpf4jnsgd1na2vs0mg"},{"bike_id":"5611c85a-53df-4678-8d1f-89eb20bc6283","system_id":"levelo_inurba_marseille","lat":43.29889,"lon":5.39748,"is_reserved":false,"is_disabled":false,"rental_uris":{"android":"levelo://app?vid=5611c85a-53df-4678-8d1f-89eb20bc6283","ios":"levelo://app?vid=5611c85a-53df-4678-8d1f-89eb20bc6283"},"vehicle_type_id":"4","last_reported":1740647407,"current_range_meters":6400,"station_id":"ce4bh0h2rcd13ifvqd50","pricing_plan_id":"cebpf4jnsgd1na2vs0mg"},{"bike_id":"9c34b086-30f7-4eba-8dc7-5d65eac78d50","system_id":"levelo_inurba_marseille","lat":43.29517,"lon":5.39405,"is_reserved":false,"is_disabled":false,"rental_uris":{"android":"levelo://app?vid=9c34b086-30f7-4eba-8dc7-5d65eac78d50","ios":"levelo://app?vid=9c34b086-30f7-4eba-8dc7-5d65eac78d50"},"vehicle_type_id":"4","last_reported":1740647407,"current_range_meters":6400,"station_id":"ce4bh292rcd13ifvqdf0","pricing_plan_id":"cebpf4jnsgd1na2vs0mg"},{"bike_id":"af37e999-d607-4f50-9b23-ad42ceb9ad74","system_id":"levelo_inurba_marseille","lat":43.30886,"lon":5.36836,"is_reserved":false,"is_disabled":false,"rental_uris":{"android":"levelo://app?vid=af37e999-d607-4f50-9b23-ad42ceb9ad74","ios":"levelo://app?vid=af37e999-d607-4f50-9b23-ad42ceb9ad74"},"vehicle_type_id":"4","last_reported":1740647407,"current_range_meters":6800,"station_id":"ce4bgn92rcd13ifvqbvg","pricing_plan_id":"cebpf4jnsgd1na2vs0mg"},{"bike_id":"9401a369-5ed4-4e78-97b8-30e66b7b2712","system_id":"levelo_inurba_marseille","lat":43.25234,"lon":5.40043,"is_reserved":false,"is_disabled":false,"rental_uris":{"android":"levelo://app?vid=9401a369-5ed4-4e78-97b8-30e66b7b2712","ios":"levelo://app?vid=9401a369-5ed4-4e78-97b8-30e66b7b2712"},"vehicle_type_id":"4","last_reported":1740647407,"current_range_meters":6400,"station_id":"","pricing_plan_id":"cebpf4jnsgd1na2vs0mg"},{"bike_id":"cad6f757-1c5d-4533-aa5b-f245a029ce60","system_id":"levelo_inurba_marseille","lat":43.31687,"lon":5.43764,"is_reserved":false,"is_disabled":false,"rental_uris":{"android":"levelo://app?vid=cad6f757-1c5d-4533-aa5b-f245a029ce60","ios":"levelo://app?vid=cad6f757-1c5d-4533-aa5b-f245a029ce60"},"vehicle_type_id":"4","last_reported":1740647407,"current_range_meters":6400,"station_id":"","pricing_plan_id":"cebpf4jnsgd1na2vs0mg"},{"bike_id":"0dcc0352-3717-4f22-a65a-a320d0beaf65","system_id":"levelo_inurba_marseille","lat":43.26933,"lon":5.40268,"is_reserved":false,"is_disabled":false,"rental_uris":{"android":"levelo://app?vid=0dcc0352-3717-4f22-a65a-a320d0beaf65","ios":"levelo://app?vid=0dcc0352-3717-4f22-a65a-a320d0beaf65"},"vehicle_type_id":"4","last_reported":1740647407,"current_range_meters":6400,"station_id":"cjm6bp8fraef2m0cb0m0","pricing_plan_id":"cebpf4jnsgd1na2vs0mg"},{"bike_id":"d9c032de-0a97-4073-8edc-b28321e51bc8","system_id":"levelo_inurba_marseille","lat":43.29025,"lon":5.38126,"is_reserved":false,"is_disabled":false,"rental_uris":{"android":"levelo://app?vid=d9c032de-0a97-4073-8edc-b28321e51bc8","ios":"levelo://app?vid=d9c032de-0a97-4073-8edc-b28321e51bc8"},"vehicle_type_id":"4","last_reported":1740647407,"current_range_meters":6000,"station_id":"ce4bh4p2rcd13ifvqe1g","pricing_plan_id":"cebpf4jnsgd1na2vs0mg"},{"bike_id":"49232403-e28a-4bf4-a836-10bb78c129b9","system_id":"levelo_inurba_marseille","lat":43.24083,"lon":5.37759,"is_reserved":false,"is_disabled":true,"rental_uris":{"android":"levelo://app?vid=49232403-e28a-4bf4-a836-10bb78c129b9","ios":"levelo://app?vid=49232403-e28a-4bf4-a836-10bb78c129b9"},"vehicle_type_id":"4","last_reported":1740647407,"current_range_meters":6800,"station_id":"ce4bhnp2rcd13ifvqgvg","pricing_plan_id":"cebpf4jnsgd1na2vs0mg"},{"bike_id":"0677888d-bbb4-4e43-955e-99e91181ed1e","system_id":"levelo_inurba_marseille","lat":43.24178,"lon":5.39731,"is_reserved":false,"is_disabled":false,"rental_uris":{"android":"levelo://app?vid=0677888d-bbb4-4e43-955e-99e91181ed1e","ios":"levelo://app?vid=0677888d-bbb4-4e43-955e-99e91181ed1e"},"vehicle_type_id":"4","last_reported":1740647407,"current_range_meters":6400,"station_id":"ce4bhn12rcd13ifvqgpg","pricing_plan_id":"cebpf4jnsgd1na2vs0mg"},{"bike_id":"6b0733fd-1d0c-4775-9171-46783099114f","system_id":"levelo_inurba_marseille","lat":43.337444,"lon":5.374475,"is_reserved":false,"is_disabled":false,"rental_uris":{"android":"levelo://app?vid=6b0733fd-1d0c-4775-9171-46783099114f","ios":"levelo://app?vid=6b0733fd-1d0c-4775-9171-46783099114f"},"vehicle_type_id":"4","last_reported":1740647407,"current_range_meters":6800,"station_id":"ce4bh0h2rcd13ifvqd50","pricing_plan_id":"cebpf4jnsgd1na2vs0mg"},{"bike_id":"2e399d0b-e76a-48f1-a4f3-27677a7c044b","system_id":"levelo_inurba_marseille","lat":43.29611,"lon":5.37718,"is_reserved":false,"is_disabled":false,"rental_uris":{"android":"levelo://app?vid=2e399d0b-e76a-48f1-a4f3-27677a7c044b","ios":"levelo://app?vid=2e399d0b-e76a-48f1-a4f3-27677a7c044b"},"vehicle_type_id":"4","last_reported":1740647407,"current_range_meters":7200,"station_id":"ce4bgi92rcd13ifvqb90","pricing_plan_id":"cebpf4jnsgd1na2vs0mg"},{"bike_id":"6b286004-f086-4023-9675-02a95f8e917b","system_id":"levelo_inurba_marseille","lat":43.30953,"lon":5.38968,"is_reserved":false,"is_disabled":true,"rental_uris":{"android":"levelo://app?vid=6b286004-f086-4023-9675-02a95f8e917b","ios":"levelo://app?vid=6b286004-f086-4023-9675-02a95f8e917b"},"vehicle_type_id":"4","last_reported":1740647407,"current_range_meters":7200,"station_id":"ce4bgup2rcd13ifvqco0","pricing_plan_id":"cebpf4jnsgd1na2vs0mg"},{"bike_id":"cc5b8803-1413-4f2d-912e-42c063433ae4","system_id":"levelo_inurba_marseille","lat":43.32107,"lon":5.36799,"is_reserved":false,"is_disabled":false,"rental_uris":{"android":"levelo://app?vid=cc5b8803-1413-4f2d-912e-42c063433ae4","ios":"levelo://app?vid=cc5b8803-1413-4f2d-912e-42c063433ae4"},"vehicle_type_id":"4","last_reported":1740647407,"current_range_meters":7200,"station_id":"ce4bhrh2rcd13ifvqhug","pricing_plan_id":"cebpf4jnsgd1na2vs0mg"},{"bike_id":"32545551-9f8e-4a9b-b7f1-c4ec1daecff6","system_id":"levelo_inurba_marseille","lat":43.25013,"lon":5.3893,"is_reserved":false,"is_disabled":false,"rental_uris":{"android":"levelo://app?vid=32545551-9f8e-4a9b-b7f1-c4ec1daecff6","ios":"levelo://app?vid=32545551-9f8e-4a9b-b7f1-c4ec1daecff6"},"vehicle_type_id":"4","last_reported":1740647407,"current_range_meters":7200,"station_id":"ce4bhgp2rcd13ifvqfd0","pricing_plan_id":"cebpf4jnsgd1na2vs0mg"},{"bike_id":"86786dac-aa53-405b-8af4-3e7fb55f4310","system_id":"levelo_inurba_marseille","lat":43.30954,"lon":5.39042,"is_reserved":false,"is_disabled":false,"rental_uris":{"android":"levelo://app?vid=86786dac-aa53-405b-8af4-3e7fb55f4310","ios":"levelo://app?vid=86786dac-aa53-405b-8af4-3e7fb55f4310"},"vehicle_type_id":"4","last_reported":1740647407,"current_range_meters":7200,"station_id":"ce4bgup2rcd13ifvqco0","pricing_plan_id":"cebpf4jnsgd1na2vs0mg"},{"bike_id":"962a768f-551a-4715-bdf7-2d5405e4118c","system_id":"levelo_inurba_marseille","lat":43.24175,"lon":5.39731,"is_reserved":false,"is_disabled":false,"rental_uris":{"android":"levelo://app?vid=962a768f-551a-4715-bdf7-2d5405e4118c","ios":"levelo://app?vid=962a768f-551a-4715-bdf7-2d5405e4118c"},"vehicle_type_id":"4","last_reported":1740647407,"current_range_meters":4400,"station_id":"ce4bhn12rcd13ifvqgpg","pricing_plan_id":"cebpf4jnsgd1na2vs0mg"},{"bike_id":"7a6030d3-1c43-4bc3-9442-5988d488f783","system_id":"levelo_inurba_marseille","lat":43.29264,"lon":5.37621,"is_reserved":false,"is_disabled":true,"rental_uris":{"android":"levelo://app?vid=7a6030d3-1c43-4bc3-9442-5988d488f783","ios":"levelo://app?vid=7a6030d3-1c43-4bc3-9442-5988d488f783"},"vehicle_type_id":"4","last_reported":1740647407,"current_range_meters":4800,"station_id":"ce4bgi12rcd13ifvqb80","pricing_plan_id":"cebpf4jnsgd1na2vs0mg"},{"bike_id":"f64b50fd-c0d3-4766-aa8c-920c7166ef73","system_id":"levelo_inurba_marseille","lat":43.31364,"lon":5.36701,"is_reserved":false,"is_disabled":false,"rental_uris":{"android":"levelo://app?vid=f64b50fd-c0d3-4766-aa8c-920c7166ef73","ios":"levelo://app?vid=f64b50fd-c0d3-4766-aa8c-920c7166ef73"},"vehicle_type_id":"4","last_reported":1740647407,"current_range_meters":5600,"station_id":"ce4bgr92rcd13ifvqc6g","pricing_plan_id":"cebpf4jnsgd1na2vs0mg"},{"bike_id":"7c62469b-5202-49e6-bba3-f619a26dfa9a","system_id":"levelo_inurba_marseille","lat":43.305419,"lon":5.367159,"is_reserved":false,"is_disabled":false,"rental_uris":{"android":"levelo://app?vid=7c62469b-5202-49e6-bba3-f619a26dfa9a","ios":"levelo://app?vid=7c62469b-5202-49e6-bba3-f619a26dfa9a"},"vehicle_type_id":"4","last_reported":1740647407,"current_range_meters":8000,"station_id":"ce4bgrp2rcd13ifvqc9g","pricing_plan_id":"cebpf4jnsgd1na2vs0mg"},{"bike_id":"524ae601-5110-41a7-a86d-4cd95b7d3f9d","system_id":"levelo_inurba_marseille","lat":43.28705,"lon":5.38684,"is_reserved":false,"is_disabled":false,"rental_uris":{"android":"levelo://app?vid=524ae601-5110-41a7-a86d-4cd95b7d3f9d","ios":"levelo://app?vid=524ae601-5110-41a7-a86d-4cd95b7d3f9d"},"vehicle_type_id":"4","last_reported":1740647407,"current_range_meters":7200,"station_id":"ce4bh492rcd13ifvqdug","pricing_plan_id":"cebpf4jnsgd1na2vs0mg"},{"bike_id":"e21e26c3-1a16-4043-9156-2eb0e36c1650","system_id":"levelo_inurba_marseille","lat":43.2958,"lon":5.37518,"is_reserved":false,"is_disabled":false,"rental_uris":{"android":"levelo://app?vid=e21e26c3-1a16-4043-9156-2eb0e36c1650","ios":"levelo://app?vid=e21e26c3-1a16-4043-9156-2eb0e36c1650"},"vehicle_type_id":"4","last_reported":1740647407,"current_range_meters":7200,"station_id":"ce4bgh92rcd13ifvqb50","pricing_plan_id":"cebpf4jnsgd1na2vs0mg"},{"bike_id":"a5a480cf-115b-4c68-8119-4a4fec5fb151","system_id":"levelo_inurba_marseille","lat":43.26954,"lon":5.38633,"is_reserved":false,"is_disabled":false,"rental_uris":{"android":"levelo://app?vid=a5a480cf-115b-4c68-8119-4a4fec5fb151","ios":"levelo://app?vid=a5a480cf-115b-4c68-8119-4a4fec5fb151"},"vehicle_type_id":"4","last_reported":1740647407,"current_range_meters":8000,"station_id":"ce4bhh92rcd13ifvqfh0","pricing_plan_id":"cebpf4jnsgd1na2vs0mg"},{"bike_id":"ea9e7997-4fab-482a-9399-62dfacc4a243","system_id":"levelo_inurba_marseille","lat":43.29873,"lon":5.39733,"is_reserved":false,"is_disabled":false,"rental_uris":{"android":"levelo://app?vid=ea9e7997-4fab-482a-9399-62dfacc4a243","ios":"levelo://app?vid=ea9e7997-4fab-482a-9399-62dfacc4a243"},"vehicle_type_id":"4","last_reported":1740647407,"current_range_meters":8000,"station_id":"ce4bh0h2rcd13ifvqd50","pricing_plan_id":"cebpf4jnsgd1na2vs0mg"},{"bike_id":"719baaea-c293-42a3-a0f8-1e9953de7b58","system_id":"levelo_inurba_marseille","lat":43.26548,"lon":5.3903,"is_reserved":false,"is_disabled":false,"rental_uris":{"android":"levelo://app?vid=719baaea-c293-42a3-a0f8-1e9953de7b58","ios":"levelo://app?vid=719baaea-c293-42a3-a0f8-1e9953de7b58"},"vehicle_type_id":"4","last_reported":1740647407,"current_range_meters":8000,"station_id":"ce4bhe12rcd13ifvqf30","pricing_plan_id":"cebpf4jnsgd1na2vs0mg"},{"bike_id":"9e431844-0850-4078-bd9c-8afc9622bd25","system_id":"levelo_inurba_marseille","lat":43.2696,"lon":5.38637,"is_reserved":false,"is_disabled":false,"rental_uris":{"android":"levelo://app?vid=9e431844-0850-4078-bd9c-8afc9622bd25","ios":"levelo://app?vid=9e431844-0850-4078-bd9c-8afc9622bd25"},"vehicle_type_id":"4","last_reported":1740647407,"current_range_meters":8000,"station_id":"ce4bhh92rcd13ifvqfh0","pricing_plan_id":"cebpf4jnsgd1na2vs0mg"},{"bike_id":"93ef41ab-6ea5-4ecf-bbc9-47eb29a30277","system_id":"levelo_inurba_marseille","lat":43.33606,"lon":5.41013,"is_reserved":false,"is_disabled":false,"rental_uris":{"android":"levelo://app?vid=93ef41ab-6ea5-4ecf-bbc9-47eb29a30277","ios":"levelo://app?vid=93ef41ab-6ea5-4ecf-bbc9-47eb29a30277"},"vehicle_type_id":"4","last_reported":1740647407,"current_range_meters":8000,"station_id":"ce4bhqh2rcd13ifvqhmg","pricing_plan_id":"cebpf4jnsgd1na2vs0mg"},{"bike_id":"950ca1b2-009f-4e0e-a9bb-38c6443146d6","system_id":"levelo_inurba_marseille","lat":43.287,"lon":5.37408,"is_reserved":false,"is_disabled":false,"rental_uris":{"android":"levelo://app?vid=950ca1b2-009f-4e0e-a9bb-38c6443146d6","ios":"levelo://app?vid=950ca1b2-009f-4e0e-a9bb-38c6443146d6"},"vehicle_type_id":"4","last_reported":1740647407,"current_range_meters":8000,"station_id":"ce4bh3p2rcd13ifvqdq0","pricing_plan_id":"cebpf4jnsgd1na2vs0mg"},{"bike_id":"3b5a8764-56c8-4a2d-9d9e-a9aeeab2dd3c","system_id":"levelo_inurba_marseille","lat":43.32349,"lon":5.36763,"is_reserved":false,"is_disabled":false,"rental_uris":{"android":"levelo://app?vid=3b5a8764-56c8-4a2d-9d9e-a9aeeab2dd3c","ios":"levelo://app?vid=3b5a8764-56c8-4a2d-9d9e-a9aeeab2dd3c"},"vehicle_type_id":"4","last_reported":1740647407,"current_range_meters":8000,"station_id":"ce4bhsh2rcd13ifvqi2g","pricing_plan_id":"cebpf4jnsgd1na2vs0mg"},{"bike_id":"26d1edd1-2a52-428c-b2a6-7dd75e71037c","system_id":"levelo_inurba_marseille","lat":43.28619,"lon":5.35113,"is_reserved":false,"is_disabled":false,"rental_uris":{"android":"levelo://app?vid=26d1edd1-2a52-428c-b2a6-7dd75e71037c","ios":"levelo://app?vid=26d1edd1-2a52-428c-b2a6-7dd75e71037c"},"vehicle_type_id":"4","last_reported":1740647407,"current_range_meters":8400,"station_id":"ce4bhch2rcd13ifvqeug","pricing_plan_id":"cebpf4jnsgd1na2vs0mg"},{"bike_id":"6361edeb-bf83-44c1-88a2-b0659eceff1e","system_id":"levelo_inurba_marseille","lat":43.31193,"lon":5.38719,"is_reserved":false,"is_disabled":false,"rental_uris":{"android":"levelo://app?vid=6361edeb-bf83-44c1-88a2-b0659eceff1e","ios":"levelo://app?vid=6361edeb-bf83-44c1-88a2-b0659eceff1e"},"vehicle_type_id":"4","last_reported":1740647407,"current_range_meters":8000,"station_id":"ce4bgv12rcd13ifvqcp0","pricing_plan_id":"cebpf4jnsgd1na2vs0mg"},{"bike_id":"5ee4387b-181d-4d0e-8e00-4178da02d461","system_id":"levelo_inurba_marseille","lat":43.2885,"lon":5.39305,"is_reserved":false,"is_disabled":false,"rental_uris":{"android":"levelo://app?vid=5ee4387b-181d-4d0e-8e00-4178da02d461","ios":"levelo://app?vid=5ee4387b-181d-4d0e-8e00-4178da02d461"},"vehicle_type_id":"4","last_reported":1740647407,"current_range_meters":8400,"station_id":"ce4bh2p2rcd13ifvqdi0","pricing_plan_id":"cebpf4jnsgd1na2vs0mg"},{"bike_id":"e70f9a7a-edf2-47f4-a682-93b7e8309da0","system_id":"levelo_inurba_marseille","lat":43.29252,"lon":5.40905,"is_reserved":false,"is_disabled":false,"rental_uris":{"android":"levelo://app?vid=e70f9a7a-edf2-47f4-a682-93b7e8309da0","ios":"levelo://app?vid=e70f9a7a-edf2-47f4-a682-93b7e8309da0"},"vehicle_type_id":"4","last_reported":1740647407,"current_range_meters":8000,"station_id":"ce4bh192rcd13ifvqdc0","pricing_plan_id":"cebpf4jnsgd1na2vs0mg"},{"bike_id":"4f8a9d79-53af-423b-80f2-a9547013fb71","system_id":"levelo_inurba_marseille","lat":43.25946,"lon":5.40917,"is_reserved":false,"is_disabled":false,"rental_uris":{"android":"levelo://app?vid=4f8a9d79-53af-423b-80f2-a9547013fb71","ios":"levelo://app?vid=4f8a9d79-53af-423b-80f2-a9547013fb71"},"vehicle_type_id":"4","last_reported":1740647407,"current_range_meters":8400,"station_id":"ce4bhm92rcd13ifvqglg","pricing_plan_id":"cebpf4jnsgd1na2vs0mg"},{"bike_id":"ff34c52f-56f1-4588-9323-32f37bcf554e","system_id":"levelo_inurba_marseille","lat":43.32373,"lon":5.38887,"is_reserved":false,"is_disabled":true,"rental_uris":{"android":"levelo://app?vid=ff34c52f-56f1-4588-9323-32f37bcf554e","ios":"levelo://app?vid=ff34c52f-56f1-4588-9323-32f37bcf554e"},"vehicle_type_id":"4","last_reported":1740647407,"current_range_meters":8400,"station_id":"ce4bhqp2rcd13ifvqhog","pricing_plan_id":"cebpf4jnsgd1na2vs0mg"},{"bike_id":"b2180dcf-f925-41b8-b846-d290be17c9b0","system_id":"levelo_inurba_marseille","lat":43.2799,"lon":5.39521,"is_reserved":false,"is_disabled":false,"rental_uris":{"android":"levelo://app?vid=b2180dcf-f925-41b8-b846-d290be17c9b0","ios":"levelo://app?vid=b2180dcf-f925-41b8-b846-d290be17c9b0"},"vehicle_type_id":"4","last_reported":1740647407,"current_range_meters":8400,"station_id":"","pricing_plan_id":"cebpf4jnsgd1na2vs0mg"},{"bike_id":"1e37517c-7c13-497e-93a6-2c0209fd3d04","system_id":"levelo_inurba_marseille","lat":43.286184,"lon":5.351079,"is_reserved":false,"is_disabled":false,"rental_uris":{"android":"levelo://app?vid=1e37517c-7c13-497e-93a6-2c0209fd3d04","ios":"levelo://app?vid=1e37517c-7c13-497e-93a6-2c0209fd3d04"},"vehicle_type_id":"4","last_reported":1740647407,"current_range_meters":8400,"station_id":"ce4bhch2rcd13ifvqeug","pricing_plan_id":"cebpf4jnsgd1na2vs0mg"},{"bike_id":"5e68656b-4654-4790-ad7f-01437bdae155","system_id":"levelo_inurba_marseille","lat":43.3054,"lon":5.36535,"is_reserved":false,"is_disabled":false,"rental_uris":{"android":"levelo://app?vid=5e68656b-4654-4790-ad7f-01437bdae155","ios":"levelo://app?vid=5e68656b-4654-4790-ad7f-01437bdae155"},"vehicle_type_id":"4","last_reported":1740647407,"current_range_meters":8400,"station_id":"ce4bgs12rcd13ifvqcag","pricing_plan_id":"cebpf4jnsgd1na2vs0mg"},{"bike_id":"214d7675-7701-492b-8630-a56de1b4ccdc","system_id":"levelo_inurba_marseille","lat":43.25877,"lon":5.39917,"is_reserved":false,"is_disabled":false,"rental_uris":{"android":"levelo://app?vid=214d7675-7701-492b-8630-a56de1b4ccdc","ios":"levelo://app?vid=214d7675-7701-492b-8630-a56de1b4ccdc"},"vehicle_type_id":"4","last_reported":1740647407,"current_range_meters":8400,"station_id":"ce4bhl92rcd13ifvqghg","pricing_plan_id":"cebpf4jnsgd1na2vs0mg"},{"bike_id":"53f6206c-2750-42e7-a8f3-9533b6f35c4a","system_id":"levelo_inurba_marseille","lat":43.286124,"lon":5.351049,"is_reserved":false,"is_disabled":false,"rental_uris":{"android":"levelo://app?vid=53f6206c-2750-42e7-a8f3-9533b6f35c4a","ios":"levelo://app?vid=53f6206c-2750-42e7-a8f3-9533b6f35c4a"},"vehicle_type_id":"4","last_reported":1740647407,"current_range_meters":8800,"station_id":"ce4bhch2rcd13ifvqeug","pricing_plan_id":"cebpf4jnsgd1na2vs0mg"},{"bike_id":"4d472430-f798-4d66-a15e-a2aa6ed57ca5","system_id":"levelo_inurba_marseille","lat":43.30975,"lon":5.39062,"is_reserved":false,"is_disabled":false,"rental_uris":{"android":"levelo://app?vid=4d472430-f798-4d66-a15e-a2aa6ed57ca5","ios":"levelo://app?vid=4d472430-f798-4d66-a15e-a2aa6ed57ca5"},"vehicle_type_id":"4","last_reported":1740647407,"current_range_meters":8800,"station_id":"ce4bgup2rcd13ifvqco0","pricing_plan_id":"cebpf4jnsgd1na2vs0mg"},{"bike_id":"0d9fff21-6d6d-4df8-bdae-baf4fa12e6b7","system_id":"levelo_inurba_marseille","lat":43.2441,"lon":5.37094,"is_reserved":false,"is_disabled":false,"rental_uris":{"android":"levelo://app?vid=0d9fff21-6d6d-4df8-bdae-baf4fa12e6b7","ios":"levelo://app?vid=0d9fff21-6d6d-4df8-bdae-baf4fa12e6b7"},"vehicle_type_id":"4","last_reported":1740647407,"current_range_meters":8800,"station_id":"ce4bhhh2rcd13ifvqfk0","pricing_plan_id":"cebpf4jnsgd1na2vs0mg"},{"bike_id":"e19f7dab-e7ec-4a64-957b-25d1ae9239da","system_id":"levelo_inurba_marseille","lat":43.29568,"lon":5.38163,"is_reserved":false,"is_disabled":false,"rental_uris":{"android":"levelo://app?vid=e19f7dab-e7ec-4a64-957b-25d1ae9239da","ios":"levelo://app?vid=e19f7dab-e7ec-4a64-957b-25d1ae9239da"},"vehicle_type_id":"4","last_reported":1740647407,"current_range_meters":8800,"station_id":"","pricing_plan_id":"cebpf4jnsgd1na2vs0mg"},{"bike_id":"16f672ba-918e-4df2-8073-0dce197e33a6","system_id":"levelo_inurba_marseille","lat":43.29199,"lon":5.39325,"is_reserved":false,"is_disabled":false,"rental_uris":{"android":"levelo://app?vid=16f672ba-918e-4df2-8073-0dce197e33a6","ios":"levelo://app?vid=16f672ba-918e-4df2-8073-0dce197e33a6"},"vehicle_type_id":"4","last_reported":1740647407,"current_range_meters":8400,"station_id":"ce4bh192rcd13ifvqdd0","pricing_plan_id":"cebpf4jnsgd1na2vs0mg"},{"bike_id":"5925fc9d-0217-43db-be70-d313f2b8e15c","system_id":"levelo_inurba_marseille","lat":43.28179,"lon":5.42676,"is_reserved":false,"is_disabled":false,"rental_uris":{"android":"levelo://app?vid=5925fc9d-0217-43db-be70-d313f2b8e15c","ios":"levelo://app?vid=5925fc9d-0217-43db-be70-d313f2b8e15c"},"vehicle_type_id":"4","last_reported":1740647407,"current_range_meters":8800,"station_id":"ce4bhnh2rcd13ifvqgug","pricing_plan_id":"cebpf4jnsgd1na2vs0mg"},{"bike_id":"1cf208c1-d0c6-4aef-be2a-1deed51e2e15","system_id":"levelo_inurba_marseille","lat":43.31078,"lon":5.38356,"is_reserved":false,"is_disabled":false,"rental_uris":{"android":"levelo://app?vid=1cf208c1-d0c6-4aef-be2a-1deed51e2e15","ios":"levelo://app?vid=1cf208c1-d0c6-4aef-be2a-1deed51e2e15"},"vehicle_type_id":"4","last_reported":1740647407,"current_range_meters":8800,"station_id":"ce4bgv92rcd13ifvqcr0","pricing_plan_id":"cebpf4jnsgd1na2vs0mg"},{"bike_id":"9721a8d2-5ed5-4c5c-8f41-41104e93930e","system_id":"levelo_inurba_marseille","lat":43.27977,"lon":5.38712,"is_reserved":false,"is_disabled":false,"rental_uris":{"android":"levelo://app?vid=9721a8d2-5ed5-4c5c-8f41-41104e93930e","ios":"levelo://app?vid=9721a8d2-5ed5-4c5c-8f41-41104e93930e"},"vehicle_type_id":"4","last_reported":1740647407,"current_range_meters":8800,"station_id":"ce4bhg12rcd13ifvqf80","pricing_plan_id":"cebpf4jnsgd1na2vs0mg"},{"bike_id":"b9e94433-72b0-448b-9383-91edbc736b90","system_id":"levelo_inurba_marseille","lat":43.26691,"lon":5.38276,"is_reserved":false,"is_disabled":false,"rental_uris":{"android":"levelo://app?vid=b9e94433-72b0-448b-9383-91edbc736b90","ios":"levelo://app?vid=b9e94433-72b0-448b-9383-91edbc736b90"},"vehicle_type_id":"4","last_reported":1740647407,"current_range_meters":9200,"station_id":"ce4bhg92rcd13ifvqf90","pricing_plan_id":"cebpf4jnsgd1na2vs0mg"},{"bike_id":"4765f4c4-12f9-410d-89ae-b2b6b8369cf3","system_id":"levelo_inurba_marseille","lat":43.30963,"lon":5.39051,"is_reserved":false,"is_disabled":false,"rental_uris":{"android":"levelo://app?vid=4765f4c4-12f9-410d-89ae-b2b6b8369cf3","ios":"levelo://app?vid=4765f4c4-12f9-410d-89ae-b2b6b8369cf3"},"vehicle_type_id":"4","last_reported":1740647407,"current_range_meters":1200,"station_id":"ce4bgup2rcd13ifvqco0","pricing_plan_id":"cebpf4jnsgd1na2vs0mg"},{"bike_id":"34c6166f-62db-4290-9479-e8a7fa6f533e","system_id":"levelo_inurba_marseille","lat":43.23175,"lon":5.39944,"is_reserved":false,"is_disabled":false,"rental_uris":{"android":"levelo://app?vid=34c6166f-62db-4290-9479-e8a7fa6f533e","ios":"levelo://app?vid=34c6166f-62db-4290-9479-e8a7fa6f533e"},"vehicle_type_id":"4","last_reported":1740647407,"current_range_meters":7200,"station_id":"ce4bhn12rcd13ifvqgqg","pricing_plan_id":"cebpf4jnsgd1na2vs0mg"},{"bike_id":"489f464c-4091-42e9-a22f-acd6ed59a89c","system_id":"levelo_inurba_marseille","lat":43.265564,"lon":5.372895,"is_reserved":false,"is_disabled":false,"rental_uris":{"android":"levelo://app?vid=489f464c-4091-42e9-a22f-acd6ed59a89c","ios":"levelo://app?vid=489f464c-4091-42e9-a22f-acd6ed59a89c"},"vehicle_type_id":"4","last_reported":1740647407,"current_range_meters":9200,"station_id":"ce4bhg12rcd13ifvqf70","pricing_plan_id":"cebpf4jnsgd1na2vs0mg"},{"bike_id":"0f29e289-bfb5-40b7-b1df-d5acef773400","system_id":"levelo_inurba_marseille","lat":43.32372,"lon":5.38903,"is_reserved":false,"is_disabled":false,"rental_uris":{"android":"levelo://app?vid=0f29e289-bfb5-40b7-b1df-d5acef773400","ios":"levelo://app?vid=0f29e289-bfb5-40b7-b1df-d5acef773400"},"vehicle_type_id":"4","last_reported":1740647407,"current_range_meters":9200,"station_id":"ce4bhqp2rcd13ifvqhog","pricing_plan_id":"cebpf4jnsgd1na2vs0mg"},{"bike_id":"c24dd236-5c90-4f51-a57a-2f44c040fc1a","system_id":"levelo_inurba_marseille","lat":43.25947,"lon":5.40908,"is_reserved":false,"is_disabled":false,"rental_uris":{"android":"levelo://app?vid=c24dd236-5c90-4f51-a57a-2f44c040fc1a","ios":"levelo://app?vid=c24dd236-5c90-4f51-a57a-2f44c040fc1a"},"vehicle_type_id":"4","last_reported":1740647407,"current_range_meters":9200,"station_id":"ce4bhm92rcd13ifvqglg","pricing_plan_id":"cebpf4jnsgd1na2vs0mg"},{"bike_id":"38e065b2-b0c8-40f0-b9f0-203c51e062a1","system_id":"levelo_inurba_marseille","lat":43.30464,"lon":5.37908,"is_reserved":false,"is_disabled":false,"rental_uris":{"android":"levelo://app?vid=38e065b2-b0c8-40f0-b9f0-203c51e062a1","ios":"levelo://app?vid=38e065b2-b0c8-40f0-b9f0-203c51e062a1"},"vehicle_type_id":"4","last_reported":1740647407,"current_range_meters":12800,"station_id":"ce4bgup2rcd13ifvqcn0","pricing_plan_id":"cebpf4jnsgd1na2vs0mg"},{"bike_id":"101aef62-671b-4222-a340-fec1b7696ff3","system_id":"levelo_inurba_marseille","lat":43.31204,"lon":5.36846,"is_reserved":false,"is_disabled":false,"rental_uris":{"android":"levelo://app?vid=101aef62-671b-4222-a340-fec1b7696ff3","ios":"levelo://app?vid=101aef62-671b-4222-a340-fec1b7696ff3"},"vehicle_type_id":"4","last_reported":1740647407,"current_range_meters":9600,"station_id":"ce4bgl92rcd13ifvqbq0","pricing_plan_id":"cebpf4jnsgd1na2vs0mg"},{"bike_id":"ad9571bc-5194-4f71-90ef-f1cb0835f36e","system_id":"levelo_inurba_marseille","lat":43.25498,"lon":5.37653,"is_reserved":false,"is_disabled":false,"rental_uris":{"android":"levelo://app?vid=ad9571bc-5194-4f71-90ef-f1cb0835f36e","ios":"levelo://app?vid=ad9571bc-5194-4f71-90ef-f1cb0835f36e"},"vehicle_type_id":"4","last_reported":1740647407,"current_range_meters":9200,"station_id":"ce4bhh12rcd13ifvqff0","pricing_plan_id":"cebpf4jnsgd1na2vs0mg"},{"bike_id":"a425e775-b361-4ab4-93f9-fa2ea28a8286","system_id":"levelo_inurba_marseille","lat":43.324708,"lon":5.36576,"is_reserved":false,"is_disabled":false,"rental_uris":{"android":"levelo://app?vid=a425e775-b361-4ab4-93f9-fa2ea28a8286","ios":"levelo://app?vid=a425e775-b361-4ab4-93f9-fa2ea28a8286"},"vehicle_type_id":"4","last_reported":1740647407,"current_range_meters":9200,"station_id":"ce4bhs12rcd13ifvqhvg","pricing_plan_id":"cebpf4jnsgd1na2vs0mg"},{"bike_id":"dba9b7ee-9351-47fe-912c-d1de73cd4763","system_id":"levelo_inurba_marseille","lat":43.30157,"lon":5.37429,"is_reserved":false,"is_disabled":false,"rental_uris":{"android":"levelo://app?vid=dba9b7ee-9351-47fe-912c-d1de73cd4763","ios":"levelo://app?vid=dba9b7ee-9351-47fe-912c-d1de73cd4763"},"vehicle_type_id":"4","last_reported":1740647407,"current_range_meters":9600,"station_id":"ce4bgs92rcd13ifvqcc0","pricing_plan_id":"cebpf4jnsgd1na2vs0mg"},{"bike_id":"1f365b58-49f4-4358-892d-462bdf131c9d","system_id":"levelo_inurba_marseille","lat":43.30937,"lon":5.40146,"is_reserved":false,"is_disabled":false,"rental_uris":{"android":"levelo://app?vid=1f365b58-49f4-4358-892d-462bdf131c9d","ios":"levelo://app?vid=1f365b58-49f4-4358-892d-462bdf131c9d"},"vehicle_type_id":"4","last_reported":1740647407,"current_range_meters":12000,"station_id":"ce4bgvp2rcd13ifvqct0","pricing_plan_id":"cebpf4jnsgd1na2vs0mg"},{"bike_id":"cc994919-ecf4-43ea-9df0-a022eb3cfe5a","system_id":"levelo_inurba_marseille","lat":43.26025,"lon":5.37552,"is_reserved":false,"is_disabled":false,"rental_uris":{"android":"levelo://app?vid=cc994919-ecf4-43ea-9df0-a022eb3cfe5a","ios":"levelo://app?vid=cc994919-ecf4-43ea-9df0-a022eb3cfe5a"},"vehicle_type_id":"4","last_reported":1740647407,"current_range_meters":9200,"station_id":"ce4bhgh2rcd13ifvqfa0","pricing_plan_id":"cebpf4jnsgd1na2vs0mg"},{"bike_id":"d3aeeb92-b7ef-4040-9829-a7339e685d8d","system_id":"levelo_inurba_marseille","lat":43.27331,"lon":5.39101,"is_reserved":false,"is_disabled":false,"rental_uris":{"android":"levelo://app?vid=d3aeeb92-b7ef-4040-9829-a7339e685d8d","ios":"levelo://app?vid=d3aeeb92-b7ef-4040-9829-a7339e685d8d"},"vehicle_type_id":"4","last_reported":1740647407,"current_range_meters":10000,"station_id":"ce4bhgp2rcd13ifvqfe0","pricing_plan_id":"cebpf4jnsgd1na2vs0mg"},{"bike_id":"40ec3fe1-da6e-4290-b01c-9b9c53736076","system_id":"levelo_inurba_marseille","lat":43.2409,"lon":5.3776,"is_reserved":false,"is_disabled":false,"rental_uris":{"android":"levelo://app?vid=40ec3fe1-da6e-4290-b01c-9b9c53736076","ios":"levelo://app?vid=40ec3fe1-da6e-4290-b01c-9b9c53736076"},"vehicle_type_id":"4","last_reported":1740647407,"current_range_meters":9600,"station_id":"ce4bhnp2rcd13ifvqgvg","pricing_plan_id":"cebpf4jnsgd1na2vs0mg"},{"bike_id":"35593f52-cea1-47f3-bc31-1b5a2af0d4d0","system_id":"levelo_inurba_marseille","lat":43.30965,"lon":5.39041,"is_reserved":false,"is_disabled":false,"rental_uris":{"android":"levelo://app?vid=35593f52-cea1-47f3-bc31-1b5a2af0d4d0","ios":"levelo://app?vid=35593f52-cea1-47f3-bc31-1b5a2af0d4d0"},"vehicle_type_id":"4","last_reported":1740647407,"current_range_meters":9600,"station_id":"ce4bgup2rcd13ifvqco0","pricing_plan_id":"cebpf4jnsgd1na2vs0mg"},{"bike_id":"8aeede9a-d99f-4b8e-97c4-3968df4d0c17","system_id":"levelo_inurba_marseille","lat":43.29233,"lon":5.36063,"is_reserved":false,"is_disabled":false,"rental_uris":{"android":"levelo://app?vid=8aeede9a-d99f-4b8e-97c4-3968df4d0c17","ios":"levelo://app?vid=8aeede9a-d99f-4b8e-97c4-3968df4d0c17"},"vehicle_type_id":"4","last_reported":1740647407,"current_range_meters":9200,"station_id":"ce4bhbh2rcd13ifvqeqg","pricing_plan_id":"cebpf4jnsgd1na2vs0mg"},{"bike_id":"a2471654-b844-4806-bd45-c2c5b9bd290a","system_id":"levelo_inurba_marseille","lat":43.28985,"lon":5.37836,"is_reserved":false,"is_disabled":false,"rental_uris":{"android":"levelo://app?vid=a2471654-b844-4806-bd45-c2c5b9bd290a","ios":"levelo://app?vid=a2471654-b844-4806-bd45-c2c5b9bd290a"},"vehicle_type_id":"4","last_reported":1740647407,"current_range_meters":9600,"station_id":"ce4bh9p2rcd13ifvqed0","pricing_plan_id":"cebpf4jnsgd1na2vs0mg"},{"bike_id":"f66913d8-adc8-4497-b81a-8613461ae8a9","system_id":"levelo_inurba_marseille","lat":43.28431,"lon":5.34996,"is_reserved":false,"is_disabled":false,"rental_uris":{"android":"levelo://app?vid=f66913d8-adc8-4497-b81a-8613461ae8a9","ios":"levelo://app?vid=f66913d8-adc8-4497-b81a-8613461ae8a9"},"vehicle_type_id":"4","last_reported":1740647407,"current_range_meters":9600,"station_id":"ce4bhbh2rcd13ifvqepg","pricing_plan_id":"cebpf4jnsgd1na2vs0mg"},{"bike_id":"b91b5df9-9e1d-4603-a59a-2032d99a62a3","system_id":"levelo_inurba_marseille","lat":43.24075,"lon":5.37758,"is_reserved":false,"is_disabled":false,"rental_uris":{"android":"levelo://app?vid=b91b5df9-9e1d-4603-a59a-2032d99a62a3","ios":"levelo://app?vid=b91b5df9-9e1d-4603-a59a-2032d99a62a3"},"vehicle_type_id":"4","last_reported":1740647407,"current_range_meters":9600,"station_id":"ce4bhnp2rcd13ifvqgvg","pricing_plan_id":"cebpf4jnsgd1na2vs0mg"},{"bike_id":"4b455491-ef35-4c85-a5f3-c2d9dac26dd6","system_id":"levelo_inurba_marseille","lat":43.26948,"lon":5.38931,"is_reserved":false,"is_disabled":false,"rental_uris":{"android":"levelo://app?vid=4b455491-ef35-4c85-a5f3-c2d9dac26dd6","ios":"levelo://app?vid=4b455491-ef35-4c85-a5f3-c2d9dac26dd6"},"vehicle_type_id":"4","last_reported":1740647407,"current_range_meters":9200,"station_id":"ce4bhhh2rcd13ifvqfl0","pricing_plan_id":"cebpf4jnsgd1na2vs0mg"},{"bike_id":"2ddd76cf-99e2-47b6-baa1-5133bc8aab87","system_id":"levelo_inurba_marseille","lat":43.269543,"lon":5.38636,"is_reserved":false,"is_disabled":false,"rental_uris":{"android":"levelo://app?vid=2ddd76cf-99e2-47b6-baa1-5133bc8aab87","ios":"levelo://app?vid=2ddd76cf-99e2-47b6-baa1-5133bc8aab87"},"vehicle_type_id":"4","last_reported":1740647407,"current_range_meters":10000,"station_id":"ce4bhh92rcd13ifvqfh0","pricing_plan_id":"cebpf4jnsgd1na2vs0mg"},{"bike_id":"13a255fe-3bd8-425c-84c6-45be6dbcc56b","system_id":"levelo_inurba_marseille","lat":43.284332,"lon":5.392026,"is_reserved":false,"is_disabled":false,"rental_uris":{"android":"levelo://app?vid=13a255fe-3bd8-425c-84c6-45be6dbcc56b","ios":"levelo://app?vid=13a255fe-3bd8-425c-84c6-45be6dbcc56b"},"vehicle_type_id":"4","last_reported":1740647407,"current_range_meters":9600,"station_id":"ce4bh8p2rcd13ifvqeb0","pricing_plan_id":"cebpf4jnsgd1na2vs0mg"},{"bike_id":"f80b506c-38f2-45b2-8ae3-fef2bd454d37","system_id":"levelo_inurba_marseille","lat":43.3048,"lon":5.37914,"is_reserved":false,"is_disabled":false,"rental_uris":{"android":"levelo://app?vid=f80b506c-38f2-45b2-8ae3-fef2bd454d37","ios":"levelo://app?vid=f80b506c-38f2-45b2-8ae3-fef2bd454d37"},"vehicle_type_id":"4","last_reported":1740647407,"current_range_meters":10000,"station_id":"ce4bgup2rcd13ifvqcn0","pricing_plan_id":"cebpf4jnsgd1na2vs0mg"},{"bike_id":"3c8dd593-2ca9-41fe-8520-2917c9427710","system_id":"levelo_inurba_marseille","lat":43.24091,"lon":5.37751,"is_reserved":false,"is_disabled":false,"rental_uris":{"android":"levelo://app?vid=3c8dd593-2ca9-41fe-8520-2917c9427710","ios":"levelo://app?vid=3c8dd593-2ca9-41fe-8520-2917c9427710"},"vehicle_type_id":"4","last_reported":1740647407,"current_range_meters":10000,"station_id":"ce4bhnp2rcd13ifvqgvg","pricing_plan_id":"cebpf4jnsgd1na2vs0mg"},{"bike_id":"afd98e29-9e65-49b1-96e9-da6c0e62de76","system_id":"levelo_inurba_marseille","lat":43.29262,"lon":5.382,"is_reserved":false,"is_disabled":false,"rental_uris":{"android":"levelo://app?vid=afd98e29-9e65-49b1-96e9-da6c0e62de76","ios":"levelo://app?vid=afd98e29-9e65-49b1-96e9-da6c0e62de76"},"vehicle_type_id":"4","last_reported":1740647407,"current_range_meters":10000,"station_id":"","pricing_plan_id":"cebpf4jnsgd1na2vs0mg"},{"bike_id":"4cd0c7b9-2810-4907-9294-3a4209e8580e","system_id":"levelo_inurba_marseille","lat":43.31485,"lon":5.37269,"is_reserved":false,"is_disabled":false,"rental_uris":{"android":"levelo://app?vid=4cd0c7b9-2810-4907-9294-3a4209e8580e","ios":"levelo://app?vid=4cd0c7b9-2810-4907-9294-3a4209e8580e"},"vehicle_type_id":"4","last_reported":1740647407,"current_range_meters":10000,"station_id":"ce4bgt12rcd13ifvqcd0","pricing_plan_id":"cebpf4jnsgd1na2vs0mg"},{"bike_id":"7df888cc-c346-4f38-990a-fc3c220f7083","system_id":"levelo_inurba_marseille","lat":43.23153,"lon":5.43724,"is_reserved":false,"is_disabled":false,"rental_uris":{"android":"levelo://app?vid=7df888cc-c346-4f38-990a-fc3c220f7083","ios":"levelo://app?vid=7df888cc-c346-4f38-990a-fc3c220f7083"},"vehicle_type_id":"4","last_reported":1740647407,"current_range_meters":10000,"station_id":"ce4bhmp2rcd13ifvqgog","pricing_plan_id":"cebpf4jnsgd1na2vs0mg"},{"bike_id":"844c2627-4659-4d06-9db8-0803d69b326a","system_id":"levelo_inurba_marseille","lat":43.29232,"lon":5.36083,"is_reserved":false,"is_disabled":false,"rental_uris":{"android":"levelo://app?vid=844c2627-4659-4d06-9db8-0803d69b326a","ios":"levelo://app?vid=844c2627-4659-4d06-9db8-0803d69b326a"},"vehicle_type_id":"4","last_reported":1740647407,"current_range_meters":10000,"station_id":"ce4bhbh2rcd13ifvqeqg","pricing_plan_id":"cebpf4jnsgd1na2vs0mg"},{"bike_id":"dbbfe273-fe78-4ee1-abd4-c84186b9f85c","system_id":"levelo_inurba_marseille","lat":43.24076,"lon":5.37792,"is_reserved":false,"is_disabled":false,"rental_uris":{"android":"levelo://app?vid=dbbfe273-fe78-4ee1-abd4-c84186b9f85c","ios":"levelo://app?vid=dbbfe273-fe78-4ee1-abd4-c84186b9f85c"},"vehicle_type_id":"4","last_reported":1740647407,"current_range_meters":10000,"station_id":"ce4bhnp2rcd13ifvqgvg","pricing_plan_id":"cebpf4jnsgd1na2vs0mg"},{"bike_id":"19280389-ad07-4631-8cd9-230e9d4550f4","system_id":"levelo_inurba_marseille","lat":43.29878,"lon":5.39732,"is_reserved":false,"is_disabled":false,"rental_uris":{"android":"levelo://app?vid=19280389-ad07-4631-8cd9-230e9d4550f4","ios":"levelo://app?vid=19280389-ad07-4631-8cd9-230e9d4550f4"},"vehicle_type_id":"4","last_reported":1740647407,"current_range_meters":10000,"station_id":"ce4bh0h2rcd13ifvqd50","pricing_plan_id":"cebpf4jnsgd1na2vs0mg"},{"bike_id":"620faf8f-9860-4e84-b6cd-4559a0b9a89c","system_id":"levelo_inurba_marseille","lat":43.32497,"lon":5.36556,"is_reserved":false,"is_disabled":false,"rental_uris":{"android":"levelo://app?vid=620faf8f-9860-4e84-b6cd-4559a0b9a89c","ios":"levelo://app?vid=620faf8f-9860-4e84-b6cd-4559a0b9a89c"},"vehicle_type_id":"4","last_reported":1740647407,"current_range_meters":10000,"station_id":"ce4bhs12rcd13ifvqhvg","pricing_plan_id":"cebpf4jnsgd1na2vs0mg"},{"bike_id":"17973595-0627-4cbe-be09-6d52168568c1","system_id":"levelo_inurba_marseille","lat":43.2782,"lon":5.40741,"is_reserved":false,"is_disabled":false,"rental_uris":{"android":"levelo://app?vid=17973595-0627-4cbe-be09-6d52168568c1","ios":"levelo://app?vid=17973595-0627-4cbe-be09-6d52168568c1"},"vehicle_type_id":"4","last_reported":1740647407,"current_range_meters":10000,"station_id":"ce4bhnh2rcd13ifvqgtg","pricing_plan_id":"cebpf4jnsgd1na2vs0mg"},{"bike_id":"19e4983d-b74d-4524-9c14-80fb6905f947","system_id":"levelo_inurba_marseille","lat":43.3213,"lon":5.36787,"is_reserved":false,"is_disabled":false,"rental_uris":{"android":"levelo://app?vid=19e4983d-b74d-4524-9c14-80fb6905f947","ios":"levelo://app?vid=19e4983d-b74d-4524-9c14-80fb6905f947"},"vehicle_type_id":"4","last_reported":1740647407,"current_range_meters":10000,"station_id":"ce4bhrh2rcd13ifvqhug","pricing_plan_id":"cebpf4jnsgd1na2vs0mg"},{"bike_id":"8aefae3d-8df9-4738-afa0-b68595c80fcb","system_id":"levelo_inurba_marseille","lat":43.24099,"lon":5.37796,"is_reserved":false,"is_disabled":false,"rental_uris":{"android":"levelo://app?vid=8aefae3d-8df9-4738-afa0-b68595c80fcb","ios":"levelo://app?vid=8aefae3d-8df9-4738-afa0-b68595c80fcb"},"vehicle_type_id":"4","last_reported":1740647407,"current_range_meters":10000,"station_id":"ce4bhnp2rcd13ifvqgvg","pricing_plan_id":"cebpf4jnsgd1na2vs0mg"},{"bike_id":"7f5c8962-3c26-494a-9dd5-ffc07bce14b6","system_id":"levelo_inurba_marseille","lat":43.30459,"lon":5.379118,"is_reserved":false,"is_disabled":false,"rental_uris":{"android":"levelo://app?vid=7f5c8962-3c26-494a-9dd5-ffc07bce14b6","ios":"levelo://app?vid=7f5c8962-3c26-494a-9dd5-ffc07bce14b6"},"vehicle_type_id":"4","last_reported":1740647407,"current_range_meters":10800,"station_id":"ce4bgup2rcd13ifvqcn0","pricing_plan_id":"cebpf4jnsgd1na2vs0mg"},{"bike_id":"43d0f70c-0b87-4adc-9bdf-4f9ccc6c5552","system_id":"levelo_inurba_marseille","lat":43.29537,"lon":5.37513,"is_reserved":false,"is_disabled":false,"rental_uris":{"android":"levelo://app?vid=43d0f70c-0b87-4adc-9bdf-4f9ccc6c5552","ios":"levelo://app?vid=43d0f70c-0b87-4adc-9bdf-4f9ccc6c5552"},"vehicle_type_id":"4","last_reported":1740647407,"current_range_meters":10800,"station_id":"ce4bgkp2rcd13ifvqbmg","pricing_plan_id":"cebpf4jnsgd1na2vs0mg"},{"bike_id":"9ea15ae9-9c11-486a-bb35-d4dcef991c05","system_id":"levelo_inurba_marseille","lat":43.28673,"lon":5.35309,"is_reserved":false,"is_disabled":false,"rental_uris":{"android":"levelo://app?vid=9ea15ae9-9c11-486a-bb35-d4dcef991c05","ios":"levelo://app?vid=9ea15ae9-9c11-486a-bb35-d4dcef991c05"},"vehicle_type_id":"4","last_reported":1740647407,"current_range_meters":10800,"station_id":"","pricing_plan_id":"cebpf4jnsgd1na2vs0mg"},{"bike_id":"eae6a850-1285-4ec5-abf3-37043ab72d69","system_id":"levelo_inurba_marseille","lat":43.25943,"lon":5.40901,"is_reserved":false,"is_disabled":false,"rental_uris":{"android":"levelo://app?vid=eae6a850-1285-4ec5-abf3-37043ab72d69","ios":"levelo://app?vid=eae6a850-1285-4ec5-abf3-37043ab72d69"},"vehicle_type_id":"4","last_reported":1740647407,"current_range_meters":10800,"station_id":"ce4bhm92rcd13ifvqglg","pricing_plan_id":"cebpf4jnsgd1na2vs0mg"},{"bike_id":"5249bc2c-af1a-4b55-92f5-5ca5eef8feb6","system_id":"levelo_inurba_marseille","lat":43.29281,"lon":5.37623,"is_reserved":false,"is_disabled":false,"rental_uris":{"android":"levelo://app?vid=5249bc2c-af1a-4b55-92f5-5ca5eef8feb6","ios":"levelo://app?vid=5249bc2c-af1a-4b55-92f5-5ca5eef8feb6"},"vehicle_type_id":"4","last_reported":1740647407,"current_range_meters":10000,"station_id":"ce4bgi12rcd13ifvqb80","pricing_plan_id":"cebpf4jnsgd1na2vs0mg"},{"bike_id":"9cc55219-343a-4b56-8b2d-b5da728855b6","system_id":"levelo_inurba_marseille","lat":43.33722,"lon":5.39194,"is_reserved":false,"is_disabled":false,"rental_uris":{"android":"levelo://app?vid=9cc55219-343a-4b56-8b2d-b5da728855b6","ios":"levelo://app?vid=9cc55219-343a-4b56-8b2d-b5da728855b6"},"vehicle_type_id":"4","last_reported":1740647407,"current_range_meters":11200,"station_id":"ce4bhr92rcd13ifvqhsg","pricing_plan_id":"cebpf4jnsgd1na2vs0mg"},{"bike_id":"73ee6f03-d401-400f-888f-2f82ab7d9286","system_id":"levelo_inurba_marseille","lat":43.25124,"lon":5.40318,"is_reserved":false,"is_disabled":false,"rental_uris":{"android":"levelo://app?vid=73ee6f03-d401-400f-888f-2f82ab7d9286","ios":"levelo://app?vid=73ee6f03-d401-400f-888f-2f82ab7d9286"},"vehicle_type_id":"4","last_reported":1740647407,"current_range_meters":16800,"station_id":"ce4bhlh2rcd13ifvqgig","pricing_plan_id":"cebpf4jnsgd1na2vs0mg"},{"bike_id":"44e40cde-d814-4b3a-82b7-f1d0b234a213","system_id":"levelo_inurba_marseille","lat":43.28502,"lon":5.38428,"is_reserved":false,"is_disabled":false,"rental_uris":{"android":"levelo://app?vid=44e40cde-d814-4b3a-82b7-f1d0b234a213","ios":"levelo://app?vid=44e40cde-d814-4b3a-82b7-f1d0b234a213"},"vehicle_type_id":"4","last_reported":1740647407,"current_range_meters":7200,"station_id":"ce4bh512rcd13ifvqe3g","pricing_plan_id":"cebpf4jnsgd1na2vs0mg"},{"bike_id":"184016d6-cf70-4a4b-a51a-ef0c2c23e437","system_id":"levelo_inurba_marseille","lat":43.30545,"lon":5.36689,"is_reserved":false,"is_disabled":false,"rental_uris":{"android":"levelo://app?vid=184016d6-cf70-4a4b-a51a-ef0c2c23e437","ios":"levelo://app?vid=184016d6-cf70-4a4b-a51a-ef0c2c23e437"},"vehicle_type_id":"4","last_reported":1740647407,"current_range_meters":11200,"station_id":"","pricing_plan_id":"cebpf4jnsgd1na2vs0mg"},{"bike_id":"219da876-5708-4dd0-931a-bee55e45df10","system_id":"levelo_inurba_marseille","lat":43.241747,"lon":5.397337,"is_reserved":false,"is_disabled":false,"rental_uris":{"android":"levelo://app?vid=219da876-5708-4dd0-931a-bee55e45df10","ios":"levelo://app?vid=219da876-5708-4dd0-931a-bee55e45df10"},"vehicle_type_id":"4","last_reported":1740647407,"current_range_meters":11200,"station_id":"ce4bhn12rcd13ifvqgpg","pricing_plan_id":"cebpf4jnsgd1na2vs0mg"},{"bike_id":"87d92987-b68b-4ae7-9097-cf6bac27adfc","system_id":"levelo_inurba_marseille","lat":43.29254,"lon":5.37627,"is_reserved":false,"is_disabled":false,"rental_uris":{"android":"levelo://app?vid=87d92987-b68b-4ae7-9097-cf6bac27adfc","ios":"levelo://app?vid=87d92987-b68b-4ae7-9097-cf6bac27adfc"},"vehicle_type_id":"4","last_reported":1740647407,"current_range_meters":12400,"station_id":"ce4bgi12rcd13ifvqb80","pricing_plan_id":"cebpf4jnsgd1na2vs0mg"},{"bike_id":"62cbb18c-2f31-4f5c-9351-9e9b31dd9036","system_id":"levelo_inurba_marseille","lat":43.29548,"lon":5.38278,"is_reserved":false,"is_disabled":false,"rental_uris":{"android":"levelo://app?vid=62cbb18c-2f31-4f5c-9351-9e9b31dd9036","ios":"levelo://app?vid=62cbb18c-2f31-4f5c-9351-9e9b31dd9036"},"vehicle_type_id":"4","last_reported":1740647407,"current_range_meters":11200,"station_id":"","pricing_plan_id":"cebpf4jnsgd1na2vs0mg"},{"bike_id":"c2c07c19-dbd0-4199-be99-931320c34757","system_id":"levelo_inurba_marseille","lat":43.29857,"lon":5.36262,"is_reserved":false,"is_disabled":false,"rental_uris":{"android":"levelo://app?vid=c2c07c19-dbd0-4199-be99-931320c34757","ios":"levelo://app?vid=c2c07c19-dbd0-4199-be99-931320c34757"},"vehicle_type_id":"4","last_reported":1740647407,"current_range_meters":11200,"station_id":"ce4bgpp2rcd13ifvqc3g","pricing_plan_id":"cebpf4jnsgd1na2vs0mg"},{"bike_id":"364ea645-aefe-4d71-8bcd-ea54ed59c50a","system_id":"levelo_inurba_marseille","lat":43.31715,"lon":5.43711,"is_reserved":false,"is_disabled":false,"rental_uris":{"android":"levelo://app?vid=364ea645-aefe-4d71-8bcd-ea54ed59c50a","ios":"levelo://app?vid=364ea645-aefe-4d71-8bcd-ea54ed59c50a"},"vehicle_type_id":"4","last_reported":1740647407,"current_range_meters":11200,"station_id":"ce4bhp92rcd13ifvqhcg","pricing_plan_id":"cebpf4jnsgd1na2vs0mg"},{"bike_id":"91f909e9-358e-43ed-a45f-822af931a978","system_id":"levelo_inurba_marseille","lat":43.23229,"lon":5.40363,"is_reserved":false,"is_disabled":false,"rental_uris":{"android":"levelo://app?vid=91f909e9-358e-43ed-a45f-822af931a978","ios":"levelo://app?vid=91f909e9-358e-43ed-a45f-822af931a978"},"vehicle_type_id":"4","last_reported":1740647407,"current_range_meters":11200,"station_id":"","pricing_plan_id":"cebpf4jnsgd1na2vs0mg"},{"bike_id":"318f6a5f-095c-4bde-b20f-20101074e82e","system_id":"levelo_inurba_marseille","lat":43.29914,"lon":5.37185,"is_reserved":false,"is_disabled":false,"rental_uris":{"android":"levelo://app?vid=318f6a5f-095c-4bde-b20f-20101074e82e","ios":"levelo://app?vid=318f6a5f-095c-4bde-b20f-20101074e82e"},"vehicle_type_id":"4","last_reported":1740647407,"current_range_meters":11200,"station_id":"ce4bgr92rcd13ifvqc7g","pricing_plan_id":"cebpf4jnsgd1na2vs0mg"},{"bike_id":"295b0419-415d-42cd-9c8a-f34cdd0f33af","system_id":"levelo_inurba_marseille","lat":43.24088,"lon":5.37748,"is_reserved":false,"is_disabled":false,"rental_uris":{"android":"levelo://app?vid=295b0419-415d-42cd-9c8a-f34cdd0f33af","ios":"levelo://app?vid=295b0419-415d-42cd-9c8a-f34cdd0f33af"},"vehicle_type_id":"4","last_reported":1740647407,"current_range_meters":11600,"station_id":"ce4bhnp2rcd13ifvqgvg","pricing_plan_id":"cebpf4jnsgd1na2vs0mg"},{"bike_id":"d46ceb86-c9b9-4e32-a73b-5c57ba0e92e9","system_id":"levelo_inurba_marseille","lat":43.24054,"lon":5.37753,"is_reserved":false,"is_disabled":false,"rental_uris":{"android":"levelo://app?vid=d46ceb86-c9b9-4e32-a73b-5c57ba0e92e9","ios":"levelo://app?vid=d46ceb86-c9b9-4e32-a73b-5c57ba0e92e9"},"vehicle_type_id":"4","last_reported":1740647407,"current_range_meters":6400,"station_id":"ce4bhnp2rcd13ifvqgvg","pricing_plan_id":"cebpf4jnsgd1na2vs0mg"},{"bike_id":"946ffe70-3e7c-49a6-8659-388e8c6a00a1","system_id":"levelo_inurba_marseille","lat":43.2695,"lon":5.38652,"is_reserved":false,"is_disabled":false,"rental_uris":{"android":"levelo://app?vid=946ffe70-3e7c-49a6-8659-388e8c6a00a1","ios":"levelo://app?vid=946ffe70-3e7c-49a6-8659-388e8c6a00a1"},"vehicle_type_id":"4","last_reported":1740647407,"current_range_meters":11600,"station_id":"ce4bhh92rcd13ifvqfh0","pricing_plan_id":"cebpf4jnsgd1na2vs0mg"},{"bike_id":"dc1deb5f-be60-47dd-a397-2458bf714b12","system_id":"levelo_inurba_marseille","lat":43.23083,"lon":5.35515,"is_reserved":false,"is_disabled":false,"rental_uris":{"android":"levelo://app?vid=dc1deb5f-be60-47dd-a397-2458bf714b12","ios":"levelo://app?vid=dc1deb5f-be60-47dd-a397-2458bf714b12"},"vehicle_type_id":"4","last_reported":1740647407,"current_range_meters":11600,"station_id":"cpo3342slgdg3j2ifvpg","pricing_plan_id":"cebpf4jnsgd1na2vs0mg"},{"bike_id":"8e8c8f28-5ded-4009-8b85-0abff2958a77","system_id":"levelo_inurba_marseille","lat":43.31477,"lon":5.37284,"is_reserved":false,"is_disabled":false,"rental_uris":{"android":"levelo://app?vid=8e8c8f28-5ded-4009-8b85-0abff2958a77","ios":"levelo://app?vid=8e8c8f28-5ded-4009-8b85-0abff2958a77"},"vehicle_type_id":"4","last_reported":1740647407,"current_range_meters":11600,"station_id":"ce4bgt12rcd13ifvqcd0","pricing_plan_id":"cebpf4jnsgd1na2vs0mg"},{"bike_id":"cbc29fc5-da25-4bb7-846c-409f10d50509","system_id":"levelo_inurba_marseille","lat":43.3139,"lon":5.36718,"is_reserved":false,"is_disabled":false,"rental_uris":{"android":"levelo://app?vid=cbc29fc5-da25-4bb7-846c-409f10d50509","ios":"levelo://app?vid=cbc29fc5-da25-4bb7-846c-409f10d50509"},"vehicle_type_id":"4","last_reported":1740647407,"current_range_meters":11600,"station_id":"","pricing_plan_id":"cebpf4jnsgd1na2vs0mg"},{"bike_id":"1272c94e-1803-4e13-9050-3599469d8780","system_id":"levelo_inurba_marseille","lat":43.29154,"lon":5.37154,"is_reserved":false,"is_disabled":false,"rental_uris":{"android":"levelo://app?vid=1272c94e-1803-4e13-9050-3599469d8780","ios":"levelo://app?vid=1272c94e-1803-4e13-9050-3599469d8780"},"vehicle_type_id":"4","last_reported":1740647407,"current_range_meters":11200,"station_id":"ce4bha92rcd13ifvqeh0","pricing_plan_id":"cebpf4jnsgd1na2vs0mg"},{"bike_id":"d6600e6f-a7ec-4f57-b9b6-28a07f6b666e","system_id":"levelo_inurba_marseille","lat":43.24389,"lon":5.37057,"is_reserved":false,"is_disabled":false,"rental_uris":{"android":"levelo://app?vid=d6600e6f-a7ec-4f57-b9b6-28a07f6b666e","ios":"levelo://app?vid=d6600e6f-a7ec-4f57-b9b6-28a07f6b666e"},"vehicle_type_id":"4","last_reported":1740647407,"current_range_meters":11200,"station_id":"ce4bhhh2rcd13ifvqfk0","pricing_plan_id":"cebpf4jnsgd1na2vs0mg"},{"bike_id":"d52f0219-7e16-4dc5-bdd6-5f76ea649f0a","system_id":"levelo_inurba_marseille","lat":43.30902,"lon":5.37187,"is_reserved":false,"is_disabled":false,"rental_uris":{"android":"levelo://app?vid=d52f0219-7e16-4dc5-bdd6-5f76ea649f0a","ios":"levelo://app?vid=d52f0219-7e16-4dc5-bdd6-5f76ea649f0a"},"vehicle_type_id":"4","last_reported":1740647407,"current_range_meters":11600,"station_id":"ce4bguh2rcd13ifvqckg","pricing_plan_id":"cebpf4jnsgd1na2vs0mg"},{"bike_id":"b0e2d516-c387-43ec-bccd-1bf33aa90f24","system_id":"levelo_inurba_marseille","lat":43.2922,"lon":5.36085,"is_reserved":false,"is_disabled":false,"rental_uris":{"android":"levelo://app?vid=b0e2d516-c387-43ec-bccd-1bf33aa90f24","ios":"levelo://app?vid=b0e2d516-c387-43ec-bccd-1bf33aa90f24"},"vehicle_type_id":"4","last_reported":1740647407,"current_range_meters":11600,"station_id":"ce4bhbh2rcd13ifvqeqg","pricing_plan_id":"cebpf4jnsgd1na2vs0mg"},{"bike_id":"3335c330-0010-4180-a785-8976a222826f","system_id":"levelo_inurba_marseille","lat":43.26946,"lon":5.38912,"is_reserved":false,"is_disabled":false,"rental_uris":{"android":"levelo://app?vid=3335c330-0010-4180-a785-8976a222826f","ios":"levelo://app?vid=3335c330-0010-4180-a785-8976a222826f"},"vehicle_type_id":"4","last_reported":1740647407,"current_range_meters":12000,"station_id":"ce4bhhh2rcd13ifvqfl0","pricing_plan_id":"cebpf4jnsgd1na2vs0mg"},{"bike_id":"7ba56adb-fef1-4fb4-94ed-3de8114f6441","system_id":"levelo_inurba_marseille","lat":43.31467,"lon":5.36634,"is_reserved":false,"is_disabled":false,"rental_uris":{"android":"levelo://app?vid=7ba56adb-fef1-4fb4-94ed-3de8114f6441","ios":"levelo://app?vid=7ba56adb-fef1-4fb4-94ed-3de8114f6441"},"vehicle_type_id":"4","last_reported":1740647407,"current_range_meters":12000,"station_id":"","pricing_plan_id":"cebpf4jnsgd1na2vs0mg"},{"bike_id":"5fdbaa49-16e6-43d7-bb68-6ad87f72c301","system_id":"levelo_inurba_marseille","lat":43.33099,"lon":5.40852,"is_reserved":false,"is_disabled":false,"rental_uris":{"android":"levelo://app?vid=5fdbaa49-16e6-43d7-bb68-6ad87f72c301","ios":"levelo://app?vid=5fdbaa49-16e6-43d7-bb68-6ad87f72c301"},"vehicle_type_id":"4","last_reported":1740647407,"current_range_meters":12400,"station_id":"","pricing_plan_id":"cebpf4jnsgd1na2vs0mg"},{"bike_id":"f9364cab-7851-4711-aa90-7b8a85c15ef6","system_id":"levelo_inurba_marseille","lat":43.30952,"lon":5.39047,"is_reserved":false,"is_disabled":false,"rental_uris":{"android":"levelo://app?vid=f9364cab-7851-4711-aa90-7b8a85c15ef6","ios":"levelo://app?vid=f9364cab-7851-4711-aa90-7b8a85c15ef6"},"vehicle_type_id":"4","last_reported":1740647407,"current_range_meters":12400,"station_id":"ce4bgup2rcd13ifvqco0","pricing_plan_id":"cebpf4jnsgd1na2vs0mg"},{"bike_id":"59ee61a2-a71b-4362-acc5-4789299e013e","system_id":"levelo_inurba_marseille","lat":43.30137,"lon":5.37416,"is_reserved":false,"is_disabled":false,"rental_uris":{"android":"levelo://app?vid=59ee61a2-a71b-4362-acc5-4789299e013e","ios":"levelo://app?vid=59ee61a2-a71b-4362-acc5-4789299e013e"},"vehicle_type_id":"4","last_reported":1740647407,"current_range_meters":12800,"station_id":"ce4bgs92rcd13ifvqcc0","pricing_plan_id":"cebpf4jnsgd1na2vs0mg"},{"bike_id":"3ef4a283-1278-481d-a678-2032504e228a","system_id":"levelo_inurba_marseille","lat":43.28987,"lon":5.35607,"is_reserved":false,"is_disabled":true,"rental_uris":{"android":"levelo://app?vid=3ef4a283-1278-481d-a678-2032504e228a","ios":"levelo://app?vid=3ef4a283-1278-481d-a678-2032504e228a"},"vehicle_type_id":"4","last_reported":1740647407,"current_range_meters":12800,"station_id":"ce4bhb92rcd13ifvqen0","pricing_plan_id":"cebpf4jnsgd1na2vs0mg"},{"bike_id":"9c05c137-ce73-4888-83ec-51c9674942d3","system_id":"levelo_inurba_marseille","lat":43.31386,"lon":5.36712,"is_reserved":false,"is_disabled":false,"rental_uris":{"android":"levelo://app?vid=9c05c137-ce73-4888-83ec-51c9674942d3","ios":"levelo://app?vid=9c05c137-ce73-4888-83ec-51c9674942d3"},"vehicle_type_id":"4","last_reported":1740647407,"current_range_meters":12800,"station_id":"","pricing_plan_id":"cebpf4jnsgd1na2vs0mg"},{"bike_id":"7b4a7b31-dfde-4dd9-b825-5bc1ea540114","system_id":"levelo_inurba_marseille","lat":43.25813,"lon":5.39448,"is_reserved":false,"is_disabled":false,"rental_uris":{"android":"levelo://app?vid=7b4a7b31-dfde-4dd9-b825-5bc1ea540114","ios":"levelo://app?vid=7b4a7b31-dfde-4dd9-b825-5bc1ea540114"},"vehicle_type_id":"4","last_reported":1740647407,"current_range_meters":12000,"station_id":"ce4bhip2rcd13ifvqft0","pricing_plan_id":"cebpf4jnsgd1na2vs0mg"},{"bike_id":"574a9002-9895-49da-baac-459cbf1a4d4b","system_id":"levelo_inurba_marseille","lat":43.2318,"lon":5.43716,"is_reserved":false,"is_disabled":false,"rental_uris":{"android":"levelo://app?vid=574a9002-9895-49da-baac-459cbf1a4d4b","ios":"levelo://app?vid=574a9002-9895-49da-baac-459cbf1a4d4b"},"vehicle_type_id":"4","last_reported":1740647407,"current_range_meters":12800,"station_id":"ce4bhmp2rcd13ifvqgog","pricing_plan_id":"cebpf4jnsgd1na2vs0mg"},{"bike_id":"0844a524-fe27-4a49-aa65-2c2742fd552e","system_id":"levelo_inurba_marseille","lat":43.31401,"lon":5.36667,"is_reserved":false,"is_disabled":false,"rental_uris":{"android":"levelo://app?vid=0844a524-fe27-4a49-aa65-2c2742fd552e","ios":"levelo://app?vid=0844a524-fe27-4a49-aa65-2c2742fd552e"},"vehicle_type_id":"4","last_reported":1740647407,"current_range_meters":12400,"station_id":"ce4bgr92rcd13ifvqc6g","pricing_plan_id":"cebpf4jnsgd1na2vs0mg"},{"bike_id":"40024dd7-8ca5-4729-97d4-c28bc6ab3adc","system_id":"levelo_inurba_marseille","lat":43.30889,"lon":5.39665,"is_reserved":false,"is_disabled":false,"rental_uris":{"android":"levelo://app?vid=40024dd7-8ca5-4729-97d4-c28bc6ab3adc","ios":"levelo://app?vid=40024dd7-8ca5-4729-97d4-c28bc6ab3adc"},"vehicle_type_id":"4","last_reported":1740647407,"current_range_meters":14000,"station_id":"ce4bh012rcd13ifvqcv0","pricing_plan_id":"cebpf4jnsgd1na2vs0mg"},{"bike_id":"914e4567-1169-42f3-be7e-93619cd0098d","system_id":"levelo_inurba_marseille","lat":43.27196,"lon":5.39207,"is_reserved":false,"is_disabled":false,"rental_uris":{"android":"levelo://app?vid=914e4567-1169-42f3-be7e-93619cd0098d","ios":"levelo://app?vid=914e4567-1169-42f3-be7e-93619cd0098d"},"vehicle_type_id":"4","last_reported":1740647407,"current_range_meters":12800,"station_id":"ce4bhhp2rcd13ifvqfm0","pricing_plan_id":"cebpf4jnsgd1na2vs0mg"},{"bike_id":"c4719f95-4a13-4a46-8e8f-2522590731b1","system_id":"levelo_inurba_marseille","lat":43.29167,"lon":5.37174,"is_reserved":false,"is_disabled":false,"rental_uris":{"android":"levelo://app?vid=c4719f95-4a13-4a46-8e8f-2522590731b1","ios":"levelo://app?vid=c4719f95-4a13-4a46-8e8f-2522590731b1"},"vehicle_type_id":"4","last_reported":1740647407,"current_range_meters":12800,"station_id":"ce4bha92rcd13ifvqeh0","pricing_plan_id":"cebpf4jnsgd1na2vs0mg"},{"bike_id":"cb2d712c-f220-43f3-a59c-fe4205f43704","system_id":"levelo_inurba_marseille","lat":43.29917,"lon":5.37466,"is_reserved":false,"is_disabled":false,"rental_uris":{"android":"levelo://app?vid=cb2d712c-f220-43f3-a59c-fe4205f43704","ios":"levelo://app?vid=cb2d712c-f220-43f3-a59c-fe4205f43704"},"vehicle_type_id":"4","last_reported":1740647407,"current_range_meters":14400,"station_id":"ce4bgjh2rcd13ifvqbg0","pricing_plan_id":"cebpf4jnsgd1na2vs0mg"},{"bike_id":"994d680b-5075-4d9e-a7e0-a56305cb089a","system_id":"levelo_inurba_marseille","lat":43.3096,"lon":5.39042,"is_reserved":false,"is_disabled":true,"rental_uris":{"android":"levelo://app?vid=994d680b-5075-4d9e-a7e0-a56305cb089a","ios":"levelo://app?vid=994d680b-5075-4d9e-a7e0-a56305cb089a"},"vehicle_type_id":"4","last_reported":1740647407,"current_range_meters":13600,"station_id":"ce4bgup2rcd13ifvqco0","pricing_plan_id":"cebpf4jnsgd1na2vs0mg"},{"bike_id":"a2c1fdb5-0e44-4886-bd09-1c70cc3b8741","system_id":"levelo_inurba_marseille","lat":43.29891,"lon":5.397234,"is_reserved":false,"is_disabled":false,"rental_uris":{"android":"levelo://app?vid=a2c1fdb5-0e44-4886-bd09-1c70cc3b8741","ios":"levelo://app?vid=a2c1fdb5-0e44-4886-bd09-1c70cc3b8741"},"vehicle_type_id":"4","last_reported":1740647407,"current_range_meters":13600,"station_id":"ce4bh0h2rcd13ifvqd50","pricing_plan_id":"cebpf4jnsgd1na2vs0mg"},{"bike_id":"297351b6-b1b5-419a-ac4e-5bf36378e1e5","system_id":"levelo_inurba_marseille","lat":43.30192,"lon":5.36618,"is_reserved":false,"is_disabled":false,"rental_uris":{"android":"levelo://app?vid=297351b6-b1b5-419a-ac4e-5bf36378e1e5","ios":"levelo://app?vid=297351b6-b1b5-419a-ac4e-5bf36378e1e5"},"vehicle_type_id":"4","last_reported":1740647407,"current_range_meters":14000,"station_id":"ce4bgrh2rcd13ifvqc8g","pricing_plan_id":"cebpf4jnsgd1na2vs0mg"},{"bike_id":"1f09e08f-2e31-492a-acb6-5542f0406595","system_id":"levelo_inurba_marseille","lat":43.30961,"lon":5.39052,"is_reserved":false,"is_disabled":false,"rental_uris":{"android":"levelo://app?vid=1f09e08f-2e31-492a-acb6-5542f0406595","ios":"levelo://app?vid=1f09e08f-2e31-492a-acb6-5542f0406595"},"vehicle_type_id":"4","last_reported":1740647407,"current_range_meters":16000,"station_id":"ce4bgup2rcd13ifvqco0","pricing_plan_id":"cebpf4jnsgd1na2vs0mg"},{"bike_id":"3648d549-1aa7-44d1-bde4-30bac4ece65c","system_id":"levelo_inurba_marseille","lat":43.2558,"lon":5.38233,"is_reserved":false,"is_disabled":false,"rental_uris":{"android":"levelo://app?vid=3648d549-1aa7-44d1-bde4-30bac4ece65c","ios":"levelo://app?vid=3648d549-1aa7-44d1-bde4-30bac4ece65c"},"vehicle_type_id":"4","last_reported":1740647407,"current_range_meters":14000,"station_id":"ce4bhih2rcd13ifvqfs0","pricing_plan_id":"cebpf4jnsgd1na2vs0mg"},{"bike_id":"cdc21177-0942-4c5b-a1dc-b82b13b9f8d6","system_id":"levelo_inurba_marseille","lat":43.30877,"lon":5.372,"is_reserved":false,"is_disabled":false,"rental_uris":{"android":"levelo://app?vid=cdc21177-0942-4c5b-a1dc-b82b13b9f8d6","ios":"levelo://app?vid=cdc21177-0942-4c5b-a1dc-b82b13b9f8d6"},"vehicle_type_id":"4","last_reported":1740647407,"current_range_meters":14000,"station_id":"ce4bguh2rcd13ifvqckg","pricing_plan_id":"cebpf4jnsgd1na2vs0mg"},{"bike_id":"1cae167f-4c13-44fa-a325-70190dc458be","system_id":"levelo_inurba_marseille","lat":43.26947,"lon":5.38643,"is_reserved":false,"is_disabled":false,"rental_uris":{"android":"levelo://app?vid=1cae167f-4c13-44fa-a325-70190dc458be","ios":"levelo://app?vid=1cae167f-4c13-44fa-a325-70190dc458be"},"vehicle_type_id":"4","last_reported":1740647407,"current_range_meters":14000,"station_id":"ce4bhh92rcd13ifvqfh0","pricing_plan_id":"cebpf4jnsgd1na2vs0mg"},{"bike_id":"fd5e8533-291d-4f54-84e6-000d68f89708","system_id":"levelo_inurba_marseille","lat":43.26219,"lon":5.37457,"is_reserved":false,"is_disabled":false,"rental_uris":{"android":"levelo://app?vid=fd5e8533-291d-4f54-84e6-000d68f89708","ios":"levelo://app?vid=fd5e8533-291d-4f54-84e6-000d68f89708"},"vehicle_type_id":"4","last_reported":1740647407,"current_range_meters":13600,"station_id":"ce4bhgp2rcd13ifvqfc0","pricing_plan_id":"cebpf4jnsgd1na2vs0mg"},{"bike_id":"0c0cfd8f-89db-4495-84c3-4710780d902e","system_id":"levelo_inurba_marseille","lat":43.2594,"lon":5.40908,"is_reserved":false,"is_disabled":false,"rental_uris":{"android":"levelo://app?vid=0c0cfd8f-89db-4495-84c3-4710780d902e","ios":"levelo://app?vid=0c0cfd8f-89db-4495-84c3-4710780d902e"},"vehicle_type_id":"4","last_reported":1740647407,"current_range_meters":14000,"station_id":"ce4bhm92rcd13ifvqglg","pricing_plan_id":"cebpf4jnsgd1na2vs0mg"},{"bike_id":"76600114-5784-4583-93bf-2b9eb7ba7af2","system_id":"levelo_inurba_marseille","lat":43.26219,"lon":5.37448,"is_reserved":false,"is_disabled":false,"rental_uris":{"android":"levelo://app?vid=76600114-5784-4583-93bf-2b9eb7ba7af2","ios":"levelo://app?vid=76600114-5784-4583-93bf-2b9eb7ba7af2"},"vehicle_type_id":"4","last_reported":1740647407,"current_range_meters":16000,"station_id":"ce4bhgp2rcd13ifvqfc0","pricing_plan_id":"cebpf4jnsgd1na2vs0mg"},{"bike_id":"4c0d75b3-2f2f-43b3-baef-581da01c628e","system_id":"levelo_inurba_marseille","lat":43.3019,"lon":5.36606,"is_reserved":false,"is_disabled":false,"rental_uris":{"android":"levelo://app?vid=4c0d75b3-2f2f-43b3-baef-581da01c628e","ios":"levelo://app?vid=4c0d75b3-2f2f-43b3-baef-581da01c628e"},"vehicle_type_id":"4","last_reported":1740647407,"current_range_meters":14400,"station_id":"ce4bgrh2rcd13ifvqc8g","pricing_plan_id":"cebpf4jnsgd1na2vs0mg"},{"bike_id":"57b1c3ae-4036-448f-9965-55a14ec36317","system_id":"levelo_inurba_marseille","lat":43.24198,"lon":5.39789,"is_reserved":false,"is_disabled":false,"rental_uris":{"android":"levelo://app?vid=57b1c3ae-4036-448f-9965-55a14ec36317","ios":"levelo://app?vid=57b1c3ae-4036-448f-9965-55a14ec36317"},"vehicle_type_id":"4","last_reported":1740647407,"current_range_meters":14400,"station_id":"","pricing_plan_id":"cebpf4jnsgd1na2vs0mg"},{"bike_id":"7224fe2b-b61b-402c-9357-22d4caef14c8","system_id":"levelo_inurba_marseille","lat":43.30958,"lon":5.39056,"is_reserved":false,"is_disabled":false,"rental_uris":{"android":"levelo://app?vid=7224fe2b-b61b-402c-9357-22d4caef14c8","ios":"levelo://app?vid=7224fe2b-b61b-402c-9357-22d4caef14c8"},"vehicle_type_id":"4","last_reported":1740647407,"current_range_meters":14800,"station_id":"ce4bgup2rcd13ifvqco0","pricing_plan_id":"cebpf4jnsgd1na2vs0mg"},{"bike_id":"a05f0b98-a92c-4bff-8a2e-dc25e96a6b19","system_id":"levelo_inurba_marseille","lat":43.28625,"lon":5.35101,"is_reserved":false,"is_disabled":false,"rental_uris":{"android":"levelo://app?vid=a05f0b98-a92c-4bff-8a2e-dc25e96a6b19","ios":"levelo://app?vid=a05f0b98-a92c-4bff-8a2e-dc25e96a6b19"},"vehicle_type_id":"4","last_reported":1740647407,"current_range_meters":15200,"station_id":"ce4bhch2rcd13ifvqeug","pricing_plan_id":"cebpf4jnsgd1na2vs0mg"},{"bike_id":"3de9aeda-1f9a-4bbc-8b90-e02a49e56ca9","system_id":"levelo_inurba_marseille","lat":43.23199,"lon":5.35569,"is_reserved":false,"is_disabled":false,"rental_uris":{"android":"levelo://app?vid=3de9aeda-1f9a-4bbc-8b90-e02a49e56ca9","ios":"levelo://app?vid=3de9aeda-1f9a-4bbc-8b90-e02a49e56ca9"},"vehicle_type_id":"4","last_reported":1740647407,"current_range_meters":14800,"station_id":"ce4bhu92rcd13ifvqi70","pricing_plan_id":"cebpf4jnsgd1na2vs0mg"},{"bike_id":"f8d94334-b5af-41e5-9e37-b48b1bc135ec","system_id":"levelo_inurba_marseille","lat":43.3031,"lon":5.36906,"is_reserved":false,"is_disabled":false,"rental_uris":{"android":"levelo://app?vid=f8d94334-b5af-41e5-9e37-b48b1bc135ec","ios":"levelo://app?vid=f8d94334-b5af-41e5-9e37-b48b1bc135ec"},"vehicle_type_id":"4","last_reported":1740647407,"current_range_meters":15200,"station_id":"ce4bgqh2rcd13ifvqc5g","pricing_plan_id":"cebpf4jnsgd1na2vs0mg"},{"bike_id":"8002ee20-1edd-4e2b-a4a5-f41e95e45878","system_id":"levelo_inurba_marseille","lat":43.29376,"lon":5.38587,"is_reserved":false,"is_disabled":false,"rental_uris":{"android":"levelo://app?vid=8002ee20-1edd-4e2b-a4a5-f41e95e45878","ios":"levelo://app?vid=8002ee20-1edd-4e2b-a4a5-f41e95e45878"},"vehicle_type_id":"4","last_reported":1740647407,"current_range_meters":15200,"station_id":"","pricing_plan_id":"cebpf4jnsgd1na2vs0mg"},{"bike_id":"f2652af0-7f89-4f32-835a-da4ab8b102ce","system_id":"levelo_inurba_marseille","lat":43.28421,"lon":5.34987,"is_reserved":false,"is_disabled":false,"rental_uris":{"android":"levelo://app?vid=f2652af0-7f89-4f32-835a-da4ab8b102ce","ios":"levelo://app?vid=f2652af0-7f89-4f32-835a-da4ab8b102ce"},"vehicle_type_id":"4","last_reported":1740647407,"current_range_meters":15200,"station_id":"ce4bhbh2rcd13ifvqepg","pricing_plan_id":"cebpf4jnsgd1na2vs0mg"},{"bike_id":"201b43e1-9166-4b93-9ecb-211bb1985890","system_id":"levelo_inurba_marseille","lat":43.3236,"lon":5.36764,"is_reserved":false,"is_disabled":false,"rental_uris":{"android":"levelo://app?vid=201b43e1-9166-4b93-9ecb-211bb1985890","ios":"levelo://app?vid=201b43e1-9166-4b93-9ecb-211bb1985890"},"vehicle_type_id":"4","last_reported":1740647407,"current_range_meters":16000,"station_id":"ce4bhsh2rcd13ifvqi2g","pricing_plan_id":"cebpf4jnsgd1na2vs0mg"},{"bike_id":"29345f8d-f23f-4d7a-9146-eb58e4bac72c","system_id":"levelo_inurba_marseille","lat":43.30918,"lon":5.36851,"is_reserved":false,"is_disabled":false,"rental_uris":{"android":"levelo://app?vid=29345f8d-f23f-4d7a-9146-eb58e4bac72c","ios":"levelo://app?vid=29345f8d-f23f-4d7a-9146-eb58e4bac72c"},"vehicle_type_id":"4","last_reported":1740647407,"current_range_meters":15200,"station_id":"ce4bgn92rcd13ifvqbvg","pricing_plan_id":"cebpf4jnsgd1na2vs0mg"},{"bike_id":"78ef865e-3c4c-44af-ae53-b3a16b5b62fe","system_id":"levelo_inurba_marseille","lat":43.26968,"lon":5.3868,"is_reserved":false,"is_disabled":false,"rental_uris":{"android":"levelo://app?vid=78ef865e-3c4c-44af-ae53-b3a16b5b62fe","ios":"levelo://app?vid=78ef865e-3c4c-44af-ae53-b3a16b5b62fe"},"vehicle_type_id":"4","last_reported":1740647407,"current_range_meters":15200,"station_id":"ce4bhh92rcd13ifvqfh0","pricing_plan_id":"cebpf4jnsgd1na2vs0mg"},{"bike_id":"8f42ed0a-55b0-4ea3-940b-b9461e3276fa","system_id":"levelo_inurba_marseille","lat":43.30536,"lon":5.36715,"is_reserved":false,"is_disabled":false,"rental_uris":{"android":"levelo://app?vid=8f42ed0a-55b0-4ea3-940b-b9461e3276fa","ios":"levelo://app?vid=8f42ed0a-55b0-4ea3-940b-b9461e3276fa"},"vehicle_type_id":"4","last_reported":1740647407,"current_range_meters":15200,"station_id":"ce4bgrp2rcd13ifvqc9g","pricing_plan_id":"cebpf4jnsgd1na2vs0mg"},{"bike_id":"d87a4773-6328-43f6-871f-76210bb4e613","system_id":"levelo_inurba_marseille","lat":43.31508,"lon":5.37287,"is_reserved":false,"is_disabled":false,"rental_uris":{"android":"levelo://app?vid=d87a4773-6328-43f6-871f-76210bb4e613","ios":"levelo://app?vid=d87a4773-6328-43f6-871f-76210bb4e613"},"vehicle_type_id":"4","last_reported":1740647407,"current_range_meters":16000,"station_id":"ce4bgt12rcd13ifvqcd0","pricing_plan_id":"cebpf4jnsgd1na2vs0mg"},{"bike_id":"4dd10093-cfa7-4e34-a348-c91314291a1a","system_id":"levelo_inurba_marseille","lat":43.2911,"lon":5.38148,"is_reserved":false,"is_disabled":false,"rental_uris":{"android":"levelo://app?vid=4dd10093-cfa7-4e34-a348-c91314291a1a","ios":"levelo://app?vid=4dd10093-cfa7-4e34-a348-c91314291a1a"},"vehicle_type_id":"4","last_reported":1740647407,"current_range_meters":16400,"station_id":"ce4bh512rcd13ifvqe2g","pricing_plan_id":"cebpf4jnsgd1na2vs0mg"},{"bike_id":"40e25f70-02b5-4811-add6-6e8dbc26a035","system_id":"levelo_inurba_marseille","lat":43.28419,"lon":5.3501,"is_reserved":false,"is_disabled":false,"rental_uris":{"android":"levelo://app?vid=40e25f70-02b5-4811-add6-6e8dbc26a035","ios":"levelo://app?vid=40e25f70-02b5-4811-add6-6e8dbc26a035"},"vehicle_type_id":"4","last_reported":1740647407,"current_range_meters":16000,"station_id":"ce4bhbh2rcd13ifvqepg","pricing_plan_id":"cebpf4jnsgd1na2vs0mg"},{"bike_id":"307712ab-2a23-4c58-b5e5-346e1128dcdc","system_id":"levelo_inurba_marseille","lat":43.26203,"lon":5.37928,"is_reserved":false,"is_disabled":false,"rental_uris":{"android":"levelo://app?vid=307712ab-2a23-4c58-b5e5-346e1128dcdc","ios":"levelo://app?vid=307712ab-2a23-4c58-b5e5-346e1128dcdc"},"vehicle_type_id":"4","last_reported":1740647407,"current_range_meters":15200,"station_id":"ce4bhjp2rcd13ifvqg90","pricing_plan_id":"cebpf4jnsgd1na2vs0mg"},{"bike_id":"cb0100c1-62b6-4588-8f0a-cd43de3011b7","system_id":"levelo_inurba_marseille","lat":43.2958,"lon":5.37517,"is_reserved":false,"is_disabled":false,"rental_uris":{"android":"levelo://app?vid=cb0100c1-62b6-4588-8f0a-cd43de3011b7","ios":"levelo://app?vid=cb0100c1-62b6-4588-8f0a-cd43de3011b7"},"vehicle_type_id":"4","last_reported":1740647407,"current_range_meters":14400,"station_id":"ce4bgh92rcd13ifvqb50","pricing_plan_id":"cebpf4jnsgd1na2vs0mg"},{"bike_id":"5c9bd7db-8a6c-43a7-bede-f07d72b67bf3","system_id":"levelo_inurba_marseille","lat":43.24085,"lon":5.37751,"is_reserved":false,"is_disabled":false,"rental_uris":{"android":"levelo://app?vid=5c9bd7db-8a6c-43a7-bede-f07d72b67bf3","ios":"levelo://app?vid=5c9bd7db-8a6c-43a7-bede-f07d72b67bf3"},"vehicle_type_id":"4","last_reported":1740647407,"current_range_meters":16000,"station_id":"ce4bhnp2rcd13ifvqgvg","pricing_plan_id":"cebpf4jnsgd1na2vs0mg"},{"bike_id":"1b5f4aee-1585-40ad-addd-3453cef49265","system_id":"levelo_inurba_marseille","lat":43.298004,"lon":5.365883,"is_reserved":false,"is_disabled":false,"rental_uris":{"android":"levelo://app?vid=1b5f4aee-1585-40ad-addd-3453cef49265","ios":"levelo://app?vid=1b5f4aee-1585-40ad-addd-3453cef49265"},"vehicle_type_id":"4","last_reported":1740647407,"current_range_meters":16000,"station_id":"ce4bgqh2rcd13ifvqc4g","pricing_plan_id":"cebpf4jnsgd1na2vs0mg"},{"bike_id":"d337cc62-b29d-4e4a-bd4f-e767bd643d41","system_id":"levelo_inurba_marseille","lat":43.32126,"lon":5.36805,"is_reserved":false,"is_disabled":false,"rental_uris":{"android":"levelo://app?vid=d337cc62-b29d-4e4a-bd4f-e767bd643d41","ios":"levelo://app?vid=d337cc62-b29d-4e4a-bd4f-e767bd643d41"},"vehicle_type_id":"4","last_reported":1740647407,"current_range_meters":16000,"station_id":"ce4bhrh2rcd13ifvqhug","pricing_plan_id":"cebpf4jnsgd1na2vs0mg"},{"bike_id":"6bf62df5-9f2c-4676-be2e-3425368f3119","system_id":"levelo_inurba_marseille","lat":43.29348,"lon":5.38256,"is_reserved":false,"is_disabled":false,"rental_uris":{"android":"levelo://app?vid=6bf62df5-9f2c-4676-be2e-3425368f3119","ios":"levelo://app?vid=6bf62df5-9f2c-4676-be2e-3425368f3119"},"vehicle_type_id":"4","last_reported":1740647407,"current_range_meters":16000,"station_id":"","pricing_plan_id":"cebpf4jnsgd1na2vs0mg"},{"bike_id":"a9cd3669-c82b-4e1e-8ede-0275061c0a7f","system_id":"levelo_inurba_marseille","lat":43.26939,"lon":5.38916,"is_reserved":false,"is_disabled":false,"rental_uris":{"android":"levelo://app?vid=a9cd3669-c82b-4e1e-8ede-0275061c0a7f","ios":"levelo://app?vid=a9cd3669-c82b-4e1e-8ede-0275061c0a7f"},"vehicle_type_id":"4","last_reported":1740647407,"current_range_meters":13600,"station_id":"ce4bhhh2rcd13ifvqfl0","pricing_plan_id":"cebpf4jnsgd1na2vs0mg"},{"bike_id":"31c58e5d-9342-432b-b32a-4dfcdf1667fa","system_id":"levelo_inurba_marseille","lat":43.24399,"lon":5.37065,"is_reserved":false,"is_disabled":false,"rental_uris":{"android":"levelo://app?vid=31c58e5d-9342-432b-b32a-4dfcdf1667fa","ios":"levelo://app?vid=31c58e5d-9342-432b-b32a-4dfcdf1667fa"},"vehicle_type_id":"4","last_reported":1740647407,"current_range_meters":16000,"station_id":"ce4bhhh2rcd13ifvqfk0","pricing_plan_id":"cebpf4jnsgd1na2vs0mg"},{"bike_id":"fef3ecb8-09ca-4266-8165-ee8eeb4851d7","system_id":"levelo_inurba_marseille","lat":43.3019,"lon":5.36609,"is_reserved":false,"is_disabled":false,"rental_uris":{"android":"levelo://app?vid=fef3ecb8-09ca-4266-8165-ee8eeb4851d7","ios":"levelo://app?vid=fef3ecb8-09ca-4266-8165-ee8eeb4851d7"},"vehicle_type_id":"4","last_reported":1740647407,"current_range_meters":16000,"station_id":"ce4bgrh2rcd13ifvqc8g","pricing_plan_id":"cebpf4jnsgd1na2vs0mg"},{"bike_id":"d4918d6a-5525-4be8-b0c4-7af64b54343d","system_id":"levelo_inurba_marseille","lat":43.24166,"lon":5.3642,"is_reserved":false,"is_disabled":false,"rental_uris":{"android":"levelo://app?vid=d4918d6a-5525-4be8-b0c4-7af64b54343d","ios":"levelo://app?vid=d4918d6a-5525-4be8-b0c4-7af64b54343d"},"vehicle_type_id":"4","last_reported":1740647407,"current_range_meters":16800,"station_id":"cpo36qri1sfpv3e86is0","pricing_plan_id":"cebpf4jnsgd1na2vs0mg"},{"bike_id":"9236ff31-8ae6-4833-bba3-ea3337e68ef3","system_id":"levelo_inurba_marseille","lat":43.27503,"lon":5.42455,"is_reserved":false,"is_disabled":false,"rental_uris":{"android":"levelo://app?vid=9236ff31-8ae6-4833-bba3-ea3337e68ef3","ios":"levelo://app?vid=9236ff31-8ae6-4833-bba3-ea3337e68ef3"},"vehicle_type_id":"4","last_reported":1740647407,"current_range_meters":16400,"station_id":"ce4bhn92rcd13ifvqgrg","pricing_plan_id":"cebpf4jnsgd1na2vs0mg"},{"bike_id":"552adb74-5e7f-4b4c-a6b0-1281ba4e3eb8","system_id":"levelo_inurba_marseille","lat":43.33605,"lon":5.41032,"is_reserved":false,"is_disabled":false,"rental_uris":{"android":"levelo://app?vid=552adb74-5e7f-4b4c-a6b0-1281ba4e3eb8","ios":"levelo://app?vid=552adb74-5e7f-4b4c-a6b0-1281ba4e3eb8"},"vehicle_type_id":"4","last_reported":1740647407,"current_range_meters":18800,"station_id":"ce4bhqh2rcd13ifvqhmg","pricing_plan_id":"cebpf4jnsgd1na2vs0mg"},{"bike_id":"8e5970ad-dc10-42e4-955e-ae8f9c3e18b8","system_id":"levelo_inurba_marseille","lat":43.27976,"lon":5.41066,"is_reserved":false,"is_disabled":false,"rental_uris":{"android":"levelo://app?vid=8e5970ad-dc10-42e4-955e-ae8f9c3e18b8","ios":"levelo://app?vid=8e5970ad-dc10-42e4-955e-ae8f9c3e18b8"},"vehicle_type_id":"4","last_reported":1740647407,"current_range_meters":16400,"station_id":"ce4bhnp2rcd13ifvqh0g","pricing_plan_id":"cebpf4jnsgd1na2vs0mg"},{"bike_id":"ef77bf7f-5b88-41c9-8d3b-c8c9c0447dd9","system_id":"levelo_inurba_marseille","lat":43.28065,"lon":5.35037,"is_reserved":false,"is_disabled":false,"rental_uris":{"android":"levelo://app?vid=ef77bf7f-5b88-41c9-8d3b-c8c9c0447dd9","ios":"levelo://app?vid=ef77bf7f-5b88-41c9-8d3b-c8c9c0447dd9"},"vehicle_type_id":"4","last_reported":1740647407,"current_range_meters":16400,"station_id":"","pricing_plan_id":"cebpf4jnsgd1na2vs0mg"},{"bike_id":"af1ddcad-43e7-43b3-af98-bb940c88b0c3","system_id":"levelo_inurba_marseille","lat":43.30952,"lon":5.39042,"is_reserved":false,"is_disabled":false,"rental_uris":{"android":"levelo://app?vid=af1ddcad-43e7-43b3-af98-bb940c88b0c3","ios":"levelo://app?vid=af1ddcad-43e7-43b3-af98-bb940c88b0c3"},"vehicle_type_id":"4","last_reported":1740647407,"current_range_meters":16400,"station_id":"ce4bgup2rcd13ifvqco0","pricing_plan_id":"cebpf4jnsgd1na2vs0mg"},{"bike_id":"65e2bace-5669-483f-ae74-4737d9cc846f","system_id":"levelo_inurba_marseille","lat":43.30959,"lon":5.39048,"is_reserved":false,"is_disabled":false,"rental_uris":{"android":"levelo://app?vid=65e2bace-5669-483f-ae74-4737d9cc846f","ios":"levelo://app?vid=65e2bace-5669-483f-ae74-4737d9cc846f"},"vehicle_type_id":"4","last_reported":1740647407,"current_range_meters":16800,"station_id":"ce4bgup2rcd13ifvqco0","pricing_plan_id":"cebpf4jnsgd1na2vs0mg"},{"bike_id":"775b4c4c-ad55-4b68-a005-d08c96ebdca8","system_id":"levelo_inurba_marseille","lat":43.24067,"lon":5.37759,"is_reserved":false,"is_disabled":false,"rental_uris":{"android":"levelo://app?vid=775b4c4c-ad55-4b68-a005-d08c96ebdca8","ios":"levelo://app?vid=775b4c4c-ad55-4b68-a005-d08c96ebdca8"},"vehicle_type_id":"4","last_reported":1740647407,"current_range_meters":16800,"station_id":"ce4bhnp2rcd13ifvqgvg","pricing_plan_id":"cebpf4jnsgd1na2vs0mg"},{"bike_id":"db969468-b380-4e55-a026-273e3aaa7506","system_id":"levelo_inurba_marseille","lat":43.31247,"lon":5.3684,"is_reserved":false,"is_disabled":false,"rental_uris":{"android":"levelo://app?vid=db969468-b380-4e55-a026-273e3aaa7506","ios":"levelo://app?vid=db969468-b380-4e55-a026-273e3aaa7506"},"vehicle_type_id":"4","last_reported":1740647407,"current_range_meters":16000,"station_id":"ce4bgl92rcd13ifvqbq0","pricing_plan_id":"cebpf4jnsgd1na2vs0mg"},{"bike_id":"3f5e4c77-943b-4a46-b257-614bf13afec4","system_id":"levelo_inurba_marseille","lat":43.24171,"lon":5.36399,"is_reserved":false,"is_disabled":false,"rental_uris":{"android":"levelo://app?vid=3f5e4c77-943b-4a46-b257-614bf13afec4","ios":"levelo://app?vid=3f5e4c77-943b-4a46-b257-614bf13afec4"},"vehicle_type_id":"4","last_reported":1740647407,"current_range_meters":16800,"station_id":"cpo36qri1sfpv3e86is0","pricing_plan_id":"cebpf4jnsgd1na2vs0mg"},{"bike_id":"537c2b03-19b8-4640-b49b-2272a9be26a9","system_id":"levelo_inurba_marseille","lat":43.28628,"lon":5.35108,"is_reserved":false,"is_disabled":false,"rental_uris":{"android":"levelo://app?vid=537c2b03-19b8-4640-b49b-2272a9be26a9","ios":"levelo://app?vid=537c2b03-19b8-4640-b49b-2272a9be26a9"},"vehicle_type_id":"4","last_reported":1740647407,"current_range_meters":16800,"station_id":"ce4bhch2rcd13ifvqeug","pricing_plan_id":"cebpf4jnsgd1na2vs0mg"},{"bike_id":"322b4ad3-46bf-4b03-9f85-72dc136cdb3a","system_id":"levelo_inurba_marseille","lat":43.31292,"lon":5.36846,"is_reserved":false,"is_disabled":false,"rental_uris":{"android":"levelo://app?vid=322b4ad3-46bf-4b03-9f85-72dc136cdb3a","ios":"levelo://app?vid=322b4ad3-46bf-4b03-9f85-72dc136cdb3a"},"vehicle_type_id":"4","last_reported":1740647407,"current_range_meters":16800,"station_id":"ce4bgl92rcd13ifvqbq0","pricing_plan_id":"cebpf4jnsgd1na2vs0mg"},{"bike_id":"50b008da-b491-414c-9a94-f7c3bd8bbc20","system_id":"levelo_inurba_marseille","lat":43.279695,"lon":5.387458,"is_reserved":false,"is_disabled":false,"rental_uris":{"android":"levelo://app?vid=50b008da-b491-414c-9a94-f7c3bd8bbc20","ios":"levelo://app?vid=50b008da-b491-414c-9a94-f7c3bd8bbc20"},"vehicle_type_id":"4","last_reported":1740647407,"current_range_meters":16800,"station_id":"ce4bhg12rcd13ifvqf80","pricing_plan_id":"cebpf4jnsgd1na2vs0mg"},{"bike_id":"627f9d50-99ab-4386-b5d3-b08940f1d52a","system_id":"levelo_inurba_marseille","lat":43.255795,"lon":5.382304,"is_reserved":false,"is_disabled":false,"rental_uris":{"android":"levelo://app?vid=627f9d50-99ab-4386-b5d3-b08940f1d52a","ios":"levelo://app?vid=627f9d50-99ab-4386-b5d3-b08940f1d52a"},"vehicle_type_id":"4","last_reported":1740647407,"current_range_meters":16800,"station_id":"ce4bhih2rcd13ifvqfs0","pricing_plan_id":"cebpf4jnsgd1na2vs0mg"},{"bike_id":"c7dedb1c-52a2-4f16-a315-a29637c333f1","system_id":"levelo_inurba_marseille","lat":43.30466,"lon":5.3791,"is_reserved":false,"is_disabled":false,"rental_uris":{"android":"levelo://app?vid=c7dedb1c-52a2-4f16-a315-a29637c333f1","ios":"levelo://app?vid=c7dedb1c-52a2-4f16-a315-a29637c333f1"},"vehicle_type_id":"4","last_reported":1740647407,"current_range_meters":16800,"station_id":"ce4bgup2rcd13ifvqcn0","pricing_plan_id":"cebpf4jnsgd1na2vs0mg"},{"bike_id":"465a0a6b-0db4-433d-99b6-d802d22c49c2","system_id":"levelo_inurba_marseille","lat":43.29705,"lon":5.37697,"is_reserved":false,"is_disabled":false,"rental_uris":{"android":"levelo://app?vid=465a0a6b-0db4-433d-99b6-d802d22c49c2","ios":"levelo://app?vid=465a0a6b-0db4-433d-99b6-d802d22c49c2"},"vehicle_type_id":"4","last_reported":1740647407,"current_range_meters":16800,"station_id":"ce4bgkh2rcd13ifvqbl0","pricing_plan_id":"cebpf4jnsgd1na2vs0mg"},{"bike_id":"1f89cc6d-f3f8-4ff4-aa00-466ff91e1adb","system_id":"levelo_inurba_marseille","lat":43.30801,"lon":5.43535,"is_reserved":false,"is_disabled":false,"rental_uris":{"android":"levelo://app?vid=1f89cc6d-f3f8-4ff4-aa00-466ff91e1adb","ios":"levelo://app?vid=1f89cc6d-f3f8-4ff4-aa00-466ff91e1adb"},"vehicle_type_id":"4","last_reported":1740647407,"current_range_meters":16400,"station_id":"ce4bhph2rcd13ifvqheg","pricing_plan_id":"cebpf4jnsgd1na2vs0mg"},{"bike_id":"c3b99a94-f646-4cee-813c-169f6b62ae5c","system_id":"levelo_inurba_marseille","lat":43.31689,"lon":5.40477,"is_reserved":false,"is_disabled":false,"rental_uris":{"android":"levelo://app?vid=c3b99a94-f646-4cee-813c-169f6b62ae5c","ios":"levelo://app?vid=c3b99a94-f646-4cee-813c-169f6b62ae5c"},"vehicle_type_id":"4","last_reported":1740647407,"current_range_meters":16800,"station_id":"ce4bh012rcd13ifvqd00","pricing_plan_id":"cebpf4jnsgd1na2vs0mg"},{"bike_id":"7cf7b894-d393-4f1a-903c-6b57f99cdc54","system_id":"levelo_inurba_marseille","lat":43.264,"lon":5.38459,"is_reserved":false,"is_disabled":false,"rental_uris":{"android":"levelo://app?vid=7cf7b894-d393-4f1a-903c-6b57f99cdc54","ios":"levelo://app?vid=7cf7b894-d393-4f1a-903c-6b57f99cdc54"},"vehicle_type_id":"4","last_reported":1740647407,"current_range_meters":17200,"station_id":"","pricing_plan_id":"cebpf4jnsgd1na2vs0mg"},{"bike_id":"43d6aa6f-20c7-4a1b-bcb8-31b660876567","system_id":"levelo_inurba_marseille","lat":43.26555,"lon":5.37291,"is_reserved":false,"is_disabled":false,"rental_uris":{"android":"levelo://app?vid=43d6aa6f-20c7-4a1b-bcb8-31b660876567","ios":"levelo://app?vid=43d6aa6f-20c7-4a1b-bcb8-31b660876567"},"vehicle_type_id":"4","last_reported":1740647407,"current_range_meters":17200,"station_id":"ce4bhg12rcd13ifvqf70","pricing_plan_id":"cebpf4jnsgd1na2vs0mg"},{"bike_id":"a9da3dc9-ca2e-494e-9892-84cc0468751b","system_id":"levelo_inurba_marseille","lat":43.324771,"lon":5.365616,"is_reserved":false,"is_disabled":false,"rental_uris":{"android":"levelo://app?vid=a9da3dc9-ca2e-494e-9892-84cc0468751b","ios":"levelo://app?vid=a9da3dc9-ca2e-494e-9892-84cc0468751b"},"vehicle_type_id":"4","last_reported":1740647407,"current_range_meters":17200,"station_id":"ce4bhs12rcd13ifvqhvg","pricing_plan_id":"cebpf4jnsgd1na2vs0mg"},{"bike_id":"8e100345-e773-4b5f-aa04-a4e55e7b32d1","system_id":"levelo_inurba_marseille","lat":43.31449,"lon":5.37286,"is_reserved":false,"is_disabled":false,"rental_uris":{"android":"levelo://app?vid=8e100345-e773-4b5f-aa04-a4e55e7b32d1","ios":"levelo://app?vid=8e100345-e773-4b5f-aa04-a4e55e7b32d1"},"vehicle_type_id":"4","last_reported":1740647407,"current_range_meters":17600,"station_id":"ce4bgt12rcd13ifvqcd0","pricing_plan_id":"cebpf4jnsgd1na2vs0mg"},{"bike_id":"b9bcadf3-ed2f-4ea5-a697-17b340e578f9","system_id":"levelo_inurba_marseille","lat":43.26202,"lon":5.3794,"is_reserved":false,"is_disabled":false,"rental_uris":{"android":"levelo://app?vid=b9bcadf3-ed2f-4ea5-a697-17b340e578f9","ios":"levelo://app?vid=b9bcadf3-ed2f-4ea5-a697-17b340e578f9"},"vehicle_type_id":"4","last_reported":1740647407,"current_range_meters":17200,"station_id":"ce4bhjp2rcd13ifvqg90","pricing_plan_id":"cebpf4jnsgd1na2vs0mg"},{"bike_id":"304df838-b133-4174-bfb6-4755460cc02a","system_id":"levelo_inurba_marseille","lat":43.28622,"lon":5.35106,"is_reserved":false,"is_disabled":false,"rental_uris":{"android":"levelo://app?vid=304df838-b133-4174-bfb6-4755460cc02a","ios":"levelo://app?vid=304df838-b133-4174-bfb6-4755460cc02a"},"vehicle_type_id":"4","last_reported":1740647407,"current_range_meters":17200,"station_id":"ce4bhch2rcd13ifvqeug","pricing_plan_id":"cebpf4jnsgd1na2vs0mg"},{"bike_id":"0afd0a4a-88e1-47e1-aa5b-273707ab6c31","system_id":"levelo_inurba_marseille","lat":43.25936,"lon":5.40912,"is_reserved":false,"is_disabled":false,"rental_uris":{"android":"levelo://app?vid=0afd0a4a-88e1-47e1-aa5b-273707ab6c31","ios":"levelo://app?vid=0afd0a4a-88e1-47e1-aa5b-273707ab6c31"},"vehicle_type_id":"4","last_reported":1740647407,"current_range_meters":17200,"station_id":"ce4bhm92rcd13ifvqglg","pricing_plan_id":"cebpf4jnsgd1na2vs0mg"},{"bike_id":"fb70dea8-fe5e-4f29-a636-7a21a96df401","system_id":"levelo_inurba_marseille","lat":43.25595,"lon":5.3826,"is_reserved":false,"is_disabled":false,"rental_uris":{"android":"levelo://app?vid=fb70dea8-fe5e-4f29-a636-7a21a96df401","ios":"levelo://app?vid=fb70dea8-fe5e-4f29-a636-7a21a96df401"},"vehicle_type_id":"4","last_reported":1740647407,"current_range_meters":17200,"station_id":"ce4bhih2rcd13ifvqfs0","pricing_plan_id":"cebpf4jnsgd1na2vs0mg"},{"bike_id":"962591e5-0414-4f91-bb86-401eceff6786","system_id":"levelo_inurba_marseille","lat":43.29102,"lon":5.38143,"is_reserved":false,"is_disabled":false,"rental_uris":{"android":"levelo://app?vid=962591e5-0414-4f91-bb86-401eceff6786","ios":"levelo://app?vid=962591e5-0414-4f91-bb86-401eceff6786"},"vehicle_type_id":"4","last_reported":1740647407,"current_range_meters":16800,"station_id":"ce4bh512rcd13ifvqe2g","pricing_plan_id":"cebpf4jnsgd1na2vs0mg"},{"bike_id":"890f6a4b-4e03-4198-813a-564b2cb223b6","system_id":"levelo_inurba_marseille","lat":43.28847,"lon":5.39312,"is_reserved":false,"is_disabled":false,"rental_uris":{"android":"levelo://app?vid=890f6a4b-4e03-4198-813a-564b2cb223b6","ios":"levelo://app?vid=890f6a4b-4e03-4198-813a-564b2cb223b6"},"vehicle_type_id":"4","last_reported":1740647407,"current_range_meters":16800,"station_id":"ce4bh2p2rcd13ifvqdi0","pricing_plan_id":"cebpf4jnsgd1na2vs0mg"},{"bike_id":"8d6b073c-bfff-432c-800c-850c87e2b2f3","system_id":"levelo_inurba_marseille","lat":43.27511,"lon":5.4247,"is_reserved":false,"is_disabled":false,"rental_uris":{"android":"levelo://app?vid=8d6b073c-bfff-432c-800c-850c87e2b2f3","ios":"levelo://app?vid=8d6b073c-bfff-432c-800c-850c87e2b2f3"},"vehicle_type_id":"4","last_reported":1740647407,"current_range_meters":17600,"station_id":"ce4bhn92rcd13ifvqgrg","pricing_plan_id":"cebpf4jnsgd1na2vs0mg"},{"bike_id":"77c4ff08-cbff-4d0d-ac82-ebeceef6d5c7","system_id":"levelo_inurba_marseille","lat":43.27226,"lon":5.39138,"is_reserved":false,"is_disabled":false,"rental_uris":{"android":"levelo://app?vid=77c4ff08-cbff-4d0d-ac82-ebeceef6d5c7","ios":"levelo://app?vid=77c4ff08-cbff-4d0d-ac82-ebeceef6d5c7"},"vehicle_type_id":"4","last_reported":1740647407,"current_range_meters":17200,"station_id":"ce4bhhp2rcd13ifvqfm0","pricing_plan_id":"cebpf4jnsgd1na2vs0mg"},{"bike_id":"4de3df94-923d-4f39-b3cf-6e34de3f925a","system_id":"levelo_inurba_marseille","lat":43.24089,"lon":5.37748,"is_reserved":false,"is_disabled":false,"rental_uris":{"android":"levelo://app?vid=4de3df94-923d-4f39-b3cf-6e34de3f925a","ios":"levelo://app?vid=4de3df94-923d-4f39-b3cf-6e34de3f925a"},"vehicle_type_id":"4","last_reported":1740647407,"current_range_meters":17600,"station_id":"ce4bhnp2rcd13ifvqgvg","pricing_plan_id":"cebpf4jnsgd1na2vs0mg"},{"bike_id":"ff4b16c0-9b86-416e-9b3f-4f89fd87e514","system_id":"levelo_inurba_marseille","lat":43.32046,"lon":5.41564,"is_reserved":false,"is_disabled":false,"rental_uris":{"android":"levelo://app?vid=ff4b16c0-9b86-416e-9b3f-4f89fd87e514","ios":"levelo://app?vid=ff4b16c0-9b86-416e-9b3f-4f89fd87e514"},"vehicle_type_id":"4","last_reported":1740647407,"current_range_meters":17200,"station_id":"ce4bhq92rcd13ifvqhkg","pricing_plan_id":"cebpf4jnsgd1na2vs0mg"},{"bike_id":"ee45b71b-7d36-4722-afd1-6f3b4db6af3f","system_id":"levelo_inurba_marseille","lat":43.301477,"lon":5.380899,"is_reserved":false,"is_disabled":false,"rental_uris":{"android":"levelo://app?vid=ee45b71b-7d36-4722-afd1-6f3b4db6af3f","ios":"levelo://app?vid=ee45b71b-7d36-4722-afd1-6f3b4db6af3f"},"vehicle_type_id":"4","last_reported":1740647407,"current_range_meters":17600,"station_id":"ce4bhmp2rcd13ifvqgog","pricing_plan_id":"cebpf4jnsgd1na2vs0mg"},{"bike_id":"39782812-58b2-429f-b3be-12d869cd45bc","system_id":"levelo_inurba_marseille","lat":43.29588,"lon":5.36751,"is_reserved":false,"is_disabled":false,"rental_uris":{"android":"levelo://app?vid=39782812-58b2-429f-b3be-12d869cd45bc","ios":"levelo://app?vid=39782812-58b2-429f-b3be-12d869cd45bc"},"vehicle_type_id":"4","last_reported":1740647407,"current_range_meters":17600,"station_id":"ce4bgph2rcd13ifvqc2g","pricing_plan_id":"cebpf4jnsgd1na2vs0mg"},{"bike_id":"a2035f8a-71d6-4907-9d48-9df7f337d1f0","system_id":"levelo_inurba_marseille","lat":43.31399,"lon":5.3673,"is_reserved":false,"is_disabled":false,"rental_uris":{"android":"levelo://app?vid=a2035f8a-71d6-4907-9d48-9df7f337d1f0","ios":"levelo://app?vid=a2035f8a-71d6-4907-9d48-9df7f337d1f0"},"vehicle_type_id":"4","last_reported":1740647407,"current_range_meters":17600,"station_id":"","pricing_plan_id":"cebpf4jnsgd1na2vs0mg"},{"bike_id":"4380a28f-e631-41db-9523-e3bc2367fcc4","system_id":"levelo_inurba_marseille","lat":43.24075,"lon":5.37815,"is_reserved":false,"is_disabled":false,"rental_uris":{"android":"levelo://app?vid=4380a28f-e631-41db-9523-e3bc2367fcc4","ios":"levelo://app?vid=4380a28f-e631-41db-9523-e3bc2367fcc4"},"vehicle_type_id":"4","last_reported":1740647407,"current_range_meters":17600,"station_id":"ce4bhnp2rcd13ifvqgvg","pricing_plan_id":"cebpf4jnsgd1na2vs0mg"},{"bike_id":"8bda58cf-f019-4432-bdf1-90764f35170f","system_id":"levelo_inurba_marseille","lat":43.29878,"lon":5.38916,"is_reserved":false,"is_disabled":false,"rental_uris":{"android":"levelo://app?vid=8bda58cf-f019-4432-bdf1-90764f35170f","ios":"levelo://app?vid=8bda58cf-f019-4432-bdf1-90764f35170f"},