{"last_updated":1716494923,"ttl":30,"version":"2.2","data":{"bikes":[{"bike_id":"efdf0042-33b1-43ed-9a3d-76e5fe15e655","system_id":"levelo_inurba_marseille","lat":43.312239,"lon":5.368562,"is_reserved":false,"is_disabled":false,"rental_uris":{"android":"levelo://app?vid=efdf0042-33b1-43ed-9a3d-76e5fe15e655","ios":"levelo://app?vid=efdf0042-33b1-43ed-9a3d-76e5fe15e655"},"vehicle_type_id":"4","last_reported":1716494923,"current_range_meters":21200,"station_id":"ce4bgl92rcd13ifvqbq0","pricing_plan_id":"cebpf4jnsgd1na2vs0mg"},{"bike_id":"733cf350-b1de-4ca7-bb02-f198d6402f79","system_id":"levelo_inurba_marseille","lat":43.309076,"lon":5.368465,"is_reserved":false,"is_disabled":false,"rental_uris":{"android":"levelo://app?vid=733cf350-b1de-4ca7-bb02-f198d6402f79","ios":"levelo://app?vid=733cf350-b1de-4ca7-bb02-f198d6402f79"},"vehicle_type_id":"4","last_reported":1716494923,"current_range_meters":8400,"station_id":"ce4bgn92rcd13ifvqbvg","pricing_plan_id":"cebpf4jnsgd1na2vs0mg"},{"bike_id":"01e6ae3c-b7d2-4d10-afcb-0f2b96be73cb","system_id":"levelo_inurba_marseille","lat":43.309076,"lon":5.368465,"is_reserved":false,"is_disabled":false,"rental_uris":{"android":"levelo://app?vid=01e6ae3c-b7d2-4d10-afcb-0f2b96be73cb","ios":"levelo://app?vid=01e6ae3c-b7d2-4d10-afcb-0f2b96be73cb"},"vehicle_type_id":"4","last_reported":1716494923,"current_range_meters":18400,"station_id":"ce4bgn92rcd13ifvqbvg","pricing_plan_id":"cebpf4jnsgd1na2vs0mg"},{"bike_id":"df2fe891-528c-47d3-88bc-aad0a447cc3a","system_id":"levelo_inurba_marseille","lat":43.309076,"lon":5.368465,"is_reserved":false,"is_disabled":false,"rental_uris":{"android":"levelo://app?vid=df2fe891-528c-47d3-88bc-aad0a447cc3a","ios":"levelo://app?vid=df2fe891-528c-47d3-88bc-aad0a447cc3a"},"vehicle_type_id":"4","last_reported":1716494923,"current_range_meters":18400,"station_id":"ce4bgn92rcd13ifvqbvg","pricing_plan_id":"cebpf4jnsgd1na2vs0mg"},{"bike_id":"50dd5e21-1a38-471c-a0ea-5884c0e3d73e","system_id":"levelo_inurba_marseille","lat":43.309076,"lon":5.368465,"is_reserved":false,"is_disabled":false,"rental_uris":{"android":"levelo://app?vid=50dd5e21-1a38-471c-a0ea-5884c0e3d73e","ios":"levelo://app?vid=50dd5e21-1a38-471c-a0ea-5884c0e3d73e"},"vehicle_type_id":"4","last_reported":1716494923,"current_range_meters":24800,"station_id":"ce4bgn92rcd13ifvqbvg","pricing_plan_id":"cebpf4jnsgd1na2vs0mg"},{"bike_id":"a74f5f75-3a34-496c-9afa-7aa1ea01bd79","system_id":"levelo_inurba_marseille","lat":43.314811,"lon":5.373103,"is_reserved":false,"is_disabled":false,"rental_uris":{"android":"levelo://app?vid=a74f5f75-3a34-496c-9afa-7aa1ea01bd79","ios":"levelo://app?vid=a74f5f75-3a34-496c-9afa-7aa1ea01bd79"},"vehicle_type_id":"4","last_reported":1716494923,"current_range_meters":9600,"station_id":"ce4bgt12rcd13ifvqcd0","pricing_plan_id":"cebpf4jnsgd1na2vs0mg"},{"bike_id":"12ce15c4-596b-4a7d-b2d0-e172ee1ffdd1","system_id":"levelo_inurba_marseille","lat":43.309039,"lon":5.371797,"is_reserved":false,"is_disabled":false,"rental_uris":{"android":"levelo://app?vid=12ce15c4-596b-4a7d-b2d0-e172ee1ffdd1","ios":"levelo://app?vid=12ce15c4-596b-4a7d-b2d0-e172ee1ffdd1"},"vehicle_type_id":"4","last_reported":1716494923,"current_range_meters":14400,"station_id":"ce4bguh2rcd13ifvqckg","pricing_plan_id":"cebpf4jnsgd1na2vs0mg"},{"bike_id":"273df6bf-f62d-461e-94cf-9358fb724597","system_id":"levelo_inurba_marseille","lat":43.309039,"lon":5.371797,"is_reserved":false,"is_disabled":false,"rental_uris":{"android":"levelo://app?vid=273df6bf-f62d-461e-94cf-9358fb724597","ios":"levelo://app?vid=273df6bf-f62d-461e-94cf-9358fb724597"},"vehicle_type_id":"4","last_reported":1716494923,"current_range_meters":1600,"station_id":"ce4bguh2rcd13ifvqckg","pricing_plan_id":"cebpf4jnsgd1na2vs0mg"},{"bike_id":"cddb03a2-11d9-4f78-8bbe-fb0ba2b585a3","system_id":"levelo_inurba_marseille","lat":43.309039,"lon":5.371797,"is_reserved":false,"is_disabled":false,"rental_uris":{"android":"levelo://app?vid=cddb03a2-11d9-4f78-8bbe-fb0ba2b585a3","ios":"levelo://app?vid=cddb03a2-11d9-4f78-8bbe-fb0ba2b585a3"},"vehicle_type_id":"4","last_reported":1716494923,"current_range_meters":2400,"station_id":"ce4bguh2rcd13ifvqckg","pricing_plan_id":"cebpf4jnsgd1na2vs0mg"},{"bike_id":"22191c28-8c20-4507-b659-9263a53a741d","system_id":"levelo_inurba_marseille","lat":43.309039,"lon":5.371797,"is_reserved":false,"is_disabled":false,"rental_uris":{"android":"levelo://app?vid=22191c28-8c20-4507-b659-9263a53a741d","ios":"levelo://app?vid=22191c28-8c20-4507-b659-9263a53a741d"},"vehicle_type_id":"4","last_reported":1716494923,"current_range_meters":23600,"station_id":"ce4bguh2rcd13ifvqckg","pricing_plan_id":"cebpf4jnsgd1na2vs0mg"},{"bike_id":"cd9cb915-d391-4444-b2e3-52a35f9ed00b","system_id":"levelo_inurba_marseille","lat":43.31672,"lon":5.3722,"is_reserved":false,"is_disabled":false,"rental_uris":{"android":"levelo://app?vid=cd9cb915-d391-4444-b2e3-52a35f9ed00b","ios":"levelo://app?vid=cd9cb915-d391-4444-b2e3-52a35f9ed00b"},"vehicle_type_id":"4","last_reported":1716494923,"current_range_meters":6000,"station_id":"","pricing_plan_id":"cebpf4jnsgd1na2vs0mg"},{"bike_id":"749ea87f-22b9-428d-919b-50cfea0b1278","system_id":"levelo_inurba_marseille","lat":43.30537,"lon":5.367345,"is_reserved":false,"is_disabled":false,"rental_uris":{"android":"levelo://app?vid=749ea87f-22b9-428d-919b-50cfea0b1278","ios":"levelo://app?vid=749ea87f-22b9-428d-919b-50cfea0b1278"},"vehicle_type_id":"4","last_reported":1716494923,"current_range_meters":0,"station_id":"ce4bgrp2rcd13ifvqc9g","pricing_plan_id":"cebpf4jnsgd1na2vs0mg"},{"bike_id":"de3a4d7c-a7ac-41f8-9cc4-6aa2ad2a05f5","system_id":"levelo_inurba_marseille","lat":43.305714,"lon":5.365633,"is_reserved":false,"is_disabled":false,"rental_uris":{"android":"levelo://app?vid=de3a4d7c-a7ac-41f8-9cc4-6aa2ad2a05f5","ios":"levelo://app?vid=de3a4d7c-a7ac-41f8-9cc4-6aa2ad2a05f5"},"vehicle_type_id":"4","last_reported":1716494923,"current_range_meters":3200,"station_id":"ce4bgs12rcd13ifvqcag","pricing_plan_id":"cebpf4jnsgd1na2vs0mg"},{"bike_id":"997ae174-0468-4c1f-9bfa-c81db0d335d3","system_id":"levelo_inurba_marseille","lat":43.305706,"lon":5.365654,"is_reserved":false,"is_disabled":false,"rental_uris":{"android":"levelo://app?vid=997ae174-0468-4c1f-9bfa-c81db0d335d3","ios":"levelo://app?vid=997ae174-0468-4c1f-9bfa-c81db0d335d3"},"vehicle_type_id":"4","last_reported":1716494923,"current_range_meters":28800,"station_id":"ce4bgs12rcd13ifvqcag","pricing_plan_id":"cebpf4jnsgd1na2vs0mg"},{"bike_id":"90caa87e-0f36-4c33-8f08-916afdfd294a","system_id":"levelo_inurba_marseille","lat":43.305989,"lon":5.37225,"is_reserved":false,"is_disabled":false,"rental_uris":{"android":"levelo://app?vid=90caa87e-0f36-4c33-8f08-916afdfd294a","ios":"levelo://app?vid=90caa87e-0f36-4c33-8f08-916afdfd294a"},"vehicle_type_id":"4","last_reported":1716494923,"current_range_meters":12000,"station_id":"ce4bgqh2rcd13ifvqc4g","pricing_plan_id":"cebpf4jnsgd1na2vs0mg"},{"bike_id":"085f8808-1d82-4a31-a42a-8e58df7e3717","system_id":"levelo_inurba_marseille","lat":43.305989,"lon":5.37225,"is_reserved":false,"is_disabled":false,"rental_uris":{"android":"levelo://app?vid=085f8808-1d82-4a31-a42a-8e58df7e3717","ios":"levelo://app?vid=085f8808-1d82-4a31-a42a-8e58df7e3717"},"vehicle_type_id":"4","last_reported":1716494923,"current_range_meters":31600,"station_id":"ce4bgqh2rcd13ifvqc4g","pricing_plan_id":"cebpf4jnsgd1na2vs0mg"},{"bike_id":"879ea5f3-1b0c-46a7-b8c3-c8a521513cf9","system_id":"levelo_inurba_marseille","lat":43.305714,"lon":5.365633,"is_reserved":false,"is_disabled":false,"rental_uris":{"android":"levelo://app?vid=879ea5f3-1b0c-46a7-b8c3-c8a521513cf9","ios":"levelo://app?vid=879ea5f3-1b0c-46a7-b8c3-c8a521513cf9"},"vehicle_type_id":"4","last_reported":1716494923,"current_range_meters":13200,"station_id":"ce4bgs12rcd13ifvqcag","pricing_plan_id":"cebpf4jnsgd1na2vs0mg"},{"bike_id":"b0da3b95-f342-47d4-babc-dccc23616f5c","system_id":"levelo_inurba_marseille","lat":43.305989,"lon":5.37225,"is_reserved":false,"is_disabled":false,"rental_uris":{"android":"levelo://app?vid=b0da3b95-f342-47d4-babc-dccc23616f5c","ios":"levelo://app?vid=b0da3b95-f342-47d4-babc-dccc23616f5c"},"vehicle_type_id":"4","last_reported":1716494923,"current_range_meters":14800,"station_id":"ce4bgqh2rcd13ifvqc4g","pricing_plan_id":"cebpf4jnsgd1na2vs0mg"},{"bike_id":"59705796-7c3e-4ef0-b1eb-7e3159bf08bd","system_id":"levelo_inurba_marseille","lat":43.311131,"lon":5.377651,"is_reserved":false,"is_disabled":false,"rental_uris":{"android":"levelo://app?vid=59705796-7c3e-4ef0-b1eb-7e3159bf08bd","ios":"levelo://app?vid=59705796-7c3e-4ef0-b1eb-7e3159bf08bd"},"vehicle_type_id":"4","last_reported":1716494923,"current_range_meters":0,"station_id":"ce4bgt92rcd13ifvqcg0","pricing_plan_id":"cebpf4jnsgd1na2vs0mg"},{"bike_id":"3dfedd7f-b599-486e-9673-ab9184ee7d92","system_id":"levelo_inurba_marseille","lat":43.311266,"lon":5.377834,"is_reserved":false,"is_disabled":false,"rental_uris":{"android":"levelo://app?vid=3dfedd7f-b599-486e-9673-ab9184ee7d92","ios":"levelo://app?vid=3dfedd7f-b599-486e-9673-ab9184ee7d92"},"vehicle_type_id":"4","last_reported":1716494923,"current_range_meters":0,"station_id":"ce4bgt92rcd13ifvqcg0","pricing_plan_id":"cebpf4jnsgd1na2vs0mg"},{"bike_id":"5ce2d0e8-7d8f-4f0d-addf-06cb752e4394","system_id":"levelo_inurba_marseille","lat":43.305989,"lon":5.37225,"is_reserved":false,"is_disabled":false,"rental_uris":{"android":"levelo://app?vid=5ce2d0e8-7d8f-4f0d-addf-06cb752e4394","ios":"levelo://app?vid=5ce2d0e8-7d8f-4f0d-addf-06cb752e4394"},"vehicle_type_id":"4","last_reported":1716494923,"current_range_meters":0,"station_id":"ce4bgqh2rcd13ifvqc4g","pricing_plan_id":"cebpf4jnsgd1na2vs0mg"},{"bike_id":"c2fe05a5-b326-4a3c-932b-213abd37a9b6","system_id":"levelo_inurba_marseille","lat":43.305989,"lon":5.37225,"is_reserved":false,"is_disabled":false,"rental_uris":{"android":"levelo://app?vid=c2fe05a5-b326-4a3c-932b-213abd37a9b6","ios":"levelo://app?vid=c2fe05a5-b326-4a3c-932b-213abd37a9b6"},"vehicle_type_id":"4","last_reported":1716494923,"current_range_meters":20000,"station_id":"ce4bgqh2rcd13ifvqc4g","pricing_plan_id":"cebpf4jnsgd1na2vs0mg"},{"bike_id":"73f8d46d-b205-4502-ab08-8d6786ae490d","system_id":"levelo_inurba_marseille","lat":43.305989,"lon":5.37225,"is_reserved":false,"is_disabled":false,"rental_uris":{"android":"levelo://app?vid=73f8d46d-b205-4502-ab08-8d6786ae490d","ios":"levelo://app?vid=73f8d46d-b205-4502-ab08-8d6786ae490d"},"vehicle_type_id":"4","last_reported":1716494923,"current_range_meters":0,"station_id":"ce4bgqh2rcd13ifvqc4g","pricing_plan_id":"cebpf4jnsgd1na2vs0mg"},{"bike_id":"65c5dc89-f3cd-425e-ac97-cb7a65e365de","system_id":"levelo_inurba_marseille","lat":43.307945,"lon":5.376487,"is_reserved":false,"is_disabled":false,"rental_uris":{"android":"levelo://app?vid=65c5dc89-f3cd-425e-ac97-cb7a65e365de","ios":"levelo://app?vid=65c5dc89-f3cd-425e-ac97-cb7a65e365de"},"vehicle_type_id":"4","last_reported":1716494923,"current_range_meters":2800,"station_id":"ce4bgv92rcd13ifvqcq0","pricing_plan_id":"cebpf4jnsgd1na2vs0mg"},{"bike_id":"182d9011-b3e1-46b7-9ef0-5f30da7fdc0e","system_id":"levelo_inurba_marseille","lat":43.317075,"lon":5.377367,"is_reserved":false,"is_disabled":false,"rental_uris":{"android":"levelo://app?vid=182d9011-b3e1-46b7-9ef0-5f30da7fdc0e","ios":"levelo://app?vid=182d9011-b3e1-46b7-9ef0-5f30da7fdc0e"},"vehicle_type_id":"4","last_reported":1716494923,"current_range_meters":0,"station_id":"ce4bgth2rcd13ifvqch0","pricing_plan_id":"cebpf4jnsgd1na2vs0mg"},{"bike_id":"4641f0be-0c82-49b1-8fe4-95bd47413f7a","system_id":"levelo_inurba_marseille","lat":43.303128,"lon":5.368883,"is_reserved":false,"is_disabled":false,"rental_uris":{"android":"levelo://app?vid=4641f0be-0c82-49b1-8fe4-95bd47413f7a","ios":"levelo://app?vid=4641f0be-0c82-49b1-8fe4-95bd47413f7a"},"vehicle_type_id":"4","last_reported":1716494923,"current_range_meters":24000,"station_id":"ce4bgqh2rcd13ifvqc5g","pricing_plan_id":"cebpf4jnsgd1na2vs0mg"},{"bike_id":"e0bd65fd-33cf-4dba-9623-d2159ad09116","system_id":"levelo_inurba_marseille","lat":43.303046,"lon":5.368981,"is_reserved":false,"is_disabled":false,"rental_uris":{"android":"levelo://app?vid=e0bd65fd-33cf-4dba-9623-d2159ad09116","ios":"levelo://app?vid=e0bd65fd-33cf-4dba-9623-d2159ad09116"},"vehicle_type_id":"4","last_reported":1716494923,"current_range_meters":22800,"station_id":"ce4bgqh2rcd13ifvqc5g","pricing_plan_id":"cebpf4jnsgd1na2vs0mg"},{"bike_id":"f3a83501-aacc-4e87-9cf3-44a060c699ae","system_id":"levelo_inurba_marseille","lat":43.315293,"lon":5.380349,"is_reserved":false,"is_disabled":false,"rental_uris":{"android":"levelo://app?vid=f3a83501-aacc-4e87-9cf3-44a060c699ae","ios":"levelo://app?vid=f3a83501-aacc-4e87-9cf3-44a060c699ae"},"vehicle_type_id":"4","last_reported":1716494923,"current_range_meters":6400,"station_id":"ce4bhsp2rcd13ifvqi50","pricing_plan_id":"cebpf4jnsgd1na2vs0mg"},{"bike_id":"374db631-8359-48da-9bc7-270a9743c0f9","system_id":"levelo_inurba_marseille","lat":43.315293,"lon":5.380349,"is_reserved":false,"is_disabled":false,"rental_uris":{"android":"levelo://app?vid=374db631-8359-48da-9bc7-270a9743c0f9","ios":"levelo://app?vid=374db631-8359-48da-9bc7-270a9743c0f9"},"vehicle_type_id":"4","last_reported":1716494923,"current_range_meters":2000,"station_id":"ce4bhsp2rcd13ifvqi50","pricing_plan_id":"cebpf4jnsgd1na2vs0mg"},{"bike_id":"3327d5e1-9b84-4263-9c52-c6e2665bb526","system_id":"levelo_inurba_marseille","lat":43.315289,"lon":5.380349,"is_reserved":false,"is_disabled":false,"rental_uris":{"android":"levelo://app?vid=3327d5e1-9b84-4263-9c52-c6e2665bb526","ios":"levelo://app?vid=3327d5e1-9b84-4263-9c52-c6e2665bb526"},"vehicle_type_id":"4","last_reported":1716494923,"current_range_meters":30000,"station_id":"ce4bhsp2rcd13ifvqi50","pricing_plan_id":"cebpf4jnsgd1na2vs0mg"},{"bike_id":"1fa10a66-0a25-4616-9403-9824d196246f","system_id":"levelo_inurba_marseille","lat":43.315293,"lon":5.380349,"is_reserved":false,"is_disabled":false,"rental_uris":{"android":"levelo://app?vid=1fa10a66-0a25-4616-9403-9824d196246f","ios":"levelo://app?vid=1fa10a66-0a25-4616-9403-9824d196246f"},"vehicle_type_id":"4","last_reported":1716494923,"current_range_meters":10800,"station_id":"ce4bhsp2rcd13ifvqi50","pricing_plan_id":"cebpf4jnsgd1na2vs0mg"},{"bike_id":"d0964bf4-8132-45a6-8c7c-b733566893fb","system_id":"levelo_inurba_marseille","lat":43.308012,"lon":5.381511,"is_reserved":false,"is_disabled":false,"rental_uris":{"android":"levelo://app?vid=d0964bf4-8132-45a6-8c7c-b733566893fb","ios":"levelo://app?vid=d0964bf4-8132-45a6-8c7c-b733566893fb"},"vehicle_type_id":"4","last_reported":1716494923,"current_range_meters":28400,"station_id":"ce4bgt12rcd13ifvqce0","pricing_plan_id":"cebpf4jnsgd1na2vs0mg"},{"bike_id":"ddb3394a-c640-4bb1-abdc-cadaa2b96632","system_id":"levelo_inurba_marseille","lat":43.30802,"lon":5.38151,"is_reserved":false,"is_disabled":false,"rental_uris":{"android":"levelo://app?vid=ddb3394a-c640-4bb1-abdc-cadaa2b96632","ios":"levelo://app?vid=ddb3394a-c640-4bb1-abdc-cadaa2b96632"},"vehicle_type_id":"4","last_reported":1716494923,"current_range_meters":21600,"station_id":"ce4bgt12rcd13ifvqce0","pricing_plan_id":"cebpf4jnsgd1na2vs0mg"},{"bike_id":"415f497e-2d67-41f0-8c50-f3eff033bef1","system_id":"levelo_inurba_marseille","lat":43.308012,"lon":5.381511,"is_reserved":false,"is_disabled":false,"rental_uris":{"android":"levelo://app?vid=415f497e-2d67-41f0-8c50-f3eff033bef1","ios":"levelo://app?vid=415f497e-2d67-41f0-8c50-f3eff033bef1"},"vehicle_type_id":"4","last_reported":1716494923,"current_range_meters":1200,"station_id":"ce4bgt12rcd13ifvqce0","pricing_plan_id":"cebpf4jnsgd1na2vs0mg"},{"bike_id":"03b2d0ac-4855-463a-a2f0-be21041dc802","system_id":"levelo_inurba_marseille","lat":43.304617,"lon":5.378987,"is_reserved":false,"is_disabled":false,"rental_uris":{"android":"levelo://app?vid=03b2d0ac-4855-463a-a2f0-be21041dc802","ios":"levelo://app?vid=03b2d0ac-4855-463a-a2f0-be21041dc802"},"vehicle_type_id":"4","last_reported":1716494923,"current_range_meters":31200,"station_id":"ce4bgup2rcd13ifvqcn0","pricing_plan_id":"cebpf4jnsgd1na2vs0mg"},{"bike_id":"97aa767d-4a7c-4d81-b244-c5d3efb49efc","system_id":"levelo_inurba_marseille","lat":43.32477,"lon":5.36583,"is_reserved":false,"is_disabled":false,"rental_uris":{"android":"levelo://app?vid=97aa767d-4a7c-4d81-b244-c5d3efb49efc","ios":"levelo://app?vid=97aa767d-4a7c-4d81-b244-c5d3efb49efc"},"vehicle_type_id":"4","last_reported":1716494923,"current_range_meters":0,"station_id":"ce4bhs12rcd13ifvqhvg","pricing_plan_id":"cebpf4jnsgd1na2vs0mg"},{"bike_id":"ee31fd60-0692-46a7-a2a3-0cbd05db7acf","system_id":"levelo_inurba_marseille","lat":43.32485,"lon":5.36554,"is_reserved":false,"is_disabled":false,"rental_uris":{"android":"levelo://app?vid=ee31fd60-0692-46a7-a2a3-0cbd05db7acf","ios":"levelo://app?vid=ee31fd60-0692-46a7-a2a3-0cbd05db7acf"},"vehicle_type_id":"4","last_reported":1716494923,"current_range_meters":0,"station_id":"ce4bhs12rcd13ifvqhvg","pricing_plan_id":"cebpf4jnsgd1na2vs0mg"},{"bike_id":"7d06b7c9-08aa-4be2-bbc8-dc21c222c64a","system_id":"levelo_inurba_marseille","lat":43.32486,"lon":5.36563,"is_reserved":false,"is_disabled":false,"rental_uris":{"android":"levelo://app?vid=7d06b7c9-08aa-4be2-bbc8-dc21c222c64a","ios":"levelo://app?vid=7d06b7c9-08aa-4be2-bbc8-dc21c222c64a"},"vehicle_type_id":"4","last_reported":1716494923,"current_range_meters":1200,"station_id":"ce4bhs12rcd13ifvqhvg","pricing_plan_id":"cebpf4jnsgd1na2vs0mg"},{"bike_id":"5e274dbe-d20c-40a5-8922-6cca5516c00b","system_id":"levelo_inurba_marseille","lat":43.310739,"lon":5.383421,"is_reserved":false,"is_disabled":false,"rental_uris":{"android":"levelo://app?vid=5e274dbe-d20c-40a5-8922-6cca5516c00b","ios":"levelo://app?vid=5e274dbe-d20c-40a5-8922-6cca5516c00b"},"vehicle_type_id":"4","last_reported":1716494923,"current_range_meters":1600,"station_id":"ce4bgv92rcd13ifvqcr0","pricing_plan_id":"cebpf4jnsgd1na2vs0mg"},{"bike_id":"707d3b59-8fff-48c8-b671-ddaa4e69b7d2","system_id":"levelo_inurba_marseille","lat":43.310739,"lon":5.383465,"is_reserved":false,"is_disabled":false,"rental_uris":{"android":"levelo://app?vid=707d3b59-8fff-48c8-b671-ddaa4e69b7d2","ios":"levelo://app?vid=707d3b59-8fff-48c8-b671-ddaa4e69b7d2"},"vehicle_type_id":"4","last_reported":1716494923,"current_range_meters":10800,"station_id":"ce4bhbh2rcd13ifvqeqg","pricing_plan_id":"cebpf4jnsgd1na2vs0mg"},{"bike_id":"71c2afe7-aef0-45f1-abd8-07f7e80a11c7","system_id":"levelo_inurba_marseille","lat":43.310804,"lon":5.38359,"is_reserved":false,"is_disabled":false,"rental_uris":{"android":"levelo://app?vid=71c2afe7-aef0-45f1-abd8-07f7e80a11c7","ios":"levelo://app?vid=71c2afe7-aef0-45f1-abd8-07f7e80a11c7"},"vehicle_type_id":"4","last_reported":1716494923,"current_range_meters":2000,"station_id":"ce4bgv92rcd13ifvqcr0","pricing_plan_id":"cebpf4jnsgd1na2vs0mg"},{"bike_id":"89c6a1c1-16db-4b6f-8911-a2a0f3e668a0","system_id":"levelo_inurba_marseille","lat":43.31068,"lon":5.38356,"is_reserved":false,"is_disabled":false,"rental_uris":{"android":"levelo://app?vid=89c6a1c1-16db-4b6f-8911-a2a0f3e668a0","ios":"levelo://app?vid=89c6a1c1-16db-4b6f-8911-a2a0f3e668a0"},"vehicle_type_id":"4","last_reported":1716494923,"current_range_meters":4800,"station_id":"ce4bgv92rcd13ifvqcr0","pricing_plan_id":"cebpf4jnsgd1na2vs0mg"},{"bike_id":"a57de94a-4703-4d07-a4bc-e43f2cb2f7a0","system_id":"levelo_inurba_marseille","lat":43.310804,"lon":5.38359,"is_reserved":false,"is_disabled":false,"rental_uris":{"android":"levelo://app?vid=a57de94a-4703-4d07-a4bc-e43f2cb2f7a0","ios":"levelo://app?vid=a57de94a-4703-4d07-a4bc-e43f2cb2f7a0"},"vehicle_type_id":"4","last_reported":1716494923,"current_range_meters":5600,"station_id":"ce4bgv92rcd13ifvqcr0","pricing_plan_id":"cebpf4jnsgd1na2vs0mg"},{"bike_id":"76e3ea89-2322-40e4-8e5e-8e7ad2aecbfd","system_id":"levelo_inurba_marseille","lat":43.310798,"lon":5.383604,"is_reserved":false,"is_disabled":false,"rental_uris":{"android":"levelo://app?vid=76e3ea89-2322-40e4-8e5e-8e7ad2aecbfd","ios":"levelo://app?vid=76e3ea89-2322-40e4-8e5e-8e7ad2aecbfd"},"vehicle_type_id":"4","last_reported":1716494923,"current_range_meters":3600,"station_id":"ce4bhch2rcd13ifvqeug","pricing_plan_id":"cebpf4jnsgd1na2vs0mg"},{"bike_id":"5a860298-85d4-4fd5-aaf1-6abeac67c955","system_id":"levelo_inurba_marseille","lat":43.31069,"lon":5.38358,"is_reserved":false,"is_disabled":false,"rental_uris":{"android":"levelo://app?vid=5a860298-85d4-4fd5-aaf1-6abeac67c955","ios":"levelo://app?vid=5a860298-85d4-4fd5-aaf1-6abeac67c955"},"vehicle_type_id":"4","last_reported":1716494923,"current_range_meters":17600,"station_id":"ce4bgv92rcd13ifvqcr0","pricing_plan_id":"cebpf4jnsgd1na2vs0mg"},{"bike_id":"552a6c7f-6b1e-4bd2-8939-e95c347346b8","system_id":"levelo_inurba_marseille","lat":43.310637,"lon":5.383588,"is_reserved":false,"is_disabled":false,"rental_uris":{"android":"levelo://app?vid=552a6c7f-6b1e-4bd2-8939-e95c347346b8","ios":"levelo://app?vid=552a6c7f-6b1e-4bd2-8939-e95c347346b8"},"vehicle_type_id":"4","last_reported":1716494923,"current_range_meters":13600,"station_id":"ce4bgv92rcd13ifvqcr0","pricing_plan_id":"cebpf4jnsgd1na2vs0mg"},{"bike_id":"8eeef390-0218-49f2-8c3b-7afa0c4cc554","system_id":"levelo_inurba_marseille","lat":43.310804,"lon":5.38359,"is_reserved":false,"is_disabled":false,"rental_uris":{"android":"levelo://app?vid=8eeef390-0218-49f2-8c3b-7afa0c4cc554","ios":"levelo://app?vid=8eeef390-0218-49f2-8c3b-7afa0c4cc554"},"vehicle_type_id":"4","last_reported":1716494923,"current_range_meters":400,"station_id":"ce4bgv92rcd13ifvqcr0","pricing_plan_id":"cebpf4jnsgd1na2vs0mg"},{"bike_id":"62dcb469-4347-4b6b-a9eb-ec2c75219fc2","system_id":"levelo_inurba_marseille","lat":43.310804,"lon":5.38359,"is_reserved":false,"is_disabled":false,"rental_uris":{"android":"levelo://app?vid=62dcb469-4347-4b6b-a9eb-ec2c75219fc2","ios":"levelo://app?vid=62dcb469-4347-4b6b-a9eb-ec2c75219fc2"},"vehicle_type_id":"4","last_reported":1716494923,"current_range_meters":18400,"station_id":"ce4bgv92rcd13ifvqcr0","pricing_plan_id":"cebpf4jnsgd1na2vs0mg"},{"bike_id":"5850ed1d-32c4-4774-98bb-bd653df38863","system_id":"levelo_inurba_marseille","lat":43.31064,"lon":5.38362,"is_reserved":false,"is_disabled":false,"rental_uris":{"android":"levelo://app?vid=5850ed1d-32c4-4774-98bb-bd653df38863","ios":"levelo://app?vid=5850ed1d-32c4-4774-98bb-bd653df38863"},"vehicle_type_id":"4","last_reported":1716494923,"current_range_meters":13600,"station_id":"ce4bgv92rcd13ifvqcr0","pricing_plan_id":"cebpf4jnsgd1na2vs0mg"},{"bike_id":"1b9867e7-f2b0-4ac5-a39f-a0f0449fdbc7","system_id":"levelo_inurba_marseille","lat":43.31066,"lon":5.38365,"is_reserved":false,"is_disabled":false,"rental_uris":{"android":"levelo://app?vid=1b9867e7-f2b0-4ac5-a39f-a0f0449fdbc7","ios":"levelo://app?vid=1b9867e7-f2b0-4ac5-a39f-a0f0449fdbc7"},"vehicle_type_id":"4","last_reported":1716494923,"current_range_meters":0,"station_id":"ce4bgv92rcd13ifvqcr0","pricing_plan_id":"cebpf4jnsgd1na2vs0mg"},{"bike_id":"b6149688-ab36-465a-9d46-88ad2f147bc5","system_id":"levelo_inurba_marseille","lat":43.30143,"lon":5.37413,"is_reserved":false,"is_disabled":false,"rental_uris":{"android":"levelo://app?vid=b6149688-ab36-465a-9d46-88ad2f147bc5","ios":"levelo://app?vid=b6149688-ab36-465a-9d46-88ad2f147bc5"},"vehicle_type_id":"4","last_reported":1716494923,"current_range_meters":2400,"station_id":"ce4bgs92rcd13ifvqcc0","pricing_plan_id":"cebpf4jnsgd1na2vs0mg"},{"bike_id":"f5af61ba-ff1b-4f3c-9e05-ddb456a9f2f0","system_id":"levelo_inurba_marseille","lat":43.310804,"lon":5.38359,"is_reserved":false,"is_disabled":false,"rental_uris":{"android":"levelo://app?vid=f5af61ba-ff1b-4f3c-9e05-ddb456a9f2f0","ios":"levelo://app?vid=f5af61ba-ff1b-4f3c-9e05-ddb456a9f2f0"},"vehicle_type_id":"4","last_reported":1716494923,"current_range_meters":3600,"station_id":"ce4bgv92rcd13ifvqcr0","pricing_plan_id":"cebpf4jnsgd1na2vs0mg"},{"bike_id":"2ee98f44-7a43-459f-84cc-94a663da20ff","system_id":"levelo_inurba_marseille","lat":43.31998,"lon":5.38149,"is_reserved":false,"is_disabled":false,"rental_uris":{"android":"levelo://app?vid=2ee98f44-7a43-459f-84cc-94a663da20ff","ios":"levelo://app?vid=2ee98f44-7a43-459f-84cc-94a663da20ff"},"vehicle_type_id":"4","last_reported":1716494923,"current_range_meters":11200,"station_id":"ce4bhr12rcd13ifvqhpg","pricing_plan_id":"cebpf4jnsgd1na2vs0mg"},{"bike_id":"71369abf-e394-4940-97da-986f25abee8b","system_id":"levelo_inurba_marseille","lat":43.320008,"lon":5.381465,"is_reserved":false,"is_disabled":false,"rental_uris":{"android":"levelo://app?vid=71369abf-e394-4940-97da-986f25abee8b","ios":"levelo://app?vid=71369abf-e394-4940-97da-986f25abee8b"},"vehicle_type_id":"4","last_reported":1716494923,"current_range_meters":0,"station_id":"ce4bhr12rcd13ifvqhpg","pricing_plan_id":"cebpf4jnsgd1na2vs0mg"},{"bike_id":"de619929-8b4c-4e00-9568-d06d2878bfd9","system_id":"levelo_inurba_marseille","lat":43.319935,"lon":5.381699,"is_reserved":false,"is_disabled":false,"rental_uris":{"android":"levelo://app?vid=de619929-8b4c-4e00-9568-d06d2878bfd9","ios":"levelo://app?vid=de619929-8b4c-4e00-9568-d06d2878bfd9"},"vehicle_type_id":"4","last_reported":1716494923,"current_range_meters":15200,"station_id":"ce4bhr12rcd13ifvqhpg","pricing_plan_id":"cebpf4jnsgd1na2vs0mg"},{"bike_id":"0fbe5198-f394-4686-a086-9ac196b8caea","system_id":"levelo_inurba_marseille","lat":43.319995,"lon":5.381502,"is_reserved":false,"is_disabled":false,"rental_uris":{"android":"levelo://app?vid=0fbe5198-f394-4686-a086-9ac196b8caea","ios":"levelo://app?vid=0fbe5198-f394-4686-a086-9ac196b8caea"},"vehicle_type_id":"4","last_reported":1716494923,"current_range_meters":26400,"station_id":"ce4bhr12rcd13ifvqhpg","pricing_plan_id":"cebpf4jnsgd1na2vs0mg"},{"bike_id":"7a1eaaa0-a977-4220-be6a-149f0a04fbc3","system_id":"levelo_inurba_marseille","lat":43.32001,"lon":5.38158,"is_reserved":false,"is_disabled":false,"rental_uris":{"android":"levelo://app?vid=7a1eaaa0-a977-4220-be6a-149f0a04fbc3","ios":"levelo://app?vid=7a1eaaa0-a977-4220-be6a-149f0a04fbc3"},"vehicle_type_id":"4","last_reported":1716494923,"current_range_meters":800,"station_id":"ce4bhr12rcd13ifvqhpg","pricing_plan_id":"cebpf4jnsgd1na2vs0mg"},{"bike_id":"c31fa574-fb9b-4a35-984f-92889259d43a","system_id":"levelo_inurba_marseille","lat":43.313571,"lon":5.384829,"is_reserved":false,"is_disabled":false,"rental_uris":{"android":"levelo://app?vid=c31fa574-fb9b-4a35-984f-92889259d43a","ios":"levelo://app?vid=c31fa574-fb9b-4a35-984f-92889259d43a"},"vehicle_type_id":"4","last_reported":1716494923,"current_range_meters":31200,"station_id":"ce4bgt92rcd13ifvqcf0","pricing_plan_id":"cebpf4jnsgd1na2vs0mg"},{"bike_id":"74f07d50-fffc-4335-8152-9b109cd3cb4b","system_id":"levelo_inurba_marseille","lat":43.313571,"lon":5.384829,"is_reserved":false,"is_disabled":false,"rental_uris":{"android":"levelo://app?vid=74f07d50-fffc-4335-8152-9b109cd3cb4b","ios":"levelo://app?vid=74f07d50-fffc-4335-8152-9b109cd3cb4b"},"vehicle_type_id":"4","last_reported":1716494923,"current_range_meters":1600,"station_id":"ce4bgt92rcd13ifvqcf0","pricing_plan_id":"cebpf4jnsgd1na2vs0mg"},{"bike_id":"3611f9a0-8d5e-4e57-af45-c97090fbf725","system_id":"levelo_inurba_marseille","lat":43.313571,"lon":5.384829,"is_reserved":false,"is_disabled":false,"rental_uris":{"android":"levelo://app?vid=3611f9a0-8d5e-4e57-af45-c97090fbf725","ios":"levelo://app?vid=3611f9a0-8d5e-4e57-af45-c97090fbf725"},"vehicle_type_id":"4","last_reported":1716494923,"current_range_meters":23200,"station_id":"ce4bgt92rcd13ifvqcf0","pricing_plan_id":"cebpf4jnsgd1na2vs0mg"},{"bike_id":"454daa81-a823-4ce1-8a79-38a23e6464f4","system_id":"levelo_inurba_marseille","lat":43.313571,"lon":5.384829,"is_reserved":false,"is_disabled":false,"rental_uris":{"android":"levelo://app?vid=454daa81-a823-4ce1-8a79-38a23e6464f4","ios":"levelo://app?vid=454daa81-a823-4ce1-8a79-38a23e6464f4"},"vehicle_type_id":"4","last_reported":1716494923,"current_range_meters":3200,"station_id":"ce4bgt92rcd13ifvqcf0","pricing_plan_id":"cebpf4jnsgd1na2vs0mg"},{"bike_id":"23c9eed8-b1e9-4f8b-9796-10eddcc9d81c","system_id":"levelo_inurba_marseille","lat":43.313571,"lon":5.384829,"is_reserved":false,"is_disabled":false,"rental_uris":{"android":"levelo://app?vid=23c9eed8-b1e9-4f8b-9796-10eddcc9d81c","ios":"levelo://app?vid=23c9eed8-b1e9-4f8b-9796-10eddcc9d81c"},"vehicle_type_id":"4","last_reported":1716494923,"current_range_meters":16000,"station_id":"ce4bgt92rcd13ifvqcf0","pricing_plan_id":"cebpf4jnsgd1na2vs0mg"},{"bike_id":"2cc8db59-c4f5-40ae-84e1-f8d886d477f4","system_id":"levelo_inurba_marseille","lat":43.313571,"lon":5.384829,"is_reserved":false,"is_disabled":false,"rental_uris":{"android":"levelo://app?vid=2cc8db59-c4f5-40ae-84e1-f8d886d477f4","ios":"levelo://app?vid=2cc8db59-c4f5-40ae-84e1-f8d886d477f4"},"vehicle_type_id":"4","last_reported":1716494923,"current_range_meters":5600,"station_id":"ce4bgt92rcd13ifvqcf0","pricing_plan_id":"cebpf4jnsgd1na2vs0mg"},{"bike_id":"75f5d8bb-09a6-485a-80ec-b85ce9a14ae8","system_id":"levelo_inurba_marseille","lat":43.31352,"lon":5.38492,"is_reserved":false,"is_disabled":false,"rental_uris":{"android":"levelo://app?vid=75f5d8bb-09a6-485a-80ec-b85ce9a14ae8","ios":"levelo://app?vid=75f5d8bb-09a6-485a-80ec-b85ce9a14ae8"},"vehicle_type_id":"4","last_reported":1716494923,"current_range_meters":5600,"station_id":"ce4bgt92rcd13ifvqcf0","pricing_plan_id":"cebpf4jnsgd1na2vs0mg"},{"bike_id":"c209f316-fa0a-4b3d-8e71-d4ac7f2fe2d1","system_id":"levelo_inurba_marseille","lat":43.313571,"lon":5.384829,"is_reserved":false,"is_disabled":false,"rental_uris":{"android":"levelo://app?vid=c209f316-fa0a-4b3d-8e71-d4ac7f2fe2d1","ios":"levelo://app?vid=c209f316-fa0a-4b3d-8e71-d4ac7f2fe2d1"},"vehicle_type_id":"4","last_reported":1716494923,"current_range_meters":800,"station_id":"ce4bgt92rcd13ifvqcf0","pricing_plan_id":"cebpf4jnsgd1na2vs0mg"},{"bike_id":"d1a76876-c785-47b7-b4f9-183e0c95e176","system_id":"levelo_inurba_marseille","lat":43.31363,"lon":5.384921,"is_reserved":false,"is_disabled":false,"rental_uris":{"android":"levelo://app?vid=d1a76876-c785-47b7-b4f9-183e0c95e176","ios":"levelo://app?vid=d1a76876-c785-47b7-b4f9-183e0c95e176"},"vehicle_type_id":"4","last_reported":1716494923,"current_range_meters":28400,"station_id":"ce4bgt92rcd13ifvqcf0","pricing_plan_id":"cebpf4jnsgd1na2vs0mg"},{"bike_id":"5b16c1b3-b4ec-4be0-973e-d3ed31fe394c","system_id":"levelo_inurba_marseille","lat":43.313656,"lon":5.384921,"is_reserved":false,"is_disabled":false,"rental_uris":{"android":"levelo://app?vid=5b16c1b3-b4ec-4be0-973e-d3ed31fe394c","ios":"levelo://app?vid=5b16c1b3-b4ec-4be0-973e-d3ed31fe394c"},"vehicle_type_id":"4","last_reported":1716494923,"current_range_meters":31200,"station_id":"ce4bgt92rcd13ifvqcf0","pricing_plan_id":"cebpf4jnsgd1na2vs0mg"},{"bike_id":"f32a0467-c45c-4d3c-9d5e-ec43f2812f36","system_id":"levelo_inurba_marseille","lat":43.31354,"lon":5.38494,"is_reserved":false,"is_disabled":false,"rental_uris":{"android":"levelo://app?vid=f32a0467-c45c-4d3c-9d5e-ec43f2812f36","ios":"levelo://app?vid=f32a0467-c45c-4d3c-9d5e-ec43f2812f36"},"vehicle_type_id":"4","last_reported":1716494923,"current_range_meters":31200,"station_id":"ce4bgt92rcd13ifvqcf0","pricing_plan_id":"cebpf4jnsgd1na2vs0mg"},{"bike_id":"329f4403-c9bd-41a0-9c40-6135e484fedf","system_id":"levelo_inurba_marseille","lat":43.31357,"lon":5.38495,"is_reserved":false,"is_disabled":false,"rental_uris":{"android":"levelo://app?vid=329f4403-c9bd-41a0-9c40-6135e484fedf","ios":"levelo://app?vid=329f4403-c9bd-41a0-9c40-6135e484fedf"},"vehicle_type_id":"4","last_reported":1716494923,"current_range_meters":20800,"station_id":"ce4bgt92rcd13ifvqcf0","pricing_plan_id":"cebpf4jnsgd1na2vs0mg"},{"bike_id":"6ead9ff1-e04a-46e1-b71c-6339824dd6d4","system_id":"levelo_inurba_marseille","lat":43.313602,"lon":5.384951,"is_reserved":false,"is_disabled":false,"rental_uris":{"android":"levelo://app?vid=6ead9ff1-e04a-46e1-b71c-6339824dd6d4","ios":"levelo://app?vid=6ead9ff1-e04a-46e1-b71c-6339824dd6d4"},"vehicle_type_id":"4","last_reported":1716494923,"current_range_meters":31200,"station_id":"ce4bgt92rcd13ifvqcf0","pricing_plan_id":"cebpf4jnsgd1na2vs0mg"},{"bike_id":"81a8b082-9098-4da2-b057-3312b96c4db6","system_id":"levelo_inurba_marseille","lat":43.31361,"lon":5.38496,"is_reserved":false,"is_disabled":false,"rental_uris":{"android":"levelo://app?vid=81a8b082-9098-4da2-b057-3312b96c4db6","ios":"levelo://app?vid=81a8b082-9098-4da2-b057-3312b96c4db6"},"vehicle_type_id":"4","last_reported":1716494923,"current_range_meters":29600,"station_id":"ce4bgt92rcd13ifvqcf0","pricing_plan_id":"cebpf4jnsgd1na2vs0mg"},{"bike_id":"ee6c45de-6ab1-48e8-8106-5d3ed3386159","system_id":"levelo_inurba_marseille","lat":43.31355,"lon":5.38497,"is_reserved":false,"is_disabled":false,"rental_uris":{"android":"levelo://app?vid=ee6c45de-6ab1-48e8-8106-5d3ed3386159","ios":"levelo://app?vid=ee6c45de-6ab1-48e8-8106-5d3ed3386159"},"vehicle_type_id":"4","last_reported":1716494923,"current_range_meters":26400,"station_id":"ce4bgt92rcd13ifvqcf0","pricing_plan_id":"cebpf4jnsgd1na2vs0mg"},{"bike_id":"743c3d61-d44a-46de-b048-2d7290990d6e","system_id":"levelo_inurba_marseille","lat":43.313528,"lon":5.384996,"is_reserved":false,"is_disabled":false,"rental_uris":{"android":"levelo://app?vid=743c3d61-d44a-46de-b048-2d7290990d6e","ios":"levelo://app?vid=743c3d61-d44a-46de-b048-2d7290990d6e"},"vehicle_type_id":"4","last_reported":1716494923,"current_range_meters":31200,"station_id":"ce4bgt92rcd13ifvqcf0","pricing_plan_id":"cebpf4jnsgd1na2vs0mg"},{"bike_id":"7dbe939a-8229-4303-8f8f-d400aa06f399","system_id":"levelo_inurba_marseille","lat":43.313571,"lon":5.384829,"is_reserved":false,"is_disabled":false,"rental_uris":{"android":"levelo://app?vid=7dbe939a-8229-4303-8f8f-d400aa06f399","ios":"levelo://app?vid=7dbe939a-8229-4303-8f8f-d400aa06f399"},"vehicle_type_id":"4","last_reported":1716494923,"current_range_meters":16000,"station_id":"ce4bgt92rcd13ifvqcf0","pricing_plan_id":"cebpf4jnsgd1na2vs0mg"},{"bike_id":"d467974e-bf78-436a-a1b4-e91409b13690","system_id":"levelo_inurba_marseille","lat":43.310804,"lon":5.38359,"is_reserved":false,"is_disabled":false,"rental_uris":{"android":"levelo://app?vid=d467974e-bf78-436a-a1b4-e91409b13690","ios":"levelo://app?vid=d467974e-bf78-436a-a1b4-e91409b13690"},"vehicle_type_id":"4","last_reported":1716494923,"current_range_meters":400,"station_id":"ce4bgv92rcd13ifvqcr0","pricing_plan_id":"cebpf4jnsgd1na2vs0mg"},{"bike_id":"ce8667e8-d584-4715-b39f-54ea7b72d2ca","system_id":"levelo_inurba_marseille","lat":43.313673,"lon":5.385186,"is_reserved":false,"is_disabled":false,"rental_uris":{"android":"levelo://app?vid=ce8667e8-d584-4715-b39f-54ea7b72d2ca","ios":"levelo://app?vid=ce8667e8-d584-4715-b39f-54ea7b72d2ca"},"vehicle_type_id":"4","last_reported":1716494923,"current_range_meters":10000,"station_id":"ce4bgt92rcd13ifvqcf0","pricing_plan_id":"cebpf4jnsgd1na2vs0mg"},{"bike_id":"34530668-036e-49bc-9922-253c2416c034","system_id":"levelo_inurba_marseille","lat":43.299724,"lon":5.371829,"is_reserved":false,"is_disabled":false,"rental_uris":{"android":"levelo://app?vid=34530668-036e-49bc-9922-253c2416c034","ios":"levelo://app?vid=34530668-036e-49bc-9922-253c2416c034"},"vehicle_type_id":"4","last_reported":1716494923,"current_range_meters":23200,"station_id":"ce4bgr92rcd13ifvqc7g","pricing_plan_id":"cebpf4jnsgd1na2vs0mg"},{"bike_id":"def0b08b-ba95-4dd9-befc-5d40082908db","system_id":"levelo_inurba_marseille","lat":43.299222,"lon":5.365554,"is_reserved":false,"is_disabled":false,"rental_uris":{"android":"levelo://app?vid=def0b08b-ba95-4dd9-befc-5d40082908db","ios":"levelo://app?vid=def0b08b-ba95-4dd9-befc-5d40082908db"},"vehicle_type_id":"4","last_reported":1716494923,"current_range_meters":7200,"station_id":"ce4bgm92rcd13ifvqbr0","pricing_plan_id":"cebpf4jnsgd1na2vs0mg"},{"bike_id":"437c2b7d-d6b1-4437-b787-73b42003d361","system_id":"levelo_inurba_marseille","lat":43.299222,"lon":5.365554,"is_reserved":false,"is_disabled":false,"rental_uris":{"android":"levelo://app?vid=437c2b7d-d6b1-4437-b787-73b42003d361","ios":"levelo://app?vid=437c2b7d-d6b1-4437-b787-73b42003d361"},"vehicle_type_id":"4","last_reported":1716494923,"current_range_meters":19600,"station_id":"ce4bgm92rcd13ifvqbr0","pricing_plan_id":"cebpf4jnsgd1na2vs0mg"},{"bike_id":"8850d40e-0816-4449-b30c-dbb51028f7f7","system_id":"levelo_inurba_marseille","lat":43.299724,"lon":5.371829,"is_reserved":false,"is_disabled":false,"rental_uris":{"android":"levelo://app?vid=8850d40e-0816-4449-b30c-dbb51028f7f7","ios":"levelo://app?vid=8850d40e-0816-4449-b30c-dbb51028f7f7"},"vehicle_type_id":"4","last_reported":1716494923,"current_range_meters":10400,"station_id":"ce4bgr92rcd13ifvqc7g","pricing_plan_id":"cebpf4jnsgd1na2vs0mg"},{"bike_id":"bcd5ad08-f8d7-4363-a274-d2b73350eef9","system_id":"levelo_inurba_marseille","lat":43.299724,"lon":5.371829,"is_reserved":false,"is_disabled":false,"rental_uris":{"android":"levelo://app?vid=bcd5ad08-f8d7-4363-a274-d2b73350eef9","ios":"levelo://app?vid=bcd5ad08-f8d7-4363-a274-d2b73350eef9"},"vehicle_type_id":"4","last_reported":1716494923,"current_range_meters":6000,"station_id":"ce4bgr92rcd13ifvqc7g","pricing_plan_id":"cebpf4jnsgd1na2vs0mg"},{"bike_id":"0d1264ae-d98b-4176-921d-c73a3cebc4b9","system_id":"levelo_inurba_marseille","lat":43.299724,"lon":5.371829,"is_reserved":false,"is_disabled":false,"rental_uris":{"android":"levelo://app?vid=0d1264ae-d98b-4176-921d-c73a3cebc4b9","ios":"levelo://app?vid=0d1264ae-d98b-4176-921d-c73a3cebc4b9"},"vehicle_type_id":"4","last_reported":1716494923,"current_range_meters":1600,"station_id":"ce4bgr92rcd13ifvqc7g","pricing_plan_id":"cebpf4jnsgd1na2vs0mg"},{"bike_id":"ae4934c7-93f4-4ac9-88e1-332ba8efa7ba","system_id":"levelo_inurba_marseille","lat":43.299222,"lon":5.365554,"is_reserved":false,"is_disabled":false,"rental_uris":{"android":"levelo://app?vid=ae4934c7-93f4-4ac9-88e1-332ba8efa7ba","ios":"levelo://app?vid=ae4934c7-93f4-4ac9-88e1-332ba8efa7ba"},"vehicle_type_id":"4","last_reported":1716494923,"current_range_meters":13600,"station_id":"ce4bgm92rcd13ifvqbr0","pricing_plan_id":"cebpf4jnsgd1na2vs0mg"},{"bike_id":"72317f8c-de3d-4297-952a-65104e66150e","system_id":"levelo_inurba_marseille","lat":43.29998,"lon":5.37585,"is_reserved":false,"is_disabled":false,"rental_uris":{"android":"levelo://app?vid=72317f8c-de3d-4297-952a-65104e66150e","ios":"levelo://app?vid=72317f8c-de3d-4297-952a-65104e66150e"},"vehicle_type_id":"4","last_reported":1716494923,"current_range_meters":400,"station_id":"","pricing_plan_id":"cebpf4jnsgd1na2vs0mg"},{"bike_id":"f866e28e-17fd-4ea3-b66b-2539cfa7e084","system_id":"levelo_inurba_marseille","lat":43.322872,"lon":5.382756,"is_reserved":false,"is_disabled":false,"rental_uris":{"android":"levelo://app?vid=f866e28e-17fd-4ea3-b66b-2539cfa7e084","ios":"levelo://app?vid=f866e28e-17fd-4ea3-b66b-2539cfa7e084"},"vehicle_type_id":"4","last_reported":1716494923,"current_range_meters":26000,"station_id":"ce4bhr12rcd13ifvqhqg","pricing_plan_id":"cebpf4jnsgd1na2vs0mg"},{"bike_id":"f518b5d5-eb18-4ac9-8602-a942ff3e4076","system_id":"levelo_inurba_marseille","lat":43.311857,"lon":5.386905,"is_reserved":false,"is_disabled":false,"rental_uris":{"android":"levelo://app?vid=f518b5d5-eb18-4ac9-8602-a942ff3e4076","ios":"levelo://app?vid=f518b5d5-eb18-4ac9-8602-a942ff3e4076"},"vehicle_type_id":"4","last_reported":1716494923,"current_range_meters":15600,"station_id":"ce4bgv12rcd13ifvqcp0","pricing_plan_id":"cebpf4jnsgd1na2vs0mg"},{"bike_id":"712c6249-8cb9-4fd6-987e-d8a1223e7270","system_id":"levelo_inurba_marseille","lat":43.311722,"lon":5.387247,"is_reserved":false,"is_disabled":false,"rental_uris":{"android":"levelo://app?vid=712c6249-8cb9-4fd6-987e-d8a1223e7270","ios":"levelo://app?vid=712c6249-8cb9-4fd6-987e-d8a1223e7270"},"vehicle_type_id":"4","last_reported":1716494923,"current_range_meters":16400,"station_id":"ce4bgv12rcd13ifvqcp0","pricing_plan_id":"cebpf4jnsgd1na2vs0mg"},{"bike_id":"470803d8-a163-416e-b50e-2e2f41555743","system_id":"levelo_inurba_marseille","lat":43.298433,"lon":5.362774,"is_reserved":false,"is_disabled":false,"rental_uris":{"android":"levelo://app?vid=470803d8-a163-416e-b50e-2e2f41555743","ios":"levelo://app?vid=470803d8-a163-416e-b50e-2e2f41555743"},"vehicle_type_id":"4","last_reported":1716494923,"current_range_meters":30800,"station_id":"ce4bgpp2rcd13ifvqc3g","pricing_plan_id":"cebpf4jnsgd1na2vs0mg"},{"bike_id":"f839a5b5-727f-4f90-864d-57708556760b","system_id":"levelo_inurba_marseille","lat":43.311722,"lon":5.387247,"is_reserved":false,"is_disabled":false,"rental_uris":{"android":"levelo://app?vid=f839a5b5-727f-4f90-864d-57708556760b","ios":"levelo://app?vid=f839a5b5-727f-4f90-864d-57708556760b"},"vehicle_type_id":"4","last_reported":1716494923,"current_range_meters":24400,"station_id":"ce4bgv12rcd13ifvqcp0","pricing_plan_id":"cebpf4jnsgd1na2vs0mg"},{"bike_id":"efa7002e-79f9-4851-a263-6e95f48ba0af","system_id":"levelo_inurba_marseille","lat":43.311641,"lon":5.387013,"is_reserved":false,"is_disabled":false,"rental_uris":{"android":"levelo://app?vid=efa7002e-79f9-4851-a263-6e95f48ba0af","ios":"levelo://app?vid=efa7002e-79f9-4851-a263-6e95f48ba0af"},"vehicle_type_id":"4","last_reported":1716494923,"current_range_meters":2800,"station_id":"ce4bgv12rcd13ifvqcp0","pricing_plan_id":"cebpf4jnsgd1na2vs0mg"},{"bike_id":"a0d86a4b-bf1a-4fca-bbfd-e410a5bc5890","system_id":"levelo_inurba_marseille","lat":43.298433,"lon":5.362774,"is_reserved":false,"is_disabled":false,"rental_uris":{"android":"levelo://app?vid=a0d86a4b-bf1a-4fca-bbfd-e410a5bc5890","ios":"levelo://app?vid=a0d86a4b-bf1a-4fca-bbfd-e410a5bc5890"},"vehicle_type_id":"4","last_reported":1716494923,"current_range_meters":19200,"station_id":"ce4bgpp2rcd13ifvqc3g","pricing_plan_id":"cebpf4jnsgd1na2vs0mg"},{"bike_id":"32144925-226c-47ea-967c-ae8ade78f6b7","system_id":"levelo_inurba_marseille","lat":43.311722,"lon":5.387247,"is_reserved":false,"is_disabled":false,"rental_uris":{"android":"levelo://app?vid=32144925-226c-47ea-967c-ae8ade78f6b7","ios":"levelo://app?vid=32144925-226c-47ea-967c-ae8ade78f6b7"},"vehicle_type_id":"4","last_reported":1716494923,"current_range_meters":0,"station_id":"ce4bgv12rcd13ifvqcp0","pricing_plan_id":"cebpf4jnsgd1na2vs0mg"},{"bike_id":"dd1d866e-b54e-4878-b9f0-a2a6605015e2","system_id":"levelo_inurba_marseille","lat":43.311722,"lon":5.387247,"is_reserved":false,"is_disabled":false,"rental_uris":{"android":"levelo://app?vid=dd1d866e-b54e-4878-b9f0-a2a6605015e2","ios":"levelo://app?vid=dd1d866e-b54e-4878-b9f0-a2a6605015e2"},"vehicle_type_id":"4","last_reported":1716494923,"current_range_meters":5600,"station_id":"ce4bgv12rcd13ifvqcp0","pricing_plan_id":"cebpf4jnsgd1na2vs0mg"},{"bike_id":"ba2e0079-3e8f-4adb-a0bb-3472d29d27eb","system_id":"levelo_inurba_marseille","lat":43.311645,"lon":5.3871,"is_reserved":false,"is_disabled":false,"rental_uris":{"android":"levelo://app?vid=ba2e0079-3e8f-4adb-a0bb-3472d29d27eb","ios":"levelo://app?vid=ba2e0079-3e8f-4adb-a0bb-3472d29d27eb"},"vehicle_type_id":"4","last_reported":1716494923,"current_range_meters":400,"station_id":"ce4bgv12rcd13ifvqcp0","pricing_plan_id":"cebpf4jnsgd1na2vs0mg"},{"bike_id":"111055ee-5ce4-4a2d-940c-31004ed1fa4f","system_id":"levelo_inurba_marseille","lat":43.305364,"lon":5.384119,"is_reserved":false,"is_disabled":false,"rental_uris":{"android":"levelo://app?vid=111055ee-5ce4-4a2d-940c-31004ed1fa4f","ios":"levelo://app?vid=111055ee-5ce4-4a2d-940c-31004ed1fa4f"},"vehicle_type_id":"4","last_reported":1716494923,"current_range_meters":13600,"station_id":"ce4bgg92rcd13ifvqb30","pricing_plan_id":"cebpf4jnsgd1na2vs0mg"},{"bike_id":"35ee78e8-9b10-4de6-8b21-5450a34c82ef","system_id":"levelo_inurba_marseille","lat":43.311722,"lon":5.387247,"is_reserved":false,"is_disabled":false,"rental_uris":{"android":"levelo://app?vid=35ee78e8-9b10-4de6-8b21-5450a34c82ef","ios":"levelo://app?vid=35ee78e8-9b10-4de6-8b21-5450a34c82ef"},"vehicle_type_id":"4","last_reported":1716494923,"current_range_meters":14400,"station_id":"ce4bgv12rcd13ifvqcp0","pricing_plan_id":"cebpf4jnsgd1na2vs0mg"},{"bike_id":"944982d0-4e82-43e6-81cd-361a2e87a669","system_id":"levelo_inurba_marseille","lat":43.31183,"lon":5.38715,"is_reserved":false,"is_disabled":false,"rental_uris":{"android":"levelo://app?vid=944982d0-4e82-43e6-81cd-361a2e87a669","ios":"levelo://app?vid=944982d0-4e82-43e6-81cd-361a2e87a669"},"vehicle_type_id":"4","last_reported":1716494923,"current_range_meters":2800,"station_id":"ce4bgv12rcd13ifvqcp0","pricing_plan_id":"cebpf4jnsgd1na2vs0mg"},{"bike_id":"6e323925-d737-43a5-89bc-4ac01df5b4d5","system_id":"levelo_inurba_marseille","lat":43.311722,"lon":5.387247,"is_reserved":false,"is_disabled":false,"rental_uris":{"android":"levelo://app?vid=6e323925-d737-43a5-89bc-4ac01df5b4d5","ios":"levelo://app?vid=6e323925-d737-43a5-89bc-4ac01df5b4d5"},"vehicle_type_id":"4","last_reported":1716494923,"current_range_meters":21200,"station_id":"ce4bgv12rcd13ifvqcp0","pricing_plan_id":"cebpf4jnsgd1na2vs0mg"},{"bike_id":"9838b2f6-63b0-4f01-b27b-75c67059ce9f","system_id":"levelo_inurba_marseille","lat":43.311722,"lon":5.387247,"is_reserved":false,"is_disabled":false,"rental_uris":{"android":"levelo://app?vid=9838b2f6-63b0-4f01-b27b-75c67059ce9f","ios":"levelo://app?vid=9838b2f6-63b0-4f01-b27b-75c67059ce9f"},"vehicle_type_id":"4","last_reported":1716494923,"current_range_meters":20400,"station_id":"ce4bgv12rcd13ifvqcp0","pricing_plan_id":"cebpf4jnsgd1na2vs0mg"},{"bike_id":"b9f215bc-f844-4a66-b3e0-86c3bc7f4278","system_id":"levelo_inurba_marseille","lat":43.311754,"lon":5.387163,"is_reserved":false,"is_disabled":false,"rental_uris":{"android":"levelo://app?vid=b9f215bc-f844-4a66-b3e0-86c3bc7f4278","ios":"levelo://app?vid=b9f215bc-f844-4a66-b3e0-86c3bc7f4278"},"vehicle_type_id":"4","last_reported":1716494923,"current_range_meters":21200,"station_id":"ce4bgv12rcd13ifvqcp0","pricing_plan_id":"cebpf4jnsgd1na2vs0mg"},{"bike_id":"457788d3-db7a-4c0c-a0ca-852369fbfafd","system_id":"levelo_inurba_marseille","lat":43.31161,"lon":5.38717,"is_reserved":false,"is_disabled":false,"rental_uris":{"android":"levelo://app?vid=457788d3-db7a-4c0c-a0ca-852369fbfafd","ios":"levelo://app?vid=457788d3-db7a-4c0c-a0ca-852369fbfafd"},"vehicle_type_id":"4","last_reported":1716494923,"current_range_meters":23200,"station_id":"ce4bgv12rcd13ifvqcp0","pricing_plan_id":"cebpf4jnsgd1na2vs0mg"},{"bike_id":"0b270662-f261-4342-ba0b-13d713b83cb2","system_id":"levelo_inurba_marseille","lat":43.311722,"lon":5.387247,"is_reserved":false,"is_disabled":false,"rental_uris":{"android":"levelo://app?vid=0b270662-f261-4342-ba0b-13d713b83cb2","ios":"levelo://app?vid=0b270662-f261-4342-ba0b-13d713b83cb2"},"vehicle_type_id":"4","last_reported":1716494923,"current_range_meters":31600,"station_id":"ce4bgv12rcd13ifvqcp0","pricing_plan_id":"cebpf4jnsgd1na2vs0mg"},{"bike_id":"893b2bc9-76dc-494d-a673-06bf4d0d196b","system_id":"levelo_inurba_marseille","lat":43.31167,"lon":5.38718,"is_reserved":false,"is_disabled":false,"rental_uris":{"android":"levelo://app?vid=893b2bc9-76dc-494d-a673-06bf4d0d196b","ios":"levelo://app?vid=893b2bc9-76dc-494d-a673-06bf4d0d196b"},"vehicle_type_id":"4","last_reported":1716494923,"current_range_meters":31200,"station_id":"ce4bgv12rcd13ifvqcp0","pricing_plan_id":"cebpf4jnsgd1na2vs0mg"},{"bike_id":"3dd6c225-73e7-4d7d-8c96-81300d356773","system_id":"levelo_inurba_marseille","lat":43.31176,"lon":5.38719,"is_reserved":false,"is_disabled":false,"rental_uris":{"android":"levelo://app?vid=3dd6c225-73e7-4d7d-8c96-81300d356773","ios":"levelo://app?vid=3dd6c225-73e7-4d7d-8c96-81300d356773"},"vehicle_type_id":"4","last_reported":1716494923,"current_range_meters":22000,"station_id":"ce4bgv12rcd13ifvqcp0","pricing_plan_id":"cebpf4jnsgd1na2vs0mg"},{"bike_id":"091163ce-160e-47ab-94a0-3a215ddf6a36","system_id":"levelo_inurba_marseille","lat":43.299243,"lon":5.374807,"is_reserved":false,"is_disabled":false,"rental_uris":{"android":"levelo://app?vid=091163ce-160e-47ab-94a0-3a215ddf6a36","ios":"levelo://app?vid=091163ce-160e-47ab-94a0-3a215ddf6a36"},"vehicle_type_id":"4","last_reported":1716494923,"current_range_meters":22800,"station_id":"ce4bgjh2rcd13ifvqbg0","pricing_plan_id":"cebpf4jnsgd1na2vs0mg"},{"bike_id":"26fe6b7f-c783-41f2-be49-3b50c3eb96c4","system_id":"levelo_inurba_marseille","lat":43.311722,"lon":5.387247,"is_reserved":false,"is_disabled":false,"rental_uris":{"android":"levelo://app?vid=26fe6b7f-c783-41f2-be49-3b50c3eb96c4","ios":"levelo://app?vid=26fe6b7f-c783-41f2-be49-3b50c3eb96c4"},"vehicle_type_id":"4","last_reported":1716494923,"current_range_meters":25200,"station_id":"ce4bgv12rcd13ifvqcp0","pricing_plan_id":"cebpf4jnsgd1na2vs0mg"},{"bike_id":"1cd9cb40-01bc-466c-83dd-26c3d9a0de90","system_id":"levelo_inurba_marseille","lat":43.311722,"lon":5.387247,"is_reserved":false,"is_disabled":false,"rental_uris":{"android":"levelo://app?vid=1cd9cb40-01bc-466c-83dd-26c3d9a0de90","ios":"levelo://app?vid=1cd9cb40-01bc-466c-83dd-26c3d9a0de90"},"vehicle_type_id":"4","last_reported":1716494923,"current_range_meters":6400,"station_id":"ce4bgv12rcd13ifvqcp0","pricing_plan_id":"cebpf4jnsgd1na2vs0mg"},{"bike_id":"2e7728b2-6a8c-4342-90ab-7d46734b2f29","system_id":"levelo_inurba_marseille","lat":43.311722,"lon":5.387247,"is_reserved":false,"is_disabled":false,"rental_uris":{"android":"levelo://app?vid=2e7728b2-6a8c-4342-90ab-7d46734b2f29","ios":"levelo://app?vid=2e7728b2-6a8c-4342-90ab-7d46734b2f29"},"vehicle_type_id":"4","last_reported":1716494923,"current_range_meters":28000,"station_id":"ce4bgv12rcd13ifvqcp0","pricing_plan_id":"cebpf4jnsgd1na2vs0mg"},{"bike_id":"2044a078-c80e-4ef3-a2c6-68a0194e9513","system_id":"levelo_inurba_marseille","lat":43.31169,"lon":5.3872,"is_reserved":false,"is_disabled":false,"rental_uris":{"android":"levelo://app?vid=2044a078-c80e-4ef3-a2c6-68a0194e9513","ios":"levelo://app?vid=2044a078-c80e-4ef3-a2c6-68a0194e9513"},"vehicle_type_id":"4","last_reported":1716494923,"current_range_meters":3200,"station_id":"ce4bgv12rcd13ifvqcp0","pricing_plan_id":"cebpf4jnsgd1na2vs0mg"},{"bike_id":"88e90cb2-1162-4da0-8836-45043e78dffe","system_id":"levelo_inurba_marseille","lat":43.311722,"lon":5.387247,"is_reserved":false,"is_disabled":false,"rental_uris":{"android":"levelo://app?vid=88e90cb2-1162-4da0-8836-45043e78dffe","ios":"levelo://app?vid=88e90cb2-1162-4da0-8836-45043e78dffe"},"vehicle_type_id":"4","last_reported":1716494923,"current_range_meters":9200,"station_id":"ce4bgv12rcd13ifvqcp0","pricing_plan_id":"cebpf4jnsgd1na2vs0mg"},{"bike_id":"39de77eb-92e7-44b4-99db-3bc9b1ca4501","system_id":"levelo_inurba_marseille","lat":43.31174,"lon":5.38721,"is_reserved":false,"is_disabled":false,"rental_uris":{"android":"levelo://app?vid=39de77eb-92e7-44b4-99db-3bc9b1ca4501","ios":"levelo://app?vid=39de77eb-92e7-44b4-99db-3bc9b1ca4501"},"vehicle_type_id":"4","last_reported":1716494923,"current_range_meters":16800,"station_id":"ce4bgv12rcd13ifvqcp0","pricing_plan_id":"cebpf4jnsgd1na2vs0mg"},{"bike_id":"d67f3783-3f5f-4115-b596-26fdeda82438","system_id":"levelo_inurba_marseille","lat":43.31172,"lon":5.38721,"is_reserved":false,"is_disabled":false,"rental_uris":{"android":"levelo://app?vid=d67f3783-3f5f-4115-b596-26fdeda82438","ios":"levelo://app?vid=d67f3783-3f5f-4115-b596-26fdeda82438"},"vehicle_type_id":"4","last_reported":1716494923,"current_range_meters":13200,"station_id":"ce4bgv12rcd13ifvqcp0","pricing_plan_id":"cebpf4jnsgd1na2vs0mg"},{"bike_id":"44cff658-618b-4a97-b3b3-17633933fa8c","system_id":"levelo_inurba_marseille","lat":43.311722,"lon":5.387247,"is_reserved":false,"is_disabled":false,"rental_uris":{"android":"levelo://app?vid=44cff658-618b-4a97-b3b3-17633933fa8c","ios":"levelo://app?vid=44cff658-618b-4a97-b3b3-17633933fa8c"},"vehicle_type_id":"4","last_reported":1716494923,"current_range_meters":8800,"station_id":"ce4bgv12rcd13ifvqcp0","pricing_plan_id":"cebpf4jnsgd1na2vs0mg"},{"bike_id":"f66af558-6a15-4a57-92d7-1e4ce0bd83de","system_id":"levelo_inurba_marseille","lat":43.311644,"lon":5.387215,"is_reserved":false,"is_disabled":false,"rental_uris":{"android":"levelo://app?vid=f66af558-6a15-4a57-92d7-1e4ce0bd83de","ios":"levelo://app?vid=f66af558-6a15-4a57-92d7-1e4ce0bd83de"},"vehicle_type_id":"4","last_reported":1716494923,"current_range_meters":23200,"station_id":"ce4bgv12rcd13ifvqcp0","pricing_plan_id":"cebpf4jnsgd1na2vs0mg"},{"bike_id":"f07209a9-56ad-49ad-9f23-090d07b5c155","system_id":"levelo_inurba_marseille","lat":43.31173,"lon":5.387225,"is_reserved":false,"is_disabled":false,"rental_uris":{"android":"levelo://app?vid=f07209a9-56ad-49ad-9f23-090d07b5c155","ios":"levelo://app?vid=f07209a9-56ad-49ad-9f23-090d07b5c155"},"vehicle_type_id":"4","last_reported":1716494923,"current_range_meters":4800,"station_id":"ce4bgv12rcd13ifvqcp0","pricing_plan_id":"cebpf4jnsgd1na2vs0mg"},{"bike_id":"d193e3a1-3f76-4a21-acb6-175446e50302","system_id":"levelo_inurba_marseille","lat":43.311722,"lon":5.387247,"is_reserved":false,"is_disabled":false,"rental_uris":{"android":"levelo://app?vid=d193e3a1-3f76-4a21-acb6-175446e50302","ios":"levelo://app?vid=d193e3a1-3f76-4a21-acb6-175446e50302"},"vehicle_type_id":"4","last_reported":1716494923,"current_range_meters":5200,"station_id":"ce4bgv12rcd13ifvqcp0","pricing_plan_id":"cebpf4jnsgd1na2vs0mg"},{"bike_id":"d6cd07a2-c722-496d-ade0-343984aeb7e6","system_id":"levelo_inurba_marseille","lat":43.311722,"lon":5.387247,"is_reserved":false,"is_disabled":false,"rental_uris":{"android":"levelo://app?vid=d6cd07a2-c722-496d-ade0-343984aeb7e6","ios":"levelo://app?vid=d6cd07a2-c722-496d-ade0-343984aeb7e6"},"vehicle_type_id":"4","last_reported":1716494923,"current_range_meters":8000,"station_id":"ce4bgv12rcd13ifvqcp0","pricing_plan_id":"cebpf4jnsgd1na2vs0mg"},{"bike_id":"99087abd-ec89-424f-a8da-e26fd00b6820","system_id":"levelo_inurba_marseille","lat":43.311722,"lon":5.387247,"is_reserved":false,"is_disabled":false,"rental_uris":{"android":"levelo://app?vid=99087abd-ec89-424f-a8da-e26fd00b6820","ios":"levelo://app?vid=99087abd-ec89-424f-a8da-e26fd00b6820"},"vehicle_type_id":"4","last_reported":1716494923,"current_range_meters":6800,"station_id":"ce4bgv12rcd13ifvqcp0","pricing_plan_id":"cebpf4jnsgd1na2vs0mg"},{"bike_id":"42efb643-79d5-4591-9c67-d96a80693632","system_id":"levelo_inurba_marseille","lat":43.311722,"lon":5.387247,"is_reserved":false,"is_disabled":false,"rental_uris":{"android":"levelo://app?vid=42efb643-79d5-4591-9c67-d96a80693632","ios":"levelo://app?vid=42efb643-79d5-4591-9c67-d96a80693632"},"vehicle_type_id":"4","last_reported":1716494923,"current_range_meters":9600,"station_id":"ce4bgv12rcd13ifvqcp0","pricing_plan_id":"cebpf4jnsgd1na2vs0mg"},{"bike_id":"399484ad-f298-40b5-8996-aa8f9f5cbed8","system_id":"levelo_inurba_marseille","lat":43.311722,"lon":5.387247,"is_reserved":false,"is_disabled":false,"rental_uris":{"android":"levelo://app?vid=399484ad-f298-40b5-8996-aa8f9f5cbed8","ios":"levelo://app?vid=399484ad-f298-40b5-8996-aa8f9f5cbed8"},"vehicle_type_id":"4","last_reported":1716494923,"current_range_meters":9200,"station_id":"ce4bgv12rcd13ifvqcp0","pricing_plan_id":"cebpf4jnsgd1na2vs0mg"},{"bike_id":"2ddb4a5f-cd18-4d4e-a9b1-edf636a302a2","system_id":"levelo_inurba_marseille","lat":43.31175,"lon":5.38732,"is_reserved":false,"is_disabled":false,"rental_uris":{"android":"levelo://app?vid=2ddb4a5f-cd18-4d4e-a9b1-edf636a302a2","ios":"levelo://app?vid=2ddb4a5f-cd18-4d4e-a9b1-edf636a302a2"},"vehicle_type_id":"4","last_reported":1716494923,"current_range_meters":11600,"station_id":"ce4bgv12rcd13ifvqcp0","pricing_plan_id":"cebpf4jnsgd1na2vs0mg"},{"bike_id":"e06cc7f3-7276-468e-9121-f327e65eae71","system_id":"levelo_inurba_marseille","lat":43.311512,"lon":5.387481,"is_reserved":false,"is_disabled":false,"rental_uris":{"android":"levelo://app?vid=e06cc7f3-7276-468e-9121-f327e65eae71","ios":"levelo://app?vid=e06cc7f3-7276-468e-9121-f327e65eae71"},"vehicle_type_id":"4","last_reported":1716494923,"current_range_meters":25600,"station_id":"ce4bgv12rcd13ifvqcp0","pricing_plan_id":"cebpf4jnsgd1na2vs0mg"},{"bike_id":"38809253-03c2-4053-b17d-a9f9a4b16dab","system_id":"levelo_inurba_marseille","lat":43.311566,"lon":5.387495,"is_reserved":false,"is_disabled":false,"rental_uris":{"android":"levelo://app?vid=38809253-03c2-4053-b17d-a9f9a4b16dab","ios":"levelo://app?vid=38809253-03c2-4053-b17d-a9f9a4b16dab"},"vehicle_type_id":"4","last_reported":1716494923,"current_range_meters":22400,"station_id":"ce4bgv12rcd13ifvqcp0","pricing_plan_id":"cebpf4jnsgd1na2vs0mg"},{"bike_id":"bae7f842-e0eb-4ee0-921a-85dced9e7036","system_id":"levelo_inurba_marseille","lat":43.297774,"lon":5.370875,"is_reserved":false,"is_disabled":false,"rental_uris":{"android":"levelo://app?vid=bae7f842-e0eb-4ee0-921a-85dced9e7036","ios":"levelo://app?vid=bae7f842-e0eb-4ee0-921a-85dced9e7036"},"vehicle_type_id":"4","last_reported":1716494923,"current_range_meters":1200,"station_id":"ce4bgop2rcd13ifvqc1g","pricing_plan_id":"cebpf4jnsgd1na2vs0mg"},{"bike_id":"ed492a4e-944e-43b3-bd26-4581a8e6f7a8","system_id":"levelo_inurba_marseille","lat":43.297794,"lon":5.370888,"is_reserved":false,"is_disabled":false,"rental_uris":{"android":"levelo://app?vid=ed492a4e-944e-43b3-bd26-4581a8e6f7a8","ios":"levelo://app?vid=ed492a4e-944e-43b3-bd26-4581a8e6f7a8"},"vehicle_type_id":"4","last_reported":1716494923,"current_range_meters":30000,"station_id":"ce4bgop2rcd13ifvqc1g","pricing_plan_id":"cebpf4jnsgd1na2vs0mg"},{"bike_id":"3407510b-b231-4014-b988-612bc454a32d","system_id":"levelo_inurba_marseille","lat":43.29785,"lon":5.371,"is_reserved":false,"is_disabled":false,"rental_uris":{"android":"levelo://app?vid=3407510b-b231-4014-b988-612bc454a32d","ios":"levelo://app?vid=3407510b-b231-4014-b988-612bc454a32d"},"vehicle_type_id":"4","last_reported":1716494923,"current_range_meters":6800,"station_id":"ce4bgop2rcd13ifvqc1g","pricing_plan_id":"cebpf4jnsgd1na2vs0mg"},{"bike_id":"5d5fce2b-6c1a-41ee-ac17-f947e8b0b3f0","system_id":"levelo_inurba_marseille","lat":43.297774,"lon":5.370875,"is_reserved":false,"is_disabled":false,"rental_uris":{"android":"levelo://app?vid=5d5fce2b-6c1a-41ee-ac17-f947e8b0b3f0","ios":"levelo://app?vid=5d5fce2b-6c1a-41ee-ac17-f947e8b0b3f0"},"vehicle_type_id":"4","last_reported":1716494923,"current_range_meters":2800,"station_id":"ce4bgop2rcd13ifvqc1g","pricing_plan_id":"cebpf4jnsgd1na2vs0mg"},{"bike_id":"50d75059-8f2d-4202-bd6b-6278338dae25","system_id":"levelo_inurba_marseille","lat":43.297794,"lon":5.370888,"is_reserved":false,"is_disabled":false,"rental_uris":{"android":"levelo://app?vid=50d75059-8f2d-4202-bd6b-6278338dae25","ios":"levelo://app?vid=50d75059-8f2d-4202-bd6b-6278338dae25"},"vehicle_type_id":"4","last_reported":1716494923,"current_range_meters":23600,"station_id":"ce4bgop2rcd13ifvqc1g","pricing_plan_id":"cebpf4jnsgd1na2vs0mg"},{"bike_id":"10e01bef-2346-46d1-bbd2-becbcd091977","system_id":"levelo_inurba_marseille","lat":43.322872,"lon":5.382756,"is_reserved":false,"is_disabled":false,"rental_uris":{"android":"levelo://app?vid=10e01bef-2346-46d1-bbd2-becbcd091977","ios":"levelo://app?vid=10e01bef-2346-46d1-bbd2-becbcd091977"},"vehicle_type_id":"4","last_reported":1716494923,"current_range_meters":2000,"station_id":"ce4bhr12rcd13ifvqhqg","pricing_plan_id":"cebpf4jnsgd1na2vs0mg"},{"bike_id":"46028fe0-bf0f-467e-96fd-01272ec47d37","system_id":"levelo_inurba_marseille","lat":43.297794,"lon":5.370888,"is_reserved":false,"is_disabled":false,"rental_uris":{"android":"levelo://app?vid=46028fe0-bf0f-467e-96fd-01272ec47d37","ios":"levelo://app?vid=46028fe0-bf0f-467e-96fd-01272ec47d37"},"vehicle_type_id":"4","last_reported":1716494923,"current_range_meters":16000,"station_id":"ce4bgop2rcd13ifvqc1g","pricing_plan_id":"cebpf4jnsgd1na2vs0mg"},{"bike_id":"a9c38c7c-2f1a-4bff-a9ae-be2146643247","system_id":"levelo_inurba_marseille","lat":43.322872,"lon":5.382756,"is_reserved":false,"is_disabled":false,"rental_uris":{"android":"levelo://app?vid=a9c38c7c-2f1a-4bff-a9ae-be2146643247","ios":"levelo://app?vid=a9c38c7c-2f1a-4bff-a9ae-be2146643247"},"vehicle_type_id":"4","last_reported":1716494923,"current_range_meters":27600,"station_id":"ce4bhr12rcd13ifvqhqg","pricing_plan_id":"cebpf4jnsgd1na2vs0mg"},{"bike_id":"df7fc417-1be5-4ac1-957b-99d5756afe2a","system_id":"levelo_inurba_marseille","lat":43.297774,"lon":5.370875,"is_reserved":false,"is_disabled":false,"rental_uris":{"android":"levelo://app?vid=df7fc417-1be5-4ac1-957b-99d5756afe2a","ios":"levelo://app?vid=df7fc417-1be5-4ac1-957b-99d5756afe2a"},"vehicle_type_id":"4","last_reported":1716494923,"current_range_meters":13200,"station_id":"ce4bgop2rcd13ifvqc1g","pricing_plan_id":"cebpf4jnsgd1na2vs0mg"},{"bike_id":"1ce4b9e2-37fe-4fcd-a1fe-10c58b18da50","system_id":"levelo_inurba_marseille","lat":43.322872,"lon":5.382756,"is_reserved":false,"is_disabled":false,"rental_uris":{"android":"levelo://app?vid=1ce4b9e2-37fe-4fcd-a1fe-10c58b18da50","ios":"levelo://app?vid=1ce4b9e2-37fe-4fcd-a1fe-10c58b18da50"},"vehicle_type_id":"4","last_reported":1716494923,"current_range_meters":32000,"station_id":"ce4bhr12rcd13ifvqhqg","pricing_plan_id":"cebpf4jnsgd1na2vs0mg"},{"bike_id":"164498cd-c8ab-4c6d-8717-bc903cf3ae6c","system_id":"levelo_inurba_marseille","lat":43.322872,"lon":5.382756,"is_reserved":false,"is_disabled":false,"rental_uris":{"android":"levelo://app?vid=164498cd-c8ab-4c6d-8717-bc903cf3ae6c","ios":"levelo://app?vid=164498cd-c8ab-4c6d-8717-bc903cf3ae6c"},"vehicle_type_id":"4","last_reported":1716494923,"current_range_meters":0,"station_id":"ce4bhr12rcd13ifvqhqg","pricing_plan_id":"cebpf4jnsgd1na2vs0mg"},{"bike_id":"79f33001-a651-4b0f-b82e-f19ee71b8d0f","system_id":"levelo_inurba_marseille","lat":43.322872,"lon":5.382756,"is_reserved":false,"is_disabled":false,"rental_uris":{"android":"levelo://app?vid=79f33001-a651-4b0f-b82e-f19ee71b8d0f","ios":"levelo://app?vid=79f33001-a651-4b0f-b82e-f19ee71b8d0f"},"vehicle_type_id":"4","last_reported":1716494923,"current_range_meters":29600,"station_id":"ce4bhr12rcd13ifvqhqg","pricing_plan_id":"cebpf4jnsgd1na2vs0mg"},{"bike_id":"b7e65937-d359-4e99-90dd-1a3c07193938","system_id":"levelo_inurba_marseille","lat":43.322872,"lon":5.382756,"is_reserved":false,"is_disabled":false,"rental_uris":{"android":"levelo://app?vid=b7e65937-d359-4e99-90dd-1a3c07193938","ios":"levelo://app?vid=b7e65937-d359-4e99-90dd-1a3c07193938"},"vehicle_type_id":"4","last_reported":1716494923,"current_range_meters":30400,"station_id":"ce4bhr12rcd13ifvqhqg","pricing_plan_id":"cebpf4jnsgd1na2vs0mg"},{"bike_id":"68d829c0-de91-42cb-b843-e1d760cc2bcc","system_id":"levelo_inurba_marseille","lat":43.297163,"lon":5.365866,"is_reserved":false,"is_disabled":false,"rental_uris":{"android":"levelo://app?vid=68d829c0-de91-42cb-b843-e1d760cc2bcc","ios":"levelo://app?vid=68d829c0-de91-42cb-b843-e1d760cc2bcc"},"vehicle_type_id":"4","last_reported":1716494923,"current_range_meters":26400,"station_id":"ce4bgn12rcd13ifvqbt0","pricing_plan_id":"cebpf4jnsgd1na2vs0mg"},{"bike_id":"507d2e06-93e0-4597-81ea-863ea2567569","system_id":"levelo_inurba_marseille","lat":43.297163,"lon":5.365866,"is_reserved":false,"is_disabled":false,"rental_uris":{"android":"levelo://app?vid=507d2e06-93e0-4597-81ea-863ea2567569","ios":"levelo://app?vid=507d2e06-93e0-4597-81ea-863ea2567569"},"vehicle_type_id":"4","last_reported":1716494923,"current_range_meters":26800,"station_id":"ce4bgn12rcd13ifvqbt0","pricing_plan_id":"cebpf4jnsgd1na2vs0mg"},{"bike_id":"98afff48-533c-4465-a4c6-414ff602ae82","system_id":"levelo_inurba_marseille","lat":43.297163,"lon":5.365866,"is_reserved":false,"is_disabled":false,"rental_uris":{"android":"levelo://app?vid=98afff48-533c-4465-a4c6-414ff602ae82","ios":"levelo://app?vid=98afff48-533c-4465-a4c6-414ff602ae82"},"vehicle_type_id":"4","last_reported":1716494923,"current_range_meters":12400,"station_id":"ce4bgn12rcd13ifvqbt0","pricing_plan_id":"cebpf4jnsgd1na2vs0mg"},{"bike_id":"fef19b85-e841-42d1-9cad-a8ea3c9523a5","system_id":"levelo_inurba_marseille","lat":43.29851,"lon":5.37698,"is_reserved":false,"is_disabled":false,"rental_uris":{"android":"levelo://app?vid=fef19b85-e841-42d1-9cad-a8ea3c9523a5","ios":"levelo://app?vid=fef19b85-e841-42d1-9cad-a8ea3c9523a5"},"vehicle_type_id":"4","last_reported":1716494923,"current_range_meters":14400,"station_id":"","pricing_plan_id":"cebpf4jnsgd1na2vs0mg"},{"bike_id":"b0181dbd-d16d-4347-9382-b450da867146","system_id":"levelo_inurba_marseille","lat":43.29657,"lon":5.36162,"is_reserved":false,"is_disabled":false,"rental_uris":{"android":"levelo://app?vid=b0181dbd-d16d-4347-9382-b450da867146","ios":"levelo://app?vid=b0181dbd-d16d-4347-9382-b450da867146"},"vehicle_type_id":"4","last_reported":1716494923,"current_range_meters":15200,"station_id":"","pricing_plan_id":"cebpf4jnsgd1na2vs0mg"},{"bike_id":"6312ef3c-25e9-4db0-8de8-5613cc41ae87","system_id":"levelo_inurba_marseille","lat":43.29573,"lon":5.367355,"is_reserved":false,"is_disabled":false,"rental_uris":{"android":"levelo://app?vid=6312ef3c-25e9-4db0-8de8-5613cc41ae87","ios":"levelo://app?vid=6312ef3c-25e9-4db0-8de8-5613cc41ae87"},"vehicle_type_id":"4","last_reported":1716494923,"current_range_meters":4800,"station_id":"ce4bgph2rcd13ifvqc2g","pricing_plan_id":"cebpf4jnsgd1na2vs0mg"},{"bike_id":"bf4332b1-62ce-40d6-850b-c1581a8543ad","system_id":"levelo_inurba_marseille","lat":43.29573,"lon":5.367355,"is_reserved":false,"is_disabled":false,"rental_uris":{"android":"levelo://app?vid=bf4332b1-62ce-40d6-850b-c1581a8543ad","ios":"levelo://app?vid=bf4332b1-62ce-40d6-850b-c1581a8543ad"},"vehicle_type_id":"4","last_reported":1716494923,"current_range_meters":29600,"station_id":"ce4bgph2rcd13ifvqc2g","pricing_plan_id":"cebpf4jnsgd1na2vs0mg"},{"bike_id":"01bf03d6-cf71-4293-bc08-7396af3552b1","system_id":"levelo_inurba_marseille","lat":43.296131,"lon":5.370791,"is_reserved":false,"is_disabled":false,"rental_uris":{"android":"levelo://app?vid=01bf03d6-cf71-4293-bc08-7396af3552b1","ios":"levelo://app?vid=01bf03d6-cf71-4293-bc08-7396af3552b1"},"vehicle_type_id":"4","last_reported":1716494923,"current_range_meters":11200,"station_id":"ce4bgnh2rcd13ifvqc0g","pricing_plan_id":"cebpf4jnsgd1na2vs0mg"},{"bike_id":"bcace9d8-89c4-4041-940a-9732220a97a4","system_id":"levelo_inurba_marseille","lat":43.29573,"lon":5.367355,"is_reserved":false,"is_disabled":false,"rental_uris":{"android":"levelo://app?vid=bcace9d8-89c4-4041-940a-9732220a97a4","ios":"levelo://app?vid=bcace9d8-89c4-4041-940a-9732220a97a4"},"vehicle_type_id":"4","last_reported":1716494923,"current_range_meters":24800,"station_id":"ce4bgph2rcd13ifvqc2g","pricing_plan_id":"cebpf4jnsgd1na2vs0mg"},{"bike_id":"02acb770-65af-4fa0-90dd-aec72957e4bb","system_id":"levelo_inurba_marseille","lat":43.29573,"lon":5.367355,"is_reserved":false,"is_disabled":false,"rental_uris":{"android":"levelo://app?vid=02acb770-65af-4fa0-90dd-aec72957e4bb","ios":"levelo://app?vid=02acb770-65af-4fa0-90dd-aec72957e4bb"},"vehicle_type_id":"4","last_reported":1716494923,"current_range_meters":9200,"station_id":"ce4bgph2rcd13ifvqc2g","pricing_plan_id":"cebpf4jnsgd1na2vs0mg"},{"bike_id":"04ed3994-6f24-4ed3-a3be-67e90700e325","system_id":"levelo_inurba_marseille","lat":43.29573,"lon":5.367355,"is_reserved":false,"is_disabled":false,"rental_uris":{"android":"levelo://app?vid=04ed3994-6f24-4ed3-a3be-67e90700e325","ios":"levelo://app?vid=04ed3994-6f24-4ed3-a3be-67e90700e325"},"vehicle_type_id":"4","last_reported":1716494923,"current_range_meters":21600,"station_id":"ce4bgph2rcd13ifvqc2g","pricing_plan_id":"cebpf4jnsgd1na2vs0mg"},{"bike_id":"9ec4d664-8cb5-4381-9122-02fd117b9de3","system_id":"levelo_inurba_marseille","lat":43.29601,"lon":5.381084,"is_reserved":false,"is_disabled":false,"rental_uris":{"android":"levelo://app?vid=9ec4d664-8cb5-4381-9122-02fd117b9de3","ios":"levelo://app?vid=9ec4d664-8cb5-4381-9122-02fd117b9de3"},"vehicle_type_id":"4","last_reported":1716494923,"current_range_meters":14800,"station_id":"ce4bgl12rcd13ifvqbo0","pricing_plan_id":"cebpf4jnsgd1na2vs0mg"},{"bike_id":"d2137021-e2d8-4661-a147-17cede521088","system_id":"levelo_inurba_marseille","lat":43.309498,"lon":5.390222,"is_reserved":false,"is_disabled":false,"rental_uris":{"android":"levelo://app?vid=d2137021-e2d8-4661-a147-17cede521088","ios":"levelo://app?vid=d2137021-e2d8-4661-a147-17cede521088"},"vehicle_type_id":"4","last_reported":1716494923,"current_range_meters":0,"station_id":"ce4bgup2rcd13ifvqco0","pricing_plan_id":"cebpf4jnsgd1na2vs0mg"},{"bike_id":"1bc333d2-5dc6-4082-b605-7f73fc1c6353","system_id":"levelo_inurba_marseille","lat":43.309542,"lon":5.390308,"is_reserved":false,"is_disabled":false,"rental_uris":{"android":"levelo://app?vid=1bc333d2-5dc6-4082-b605-7f73fc1c6353","ios":"levelo://app?vid=1bc333d2-5dc6-4082-b605-7f73fc1c6353"},"vehicle_type_id":"4","last_reported":1716494923,"current_range_meters":0,"station_id":"ce4bgup2rcd13ifvqco0","pricing_plan_id":"cebpf4jnsgd1na2vs0mg"},{"bike_id":"08a22b5f-c466-43a3-9c2e-906daef7e2c3","system_id":"levelo_inurba_marseille","lat":43.309569,"lon":5.39032,"is_reserved":false,"is_disabled":false,"rental_uris":{"android":"levelo://app?vid=08a22b5f-c466-43a3-9c2e-906daef7e2c3","ios":"levelo://app?vid=08a22b5f-c466-43a3-9c2e-906daef7e2c3"},"vehicle_type_id":"4","last_reported":1716494923,"current_range_meters":0,"station_id":"ce4bgup2rcd13ifvqco0","pricing_plan_id":"cebpf4jnsgd1na2vs0mg"},{"bike_id":"2657d56b-0111-472f-9915-029b21a12ee6","system_id":"levelo_inurba_marseille","lat":43.309453,"lon":5.390309,"is_reserved":false,"is_disabled":false,"rental_uris":{"android":"levelo://app?vid=2657d56b-0111-472f-9915-029b21a12ee6","ios":"levelo://app?vid=2657d56b-0111-472f-9915-029b21a12ee6"},"vehicle_type_id":"4","last_reported":1716494923,"current_range_meters":0,"station_id":"ce4bgup2rcd13ifvqco0","pricing_plan_id":"cebpf4jnsgd1na2vs0mg"},{"bike_id":"ea50b525-c387-4c86-99b3-a3deb426eabd","system_id":"levelo_inurba_marseille","lat":43.309486,"lon":5.390382,"is_reserved":false,"is_disabled":false,"rental_uris":{"android":"levelo://app?vid=ea50b525-c387-4c86-99b3-a3deb426eabd","ios":"levelo://app?vid=ea50b525-c387-4c86-99b3-a3deb426eabd"},"vehicle_type_id":"4","last_reported":1716494923,"current_range_meters":0,"station_id":"ce4bgup2rcd13ifvqco0","pricing_plan_id":"cebpf4jnsgd1na2vs0mg"},{"bike_id":"9759fb37-d40e-43ee-9fd8-7dd88949a25a","system_id":"levelo_inurba_marseille","lat":43.309589,"lon":5.390258,"is_reserved":false,"is_disabled":false,"rental_uris":{"android":"levelo://app?vid=9759fb37-d40e-43ee-9fd8-7dd88949a25a","ios":"levelo://app?vid=9759fb37-d40e-43ee-9fd8-7dd88949a25a"},"vehicle_type_id":"4","last_reported":1716494923,"current_range_meters":0,"station_id":"ce4bgup2rcd13ifvqco0","pricing_plan_id":"cebpf4jnsgd1na2vs0mg"},{"bike_id":"894864f6-41dd-4d2c-8082-f0a11e24c292","system_id":"levelo_inurba_marseille","lat":43.299717,"lon":5.384845,"is_reserved":false,"is_disabled":false,"rental_uris":{"android":"levelo://app?vid=894864f6-41dd-4d2c-8082-f0a11e24c292","ios":"levelo://app?vid=894864f6-41dd-4d2c-8082-f0a11e24c292"},"vehicle_type_id":"4","last_reported":1716494923,"current_range_meters":22000,"station_id":"ce4bgj92rcd13ifvqbd0","pricing_plan_id":"cebpf4jnsgd1na2vs0mg"},{"bike_id":"b3d3f29d-ceb5-4bba-949b-15941585f78e","system_id":"levelo_inurba_marseille","lat":43.31757,"lon":5.39014,"is_reserved":false,"is_disabled":false,"rental_uris":{"android":"levelo://app?vid=b3d3f29d-ceb5-4bba-949b-15941585f78e","ios":"levelo://app?vid=b3d3f29d-ceb5-4bba-949b-15941585f78e"},"vehicle_type_id":"4","last_reported":1716494923,"current_range_meters":14000,"station_id":"ce4bhqp2rcd13ifvqhng","pricing_plan_id":"cebpf4jnsgd1na2vs0mg"},{"bike_id":"1d7853fb-5259-474a-ba9c-4aaccea6f037","system_id":"levelo_inurba_marseille","lat":43.31756,"lon":5.39015,"is_reserved":false,"is_disabled":false,"rental_uris":{"android":"levelo://app?vid=1d7853fb-5259-474a-ba9c-4aaccea6f037","ios":"levelo://app?vid=1d7853fb-5259-474a-ba9c-4aaccea6f037"},"vehicle_type_id":"4","last_reported":1716494923,"current_range_meters":800,"station_id":"ce4bhqp2rcd13ifvqhng","pricing_plan_id":"cebpf4jnsgd1na2vs0mg"},{"bike_id":"9345937b-f1d4-44c6-8ff5-3c90b7d58bd1","system_id":"levelo_inurba_marseille","lat":43.31755,"lon":5.39016,"is_reserved":false,"is_disabled":false,"rental_uris":{"android":"levelo://app?vid=9345937b-f1d4-44c6-8ff5-3c90b7d58bd1","ios":"levelo://app?vid=9345937b-f1d4-44c6-8ff5-3c90b7d58bd1"},"vehicle_type_id":"4","last_reported":1716494923,"current_range_meters":2400,"station_id":"ce4bhqp2rcd13ifvqhng","pricing_plan_id":"cebpf4jnsgd1na2vs0mg"},{"bike_id":"e7b4747b-b7e5-4e4b-aa74-4ecc3072fd3e","system_id":"levelo_inurba_marseille","lat":43.31758,"lon":5.39017,"is_reserved":false,"is_disabled":false,"rental_uris":{"android":"levelo://app?vid=e7b4747b-b7e5-4e4b-aa74-4ecc3072fd3e","ios":"levelo://app?vid=e7b4747b-b7e5-4e4b-aa74-4ecc3072fd3e"},"vehicle_type_id":"4","last_reported":1716494923,"current_range_meters":5600,"station_id":"ce4bhqp2rcd13ifvqhng","pricing_plan_id":"cebpf4jnsgd1na2vs0mg"},{"bike_id":"479d27be-e495-481d-a778-d9421fba5d20","system_id":"levelo_inurba_marseille","lat":43.31758,"lon":5.39018,"is_reserved":false,"is_disabled":false,"rental_uris":{"android":"levelo://app?vid=479d27be-e495-481d-a778-d9421fba5d20","ios":"levelo://app?vid=479d27be-e495-481d-a778-d9421fba5d20"},"vehicle_type_id":"4","last_reported":1716494923,"current_range_meters":22400,"station_id":"ce4bhqp2rcd13ifvqhng","pricing_plan_id":"cebpf4jnsgd1na2vs0mg"},{"bike_id":"0621d829-061f-4233-9a28-e552b984af66","system_id":"levelo_inurba_marseille","lat":43.317526,"lon":5.39021,"is_reserved":false,"is_disabled":false,"rental_uris":{"android":"levelo://app?vid=0621d829-061f-4233-9a28-e552b984af66","ios":"levelo://app?vid=0621d829-061f-4233-9a28-e552b984af66"},"vehicle_type_id":"4","last_reported":1716494923,"current_range_meters":23600,"station_id":"ce4bhqp2rcd13ifvqhng","pricing_plan_id":"cebpf4jnsgd1na2vs0mg"},{"bike_id":"e7df118b-7786-450a-a148-d1db7b6d1e1a","system_id":"levelo_inurba_marseille","lat":43.31764,"lon":5.3902,"is_reserved":false,"is_disabled":false,"rental_uris":{"android":"levelo://app?vid=e7df118b-7786-450a-a148-d1db7b6d1e1a","ios":"levelo://app?vid=e7df118b-7786-450a-a148-d1db7b6d1e1a"},"vehicle_type_id":"4","last_reported":1716494923,"current_range_meters":13200,"station_id":"ce4bhqp2rcd13ifvqhng","pricing_plan_id":"cebpf4jnsgd1na2vs0mg"},{"bike_id":"2905dd0c-8934-4d48-89ec-aed621961c79","system_id":"levelo_inurba_marseille","lat":43.31762,"lon":5.39021,"is_reserved":false,"is_disabled":false,"rental_uris":{"android":"levelo://app?vid=2905dd0c-8934-4d48-89ec-aed621961c79","ios":"levelo://app?vid=2905dd0c-8934-4d48-89ec-aed621961c79"},"vehicle_type_id":"4","last_reported":1716494923,"current_range_meters":5600,"station_id":"ce4bhqp2rcd13ifvqhng","pricing_plan_id":"cebpf4jnsgd1na2vs0mg"},{"bike_id":"20d779e0-fb88-450a-b817-6278cf67d948","system_id":"levelo_inurba_marseille","lat":43.31755,"lon":5.39027,"is_reserved":false,"is_disabled":false,"rental_uris":{"android":"levelo://app?vid=20d779e0-fb88-450a-b817-6278cf67d948","ios":"levelo://app?vid=20d779e0-fb88-450a-b817-6278cf67d948"},"vehicle_type_id":"4","last_reported":1716494923,"current_range_meters":22400,"station_id":"ce4bhqp2rcd13ifvqhng","pricing_plan_id":"cebpf4jnsgd1na2vs0mg"},{"bike_id":"fc8dc158-bc98-42a5-ba75-d58bac695c63","system_id":"levelo_inurba_marseille","lat":43.3175,"lon":5.39029,"is_reserved":false,"is_disabled":false,"rental_uris":{"android":"levelo://app?vid=fc8dc158-bc98-42a5-ba75-d58bac695c63","ios":"levelo://app?vid=fc8dc158-bc98-42a5-ba75-d58bac695c63"},"vehicle_type_id":"4","last_reported":1716494923,"current_range_meters":0,"station_id":"ce4bhqp2rcd13ifvqhng","pricing_plan_id":"cebpf4jnsgd1na2vs0mg"},{"bike_id":"eec84bbf-9c56-4e21-b8c9-ba02fa24e8ba","system_id":"levelo_inurba_marseille","lat":43.295748,"lon":5.37522,"is_reserved":false,"is_disabled":false,"rental_uris":{"android":"levelo://app?vid=eec84bbf-9c56-4e21-b8c9-ba02fa24e8ba","ios":"levelo://app?vid=eec84bbf-9c56-4e21-b8c9-ba02fa24e8ba"},"vehicle_type_id":"4","last_reported":1716494923,"current_range_meters":22000,"station_id":"ce4bgh92rcd13ifvqb50","pricing_plan_id":"cebpf4jnsgd1na2vs0mg"},{"bike_id":"4a39ab9e-b8c4-463f-9031-e46428645470","system_id":"levelo_inurba_marseille","lat":43.304274,"lon":5.388873,"is_reserved":false,"is_disabled":false,"rental_uris":{"android":"levelo://app?vid=4a39ab9e-b8c4-463f-9031-e46428645470","ios":"levelo://app?vid=4a39ab9e-b8c4-463f-9031-e46428645470"},"vehicle_type_id":"4","last_reported":1716494923,"current_range_meters":5600,"station_id":"ce4bgk12rcd13ifvqbi0","pricing_plan_id":"cebpf4jnsgd1na2vs0mg"},{"bike_id":"df445f82-0861-4a81-bf48-c5d52a3762d4","system_id":"levelo_inurba_marseille","lat":43.30427,"lon":5.389,"is_reserved":false,"is_disabled":false,"rental_uris":{"android":"levelo://app?vid=df445f82-0861-4a81-bf48-c5d52a3762d4","ios":"levelo://app?vid=df445f82-0861-4a81-bf48-c5d52a3762d4"},"vehicle_type_id":"4","last_reported":1716494923,"current_range_meters":0,"station_id":"ce4bgk12rcd13ifvqbi0","pricing_plan_id":"cebpf4jnsgd1na2vs0mg"},{"bike_id":"3c741646-2e4c-4978-bd2d-35c763c86ae9","system_id":"levelo_inurba_marseille","lat":43.289184,"lon":5.366408,"is_reserved":false,"is_disabled":false,"rental_uris":{"android":"levelo://app?vid=3c741646-2e4c-4978-bd2d-35c763c86ae9","ios":"levelo://app?vid=3c741646-2e4c-4978-bd2d-35c763c86ae9"},"vehicle_type_id":"4","last_reported":1716494923,"current_range_meters":2400,"station_id":"ce4bhap2rcd13ifvqek0","pricing_plan_id":"cebpf4jnsgd1na2vs0mg"},{"bike_id":"540f5035-1fdb-4282-891d-4f1f8b4e5fe1","system_id":"levelo_inurba_marseille","lat":43.299707,"lon":5.384859,"is_reserved":false,"is_disabled":false,"rental_uris":{"android":"levelo://app?vid=540f5035-1fdb-4282-891d-4f1f8b4e5fe1","ios":"levelo://app?vid=540f5035-1fdb-4282-891d-4f1f8b4e5fe1"},"vehicle_type_id":"4","last_reported":1716494923,"current_range_meters":31200,"station_id":"ce4bgj92rcd13ifvqbd0","pricing_plan_id":"cebpf4jnsgd1na2vs0mg"},{"bike_id":"b2e8e81d-c4ff-4aa5-b316-af2b6fe9bfe2","system_id":"levelo_inurba_marseille","lat":43.299717,"lon":5.384845,"is_reserved":false,"is_disabled":false,"rental_uris":{"android":"levelo://app?vid=b2e8e81d-c4ff-4aa5-b316-af2b6fe9bfe2","ios":"levelo://app?vid=b2e8e81d-c4ff-4aa5-b316-af2b6fe9bfe2"},"vehicle_type_id":"4","last_reported":1716494923,"current_range_meters":1600,"station_id":"ce4bgj92rcd13ifvqbd0","pricing_plan_id":"cebpf4jnsgd1na2vs0mg"},{"bike_id":"d014cf3e-048b-41f0-8f75-4b7171a47831","system_id":"levelo_inurba_marseille","lat":43.299724,"lon":5.384848,"is_reserved":false,"is_disabled":false,"rental_uris":{"android":"levelo://app?vid=d014cf3e-048b-41f0-8f75-4b7171a47831","ios":"levelo://app?vid=d014cf3e-048b-41f0-8f75-4b7171a47831"},"vehicle_type_id":"4","last_reported":1716494923,"current_range_meters":32000,"station_id":"ce4bgj92rcd13ifvqbd0","pricing_plan_id":"cebpf4jnsgd1na2vs0mg"},{"bike_id":"78252e3e-8eff-4ccb-a142-6526e4cc39f4","system_id":"levelo_inurba_marseille","lat":43.30089,"lon":5.38729,"is_reserved":false,"is_disabled":false,"rental_uris":{"android":"levelo://app?vid=78252e3e-8eff-4ccb-a142-6526e4cc39f4","ios":"levelo://app?vid=78252e3e-8eff-4ccb-a142-6526e4cc39f4"},"vehicle_type_id":"4","last_reported":1716494923,"current_range_meters":7200,"station_id":"","pricing_plan_id":"cebpf4jnsgd1na2vs0mg"},{"bike_id":"2a524036-f33c-41d8-98ba-387dcb2555fa","system_id":"levelo_inurba_marseille","lat":43.299724,"lon":5.384848,"is_reserved":false,"is_disabled":false,"rental_uris":{"android":"levelo://app?vid=2a524036-f33c-41d8-98ba-387dcb2555fa","ios":"levelo://app?vid=2a524036-f33c-41d8-98ba-387dcb2555fa"},"vehicle_type_id":"4","last_reported":1716494923,"current_range_meters":1200,"station_id":"ce4bgj92rcd13ifvqbd0","pricing_plan_id":"cebpf4jnsgd1na2vs0mg"},{"bike_id":"c692fd75-9972-42e1-92a8-4ac7cce47a41","system_id":"levelo_inurba_marseille","lat":43.299243,"lon":5.37481,"is_reserved":false,"is_disabled":false,"rental_uris":{"android":"levelo://app?vid=c692fd75-9972-42e1-92a8-4ac7cce47a41","ios":"levelo://app?vid=c692fd75-9972-42e1-92a8-4ac7cce47a41"},"vehicle_type_id":"4","last_reported":1716494923,"current_range_meters":18800,"station_id":"ce4bgjh2rcd13ifvqbg0","pricing_plan_id":"cebpf4jnsgd1na2vs0mg"},{"bike_id":"9dcf1bea-1a00-47ba-aa07-b457ade4d661","system_id":"levelo_inurba_marseille","lat":43.301221,"lon":5.387942,"is_reserved":false,"is_disabled":false,"rental_uris":{"android":"levelo://app?vid=9dcf1bea-1a00-47ba-aa07-b457ade4d661","ios":"levelo://app?vid=9dcf1bea-1a00-47ba-aa07-b457ade4d661"},"vehicle_type_id":"4","last_reported":1716494923,"current_range_meters":1600,"station_id":"","pricing_plan_id":"cebpf4jnsgd1na2vs0mg"},{"bike_id":"87f57938-7562-4f93-b616-4cc48be61463","system_id":"levelo_inurba_marseille","lat":43.32367,"lon":5.388836,"is_reserved":false,"is_disabled":false,"rental_uris":{"android":"levelo://app?vid=87f57938-7562-4f93-b616-4cc48be61463","ios":"levelo://app?vid=87f57938-7562-4f93-b616-4cc48be61463"},"vehicle_type_id":"4","last_reported":1716494923,"current_range_meters":15200,"station_id":"ce4bhqp2rcd13ifvqhog","pricing_plan_id":"cebpf4jnsgd1na2vs0mg"},{"bike_id":"25321725-ba8e-4666-b6ea-c28f67db71b5","system_id":"levelo_inurba_marseille","lat":43.32367,"lon":5.388836,"is_reserved":false,"is_disabled":false,"rental_uris":{"android":"levelo://app?vid=25321725-ba8e-4666-b6ea-c28f67db71b5","ios":"levelo://app?vid=25321725-ba8e-4666-b6ea-c28f67db71b5"},"vehicle_type_id":"4","last_reported":1716494923,"current_range_meters":3200,"station_id":"ce4bhqp2rcd13ifvqhog","pricing_plan_id":"cebpf4jnsgd1na2vs0mg"},{"bike_id":"d987e0b4-58cf-40f9-b65b-0136a10defbb","system_id":"levelo_inurba_marseille","lat":43.295872,"lon":5.380539,"is_reserved":false,"is_disabled":false,"rental_uris":{"android":"levelo://app?vid=d987e0b4-58cf-40f9-b65b-0136a10defbb","ios":"levelo://app?vid=d987e0b4-58cf-40f9-b65b-0136a10defbb"},"vehicle_type_id":"4","last_reported":1716494923,"current_range_meters":3200,"station_id":"ce4bgl12rcd13ifvqbo0","pricing_plan_id":"cebpf4jnsgd1na2vs0mg"},{"bike_id":"63d98cb5-1f1f-4589-9b2c-d38cbc720dae","system_id":"levelo_inurba_marseille","lat":43.29601,"lon":5.381084,"is_reserved":false,"is_disabled":false,"rental_uris":{"android":"levelo://app?vid=63d98cb5-1f1f-4589-9b2c-d38cbc720dae","ios":"levelo://app?vid=63d98cb5-1f1f-4589-9b2c-d38cbc720dae"},"vehicle_type_id":"4","last_reported":1716494923,"current_range_meters":24400,"station_id":"ce4bgl12rcd13ifvqbo0","pricing_plan_id":"cebpf4jnsgd1na2vs0mg"},{"bike_id":"857b5f2b-4826-43f2-b558-af2004d7dac1","system_id":"levelo_inurba_marseille","lat":43.29601,"lon":5.381084,"is_reserved":false,"is_disabled":false,"rental_uris":{"android":"levelo://app?vid=857b5f2b-4826-43f2-b558-af2004d7dac1","ios":"levelo://app?vid=857b5f2b-4826-43f2-b558-af2004d7dac1"},"vehicle_type_id":"4","last_reported":1716494923,"current_range_meters":0,"station_id":"ce4bgl12rcd13ifvqbo0","pricing_plan_id":"cebpf4jnsgd1na2vs0mg"},{"bike_id":"17fc242d-b973-4c3d-85b9-64cbb9e53da2","system_id":"levelo_inurba_marseille","lat":43.29278,"lon":5.368429,"is_reserved":false,"is_disabled":false,"rental_uris":{"android":"levelo://app?vid=17fc242d-b973-4c3d-85b9-64cbb9e53da2","ios":"levelo://app?vid=17fc242d-b973-4c3d-85b9-64cbb9e53da2"},"vehicle_type_id":"4","last_reported":1716494923,"current_range_meters":0,"station_id":"ce4bhbp2rcd13ifvqesg","pricing_plan_id":"cebpf4jnsgd1na2vs0mg"},{"bike_id":"654e9ffd-248d-4419-9184-3355cea9d49e","system_id":"levelo_inurba_marseille","lat":43.29277,"lon":5.36842,"is_reserved":false,"is_disabled":false,"rental_uris":{"android":"levelo://app?vid=654e9ffd-248d-4419-9184-3355cea9d49e","ios":"levelo://app?vid=654e9ffd-248d-4419-9184-3355cea9d49e"},"vehicle_type_id":"4","last_reported":1716494923,"current_range_meters":800,"station_id":"ce4bhbp2rcd13ifvqesg","pricing_plan_id":"cebpf4jnsgd1na2vs0mg"},{"bike_id":"79a2b202-bfa6-40aa-afb4-f3942429a128","system_id":"levelo_inurba_marseille","lat":43.29301,"lon":5.37169,"is_reserved":false,"is_disabled":false,"rental_uris":{"android":"levelo://app?vid=79a2b202-bfa6-40aa-afb4-f3942429a128","ios":"levelo://app?vid=79a2b202-bfa6-40aa-afb4-f3942429a128"},"vehicle_type_id":"4","last_reported":1716494923,"current_range_meters":400,"station_id":"ce4bgh92rcd13ifvqb40","pricing_plan_id":"cebpf4jnsgd1na2vs0mg"},{"bike_id":"b7e0f762-7e55-4089-890b-6502d652cead","system_id":"levelo_inurba_marseille","lat":43.305994,"lon":5.393687,"is_reserved":false,"is_disabled":false,"rental_uris":{"android":"levelo://app?vid=b7e0f762-7e55-4089-890b-6502d652cead","ios":"levelo://app?vid=b7e0f762-7e55-4089-890b-6502d652cead"},"vehicle_type_id":"4","last_reported":1716494923,"current_range_meters":4400,"station_id":"ce4bh0p2rcd13ifvqd80","pricing_plan_id":"cebpf4jnsgd1na2vs0mg"},{"bike_id":"97f34253-7df1-4caa-9eaa-d159a7ed9663","system_id":"levelo_inurba_marseille","lat":43.305994,"lon":5.393687,"is_reserved":false,"is_disabled":false,"rental_uris":{"android":"levelo://app?vid=97f34253-7df1-4caa-9eaa-d159a7ed9663","ios":"levelo://app?vid=97f34253-7df1-4caa-9eaa-d159a7ed9663"},"vehicle_type_id":"4","last_reported":1716494923,"current_range_meters":2000,"station_id":"ce4bh0p2rcd13ifvqd80","pricing_plan_id":"cebpf4jnsgd1na2vs0mg"},{"bike_id":"dda6971b-429c-4a74-a820-b7eb5f0fbc56","system_id":"levelo_inurba_marseille","lat":43.305994,"lon":5.393687,"is_reserved":false,"is_disabled":false,"rental_uris":{"android":"levelo://app?vid=dda6971b-429c-4a74-a820-b7eb5f0fbc56","ios":"levelo://app?vid=dda6971b-429c-4a74-a820-b7eb5f0fbc56"},"vehicle_type_id":"4","last_reported":1716494923,"current_range_meters":13600,"station_id":"ce4bh0p2rcd13ifvqd80","pricing_plan_id":"cebpf4jnsgd1na2vs0mg"},{"bike_id":"48aefa4c-223c-4925-b4a1-1f63de486b3d","system_id":"levelo_inurba_marseille","lat":43.305994,"lon":5.393687,"is_reserved":false,"is_disabled":false,"rental_uris":{"android":"levelo://app?vid=48aefa4c-223c-4925-b4a1-1f63de486b3d","ios":"levelo://app?vid=48aefa4c-223c-4925-b4a1-1f63de486b3d"},"vehicle_type_id":"4","last_reported":1716494923,"current_range_meters":6000,"station_id":"ce4bh0p2rcd13ifvqd80","pricing_plan_id":"cebpf4jnsgd1na2vs0mg"},{"bike_id":"0b67d393-8106-4d87-9df7-49721f547d7b","system_id":"levelo_inurba_marseille","lat":43.29305,"lon":5.37451,"is_reserved":false,"is_disabled":false,"rental_uris":{"android":"levelo://app?vid=0b67d393-8106-4d87-9df7-49721f547d7b","ios":"levelo://app?vid=0b67d393-8106-4d87-9df7-49721f547d7b"},"vehicle_type_id":"4","last_reported":1716494923,"current_range_meters":0,"station_id":"ce4bgi12rcd13ifvqb70","pricing_plan_id":"cebpf4jnsgd1na2vs0mg"},{"bike_id":"b63520de-acab-4983-a89e-0e70f1f2cae6","system_id":"levelo_inurba_marseille","lat":43.293023,"lon":5.374593,"is_reserved":false,"is_disabled":false,"rental_uris":{"android":"levelo://app?vid=b63520de-acab-4983-a89e-0e70f1f2cae6","ios":"levelo://app?vid=b63520de-acab-4983-a89e-0e70f1f2cae6"},"vehicle_type_id":"4","last_reported":1716494923,"current_range_meters":0,"station_id":"ce4bgi12rcd13ifvqb70","pricing_plan_id":"cebpf4jnsgd1na2vs0mg"},{"bike_id":"8431d069-bb58-47d6-ad65-cc207088e64c","system_id":"levelo_inurba_marseille","lat":43.293009,"lon":5.374584,"is_reserved":false,"is_disabled":false,"rental_uris":{"android":"levelo://app?vid=8431d069-bb58-47d6-ad65-cc207088e64c","ios":"levelo://app?vid=8431d069-bb58-47d6-ad65-cc207088e64c"},"vehicle_type_id":"4","last_reported":1716494923,"current_range_meters":5200,"station_id":"ce4bgi12rcd13ifvqb70","pricing_plan_id":"cebpf4jnsgd1na2vs0mg"},{"bike_id":"3a0fb2f9-ed96-45c8-bd52-d49322cad626","system_id":"levelo_inurba_marseille","lat":43.293009,"lon":5.374584,"is_reserved":false,"is_disabled":false,"rental_uris":{"android":"levelo://app?vid=3a0fb2f9-ed96-45c8-bd52-d49322cad626","ios":"levelo://app?vid=3a0fb2f9-ed96-45c8-bd52-d49322cad626"},"vehicle_type_id":"4","last_reported":1716494923,"current_range_meters":0,"station_id":"ce4bgi12rcd13ifvqb70","pricing_plan_id":"cebpf4jnsgd1na2vs0mg"},{"bike_id":"261960ed-6b28-468f-b56a-0140cf806b7f","system_id":"levelo_inurba_marseille","lat":43.305994,"lon":5.393687,"is_reserved":false,"is_disabled":false,"rental_uris":{"android":"levelo://app?vid=261960ed-6b28-468f-b56a-0140cf806b7f","ios":"levelo://app?vid=261960ed-6b28-468f-b56a-0140cf806b7f"},"vehicle_type_id":"4","last_reported":1716494923,"current_range_meters":18400,"station_id":"ce4bh0p2rcd13ifvqd80","pricing_plan_id":"cebpf4jnsgd1na2vs0mg"},{"bike_id":"ed167f49-20e2-475b-aa9e-b0e926d2e0c8","system_id":"levelo_inurba_marseille","lat":43.305994,"lon":5.393687,"is_reserved":false,"is_disabled":false,"rental_uris":{"android":"levelo://app?vid=ed167f49-20e2-475b-aa9e-b0e926d2e0c8","ios":"levelo://app?vid=ed167f49-20e2-475b-aa9e-b0e926d2e0c8"},"vehicle_type_id":"4","last_reported":1716494923,"current_range_meters":0,"station_id":"ce4bh0p2rcd13ifvqd80","pricing_plan_id":"cebpf4jnsgd1na2vs0mg"},{"bike_id":"e9ae8c8a-339e-44e1-9dd6-89af02201e8e","system_id":"levelo_inurba_marseille","lat":43.293009,"lon":5.374584,"is_reserved":false,"is_disabled":false,"rental_uris":{"android":"levelo://app?vid=e9ae8c8a-339e-44e1-9dd6-89af02201e8e","ios":"levelo://app?vid=e9ae8c8a-339e-44e1-9dd6-89af02201e8e"},"vehicle_type_id":"4","last_reported":1716494923,"current_range_meters":26800,"station_id":"ce4bgi12rcd13ifvqb70","pricing_plan_id":"cebpf4jnsgd1na2vs0mg"},{"bike_id":"db35f1d6-c43b-42f8-9611-edbe6a48ff59","system_id":"levelo_inurba_marseille","lat":43.301117,"lon":5.398795,"is_reserved":false,"is_disabled":false,"rental_uris":{"android":"levelo://app?vid=db35f1d6-c43b-42f8-9611-edbe6a48ff59","ios":"levelo://app?vid=db35f1d6-c43b-42f8-9611-edbe6a48ff59"},"vehicle_type_id":"4","last_reported":1716494923,"current_range_meters":9200,"station_id":"ce4bh0h2rcd13ifvqd40","pricing_plan_id":"cebpf4jnsgd1na2vs0mg"},{"bike_id":"9491dc8b-0a82-4cf0-8bdb-1b3554c70d49","system_id":"levelo_inurba_marseille","lat":43.292311,"lon":5.360731,"is_reserved":false,"is_disabled":false,"rental_uris":{"android":"levelo://app?vid=9491dc8b-0a82-4cf0-8bdb-1b3554c70d49","ios":"levelo://app?vid=9491dc8b-0a82-4cf0-8bdb-1b3554c70d49"},"vehicle_type_id":"4","last_reported":1716494923,"current_range_meters":16800,"station_id":"ce4bhbh2rcd13ifvqeqg","pricing_plan_id":"cebpf4jnsgd1na2vs0mg"},{"bike_id":"fbd3e031-f1eb-4f26-b189-29694e17b8ba","system_id":"levelo_inurba_marseille","lat":43.30085,"lon":5.390856,"is_reserved":false,"is_disabled":false,"rental_uris":{"android":"levelo://app?vid=fbd3e031-f1eb-4f26-b189-29694e17b8ba","ios":"levelo://app?vid=fbd3e031-f1eb-4f26-b189-29694e17b8ba"},"vehicle_type_id":"4","last_reported":1716494923,"current_range_meters":21200,"station_id":"ce4bh192rcd13ifvqdb0","pricing_plan_id":"cebpf4jnsgd1na2vs0mg"},{"bike_id":"4e304e3f-f6c3-47ce-a81a-f20924bd5a63","system_id":"levelo_inurba_marseille","lat":43.30085,"lon":5.390856,"is_reserved":false,"is_disabled":false,"rental_uris":{"android":"levelo://app?vid=4e304e3f-f6c3-47ce-a81a-f20924bd5a63","ios":"levelo://app?vid=4e304e3f-f6c3-47ce-a81a-f20924bd5a63"},"vehicle_type_id":"4","last_reported":1716494923,"current_range_meters":3200,"station_id":"ce4bh192rcd13ifvqdb0","pricing_plan_id":"cebpf4jnsgd1na2vs0mg"},{"bike_id":"af2cd35c-f2ec-4c66-8cf8-9350acd3fd7a","system_id":"levelo_inurba_marseille","lat":43.30085,"lon":5.390856,"is_reserved":false,"is_disabled":false,"rental_uris":{"android":"levelo://app?vid=af2cd35c-f2ec-4c66-8cf8-9350acd3fd7a","ios":"levelo://app?vid=af2cd35c-f2ec-4c66-8cf8-9350acd3fd7a"},"vehicle_type_id":"4","last_reported":1716494923,"current_range_meters":14400,"station_id":"ce4bh192rcd13ifvqdb0","pricing_plan_id":"cebpf4jnsgd1na2vs0mg"},{"bike_id":"ca5d58dc-5841-42af-b158-7b337aa7c179","system_id":"levelo_inurba_marseille","lat":43.29885,"lon":5.38888,"is_reserved":false,"is_disabled":false,"rental_uris":{"android":"levelo://app?vid=ca5d58dc-5841-42af-b158-7b337aa7c179","ios":"levelo://app?vid=ca5d58dc-5841-42af-b158-7b337aa7c179"},"vehicle_type_id":"4","last_reported":1716494923,"current_range_meters":20000,"station_id":"ce4bh392rcd13ifvqdl0","pricing_plan_id":"cebpf4jnsgd1na2vs0mg"},{"bike_id":"23f79f2d-e349-413b-ae78-c3b7f633e079","system_id":"levelo_inurba_marseille","lat":43.3008,"lon":5.39097,"is_reserved":false,"is_disabled":false,"rental_uris":{"android":"levelo://app?vid=23f79f2d-e349-413b-ae78-c3b7f633e079","ios":"levelo://app?vid=23f79f2d-e349-413b-ae78-c3b7f633e079"},"vehicle_type_id":"4","last_reported":1716494923,"current_range_meters":21600,"station_id":"ce4bh192rcd13ifvqdb0","pricing_plan_id":"cebpf4jnsgd1na2vs0mg"},{"bike_id":"ff4b2c9e-2045-4e3e-b085-b2112f3cf05c","system_id":"levelo_inurba_marseille","lat":43.29883,"lon":5.38891,"is_reserved":false,"is_disabled":false,"rental_uris":{"android":"levelo://app?vid=ff4b2c9e-2045-4e3e-b085-b2112f3cf05c","ios":"levelo://app?vid=ff4b2c9e-2045-4e3e-b085-b2112f3cf05c"},"vehicle_type_id":"4","last_reported":1716494923,"current_range_meters":0,"station_id":"ce4bh392rcd13ifvqdl0","pricing_plan_id":"cebpf4jnsgd1na2vs0mg"},{"bike_id":"b1546cf8-633f-454b-91a8-1064f0497ce3","system_id":"levelo_inurba_marseille","lat":43.313291,"lon":5.396838,"is_reserved":false,"is_disabled":false,"rental_uris":{"android":"levelo://app?vid=b1546cf8-633f-454b-91a8-1064f0497ce3","ios":"levelo://app?vid=b1546cf8-633f-454b-91a8-1064f0497ce3"},"vehicle_type_id":"4","last_reported":1716494923,"current_range_meters":6400,"station_id":"ce4bgvp2rcd13ifvqcu0","pricing_plan_id":"cebpf4jnsgd1na2vs0mg"},{"bike_id":"f4ecd82b-5e28-4281-be20-7068045367a9","system_id":"levelo_inurba_marseille","lat":43.293009,"lon":5.374584,"is_reserved":false,"is_disabled":false,"rental_uris":{"android":"levelo://app?vid=f4ecd82b-5e28-4281-be20-7068045367a9","ios":"levelo://app?vid=f4ecd82b-5e28-4281-be20-7068045367a9"},"vehicle_type_id":"4","last_reported":1716494923,"current_range_meters":29600,"station_id":"ce4bgi12rcd13ifvqb70","pricing_plan_id":"cebpf4jnsgd1na2vs0mg"},{"bike_id":"7f17c5d9-781a-4e69-8fa8-8f04d56423da","system_id":"levelo_inurba_marseille","lat":43.291671,"lon":5.371575,"is_reserved":false,"is_disabled":false,"rental_uris":{"android":"levelo://app?vid=7f17c5d9-781a-4e69-8fa8-8f04d56423da","ios":"levelo://app?vid=7f17c5d9-781a-4e69-8fa8-8f04d56423da"},"vehicle_type_id":"4","last_reported":1716494923,"current_range_meters":0,"station_id":"ce4bha92rcd13ifvqeh0","pricing_plan_id":"cebpf4jnsgd1na2vs0mg"},{"bike_id":"16bb64bf-ad10-4415-ba5a-717e2677120a","system_id":"levelo_inurba_marseille","lat":43.291671,"lon":5.371575,"is_reserved":false,"is_disabled":false,"rental_uris":{"android":"levelo://app?vid=16bb64bf-ad10-4415-ba5a-717e2677120a","ios":"levelo://app?vid=16bb64bf-ad10-4415-ba5a-717e2677120a"},"vehicle_type_id":"4","last_reported":1716494923,"current_range_meters":0,"station_id":"ce4bha92rcd13ifvqeh0","pricing_plan_id":"cebpf4jnsgd1na2vs0mg"},{"bike_id":"38f77423-9e96-4f15-905c-f6e4039abed8","system_id":"levelo_inurba_marseille","lat":43.313291,"lon":5.396838,"is_reserved":false,"is_disabled":false,"rental_uris":{"android":"levelo://app?vid=38f77423-9e96-4f15-905c-f6e4039abed8","ios":"levelo://app?vid=38f77423-9e96-4f15-905c-f6e4039abed8"},"vehicle_type_id":"4","last_reported":1716494923,"current_range_meters":25200,"station_id":"ce4bgvp2rcd13ifvqcu0","pricing_plan_id":"cebpf4jnsgd1na2vs0mg"},{"bike_id":"30496813-ca7a-4fe0-97be-715112af42c5","system_id":"levelo_inurba_marseille","lat":43.298764,"lon":5.388973,"is_reserved":false,"is_disabled":false,"rental_uris":{"android":"levelo://app?vid=30496813-ca7a-4fe0-97be-715112af42c5","ios":"levelo://app?vid=30496813-ca7a-4fe0-97be-715112af42c5"},"vehicle_type_id":"4","last_reported":1716494923,"current_range_meters":21600,"station_id":"ce4bh392rcd13ifvqdl0","pricing_plan_id":"cebpf4jnsgd1na2vs0mg"},{"bike_id":"2fba42c8-c8e1-4847-8670-b9905739722f","system_id":"levelo_inurba_marseille","lat":43.295822,"lon":5.385493,"is_reserved":false,"is_disabled":false,"rental_uris":{"android":"levelo://app?vid=2fba42c8-c8e1-4847-8670-b9905739722f","ios":"levelo://app?vid=2fba42c8-c8e1-4847-8670-b9905739722f"},"vehicle_type_id":"4","last_reported":1716494923,"current_range_meters":0,"station_id":"","pricing_plan_id":"cebpf4jnsgd1na2vs0mg"},{"bike_id":"a1faddc1-8ca7-45a8-8024-67b8b4ce10d5","system_id":"levelo_inurba_marseille","lat":43.29529,"lon":5.385581,"is_reserved":false,"is_disabled":false,"rental_uris":{"android":"levelo://app?vid=a1faddc1-8ca7-45a8-8024-67b8b4ce10d5","ios":"levelo://app?vid=a1faddc1-8ca7-45a8-8024-67b8b4ce10d5"},"vehicle_type_id":"4","last_reported":1716494923,"current_range_meters":18400,"station_id":"ce4bgih2rcd13ifvqba0","pricing_plan_id":"cebpf4jnsgd1na2vs0mg"},{"bike_id":"25edc082-b10b-4c98-a418-1f7ba4b18681","system_id":"levelo_inurba_marseille","lat":43.291944,"lon":5.358057,"is_reserved":false,"is_disabled":false,"rental_uris":{"android":"levelo://app?vid=25edc082-b10b-4c98-a418-1f7ba4b18681","ios":"levelo://app?vid=25edc082-b10b-4c98-a418-1f7ba4b18681"},"vehicle_type_id":"4","last_reported":1716494923,"current_range_meters":0,"station_id":"ce4bhb12rcd13ifvqel0","pricing_plan_id":"cebpf4jnsgd1na2vs0mg"},{"bike_id":"90a8f782-1ca9-4c0f-b3fb-93b968f7686f","system_id":"levelo_inurba_marseille","lat":43.309038,"lon":5.396546,"is_reserved":false,"is_disabled":false,"rental_uris":{"android":"levelo://app?vid=90a8f782-1ca9-4c0f-b3fb-93b968f7686f","ios":"levelo://app?vid=90a8f782-1ca9-4c0f-b3fb-93b968f7686f"},"vehicle_type_id":"4","last_reported":1716494923,"current_range_meters":0,"station_id":"ce4bh012rcd13ifvqcv0","pricing_plan_id":"cebpf4jnsgd1na2vs0mg"},{"bike_id":"5fcd530f-6994-4568-936f-1a423c6a694f","system_id":"levelo_inurba_marseille","lat":43.309038,"lon":5.396546,"is_reserved":false,"is_disabled":false,"rental_uris":{"android":"levelo://app?vid=5fcd530f-6994-4568-936f-1a423c6a694f","ios":"levelo://app?vid=5fcd530f-6994-4568-936f-1a423c6a694f"},"vehicle_type_id":"4","last_reported":1716494923,"current_range_meters":31600,"station_id":"ce4bh012rcd13ifvqcv0","pricing_plan_id":"cebpf4jnsgd1na2vs0mg"},{"bike_id":"4413279f-c6e6-49a4-8dd1-9be2d97dd637","system_id":"levelo_inurba_marseille","lat":43.294153,"lon":5.386305,"is_reserved":false,"is_disabled":false,"rental_uris":{"android":"levelo://app?vid=4413279f-c6e6-49a4-8dd1-9be2d97dd637","ios":"levelo://app?vid=4413279f-c6e6-49a4-8dd1-9be2d97dd637"},"vehicle_type_id":"4","last_reported":1716494923,"current_range_meters":4800,"station_id":"ce4bh2h2rcd13ifvqdh0","pricing_plan_id":"cebpf4jnsgd1na2vs0mg"},{"bike_id":"a6735cdd-a90d-4727-a8a8-5b5a05fc098c","system_id":"levelo_inurba_marseille","lat":43.309038,"lon":5.396546,"is_reserved":false,"is_disabled":false,"rental_uris":{"android":"levelo://app?vid=a6735cdd-a90d-4727-a8a8-5b5a05fc098c","ios":"levelo://app?vid=a6735cdd-a90d-4727-a8a8-5b5a05fc098c"},"vehicle_type_id":"4","last_reported":1716494923,"current_range_meters":19200,"station_id":"ce4bh012rcd13ifvqcv0","pricing_plan_id":"cebpf4jnsgd1na2vs0mg"},{"bike_id":"dd56a741-65ec-4927-a2bf-17a12d97e766","system_id":"levelo_inurba_marseille","lat":43.309038,"lon":5.396546,"is_reserved":false,"is_disabled":false,"rental_uris":{"android":"levelo://app?vid=dd56a741-65ec-4927-a2bf-17a12d97e766","ios":"levelo://app?vid=dd56a741-65ec-4927-a2bf-17a12d97e766"},"vehicle_type_id":"4","last_reported":1716494923,"current_range_meters":31200,"station_id":"ce4bh012rcd13ifvqcv0","pricing_plan_id":"cebpf4jnsgd1na2vs0mg"},{"bike_id":"0baea00b-80a9-4db5-b06f-96bac366e7ad","system_id":"levelo_inurba_marseille","lat":43.29529,"lon":5.385581,"is_reserved":false,"is_disabled":false,"rental_uris":{"android":"levelo://app?vid=0baea00b-80a9-4db5-b06f-96bac366e7ad","ios":"levelo://app?vid=0baea00b-80a9-4db5-b06f-96bac366e7ad"},"vehicle_type_id":"4","last_reported":1716494923,"current_range_meters":30000,"station_id":"ce4bgih2rcd13ifvqba0","pricing_plan_id":"cebpf4jnsgd1na2vs0mg"},{"bike_id":"b9670bb9-e80b-4dd8-8543-380c5e5b8998","system_id":"levelo_inurba_marseille","lat":43.309038,"lon":5.396546,"is_reserved":false,"is_disabled":false,"rental_uris":{"android":"levelo://app?vid=b9670bb9-e80b-4dd8-8543-380c5e5b8998","ios":"levelo://app?vid=b9670bb9-e80b-4dd8-8543-380c5e5b8998"},