{"last_updated":1766250526,"ttl":60,"version":"2.2","data":{"bikes":[{"bike_id":"89756c06-0681-4f7b-a419-2fe2621485f7","system_id":"levelo_inurba_marseille","lat":43.27637,"lon":5.39951,"is_reserved":false,"is_disabled":false,"rental_uris":{"android":"levelo://app?vid=89756c06-0681-4f7b-a419-2fe2621485f7","ios":"levelo://app?vid=89756c06-0681-4f7b-a419-2fe2621485f7"},"vehicle_type_id":"4","last_reported":1766250527,"current_range_meters":2800,"station_id":"","pricing_plan_id":"cebpf4jnsgd1na2vs0mg"},{"bike_id":"883e95c5-7c66-4053-8d08-0f534621d7db","system_id":"levelo_inurba_marseille","lat":43.274196,"lon":5.394205,"is_reserved":false,"is_disabled":false,"rental_uris":{"android":"levelo://app?vid=883e95c5-7c66-4053-8d08-0f534621d7db","ios":"levelo://app?vid=883e95c5-7c66-4053-8d08-0f534621d7db"},"vehicle_type_id":"4","last_reported":1766250527,"current_range_meters":3200,"station_id":"ce4bhdp2rcd13ifvqf20","pricing_plan_id":"cebpf4jnsgd1na2vs0mg"},{"bike_id":"436e467e-3ef8-4484-b12e-82fd46509f97","system_id":"levelo_inurba_marseille","lat":43.233,"lon":5.44386,"is_reserved":false,"is_disabled":false,"rental_uris":{"android":"levelo://app?vid=436e467e-3ef8-4484-b12e-82fd46509f97","ios":"levelo://app?vid=436e467e-3ef8-4484-b12e-82fd46509f97"},"vehicle_type_id":"4","last_reported":1766250527,"current_range_meters":3200,"station_id":"","pricing_plan_id":"cebpf4jnsgd1na2vs0mg"},{"bike_id":"4a614ce4-d61c-499d-8955-0569e02f377b","system_id":"levelo_inurba_marseille","lat":43.27521,"lon":5.37262,"is_reserved":false,"is_disabled":false,"rental_uris":{"android":"levelo://app?vid=4a614ce4-d61c-499d-8955-0569e02f377b","ios":"levelo://app?vid=4a614ce4-d61c-499d-8955-0569e02f377b"},"vehicle_type_id":"4","last_reported":1766250527,"current_range_meters":3200,"station_id":"","pricing_plan_id":"cebpf4jnsgd1na2vs0mg"},{"bike_id":"4cd31c8b-e2bf-4aad-b061-09eb9872ab3f","system_id":"levelo_inurba_marseille","lat":43.30734,"lon":5.42446,"is_reserved":false,"is_disabled":false,"rental_uris":{"android":"levelo://app?vid=4cd31c8b-e2bf-4aad-b061-09eb9872ab3f","ios":"levelo://app?vid=4cd31c8b-e2bf-4aad-b061-09eb9872ab3f"},"vehicle_type_id":"4","last_reported":1766250527,"current_range_meters":3200,"station_id":"st_cvj6ca6bvosntc0bfgr0","pricing_plan_id":"cebpf4jnsgd1na2vs0mg"},{"bike_id":"46f6c635-a42f-42f7-979c-8e7dbaa711c6","system_id":"levelo_inurba_marseille","lat":43.27855,"lon":5.35469,"is_reserved":false,"is_disabled":false,"rental_uris":{"android":"levelo://app?vid=46f6c635-a42f-42f7-979c-8e7dbaa711c6","ios":"levelo://app?vid=46f6c635-a42f-42f7-979c-8e7dbaa711c6"},"vehicle_type_id":"4","last_reported":1766250527,"current_range_meters":3600,"station_id":"","pricing_plan_id":"cebpf4jnsgd1na2vs0mg"},{"bike_id":"0f42d669-6789-4a70-8d74-f43509b34aa3","system_id":"levelo_inurba_marseille","lat":43.29978,"lon":5.37185,"is_reserved":false,"is_disabled":false,"rental_uris":{"android":"levelo://app?vid=0f42d669-6789-4a70-8d74-f43509b34aa3","ios":"levelo://app?vid=0f42d669-6789-4a70-8d74-f43509b34aa3"},"vehicle_type_id":"4","last_reported":1766250527,"current_range_meters":3600,"station_id":"ce4bgr92rcd13ifvqc7g","pricing_plan_id":"cebpf4jnsgd1na2vs0mg"},{"bike_id":"5c82aa5d-e9af-478b-9ffa-e9de9eb19a05","system_id":"levelo_inurba_marseille","lat":43.24822,"lon":5.37468,"is_reserved":false,"is_disabled":true,"rental_uris":{"android":"levelo://app?vid=5c82aa5d-e9af-478b-9ffa-e9de9eb19a05","ios":"levelo://app?vid=5c82aa5d-e9af-478b-9ffa-e9de9eb19a05"},"vehicle_type_id":"4","last_reported":1766250527,"current_range_meters":3600,"station_id":"ce4bhgh2rcd13ifvqfb0","pricing_plan_id":"cebpf4jnsgd1na2vs0mg"},{"bike_id":"af1d373b-88a4-4665-9a5f-2964ee3f71b5","system_id":"levelo_inurba_marseille","lat":43.27899,"lon":5.39596,"is_reserved":false,"is_disabled":false,"rental_uris":{"android":"levelo://app?vid=af1d373b-88a4-4665-9a5f-2964ee3f71b5","ios":"levelo://app?vid=af1d373b-88a4-4665-9a5f-2964ee3f71b5"},"vehicle_type_id":"4","last_reported":1766250527,"current_range_meters":4000,"station_id":"ce4bhf92rcd13ifvqf40","pricing_plan_id":"cebpf4jnsgd1na2vs0mg"},{"bike_id":"c5365846-c619-4f12-8c92-97c9f9725a15","system_id":"levelo_inurba_marseille","lat":43.29516,"lon":5.37925,"is_reserved":false,"is_disabled":false,"rental_uris":{"android":"levelo://app?vid=c5365846-c619-4f12-8c92-97c9f9725a15","ios":"levelo://app?vid=c5365846-c619-4f12-8c92-97c9f9725a15"},"vehicle_type_id":"4","last_reported":1766250527,"current_range_meters":4000,"station_id":"","pricing_plan_id":"cebpf4jnsgd1na2vs0mg"},{"bike_id":"27e6ea58-5ccf-4902-ad2a-71b7ca4e77a1","system_id":"levelo_inurba_marseille","lat":43.28861,"lon":5.4252,"is_reserved":false,"is_disabled":false,"rental_uris":{"android":"levelo://app?vid=27e6ea58-5ccf-4902-ad2a-71b7ca4e77a1","ios":"levelo://app?vid=27e6ea58-5ccf-4902-ad2a-71b7ca4e77a1"},"vehicle_type_id":"4","last_reported":1766250527,"current_range_meters":4000,"station_id":"st_d3b462108ojc7389ooeg","pricing_plan_id":"cebpf4jnsgd1na2vs0mg"},{"bike_id":"4dfdaea7-3416-412a-aa23-313461c8be60","system_id":"levelo_inurba_marseille","lat":43.31988,"lon":5.38164,"is_reserved":false,"is_disabled":false,"rental_uris":{"android":"levelo://app?vid=4dfdaea7-3416-412a-aa23-313461c8be60","ios":"levelo://app?vid=4dfdaea7-3416-412a-aa23-313461c8be60"},"vehicle_type_id":"4","last_reported":1766250527,"current_range_meters":4400,"station_id":"ce4bhr12rcd13ifvqhpg","pricing_plan_id":"cebpf4jnsgd1na2vs0mg"},{"bike_id":"364a9f47-4a0c-4d54-8ae4-aaf1c1904bc8","system_id":"levelo_inurba_marseille","lat":43.28265,"lon":5.35064,"is_reserved":false,"is_disabled":false,"rental_uris":{"android":"levelo://app?vid=364a9f47-4a0c-4d54-8ae4-aaf1c1904bc8","ios":"levelo://app?vid=364a9f47-4a0c-4d54-8ae4-aaf1c1904bc8"},"vehicle_type_id":"4","last_reported":1766250527,"current_range_meters":4400,"station_id":"ce4bhbp2rcd13ifvqerg","pricing_plan_id":"cebpf4jnsgd1na2vs0mg"},{"bike_id":"f3a4c2fd-c27a-4ca6-bbe5-3949d2a88808","system_id":"levelo_inurba_marseille","lat":43.285745,"lon":5.429922,"is_reserved":false,"is_disabled":false,"rental_uris":{"android":"levelo://app?vid=f3a4c2fd-c27a-4ca6-bbe5-3949d2a88808","ios":"levelo://app?vid=f3a4c2fd-c27a-4ca6-bbe5-3949d2a88808"},"vehicle_type_id":"4","last_reported":1766250527,"current_range_meters":4400,"station_id":"","pricing_plan_id":"cebpf4jnsgd1na2vs0mg"},{"bike_id":"01771f8d-2f34-4473-bd01-f0d5524731a9","system_id":"levelo_inurba_marseille","lat":43.27816,"lon":5.40708,"is_reserved":false,"is_disabled":false,"rental_uris":{"android":"levelo://app?vid=01771f8d-2f34-4473-bd01-f0d5524731a9","ios":"levelo://app?vid=01771f8d-2f34-4473-bd01-f0d5524731a9"},"vehicle_type_id":"4","last_reported":1766250527,"current_range_meters":4800,"station_id":"ce4bhnh2rcd13ifvqgtg","pricing_plan_id":"cebpf4jnsgd1na2vs0mg"},{"bike_id":"4ef86409-300d-443b-94d2-595eaccdb767","system_id":"levelo_inurba_marseille","lat":43.28666,"lon":5.38674,"is_reserved":false,"is_disabled":false,"rental_uris":{"android":"levelo://app?vid=4ef86409-300d-443b-94d2-595eaccdb767","ios":"levelo://app?vid=4ef86409-300d-443b-94d2-595eaccdb767"},"vehicle_type_id":"4","last_reported":1766250527,"current_range_meters":4800,"station_id":"ce4bh492rcd13ifvqdug","pricing_plan_id":"cebpf4jnsgd1na2vs0mg"},{"bike_id":"c989796d-dcc1-4fc7-b147-6dbca1d74de3","system_id":"levelo_inurba_marseille","lat":43.281468,"lon":5.38335,"is_reserved":false,"is_disabled":false,"rental_uris":{"android":"levelo://app?vid=c989796d-dcc1-4fc7-b147-6dbca1d74de3","ios":"levelo://app?vid=c989796d-dcc1-4fc7-b147-6dbca1d74de3"},"vehicle_type_id":"4","last_reported":1766250527,"current_range_meters":4800,"station_id":"","pricing_plan_id":"cebpf4jnsgd1na2vs0mg"},{"bike_id":"0cdcbe84-2c56-4df4-a7d4-8c1b0bcb8a38","system_id":"levelo_inurba_marseille","lat":43.2175,"lon":5.34599,"is_reserved":false,"is_disabled":false,"rental_uris":{"android":"levelo://app?vid=0cdcbe84-2c56-4df4-a7d4-8c1b0bcb8a38","ios":"levelo://app?vid=0cdcbe84-2c56-4df4-a7d4-8c1b0bcb8a38"},"vehicle_type_id":"4","last_reported":1766250527,"current_range_meters":4800,"station_id":"st_cvj6r9ubvosntc0bgbag","pricing_plan_id":"cebpf4jnsgd1na2vs0mg"},{"bike_id":"0e673f6a-7e1b-4fbd-be2a-47ac393ce395","system_id":"levelo_inurba_marseille","lat":43.28458,"lon":5.35886,"is_reserved":false,"is_disabled":false,"rental_uris":{"android":"levelo://app?vid=0e673f6a-7e1b-4fbd-be2a-47ac393ce395","ios":"levelo://app?vid=0e673f6a-7e1b-4fbd-be2a-47ac393ce395"},"vehicle_type_id":"4","last_reported":1766250527,"current_range_meters":5600,"station_id":"ce4bhah2rcd13ifvqei0","pricing_plan_id":"cebpf4jnsgd1na2vs0mg"},{"bike_id":"48e30a46-3a61-4ed5-93c8-2b0ee8661bac","system_id":"levelo_inurba_marseille","lat":43.29817,"lon":5.37788,"is_reserved":false,"is_disabled":false,"rental_uris":{"android":"levelo://app?vid=48e30a46-3a61-4ed5-93c8-2b0ee8661bac","ios":"levelo://app?vid=48e30a46-3a61-4ed5-93c8-2b0ee8661bac"},"vehicle_type_id":"4","last_reported":1766250527,"current_range_meters":5600,"station_id":"","pricing_plan_id":"cebpf4jnsgd1na2vs0mg"},{"bike_id":"cde75731-be94-4954-af76-b79651b240b9","system_id":"levelo_inurba_marseille","lat":43.29938,"lon":5.39382,"is_reserved":false,"is_disabled":false,"rental_uris":{"android":"levelo://app?vid=cde75731-be94-4954-af76-b79651b240b9","ios":"levelo://app?vid=cde75731-be94-4954-af76-b79651b240b9"},"vehicle_type_id":"4","last_reported":1766250527,"current_range_meters":6000,"station_id":"","pricing_plan_id":"cebpf4jnsgd1na2vs0mg"},{"bike_id":"30229b9a-9a15-47da-ad4a-bfe3427650f5","system_id":"levelo_inurba_marseille","lat":43.29018,"lon":5.38132,"is_reserved":false,"is_disabled":false,"rental_uris":{"android":"levelo://app?vid=30229b9a-9a15-47da-ad4a-bfe3427650f5","ios":"levelo://app?vid=30229b9a-9a15-47da-ad4a-bfe3427650f5"},"vehicle_type_id":"4","last_reported":1766250527,"current_range_meters":6000,"station_id":"ce4bh4p2rcd13ifvqe1g","pricing_plan_id":"cebpf4jnsgd1na2vs0mg"},{"bike_id":"c844a6af-1301-44d2-8b87-884c4f6e7e16","system_id":"levelo_inurba_marseille","lat":43.28482,"lon":5.38558,"is_reserved":false,"is_disabled":false,"rental_uris":{"android":"levelo://app?vid=c844a6af-1301-44d2-8b87-884c4f6e7e16","ios":"levelo://app?vid=c844a6af-1301-44d2-8b87-884c4f6e7e16"},"vehicle_type_id":"4","last_reported":1766250527,"current_range_meters":6000,"station_id":"ce4bh8p2rcd13ifvqeb0","pricing_plan_id":"cebpf4jnsgd1na2vs0mg"},{"bike_id":"13bb1963-64b8-4648-90f4-cea5182d6f07","system_id":"levelo_inurba_marseille","lat":43.27321,"lon":5.39101,"is_reserved":false,"is_disabled":false,"rental_uris":{"android":"levelo://app?vid=13bb1963-64b8-4648-90f4-cea5182d6f07","ios":"levelo://app?vid=13bb1963-64b8-4648-90f4-cea5182d6f07"},"vehicle_type_id":"4","last_reported":1766250527,"current_range_meters":6000,"station_id":"ce4bhgp2rcd13ifvqfe0","pricing_plan_id":"cebpf4jnsgd1na2vs0mg"},{"bike_id":"83906257-6a31-41f4-863b-f3480afdef9f","system_id":"levelo_inurba_marseille","lat":43.30776,"lon":5.37646,"is_reserved":false,"is_disabled":false,"rental_uris":{"android":"levelo://app?vid=83906257-6a31-41f4-863b-f3480afdef9f","ios":"levelo://app?vid=83906257-6a31-41f4-863b-f3480afdef9f"},"vehicle_type_id":"4","last_reported":1766250527,"current_range_meters":6000,"station_id":"ce4bgv92rcd13ifvqcq0","pricing_plan_id":"cebpf4jnsgd1na2vs0mg"},{"bike_id":"41f67574-6f8b-457e-8148-4ef9a67b157b","system_id":"levelo_inurba_marseille","lat":43.28106,"lon":5.37833,"is_reserved":false,"is_disabled":false,"rental_uris":{"android":"levelo://app?vid=41f67574-6f8b-457e-8148-4ef9a67b157b","ios":"levelo://app?vid=41f67574-6f8b-457e-8148-4ef9a67b157b"},"vehicle_type_id":"4","last_reported":1766250527,"current_range_meters":6000,"station_id":"ce4bha12rcd13ifvqee0","pricing_plan_id":"cebpf4jnsgd1na2vs0mg"},{"bike_id":"d36788ab-71ec-4d0b-acd4-3f6e5901a2d4","system_id":"levelo_inurba_marseille","lat":43.299818,"lon":5.371798,"is_reserved":false,"is_disabled":false,"rental_uris":{"android":"levelo://app?vid=d36788ab-71ec-4d0b-acd4-3f6e5901a2d4","ios":"levelo://app?vid=d36788ab-71ec-4d0b-acd4-3f6e5901a2d4"},"vehicle_type_id":"4","last_reported":1766250527,"current_range_meters":6000,"station_id":"ce4bgr92rcd13ifvqc7g","pricing_plan_id":"cebpf4jnsgd1na2vs0mg"},{"bike_id":"700442f5-a082-454e-8bc7-ab3bbb77bfce","system_id":"levelo_inurba_marseille","lat":43.266614,"lon":5.374472,"is_reserved":false,"is_disabled":false,"rental_uris":{"android":"levelo://app?vid=700442f5-a082-454e-8bc7-ab3bbb77bfce","ios":"levelo://app?vid=700442f5-a082-454e-8bc7-ab3bbb77bfce"},"vehicle_type_id":"4","last_reported":1766250527,"current_range_meters":6400,"station_id":"","pricing_plan_id":"cebpf4jnsgd1na2vs0mg"},{"bike_id":"b363ab32-6425-45d8-9847-c4bfeef66847","system_id":"levelo_inurba_marseille","lat":43.30311,"lon":5.36897,"is_reserved":false,"is_disabled":false,"rental_uris":{"android":"levelo://app?vid=b363ab32-6425-45d8-9847-c4bfeef66847","ios":"levelo://app?vid=b363ab32-6425-45d8-9847-c4bfeef66847"},"vehicle_type_id":"4","last_reported":1766250527,"current_range_meters":6800,"station_id":"ce4bgqh2rcd13ifvqc5g","pricing_plan_id":"cebpf4jnsgd1na2vs0mg"},{"bike_id":"cd5c0799-c467-455c-aa4f-04233f434231","system_id":"levelo_inurba_marseille","lat":43.28614,"lon":5.39872,"is_reserved":false,"is_disabled":false,"rental_uris":{"android":"levelo://app?vid=cd5c0799-c467-455c-aa4f-04233f434231","ios":"levelo://app?vid=cd5c0799-c467-455c-aa4f-04233f434231"},"vehicle_type_id":"4","last_reported":1766250527,"current_range_meters":6800,"station_id":"st_d4a7ka997mjs738ck50g","pricing_plan_id":"cebpf4jnsgd1na2vs0mg"},{"bike_id":"8942f8e6-aa25-4a78-8931-5f21a6403e98","system_id":"levelo_inurba_marseille","lat":43.25826,"lon":5.39435,"is_reserved":false,"is_disabled":false,"rental_uris":{"android":"levelo://app?vid=8942f8e6-aa25-4a78-8931-5f21a6403e98","ios":"levelo://app?vid=8942f8e6-aa25-4a78-8931-5f21a6403e98"},"vehicle_type_id":"4","last_reported":1766250527,"current_range_meters":6800,"station_id":"ce4bhip2rcd13ifvqft0","pricing_plan_id":"cebpf4jnsgd1na2vs0mg"},{"bike_id":"8d9cef28-7a1e-4ce9-83ac-951428230c6d","system_id":"levelo_inurba_marseille","lat":43.28614,"lon":5.351,"is_reserved":false,"is_disabled":false,"rental_uris":{"android":"levelo://app?vid=8d9cef28-7a1e-4ce9-83ac-951428230c6d","ios":"levelo://app?vid=8d9cef28-7a1e-4ce9-83ac-951428230c6d"},"vehicle_type_id":"4","last_reported":1766250527,"current_range_meters":6800,"station_id":"ce4bhch2rcd13ifvqeug","pricing_plan_id":"cebpf4jnsgd1na2vs0mg"},{"bike_id":"12138612-a604-48fa-aed1-618503ec37b2","system_id":"levelo_inurba_marseille","lat":43.261917,"lon":5.397343,"is_reserved":false,"is_disabled":false,"rental_uris":{"android":"levelo://app?vid=12138612-a604-48fa-aed1-618503ec37b2","ios":"levelo://app?vid=12138612-a604-48fa-aed1-618503ec37b2"},"vehicle_type_id":"4","last_reported":1766250527,"current_range_meters":6800,"station_id":"ce4bh512rcd13ifvqe2g","pricing_plan_id":"cebpf4jnsgd1na2vs0mg"},{"bike_id":"26cf22c2-4515-4301-9340-1277187b5638","system_id":"levelo_inurba_marseille","lat":43.24465,"lon":5.42591,"is_reserved":false,"is_disabled":false,"rental_uris":{"android":"levelo://app?vid=26cf22c2-4515-4301-9340-1277187b5638","ios":"levelo://app?vid=26cf22c2-4515-4301-9340-1277187b5638"},"vehicle_type_id":"4","last_reported":1766250527,"current_range_meters":6800,"station_id":"st_d4a3vfp97mjs738cd8kg","pricing_plan_id":"cebpf4jnsgd1na2vs0mg"},{"bike_id":"128f68df-e6c8-471d-bf6e-3a9c347712de","system_id":"levelo_inurba_marseille","lat":43.29234,"lon":5.40898,"is_reserved":false,"is_disabled":false,"rental_uris":{"android":"levelo://app?vid=128f68df-e6c8-471d-bf6e-3a9c347712de","ios":"levelo://app?vid=128f68df-e6c8-471d-bf6e-3a9c347712de"},"vehicle_type_id":"4","last_reported":1766250527,"current_range_meters":7200,"station_id":"ce4bh192rcd13ifvqdc0","pricing_plan_id":"cebpf4jnsgd1na2vs0mg"},{"bike_id":"1c79eb29-135e-40c1-8651-901759d4aaa6","system_id":"levelo_inurba_marseille","lat":43.285668,"lon":5.353033,"is_reserved":false,"is_disabled":false,"rental_uris":{"android":"levelo://app?vid=1c79eb29-135e-40c1-8651-901759d4aaa6","ios":"levelo://app?vid=1c79eb29-135e-40c1-8651-901759d4aaa6"},"vehicle_type_id":"4","last_reported":1766250527,"current_range_meters":7200,"station_id":"","pricing_plan_id":"cebpf4jnsgd1na2vs0mg"},{"bike_id":"7b2a6a44-d0db-47c0-900c-280f4986ddad","system_id":"levelo_inurba_marseille","lat":43.28924,"lon":5.38396,"is_reserved":false,"is_disabled":false,"rental_uris":{"android":"levelo://app?vid=7b2a6a44-d0db-47c0-900c-280f4986ddad","ios":"levelo://app?vid=7b2a6a44-d0db-47c0-900c-280f4986ddad"},"vehicle_type_id":"4","last_reported":1766250527,"current_range_meters":7200,"station_id":"ce4bh612rcd13ifvqe6g","pricing_plan_id":"cebpf4jnsgd1na2vs0mg"},{"bike_id":"fcd75001-1344-42ec-a013-2f4c6240ace8","system_id":"levelo_inurba_marseille","lat":43.2981,"lon":5.38643,"is_reserved":false,"is_disabled":false,"rental_uris":{"android":"levelo://app?vid=fcd75001-1344-42ec-a013-2f4c6240ace8","ios":"levelo://app?vid=fcd75001-1344-42ec-a013-2f4c6240ace8"},"vehicle_type_id":"4","last_reported":1766250527,"current_range_meters":8000,"station_id":"","pricing_plan_id":"cebpf4jnsgd1na2vs0mg"},{"bike_id":"f577692b-beb9-462c-a948-ba15765380b7","system_id":"levelo_inurba_marseille","lat":43.30071,"lon":5.38633,"is_reserved":false,"is_disabled":false,"rental_uris":{"android":"levelo://app?vid=f577692b-beb9-462c-a948-ba15765380b7","ios":"levelo://app?vid=f577692b-beb9-462c-a948-ba15765380b7"},"vehicle_type_id":"4","last_reported":1766250527,"current_range_meters":8000,"station_id":"","pricing_plan_id":"cebpf4jnsgd1na2vs0mg"},{"bike_id":"0cdb74a3-8c6c-4707-b688-b8c21bc9ecce","system_id":"levelo_inurba_marseille","lat":43.28476,"lon":5.38416,"is_reserved":false,"is_disabled":false,"rental_uris":{"android":"levelo://app?vid=0cdb74a3-8c6c-4707-b688-b8c21bc9ecce","ios":"levelo://app?vid=0cdb74a3-8c6c-4707-b688-b8c21bc9ecce"},"vehicle_type_id":"4","last_reported":1766250527,"current_range_meters":8000,"station_id":"ce4bh512rcd13ifvqe3g","pricing_plan_id":"cebpf4jnsgd1na2vs0mg"},{"bike_id":"78bb0196-e75f-433b-98b8-6cf4d5c3b6aa","system_id":"levelo_inurba_marseille","lat":43.31364,"lon":5.36698,"is_reserved":false,"is_disabled":false,"rental_uris":{"android":"levelo://app?vid=78bb0196-e75f-433b-98b8-6cf4d5c3b6aa","ios":"levelo://app?vid=78bb0196-e75f-433b-98b8-6cf4d5c3b6aa"},"vehicle_type_id":"4","last_reported":1766250527,"current_range_meters":8400,"station_id":"ce4bgr92rcd13ifvqc6g","pricing_plan_id":"cebpf4jnsgd1na2vs0mg"},{"bike_id":"207776d7-b88e-48a6-b74f-2b1aae5e54c7","system_id":"levelo_inurba_marseille","lat":43.268961,"lon":5.387159,"is_reserved":false,"is_disabled":true,"rental_uris":{"android":"levelo://app?vid=207776d7-b88e-48a6-b74f-2b1aae5e54c7","ios":"levelo://app?vid=207776d7-b88e-48a6-b74f-2b1aae5e54c7"},"vehicle_type_id":"4","last_reported":1766250527,"current_range_meters":8400,"station_id":"","pricing_plan_id":"cebpf4jnsgd1na2vs0mg"},{"bike_id":"2e6f284b-1947-4cb2-bd4c-eb582b90d802","system_id":"levelo_inurba_marseille","lat":43.28666,"lon":5.36339,"is_reserved":false,"is_disabled":false,"rental_uris":{"android":"levelo://app?vid=2e6f284b-1947-4cb2-bd4c-eb582b90d802","ios":"levelo://app?vid=2e6f284b-1947-4cb2-bd4c-eb582b90d802"},"vehicle_type_id":"4","last_reported":1766250527,"current_range_meters":8400,"station_id":"ce4bhah2rcd13ifvqej0","pricing_plan_id":"cebpf4jnsgd1na2vs0mg"},{"bike_id":"342f1aab-f383-4095-9af9-476f39ec27e6","system_id":"levelo_inurba_marseille","lat":43.22563,"lon":5.41627,"is_reserved":false,"is_disabled":false,"rental_uris":{"android":"levelo://app?vid=342f1aab-f383-4095-9af9-476f39ec27e6","ios":"levelo://app?vid=342f1aab-f383-4095-9af9-476f39ec27e6"},"vehicle_type_id":"4","last_reported":1766250527,"current_range_meters":8400,"station_id":"st_d2o4gvlbi1j2169b742g","pricing_plan_id":"cebpf4jnsgd1na2vs0mg"},{"bike_id":"7905ae8d-cc82-4f8d-9146-9561edff9060","system_id":"levelo_inurba_marseille","lat":43.295225,"lon":5.375038,"is_reserved":false,"is_disabled":false,"rental_uris":{"android":"levelo://app?vid=7905ae8d-cc82-4f8d-9146-9561edff9060","ios":"levelo://app?vid=7905ae8d-cc82-4f8d-9146-9561edff9060"},"vehicle_type_id":"4","last_reported":1766250527,"current_range_meters":8400,"station_id":"ce4bgkp2rcd13ifvqbmg","pricing_plan_id":"cebpf4jnsgd1na2vs0mg"},{"bike_id":"e473bd1d-bff8-4fb5-a794-d58a75d9821a","system_id":"levelo_inurba_marseille","lat":43.25333,"lon":5.42166,"is_reserved":false,"is_disabled":true,"rental_uris":{"android":"levelo://app?vid=e473bd1d-bff8-4fb5-a794-d58a75d9821a","ios":"levelo://app?vid=e473bd1d-bff8-4fb5-a794-d58a75d9821a"},"vehicle_type_id":"4","last_reported":1766250527,"current_range_meters":8400,"station_id":"st_d2m65c5bi1j21697t3ng","pricing_plan_id":"cebpf4jnsgd1na2vs0mg"},{"bike_id":"28f8a894-73ea-4ddb-9592-9d342936d352","system_id":"levelo_inurba_marseille","lat":43.30328,"lon":5.4043,"is_reserved":false,"is_disabled":false,"rental_uris":{"android":"levelo://app?vid=28f8a894-73ea-4ddb-9592-9d342936d352","ios":"levelo://app?vid=28f8a894-73ea-4ddb-9592-9d342936d352"},"vehicle_type_id":"4","last_reported":1766250527,"current_range_meters":8400,"station_id":"ce4bh012rcd13ifvqd10","pricing_plan_id":"cebpf4jnsgd1na2vs0mg"},{"bike_id":"6ec9a6be-eed9-4adb-a34f-9a64c85ea37b","system_id":"levelo_inurba_marseille","lat":43.30635,"lon":5.37569,"is_reserved":false,"is_disabled":false,"rental_uris":{"android":"levelo://app?vid=6ec9a6be-eed9-4adb-a34f-9a64c85ea37b","ios":"levelo://app?vid=6ec9a6be-eed9-4adb-a34f-9a64c85ea37b"},"vehicle_type_id":"4","last_reported":1766250527,"current_range_meters":8400,"station_id":"","pricing_plan_id":"cebpf4jnsgd1na2vs0mg"},{"bike_id":"d5c2d554-5edd-4b1f-8bbf-acce17eb866f","system_id":"levelo_inurba_marseille","lat":43.29334,"lon":5.37575,"is_reserved":false,"is_disabled":true,"rental_uris":{"android":"levelo://app?vid=d5c2d554-5edd-4b1f-8bbf-acce17eb866f","ios":"levelo://app?vid=d5c2d554-5edd-4b1f-8bbf-acce17eb866f"},"vehicle_type_id":"4","last_reported":1766250527,"current_range_meters":8800,"station_id":"","pricing_plan_id":"cebpf4jnsgd1na2vs0mg"},{"bike_id":"c83d1f55-848c-49d2-a645-18db8b752e41","system_id":"levelo_inurba_marseille","lat":43.27994,"lon":5.41665,"is_reserved":false,"is_disabled":false,"rental_uris":{"android":"levelo://app?vid=c83d1f55-848c-49d2-a645-18db8b752e41","ios":"levelo://app?vid=c83d1f55-848c-49d2-a645-18db8b752e41"},"vehicle_type_id":"4","last_reported":1766250527,"current_range_meters":8800,"station_id":"ce4bho12rcd13ifvqh1g","pricing_plan_id":"cebpf4jnsgd1na2vs0mg"},{"bike_id":"8ddf5f0b-8638-4227-b0ee-efe27c023df6","system_id":"levelo_inurba_marseille","lat":43.308014,"lon":5.381433,"is_reserved":false,"is_disabled":true,"rental_uris":{"android":"levelo://app?vid=8ddf5f0b-8638-4227-b0ee-efe27c023df6","ios":"levelo://app?vid=8ddf5f0b-8638-4227-b0ee-efe27c023df6"},"vehicle_type_id":"4","last_reported":1766250527,"current_range_meters":8800,"station_id":"ce4bgjp2rcd13ifvqbh0","pricing_plan_id":"cebpf4jnsgd1na2vs0mg"},{"bike_id":"657677ff-bd0f-45b9-a985-0cee09b5fde2","system_id":"levelo_inurba_marseille","lat":43.31711,"lon":5.437,"is_reserved":false,"is_disabled":false,"rental_uris":{"android":"levelo://app?vid=657677ff-bd0f-45b9-a985-0cee09b5fde2","ios":"levelo://app?vid=657677ff-bd0f-45b9-a985-0cee09b5fde2"},"vehicle_type_id":"4","last_reported":1766250527,"current_range_meters":8800,"station_id":"ce4bhp92rcd13ifvqhcg","pricing_plan_id":"cebpf4jnsgd1na2vs0mg"},{"bike_id":"342831ac-e927-49d6-8b43-22fa72e5bef8","system_id":"levelo_inurba_marseille","lat":43.28013,"lon":5.38762,"is_reserved":false,"is_disabled":false,"rental_uris":{"android":"levelo://app?vid=342831ac-e927-49d6-8b43-22fa72e5bef8","ios":"levelo://app?vid=342831ac-e927-49d6-8b43-22fa72e5bef8"},"vehicle_type_id":"4","last_reported":1766250527,"current_range_meters":8800,"station_id":"ce4bhg12rcd13ifvqf80","pricing_plan_id":"cebpf4jnsgd1na2vs0mg"},{"bike_id":"af5317b7-9dbb-4c45-8906-d0636c7fe4a2","system_id":"levelo_inurba_marseille","lat":43.28608,"lon":5.37064,"is_reserved":false,"is_disabled":false,"rental_uris":{"android":"levelo://app?vid=af5317b7-9dbb-4c45-8906-d0636c7fe4a2","ios":"levelo://app?vid=af5317b7-9dbb-4c45-8906-d0636c7fe4a2"},"vehicle_type_id":"4","last_reported":1766250527,"current_range_meters":8800,"station_id":"ce4bht12rcd13ifvqi60","pricing_plan_id":"cebpf4jnsgd1na2vs0mg"},{"bike_id":"0f9cf49a-a542-457b-9bb8-7dbdc79e4286","system_id":"levelo_inurba_marseille","lat":43.28372,"lon":5.3866,"is_reserved":false,"is_disabled":false,"rental_uris":{"android":"levelo://app?vid=0f9cf49a-a542-457b-9bb8-7dbdc79e4286","ios":"levelo://app?vid=0f9cf49a-a542-457b-9bb8-7dbdc79e4286"},"vehicle_type_id":"4","last_reported":1766250527,"current_range_meters":9200,"station_id":"ce4bh492rcd13ifvqdvg","pricing_plan_id":"cebpf4jnsgd1na2vs0mg"},{"bike_id":"a880c0f3-3465-44ce-9002-fcbd8d6cabe9","system_id":"levelo_inurba_marseille","lat":43.24166,"lon":5.36393,"is_reserved":false,"is_disabled":false,"rental_uris":{"android":"levelo://app?vid=a880c0f3-3465-44ce-9002-fcbd8d6cabe9","ios":"levelo://app?vid=a880c0f3-3465-44ce-9002-fcbd8d6cabe9"},"vehicle_type_id":"4","last_reported":1766250527,"current_range_meters":9200,"station_id":"cpo36qri1sfpv3e86is0","pricing_plan_id":"cebpf4jnsgd1na2vs0mg"},{"bike_id":"3fbe86d6-50aa-4dbb-b535-cf846f212f8d","system_id":"levelo_inurba_marseille","lat":43.21193,"lon":5.3507,"is_reserved":false,"is_disabled":true,"rental_uris":{"android":"levelo://app?vid=3fbe86d6-50aa-4dbb-b535-cf846f212f8d","ios":"levelo://app?vid=3fbe86d6-50aa-4dbb-b535-cf846f212f8d"},"vehicle_type_id":"4","last_reported":1766250527,"current_range_meters":9200,"station_id":"","pricing_plan_id":"cebpf4jnsgd1na2vs0mg"},{"bike_id":"bbe6d64f-2cb1-409d-ba24-ff27de876e43","system_id":"levelo_inurba_marseille","lat":43.2853,"lon":5.441085,"is_reserved":false,"is_disabled":false,"rental_uris":{"android":"levelo://app?vid=bbe6d64f-2cb1-409d-ba24-ff27de876e43","ios":"levelo://app?vid=bbe6d64f-2cb1-409d-ba24-ff27de876e43"},"vehicle_type_id":"4","last_reported":1766250527,"current_range_meters":9200,"station_id":"st_d3j3df2ikq2c7380ej80","pricing_plan_id":"cebpf4jnsgd1na2vs0mg"},{"bike_id":"f1c6ef30-df40-4531-b632-19b3b8de3f93","system_id":"levelo_inurba_marseille","lat":43.337444,"lon":5.374475,"is_reserved":false,"is_disabled":false,"rental_uris":{"android":"levelo://app?vid=f1c6ef30-df40-4531-b632-19b3b8de3f93","ios":"levelo://app?vid=f1c6ef30-df40-4531-b632-19b3b8de3f93"},"vehicle_type_id":"4","last_reported":1766250527,"current_range_meters":9200,"station_id":"","pricing_plan_id":"cebpf4jnsgd1na2vs0mg"},{"bike_id":"e42ac7ed-f66a-44b4-b394-3418e57e1ec0","system_id":"levelo_inurba_marseille","lat":43.21178,"lon":5.35074,"is_reserved":false,"is_disabled":true,"rental_uris":{"android":"levelo://app?vid=e42ac7ed-f66a-44b4-b394-3418e57e1ec0","ios":"levelo://app?vid=e42ac7ed-f66a-44b4-b394-3418e57e1ec0"},"vehicle_type_id":"4","last_reported":1766250527,"current_range_meters":9200,"station_id":"st_cvj6sg6p6f1abm77japg","pricing_plan_id":"cebpf4jnsgd1na2vs0mg"},{"bike_id":"26c78947-38c8-4fe2-9c04-b54c7806b0ba","system_id":"levelo_inurba_marseille","lat":43.27375,"lon":5.36252,"is_reserved":false,"is_disabled":true,"rental_uris":{"android":"levelo://app?vid=26c78947-38c8-4fe2-9c04-b54c7806b0ba","ios":"levelo://app?vid=26c78947-38c8-4fe2-9c04-b54c7806b0ba"},"vehicle_type_id":"4","last_reported":1766250527,"current_range_meters":9200,"station_id":"ce4bhbh2rcd13ifvqeo0","pricing_plan_id":"cebpf4jnsgd1na2vs0mg"},{"bike_id":"2774eca9-c878-4033-8514-2330fd47f167","system_id":"levelo_inurba_marseille","lat":43.28478,"lon":5.48406,"is_reserved":false,"is_disabled":false,"rental_uris":{"android":"levelo://app?vid=2774eca9-c878-4033-8514-2330fd47f167","ios":"levelo://app?vid=2774eca9-c878-4033-8514-2330fd47f167"},"vehicle_type_id":"4","last_reported":1766250527,"current_range_meters":9200,"station_id":"","pricing_plan_id":"cebpf4jnsgd1na2vs0mg"},{"bike_id":"3d8062de-4bd0-49c7-86a6-7bf3b5df4845","system_id":"levelo_inurba_marseille","lat":43.28495,"lon":5.48388,"is_reserved":false,"is_disabled":false,"rental_uris":{"android":"levelo://app?vid=3d8062de-4bd0-49c7-86a6-7bf3b5df4845","ios":"levelo://app?vid=3d8062de-4bd0-49c7-86a6-7bf3b5df4845"},"vehicle_type_id":"4","last_reported":1766250527,"current_range_meters":9200,"station_id":"st_d3svhcjqgbts73a3dn0g","pricing_plan_id":"cebpf4jnsgd1na2vs0mg"},{"bike_id":"a155df3e-4b60-4af2-bb99-ef9672812592","system_id":"levelo_inurba_marseille","lat":43.31186,"lon":5.3814,"is_reserved":false,"is_disabled":false,"rental_uris":{"android":"levelo://app?vid=a155df3e-4b60-4af2-bb99-ef9672812592","ios":"levelo://app?vid=a155df3e-4b60-4af2-bb99-ef9672812592"},"vehicle_type_id":"4","last_reported":1766250527,"current_range_meters":9200,"station_id":"","pricing_plan_id":"cebpf4jnsgd1na2vs0mg"},{"bike_id":"025bcf3c-9127-4e0c-b7ed-8709d35ce958","system_id":"levelo_inurba_marseille","lat":43.317482,"lon":5.372171,"is_reserved":false,"is_disabled":false,"rental_uris":{"android":"levelo://app?vid=025bcf3c-9127-4e0c-b7ed-8709d35ce958","ios":"levelo://app?vid=025bcf3c-9127-4e0c-b7ed-8709d35ce958"},"vehicle_type_id":"4","last_reported":1766250527,"current_range_meters":9600,"station_id":"","pricing_plan_id":"cebpf4jnsgd1na2vs0mg"},{"bike_id":"99ad97c1-5a83-4b1c-9cf1-08492f7d7210","system_id":"levelo_inurba_marseille","lat":43.29249,"lon":5.409,"is_reserved":false,"is_disabled":false,"rental_uris":{"android":"levelo://app?vid=99ad97c1-5a83-4b1c-9cf1-08492f7d7210","ios":"levelo://app?vid=99ad97c1-5a83-4b1c-9cf1-08492f7d7210"},"vehicle_type_id":"4","last_reported":1766250527,"current_range_meters":9600,"station_id":"ce4bh192rcd13ifvqdc0","pricing_plan_id":"cebpf4jnsgd1na2vs0mg"},{"bike_id":"bcb638ec-1f7a-45bb-913f-62a7a0a453a1","system_id":"levelo_inurba_marseille","lat":43.29835,"lon":5.38574,"is_reserved":false,"is_disabled":false,"rental_uris":{"android":"levelo://app?vid=bcb638ec-1f7a-45bb-913f-62a7a0a453a1","ios":"levelo://app?vid=bcb638ec-1f7a-45bb-913f-62a7a0a453a1"},"vehicle_type_id":"4","last_reported":1766250527,"current_range_meters":9600,"station_id":"","pricing_plan_id":"cebpf4jnsgd1na2vs0mg"},{"bike_id":"4a53d494-69c4-49cb-9d98-2171acee5734","system_id":"levelo_inurba_marseille","lat":43.286135,"lon":5.35855,"is_reserved":false,"is_disabled":false,"rental_uris":{"android":"levelo://app?vid=4a53d494-69c4-49cb-9d98-2171acee5734","ios":"levelo://app?vid=4a53d494-69c4-49cb-9d98-2171acee5734"},"vehicle_type_id":"4","last_reported":1766250527,"current_range_meters":9600,"station_id":"ce4bgi12rcd13ifvqb70","pricing_plan_id":"cebpf4jnsgd1na2vs0mg"},{"bike_id":"0c1f6896-cbd5-4c55-b68a-3cd9b92201dc","system_id":"levelo_inurba_marseille","lat":43.29895,"lon":5.43666,"is_reserved":false,"is_disabled":false,"rental_uris":{"android":"levelo://app?vid=0c1f6896-cbd5-4c55-b68a-3cd9b92201dc","ios":"levelo://app?vid=0c1f6896-cbd5-4c55-b68a-3cd9b92201dc"},"vehicle_type_id":"4","last_reported":1766250527,"current_range_meters":9600,"station_id":"ce4bhpp2rcd13ifvqhfg","pricing_plan_id":"cebpf4jnsgd1na2vs0mg"},{"bike_id":"156e61f2-3d75-4260-9924-a8b3ec92c21b","system_id":"levelo_inurba_marseille","lat":43.22559,"lon":5.41627,"is_reserved":false,"is_disabled":true,"rental_uris":{"android":"levelo://app?vid=156e61f2-3d75-4260-9924-a8b3ec92c21b","ios":"levelo://app?vid=156e61f2-3d75-4260-9924-a8b3ec92c21b"},"vehicle_type_id":"4","last_reported":1766250527,"current_range_meters":9600,"station_id":"st_d2o4gvlbi1j2169b742g","pricing_plan_id":"cebpf4jnsgd1na2vs0mg"},{"bike_id":"8a5fcab9-591b-488b-8774-14c2bd704821","system_id":"levelo_inurba_marseille","lat":43.295335,"lon":5.393354,"is_reserved":false,"is_disabled":false,"rental_uris":{"android":"levelo://app?vid=8a5fcab9-591b-488b-8774-14c2bd704821","ios":"levelo://app?vid=8a5fcab9-591b-488b-8774-14c2bd704821"},"vehicle_type_id":"4","last_reported":1766250527,"current_range_meters":9600,"station_id":"ce4bh3h2rcd13ifvqdo0","pricing_plan_id":"cebpf4jnsgd1na2vs0mg"},{"bike_id":"e18d88c4-447f-4613-ac8f-5a6e3bb9a21c","system_id":"levelo_inurba_marseille","lat":43.29805,"lon":5.4405,"is_reserved":false,"is_disabled":false,"rental_uris":{"android":"levelo://app?vid=e18d88c4-447f-4613-ac8f-5a6e3bb9a21c","ios":"levelo://app?vid=e18d88c4-447f-4613-ac8f-5a6e3bb9a21c"},"vehicle_type_id":"4","last_reported":1766250527,"current_range_meters":9600,"station_id":"st_d3jp68qikq2c7381ktn0","pricing_plan_id":"cebpf4jnsgd1na2vs0mg"},{"bike_id":"af1f9193-90aa-4f34-b2c4-fb0bbaea183c","system_id":"levelo_inurba_marseille","lat":43.28484,"lon":5.48414,"is_reserved":false,"is_disabled":false,"rental_uris":{"android":"levelo://app?vid=af1f9193-90aa-4f34-b2c4-fb0bbaea183c","ios":"levelo://app?vid=af1f9193-90aa-4f34-b2c4-fb0bbaea183c"},"vehicle_type_id":"4","last_reported":1766250527,"current_range_meters":9600,"station_id":"st_d3svhcjqgbts73a3dn0g","pricing_plan_id":"cebpf4jnsgd1na2vs0mg"},{"bike_id":"1c4e5921-4f17-41fd-a29c-f083d8931078","system_id":"levelo_inurba_marseille","lat":43.292238,"lon":5.360538,"is_reserved":false,"is_disabled":false,"rental_uris":{"android":"levelo://app?vid=1c4e5921-4f17-41fd-a29c-f083d8931078","ios":"levelo://app?vid=1c4e5921-4f17-41fd-a29c-f083d8931078"},"vehicle_type_id":"4","last_reported":1766250527,"current_range_meters":10000,"station_id":"ce4bhb92rcd13ifvqen0","pricing_plan_id":"cebpf4jnsgd1na2vs0mg"},{"bike_id":"20e9dd8e-ed66-4bff-9188-35cbfde59a24","system_id":"levelo_inurba_marseille","lat":43.32323,"lon":5.39369,"is_reserved":false,"is_disabled":true,"rental_uris":{"android":"levelo://app?vid=20e9dd8e-ed66-4bff-9188-35cbfde59a24","ios":"levelo://app?vid=20e9dd8e-ed66-4bff-9188-35cbfde59a24"},"vehicle_type_id":"4","last_reported":1766250527,"current_range_meters":10000,"station_id":"","pricing_plan_id":"cebpf4jnsgd1na2vs0mg"},{"bike_id":"a5973c9d-7726-4950-9e13-2f71380599c8","system_id":"levelo_inurba_marseille","lat":43.28228,"lon":5.39039,"is_reserved":false,"is_disabled":false,"rental_uris":{"android":"levelo://app?vid=a5973c9d-7726-4950-9e13-2f71380599c8","ios":"levelo://app?vid=a5973c9d-7726-4950-9e13-2f71380599c8"},"vehicle_type_id":"4","last_reported":1766250527,"current_range_meters":10000,"station_id":"ce4bhn92rcd13ifvqgsg","pricing_plan_id":"cebpf4jnsgd1na2vs0mg"},{"bike_id":"f36f17c2-5e93-4c18-9ee6-8707aa0dd57a","system_id":"levelo_inurba_marseille","lat":43.27837,"lon":5.39209,"is_reserved":false,"is_disabled":false,"rental_uris":{"android":"levelo://app?vid=f36f17c2-5e93-4c18-9ee6-8707aa0dd57a","ios":"levelo://app?vid=f36f17c2-5e93-4c18-9ee6-8707aa0dd57a"},"vehicle_type_id":"4","last_reported":1766250527,"current_range_meters":10000,"station_id":"ce4bhjp2rcd13ifvqga0","pricing_plan_id":"cebpf4jnsgd1na2vs0mg"},{"bike_id":"76f2d813-5485-417d-8636-f3b3365b6111","system_id":"levelo_inurba_marseille","lat":43.30355,"lon":5.41871,"is_reserved":false,"is_disabled":false,"rental_uris":{"android":"levelo://app?vid=76f2d813-5485-417d-8636-f3b3365b6111","ios":"levelo://app?vid=76f2d813-5485-417d-8636-f3b3365b6111"},"vehicle_type_id":"4","last_reported":1766250527,"current_range_meters":10000,"station_id":"ce4bhop2rcd13ifvqh7g","pricing_plan_id":"cebpf4jnsgd1na2vs0mg"},{"bike_id":"34a0bacf-3869-4b2a-8b76-a24e4e7e5312","system_id":"levelo_inurba_marseille","lat":43.295158,"lon":5.390365,"is_reserved":false,"is_disabled":false,"rental_uris":{"android":"levelo://app?vid=34a0bacf-3869-4b2a-8b76-a24e4e7e5312","ios":"levelo://app?vid=34a0bacf-3869-4b2a-8b76-a24e4e7e5312"},"vehicle_type_id":"4","last_reported":1766250527,"current_range_meters":10000,"station_id":"ce4bh3p2rcd13ifvqdp0","pricing_plan_id":"cebpf4jnsgd1na2vs0mg"},{"bike_id":"28d36d66-e4d6-4e13-a6c5-33e9d81e47d2","system_id":"levelo_inurba_marseille","lat":43.296104,"lon":5.377498,"is_reserved":false,"is_disabled":false,"rental_uris":{"android":"levelo://app?vid=28d36d66-e4d6-4e13-a6c5-33e9d81e47d2","ios":"levelo://app?vid=28d36d66-e4d6-4e13-a6c5-33e9d81e47d2"},"vehicle_type_id":"4","last_reported":1766250527,"current_range_meters":10800,"station_id":"ce4bgi92rcd13ifvqb90","pricing_plan_id":"cebpf4jnsgd1na2vs0mg"},{"bike_id":"82a22c69-4528-497e-a34e-a79f9053706d","system_id":"levelo_inurba_marseille","lat":43.21198,"lon":5.35075,"is_reserved":false,"is_disabled":false,"rental_uris":{"android":"levelo://app?vid=82a22c69-4528-497e-a34e-a79f9053706d","ios":"levelo://app?vid=82a22c69-4528-497e-a34e-a79f9053706d"},"vehicle_type_id":"4","last_reported":1766250527,"current_range_meters":10800,"station_id":"","pricing_plan_id":"cebpf4jnsgd1na2vs0mg"},{"bike_id":"5d50fa13-d19c-4a66-9a21-607ef836f9b8","system_id":"levelo_inurba_marseille","lat":43.305412,"lon":5.367003,"is_reserved":false,"is_disabled":false,"rental_uris":{"android":"levelo://app?vid=5d50fa13-d19c-4a66-9a21-607ef836f9b8","ios":"levelo://app?vid=5d50fa13-d19c-4a66-9a21-607ef836f9b8"},"vehicle_type_id":"4","last_reported":1766250527,"current_range_meters":10800,"station_id":"ce4bgrp2rcd13ifvqc9g","pricing_plan_id":"cebpf4jnsgd1na2vs0mg"},{"bike_id":"13510b18-4a9b-47d0-a954-6d7cdc2c118c","system_id":"levelo_inurba_marseille","lat":43.28475,"lon":5.48389,"is_reserved":false,"is_disabled":false,"rental_uris":{"android":"levelo://app?vid=13510b18-4a9b-47d0-a954-6d7cdc2c118c","ios":"levelo://app?vid=13510b18-4a9b-47d0-a954-6d7cdc2c118c"},"vehicle_type_id":"4","last_reported":1766250527,"current_range_meters":10800,"station_id":"","pricing_plan_id":"cebpf4jnsgd1na2vs0mg"},{"bike_id":"715d9561-8fa5-47bb-9c01-bb5405ae1ea0","system_id":"levelo_inurba_marseille","lat":43.29519,"lon":5.37508,"is_reserved":false,"is_disabled":false,"rental_uris":{"android":"levelo://app?vid=715d9561-8fa5-47bb-9c01-bb5405ae1ea0","ios":"levelo://app?vid=715d9561-8fa5-47bb-9c01-bb5405ae1ea0"},"vehicle_type_id":"4","last_reported":1766250527,"current_range_meters":10800,"station_id":"ce4bgkp2rcd13ifvqbmg","pricing_plan_id":"cebpf4jnsgd1na2vs0mg"},{"bike_id":"9ed2abc5-3eb4-46ee-9006-c9e3411abb84","system_id":"levelo_inurba_marseille","lat":43.263632,"lon":5.399348,"is_reserved":false,"is_disabled":false,"rental_uris":{"android":"levelo://app?vid=9ed2abc5-3eb4-46ee-9006-c9e3411abb84","ios":"levelo://app?vid=9ed2abc5-3eb4-46ee-9006-c9e3411abb84"},"vehicle_type_id":"4","last_reported":1766250527,"current_range_meters":10800,"station_id":"","pricing_plan_id":"cebpf4jnsgd1na2vs0mg"},{"bike_id":"e690c867-6f92-4878-bff7-a3243322d024","system_id":"levelo_inurba_marseille","lat":43.2949,"lon":5.42741,"is_reserved":false,"is_disabled":false,"rental_uris":{"android":"levelo://app?vid=e690c867-6f92-4878-bff7-a3243322d024","ios":"levelo://app?vid=e690c867-6f92-4878-bff7-a3243322d024"},"vehicle_type_id":"4","last_reported":1766250527,"current_range_meters":10800,"station_id":"","pricing_plan_id":"cebpf4jnsgd1na2vs0mg"},{"bike_id":"8c3bb80d-c85a-4921-aa94-9dd5cdc9e58a","system_id":"levelo_inurba_marseille","lat":43.2949,"lon":5.43305,"is_reserved":false,"is_disabled":false,"rental_uris":{"android":"levelo://app?vid=8c3bb80d-c85a-4921-aa94-9dd5cdc9e58a","ios":"levelo://app?vid=8c3bb80d-c85a-4921-aa94-9dd5cdc9e58a"},"vehicle_type_id":"4","last_reported":1766250527,"current_range_meters":10800,"station_id":"st_d3j5ugp08ojc73fj9d10","pricing_plan_id":"cebpf4jnsgd1na2vs0mg"},{"bike_id":"4f2bc6c6-d63f-4e59-bdbf-91760def261d","system_id":"levelo_inurba_marseille","lat":43.2853,"lon":5.44101,"is_reserved":false,"is_disabled":false,"rental_uris":{"android":"levelo://app?vid=4f2bc6c6-d63f-4e59-bdbf-91760def261d","ios":"levelo://app?vid=4f2bc6c6-d63f-4e59-bdbf-91760def261d"},"vehicle_type_id":"4","last_reported":1766250527,"current_range_meters":10800,"station_id":"st_d3j3df2ikq2c7380ej80","pricing_plan_id":"cebpf4jnsgd1na2vs0mg"},{"bike_id":"90dac6f2-4e58-4623-b929-4f8d06ec1c31","system_id":"levelo_inurba_marseille","lat":43.28527,"lon":5.42511,"is_reserved":false,"is_disabled":false,"rental_uris":{"android":"levelo://app?vid=90dac6f2-4e58-4623-b929-4f8d06ec1c31","ios":"levelo://app?vid=90dac6f2-4e58-4623-b929-4f8d06ec1c31"},"vehicle_type_id":"4","last_reported":1766250527,"current_range_meters":11200,"station_id":"","pricing_plan_id":"cebpf4jnsgd1na2vs0mg"},{"bike_id":"9288dce9-f7b9-4348-89e0-817fc8bdda7b","system_id":"levelo_inurba_marseille","lat":43.2957,"lon":5.37517,"is_reserved":false,"is_disabled":false,"rental_uris":{"android":"levelo://app?vid=9288dce9-f7b9-4348-89e0-817fc8bdda7b","ios":"levelo://app?vid=9288dce9-f7b9-4348-89e0-817fc8bdda7b"},"vehicle_type_id":"4","last_reported":1766250527,"current_range_meters":11200,"station_id":"ce4bgh92rcd13ifvqb50","pricing_plan_id":"cebpf4jnsgd1na2vs0mg"},{"bike_id":"d333f5c5-54f8-4cf5-940a-bb6a2ed8e5fd","system_id":"levelo_inurba_marseille","lat":43.30538,"lon":5.37605,"is_reserved":false,"is_disabled":false,"rental_uris":{"android":"levelo://app?vid=d333f5c5-54f8-4cf5-940a-bb6a2ed8e5fd","ios":"levelo://app?vid=d333f5c5-54f8-4cf5-940a-bb6a2ed8e5fd"},"vehicle_type_id":"4","last_reported":1766250527,"current_range_meters":11200,"station_id":"","pricing_plan_id":"cebpf4jnsgd1na2vs0mg"},{"bike_id":"c4d5a3bd-30d0-43a2-aec3-2190b6dfe306","system_id":"levelo_inurba_marseille","lat":43.24656,"lon":5.38157,"is_reserved":false,"is_disabled":false,"rental_uris":{"android":"levelo://app?vid=c4d5a3bd-30d0-43a2-aec3-2190b6dfe306","ios":"levelo://app?vid=c4d5a3bd-30d0-43a2-aec3-2190b6dfe306"},"vehicle_type_id":"4","last_reported":1766250527,"current_range_meters":11200,"station_id":"ce4bhih2rcd13ifvqfr0","pricing_plan_id":"cebpf4jnsgd1na2vs0mg"},{"bike_id":"648453d7-f0f2-4b3c-a103-62f77c10332c","system_id":"levelo_inurba_marseille","lat":43.27059,"lon":5.40257,"is_reserved":false,"is_disabled":false,"rental_uris":{"android":"levelo://app?vid=648453d7-f0f2-4b3c-a103-62f77c10332c","ios":"levelo://app?vid=648453d7-f0f2-4b3c-a103-62f77c10332c"},"vehicle_type_id":"4","last_reported":1766250527,"current_range_meters":11200,"station_id":"ce4bhk92rcd13ifvqgc0","pricing_plan_id":"cebpf4jnsgd1na2vs0mg"},{"bike_id":"c84b8e47-5802-4c21-b1cc-1df47c4f26c2","system_id":"levelo_inurba_marseille","lat":43.28476,"lon":5.48398,"is_reserved":false,"is_disabled":false,"rental_uris":{"android":"levelo://app?vid=c84b8e47-5802-4c21-b1cc-1df47c4f26c2","ios":"levelo://app?vid=c84b8e47-5802-4c21-b1cc-1df47c4f26c2"},"vehicle_type_id":"4","last_reported":1766250527,"current_range_meters":11200,"station_id":"","pricing_plan_id":"cebpf4jnsgd1na2vs0mg"},{"bike_id":"9953718c-8a1c-4d33-9538-bad625796ffa","system_id":"levelo_inurba_marseille","lat":43.28933,"lon":5.39638,"is_reserved":false,"is_disabled":false,"rental_uris":{"android":"levelo://app?vid=9953718c-8a1c-4d33-9538-bad625796ffa","ios":"levelo://app?vid=9953718c-8a1c-4d33-9538-bad625796ffa"},"vehicle_type_id":"4","last_reported":1766250527,"current_range_meters":11200,"station_id":"ce4bh3h2rcd13ifvqdn0","pricing_plan_id":"cebpf4jnsgd1na2vs0mg"},{"bike_id":"60104876-cfb4-4c08-831d-06fdc216973b","system_id":"levelo_inurba_marseille","lat":43.29983,"lon":5.38505,"is_reserved":false,"is_disabled":true,"rental_uris":{"android":"levelo://app?vid=60104876-cfb4-4c08-831d-06fdc216973b","ios":"levelo://app?vid=60104876-cfb4-4c08-831d-06fdc216973b"},"vehicle_type_id":"4","last_reported":1766250527,"current_range_meters":11200,"station_id":"ce4bgj92rcd13ifvqbd0","pricing_plan_id":"cebpf4jnsgd1na2vs0mg"},{"bike_id":"cf25fa01-3c56-4d6f-af3c-0a798011bda7","system_id":"levelo_inurba_marseille","lat":43.26759,"lon":5.39413,"is_reserved":false,"is_disabled":false,"rental_uris":{"android":"levelo://app?vid=cf25fa01-3c56-4d6f-af3c-0a798011bda7","ios":"levelo://app?vid=cf25fa01-3c56-4d6f-af3c-0a798011bda7"},"vehicle_type_id":"4","last_reported":1766250527,"current_range_meters":11200,"station_id":"ce4bhh12rcd13ifvqfg0","pricing_plan_id":"cebpf4jnsgd1na2vs0mg"},{"bike_id":"693daa65-f98e-49a9-8cb7-de40b16ccdc7","system_id":"levelo_inurba_marseille","lat":43.22571,"lon":5.41637,"is_reserved":false,"is_disabled":false,"rental_uris":{"android":"levelo://app?vid=693daa65-f98e-49a9-8cb7-de40b16ccdc7","ios":"levelo://app?vid=693daa65-f98e-49a9-8cb7-de40b16ccdc7"},"vehicle_type_id":"4","last_reported":1766250527,"current_range_meters":11200,"station_id":"st_d2o4gvlbi1j2169b742g","pricing_plan_id":"cebpf4jnsgd1na2vs0mg"},{"bike_id":"1caaad22-6ace-46c9-a3b4-1288b523af3f","system_id":"levelo_inurba_marseille","lat":43.29095,"lon":5.38129,"is_reserved":false,"is_disabled":false,"rental_uris":{"android":"levelo://app?vid=1caaad22-6ace-46c9-a3b4-1288b523af3f","ios":"levelo://app?vid=1caaad22-6ace-46c9-a3b4-1288b523af3f"},"vehicle_type_id":"4","last_reported":1766250527,"current_range_meters":11200,"station_id":"ce4bh512rcd13ifvqe2g","pricing_plan_id":"cebpf4jnsgd1na2vs0mg"},{"bike_id":"ba985f25-dab9-4a64-b841-0ddda8893f2d","system_id":"levelo_inurba_marseille","lat":43.29299,"lon":5.37146,"is_reserved":false,"is_disabled":false,"rental_uris":{"android":"levelo://app?vid=ba985f25-dab9-4a64-b841-0ddda8893f2d","ios":"levelo://app?vid=ba985f25-dab9-4a64-b841-0ddda8893f2d"},"vehicle_type_id":"4","last_reported":1766250527,"current_range_meters":11200,"station_id":"ce4bgh92rcd13ifvqb40","pricing_plan_id":"cebpf4jnsgd1na2vs0mg"},{"bike_id":"5cdf0c26-71fe-4230-ab4f-b50d47db508a","system_id":"levelo_inurba_marseille","lat":43.30135,"lon":5.39765,"is_reserved":false,"is_disabled":false,"rental_uris":{"android":"levelo://app?vid=5cdf0c26-71fe-4230-ab4f-b50d47db508a","ios":"levelo://app?vid=5cdf0c26-71fe-4230-ab4f-b50d47db508a"},"vehicle_type_id":"4","last_reported":1766250527,"current_range_meters":11600,"station_id":"","pricing_plan_id":"cebpf4jnsgd1na2vs0mg"},{"bike_id":"628a75f3-7312-4f05-a812-11eaca59fded","system_id":"levelo_inurba_marseille","lat":43.284889,"lon":5.385741,"is_reserved":false,"is_disabled":false,"rental_uris":{"android":"levelo://app?vid=628a75f3-7312-4f05-a812-11eaca59fded","ios":"levelo://app?vid=628a75f3-7312-4f05-a812-11eaca59fded"},"vehicle_type_id":"4","last_reported":1766250527,"current_range_meters":11600,"station_id":"ce4bh8p2rcd13ifvqeb0","pricing_plan_id":"cebpf4jnsgd1na2vs0mg"},{"bike_id":"7805d77b-04d7-43bf-aba7-0ada439e7ea9","system_id":"levelo_inurba_marseille","lat":43.286942,"lon":5.373866,"is_reserved":false,"is_disabled":false,"rental_uris":{"android":"levelo://app?vid=7805d77b-04d7-43bf-aba7-0ada439e7ea9","ios":"levelo://app?vid=7805d77b-04d7-43bf-aba7-0ada439e7ea9"},"vehicle_type_id":"4","last_reported":1766250527,"current_range_meters":11600,"station_id":"ce4bh3p2rcd13ifvqdq0","pricing_plan_id":"cebpf4jnsgd1na2vs0mg"},{"bike_id":"cc90e2c4-8295-441e-9856-0e38a6c7e045","system_id":"levelo_inurba_marseille","lat":43.29569,"lon":5.40631,"is_reserved":false,"is_disabled":false,"rental_uris":{"android":"levelo://app?vid=cc90e2c4-8295-441e-9856-0e38a6c7e045","ios":"levelo://app?vid=cc90e2c4-8295-441e-9856-0e38a6c7e045"},"vehicle_type_id":"4","last_reported":1766250527,"current_range_meters":11600,"station_id":"","pricing_plan_id":"cebpf4jnsgd1na2vs0mg"},{"bike_id":"8b97c042-41fa-4c3e-996e-e9d355c7db94","system_id":"levelo_inurba_marseille","lat":43.28156,"lon":5.4266,"is_reserved":false,"is_disabled":false,"rental_uris":{"android":"levelo://app?vid=8b97c042-41fa-4c3e-996e-e9d355c7db94","ios":"levelo://app?vid=8b97c042-41fa-4c3e-996e-e9d355c7db94"},"vehicle_type_id":"4","last_reported":1766250527,"current_range_meters":11600,"station_id":"ce4bhnh2rcd13ifvqgug","pricing_plan_id":"cebpf4jnsgd1na2vs0mg"},{"bike_id":"e9d9572b-ddba-424a-8878-decd1227ae70","system_id":"levelo_inurba_marseille","lat":43.28933,"lon":5.36638,"is_reserved":false,"is_disabled":false,"rental_uris":{"android":"levelo://app?vid=e9d9572b-ddba-424a-8878-decd1227ae70","ios":"levelo://app?vid=e9d9572b-ddba-424a-8878-decd1227ae70"},"vehicle_type_id":"4","last_reported":1766250527,"current_range_meters":11600,"station_id":"ce4bhap2rcd13ifvqek0","pricing_plan_id":"cebpf4jnsgd1na2vs0mg"},{"bike_id":"98c040ff-ac12-4358-bded-c79cb9358db9","system_id":"levelo_inurba_marseille","lat":43.31721,"lon":5.42397,"is_reserved":false,"is_disabled":false,"rental_uris":{"android":"levelo://app?vid=98c040ff-ac12-4358-bded-c79cb9358db9","ios":"levelo://app?vid=98c040ff-ac12-4358-bded-c79cb9358db9"},"vehicle_type_id":"4","last_reported":1766250527,"current_range_meters":11600,"station_id":"ce4bhp92rcd13ifvqhbg","pricing_plan_id":"cebpf4jnsgd1na2vs0mg"},{"bike_id":"eae778c4-f067-428b-8587-0793d9f0f425","system_id":"levelo_inurba_marseille","lat":43.29571,"lon":5.3752,"is_reserved":false,"is_disabled":false,"rental_uris":{"android":"levelo://app?vid=eae778c4-f067-428b-8587-0793d9f0f425","ios":"levelo://app?vid=eae778c4-f067-428b-8587-0793d9f0f425"},"vehicle_type_id":"4","last_reported":1766250527,"current_range_meters":11600,"station_id":"ce4bgh92rcd13ifvqb50","pricing_plan_id":"cebpf4jnsgd1na2vs0mg"},{"bike_id":"7b09ba4b-ab3d-4540-880f-9ef0db668bfc","system_id":"levelo_inurba_marseille","lat":43.29511,"lon":5.39392,"is_reserved":false,"is_disabled":false,"rental_uris":{"android":"levelo://app?vid=7b09ba4b-ab3d-4540-880f-9ef0db668bfc","ios":"levelo://app?vid=7b09ba4b-ab3d-4540-880f-9ef0db668bfc"},"vehicle_type_id":"4","last_reported":1766250527,"current_range_meters":11600,"station_id":"ce4bh292rcd13ifvqdf0","pricing_plan_id":"cebpf4jnsgd1na2vs0mg"},{"bike_id":"2a0b8521-e8c2-435f-ac2a-f305f0065e9f","system_id":"levelo_inurba_marseille","lat":43.211899,"lon":5.350741,"is_reserved":false,"is_disabled":false,"rental_uris":{"android":"levelo://app?vid=2a0b8521-e8c2-435f-ac2a-f305f0065e9f","ios":"levelo://app?vid=2a0b8521-e8c2-435f-ac2a-f305f0065e9f"},"vehicle_type_id":"4","last_reported":1766250527,"current_range_meters":12000,"station_id":"st_cvj6sg6p6f1abm77japg","pricing_plan_id":"cebpf4jnsgd1na2vs0mg"},{"bike_id":"1a399a16-62ed-47ae-ba1c-654e7762c033","system_id":"levelo_inurba_marseille","lat":43.3002,"lon":5.38003,"is_reserved":false,"is_disabled":false,"rental_uris":{"android":"levelo://app?vid=1a399a16-62ed-47ae-ba1c-654e7762c033","ios":"levelo://app?vid=1a399a16-62ed-47ae-ba1c-654e7762c033"},"vehicle_type_id":"4","last_reported":1766250527,"current_range_meters":12000,"station_id":"","pricing_plan_id":"cebpf4jnsgd1na2vs0mg"},{"bike_id":"40443f3c-b678-47a5-8ec5-cc503610ad5a","system_id":"levelo_inurba_marseille","lat":43.2866,"lon":5.36343,"is_reserved":false,"is_disabled":false,"rental_uris":{"android":"levelo://app?vid=40443f3c-b678-47a5-8ec5-cc503610ad5a","ios":"levelo://app?vid=40443f3c-b678-47a5-8ec5-cc503610ad5a"},"vehicle_type_id":"4","last_reported":1766250527,"current_range_meters":12000,"station_id":"ce4bhah2rcd13ifvqej0","pricing_plan_id":"cebpf4jnsgd1na2vs0mg"},{"bike_id":"ac69310b-48fc-4542-b776-5797f9034e72","system_id":"levelo_inurba_marseille","lat":43.29813,"lon":5.44071,"is_reserved":false,"is_disabled":false,"rental_uris":{"android":"levelo://app?vid=ac69310b-48fc-4542-b776-5797f9034e72","ios":"levelo://app?vid=ac69310b-48fc-4542-b776-5797f9034e72"},"vehicle_type_id":"4","last_reported":1766250527,"current_range_meters":12000,"station_id":"st_d3jp68qikq2c7381ktn0","pricing_plan_id":"cebpf4jnsgd1na2vs0mg"},{"bike_id":"6321fe57-59f4-4d15-83e3-f64320476ab2","system_id":"levelo_inurba_marseille","lat":43.21197,"lon":5.35073,"is_reserved":false,"is_disabled":false,"rental_uris":{"android":"levelo://app?vid=6321fe57-59f4-4d15-83e3-f64320476ab2","ios":"levelo://app?vid=6321fe57-59f4-4d15-83e3-f64320476ab2"},"vehicle_type_id":"4","last_reported":1766250527,"current_range_meters":12000,"station_id":"st_cvj6sg6p6f1abm77japg","pricing_plan_id":"cebpf4jnsgd1na2vs0mg"},{"bike_id":"f3718731-22e8-48f9-bdc9-85867161b03f","system_id":"levelo_inurba_marseille","lat":43.309969,"lon":5.40328,"is_reserved":false,"is_disabled":false,"rental_uris":{"android":"levelo://app?vid=f3718731-22e8-48f9-bdc9-85867161b03f","ios":"levelo://app?vid=f3718731-22e8-48f9-bdc9-85867161b03f"},"vehicle_type_id":"4","last_reported":1766250527,"current_range_meters":12000,"station_id":"","pricing_plan_id":"cebpf4jnsgd1na2vs0mg"},{"bike_id":"8eaf57a2-4316-4c2c-b72b-aabc1498d7c3","system_id":"levelo_inurba_marseille","lat":43.24064,"lon":5.37751,"is_reserved":false,"is_disabled":false,"rental_uris":{"android":"levelo://app?vid=8eaf57a2-4316-4c2c-b72b-aabc1498d7c3","ios":"levelo://app?vid=8eaf57a2-4316-4c2c-b72b-aabc1498d7c3"},"vehicle_type_id":"4","last_reported":1766250527,"current_range_meters":12000,"station_id":"ce4bhnp2rcd13ifvqgvg","pricing_plan_id":"cebpf4jnsgd1na2vs0mg"},{"bike_id":"ae977d6c-e9ef-41f7-b804-ef0e4fe2355a","system_id":"levelo_inurba_marseille","lat":43.27175,"lon":5.39195,"is_reserved":false,"is_disabled":false,"rental_uris":{"android":"levelo://app?vid=ae977d6c-e9ef-41f7-b804-ef0e4fe2355a","ios":"levelo://app?vid=ae977d6c-e9ef-41f7-b804-ef0e4fe2355a"},"vehicle_type_id":"4","last_reported":1766250527,"current_range_meters":12000,"station_id":"ce4bhhp2rcd13ifvqfm0","pricing_plan_id":"cebpf4jnsgd1na2vs0mg"},{"bike_id":"53913274-1b54-4175-a60a-b4860efcb86b","system_id":"levelo_inurba_marseille","lat":43.28921,"lon":5.384,"is_reserved":false,"is_disabled":false,"rental_uris":{"android":"levelo://app?vid=53913274-1b54-4175-a60a-b4860efcb86b","ios":"levelo://app?vid=53913274-1b54-4175-a60a-b4860efcb86b"},"vehicle_type_id":"4","last_reported":1766250527,"current_range_meters":12000,"station_id":"ce4bh612rcd13ifvqe6g","pricing_plan_id":"cebpf4jnsgd1na2vs0mg"},{"bike_id":"c328caa6-418f-4ee3-ac4e-abe84a3a4470","system_id":"levelo_inurba_marseille","lat":43.296279,"lon":5.377172,"is_reserved":false,"is_disabled":false,"rental_uris":{"android":"levelo://app?vid=c328caa6-418f-4ee3-ac4e-abe84a3a4470","ios":"levelo://app?vid=c328caa6-418f-4ee3-ac4e-abe84a3a4470"},"vehicle_type_id":"4","last_reported":1766250527,"current_range_meters":12000,"station_id":"ce4bgi92rcd13ifvqb90","pricing_plan_id":"cebpf4jnsgd1na2vs0mg"},{"bike_id":"457d2682-0638-4423-84da-58235c6d99ac","system_id":"levelo_inurba_marseille","lat":43.24473,"lon":5.42554,"is_reserved":false,"is_disabled":false,"rental_uris":{"android":"levelo://app?vid=457d2682-0638-4423-84da-58235c6d99ac","ios":"levelo://app?vid=457d2682-0638-4423-84da-58235c6d99ac"},"vehicle_type_id":"4","last_reported":1766250527,"current_range_meters":12000,"station_id":"st_d4a3vfp97mjs738cd8kg","pricing_plan_id":"cebpf4jnsgd1na2vs0mg"},{"bike_id":"f247771e-2838-4c74-9387-68cb8feccb4e","system_id":"levelo_inurba_marseille","lat":43.28574,"lon":5.40478,"is_reserved":false,"is_disabled":false,"rental_uris":{"android":"levelo://app?vid=f247771e-2838-4c74-9387-68cb8feccb4e","ios":"levelo://app?vid=f247771e-2838-4c74-9387-68cb8feccb4e"},"vehicle_type_id":"4","last_reported":1766250527,"current_range_meters":12000,"station_id":"","pricing_plan_id":"cebpf4jnsgd1na2vs0mg"},{"bike_id":"b444bccd-9818-4f6c-b258-75bc4f819527","system_id":"levelo_inurba_marseille","lat":43.26812,"lon":5.40263,"is_reserved":false,"is_disabled":false,"rental_uris":{"android":"levelo://app?vid=b444bccd-9818-4f6c-b258-75bc4f819527","ios":"levelo://app?vid=b444bccd-9818-4f6c-b258-75bc4f819527"},"vehicle_type_id":"4","last_reported":1766250527,"current_range_meters":12000,"station_id":"ce501612rcd8frsf0b60","pricing_plan_id":"cebpf4jnsgd1na2vs0mg"},{"bike_id":"de4957ca-9c93-409a-ae9b-9b8d86479fcf","system_id":"levelo_inurba_marseille","lat":43.29541,"lon":5.37485,"is_reserved":false,"is_disabled":true,"rental_uris":{"android":"levelo://app?vid=de4957ca-9c93-409a-ae9b-9b8d86479fcf","ios":"levelo://app?vid=de4957ca-9c93-409a-ae9b-9b8d86479fcf"},"vehicle_type_id":"4","last_reported":1766250527,"current_range_meters":12400,"station_id":"ce4bgkp2rcd13ifvqbmg","pricing_plan_id":"cebpf4jnsgd1na2vs0mg"},{"bike_id":"167ff5eb-f7ec-4a9a-a389-047000be67d8","system_id":"levelo_inurba_marseille","lat":43.281478,"lon":5.4264,"is_reserved":false,"is_disabled":false,"rental_uris":{"android":"levelo://app?vid=167ff5eb-f7ec-4a9a-a389-047000be67d8","ios":"levelo://app?vid=167ff5eb-f7ec-4a9a-a389-047000be67d8"},"vehicle_type_id":"4","last_reported":1766250527,"current_range_meters":12400,"station_id":"ce4bhnh2rcd13ifvqgug","pricing_plan_id":"cebpf4jnsgd1na2vs0mg"},{"bike_id":"c5a717f3-2cb2-4d2f-8d33-7308f18b1ff2","system_id":"levelo_inurba_marseille","lat":43.30261,"lon":5.40069,"is_reserved":false,"is_disabled":false,"rental_uris":{"android":"levelo://app?vid=c5a717f3-2cb2-4d2f-8d33-7308f18b1ff2","ios":"levelo://app?vid=c5a717f3-2cb2-4d2f-8d33-7308f18b1ff2"},"vehicle_type_id":"4","last_reported":1766250527,"current_range_meters":12400,"station_id":"ce4bgvh2rcd13ifvqcs0","pricing_plan_id":"cebpf4jnsgd1na2vs0mg"},{"bike_id":"3d83c8df-3de9-4f9c-84df-7eb08637e321","system_id":"levelo_inurba_marseille","lat":43.2929,"lon":5.37482,"is_reserved":false,"is_disabled":false,"rental_uris":{"android":"levelo://app?vid=3d83c8df-3de9-4f9c-84df-7eb08637e321","ios":"levelo://app?vid=3d83c8df-3de9-4f9c-84df-7eb08637e321"},"vehicle_type_id":"4","last_reported":1766250527,"current_range_meters":12400,"station_id":"ce4bgi12rcd13ifvqb70","pricing_plan_id":"cebpf4jnsgd1na2vs0mg"},{"bike_id":"00a29bb1-88ca-440d-9219-07d673c689ed","system_id":"levelo_inurba_marseille","lat":43.30501,"lon":5.36589,"is_reserved":false,"is_disabled":false,"rental_uris":{"android":"levelo://app?vid=00a29bb1-88ca-440d-9219-07d673c689ed","ios":"levelo://app?vid=00a29bb1-88ca-440d-9219-07d673c689ed"},"vehicle_type_id":"4","last_reported":1766250527,"current_range_meters":12400,"station_id":"","pricing_plan_id":"cebpf4jnsgd1na2vs0mg"},{"bike_id":"50b8d03a-86ed-4938-93de-772d12cbc21e","system_id":"levelo_inurba_marseille","lat":43.31244,"lon":5.36891,"is_reserved":false,"is_disabled":false,"rental_uris":{"android":"levelo://app?vid=50b8d03a-86ed-4938-93de-772d12cbc21e","ios":"levelo://app?vid=50b8d03a-86ed-4938-93de-772d12cbc21e"},"vehicle_type_id":"4","last_reported":1766250527,"current_range_meters":12400,"station_id":"ce4bgl92rcd13ifvqbq0","pricing_plan_id":"cebpf4jnsgd1na2vs0mg"},{"bike_id":"2bee4841-0ae7-409e-b35a-5ba05da260cb","system_id":"levelo_inurba_marseille","lat":43.27907,"lon":5.3801,"is_reserved":false,"is_disabled":false,"rental_uris":{"android":"levelo://app?vid=2bee4841-0ae7-409e-b35a-5ba05da260cb","ios":"levelo://app?vid=2bee4841-0ae7-409e-b35a-5ba05da260cb"},"vehicle_type_id":"4","last_reported":1766250527,"current_range_meters":12400,"station_id":"ce4bhf92rcd13ifvqf50","pricing_plan_id":"cebpf4jnsgd1na2vs0mg"},{"bike_id":"8c1ab11e-9e0c-4d16-a145-c73e6f57ea67","system_id":"levelo_inurba_marseille","lat":43.30138,"lon":5.37406,"is_reserved":false,"is_disabled":false,"rental_uris":{"android":"levelo://app?vid=8c1ab11e-9e0c-4d16-a145-c73e6f57ea67","ios":"levelo://app?vid=8c1ab11e-9e0c-4d16-a145-c73e6f57ea67"},"vehicle_type_id":"4","last_reported":1766250527,"current_range_meters":12400,"station_id":"ce4bgs92rcd13ifvqcc0","pricing_plan_id":"cebpf4jnsgd1na2vs0mg"},{"bike_id":"85f80c36-b01d-4148-8a0f-5ed00798dda8","system_id":"levelo_inurba_marseille","lat":43.301007,"lon":5.365132,"is_reserved":false,"is_disabled":false,"rental_uris":{"android":"levelo://app?vid=85f80c36-b01d-4148-8a0f-5ed00798dda8","ios":"levelo://app?vid=85f80c36-b01d-4148-8a0f-5ed00798dda8"},"vehicle_type_id":"4","last_reported":1766250527,"current_range_meters":12400,"station_id":"","pricing_plan_id":"cebpf4jnsgd1na2vs0mg"},{"bike_id":"b2458751-b81b-453b-a556-5951285d81dd","system_id":"levelo_inurba_marseille","lat":43.29975,"lon":5.38489,"is_reserved":false,"is_disabled":false,"rental_uris":{"android":"levelo://app?vid=b2458751-b81b-453b-a556-5951285d81dd","ios":"levelo://app?vid=b2458751-b81b-453b-a556-5951285d81dd"},"vehicle_type_id":"4","last_reported":1766250527,"current_range_meters":12400,"station_id":"ce4bgj92rcd13ifvqbd0","pricing_plan_id":"cebpf4jnsgd1na2vs0mg"},{"bike_id":"28ad1a9a-391c-435e-96a8-1e7f1aea86aa","system_id":"levelo_inurba_marseille","lat":43.301232,"lon":5.43122,"is_reserved":false,"is_disabled":false,"rental_uris":{"android":"levelo://app?vid=28ad1a9a-391c-435e-96a8-1e7f1aea86aa","ios":"levelo://app?vid=28ad1a9a-391c-435e-96a8-1e7f1aea86aa"},"vehicle_type_id":"4","last_reported":1766250527,"current_range_meters":12800,"station_id":"st_d3js3co5814s73ftftug","pricing_plan_id":"cebpf4jnsgd1na2vs0mg"},{"bike_id":"2964d339-565e-4966-a8d5-dd5de314e6fd","system_id":"levelo_inurba_marseille","lat":43.323643,"lon":5.367367,"is_reserved":false,"is_disabled":false,"rental_uris":{"android":"levelo://app?vid=2964d339-565e-4966-a8d5-dd5de314e6fd","ios":"levelo://app?vid=2964d339-565e-4966-a8d5-dd5de314e6fd"},"vehicle_type_id":"4","last_reported":1766250527,"current_range_meters":12800,"station_id":"ce4bhsh2rcd13ifvqi2g","pricing_plan_id":"cebpf4jnsgd1na2vs0mg"},{"bike_id":"cf01deac-2376-4d88-bc76-849623b1c99e","system_id":"levelo_inurba_marseille","lat":43.30774,"lon":5.37646,"is_reserved":false,"is_disabled":false,"rental_uris":{"android":"levelo://app?vid=cf01deac-2376-4d88-bc76-849623b1c99e","ios":"levelo://app?vid=cf01deac-2376-4d88-bc76-849623b1c99e"},"vehicle_type_id":"4","last_reported":1766250527,"current_range_meters":12800,"station_id":"ce4bgv92rcd13ifvqcq0","pricing_plan_id":"cebpf4jnsgd1na2vs0mg"},{"bike_id":"b4c06ecc-7a46-4aca-a09e-6e605e584bbd","system_id":"levelo_inurba_marseille","lat":43.2978,"lon":5.44075,"is_reserved":false,"is_disabled":false,"rental_uris":{"android":"levelo://app?vid=b4c06ecc-7a46-4aca-a09e-6e605e584bbd","ios":"levelo://app?vid=b4c06ecc-7a46-4aca-a09e-6e605e584bbd"},"vehicle_type_id":"4","last_reported":1766250527,"current_range_meters":12800,"station_id":"st_d3jp68qikq2c7381ktn0","pricing_plan_id":"cebpf4jnsgd1na2vs0mg"},{"bike_id":"c9efb63e-b0f0-47bc-9979-73e35fef1fe0","system_id":"levelo_inurba_marseille","lat":43.21746,"lon":5.34612,"is_reserved":false,"is_disabled":false,"rental_uris":{"android":"levelo://app?vid=c9efb63e-b0f0-47bc-9979-73e35fef1fe0","ios":"levelo://app?vid=c9efb63e-b0f0-47bc-9979-73e35fef1fe0"},"vehicle_type_id":"4","last_reported":1766250527,"current_range_meters":12800,"station_id":"st_cvj6r9ubvosntc0bgbag","pricing_plan_id":"cebpf4jnsgd1na2vs0mg"},{"bike_id":"f1a91494-4ea9-498a-8b4d-c2877ea07d2f","system_id":"levelo_inurba_marseille","lat":43.335476,"lon":5.374638,"is_reserved":false,"is_disabled":false,"rental_uris":{"android":"levelo://app?vid=f1a91494-4ea9-498a-8b4d-c2877ea07d2f","ios":"levelo://app?vid=f1a91494-4ea9-498a-8b4d-c2877ea07d2f"},"vehicle_type_id":"4","last_reported":1766250527,"current_range_meters":12800,"station_id":"st_d46tts09ee8s73dlu43g","pricing_plan_id":"cebpf4jnsgd1na2vs0mg"},{"bike_id":"a8848b83-4516-4b82-bd01-22d44a0d2599","system_id":"levelo_inurba_marseille","lat":43.29012,"lon":5.38111,"is_reserved":false,"is_disabled":false,"rental_uris":{"android":"levelo://app?vid=a8848b83-4516-4b82-bd01-22d44a0d2599","ios":"levelo://app?vid=a8848b83-4516-4b82-bd01-22d44a0d2599"},"vehicle_type_id":"4","last_reported":1766250527,"current_range_meters":12800,"station_id":"ce4bh4p2rcd13ifvqe1g","pricing_plan_id":"cebpf4jnsgd1na2vs0mg"},{"bike_id":"c0fb8cc1-ebe9-4001-a3ec-0d3fc87db3d9","system_id":"levelo_inurba_marseille","lat":43.34354,"lon":5.35512,"is_reserved":false,"is_disabled":false,"rental_uris":{"android":"levelo://app?vid=c0fb8cc1-ebe9-4001-a3ec-0d3fc87db3d9","ios":"levelo://app?vid=c0fb8cc1-ebe9-4001-a3ec-0d3fc87db3d9"},"vehicle_type_id":"4","last_reported":1766250527,"current_range_meters":12800,"station_id":"","pricing_plan_id":"cebpf4jnsgd1na2vs0mg"},{"bike_id":"1297d7d4-6788-43a1-ac73-4fb6d116076e","system_id":"levelo_inurba_marseille","lat":43.29539,"lon":5.37506,"is_reserved":false,"is_disabled":true,"rental_uris":{"android":"levelo://app?vid=1297d7d4-6788-43a1-ac73-4fb6d116076e","ios":"levelo://app?vid=1297d7d4-6788-43a1-ac73-4fb6d116076e"},"vehicle_type_id":"4","last_reported":1766250527,"current_range_meters":12800,"station_id":"ce4bgkp2rcd13ifvqbmg","pricing_plan_id":"cebpf4jnsgd1na2vs0mg"},{"bike_id":"9d21dcb0-ce26-48db-a303-317550439f40","system_id":"levelo_inurba_marseille","lat":43.284827,"lon":5.483958,"is_reserved":false,"is_disabled":false,"rental_uris":{"android":"levelo://app?vid=9d21dcb0-ce26-48db-a303-317550439f40","ios":"levelo://app?vid=9d21dcb0-ce26-48db-a303-317550439f40"},"vehicle_type_id":"4","last_reported":1766250527,"current_range_meters":12800,"station_id":"st_d3svhcjqgbts73a3dn0g","pricing_plan_id":"cebpf4jnsgd1na2vs0mg"},{"bike_id":"49b32667-a5b9-4886-84eb-14582b80721d","system_id":"levelo_inurba_marseille","lat":43.29765,"lon":5.37697,"is_reserved":false,"is_disabled":false,"rental_uris":{"android":"levelo://app?vid=49b32667-a5b9-4886-84eb-14582b80721d","ios":"levelo://app?vid=49b32667-a5b9-4886-84eb-14582b80721d"},"vehicle_type_id":"4","last_reported":1766250527,"current_range_meters":12800,"station_id":"","pricing_plan_id":"cebpf4jnsgd1na2vs0mg"},{"bike_id":"f9df09a0-3737-4582-8136-0e0c747a0f9b","system_id":"levelo_inurba_marseille","lat":43.32347,"lon":5.36729,"is_reserved":false,"is_disabled":false,"rental_uris":{"android":"levelo://app?vid=f9df09a0-3737-4582-8136-0e0c747a0f9b","ios":"levelo://app?vid=f9df09a0-3737-4582-8136-0e0c747a0f9b"},"vehicle_type_id":"4","last_reported":1766250527,"current_range_meters":12800,"station_id":"ce4bhsh2rcd13ifvqi2g","pricing_plan_id":"cebpf4jnsgd1na2vs0mg"},{"bike_id":"2154a936-f819-49ae-b7ae-2734365f2c42","system_id":"levelo_inurba_marseille","lat":43.335436,"lon":5.374693,"is_reserved":false,"is_disabled":false,"rental_uris":{"android":"levelo://app?vid=2154a936-f819-49ae-b7ae-2734365f2c42","ios":"levelo://app?vid=2154a936-f819-49ae-b7ae-2734365f2c42"},"vehicle_type_id":"4","last_reported":1766250527,"current_range_meters":13600,"station_id":"st_d46tts09ee8s73dlu43g","pricing_plan_id":"cebpf4jnsgd1na2vs0mg"},{"bike_id":"7003f313-702d-4b1e-9579-528ba4d56198","system_id":"levelo_inurba_marseille","lat":43.30129,"lon":5.38079,"is_reserved":false,"is_disabled":false,"rental_uris":{"android":"levelo://app?vid=7003f313-702d-4b1e-9579-528ba4d56198","ios":"levelo://app?vid=7003f313-702d-4b1e-9579-528ba4d56198"},"vehicle_type_id":"4","last_reported":1766250527,"current_range_meters":13600,"station_id":"ce4bgjp2rcd13ifvqbh0","pricing_plan_id":"cebpf4jnsgd1na2vs0mg"},{"bike_id":"8bbcdc5d-1751-4d82-93eb-b68a7300128d","system_id":"levelo_inurba_marseille","lat":43.29524,"lon":5.37504,"is_reserved":false,"is_disabled":false,"rental_uris":{"android":"levelo://app?vid=8bbcdc5d-1751-4d82-93eb-b68a7300128d","ios":"levelo://app?vid=8bbcdc5d-1751-4d82-93eb-b68a7300128d"},"vehicle_type_id":"4","last_reported":1766250527,"current_range_meters":13600,"station_id":"ce4bgkp2rcd13ifvqbmg","pricing_plan_id":"cebpf4jnsgd1na2vs0mg"},{"bike_id":"4e1645a4-82f2-43c1-bc21-d3f50c404b29","system_id":"levelo_inurba_marseille","lat":43.2977,"lon":5.39314,"is_reserved":false,"is_disabled":false,"rental_uris":{"android":"levelo://app?vid=4e1645a4-82f2-43c1-bc21-d3f50c404b29","ios":"levelo://app?vid=4e1645a4-82f2-43c1-bc21-d3f50c404b29"},"vehicle_type_id":"4","last_reported":1766250527,"current_range_meters":13600,"station_id":"chh1huq6cuj3fo74tm60","pricing_plan_id":"cebpf4jnsgd1na2vs0mg"},{"bike_id":"ad96ab35-147e-4b00-8b43-b29c4d85a4c0","system_id":"levelo_inurba_marseille","lat":43.29528,"lon":5.375,"is_reserved":false,"is_disabled":false,"rental_uris":{"android":"levelo://app?vid=ad96ab35-147e-4b00-8b43-b29c4d85a4c0","ios":"levelo://app?vid=ad96ab35-147e-4b00-8b43-b29c4d85a4c0"},"vehicle_type_id":"4","last_reported":1766250527,"current_range_meters":13600,"station_id":"","pricing_plan_id":"cebpf4jnsgd1na2vs0mg"},{"bike_id":"45b3a73c-e9b6-4931-ada5-9d5d6e442380","system_id":"levelo_inurba_marseille","lat":43.2846,"lon":5.35869,"is_reserved":false,"is_disabled":false,"rental_uris":{"android":"levelo://app?vid=45b3a73c-e9b6-4931-ada5-9d5d6e442380","ios":"levelo://app?vid=45b3a73c-e9b6-4931-ada5-9d5d6e442380"},"vehicle_type_id":"4","last_reported":1766250527,"current_range_meters":13600,"station_id":"ce4bhah2rcd13ifvqei0","pricing_plan_id":"cebpf4jnsgd1na2vs0mg"},{"bike_id":"01593cfa-819b-4cb8-8869-79ca5557fd19","system_id":"levelo_inurba_marseille","lat":43.292995,"lon":5.374656,"is_reserved":false,"is_disabled":false,"rental_uris":{"android":"levelo://app?vid=01593cfa-819b-4cb8-8869-79ca5557fd19","ios":"levelo://app?vid=01593cfa-819b-4cb8-8869-79ca5557fd19"},"vehicle_type_id":"4","last_reported":1766250527,"current_range_meters":13600,"station_id":"ce4bgi12rcd13ifvqb70","pricing_plan_id":"cebpf4jnsgd1na2vs0mg"},{"bike_id":"5491ba2d-879f-4b77-998b-0dbe45716a5a","system_id":"levelo_inurba_marseille","lat":43.2989,"lon":5.39741,"is_reserved":false,"is_disabled":false,"rental_uris":{"android":"levelo://app?vid=5491ba2d-879f-4b77-998b-0dbe45716a5a","ios":"levelo://app?vid=5491ba2d-879f-4b77-998b-0dbe45716a5a"},"vehicle_type_id":"4","last_reported":1766250527,"current_range_meters":13600,"station_id":"ce4bh0h2rcd13ifvqd50","pricing_plan_id":"cebpf4jnsgd1na2vs0mg"},{"bike_id":"da3212ac-34ca-4ca9-a9e5-cf919324b557","system_id":"levelo_inurba_marseille","lat":43.24666,"lon":5.38172,"is_reserved":false,"is_disabled":false,"rental_uris":{"android":"levelo://app?vid=da3212ac-34ca-4ca9-a9e5-cf919324b557","ios":"levelo://app?vid=da3212ac-34ca-4ca9-a9e5-cf919324b557"},"vehicle_type_id":"4","last_reported":1766250527,"current_range_meters":13600,"station_id":"ce4bhih2rcd13ifvqfr0","pricing_plan_id":"cebpf4jnsgd1na2vs0mg"},{"bike_id":"78380e46-87cc-4ab9-97e2-76d15083f5e7","system_id":"levelo_inurba_marseille","lat":43.31078,"lon":5.40092,"is_reserved":false,"is_disabled":false,"rental_uris":{"android":"levelo://app?vid=78380e46-87cc-4ab9-97e2-76d15083f5e7","ios":"levelo://app?vid=78380e46-87cc-4ab9-97e2-76d15083f5e7"},"vehicle_type_id":"4","last_reported":1766250527,"current_range_meters":13600,"station_id":"","pricing_plan_id":"cebpf4jnsgd1na2vs0mg"},{"bike_id":"18b13912-15b9-4bcf-af2d-ee59e78dff38","system_id":"levelo_inurba_marseille","lat":43.29525,"lon":5.38537,"is_reserved":false,"is_disabled":false,"rental_uris":{"android":"levelo://app?vid=18b13912-15b9-4bcf-af2d-ee59e78dff38","ios":"levelo://app?vid=18b13912-15b9-4bcf-af2d-ee59e78dff38"},"vehicle_type_id":"4","last_reported":1766250527,"current_range_meters":13600,"station_id":"ce4bgih2rcd13ifvqba0","pricing_plan_id":"cebpf4jnsgd1na2vs0mg"},{"bike_id":"ab337bae-f985-42ac-a822-8cc38b42992f","system_id":"levelo_inurba_marseille","lat":43.29784,"lon":5.38094,"is_reserved":false,"is_disabled":false,"rental_uris":{"android":"levelo://app?vid=ab337bae-f985-42ac-a822-8cc38b42992f","ios":"levelo://app?vid=ab337bae-f985-42ac-a822-8cc38b42992f"},"vehicle_type_id":"4","last_reported":1766250527,"current_range_meters":13600,"station_id":"ce4bgip2rcd13ifvqbb0","pricing_plan_id":"cebpf4jnsgd1na2vs0mg"},{"bike_id":"f3fdb73c-e2e3-4dd3-a99d-4f3e3986936b","system_id":"levelo_inurba_marseille","lat":43.22564,"lon":5.41626,"is_reserved":false,"is_disabled":false,"rental_uris":{"android":"levelo://app?vid=f3fdb73c-e2e3-4dd3-a99d-4f3e3986936b","ios":"levelo://app?vid=f3fdb73c-e2e3-4dd3-a99d-4f3e3986936b"},"vehicle_type_id":"4","last_reported":1766250527,"current_range_meters":13600,"station_id":"st_d2o4gvlbi1j2169b742g","pricing_plan_id":"cebpf4jnsgd1na2vs0mg"},{"bike_id":"4c78dd1f-142e-4678-9ed9-4be39e68c023","system_id":"levelo_inurba_marseille","lat":43.30548,"lon":5.365323,"is_reserved":false,"is_disabled":false,"rental_uris":{"android":"levelo://app?vid=4c78dd1f-142e-4678-9ed9-4be39e68c023","ios":"levelo://app?vid=4c78dd1f-142e-4678-9ed9-4be39e68c023"},"vehicle_type_id":"4","last_reported":1766250527,"current_range_meters":13600,"station_id":"ce4bgs12rcd13ifvqcag","pricing_plan_id":"cebpf4jnsgd1na2vs0mg"},{"bike_id":"20f695e8-1c9b-490f-9171-75b5efa04983","system_id":"levelo_inurba_marseille","lat":43.27316,"lon":5.39091,"is_reserved":false,"is_disabled":false,"rental_uris":{"android":"levelo://app?vid=20f695e8-1c9b-490f-9171-75b5efa04983","ios":"levelo://app?vid=20f695e8-1c9b-490f-9171-75b5efa04983"},"vehicle_type_id":"4","last_reported":1766250527,"current_range_meters":14000,"station_id":"ce4bhgp2rcd13ifvqfe0","pricing_plan_id":"cebpf4jnsgd1na2vs0mg"},{"bike_id":"936e98f1-7ab8-4635-915e-814001d49c60","system_id":"levelo_inurba_marseille","lat":43.2846,"lon":5.35882,"is_reserved":false,"is_disabled":false,"rental_uris":{"android":"levelo://app?vid=936e98f1-7ab8-4635-915e-814001d49c60","ios":"levelo://app?vid=936e98f1-7ab8-4635-915e-814001d49c60"},"vehicle_type_id":"4","last_reported":1766250527,"current_range_meters":14000,"station_id":"ce4bhah2rcd13ifvqei0","pricing_plan_id":"cebpf4jnsgd1na2vs0mg"},{"bike_id":"f05b1d45-099e-428c-8304-1aeb2bda8a9a","system_id":"levelo_inurba_marseille","lat":43.231893,"lon":5.355693,"is_reserved":false,"is_disabled":true,"rental_uris":{"android":"levelo://app?vid=f05b1d45-099e-428c-8304-1aeb2bda8a9a","ios":"levelo://app?vid=f05b1d45-099e-428c-8304-1aeb2bda8a9a"},"vehicle_type_id":"4","last_reported":1766250527,"current_range_meters":14000,"station_id":"ce4bhu92rcd13ifvqi70","pricing_plan_id":"cebpf4jnsgd1na2vs0mg"},{"bike_id":"27c6cab6-027c-4350-9b9c-20490c10cfe9","system_id":"levelo_inurba_marseille","lat":43.32496,"lon":5.38307,"is_reserved":false,"is_disabled":false,"rental_uris":{"android":"levelo://app?vid=27c6cab6-027c-4350-9b9c-20490c10cfe9","ios":"levelo://app?vid=27c6cab6-027c-4350-9b9c-20490c10cfe9"},"vehicle_type_id":"4","last_reported":1766250527,"current_range_meters":14000,"station_id":"st_d4asgbiv49dc73anf9m0","pricing_plan_id":"cebpf4jnsgd1na2vs0mg"},{"bike_id":"894b07af-2d2b-4e6f-add6-20e2189c2168","system_id":"levelo_inurba_marseille","lat":43.26956,"lon":5.38617,"is_reserved":false,"is_disabled":false,"rental_uris":{"android":"levelo://app?vid=894b07af-2d2b-4e6f-add6-20e2189c2168","ios":"levelo://app?vid=894b07af-2d2b-4e6f-add6-20e2189c2168"},"vehicle_type_id":"4","last_reported":1766250527,"current_range_meters":14000,"station_id":"ce4bhh92rcd13ifvqfh0","pricing_plan_id":"cebpf4jnsgd1na2vs0mg"},{"bike_id":"d4e12687-73c4-4f9e-bbf6-f4cb62632c79","system_id":"levelo_inurba_marseille","lat":43.27942,"lon":5.41046,"is_reserved":false,"is_disabled":false,"rental_uris":{"android":"levelo://app?vid=d4e12687-73c4-4f9e-bbf6-f4cb62632c79","ios":"levelo://app?vid=d4e12687-73c4-4f9e-bbf6-f4cb62632c79"},"vehicle_type_id":"4","last_reported":1766250527,"current_range_meters":14000,"station_id":"ce4bhnp2rcd13ifvqh0g","pricing_plan_id":"cebpf4jnsgd1na2vs0mg"},{"bike_id":"6c82c1ec-12c0-4853-8f0e-c86b5bef3983","system_id":"levelo_inurba_marseille","lat":43.26211,"lon":5.37443,"is_reserved":false,"is_disabled":false,"rental_uris":{"android":"levelo://app?vid=6c82c1ec-12c0-4853-8f0e-c86b5bef3983","ios":"levelo://app?vid=6c82c1ec-12c0-4853-8f0e-c86b5bef3983"},"vehicle_type_id":"4","last_reported":1766250527,"current_range_meters":14000,"station_id":"ce4bhgp2rcd13ifvqfc0","pricing_plan_id":"cebpf4jnsgd1na2vs0mg"},{"bike_id":"447328e0-3eeb-4392-81d6-dc183f792a45","system_id":"levelo_inurba_marseille","lat":43.26565,"lon":5.39015,"is_reserved":false,"is_disabled":false,"rental_uris":{"android":"levelo://app?vid=447328e0-3eeb-4392-81d6-dc183f792a45","ios":"levelo://app?vid=447328e0-3eeb-4392-81d6-dc183f792a45"},"vehicle_type_id":"4","last_reported":1766250527,"current_range_meters":14000,"station_id":"ce4bhe12rcd13ifvqf30","pricing_plan_id":"cebpf4jnsgd1na2vs0mg"},{"bike_id":"f86781ed-742e-44ae-a740-41a7e6e17f13","system_id":"levelo_inurba_marseille","lat":43.26514,"lon":5.39531,"is_reserved":false,"is_disabled":false,"rental_uris":{"android":"levelo://app?vid=f86781ed-742e-44ae-a740-41a7e6e17f13","ios":"levelo://app?vid=f86781ed-742e-44ae-a740-41a7e6e17f13"},"vehicle_type_id":"4","last_reported":1766250527,"current_range_meters":14000,"station_id":"ce4bhi12rcd13ifvqfq0","pricing_plan_id":"cebpf4jnsgd1na2vs0mg"},{"bike_id":"b4a15741-8f96-49de-9ef2-fa9a3f038961","system_id":"levelo_inurba_marseille","lat":43.29259,"lon":5.40916,"is_reserved":false,"is_disabled":false,"rental_uris":{"android":"levelo://app?vid=b4a15741-8f96-49de-9ef2-fa9a3f038961","ios":"levelo://app?vid=b4a15741-8f96-49de-9ef2-fa9a3f038961"},"vehicle_type_id":"4","last_reported":1766250527,"current_range_meters":14000,"station_id":"ce4bh192rcd13ifvqdc0","pricing_plan_id":"cebpf4jnsgd1na2vs0mg"},{"bike_id":"e2823aa6-93af-49a2-ae6c-6b32ae33e4be","system_id":"levelo_inurba_marseille","lat":43.27988,"lon":5.41657,"is_reserved":false,"is_disabled":false,"rental_uris":{"android":"levelo://app?vid=e2823aa6-93af-49a2-ae6c-6b32ae33e4be","ios":"levelo://app?vid=e2823aa6-93af-49a2-ae6c-6b32ae33e4be"},"vehicle_type_id":"4","last_reported":1766250527,"current_range_meters":14000,"station_id":"ce4bho12rcd13ifvqh1g","pricing_plan_id":"cebpf4jnsgd1na2vs0mg"},{"bike_id":"159cb3ab-4702-4137-bf42-d34b0e6d4d95","system_id":"levelo_inurba_marseille","lat":43.29554,"lon":5.42283,"is_reserved":false,"is_disabled":false,"rental_uris":{"android":"levelo://app?vid=159cb3ab-4702-4137-bf42-d34b0e6d4d95","ios":"levelo://app?vid=159cb3ab-4702-4137-bf42-d34b0e6d4d95"},"vehicle_type_id":"4","last_reported":1766250527,"current_range_meters":14000,"station_id":"ce4bhph2rcd13ifvqhdg","pricing_plan_id":"cebpf4jnsgd1na2vs0mg"},{"bike_id":"a516ce71-740b-43b0-a57d-e49ede3f322e","system_id":"levelo_inurba_marseille","lat":43.273253,"lon":5.39102,"is_reserved":false,"is_disabled":false,"rental_uris":{"android":"levelo://app?vid=a516ce71-740b-43b0-a57d-e49ede3f322e","ios":"levelo://app?vid=a516ce71-740b-43b0-a57d-e49ede3f322e"},"vehicle_type_id":"4","last_reported":1766250527,"current_range_meters":14400,"station_id":"ce4bhgp2rcd13ifvqfe0","pricing_plan_id":"cebpf4jnsgd1na2vs0mg"},{"bike_id":"e1e0c5d5-d1ff-4328-abce-0032e41eb0b8","system_id":"levelo_inurba_marseille","lat":43.24619,"lon":5.43142,"is_reserved":false,"is_disabled":false,"rental_uris":{"android":"levelo://app?vid=e1e0c5d5-d1ff-4328-abce-0032e41eb0b8","ios":"levelo://app?vid=e1e0c5d5-d1ff-4328-abce-0032e41eb0b8"},"vehicle_type_id":"4","last_reported":1766250527,"current_range_meters":14400,"station_id":"st_d2m6c4gdas8pm72e190g","pricing_plan_id":"cebpf4jnsgd1na2vs0mg"},{"bike_id":"40d987a4-478f-40bc-8e4c-826d834769fa","system_id":"levelo_inurba_marseille","lat":43.29804,"lon":5.40407,"is_reserved":false,"is_disabled":false,"rental_uris":{"android":"levelo://app?vid=40d987a4-478f-40bc-8e4c-826d834769fa","ios":"levelo://app?vid=40d987a4-478f-40bc-8e4c-826d834769fa"},"vehicle_type_id":"4","last_reported":1766250527,"current_range_meters":14400,"station_id":"ce4bh112rcd13ifvqd90","pricing_plan_id":"cebpf4jnsgd1na2vs0mg"},{"bike_id":"8840e358-ccf4-4620-8d3b-cdebcd448b85","system_id":"levelo_inurba_marseille","lat":43.29636,"lon":5.40603,"is_reserved":false,"is_disabled":false,"rental_uris":{"android":"levelo://app?vid=8840e358-ccf4-4620-8d3b-cdebcd448b85","ios":"levelo://app?vid=8840e358-ccf4-4620-8d3b-cdebcd448b85"},"vehicle_type_id":"4","last_reported":1766250527,"current_range_meters":14400,"station_id":"ce4bh0h2rcd13ifvqd60","pricing_plan_id":"cebpf4jnsgd1na2vs0mg"},{"bike_id":"5046e52c-2d03-4dab-83b5-0d9b216c15bd","system_id":"levelo_inurba_marseille","lat":43.30808,"lon":5.37017,"is_reserved":false,"is_disabled":false,"rental_uris":{"android":"levelo://app?vid=5046e52c-2d03-4dab-83b5-0d9b216c15bd","ios":"levelo://app?vid=5046e52c-2d03-4dab-83b5-0d9b216c15bd"},"vehicle_type_id":"4","last_reported":1766250527,"current_range_meters":14400,"station_id":"","pricing_plan_id":"cebpf4jnsgd1na2vs0mg"},{"bike_id":"88faa14e-1a0a-4d67-8915-3eda7601efcf","system_id":"levelo_inurba_marseille","lat":43.21196,"lon":5.35068,"is_reserved":false,"is_disabled":false,"rental_uris":{"android":"levelo://app?vid=88faa14e-1a0a-4d67-8915-3eda7601efcf","ios":"levelo://app?vid=88faa14e-1a0a-4d67-8915-3eda7601efcf"},"vehicle_type_id":"4","last_reported":1766250527,"current_range_meters":14400,"station_id":"","pricing_plan_id":"cebpf4jnsgd1na2vs0mg"},{"bike_id":"2bbc71c7-bd58-41dd-b1bc-322a7159a69f","system_id":"levelo_inurba_marseille","lat":43.30149,"lon":5.38093,"is_reserved":false,"is_disabled":false,"rental_uris":{"android":"levelo://app?vid=2bbc71c7-bd58-41dd-b1bc-322a7159a69f","ios":"levelo://app?vid=2bbc71c7-bd58-41dd-b1bc-322a7159a69f"},"vehicle_type_id":"4","last_reported":1766250527,"current_range_meters":14400,"station_id":"ce4bgjp2rcd13ifvqbh0","pricing_plan_id":"cebpf4jnsgd1na2vs0mg"},{"bike_id":"5549c5d4-40ee-4672-8eb6-d9e741467e36","system_id":"levelo_inurba_marseille","lat":43.299239,"lon":5.374494,"is_reserved":false,"is_disabled":true,"rental_uris":{"android":"levelo://app?vid=5549c5d4-40ee-4672-8eb6-d9e741467e36","ios":"levelo://app?vid=5549c5d4-40ee-4672-8eb6-d9e741467e36"},"vehicle_type_id":"4","last_reported":1766250527,"current_range_meters":14400,"station_id":"ce4bgjh2rcd13ifvqbg0","pricing_plan_id":"cebpf4jnsgd1na2vs0mg"},{"bike_id":"6444667d-7789-4bd8-9fc9-fb9aa648ed24","system_id":"levelo_inurba_marseille","lat":43.27814,"lon":5.40706,"is_reserved":false,"is_disabled":false,"rental_uris":{"android":"levelo://app?vid=6444667d-7789-4bd8-9fc9-fb9aa648ed24","ios":"levelo://app?vid=6444667d-7789-4bd8-9fc9-fb9aa648ed24"},"vehicle_type_id":"4","last_reported":1766250527,"current_range_meters":14400,"station_id":"ce4bhnh2rcd13ifvqgtg","pricing_plan_id":"cebpf4jnsgd1na2vs0mg"},{"bike_id":"785156da-0593-4b75-94f6-e2ccbbaee3ef","system_id":"levelo_inurba_marseille","lat":43.27424,"lon":5.39403,"is_reserved":false,"is_disabled":false,"rental_uris":{"android":"levelo://app?vid=785156da-0593-4b75-94f6-e2ccbbaee3ef","ios":"levelo://app?vid=785156da-0593-4b75-94f6-e2ccbbaee3ef"},"vehicle_type_id":"4","last_reported":1766250527,"current_range_meters":14400,"station_id":"ce4bhdp2rcd13ifvqf20","pricing_plan_id":"cebpf4jnsgd1na2vs0mg"},{"bike_id":"d25f24ab-f823-4841-8e66-0ee07bb012c7","system_id":"levelo_inurba_marseille","lat":43.29313,"lon":5.37425,"is_reserved":false,"is_disabled":false,"rental_uris":{"android":"levelo://app?vid=d25f24ab-f823-4841-8e66-0ee07bb012c7","ios":"levelo://app?vid=d25f24ab-f823-4841-8e66-0ee07bb012c7"},"vehicle_type_id":"4","last_reported":1766250527,"current_range_meters":14400,"station_id":"ce4bgi12rcd13ifvqb70","pricing_plan_id":"cebpf4jnsgd1na2vs0mg"},{"bike_id":"611bb42d-81f1-42fc-b832-157e5dfb6bb7","system_id":"levelo_inurba_marseille","lat":43.28531,"lon":5.44101,"is_reserved":false,"is_disabled":false,"rental_uris":{"android":"levelo://app?vid=611bb42d-81f1-42fc-b832-157e5dfb6bb7","ios":"levelo://app?vid=611bb42d-81f1-42fc-b832-157e5dfb6bb7"},"vehicle_type_id":"4","last_reported":1766250527,"current_range_meters":14400,"station_id":"st_d3j3df2ikq2c7380ej80","pricing_plan_id":"cebpf4jnsgd1na2vs0mg"},{"bike_id":"d810c00e-d37c-4f0e-881f-6ec822d7b16f","system_id":"levelo_inurba_marseille","lat":43.27322,"lon":5.39082,"is_reserved":false,"is_disabled":false,"rental_uris":{"android":"levelo://app?vid=d810c00e-d37c-4f0e-881f-6ec822d7b16f","ios":"levelo://app?vid=d810c00e-d37c-4f0e-881f-6ec822d7b16f"},"vehicle_type_id":"4","last_reported":1766250527,"current_range_meters":14400,"station_id":"ce4bhgp2rcd13ifvqfe0","pricing_plan_id":"cebpf4jnsgd1na2vs0mg"},{"bike_id":"1d94d5b8-280b-48c3-b5da-10e32515626f","system_id":"levelo_inurba_marseille","lat":43.299897,"lon":5.371521,"is_reserved":false,"is_disabled":false,"rental_uris":{"android":"levelo://app?vid=1d94d5b8-280b-48c3-b5da-10e32515626f","ios":"levelo://app?vid=1d94d5b8-280b-48c3-b5da-10e32515626f"},"vehicle_type_id":"4","last_reported":1766250527,"current_range_meters":14400,"station_id":"ce4bgr92rcd13ifvqc7g","pricing_plan_id":"cebpf4jnsgd1na2vs0mg"},{"bike_id":"1a80cb1e-f6c4-464e-b7b2-c93856f1b02c","system_id":"levelo_inurba_marseille","lat":43.29005,"lon":5.38119,"is_reserved":false,"is_disabled":false,"rental_uris":{"android":"levelo://app?vid=1a80cb1e-f6c4-464e-b7b2-c93856f1b02c","ios":"levelo://app?vid=1a80cb1e-f6c4-464e-b7b2-c93856f1b02c"},"vehicle_type_id":"4","last_reported":1766250527,"current_range_meters":14400,"station_id":"ce4bh4p2rcd13ifvqe1g","pricing_plan_id":"cebpf4jnsgd1na2vs0mg"},{"bike_id":"8b51e427-7c13-4b57-9cd5-bf603542e006","system_id":"levelo_inurba_marseille","lat":43.23792,"lon":5.36641,"is_reserved":false,"is_disabled":false,"rental_uris":{"android":"levelo://app?vid=8b51e427-7c13-4b57-9cd5-bf603542e006","ios":"levelo://app?vid=8b51e427-7c13-4b57-9cd5-bf603542e006"},"vehicle_type_id":"4","last_reported":1766250527,"current_range_meters":14400,"station_id":"st_d3nk18o9ro0c73en2l3g","pricing_plan_id":"cebpf4jnsgd1na2vs0mg"},{"bike_id":"f72b59c6-6c39-4032-a755-77cfdc86a361","system_id":"levelo_inurba_marseille","lat":43.26203,"lon":5.379283,"is_reserved":false,"is_disabled":false,"rental_uris":{"android":"levelo://app?vid=f72b59c6-6c39-4032-a755-77cfdc86a361","ios":"levelo://app?vid=f72b59c6-6c39-4032-a755-77cfdc86a361"},"vehicle_type_id":"4","last_reported":1766250527,"current_range_meters":14800,"station_id":"","pricing_plan_id":"cebpf4jnsgd1na2vs0mg"},{"bike_id":"be6edca5-cbaf-425d-ba3c-7981181dd2c6","system_id":"levelo_inurba_marseille","lat":43.283626,"lon":5.386419,"is_reserved":false,"is_disabled":true,"rental_uris":{"android":"levelo://app?vid=be6edca5-cbaf-425d-ba3c-7981181dd2c6","ios":"levelo://app?vid=be6edca5-cbaf-425d-ba3c-7981181dd2c6"},"vehicle_type_id":"4","last_reported":1766250527,"current_range_meters":14800,"station_id":"ce4bhi12rcd13ifvqfo0","pricing_plan_id":"cebpf4jnsgd1na2vs0mg"},{"bike_id":"09f1adab-48d6-45ee-95a1-8ac43b1951a3","system_id":"levelo_inurba_marseille","lat":43.29632,"lon":5.4061,"is_reserved":false,"is_disabled":false,"rental_uris":{"android":"levelo://app?vid=09f1adab-48d6-45ee-95a1-8ac43b1951a3","ios":"levelo://app?vid=09f1adab-48d6-45ee-95a1-8ac43b1951a3"},"vehicle_type_id":"4","last_reported":1766250527,"current_range_meters":14800,"station_id":"ce4bh0h2rcd13ifvqd60","pricing_plan_id":"cebpf4jnsgd1na2vs0mg"},{"bike_id":"ae6c1aeb-ea56-4930-8ca5-97f00c057268","system_id":"levelo_inurba_marseille","lat":43.24991,"lon":5.38926,"is_reserved":false,"is_disabled":false,"rental_uris":{"android":"levelo://app?vid=ae6c1aeb-ea56-4930-8ca5-97f00c057268","ios":"levelo://app?vid=ae6c1aeb-ea56-4930-8ca5-97f00c057268"},"vehicle_type_id":"4","last_reported":1766250527,"current_range_meters":14800,"station_id":"ce4bhgp2rcd13ifvqfd0","pricing_plan_id":"cebpf4jnsgd1na2vs0mg"},{"bike_id":"af495e29-7aa6-4629-82c7-bab02c5ebd22","system_id":"levelo_inurba_marseille","lat":43.29437,"lon":5.39744,"is_reserved":false,"is_disabled":false,"rental_uris":{"android":"levelo://app?vid=af495e29-7aa6-4629-82c7-bab02c5ebd22","ios":"levelo://app?vid=af495e29-7aa6-4629-82c7-bab02c5ebd22"},"vehicle_type_id":"4","last_reported":1766250527,"current_range_meters":14800,"station_id":"ce4bh3h2rcd13ifvqdo0","pricing_plan_id":"cebpf4jnsgd1na2vs0mg"},{"bike_id":"17bd9bcf-5e3b-4aca-9694-8c335f1de462","system_id":"levelo_inurba_marseille","lat":43.30146,"lon":5.43109,"is_reserved":false,"is_disabled":false,"rental_uris":{"android":"levelo://app?vid=17bd9bcf-5e3b-4aca-9694-8c335f1de462","ios":"levelo://app?vid=17bd9bcf-5e3b-4aca-9694-8c335f1de462"},"vehicle_type_id":"4","last_reported":1766250527,"current_range_meters":14800,"station_id":"st_d3js3co5814s73ftftug","pricing_plan_id":"cebpf4jnsgd1na2vs0mg"},{"bike_id":"7f91e1e6-fb3f-4b79-985e-0e9174ed5491","system_id":"levelo_inurba_marseille","lat":43.27948,"lon":5.38734,"is_reserved":false,"is_disabled":false,"rental_uris":{"android":"levelo://app?vid=7f91e1e6-fb3f-4b79-985e-0e9174ed5491","ios":"levelo://app?vid=7f91e1e6-fb3f-4b79-985e-0e9174ed5491"},"vehicle_type_id":"4","last_reported":1766250527,"current_range_meters":14800,"station_id":"ce4bhg12rcd13ifvqf80","pricing_plan_id":"cebpf4jnsgd1na2vs0mg"},{"bike_id":"47314f3d-4d40-4564-8354-04570c31845d","system_id":"levelo_inurba_marseille","lat":43.28661,"lon":5.36348,"is_reserved":false,"is_disabled":false,"rental_uris":{"android":"levelo://app?vid=47314f3d-4d40-4564-8354-04570c31845d","ios":"levelo://app?vid=47314f3d-4d40-4564-8354-04570c31845d"},"vehicle_type_id":"4","last_reported":1766250527,"current_range_meters":14800,"station_id":"ce4bhah2rcd13ifvqej0","pricing_plan_id":"cebpf4jnsgd1na2vs0mg"},{"bike_id":"4c0d6fce-33ab-431d-b903-8bcf563c13d6","system_id":"levelo_inurba_marseille","lat":43.27206,"lon":5.39189,"is_reserved":false,"is_disabled":false,"rental_uris":{"android":"levelo://app?vid=4c0d6fce-33ab-431d-b903-8bcf563c13d6","ios":"levelo://app?vid=4c0d6fce-33ab-431d-b903-8bcf563c13d6"},"vehicle_type_id":"4","last_reported":1766250527,"current_range_meters":14800,"station_id":"ce4bhhp2rcd13ifvqfm0","pricing_plan_id":"cebpf4jnsgd1na2vs0mg"},{"bike_id":"b0eb95b9-79ce-4691-a99c-e8e830cecad7","system_id":"levelo_inurba_marseille","lat":43.30375,"lon":5.42484,"is_reserved":false,"is_disabled":false,"rental_uris":{"android":"levelo://app?vid=b0eb95b9-79ce-4691-a99c-e8e830cecad7","ios":"levelo://app?vid=b0eb95b9-79ce-4691-a99c-e8e830cecad7"},"vehicle_type_id":"4","last_reported":1766250527,"current_range_meters":14800,"station_id":"ce4bhoh2rcd13ifvqh6g","pricing_plan_id":"cebpf4jnsgd1na2vs0mg"},{"bike_id":"9a7ab33e-c642-4387-8c7f-405ecc4cbc10","system_id":"levelo_inurba_marseille","lat":43.28156,"lon":5.42641,"is_reserved":false,"is_disabled":false,"rental_uris":{"android":"levelo://app?vid=9a7ab33e-c642-4387-8c7f-405ecc4cbc10","ios":"levelo://app?vid=9a7ab33e-c642-4387-8c7f-405ecc4cbc10"},"vehicle_type_id":"4","last_reported":1766250527,"current_range_meters":15200,"station_id":"ce4bhnh2rcd13ifvqgug","pricing_plan_id":"cebpf4jnsgd1na2vs0mg"},{"bike_id":"852886ca-04e3-4ed7-9a57-11badf8a4e90","system_id":"levelo_inurba_marseille","lat":43.28458,"lon":5.35887,"is_reserved":false,"is_disabled":false,"rental_uris":{"android":"levelo://app?vid=852886ca-04e3-4ed7-9a57-11badf8a4e90","ios":"levelo://app?vid=852886ca-04e3-4ed7-9a57-11badf8a4e90"},"vehicle_type_id":"4","last_reported":1766250527,"current_range_meters":15200,"station_id":"ce4bhah2rcd13ifvqei0","pricing_plan_id":"cebpf4jnsgd1na2vs0mg"},{"bike_id":"2bede430-4250-4bb5-9cc1-2011ee04070d","system_id":"levelo_inurba_marseille","lat":43.2849,"lon":5.48401,"is_reserved":false,"is_disabled":false,"rental_uris":{"android":"levelo://app?vid=2bede430-4250-4bb5-9cc1-2011ee04070d","ios":"levelo://app?vid=2bede430-4250-4bb5-9cc1-2011ee04070d"},"vehicle_type_id":"4","last_reported":1766250527,"current_range_meters":15200,"station_id":"","pricing_plan_id":"cebpf4jnsgd1na2vs0mg"},{"bike_id":"395c2bd4-f387-49f5-a4de-bf4b294178b7","system_id":"levelo_inurba_marseille","lat":43.28463,"lon":5.35894,"is_reserved":false,"is_disabled":false,"rental_uris":{"android":"levelo://app?vid=395c2bd4-f387-49f5-a4de-bf4b294178b7","ios":"levelo://app?vid=395c2bd4-f387-49f5-a4de-bf4b294178b7"},"vehicle_type_id":"4","last_reported":1766250527,"current_range_meters":15200,"station_id":"ce4bhah2rcd13ifvqei0","pricing_plan_id":"cebpf4jnsgd1na2vs0mg"},{"bike_id":"5371564e-c1ec-4202-bac6-39cd9265da58","system_id":"levelo_inurba_marseille","lat":43.291474,"lon":5.375367,"is_reserved":false,"is_disabled":false,"rental_uris":{"android":"levelo://app?vid=5371564e-c1ec-4202-bac6-39cd9265da58","ios":"levelo://app?vid=5371564e-c1ec-4202-bac6-39cd9265da58"},"vehicle_type_id":"4","last_reported":1766250527,"current_range_meters":15200,"station_id":"ce4bh692rcd13ifvqe90","pricing_plan_id":"cebpf4jnsgd1na2vs0mg"},{"bike_id":"2b865b81-8e0b-44c8-9263-6925783afa45","system_id":"levelo_inurba_marseille","lat":43.26212,"lon":5.37435,"is_reserved":false,"is_disabled":false,"rental_uris":{"android":"levelo://app?vid=2b865b81-8e0b-44c8-9263-6925783afa45","ios":"levelo://app?vid=2b865b81-8e0b-44c8-9263-6925783afa45"},"vehicle_type_id":"4","last_reported":1766250527,"current_range_meters":15200,"station_id":"ce4bhgp2rcd13ifvqfc0","pricing_plan_id":"cebpf4jnsgd1na2vs0mg"},{"bike_id":"1686839b-0972-4d66-a949-1eae098c6a90","system_id":"levelo_inurba_marseille","lat":43.33546,"lon":5.37457,"is_reserved":false,"is_disabled":false,"rental_uris":{"android":"levelo://app?vid=1686839b-0972-4d66-a949-1eae098c6a90","ios":"levelo://app?vid=1686839b-0972-4d66-a949-1eae098c6a90"},"vehicle_type_id":"4","last_reported":1766250527,"current_range_meters":15200,"station_id":"st_d46tts09ee8s73dlu43g","pricing_plan_id":"cebpf4jnsgd1na2vs0mg"},{"bike_id":"73e2925b-3961-4e27-be9f-277c3490deb8","system_id":"levelo_inurba_marseille","lat":43.29607,"lon":5.3773,"is_reserved":false,"is_disabled":false,"rental_uris":{"android":"levelo://app?vid=73e2925b-3961-4e27-be9f-277c3490deb8","ios":"levelo://app?vid=73e2925b-3961-4e27-be9f-277c3490deb8"},"vehicle_type_id":"4","last_reported":1766250527,"current_range_meters":15200,"station_id":"ce4bgi92rcd13ifvqb90","pricing_plan_id":"cebpf4jnsgd1na2vs0mg"},{"bike_id":"05200431-a1ea-4325-8daf-0dd456d58abf","system_id":"levelo_inurba_marseille","lat":43.279407,"lon":5.410399,"is_reserved":false,"is_disabled":false,"rental_uris":{"android":"levelo://app?vid=05200431-a1ea-4325-8daf-0dd456d58abf","ios":"levelo://app?vid=05200431-a1ea-4325-8daf-0dd456d58abf"},"vehicle_type_id":"4","last_reported":1766250527,"current_range_meters":16000,"station_id":"ce4bhnp2rcd13ifvqh0g","pricing_plan_id":"cebpf4jnsgd1na2vs0mg"},{"bike_id":"7a2810d9-a7a2-4f55-a626-e3338912c6bf","system_id":"levelo_inurba_marseille","lat":43.33747,"lon":5.37513,"is_reserved":false,"is_disabled":false,"rental_uris":{"android":"levelo://app?vid=7a2810d9-a7a2-4f55-a626-e3338912c6bf","ios":"levelo://app?vid=7a2810d9-a7a2-4f55-a626-e3338912c6bf"},"vehicle_type_id":"4","last_reported":1766250527,"current_range_meters":16000,"station_id":"","pricing_plan_id":"cebpf4jnsgd1na2vs0mg"},{"bike_id":"674911cf-1cfd-40f1-9e5e-f3941e7b6fc6","system_id":"levelo_inurba_marseille","lat":43.337444,"lon":5.374475,"is_reserved":false,"is_disabled":false,"rental_uris":{"android":"levelo://app?vid=674911cf-1cfd-40f1-9e5e-f3941e7b6fc6","ios":"levelo://app?vid=674911cf-1cfd-40f1-9e5e-f3941e7b6fc6"},"vehicle_type_id":"4","last_reported":1766250527,"current_range_meters":16000,"station_id":"","pricing_plan_id":"cebpf4jnsgd1na2vs0mg"},{"bike_id":"515b1067-c9f1-499f-828f-2aace95d367e","system_id":"levelo_inurba_marseille","lat":43.270703,"lon":5.422826,"is_reserved":false,"is_disabled":false,"rental_uris":{"android":"levelo://app?vid=515b1067-c9f1-499f-828f-2aace95d367e","ios":"levelo://app?vid=515b1067-c9f1-499f-828f-2aace95d367e"},"vehicle_type_id":"4","last_reported":1766250527,"current_range_meters":16000,"station_id":"ce4bhk92rcd13ifvqgb0","pricing_plan_id":"cebpf4jnsgd1na2vs0mg"},{"bike_id":"2c46c7a5-389f-47fc-8086-ed2504307f23","system_id":"levelo_inurba_marseille","lat":43.27952,"lon":5.41051,"is_reserved":false,"is_disabled":false,"rental_uris":{"android":"levelo://app?vid=2c46c7a5-389f-47fc-8086-ed2504307f23","ios":"levelo://app?vid=2c46c7a5-389f-47fc-8086-ed2504307f23"},"vehicle_type_id":"4","last_reported":1766250527,"current_range_meters":16000,"station_id":"ce4bhnp2rcd13ifvqh0g","pricing_plan_id":"cebpf4jnsgd1na2vs0mg"},{"bike_id":"c0723a55-d0d0-493e-a4c5-9479bcaeff93","system_id":"levelo_inurba_marseille","lat":43.28481,"lon":5.48389,"is_reserved":false,"is_disabled":false,"rental_uris":{"android":"levelo://app?vid=c0723a55-d0d0-493e-a4c5-9479bcaeff93","ios":"levelo://app?vid=c0723a55-d0d0-493e-a4c5-9479bcaeff93"},"vehicle_type_id":"4","last_reported":1766250527,"current_range_meters":16000,"station_id":"st_d3svhcjqgbts73a3dn0g","pricing_plan_id":"cebpf4jnsgd1na2vs0mg"},{"bike_id":"7779a310-72f4-4850-9ca4-aaa217a589d2","system_id":"levelo_inurba_marseille","lat":43.337444,"lon":5.374475,"is_reserved":false,"is_disabled":false,"rental_uris":{"android":"levelo://app?vid=7779a310-72f4-4850-9ca4-aaa217a589d2","ios":"levelo://app?vid=7779a310-72f4-4850-9ca4-aaa217a589d2"},"vehicle_type_id":"4","last_reported":1766250527,"current_range_meters":16000,"station_id":"","pricing_plan_id":"cebpf4jnsgd1na2vs0mg"},{"bike_id":"5051d93a-2df5-4ea3-bb8b-f70de774e1b4","system_id":"levelo_inurba_marseille","lat":43.29301,"lon":5.37147,"is_reserved":false,"is_disabled":false,"rental_uris":{"android":"levelo://app?vid=5051d93a-2df5-4ea3-bb8b-f70de774e1b4","ios":"levelo://app?vid=5051d93a-2df5-4ea3-bb8b-f70de774e1b4"},"vehicle_type_id":"4","last_reported":1766250527,"current_range_meters":16000,"station_id":"ce4bgh92rcd13ifvqb40","pricing_plan_id":"cebpf4jnsgd1na2vs0mg"},{"bike_id":"09145c67-ea51-4961-a850-f41d3ec3f086","system_id":"levelo_inurba_marseille","lat":43.26793,"lon":5.3943,"is_reserved":false,"is_disabled":false,"rental_uris":{"android":"levelo://app?vid=09145c67-ea51-4961-a850-f41d3ec3f086","ios":"levelo://app?vid=09145c67-ea51-4961-a850-f41d3ec3f086"},"vehicle_type_id":"4","last_reported":1766250527,"current_range_meters":16400,"station_id":"ce4bhh12rcd13ifvqfg0","pricing_plan_id":"cebpf4jnsgd1na2vs0mg"},{"bike_id":"4047de1c-6a41-49ec-a6b5-65f08c264055","system_id":"levelo_inurba_marseille","lat":43.2979,"lon":5.38088,"is_reserved":false,"is_disabled":false,"rental_uris":{"android":"levelo://app?vid=4047de1c-6a41-49ec-a6b5-65f08c264055","ios":"levelo://app?vid=4047de1c-6a41-49ec-a6b5-65f08c264055"},"vehicle_type_id":"4","last_reported":1766250527,"current_range_meters":16400,"station_id":"ce4bgip2rcd13ifvqbb0","pricing_plan_id":"cebpf4jnsgd1na2vs0mg"},{"bike_id":"b07e4d74-f66b-44ab-948c-0f49d351d05f","system_id":"levelo_inurba_marseille","lat":43.24628,"lon":5.43144,"is_reserved":false,"is_disabled":false,"rental_uris":{"android":"levelo://app?vid=b07e4d74-f66b-44ab-948c-0f49d351d05f","ios":"levelo://app?vid=b07e4d74-f66b-44ab-948c-0f49d351d05f"},"vehicle_type_id":"4","last_reported":1766250527,"current_range_meters":16400,"station_id":"st_d2m6c4gdas8pm72e190g","pricing_plan_id":"cebpf4jnsgd1na2vs0mg"},{"bike_id":"6547efc2-f028-4fc5-9c25-b87129a94b8a","system_id":"levelo_inurba_marseille","lat":43.24957,"lon":5.40508,"is_reserved":false,"is_disabled":false,"rental_uris":{"android":"levelo://app?vid=6547efc2-f028-4fc5-9c25-b87129a94b8a","ios":"levelo://app?vid=6547efc2-f028-4fc5-9c25-b87129a94b8a"},"vehicle_type_id":"4","last_reported":1766250527,"current_range_meters":16400,"station_id":"st_d2ngiaodas8pm72gd1h0","pricing_plan_id":"cebpf4jnsgd1na2vs0mg"},{"bike_id":"3c5d7678-a6b4-4f08-8d63-3149a72a8b72","system_id":"levelo_inurba_marseille","lat":43.29623,"lon":5.3771,"is_reserved":false,"is_disabled":false,"rental_uris":{"android":"levelo://app?vid=3c5d7678-a6b4-4f08-8d63-3149a72a8b72","ios":"levelo://app?vid=3c5d7678-a6b4-4f08-8d63-3149a72a8b72"},"vehicle_type_id":"4","last_reported":1766250527,"current_range_meters":16400,"station_id":"ce4bgi92rcd13ifvqb90","pricing_plan_id":"cebpf4jnsgd1na2vs0mg"},{"bike_id":"bfef6781-c6ff-4dab-bab5-e62c0ef633b0","system_id":"levelo_inurba_marseille","lat":43.30872,"lon":5.37175,"is_reserved":false,"is_disabled":false,"rental_uris":{"android":"levelo://app?vid=bfef6781-c6ff-4dab-bab5-e62c0ef633b0","ios":"levelo://app?vid=bfef6781-c6ff-4dab-bab5-e62c0ef633b0"},"vehicle_type_id":"4","last_reported":1766250527,"current_range_meters":16400,"station_id":"ce4bguh2rcd13ifvqckg","pricing_plan_id":"cebpf4jnsgd1na2vs0mg"},{"bike_id":"645eae7e-1e11-4a59-a0d6-92eeb4adf2c4","system_id":"levelo_inurba_marseille","lat":43.26549,"lon":5.37277,"is_reserved":false,"is_disabled":false,"rental_uris":{"android":"levelo://app?vid=645eae7e-1e11-4a59-a0d6-92eeb4adf2c4","ios":"levelo://app?vid=645eae7e-1e11-4a59-a0d6-92eeb4adf2c4"},"vehicle_type_id":"4","last_reported":1766250527,"current_range_meters":16400,"station_id":"ce4bhg12rcd13ifvqf70","pricing_plan_id":"cebpf4jnsgd1na2vs0mg"},{"bike_id":"5933df52-739c-449c-be7f-b1c28faa9e1e","system_id":"levelo_inurba_marseille","lat":43.295333,"lon":5.385495,"is_reserved":false,"is_disabled":false,"rental_uris":{"android":"levelo://app?vid=5933df52-739c-449c-be7f-b1c28faa9e1e","ios":"levelo://app?vid=5933df52-739c-449c-be7f-b1c28faa9e1e"},"vehicle_type_id":"4","last_reported":1766250527,"current_range_meters":16400,"station_id":"ce4bgih2rcd13ifvqba0","pricing_plan_id":"cebpf4jnsgd1na2vs0mg"},