{"last_updated":1702361400,"ttl":30,"version":"2.2","data":{"bikes":[{"bike_id":"2dc481a0-f05c-45cb-a3e0-4735b1a71085","system_id":"levelo_inurba_marseille","lat":43.313391,"lon":5.36706,"is_reserved":false,"is_disabled":false,"rental_uris":{"android":"levelo://app?vid=2dc481a0-f05c-45cb-a3e0-4735b1a71085","ios":"levelo://app?vid=2dc481a0-f05c-45cb-a3e0-4735b1a71085"},"vehicle_type_id":"4","last_reported":1702361400,"current_range_meters":27200,"station_id":"ce4bgr92rcd13ifvqc6g","pricing_plan_id":"free"},{"bike_id":"d2967d96-b6c4-4805-9df6-994b727ea616","system_id":"levelo_inurba_marseille","lat":43.314811,"lon":5.373104,"is_reserved":false,"is_disabled":false,"rental_uris":{"android":"levelo://app?vid=d2967d96-b6c4-4805-9df6-994b727ea616","ios":"levelo://app?vid=d2967d96-b6c4-4805-9df6-994b727ea616"},"vehicle_type_id":"4","last_reported":1702361400,"current_range_meters":31200,"station_id":"ce4bgt12rcd13ifvqcd0","pricing_plan_id":"free"},{"bike_id":"89fce6f2-e1a8-40e9-8e37-2dbc347a9d0a","system_id":"levelo_inurba_marseille","lat":43.314811,"lon":5.373103,"is_reserved":false,"is_disabled":false,"rental_uris":{"android":"levelo://app?vid=89fce6f2-e1a8-40e9-8e37-2dbc347a9d0a","ios":"levelo://app?vid=89fce6f2-e1a8-40e9-8e37-2dbc347a9d0a"},"vehicle_type_id":"4","last_reported":1702361400,"current_range_meters":31200,"station_id":"ce4bgt12rcd13ifvqcd0","pricing_plan_id":"free"},{"bike_id":"5e9914f7-6cbc-4a45-8b28-8f6555ab9ae2","system_id":"levelo_inurba_marseille","lat":43.309039,"lon":5.371797,"is_reserved":false,"is_disabled":false,"rental_uris":{"android":"levelo://app?vid=5e9914f7-6cbc-4a45-8b28-8f6555ab9ae2","ios":"levelo://app?vid=5e9914f7-6cbc-4a45-8b28-8f6555ab9ae2"},"vehicle_type_id":"4","last_reported":1702361400,"current_range_meters":31200,"station_id":"ce4bguh2rcd13ifvqckg","pricing_plan_id":"free"},{"bike_id":"4915f13e-98d8-47c2-96ba-c55653f3f81a","system_id":"levelo_inurba_marseille","lat":43.30549,"lon":5.36708,"is_reserved":false,"is_disabled":false,"rental_uris":{"android":"levelo://app?vid=4915f13e-98d8-47c2-96ba-c55653f3f81a","ios":"levelo://app?vid=4915f13e-98d8-47c2-96ba-c55653f3f81a"},"vehicle_type_id":"4","last_reported":1702361400,"current_range_meters":27200,"station_id":"ce4bgrp2rcd13ifvqc9g","pricing_plan_id":"free"},{"bike_id":"f36debdb-6bea-4678-967a-886219dbe8b9","system_id":"levelo_inurba_marseille","lat":43.305368,"lon":5.367343,"is_reserved":false,"is_disabled":false,"rental_uris":{"android":"levelo://app?vid=f36debdb-6bea-4678-967a-886219dbe8b9","ios":"levelo://app?vid=f36debdb-6bea-4678-967a-886219dbe8b9"},"vehicle_type_id":"4","last_reported":1702361400,"current_range_meters":400,"station_id":"ce4bgrp2rcd13ifvqc9g","pricing_plan_id":"free"},{"bike_id":"74b1f2f7-0bec-43b3-b12f-2176755661cf","system_id":"levelo_inurba_marseille","lat":43.311125,"lon":5.377624,"is_reserved":false,"is_disabled":false,"rental_uris":{"android":"levelo://app?vid=74b1f2f7-0bec-43b3-b12f-2176755661cf","ios":"levelo://app?vid=74b1f2f7-0bec-43b3-b12f-2176755661cf"},"vehicle_type_id":"4","last_reported":1702361400,"current_range_meters":27600,"station_id":"ce4bgt92rcd13ifvqcg0","pricing_plan_id":"free"},{"bike_id":"1578c52f-7dac-4029-bce5-53e31d386aa5","system_id":"levelo_inurba_marseille","lat":43.317075,"lon":5.377367,"is_reserved":false,"is_disabled":false,"rental_uris":{"android":"levelo://app?vid=1578c52f-7dac-4029-bce5-53e31d386aa5","ios":"levelo://app?vid=1578c52f-7dac-4029-bce5-53e31d386aa5"},"vehicle_type_id":"4","last_reported":1702361400,"current_range_meters":30000,"station_id":"ce4bgth2rcd13ifvqch0","pricing_plan_id":"free"},{"bike_id":"a9e8efa3-e30a-4e32-aa72-dbca40cebdb6","system_id":"levelo_inurba_marseille","lat":43.317075,"lon":5.377367,"is_reserved":false,"is_disabled":false,"rental_uris":{"android":"levelo://app?vid=a9e8efa3-e30a-4e32-aa72-dbca40cebdb6","ios":"levelo://app?vid=a9e8efa3-e30a-4e32-aa72-dbca40cebdb6"},"vehicle_type_id":"4","last_reported":1702361400,"current_range_meters":31200,"station_id":"ce4bgth2rcd13ifvqch0","pricing_plan_id":"free"},{"bike_id":"e7955019-68bc-4994-92b1-4ced93107a44","system_id":"levelo_inurba_marseille","lat":43.303046,"lon":5.368981,"is_reserved":false,"is_disabled":false,"rental_uris":{"android":"levelo://app?vid=e7955019-68bc-4994-92b1-4ced93107a44","ios":"levelo://app?vid=e7955019-68bc-4994-92b1-4ced93107a44"},"vehicle_type_id":"4","last_reported":1702361400,"current_range_meters":21200,"station_id":"ce4bgqh2rcd13ifvqc5g","pricing_plan_id":"free"},{"bike_id":"424a1dc8-1de9-4077-a305-b6270f6678f5","system_id":"levelo_inurba_marseille","lat":43.31533,"lon":5.38028,"is_reserved":false,"is_disabled":false,"rental_uris":{"android":"levelo://app?vid=424a1dc8-1de9-4077-a305-b6270f6678f5","ios":"levelo://app?vid=424a1dc8-1de9-4077-a305-b6270f6678f5"},"vehicle_type_id":"4","last_reported":1702361400,"current_range_meters":27600,"station_id":"ce4bhsp2rcd13ifvqi50","pricing_plan_id":"free"},{"bike_id":"b85cb3d8-42de-435f-acbf-ac55f494fe93","system_id":"levelo_inurba_marseille","lat":43.30484,"lon":5.37902,"is_reserved":false,"is_disabled":false,"rental_uris":{"android":"levelo://app?vid=b85cb3d8-42de-435f-acbf-ac55f494fe93","ios":"levelo://app?vid=b85cb3d8-42de-435f-acbf-ac55f494fe93"},"vehicle_type_id":"4","last_reported":1702361400,"current_range_meters":17200,"station_id":"ce4bgup2rcd13ifvqcn0","pricing_plan_id":"free"},{"bike_id":"203c3a22-dfe7-4306-bb25-a37201042ddd","system_id":"levelo_inurba_marseille","lat":43.30462,"lon":5.379,"is_reserved":false,"is_disabled":false,"rental_uris":{"android":"levelo://app?vid=203c3a22-dfe7-4306-bb25-a37201042ddd","ios":"levelo://app?vid=203c3a22-dfe7-4306-bb25-a37201042ddd"},"vehicle_type_id":"4","last_reported":1702361400,"current_range_meters":25200,"station_id":"ce4bgup2rcd13ifvqcn0","pricing_plan_id":"free"},{"bike_id":"b2b5dcc9-6699-402a-bccd-ca4069e41154","system_id":"levelo_inurba_marseille","lat":43.304606,"lon":5.379026,"is_reserved":false,"is_disabled":false,"rental_uris":{"android":"levelo://app?vid=b2b5dcc9-6699-402a-bccd-ca4069e41154","ios":"levelo://app?vid=b2b5dcc9-6699-402a-bccd-ca4069e41154"},"vehicle_type_id":"4","last_reported":1702361400,"current_range_meters":17200,"station_id":"ce4bgup2rcd13ifvqcn0","pricing_plan_id":"free"},{"bike_id":"911e8dc9-a87e-4f38-bac3-17dc37d0133a","system_id":"levelo_inurba_marseille","lat":43.30464,"lon":5.37904,"is_reserved":false,"is_disabled":false,"rental_uris":{"android":"levelo://app?vid=911e8dc9-a87e-4f38-bac3-17dc37d0133a","ios":"levelo://app?vid=911e8dc9-a87e-4f38-bac3-17dc37d0133a"},"vehicle_type_id":"4","last_reported":1702361400,"current_range_meters":25600,"station_id":"ce4bgup2rcd13ifvqcn0","pricing_plan_id":"free"},{"bike_id":"144be60d-8ff7-47e9-8287-2b02e24734ac","system_id":"levelo_inurba_marseille","lat":43.3046,"lon":5.379,"is_reserved":false,"is_disabled":false,"rental_uris":{"android":"levelo://app?vid=144be60d-8ff7-47e9-8287-2b02e24734ac","ios":"levelo://app?vid=144be60d-8ff7-47e9-8287-2b02e24734ac"},"vehicle_type_id":"4","last_reported":1702361400,"current_range_meters":30400,"station_id":"ce4bgup2rcd13ifvqcn0","pricing_plan_id":"free"},{"bike_id":"dde576eb-e7df-4296-843a-b445a493cc96","system_id":"levelo_inurba_marseille","lat":43.304606,"lon":5.379026,"is_reserved":false,"is_disabled":false,"rental_uris":{"android":"levelo://app?vid=dde576eb-e7df-4296-843a-b445a493cc96","ios":"levelo://app?vid=dde576eb-e7df-4296-843a-b445a493cc96"},"vehicle_type_id":"4","last_reported":1702361400,"current_range_meters":15600,"station_id":"ce4bgup2rcd13ifvqcn0","pricing_plan_id":"free"},{"bike_id":"37e5c5a6-21bd-47c5-ab78-953025a6cde1","system_id":"levelo_inurba_marseille","lat":43.30459,"lon":5.37901,"is_reserved":false,"is_disabled":false,"rental_uris":{"android":"levelo://app?vid=37e5c5a6-21bd-47c5-ab78-953025a6cde1","ios":"levelo://app?vid=37e5c5a6-21bd-47c5-ab78-953025a6cde1"},"vehicle_type_id":"4","last_reported":1702361400,"current_range_meters":27200,"station_id":"ce4bgup2rcd13ifvqcn0","pricing_plan_id":"free"},{"bike_id":"e70daa5b-80c9-43c0-bf77-e6397f472f93","system_id":"levelo_inurba_marseille","lat":43.304606,"lon":5.379026,"is_reserved":false,"is_disabled":false,"rental_uris":{"android":"levelo://app?vid=e70daa5b-80c9-43c0-bf77-e6397f472f93","ios":"levelo://app?vid=e70daa5b-80c9-43c0-bf77-e6397f472f93"},"vehicle_type_id":"4","last_reported":1702361400,"current_range_meters":26000,"station_id":"ce4bgup2rcd13ifvqcn0","pricing_plan_id":"free"},{"bike_id":"81bfdb9e-2de3-4edb-8708-58a03cbfaa2b","system_id":"levelo_inurba_marseille","lat":43.304606,"lon":5.379026,"is_reserved":false,"is_disabled":false,"rental_uris":{"android":"levelo://app?vid=81bfdb9e-2de3-4edb-8708-58a03cbfaa2b","ios":"levelo://app?vid=81bfdb9e-2de3-4edb-8708-58a03cbfaa2b"},"vehicle_type_id":"4","last_reported":1702361400,"current_range_meters":4400,"station_id":"ce4bgup2rcd13ifvqcn0","pricing_plan_id":"free"},{"bike_id":"3b67283c-a8db-427c-966c-d01fb34260fd","system_id":"levelo_inurba_marseille","lat":43.304606,"lon":5.379026,"is_reserved":false,"is_disabled":false,"rental_uris":{"android":"levelo://app?vid=3b67283c-a8db-427c-966c-d01fb34260fd","ios":"levelo://app?vid=3b67283c-a8db-427c-966c-d01fb34260fd"},"vehicle_type_id":"4","last_reported":1702361400,"current_range_meters":26400,"station_id":"ce4bgup2rcd13ifvqcn0","pricing_plan_id":"free"},{"bike_id":"b8ec38d8-15c9-40d3-ab15-09aa2f2f24a8","system_id":"levelo_inurba_marseille","lat":43.304614,"lon":5.379062,"is_reserved":false,"is_disabled":false,"rental_uris":{"android":"levelo://app?vid=b8ec38d8-15c9-40d3-ab15-09aa2f2f24a8","ios":"levelo://app?vid=b8ec38d8-15c9-40d3-ab15-09aa2f2f24a8"},"vehicle_type_id":"4","last_reported":1702361400,"current_range_meters":26400,"station_id":"ce4bgup2rcd13ifvqcn0","pricing_plan_id":"free"},{"bike_id":"27ca4643-898d-4953-adb5-82dc04113679","system_id":"levelo_inurba_marseille","lat":43.304606,"lon":5.379026,"is_reserved":false,"is_disabled":false,"rental_uris":{"android":"levelo://app?vid=27ca4643-898d-4953-adb5-82dc04113679","ios":"levelo://app?vid=27ca4643-898d-4953-adb5-82dc04113679"},"vehicle_type_id":"4","last_reported":1702361400,"current_range_meters":25200,"station_id":"ce4bgup2rcd13ifvqcn0","pricing_plan_id":"free"},{"bike_id":"9e95db9f-c5c5-481b-895c-b18043ba8ff8","system_id":"levelo_inurba_marseille","lat":43.304606,"lon":5.379026,"is_reserved":false,"is_disabled":false,"rental_uris":{"android":"levelo://app?vid=9e95db9f-c5c5-481b-895c-b18043ba8ff8","ios":"levelo://app?vid=9e95db9f-c5c5-481b-895c-b18043ba8ff8"},"vehicle_type_id":"4","last_reported":1702361400,"current_range_meters":24800,"station_id":"ce4bgup2rcd13ifvqcn0","pricing_plan_id":"free"},{"bike_id":"30ac48b7-d3ee-4664-9a5a-d5b7964664ea","system_id":"levelo_inurba_marseille","lat":43.304606,"lon":5.379026,"is_reserved":false,"is_disabled":false,"rental_uris":{"android":"levelo://app?vid=30ac48b7-d3ee-4664-9a5a-d5b7964664ea","ios":"levelo://app?vid=30ac48b7-d3ee-4664-9a5a-d5b7964664ea"},"vehicle_type_id":"4","last_reported":1702361400,"current_range_meters":24400,"station_id":"ce4bgup2rcd13ifvqcn0","pricing_plan_id":"free"},{"bike_id":"f5c15af1-3f9d-4473-9ad7-de87aa774007","system_id":"levelo_inurba_marseille","lat":43.304606,"lon":5.379026,"is_reserved":false,"is_disabled":false,"rental_uris":{"android":"levelo://app?vid=f5c15af1-3f9d-4473-9ad7-de87aa774007","ios":"levelo://app?vid=f5c15af1-3f9d-4473-9ad7-de87aa774007"},"vehicle_type_id":"4","last_reported":1702361400,"current_range_meters":28400,"station_id":"ce4bgup2rcd13ifvqcn0","pricing_plan_id":"free"},{"bike_id":"872b2ecb-bc0b-43b8-ae42-a0174018d0d8","system_id":"levelo_inurba_marseille","lat":43.324771,"lon":5.36557,"is_reserved":false,"is_disabled":false,"rental_uris":{"android":"levelo://app?vid=872b2ecb-bc0b-43b8-ae42-a0174018d0d8","ios":"levelo://app?vid=872b2ecb-bc0b-43b8-ae42-a0174018d0d8"},"vehicle_type_id":"4","last_reported":1702361400,"current_range_meters":10000,"station_id":"ce4bhs12rcd13ifvqhvg","pricing_plan_id":"free"},{"bike_id":"0e5c40e8-ebed-4931-83fe-85dba49e1364","system_id":"levelo_inurba_marseille","lat":43.302784,"lon":5.377158,"is_reserved":false,"is_disabled":false,"rental_uris":{"android":"levelo://app?vid=0e5c40e8-ebed-4931-83fe-85dba49e1364","ios":"levelo://app?vid=0e5c40e8-ebed-4931-83fe-85dba49e1364"},"vehicle_type_id":"4","last_reported":1702361400,"current_range_meters":24800,"station_id":"ce4bguh2rcd13ifvqcj0","pricing_plan_id":"free"},{"bike_id":"b0c22b0b-d98d-4f75-a897-bc0e1a3477b2","system_id":"levelo_inurba_marseille","lat":43.301429,"lon":5.37413,"is_reserved":false,"is_disabled":false,"rental_uris":{"android":"levelo://app?vid=b0c22b0b-d98d-4f75-a897-bc0e1a3477b2","ios":"levelo://app?vid=b0c22b0b-d98d-4f75-a897-bc0e1a3477b2"},"vehicle_type_id":"4","last_reported":1702361400,"current_range_meters":26000,"station_id":"ce4bgs92rcd13ifvqcc0","pricing_plan_id":"free"},{"bike_id":"5b8abfcc-9c48-417f-a497-8e776482d0b8","system_id":"levelo_inurba_marseille","lat":43.301429,"lon":5.37413,"is_reserved":false,"is_disabled":false,"rental_uris":{"android":"levelo://app?vid=5b8abfcc-9c48-417f-a497-8e776482d0b8","ios":"levelo://app?vid=5b8abfcc-9c48-417f-a497-8e776482d0b8"},"vehicle_type_id":"4","last_reported":1702361400,"current_range_meters":27200,"station_id":"ce4bgs92rcd13ifvqcc0","pricing_plan_id":"free"},{"bike_id":"3db3b777-97d3-4b34-921c-6951682c7d13","system_id":"levelo_inurba_marseille","lat":43.31356,"lon":5.38493,"is_reserved":false,"is_disabled":false,"rental_uris":{"android":"levelo://app?vid=3db3b777-97d3-4b34-921c-6951682c7d13","ios":"levelo://app?vid=3db3b777-97d3-4b34-921c-6951682c7d13"},"vehicle_type_id":"4","last_reported":1702361400,"current_range_meters":13600,"station_id":"ce4bgt92rcd13ifvqcf0","pricing_plan_id":"free"},{"bike_id":"b8be3792-f693-4e2a-90cd-451acaf020e9","system_id":"levelo_inurba_marseille","lat":43.305364,"lon":5.384119,"is_reserved":false,"is_disabled":false,"rental_uris":{"android":"levelo://app?vid=b8be3792-f693-4e2a-90cd-451acaf020e9","ios":"levelo://app?vid=b8be3792-f693-4e2a-90cd-451acaf020e9"},"vehicle_type_id":"4","last_reported":1702361400,"current_range_meters":26400,"station_id":"ce4bgg92rcd13ifvqb30","pricing_plan_id":"free"},{"bike_id":"39ee9a89-500c-428a-984f-632f4eb66c7b","system_id":"levelo_inurba_marseille","lat":43.328338,"lon":5.366766,"is_reserved":false,"is_disabled":false,"rental_uris":{"android":"levelo://app?vid=39ee9a89-500c-428a-984f-632f4eb66c7b","ios":"levelo://app?vid=39ee9a89-500c-428a-984f-632f4eb66c7b"},"vehicle_type_id":"4","last_reported":1702361400,"current_range_meters":17600,"station_id":"ce4bhs92rcd13ifvqi0g","pricing_plan_id":"free"},{"bike_id":"d18d8f96-736b-4edb-ab04-0a1e2c032b0d","system_id":"levelo_inurba_marseille","lat":43.299028,"lon":5.381509,"is_reserved":false,"is_disabled":false,"rental_uris":{"android":"levelo://app?vid=d18d8f96-736b-4edb-ab04-0a1e2c032b0d","ios":"levelo://app?vid=d18d8f96-736b-4edb-ab04-0a1e2c032b0d"},"vehicle_type_id":"4","last_reported":1702361400,"current_range_meters":29200,"station_id":"ce4bgj12rcd13ifvqbc0","pricing_plan_id":"free"},{"bike_id":"b3e21c96-b2fa-4002-ac43-a1334857ab53","system_id":"levelo_inurba_marseille","lat":43.296921,"lon":5.376579,"is_reserved":false,"is_disabled":false,"rental_uris":{"android":"levelo://app?vid=b3e21c96-b2fa-4002-ac43-a1334857ab53","ios":"levelo://app?vid=b3e21c96-b2fa-4002-ac43-a1334857ab53"},"vehicle_type_id":"4","last_reported":1702361400,"current_range_meters":30400,"station_id":"ce4bgkh2rcd13ifvqbl0","pricing_plan_id":"free"},{"bike_id":"d866aef8-e7be-403f-8d10-d09f827aef5f","system_id":"levelo_inurba_marseille","lat":43.299028,"lon":5.381509,"is_reserved":false,"is_disabled":false,"rental_uris":{"android":"levelo://app?vid=d866aef8-e7be-403f-8d10-d09f827aef5f","ios":"levelo://app?vid=d866aef8-e7be-403f-8d10-d09f827aef5f"},"vehicle_type_id":"4","last_reported":1702361400,"current_range_meters":23600,"station_id":"ce4bgj12rcd13ifvqbc0","pricing_plan_id":"free"},{"bike_id":"fb21c64d-dcc4-4629-a4aa-de95fd39a6bd","system_id":"levelo_inurba_marseille","lat":43.299028,"lon":5.381509,"is_reserved":false,"is_disabled":false,"rental_uris":{"android":"levelo://app?vid=fb21c64d-dcc4-4629-a4aa-de95fd39a6bd","ios":"levelo://app?vid=fb21c64d-dcc4-4629-a4aa-de95fd39a6bd"},"vehicle_type_id":"4","last_reported":1702361400,"current_range_meters":27600,"station_id":"ce4bgj12rcd13ifvqbc0","pricing_plan_id":"free"},{"bike_id":"c66d7ad2-1cb7-48cd-b397-09f0c1ed512f","system_id":"levelo_inurba_marseille","lat":43.317557,"lon":5.390173,"is_reserved":false,"is_disabled":false,"rental_uris":{"android":"levelo://app?vid=c66d7ad2-1cb7-48cd-b397-09f0c1ed512f","ios":"levelo://app?vid=c66d7ad2-1cb7-48cd-b397-09f0c1ed512f"},"vehicle_type_id":"4","last_reported":1702361400,"current_range_meters":31200,"station_id":"ce4bhqp2rcd13ifvqhng","pricing_plan_id":"free"},{"bike_id":"823bb91b-762a-4ec2-a01a-ad3bc229cdbd","system_id":"levelo_inurba_marseille","lat":43.317557,"lon":5.390173,"is_reserved":false,"is_disabled":false,"rental_uris":{"android":"levelo://app?vid=823bb91b-762a-4ec2-a01a-ad3bc229cdbd","ios":"levelo://app?vid=823bb91b-762a-4ec2-a01a-ad3bc229cdbd"},"vehicle_type_id":"4","last_reported":1702361400,"current_range_meters":3600,"station_id":"ce4bhqp2rcd13ifvqhng","pricing_plan_id":"free"},{"bike_id":"554de302-5f1c-4cb6-b3c5-520defb19d1f","system_id":"levelo_inurba_marseille","lat":43.296263,"lon":5.377094,"is_reserved":false,"is_disabled":false,"rental_uris":{"android":"levelo://app?vid=554de302-5f1c-4cb6-b3c5-520defb19d1f","ios":"levelo://app?vid=554de302-5f1c-4cb6-b3c5-520defb19d1f"},"vehicle_type_id":"4","last_reported":1702361400,"current_range_meters":16400,"station_id":"ce4bgi92rcd13ifvqb90","pricing_plan_id":"free"},{"bike_id":"e85fc1b9-efea-4c89-b39a-10bbbb0e80b3","system_id":"levelo_inurba_marseille","lat":43.2958,"lon":5.375137,"is_reserved":false,"is_disabled":false,"rental_uris":{"android":"levelo://app?vid=e85fc1b9-efea-4c89-b39a-10bbbb0e80b3","ios":"levelo://app?vid=e85fc1b9-efea-4c89-b39a-10bbbb0e80b3"},"vehicle_type_id":"4","last_reported":1702361400,"current_range_meters":19600,"station_id":"ce4bgh92rcd13ifvqb50","pricing_plan_id":"free"},{"bike_id":"a2b39ddd-33bb-44e9-a2c3-ca263e176af6","system_id":"levelo_inurba_marseille","lat":43.29509,"lon":5.375073,"is_reserved":false,"is_disabled":false,"rental_uris":{"android":"levelo://app?vid=a2b39ddd-33bb-44e9-a2c3-ca263e176af6","ios":"levelo://app?vid=a2b39ddd-33bb-44e9-a2c3-ca263e176af6"},"vehicle_type_id":"4","last_reported":1702361400,"current_range_meters":19600,"station_id":"ce4bgkp2rcd13ifvqbmg","pricing_plan_id":"free"},{"bike_id":"1abc0508-1d35-46c6-b9b9-6b0623ba8805","system_id":"levelo_inurba_marseille","lat":43.299724,"lon":5.384848,"is_reserved":false,"is_disabled":false,"rental_uris":{"android":"levelo://app?vid=1abc0508-1d35-46c6-b9b9-6b0623ba8805","ios":"levelo://app?vid=1abc0508-1d35-46c6-b9b9-6b0623ba8805"},"vehicle_type_id":"4","last_reported":1702361400,"current_range_meters":10000,"station_id":"ce4bgj92rcd13ifvqbd0","pricing_plan_id":"free"},{"bike_id":"77a6c46d-d898-4e4f-8846-efa91689c7f0","system_id":"levelo_inurba_marseille","lat":43.295503,"lon":5.379268,"is_reserved":false,"is_disabled":false,"rental_uris":{"android":"levelo://app?vid=77a6c46d-d898-4e4f-8846-efa91689c7f0","ios":"levelo://app?vid=77a6c46d-d898-4e4f-8846-efa91689c7f0"},"vehicle_type_id":"4","last_reported":1702361400,"current_range_meters":0,"station_id":"","pricing_plan_id":"free"},{"bike_id":"e914990b-de8c-4998-aebe-f8f4e0f31134","system_id":"levelo_inurba_marseille","lat":43.305994,"lon":5.393687,"is_reserved":false,"is_disabled":false,"rental_uris":{"android":"levelo://app?vid=e914990b-de8c-4998-aebe-f8f4e0f31134","ios":"levelo://app?vid=e914990b-de8c-4998-aebe-f8f4e0f31134"},"vehicle_type_id":"4","last_reported":1702361400,"current_range_meters":27600,"station_id":"ce4bh0p2rcd13ifvqd80","pricing_plan_id":"free"},{"bike_id":"fe166381-cafd-4dc4-bf0d-a60a7099afa6","system_id":"levelo_inurba_marseille","lat":43.305994,"lon":5.393687,"is_reserved":false,"is_disabled":false,"rental_uris":{"android":"levelo://app?vid=fe166381-cafd-4dc4-bf0d-a60a7099afa6","ios":"levelo://app?vid=fe166381-cafd-4dc4-bf0d-a60a7099afa6"},"vehicle_type_id":"4","last_reported":1702361400,"current_range_meters":28400,"station_id":"ce4bh0p2rcd13ifvqd80","pricing_plan_id":"free"},{"bike_id":"54d78e61-972e-4da8-8967-c768a0b9686a","system_id":"levelo_inurba_marseille","lat":43.293009,"lon":5.374584,"is_reserved":false,"is_disabled":false,"rental_uris":{"android":"levelo://app?vid=54d78e61-972e-4da8-8967-c768a0b9686a","ios":"levelo://app?vid=54d78e61-972e-4da8-8967-c768a0b9686a"},"vehicle_type_id":"4","last_reported":1702361400,"current_range_meters":25200,"station_id":"ce4bgi12rcd13ifvqb70","pricing_plan_id":"free"},{"bike_id":"b0debcb2-0b8e-43fd-a357-2a7c99a4970f","system_id":"levelo_inurba_marseille","lat":43.2936,"lon":5.37835,"is_reserved":false,"is_disabled":false,"rental_uris":{"android":"levelo://app?vid=b0debcb2-0b8e-43fd-a357-2a7c99a4970f","ios":"levelo://app?vid=b0debcb2-0b8e-43fd-a357-2a7c99a4970f"},"vehicle_type_id":"4","last_reported":1702361400,"current_range_meters":19200,"station_id":"ce4bgjh2rcd13ifvqbf0","pricing_plan_id":"free"},{"bike_id":"8f3d33b9-c0b2-4f25-b9d8-d9506daa208d","system_id":"levelo_inurba_marseille","lat":43.292318,"lon":5.360752,"is_reserved":false,"is_disabled":false,"rental_uris":{"android":"levelo://app?vid=8f3d33b9-c0b2-4f25-b9d8-d9506daa208d","ios":"levelo://app?vid=8f3d33b9-c0b2-4f25-b9d8-d9506daa208d"},"vehicle_type_id":"4","last_reported":1702361400,"current_range_meters":26000,"station_id":"","pricing_plan_id":"free"},{"bike_id":"79f36a7a-c67e-49d9-8621-9a5e25641ac8","system_id":"levelo_inurba_marseille","lat":43.292311,"lon":5.360731,"is_reserved":false,"is_disabled":false,"rental_uris":{"android":"levelo://app?vid=79f36a7a-c67e-49d9-8621-9a5e25641ac8","ios":"levelo://app?vid=79f36a7a-c67e-49d9-8621-9a5e25641ac8"},"vehicle_type_id":"4","last_reported":1702361400,"current_range_meters":24800,"station_id":"ce4bhbh2rcd13ifvqeqg","pricing_plan_id":"free"},{"bike_id":"f16a8c23-86ac-479c-a7a4-06ade6276d49","system_id":"levelo_inurba_marseille","lat":43.292311,"lon":5.360731,"is_reserved":false,"is_disabled":false,"rental_uris":{"android":"levelo://app?vid=f16a8c23-86ac-479c-a7a4-06ade6276d49","ios":"levelo://app?vid=f16a8c23-86ac-479c-a7a4-06ade6276d49"},"vehicle_type_id":"4","last_reported":1702361400,"current_range_meters":20800,"station_id":"ce4bhbh2rcd13ifvqeqg","pricing_plan_id":"free"},{"bike_id":"ca4e135c-886c-4148-ae09-abe9471e060c","system_id":"levelo_inurba_marseille","lat":43.292311,"lon":5.360731,"is_reserved":false,"is_disabled":false,"rental_uris":{"android":"levelo://app?vid=ca4e135c-886c-4148-ae09-abe9471e060c","ios":"levelo://app?vid=ca4e135c-886c-4148-ae09-abe9471e060c"},"vehicle_type_id":"4","last_reported":1702361400,"current_range_meters":29600,"station_id":"ce4bhbh2rcd13ifvqeqg","pricing_plan_id":"free"},{"bike_id":"e0faa393-c92d-4b64-8e12-1c27f1b99ac3","system_id":"levelo_inurba_marseille","lat":43.298697,"lon":5.389071,"is_reserved":false,"is_disabled":false,"rental_uris":{"android":"levelo://app?vid=e0faa393-c92d-4b64-8e12-1c27f1b99ac3","ios":"levelo://app?vid=e0faa393-c92d-4b64-8e12-1c27f1b99ac3"},"vehicle_type_id":"4","last_reported":1702361400,"current_range_meters":27600,"station_id":"","pricing_plan_id":"free"},{"bike_id":"f71c9aef-bc48-4fa3-aabe-f8ce93331081","system_id":"levelo_inurba_marseille","lat":43.309047,"lon":5.396551,"is_reserved":false,"is_disabled":false,"rental_uris":{"android":"levelo://app?vid=f71c9aef-bc48-4fa3-aabe-f8ce93331081","ios":"levelo://app?vid=f71c9aef-bc48-4fa3-aabe-f8ce93331081"},"vehicle_type_id":"4","last_reported":1702361400,"current_range_meters":30800,"station_id":"ce4bh012rcd13ifvqcv0","pricing_plan_id":"free"},{"bike_id":"85b278e9-66bb-4dbc-a71e-339a9e5967ff","system_id":"levelo_inurba_marseille","lat":43.291994,"lon":5.357886,"is_reserved":false,"is_disabled":false,"rental_uris":{"android":"levelo://app?vid=85b278e9-66bb-4dbc-a71e-339a9e5967ff","ios":"levelo://app?vid=85b278e9-66bb-4dbc-a71e-339a9e5967ff"},"vehicle_type_id":"4","last_reported":1702361400,"current_range_meters":25200,"station_id":"ce4bhb12rcd13ifvqel0","pricing_plan_id":"free"},{"bike_id":"8a9ebd5e-84a5-42a2-8caf-d31d53bb6f24","system_id":"levelo_inurba_marseille","lat":43.309038,"lon":5.396546,"is_reserved":false,"is_disabled":false,"rental_uris":{"android":"levelo://app?vid=8a9ebd5e-84a5-42a2-8caf-d31d53bb6f24","ios":"levelo://app?vid=8a9ebd5e-84a5-42a2-8caf-d31d53bb6f24"},"vehicle_type_id":"4","last_reported":1702361400,"current_range_meters":19600,"station_id":"ce4bh012rcd13ifvqcv0","pricing_plan_id":"free"},{"bike_id":"a1f74885-a7d3-41ca-9106-01aad1c6cac8","system_id":"levelo_inurba_marseille","lat":43.309047,"lon":5.396551,"is_reserved":false,"is_disabled":false,"rental_uris":{"android":"levelo://app?vid=a1f74885-a7d3-41ca-9106-01aad1c6cac8","ios":"levelo://app?vid=a1f74885-a7d3-41ca-9106-01aad1c6cac8"},"vehicle_type_id":"4","last_reported":1702361400,"current_range_meters":24800,"station_id":"ce4bh012rcd13ifvqcv0","pricing_plan_id":"free"},{"bike_id":"c58fb81b-b58a-4c1c-8905-ff0b5c194be1","system_id":"levelo_inurba_marseille","lat":43.309038,"lon":5.396546,"is_reserved":false,"is_disabled":false,"rental_uris":{"android":"levelo://app?vid=c58fb81b-b58a-4c1c-8905-ff0b5c194be1","ios":"levelo://app?vid=c58fb81b-b58a-4c1c-8905-ff0b5c194be1"},"vehicle_type_id":"4","last_reported":1702361400,"current_range_meters":31600,"station_id":"ce4bh012rcd13ifvqcv0","pricing_plan_id":"free"},{"bike_id":"517c42ea-c77d-4036-adbe-a1bb83a96400","system_id":"levelo_inurba_marseille","lat":43.313291,"lon":5.396838,"is_reserved":false,"is_disabled":false,"rental_uris":{"android":"levelo://app?vid=517c42ea-c77d-4036-adbe-a1bb83a96400","ios":"levelo://app?vid=517c42ea-c77d-4036-adbe-a1bb83a96400"},"vehicle_type_id":"4","last_reported":1702361400,"current_range_meters":11200,"station_id":"ce4bgvp2rcd13ifvqcu0","pricing_plan_id":"free"},{"bike_id":"0a59cd9c-4528-49e7-8da2-870e4d3915d8","system_id":"levelo_inurba_marseille","lat":43.291915,"lon":5.35794,"is_reserved":false,"is_disabled":false,"rental_uris":{"android":"levelo://app?vid=0a59cd9c-4528-49e7-8da2-870e4d3915d8","ios":"levelo://app?vid=0a59cd9c-4528-49e7-8da2-870e4d3915d8"},"vehicle_type_id":"4","last_reported":1702361400,"current_range_meters":15600,"station_id":"ce4bhb12rcd13ifvqel0","pricing_plan_id":"free"},{"bike_id":"236e90fe-0390-4322-aa62-124d371d9448","system_id":"levelo_inurba_marseille","lat":43.313291,"lon":5.396838,"is_reserved":false,"is_disabled":false,"rental_uris":{"android":"levelo://app?vid=236e90fe-0390-4322-aa62-124d371d9448","ios":"levelo://app?vid=236e90fe-0390-4322-aa62-124d371d9448"},"vehicle_type_id":"4","last_reported":1702361400,"current_range_meters":31200,"station_id":"ce4bgvp2rcd13ifvqcu0","pricing_plan_id":"free"},{"bike_id":"5e4e3053-1a62-4f10-b2d2-4cad01d24133","system_id":"levelo_inurba_marseille","lat":43.31329,"lon":5.39694,"is_reserved":false,"is_disabled":false,"rental_uris":{"android":"levelo://app?vid=5e4e3053-1a62-4f10-b2d2-4cad01d24133","ios":"levelo://app?vid=5e4e3053-1a62-4f10-b2d2-4cad01d24133"},"vehicle_type_id":"4","last_reported":1702361400,"current_range_meters":21600,"station_id":"ce4bgvp2rcd13ifvqcu0","pricing_plan_id":"free"},{"bike_id":"f3975721-0e9e-4040-85c4-e9fc444094bb","system_id":"levelo_inurba_marseille","lat":43.313291,"lon":5.396838,"is_reserved":false,"is_disabled":false,"rental_uris":{"android":"levelo://app?vid=f3975721-0e9e-4040-85c4-e9fc444094bb","ios":"levelo://app?vid=f3975721-0e9e-4040-85c4-e9fc444094bb"},"vehicle_type_id":"4","last_reported":1702361400,"current_range_meters":31600,"station_id":"ce4bgvp2rcd13ifvqcu0","pricing_plan_id":"free"},{"bike_id":"82275367-a30e-4b81-9e77-f6cbcaf1c7ff","system_id":"levelo_inurba_marseille","lat":43.290779,"lon":5.371482,"is_reserved":false,"is_disabled":false,"rental_uris":{"android":"levelo://app?vid=82275367-a30e-4b81-9e77-f6cbcaf1c7ff","ios":"levelo://app?vid=82275367-a30e-4b81-9e77-f6cbcaf1c7ff"},"vehicle_type_id":"4","last_reported":1702361400,"current_range_meters":30000,"station_id":"ce4bh5p2rcd13ifvqe4g","pricing_plan_id":"free"},{"bike_id":"9df2f4f5-a6f9-488d-99bb-defbb0944b1e","system_id":"levelo_inurba_marseille","lat":43.290624,"lon":5.359245,"is_reserved":false,"is_disabled":false,"rental_uris":{"android":"levelo://app?vid=9df2f4f5-a6f9-488d-99bb-defbb0944b1e","ios":"levelo://app?vid=9df2f4f5-a6f9-488d-99bb-defbb0944b1e"},"vehicle_type_id":"4","last_reported":1702361400,"current_range_meters":27600,"station_id":"ce4bha92rcd13ifvqeg0","pricing_plan_id":"free"},{"bike_id":"de1b65e4-37d7-42ff-aac6-851b697b01bb","system_id":"levelo_inurba_marseille","lat":43.289386,"lon":5.364001,"is_reserved":false,"is_disabled":false,"rental_uris":{"android":"levelo://app?vid=de1b65e4-37d7-42ff-aac6-851b697b01bb","ios":"levelo://app?vid=de1b65e4-37d7-42ff-aac6-851b697b01bb"},"vehicle_type_id":"4","last_reported":1702361400,"current_range_meters":28400,"station_id":"ce4bhc92rcd13ifvqetg","pricing_plan_id":"free"},{"bike_id":"438c3385-8c1c-49d4-a6b8-a456dc267873","system_id":"levelo_inurba_marseille","lat":43.292642,"lon":5.384254,"is_reserved":false,"is_disabled":false,"rental_uris":{"android":"levelo://app?vid=438c3385-8c1c-49d4-a6b8-a456dc267873","ios":"levelo://app?vid=438c3385-8c1c-49d4-a6b8-a456dc267873"},"vehicle_type_id":"4","last_reported":1702361400,"current_range_meters":27200,"station_id":"ce4bh692rcd13ifvqea0","pricing_plan_id":"free"},{"bike_id":"f1896741-896e-40c9-aa4d-96fe134ed880","system_id":"levelo_inurba_marseille","lat":43.33043,"lon":5.3892,"is_reserved":false,"is_disabled":false,"rental_uris":{"android":"levelo://app?vid=f1896741-896e-40c9-aa4d-96fe134ed880","ios":"levelo://app?vid=f1896741-896e-40c9-aa4d-96fe134ed880"},"vehicle_type_id":"4","last_reported":1702361400,"current_range_meters":2400,"station_id":"ce4bhr92rcd13ifvqhrg","pricing_plan_id":"free"},{"bike_id":"4601da1a-2bc2-4be5-8fac-e44f32e20802","system_id":"levelo_inurba_marseille","lat":43.330442,"lon":5.389148,"is_reserved":false,"is_disabled":false,"rental_uris":{"android":"levelo://app?vid=4601da1a-2bc2-4be5-8fac-e44f32e20802","ios":"levelo://app?vid=4601da1a-2bc2-4be5-8fac-e44f32e20802"},"vehicle_type_id":"4","last_reported":1702361400,"current_range_meters":24800,"station_id":"ce4bhr92rcd13ifvqhrg","pricing_plan_id":"free"},{"bike_id":"02248679-509f-4b57-97bb-e9d71f1470fa","system_id":"levelo_inurba_marseille","lat":43.290104,"lon":5.356111,"is_reserved":false,"is_disabled":false,"rental_uris":{"android":"levelo://app?vid=02248679-509f-4b57-97bb-e9d71f1470fa","ios":"levelo://app?vid=02248679-509f-4b57-97bb-e9d71f1470fa"},"vehicle_type_id":"4","last_reported":1702361400,"current_range_meters":28800,"station_id":"ce4bhb92rcd13ifvqen0","pricing_plan_id":"free"},{"bike_id":"b044f186-c135-4618-9755-3253450f054a","system_id":"levelo_inurba_marseille","lat":43.290104,"lon":5.356111,"is_reserved":false,"is_disabled":false,"rental_uris":{"android":"levelo://app?vid=b044f186-c135-4618-9755-3253450f054a","ios":"levelo://app?vid=b044f186-c135-4618-9755-3253450f054a"},"vehicle_type_id":"4","last_reported":1702361400,"current_range_meters":9600,"station_id":"ce4bhb92rcd13ifvqen0","pricing_plan_id":"free"},{"bike_id":"34359b03-3406-4fec-996b-4369f069a980","system_id":"levelo_inurba_marseille","lat":43.290104,"lon":5.356111,"is_reserved":false,"is_disabled":false,"rental_uris":{"android":"levelo://app?vid=34359b03-3406-4fec-996b-4369f069a980","ios":"levelo://app?vid=34359b03-3406-4fec-996b-4369f069a980"},"vehicle_type_id":"4","last_reported":1702361400,"current_range_meters":30400,"station_id":"ce4bhb92rcd13ifvqen0","pricing_plan_id":"free"},{"bike_id":"c9523811-9a5b-46a2-b7f2-1136988f2d4e","system_id":"levelo_inurba_marseille","lat":43.312801,"lon":5.401673,"is_reserved":false,"is_disabled":false,"rental_uris":{"android":"levelo://app?vid=c9523811-9a5b-46a2-b7f2-1136988f2d4e","ios":"levelo://app?vid=c9523811-9a5b-46a2-b7f2-1136988f2d4e"},"vehicle_type_id":"4","last_reported":1702361400,"current_range_meters":0,"station_id":"ce4bh092rcd13ifvqd30","pricing_plan_id":"free"},{"bike_id":"533ab8ea-2bc7-468d-a492-34a782fe4afb","system_id":"levelo_inurba_marseille","lat":43.33743,"lon":5.37457,"is_reserved":false,"is_disabled":false,"rental_uris":{"android":"levelo://app?vid=533ab8ea-2bc7-468d-a492-34a782fe4afb","ios":"levelo://app?vid=533ab8ea-2bc7-468d-a492-34a782fe4afb"},"vehicle_type_id":"4","last_reported":1702361400,"current_range_meters":16400,"station_id":"","pricing_plan_id":"free"},{"bike_id":"e1115d16-a177-4b09-99f4-d84a7f0a9df4","system_id":"levelo_inurba_marseille","lat":43.337451,"lon":5.37467,"is_reserved":false,"is_disabled":false,"rental_uris":{"android":"levelo://app?vid=e1115d16-a177-4b09-99f4-d84a7f0a9df4","ios":"levelo://app?vid=e1115d16-a177-4b09-99f4-d84a7f0a9df4"},"vehicle_type_id":"4","last_reported":1702361400,"current_range_meters":24800,"station_id":"","pricing_plan_id":"free"},{"bike_id":"1ffa6cab-2192-4490-9617-61044011c6b1","system_id":"levelo_inurba_marseille","lat":43.337456,"lon":5.374695,"is_reserved":false,"is_disabled":false,"rental_uris":{"android":"levelo://app?vid=1ffa6cab-2192-4490-9617-61044011c6b1","ios":"levelo://app?vid=1ffa6cab-2192-4490-9617-61044011c6b1"},"vehicle_type_id":"4","last_reported":1702361400,"current_range_meters":17200,"station_id":"","pricing_plan_id":"free"},{"bike_id":"04f2bbd9-e4af-4dc3-b0dc-d4fbea54adfc","system_id":"levelo_inurba_marseille","lat":43.30926,"lon":5.40144,"is_reserved":false,"is_disabled":false,"rental_uris":{"android":"levelo://app?vid=04f2bbd9-e4af-4dc3-b0dc-d4fbea54adfc","ios":"levelo://app?vid=04f2bbd9-e4af-4dc3-b0dc-d4fbea54adfc"},"vehicle_type_id":"4","last_reported":1702361400,"current_range_meters":23200,"station_id":"ce4bgvp2rcd13ifvqct0","pricing_plan_id":"free"},{"bike_id":"1a9123ca-1ac0-4cbb-b622-534f88bcae20","system_id":"levelo_inurba_marseille","lat":43.337513,"lon":5.374637,"is_reserved":false,"is_disabled":false,"rental_uris":{"android":"levelo://app?vid=1a9123ca-1ac0-4cbb-b622-534f88bcae20","ios":"levelo://app?vid=1a9123ca-1ac0-4cbb-b622-534f88bcae20"},"vehicle_type_id":"4","last_reported":1702361400,"current_range_meters":28400,"station_id":"","pricing_plan_id":"free"},{"bike_id":"60f84eb0-2206-4e1b-94df-fd8c129930f0","system_id":"levelo_inurba_marseille","lat":43.337668,"lon":5.374343,"is_reserved":false,"is_disabled":false,"rental_uris":{"android":"levelo://app?vid=60f84eb0-2206-4e1b-94df-fd8c129930f0","ios":"levelo://app?vid=60f84eb0-2206-4e1b-94df-fd8c129930f0"},"vehicle_type_id":"4","last_reported":1702361400,"current_range_meters":12800,"station_id":"","pricing_plan_id":"free"},{"bike_id":"d047cbcd-40e8-4493-9700-a648cf295fe1","system_id":"levelo_inurba_marseille","lat":43.337688,"lon":5.37428,"is_reserved":false,"is_disabled":false,"rental_uris":{"android":"levelo://app?vid=d047cbcd-40e8-4493-9700-a648cf295fe1","ios":"levelo://app?vid=d047cbcd-40e8-4493-9700-a648cf295fe1"},"vehicle_type_id":"4","last_reported":1702361400,"current_range_meters":25600,"station_id":"","pricing_plan_id":"free"},{"bike_id":"3718be7f-bfd9-4d4a-a2de-c4fd70ef54d6","system_id":"levelo_inurba_marseille","lat":43.28727,"lon":5.36078,"is_reserved":false,"is_disabled":false,"rental_uris":{"android":"levelo://app?vid=3718be7f-bfd9-4d4a-a2de-c4fd70ef54d6","ios":"levelo://app?vid=3718be7f-bfd9-4d4a-a2de-c4fd70ef54d6"},"vehicle_type_id":"4","last_reported":1702361400,"current_range_meters":27200,"station_id":"cki0cbj6b192h4jlfktg","pricing_plan_id":"free"},{"bike_id":"0b1bd042-7cf7-4527-aa17-3a1421b9a37a","system_id":"levelo_inurba_marseille","lat":43.28727,"lon":5.36078,"is_reserved":false,"is_disabled":false,"rental_uris":{"android":"levelo://app?vid=0b1bd042-7cf7-4527-aa17-3a1421b9a37a","ios":"levelo://app?vid=0b1bd042-7cf7-4527-aa17-3a1421b9a37a"},"vehicle_type_id":"4","last_reported":1702361400,"current_range_meters":28400,"station_id":"cki0cbj6b192h4jlfktg","pricing_plan_id":"free"},{"bike_id":"e97c54bb-3088-41a0-9f33-f64912b45bf8","system_id":"levelo_inurba_marseille","lat":43.286591,"lon":5.363346,"is_reserved":false,"is_disabled":false,"rental_uris":{"android":"levelo://app?vid=e97c54bb-3088-41a0-9f33-f64912b45bf8","ios":"levelo://app?vid=e97c54bb-3088-41a0-9f33-f64912b45bf8"},"vehicle_type_id":"4","last_reported":1702361400,"current_range_meters":31200,"station_id":"ce4bhah2rcd13ifvqej0","pricing_plan_id":"free"},{"bike_id":"eef1e684-4d4c-4afa-9b04-09c2b4dccec4","system_id":"levelo_inurba_marseille","lat":43.286961,"lon":5.373785,"is_reserved":false,"is_disabled":false,"rental_uris":{"android":"levelo://app?vid=eef1e684-4d4c-4afa-9b04-09c2b4dccec4","ios":"levelo://app?vid=eef1e684-4d4c-4afa-9b04-09c2b4dccec4"},"vehicle_type_id":"4","last_reported":1702361400,"current_range_meters":30000,"station_id":"ce4bh3p2rcd13ifvqdq0","pricing_plan_id":"free"},{"bike_id":"0c9207cf-e47f-47f1-a30b-7b5ec0f2d953","system_id":"levelo_inurba_marseille","lat":43.298681,"lon":5.397225,"is_reserved":false,"is_disabled":false,"rental_uris":{"android":"levelo://app?vid=0c9207cf-e47f-47f1-a30b-7b5ec0f2d953","ios":"levelo://app?vid=0c9207cf-e47f-47f1-a30b-7b5ec0f2d953"},"vehicle_type_id":"4","last_reported":1702361400,"current_range_meters":7200,"station_id":"ce4bh0h2rcd13ifvqd50","pricing_plan_id":"free"},{"bike_id":"ef223ad2-521f-457d-b091-405a98725d9f","system_id":"levelo_inurba_marseille","lat":43.284775,"lon":5.374755,"is_reserved":false,"is_disabled":false,"rental_uris":{"android":"levelo://app?vid=ef223ad2-521f-457d-b091-405a98725d9f","ios":"levelo://app?vid=ef223ad2-521f-457d-b091-405a98725d9f"},"vehicle_type_id":"4","last_reported":1702361400,"current_range_meters":25600,"station_id":"","pricing_plan_id":"free"},{"bike_id":"4ad710f1-bb15-4faa-a3cf-10e9391e9e63","system_id":"levelo_inurba_marseille","lat":43.284538,"lon":5.358657,"is_reserved":false,"is_disabled":false,"rental_uris":{"android":"levelo://app?vid=4ad710f1-bb15-4faa-a3cf-10e9391e9e63","ios":"levelo://app?vid=4ad710f1-bb15-4faa-a3cf-10e9391e9e63"},"vehicle_type_id":"4","last_reported":1702361400,"current_range_meters":31200,"station_id":"ce4bhah2rcd13ifvqei0","pricing_plan_id":"free"},{"bike_id":"bd56da42-7cee-48cd-87c1-76e5800e349e","system_id":"levelo_inurba_marseille","lat":43.284607,"lon":5.358938,"is_reserved":false,"is_disabled":false,"rental_uris":{"android":"levelo://app?vid=bd56da42-7cee-48cd-87c1-76e5800e349e","ios":"levelo://app?vid=bd56da42-7cee-48cd-87c1-76e5800e349e"},"vehicle_type_id":"4","last_reported":1702361400,"current_range_meters":13200,"station_id":"ce4bhah2rcd13ifvqei0","pricing_plan_id":"free"},{"bike_id":"07fefea4-e085-425c-92ed-f117310d6b60","system_id":"levelo_inurba_marseille","lat":43.2846,"lon":5.358971,"is_reserved":false,"is_disabled":false,"rental_uris":{"android":"levelo://app?vid=07fefea4-e085-425c-92ed-f117310d6b60","ios":"levelo://app?vid=07fefea4-e085-425c-92ed-f117310d6b60"},"vehicle_type_id":"4","last_reported":1702361400,"current_range_meters":15600,"station_id":"ce4bhah2rcd13ifvqei0","pricing_plan_id":"free"},{"bike_id":"f1d5717b-05bd-4abb-bc8d-ea0a3935464c","system_id":"levelo_inurba_marseille","lat":43.28461,"lon":5.35886,"is_reserved":false,"is_disabled":false,"rental_uris":{"android":"levelo://app?vid=f1d5717b-05bd-4abb-bc8d-ea0a3935464c","ios":"levelo://app?vid=f1d5717b-05bd-4abb-bc8d-ea0a3935464c"},"vehicle_type_id":"4","last_reported":1702361400,"current_range_meters":28800,"station_id":"ce4bhah2rcd13ifvqei0","pricing_plan_id":"free"},{"bike_id":"15d55d0f-f08c-49b5-bbc4-736950b1131e","system_id":"levelo_inurba_marseille","lat":43.284538,"lon":5.358657,"is_reserved":false,"is_disabled":false,"rental_uris":{"android":"levelo://app?vid=15d55d0f-f08c-49b5-bbc4-736950b1131e","ios":"levelo://app?vid=15d55d0f-f08c-49b5-bbc4-736950b1131e"},"vehicle_type_id":"4","last_reported":1702361400,"current_range_meters":31600,"station_id":"ce4bhah2rcd13ifvqei0","pricing_plan_id":"free"},{"bike_id":"f602fdae-0bc9-44d7-bc2b-cea35bd73984","system_id":"levelo_inurba_marseille","lat":43.284538,"lon":5.358657,"is_reserved":false,"is_disabled":false,"rental_uris":{"android":"levelo://app?vid=f602fdae-0bc9-44d7-bc2b-cea35bd73984","ios":"levelo://app?vid=f602fdae-0bc9-44d7-bc2b-cea35bd73984"},"vehicle_type_id":"4","last_reported":1702361400,"current_range_meters":11600,"station_id":"ce4bhah2rcd13ifvqei0","pricing_plan_id":"free"},{"bike_id":"84f594c0-837d-4c3e-b8c1-19a843f36106","system_id":"levelo_inurba_marseille","lat":43.284538,"lon":5.358657,"is_reserved":false,"is_disabled":false,"rental_uris":{"android":"levelo://app?vid=84f594c0-837d-4c3e-b8c1-19a843f36106","ios":"levelo://app?vid=84f594c0-837d-4c3e-b8c1-19a843f36106"},"vehicle_type_id":"4","last_reported":1702361400,"current_range_meters":31200,"station_id":"ce4bhah2rcd13ifvqei0","pricing_plan_id":"free"},{"bike_id":"f41d6c41-374d-4fc3-8a16-8ec3508e96ff","system_id":"levelo_inurba_marseille","lat":43.284538,"lon":5.358657,"is_reserved":false,"is_disabled":false,"rental_uris":{"android":"levelo://app?vid=f41d6c41-374d-4fc3-8a16-8ec3508e96ff","ios":"levelo://app?vid=f41d6c41-374d-4fc3-8a16-8ec3508e96ff"},"vehicle_type_id":"4","last_reported":1702361400,"current_range_meters":24000,"station_id":"ce4bhah2rcd13ifvqei0","pricing_plan_id":"free"},{"bike_id":"bbc7c8a8-da93-4fcc-9064-a6f2c0fd0881","system_id":"levelo_inurba_marseille","lat":43.284565,"lon":5.358931,"is_reserved":false,"is_disabled":false,"rental_uris":{"android":"levelo://app?vid=bbc7c8a8-da93-4fcc-9064-a6f2c0fd0881","ios":"levelo://app?vid=bbc7c8a8-da93-4fcc-9064-a6f2c0fd0881"},"vehicle_type_id":"4","last_reported":1702361400,"current_range_meters":28400,"station_id":"ce4bhah2rcd13ifvqei0","pricing_plan_id":"free"},{"bike_id":"ff87e69a-80ac-4c6c-9a15-ae17ff91f198","system_id":"levelo_inurba_marseille","lat":43.286179,"lon":5.351032,"is_reserved":false,"is_disabled":false,"rental_uris":{"android":"levelo://app?vid=ff87e69a-80ac-4c6c-9a15-ae17ff91f198","ios":"levelo://app?vid=ff87e69a-80ac-4c6c-9a15-ae17ff91f198"},"vehicle_type_id":"4","last_reported":1702361400,"current_range_meters":26000,"station_id":"ce4bhch2rcd13ifvqeug","pricing_plan_id":"free"},{"bike_id":"97d8fcc7-4aef-45da-b019-c3d5381f038e","system_id":"levelo_inurba_marseille","lat":43.286143,"lon":5.351069,"is_reserved":false,"is_disabled":false,"rental_uris":{"android":"levelo://app?vid=97d8fcc7-4aef-45da-b019-c3d5381f038e","ios":"levelo://app?vid=97d8fcc7-4aef-45da-b019-c3d5381f038e"},"vehicle_type_id":"4","last_reported":1702361400,"current_range_meters":28000,"station_id":"ce4bhch2rcd13ifvqeug","pricing_plan_id":"free"},{"bike_id":"6d1885bf-915b-4323-8d7f-0a1ba1e4c02e","system_id":"levelo_inurba_marseille","lat":43.285856,"lon":5.350771,"is_reserved":false,"is_disabled":false,"rental_uris":{"android":"levelo://app?vid=6d1885bf-915b-4323-8d7f-0a1ba1e4c02e","ios":"levelo://app?vid=6d1885bf-915b-4323-8d7f-0a1ba1e4c02e"},"vehicle_type_id":"4","last_reported":1702361400,"current_range_meters":30400,"station_id":"ce4bhch2rcd13ifvqeug","pricing_plan_id":"free"},{"bike_id":"d01d04a1-8264-49b2-b576-4ea9dbacab40","system_id":"levelo_inurba_marseille","lat":43.323464,"lon":5.406297,"is_reserved":false,"is_disabled":false,"rental_uris":{"android":"levelo://app?vid=d01d04a1-8264-49b2-b576-4ea9dbacab40","ios":"levelo://app?vid=d01d04a1-8264-49b2-b576-4ea9dbacab40"},"vehicle_type_id":"4","last_reported":1702361400,"current_range_meters":31200,"station_id":"ce4bhq92rcd13ifvqhjg","pricing_plan_id":"free"},{"bike_id":"0c38c3ff-f5fd-47c8-98fe-054c4bec6455","system_id":"levelo_inurba_marseille","lat":43.323464,"lon":5.406297,"is_reserved":false,"is_disabled":false,"rental_uris":{"android":"levelo://app?vid=0c38c3ff-f5fd-47c8-98fe-054c4bec6455","ios":"levelo://app?vid=0c38c3ff-f5fd-47c8-98fe-054c4bec6455"},"vehicle_type_id":"4","last_reported":1702361400,"current_range_meters":18000,"station_id":"ce4bhq92rcd13ifvqhjg","pricing_plan_id":"free"},{"bike_id":"66cba741-1221-4d29-a72f-f4e0b2ba6a22","system_id":"levelo_inurba_marseille","lat":43.337168,"lon":5.391825,"is_reserved":false,"is_disabled":false,"rental_uris":{"android":"levelo://app?vid=66cba741-1221-4d29-a72f-f4e0b2ba6a22","ios":"levelo://app?vid=66cba741-1221-4d29-a72f-f4e0b2ba6a22"},"vehicle_type_id":"4","last_reported":1702361400,"current_range_meters":30400,"station_id":"ce4bhr92rcd13ifvqhsg","pricing_plan_id":"free"},{"bike_id":"e4833dfb-deba-41bf-8f02-a670407159cc","system_id":"levelo_inurba_marseille","lat":43.284787,"lon":5.384116,"is_reserved":false,"is_disabled":false,"rental_uris":{"android":"levelo://app?vid=e4833dfb-deba-41bf-8f02-a670407159cc","ios":"levelo://app?vid=e4833dfb-deba-41bf-8f02-a670407159cc"},"vehicle_type_id":"4","last_reported":1702361400,"current_range_meters":31200,"station_id":"ce4bh512rcd13ifvqe3g","pricing_plan_id":"free"},{"bike_id":"9db188d9-7ea7-4daf-90e0-708b0c302c6e","system_id":"levelo_inurba_marseille","lat":43.29795,"lon":5.404086,"is_reserved":false,"is_disabled":false,"rental_uris":{"android":"levelo://app?vid=9db188d9-7ea7-4daf-90e0-708b0c302c6e","ios":"levelo://app?vid=9db188d9-7ea7-4daf-90e0-708b0c302c6e"},"vehicle_type_id":"4","last_reported":1702361400,"current_range_meters":28400,"station_id":"ce4bh112rcd13ifvqd90","pricing_plan_id":"free"},{"bike_id":"edf65c39-136f-4f96-9e3a-8e78e720c129","system_id":"levelo_inurba_marseille","lat":43.288501,"lon":5.393087,"is_reserved":false,"is_disabled":false,"rental_uris":{"android":"levelo://app?vid=edf65c39-136f-4f96-9e3a-8e78e720c129","ios":"levelo://app?vid=edf65c39-136f-4f96-9e3a-8e78e720c129"},"vehicle_type_id":"4","last_reported":1702361400,"current_range_meters":29600,"station_id":"ce4bh2p2rcd13ifvqdi0","pricing_plan_id":"free"},{"bike_id":"ffa42566-a0a3-42f5-ac1d-0de9c1f1b219","system_id":"levelo_inurba_marseille","lat":43.283494,"lon":5.380945,"is_reserved":false,"is_disabled":false,"rental_uris":{"android":"levelo://app?vid=ffa42566-a0a3-42f5-ac1d-0de9c1f1b219","ios":"levelo://app?vid=ffa42566-a0a3-42f5-ac1d-0de9c1f1b219"},"vehicle_type_id":"4","last_reported":1702361400,"current_range_meters":24800,"station_id":"ce4bh412rcd13ifvqdr0","pricing_plan_id":"free"},{"bike_id":"ae580ee0-516c-41dd-85d9-7b4cf4de99e6","system_id":"levelo_inurba_marseille","lat":43.284214,"lon":5.349706,"is_reserved":false,"is_disabled":false,"rental_uris":{"android":"levelo://app?vid=ae580ee0-516c-41dd-85d9-7b4cf4de99e6","ios":"levelo://app?vid=ae580ee0-516c-41dd-85d9-7b4cf4de99e6"},"vehicle_type_id":"4","last_reported":1702361400,"current_range_meters":24800,"station_id":"ce4bhbh2rcd13ifvqepg","pricing_plan_id":"free"},{"bike_id":"63ba83ab-7a43-482b-abad-8f44c7c64bec","system_id":"levelo_inurba_marseille","lat":43.289363,"lon":5.396322,"is_reserved":false,"is_disabled":false,"rental_uris":{"android":"levelo://app?vid=63ba83ab-7a43-482b-abad-8f44c7c64bec","ios":"levelo://app?vid=63ba83ab-7a43-482b-abad-8f44c7c64bec"},"vehicle_type_id":"4","last_reported":1702361400,"current_range_meters":24400,"station_id":"ce4bh3h2rcd13ifvqdn0","pricing_plan_id":"free"},{"bike_id":"f204607e-370a-4080-96ab-b9bbf1541f49","system_id":"levelo_inurba_marseille","lat":43.289363,"lon":5.396322,"is_reserved":false,"is_disabled":false,"rental_uris":{"android":"levelo://app?vid=f204607e-370a-4080-96ab-b9bbf1541f49","ios":"levelo://app?vid=f204607e-370a-4080-96ab-b9bbf1541f49"},"vehicle_type_id":"4","last_reported":1702361400,"current_range_meters":28800,"station_id":"ce4bh3h2rcd13ifvqdn0","pricing_plan_id":"free"},{"bike_id":"4f7e38fe-5f60-4585-a16d-18afc38aa6b5","system_id":"levelo_inurba_marseille","lat":43.28275,"lon":5.35068,"is_reserved":false,"is_disabled":false,"rental_uris":{"android":"levelo://app?vid=4f7e38fe-5f60-4585-a16d-18afc38aa6b5","ios":"levelo://app?vid=4f7e38fe-5f60-4585-a16d-18afc38aa6b5"},"vehicle_type_id":"4","last_reported":1702361400,"current_range_meters":28400,"station_id":"ce4bhbp2rcd13ifvqerg","pricing_plan_id":"free"},{"bike_id":"a6a19d71-44ec-4be6-8f3c-af8a442c4d87","system_id":"levelo_inurba_marseille","lat":43.283502,"lon":5.386471,"is_reserved":false,"is_disabled":false,"rental_uris":{"android":"levelo://app?vid=a6a19d71-44ec-4be6-8f3c-af8a442c4d87","ios":"levelo://app?vid=a6a19d71-44ec-4be6-8f3c-af8a442c4d87"},"vehicle_type_id":"4","last_reported":1702361400,"current_range_meters":30800,"station_id":"ce4bh492rcd13ifvqdvg","pricing_plan_id":"free"},{"bike_id":"7c9994a9-d782-4817-b3ab-37bc6e42f7cd","system_id":"levelo_inurba_marseille","lat":43.283502,"lon":5.386471,"is_reserved":false,"is_disabled":false,"rental_uris":{"android":"levelo://app?vid=7c9994a9-d782-4817-b3ab-37bc6e42f7cd","ios":"levelo://app?vid=7c9994a9-d782-4817-b3ab-37bc6e42f7cd"},"vehicle_type_id":"4","last_reported":1702361400,"current_range_meters":27200,"station_id":"ce4bh492rcd13ifvqdvg","pricing_plan_id":"free"},{"bike_id":"a6293421-2f53-4d22-b3a9-1a774e17b5cb","system_id":"levelo_inurba_marseille","lat":43.282754,"lon":5.350519,"is_reserved":false,"is_disabled":false,"rental_uris":{"android":"levelo://app?vid=a6293421-2f53-4d22-b3a9-1a774e17b5cb","ios":"levelo://app?vid=a6293421-2f53-4d22-b3a9-1a774e17b5cb"},"vehicle_type_id":"4","last_reported":1702361400,"current_range_meters":28800,"station_id":"ce4bhbp2rcd13ifvqerg","pricing_plan_id":"free"},{"bike_id":"3761c4b2-9870-4544-aced-d720a2c79b1c","system_id":"levelo_inurba_marseille","lat":43.282744,"lon":5.350533,"is_reserved":false,"is_disabled":false,"rental_uris":{"android":"levelo://app?vid=3761c4b2-9870-4544-aced-d720a2c79b1c","ios":"levelo://app?vid=3761c4b2-9870-4544-aced-d720a2c79b1c"},"vehicle_type_id":"4","last_reported":1702361400,"current_range_meters":24400,"station_id":"ce4bhbp2rcd13ifvqerg","pricing_plan_id":"free"},{"bike_id":"1a755c5d-9b3c-4f8b-a5a3-2cb0e2abc85a","system_id":"levelo_inurba_marseille","lat":43.282754,"lon":5.350519,"is_reserved":false,"is_disabled":false,"rental_uris":{"android":"levelo://app?vid=1a755c5d-9b3c-4f8b-a5a3-2cb0e2abc85a","ios":"levelo://app?vid=1a755c5d-9b3c-4f8b-a5a3-2cb0e2abc85a"},"vehicle_type_id":"4","last_reported":1702361400,"current_range_meters":28800,"station_id":"ce4bhbp2rcd13ifvqerg","pricing_plan_id":"free"},{"bike_id":"acbf9353-2ac4-4d36-bb10-ad1b66a4db9d","system_id":"levelo_inurba_marseille","lat":43.28039,"lon":5.369297,"is_reserved":false,"is_disabled":false,"rental_uris":{"android":"levelo://app?vid=acbf9353-2ac4-4d36-bb10-ad1b66a4db9d","ios":"levelo://app?vid=acbf9353-2ac4-4d36-bb10-ad1b66a4db9d"},"vehicle_type_id":"4","last_reported":1702361400,"current_range_meters":14800,"station_id":"ce4bha12rcd13ifvqef0","pricing_plan_id":"free"},{"bike_id":"a9087632-d97b-4295-ac27-f172913e6205","system_id":"levelo_inurba_marseille","lat":43.28039,"lon":5.369297,"is_reserved":false,"is_disabled":false,"rental_uris":{"android":"levelo://app?vid=a9087632-d97b-4295-ac27-f172913e6205","ios":"levelo://app?vid=a9087632-d97b-4295-ac27-f172913e6205"},"vehicle_type_id":"4","last_reported":1702361400,"current_range_meters":27200,"station_id":"ce4bha12rcd13ifvqef0","pricing_plan_id":"free"},{"bike_id":"4573ed2e-c755-4cfb-958a-78dda47a3e37","system_id":"levelo_inurba_marseille","lat":43.28039,"lon":5.369297,"is_reserved":false,"is_disabled":false,"rental_uris":{"android":"levelo://app?vid=4573ed2e-c755-4cfb-958a-78dda47a3e37","ios":"levelo://app?vid=4573ed2e-c755-4cfb-958a-78dda47a3e37"},"vehicle_type_id":"4","last_reported":1702361400,"current_range_meters":20800,"station_id":"ce4bha12rcd13ifvqef0","pricing_plan_id":"free"},{"bike_id":"4ee53fc3-95fe-4ec3-ae50-b9a8cd12442e","system_id":"levelo_inurba_marseille","lat":43.280318,"lon":5.369442,"is_reserved":false,"is_disabled":false,"rental_uris":{"android":"levelo://app?vid=4ee53fc3-95fe-4ec3-ae50-b9a8cd12442e","ios":"levelo://app?vid=4ee53fc3-95fe-4ec3-ae50-b9a8cd12442e"},"vehicle_type_id":"4","last_reported":1702361400,"current_range_meters":27600,"station_id":"ce4bha12rcd13ifvqef0","pricing_plan_id":"free"},{"bike_id":"07a01123-b2c1-4114-8136-93f2d1c77450","system_id":"levelo_inurba_marseille","lat":43.280382,"lon":5.369291,"is_reserved":false,"is_disabled":false,"rental_uris":{"android":"levelo://app?vid=07a01123-b2c1-4114-8136-93f2d1c77450","ios":"levelo://app?vid=07a01123-b2c1-4114-8136-93f2d1c77450"},"vehicle_type_id":"4","last_reported":1702361400,"current_range_meters":30400,"station_id":"ce4bha12rcd13ifvqef0","pricing_plan_id":"free"},{"bike_id":"dbb32c68-89ea-42d5-9bbd-5de5751b5866","system_id":"levelo_inurba_marseille","lat":43.280382,"lon":5.369291,"is_reserved":false,"is_disabled":false,"rental_uris":{"android":"levelo://app?vid=dbb32c68-89ea-42d5-9bbd-5de5751b5866","ios":"levelo://app?vid=dbb32c68-89ea-42d5-9bbd-5de5751b5866"},"vehicle_type_id":"4","last_reported":1702361400,"current_range_meters":31200,"station_id":"ce4bha12rcd13ifvqef0","pricing_plan_id":"free"},{"bike_id":"0c337a04-9390-4f62-9301-7176a02c3c5c","system_id":"levelo_inurba_marseille","lat":43.290505,"lon":5.399515,"is_reserved":false,"is_disabled":false,"rental_uris":{"android":"levelo://app?vid=0c337a04-9390-4f62-9301-7176a02c3c5c","ios":"levelo://app?vid=0c337a04-9390-4f62-9301-7176a02c3c5c"},"vehicle_type_id":"4","last_reported":1702361400,"current_range_meters":20800,"station_id":"ce4bh392rcd13ifvqdm0","pricing_plan_id":"free"},{"bike_id":"9cb78213-c0e1-4f65-bac4-b5b519dcee3e","system_id":"levelo_inurba_marseille","lat":43.296263,"lon":5.40601,"is_reserved":false,"is_disabled":false,"rental_uris":{"android":"levelo://app?vid=9cb78213-c0e1-4f65-bac4-b5b519dcee3e","ios":"levelo://app?vid=9cb78213-c0e1-4f65-bac4-b5b519dcee3e"},"vehicle_type_id":"4","last_reported":1702361400,"current_range_meters":0,"station_id":"ce4bh0h2rcd13ifvqd60","pricing_plan_id":"free"},{"bike_id":"0dd255ef-4b3d-47cf-a762-0dd0e9c0af2c","system_id":"levelo_inurba_marseille","lat":43.28567,"lon":5.39499,"is_reserved":false,"is_disabled":false,"rental_uris":{"android":"levelo://app?vid=0dd255ef-4b3d-47cf-a762-0dd0e9c0af2c","ios":"levelo://app?vid=0dd255ef-4b3d-47cf-a762-0dd0e9c0af2c"},"vehicle_type_id":"4","last_reported":1702361400,"current_range_meters":2000,"station_id":"ce4bh292rcd13ifvqdg0","pricing_plan_id":"free"},{"bike_id":"08a22758-971d-43d7-b06f-e03f69b8c19b","system_id":"levelo_inurba_marseille","lat":43.326605,"lon":5.409903,"is_reserved":false,"is_disabled":false,"rental_uris":{"android":"levelo://app?vid=08a22758-971d-43d7-b06f-e03f69b8c19b","ios":"levelo://app?vid=08a22758-971d-43d7-b06f-e03f69b8c19b"},"vehicle_type_id":"4","last_reported":1702361400,"current_range_meters":31200,"station_id":"ce4bhpp2rcd13ifvqhgg","pricing_plan_id":"free"},{"bike_id":"80ffd250-5d37-49a8-abc1-e8d034ca534a","system_id":"levelo_inurba_marseille","lat":43.326605,"lon":5.409903,"is_reserved":false,"is_disabled":false,"rental_uris":{"android":"levelo://app?vid=80ffd250-5d37-49a8-abc1-e8d034ca534a","ios":"levelo://app?vid=80ffd250-5d37-49a8-abc1-e8d034ca534a"},"vehicle_type_id":"4","last_reported":1702361400,"current_range_meters":30800,"station_id":"ce4bhpp2rcd13ifvqhgg","pricing_plan_id":"free"},{"bike_id":"a934d76b-8ba7-4197-bbf0-5f1568c9e6b9","system_id":"levelo_inurba_marseille","lat":43.304188,"lon":5.412904,"is_reserved":false,"is_disabled":false,"rental_uris":{"android":"levelo://app?vid=a934d76b-8ba7-4197-bbf0-5f1568c9e6b9","ios":"levelo://app?vid=a934d76b-8ba7-4197-bbf0-5f1568c9e6b9"},"vehicle_type_id":"4","last_reported":1702361400,"current_range_meters":31200,"station_id":"ce4bhop2rcd13ifvqh8g","pricing_plan_id":"free"},{"bike_id":"404eabfe-d56b-49c9-8d96-814666b791fe","system_id":"levelo_inurba_marseille","lat":43.304188,"lon":5.412904,"is_reserved":false,"is_disabled":false,"rental_uris":{"android":"levelo://app?vid=404eabfe-d56b-49c9-8d96-814666b791fe","ios":"levelo://app?vid=404eabfe-d56b-49c9-8d96-814666b791fe"},"vehicle_type_id":"4","last_reported":1702361400,"current_range_meters":27200,"station_id":"ce4bhop2rcd13ifvqh8g","pricing_plan_id":"free"},{"bike_id":"05b7994a-2ac0-4d51-9178-7ed777dfcd52","system_id":"levelo_inurba_marseille","lat":43.279087,"lon":5.380114,"is_reserved":false,"is_disabled":false,"rental_uris":{"android":"levelo://app?vid=05b7994a-2ac0-4d51-9178-7ed777dfcd52","ios":"levelo://app?vid=05b7994a-2ac0-4d51-9178-7ed777dfcd52"},"vehicle_type_id":"4","last_reported":1702361400,"current_range_meters":29200,"station_id":"ce4bhf92rcd13ifvqf50","pricing_plan_id":"free"},{"bike_id":"3a3be6e0-5772-4b3b-bf91-12a0ff00f0ce","system_id":"levelo_inurba_marseille","lat":43.287154,"lon":5.399979,"is_reserved":false,"is_disabled":false,"rental_uris":{"android":"levelo://app?vid=3a3be6e0-5772-4b3b-bf91-12a0ff00f0ce","ios":"levelo://app?vid=3a3be6e0-5772-4b3b-bf91-12a0ff00f0ce"},"vehicle_type_id":"4","last_reported":1702361400,"current_range_meters":2400,"station_id":"ce4bho92rcd13ifvqh3g","pricing_plan_id":"free"},{"bike_id":"4b4fea6b-03c8-4142-91e1-0d5cb090fb64","system_id":"levelo_inurba_marseille","lat":43.299579,"lon":5.413255,"is_reserved":false,"is_disabled":false,"rental_uris":{"android":"levelo://app?vid=4b4fea6b-03c8-4142-91e1-0d5cb090fb64","ios":"levelo://app?vid=4b4fea6b-03c8-4142-91e1-0d5cb090fb64"},"vehicle_type_id":"4","last_reported":1702361400,"current_range_meters":25200,"station_id":"ce4bhp12rcd13ifvqh9g","pricing_plan_id":"free"},{"bike_id":"46783ee5-eb0f-41da-a186-b33a46ac602b","system_id":"levelo_inurba_marseille","lat":43.279742,"lon":5.38744,"is_reserved":false,"is_disabled":false,"rental_uris":{"android":"levelo://app?vid=46783ee5-eb0f-41da-a186-b33a46ac602b","ios":"levelo://app?vid=46783ee5-eb0f-41da-a186-b33a46ac602b"},"vehicle_type_id":"4","last_reported":1702361400,"current_range_meters":19600,"station_id":"ce4bhg12rcd13ifvqf80","pricing_plan_id":"free"},{"bike_id":"d2d1a980-81d0-4b43-a286-ebecc7be733a","system_id":"levelo_inurba_marseille","lat":43.27618,"lon":5.361009,"is_reserved":false,"is_disabled":false,"rental_uris":{"android":"levelo://app?vid=d2d1a980-81d0-4b43-a286-ebecc7be733a","ios":"levelo://app?vid=d2d1a980-81d0-4b43-a286-ebecc7be733a"},"vehicle_type_id":"4","last_reported":1702361400,"current_range_meters":23200,"station_id":"ce4bgj92rcd13ifvqbe0","pricing_plan_id":"free"},{"bike_id":"7cddd4cc-2c7d-4381-9bfa-f684cdc32fa0","system_id":"levelo_inurba_marseille","lat":43.28009,"lon":5.39022,"is_reserved":false,"is_disabled":false,"rental_uris":{"android":"levelo://app?vid=7cddd4cc-2c7d-4381-9bfa-f684cdc32fa0","ios":"levelo://app?vid=7cddd4cc-2c7d-4381-9bfa-f684cdc32fa0"},"vehicle_type_id":"4","last_reported":1702361400,"current_range_meters":16400,"station_id":"","pricing_plan_id":"free"},{"bike_id":"0affd34a-26a3-4b23-9979-f74eada3d752","system_id":"levelo_inurba_marseille","lat":43.276169,"lon":5.361181,"is_reserved":false,"is_disabled":false,"rental_uris":{"android":"levelo://app?vid=0affd34a-26a3-4b23-9979-f74eada3d752","ios":"levelo://app?vid=0affd34a-26a3-4b23-9979-f74eada3d752"},"vehicle_type_id":"4","last_reported":1702361400,"current_range_meters":13600,"station_id":"ce4bgj92rcd13ifvqbe0","pricing_plan_id":"free"},{"bike_id":"2311aaf9-3908-4009-b838-0e5f77c6048a","system_id":"levelo_inurba_marseille","lat":43.276157,"lon":5.361142,"is_reserved":false,"is_disabled":false,"rental_uris":{"android":"levelo://app?vid=2311aaf9-3908-4009-b838-0e5f77c6048a","ios":"levelo://app?vid=2311aaf9-3908-4009-b838-0e5f77c6048a"},"vehicle_type_id":"4","last_reported":1702361400,"current_range_meters":29600,"station_id":"ce4bgj92rcd13ifvqbe0","pricing_plan_id":"free"},{"bike_id":"f1b5931d-d3b9-4483-b874-4227e70f363c","system_id":"levelo_inurba_marseille","lat":43.276146,"lon":5.361148,"is_reserved":false,"is_disabled":false,"rental_uris":{"android":"levelo://app?vid=f1b5931d-d3b9-4483-b874-4227e70f363c","ios":"levelo://app?vid=f1b5931d-d3b9-4483-b874-4227e70f363c"},"vehicle_type_id":"4","last_reported":1702361400,"current_range_meters":30800,"station_id":"ce4bgj92rcd13ifvqbe0","pricing_plan_id":"free"},{"bike_id":"81d596eb-8c73-49fc-b52b-43413cf55be6","system_id":"levelo_inurba_marseille","lat":43.276179,"lon":5.361009,"is_reserved":false,"is_disabled":false,"rental_uris":{"android":"levelo://app?vid=81d596eb-8c73-49fc-b52b-43413cf55be6","ios":"levelo://app?vid=81d596eb-8c73-49fc-b52b-43413cf55be6"},"vehicle_type_id":"4","last_reported":1702361400,"current_range_meters":18000,"station_id":"ce4bgj92rcd13ifvqbe0","pricing_plan_id":"free"},{"bike_id":"5ec0f610-67d6-4362-9fee-eee9426eb4cf","system_id":"levelo_inurba_marseille","lat":43.303837,"lon":5.418724,"is_reserved":false,"is_disabled":false,"rental_uris":{"android":"levelo://app?vid=5ec0f610-67d6-4362-9fee-eee9426eb4cf","ios":"levelo://app?vid=5ec0f610-67d6-4362-9fee-eee9426eb4cf"},"vehicle_type_id":"4","last_reported":1702361400,"current_range_meters":30000,"station_id":"ce4bhop2rcd13ifvqh7g","pricing_plan_id":"free"},{"bike_id":"36cbd5e5-ee8e-414a-82bf-6205e83d5f7a","system_id":"levelo_inurba_marseille","lat":43.278401,"lon":5.392152,"is_reserved":false,"is_disabled":false,"rental_uris":{"android":"levelo://app?vid=36cbd5e5-ee8e-414a-82bf-6205e83d5f7a","ios":"levelo://app?vid=36cbd5e5-ee8e-414a-82bf-6205e83d5f7a"},"vehicle_type_id":"4","last_reported":1702361400,"current_range_meters":31600,"station_id":"ce4bhjp2rcd13ifvqga0","pricing_plan_id":"free"},{"bike_id":"9c012ad6-17df-4e46-afbb-ed3ee258686c","system_id":"levelo_inurba_marseille","lat":43.278401,"lon":5.392152,"is_reserved":false,"is_disabled":false,"rental_uris":{"android":"levelo://app?vid=9c012ad6-17df-4e46-afbb-ed3ee258686c","ios":"levelo://app?vid=9c012ad6-17df-4e46-afbb-ed3ee258686c"},"vehicle_type_id":"4","last_reported":1702361400,"current_range_meters":3600,"station_id":"ce4bhjp2rcd13ifvqga0","pricing_plan_id":"free"},{"bike_id":"f763e54d-5215-4eb1-9294-2cf58722503f","system_id":"levelo_inurba_marseille","lat":43.273609,"lon":5.362708,"is_reserved":false,"is_disabled":false,"rental_uris":{"android":"levelo://app?vid=f763e54d-5215-4eb1-9294-2cf58722503f","ios":"levelo://app?vid=f763e54d-5215-4eb1-9294-2cf58722503f"},"vehicle_type_id":"4","last_reported":1702361400,"current_range_meters":28000,"station_id":"ce4bhbh2rcd13ifvqeo0","pricing_plan_id":"free"},{"bike_id":"9ea10af0-3940-4224-a189-633a8d8b6409","system_id":"levelo_inurba_marseille","lat":43.273613,"lon":5.362705,"is_reserved":false,"is_disabled":false,"rental_uris":{"android":"levelo://app?vid=9ea10af0-3940-4224-a189-633a8d8b6409","ios":"levelo://app?vid=9ea10af0-3940-4224-a189-633a8d8b6409"},"vehicle_type_id":"4","last_reported":1702361400,"current_range_meters":29600,"station_id":"ce4bhbh2rcd13ifvqeo0","pricing_plan_id":"free"},{"bike_id":"b25b4313-cda6-48cb-95d4-7ce169cb4e6d","system_id":"levelo_inurba_marseille","lat":43.336078,"lon":5.41026,"is_reserved":false,"is_disabled":false,"rental_uris":{"android":"levelo://app?vid=b25b4313-cda6-48cb-95d4-7ce169cb4e6d","ios":"levelo://app?vid=b25b4313-cda6-48cb-95d4-7ce169cb4e6d"},"vehicle_type_id":"4","last_reported":1702361400,"current_range_meters":15200,"station_id":"ce4bhqh2rcd13ifvqhmg","pricing_plan_id":"free"},{"bike_id":"5ce20bb2-68a1-465d-8bf6-076b6dd2e146","system_id":"levelo_inurba_marseille","lat":43.276771,"lon":5.388799,"is_reserved":false,"is_disabled":false,"rental_uris":{"android":"levelo://app?vid=5ce20bb2-68a1-465d-8bf6-076b6dd2e146","ios":"levelo://app?vid=5ce20bb2-68a1-465d-8bf6-076b6dd2e146"},"vehicle_type_id":"4","last_reported":1702361400,"current_range_meters":31200,"station_id":"ce4bhi12rcd13ifvqfo0","pricing_plan_id":"free"},{"bike_id":"a3c7606a-ba3d-4829-a2d1-1fb14a046ad5","system_id":"levelo_inurba_marseille","lat":43.279975,"lon":5.40009,"is_reserved":false,"is_disabled":false,"rental_uris":{"android":"levelo://app?vid=a3c7606a-ba3d-4829-a2d1-1fb14a046ad5","ios":"levelo://app?vid=a3c7606a-ba3d-4829-a2d1-1fb14a046ad5"},"vehicle_type_id":"4","last_reported":1702361400,"current_range_meters":27200,"station_id":"ce4bho92rcd13ifvqh4g","pricing_plan_id":"free"},{"bike_id":"3c7233a6-8ef0-4bde-8852-3101005b5b26","system_id":"levelo_inurba_marseille","lat":43.279952,"lon":5.400085,"is_reserved":false,"is_disabled":false,"rental_uris":{"android":"levelo://app?vid=3c7233a6-8ef0-4bde-8852-3101005b5b26","ios":"levelo://app?vid=3c7233a6-8ef0-4bde-8852-3101005b5b26"},"vehicle_type_id":"4","last_reported":1702361400,"current_range_meters":29600,"station_id":"ce4bho92rcd13ifvqh4g","pricing_plan_id":"free"},{"bike_id":"00924fa7-3716-4457-a6b3-fe78139fdf14","system_id":"levelo_inurba_marseille","lat":43.317121,"lon":5.423936,"is_reserved":false,"is_disabled":false,"rental_uris":{"android":"levelo://app?vid=00924fa7-3716-4457-a6b3-fe78139fdf14","ios":"levelo://app?vid=00924fa7-3716-4457-a6b3-fe78139fdf14"},"vehicle_type_id":"4","last_reported":1702361400,"current_range_meters":28000,"station_id":"ce4bhp92rcd13ifvqhbg","pricing_plan_id":"free"},{"bike_id":"b1c028eb-0fe1-4afa-b35c-b9783a0e9537","system_id":"levelo_inurba_marseille","lat":43.31723,"lon":5.42405,"is_reserved":false,"is_disabled":false,"rental_uris":{"android":"levelo://app?vid=b1c028eb-0fe1-4afa-b35c-b9783a0e9537","ios":"levelo://app?vid=b1c028eb-0fe1-4afa-b35c-b9783a0e9537"},"vehicle_type_id":"4","last_reported":1702361400,"current_range_meters":6800,"station_id":"ce4bhp92rcd13ifvqhbg","pricing_plan_id":"free"},{"bike_id":"4378c76b-5101-4117-9bad-9190a28da998","system_id":"levelo_inurba_marseille","lat":43.34142,"lon":5.40909,"is_reserved":false,"is_disabled":false,"rental_uris":{"android":"levelo://app?vid=4378c76b-5101-4117-9bad-9190a28da998","ios":"levelo://app?vid=4378c76b-5101-4117-9bad-9190a28da998"},"vehicle_type_id":"4","last_reported":1702361400,"current_range_meters":0,"station_id":"ce4bhqh2rcd13ifvqhlg","pricing_plan_id":"free"},{"bike_id":"26dd73b3-31de-49ea-8f42-3799efdbc931","system_id":"levelo_inurba_marseille","lat":43.273125,"lon":5.390731,"is_reserved":false,"is_disabled":false,"rental_uris":{"android":"levelo://app?vid=26dd73b3-31de-49ea-8f42-3799efdbc931","ios":"levelo://app?vid=26dd73b3-31de-49ea-8f42-3799efdbc931"},"vehicle_type_id":"4","last_reported":1702361400,"current_range_meters":22400,"station_id":"ce4bhgp2rcd13ifvqfe0","pricing_plan_id":"free"},{"bike_id":"39d97672-d16b-4564-a8c1-c19169d1ed00","system_id":"levelo_inurba_marseille","lat":43.273125,"lon":5.390731,"is_reserved":false,"is_disabled":false,"rental_uris":{"android":"levelo://app?vid=39d97672-d16b-4564-a8c1-c19169d1ed00","ios":"levelo://app?vid=39d97672-d16b-4564-a8c1-c19169d1ed00"},"vehicle_type_id":"4","last_reported":1702361400,"current_range_meters":0,"station_id":"ce4bhgp2rcd13ifvqfe0","pricing_plan_id":"free"},{"bike_id":"1087a664-db7d-480c-a5f0-f80fa65fa459","system_id":"levelo_inurba_marseille","lat":43.30412,"lon":5.42536,"is_reserved":false,"is_disabled":false,"rental_uris":{"android":"levelo://app?vid=1087a664-db7d-480c-a5f0-f80fa65fa459","ios":"levelo://app?vid=1087a664-db7d-480c-a5f0-f80fa65fa459"},"vehicle_type_id":"4","last_reported":1702361400,"current_range_meters":4400,"station_id":"ce4bhoh2rcd13ifvqh6g","pricing_plan_id":"free"},{"bike_id":"5d4bcde0-3219-4ed0-aaab-809b47569ee0","system_id":"levelo_inurba_marseille","lat":43.272118,"lon":5.391758,"is_reserved":false,"is_disabled":false,"rental_uris":{"android":"levelo://app?vid=5d4bcde0-3219-4ed0-aaab-809b47569ee0","ios":"levelo://app?vid=5d4bcde0-3219-4ed0-aaab-809b47569ee0"},"vehicle_type_id":"4","last_reported":1702361400,"current_range_meters":25200,"station_id":"ce4bhhp2rcd13ifvqfm0","pricing_plan_id":"free"},{"bike_id":"114ed9a0-f405-4e5a-8abc-a36515ad57b3","system_id":"levelo_inurba_marseille","lat":43.272166,"lon":5.39231,"is_reserved":false,"is_disabled":false,"rental_uris":{"android":"levelo://app?vid=114ed9a0-f405-4e5a-8abc-a36515ad57b3","ios":"levelo://app?vid=114ed9a0-f405-4e5a-8abc-a36515ad57b3"},"vehicle_type_id":"4","last_reported":1702361400,"current_range_meters":20800,"station_id":"ce4bhhp2rcd13ifvqfm0","pricing_plan_id":"free"},{"bike_id":"075af69d-d29d-4e72-9efd-a651f1afe17c","system_id":"levelo_inurba_marseille","lat":43.278128,"lon":5.407195,"is_reserved":false,"is_disabled":false,"rental_uris":{"android":"levelo://app?vid=075af69d-d29d-4e72-9efd-a651f1afe17c","ios":"levelo://app?vid=075af69d-d29d-4e72-9efd-a651f1afe17c"},"vehicle_type_id":"4","last_reported":1702361400,"current_range_meters":28800,"station_id":"ce4bhnh2rcd13ifvqgtg","pricing_plan_id":"free"},{"bike_id":"22dc45e1-e4f2-483d-838a-2fb241abb1ee","system_id":"levelo_inurba_marseille","lat":43.278128,"lon":5.407195,"is_reserved":false,"is_disabled":false,"rental_uris":{"android":"levelo://app?vid=22dc45e1-e4f2-483d-838a-2fb241abb1ee","ios":"levelo://app?vid=22dc45e1-e4f2-483d-838a-2fb241abb1ee"},"vehicle_type_id":"4","last_reported":1702361400,"current_range_meters":27600,"station_id":"ce4bhnh2rcd13ifvqgtg","pricing_plan_id":"free"},{"bike_id":"1d64da37-e124-4ab4-a918-56a5f5287e92","system_id":"levelo_inurba_marseille","lat":43.278128,"lon":5.407195,"is_reserved":false,"is_disabled":false,"rental_uris":{"android":"levelo://app?vid=1d64da37-e124-4ab4-a918-56a5f5287e92","ios":"levelo://app?vid=1d64da37-e124-4ab4-a918-56a5f5287e92"},"vehicle_type_id":"4","last_reported":1702361400,"current_range_meters":28800,"station_id":"ce4bhnh2rcd13ifvqgtg","pricing_plan_id":"free"},{"bike_id":"cd324bc1-58d3-4b12-8727-5e54b153af9f","system_id":"levelo_inurba_marseille","lat":43.278128,"lon":5.407195,"is_reserved":false,"is_disabled":false,"rental_uris":{"android":"levelo://app?vid=cd324bc1-58d3-4b12-8727-5e54b153af9f","ios":"levelo://app?vid=cd324bc1-58d3-4b12-8727-5e54b153af9f"},"vehicle_type_id":"4","last_reported":1702361400,"current_range_meters":18800,"station_id":"ce4bhnh2rcd13ifvqgtg","pricing_plan_id":"free"},{"bike_id":"36de44b5-6db6-4294-8eea-545b4dba4bc3","system_id":"levelo_inurba_marseille","lat":43.278128,"lon":5.407195,"is_reserved":false,"is_disabled":false,"rental_uris":{"android":"levelo://app?vid=36de44b5-6db6-4294-8eea-545b4dba4bc3","ios":"levelo://app?vid=36de44b5-6db6-4294-8eea-545b4dba4bc3"},"vehicle_type_id":"4","last_reported":1702361400,"current_range_meters":29600,"station_id":"ce4bhnh2rcd13ifvqgtg","pricing_plan_id":"free"},{"bike_id":"8bc74faa-8651-4d1d-92bc-9fced9058eed","system_id":"levelo_inurba_marseille","lat":43.278128,"lon":5.407195,"is_reserved":false,"is_disabled":false,"rental_uris":{"android":"levelo://app?vid=8bc74faa-8651-4d1d-92bc-9fced9058eed","ios":"levelo://app?vid=8bc74faa-8651-4d1d-92bc-9fced9058eed"},"vehicle_type_id":"4","last_reported":1702361400,"current_range_meters":29200,"station_id":"ce4bhnh2rcd13ifvqgtg","pricing_plan_id":"free"},{"bike_id":"66bf40fa-a805-4d3f-ae72-0133723401db","system_id":"levelo_inurba_marseille","lat":43.278128,"lon":5.407195,"is_reserved":false,"is_disabled":false,"rental_uris":{"android":"levelo://app?vid=66bf40fa-a805-4d3f-ae72-0133723401db","ios":"levelo://app?vid=66bf40fa-a805-4d3f-ae72-0133723401db"},"vehicle_type_id":"4","last_reported":1702361400,"current_range_meters":29200,"station_id":"ce4bhnh2rcd13ifvqgtg","pricing_plan_id":"free"},{"bike_id":"76a2bfdb-1ea2-4e41-b16e-5bd21e7a27aa","system_id":"levelo_inurba_marseille","lat":43.269467,"lon":5.386439,"is_reserved":false,"is_disabled":false,"rental_uris":{"android":"levelo://app?vid=76a2bfdb-1ea2-4e41-b16e-5bd21e7a27aa","ios":"levelo://app?vid=76a2bfdb-1ea2-4e41-b16e-5bd21e7a27aa"},"vehicle_type_id":"4","last_reported":1702361400,"current_range_meters":23600,"station_id":"ce4bhh92rcd13ifvqfh0","pricing_plan_id":"free"},{"bike_id":"e355444f-467d-4d19-965f-416ab15b4237","system_id":"levelo_inurba_marseille","lat":43.279555,"lon":5.41044,"is_reserved":false,"is_disabled":false,"rental_uris":{"android":"levelo://app?vid=e355444f-467d-4d19-965f-416ab15b4237","ios":"levelo://app?vid=e355444f-467d-4d19-965f-416ab15b4237"},"vehicle_type_id":"4","last_reported":1702361400,"current_range_meters":18400,"station_id":"ce4bhnp2rcd13ifvqh0g","pricing_plan_id":"free"},{"bike_id":"629197af-30a4-4732-afe0-3c712ab8a4ce","system_id":"levelo_inurba_marseille","lat":43.279465,"lon":5.410561,"is_reserved":false,"is_disabled":false,"rental_uris":{"android":"levelo://app?vid=629197af-30a4-4732-afe0-3c712ab8a4ce","ios":"levelo://app?vid=629197af-30a4-4732-afe0-3c712ab8a4ce"},"vehicle_type_id":"4","last_reported":1702361400,"current_range_meters":26400,"station_id":"ce4bhnp2rcd13ifvqh0g","pricing_plan_id":"free"},{"bike_id":"048a7c17-97c6-4e8b-b365-1d7721c101c5","system_id":"levelo_inurba_marseille","lat":43.279465,"lon":5.410561,"is_reserved":false,"is_disabled":false,"rental_uris":{"android":"levelo://app?vid=048a7c17-97c6-4e8b-b365-1d7721c101c5","ios":"levelo://app?vid=048a7c17-97c6-4e8b-b365-1d7721c101c5"},"vehicle_type_id":"4","last_reported":1702361400,"current_range_meters":29200,"station_id":"ce4bhnp2rcd13ifvqh0g","pricing_plan_id":"free"},{"bike_id":"d0bb7721-703f-4b53-8c77-0679f283277c","system_id":"levelo_inurba_marseille","lat":43.279465,"lon":5.410561,"is_reserved":false,"is_disabled":false,"rental_uris":{"android":"levelo://app?vid=d0bb7721-703f-4b53-8c77-0679f283277c","ios":"levelo://app?vid=d0bb7721-703f-4b53-8c77-0679f283277c"},"vehicle_type_id":"4","last_reported":1702361400,"current_range_meters":31200,"station_id":"ce4bhnp2rcd13ifvqh0g","pricing_plan_id":"free"},{"bike_id":"c2f5aefa-272f-458f-90e2-e35939f7abe9","system_id":"levelo_inurba_marseille","lat":43.279465,"lon":5.410561,"is_reserved":false,"is_disabled":false,"rental_uris":{"android":"levelo://app?vid=c2f5aefa-272f-458f-90e2-e35939f7abe9","ios":"levelo://app?vid=c2f5aefa-272f-458f-90e2-e35939f7abe9"},"vehicle_type_id":"4","last_reported":1702361400,"current_range_meters":23200,"station_id":"ce4bhnp2rcd13ifvqh0g","pricing_plan_id":"free"},{"bike_id":"423e3098-a5a2-498b-9c3c-4341c381f5e8","system_id":"levelo_inurba_marseille","lat":43.26681,"lon":5.382694,"is_reserved":false,"is_disabled":false,"rental_uris":{"android":"levelo://app?vid=423e3098-a5a2-498b-9c3c-4341c381f5e8","ios":"levelo://app?vid=423e3098-a5a2-498b-9c3c-4341c381f5e8"},"vehicle_type_id":"4","last_reported":1702361400,"current_range_meters":27600,"station_id":"ce4bhg92rcd13ifvqf90","pricing_plan_id":"free"},{"bike_id":"95e85086-94f3-4d5d-828b-e5f9ce0e68b6","system_id":"levelo_inurba_marseille","lat":43.26681,"lon":5.382694,"is_reserved":false,"is_disabled":false,"rental_uris":{"android":"levelo://app?vid=95e85086-94f3-4d5d-828b-e5f9ce0e68b6","ios":"levelo://app?vid=95e85086-94f3-4d5d-828b-e5f9ce0e68b6"},"vehicle_type_id":"4","last_reported":1702361400,"current_range_meters":31200,"station_id":"ce4bhg92rcd13ifvqf90","pricing_plan_id":"free"},{"bike_id":"afbe6453-4082-4cc7-a9ed-7f96e9609a56","system_id":"levelo_inurba_marseille","lat":43.266827,"lon":5.382694,"is_reserved":false,"is_disabled":false,"rental_uris":{"android":"levelo://app?vid=afbe6453-4082-4cc7-a9ed-7f96e9609a56","ios":"levelo://app?vid=afbe6453-4082-4cc7-a9ed-7f96e9609a56"},"vehicle_type_id":"4","last_reported":1702361400,"current_range_meters":28400,"station_id":"ce4bhg92rcd13ifvqf90","pricing_plan_id":"free"},{"bike_id":"618ab94a-31d3-49d5-8238-c36f733e2f97","system_id":"levelo_inurba_marseille","lat":43.26682,"lon":5.38266,"is_reserved":false,"is_disabled":false,"rental_uris":{"android":"levelo://app?vid=618ab94a-31d3-49d5-8238-c36f733e2f97","ios":"levelo://app?vid=618ab94a-31d3-49d5-8238-c36f733e2f97"},"vehicle_type_id":"4","last_reported":1702361400,"current_range_meters":24400,"station_id":"ce4bhg92rcd13ifvqf90","pricing_plan_id":"free"},{"bike_id":"414d7b4a-a3e9-448e-903a-d08acf242b2b","system_id":"levelo_inurba_marseille","lat":43.26681,"lon":5.382694,"is_reserved":false,"is_disabled":false,"rental_uris":{"android":"levelo://app?vid=414d7b4a-a3e9-448e-903a-d08acf242b2b","ios":"levelo://app?vid=414d7b4a-a3e9-448e-903a-d08acf242b2b"},"vehicle_type_id":"4","last_reported":1702361400,"current_range_meters":28000,"station_id":"ce4bhg92rcd13ifvqf90","pricing_plan_id":"free"},{"bike_id":"fa2c8774-c50e-4ee1-b2f0-6158142ea9f6","system_id":"levelo_inurba_marseille","lat":43.266776,"lon":5.382703,"is_reserved":false,"is_disabled":false,"rental_uris":{"android":"levelo://app?vid=fa2c8774-c50e-4ee1-b2f0-6158142ea9f6","ios":"levelo://app?vid=fa2c8774-c50e-4ee1-b2f0-6158142ea9f6"},"vehicle_type_id":"4","last_reported":1702361400,"current_range_meters":25200,"station_id":"ce4bhg92rcd13ifvqf90","pricing_plan_id":"free"},{"bike_id":"89174b6c-7157-464f-821e-2b2484992d0c","system_id":"levelo_inurba_marseille","lat":43.277236,"lon":5.411399,"is_reserved":false,"is_disabled":false,"rental_uris":{"android":"levelo://app?vid=89174b6c-7157-464f-821e-2b2484992d0c","ios":"levelo://app?vid=89174b6c-7157-464f-821e-2b2484992d0c"},"vehicle_type_id":"4","last_reported":1702361400,"current_range_meters":16400,"station_id":"","pricing_plan_id":"free"},{"bike_id":"e4e4c100-2e66-4909-93a7-c0f652ad8aa6","system_id":"levelo_inurba_marseille","lat":43.32589,"lon":5.43081,"is_reserved":false,"is_disabled":false,"rental_uris":{"android":"levelo://app?vid=e4e4c100-2e66-4909-93a7-c0f652ad8aa6","ios":"levelo://app?vid=e4e4c100-2e66-4909-93a7-c0f652ad8aa6"},"vehicle_type_id":"4","last_reported":1702361400,"current_range_meters":6400,"station_id":"","pricing_plan_id":"free"},{"bike_id":"ee2e6f38-088a-4b0c-86a9-3e8b8b72101d","system_id":"levelo_inurba_marseille","lat":43.27996,"lon":5.416624,"is_reserved":false,"is_disabled":false,"rental_uris":{"android":"levelo://app?vid=ee2e6f38-088a-4b0c-86a9-3e8b8b72101d","ios":"levelo://app?vid=ee2e6f38-088a-4b0c-86a9-3e8b8b72101d"},"vehicle_type_id":"4","last_reported":1702361400,"current_range_meters":27600,"station_id":"ce4bho12rcd13ifvqh1g","pricing_plan_id":"free"},{"bike_id":"ca531247-708d-4b90-983b-f02f4c14d277","system_id":"levelo_inurba_marseille","lat":43.27996,"lon":5.416624,"is_reserved":false,"is_disabled":false,"rental_uris":{"android":"levelo://app?vid=ca531247-708d-4b90-983b-f02f4c14d277","ios":"levelo://app?vid=ca531247-708d-4b90-983b-f02f4c14d277"},"vehicle_type_id":"4","last_reported":1702361400,"current_range_meters":28400,"station_id":"ce4bho12rcd13ifvqh1g","pricing_plan_id":"free"},{"bike_id":"49e9b9e3-3e84-42a2-808d-19ca1f71dcef","system_id":"levelo_inurba_marseille","lat":43.265714,"lon":5.372891,"is_reserved":false,"is_disabled":false,"rental_uris":{"android":"levelo://app?vid=49e9b9e3-3e84-42a2-808d-19ca1f71dcef","ios":"levelo://app?vid=49e9b9e3-3e84-42a2-808d-19ca1f71dcef"},"vehicle_type_id":"4","last_reported":1702361400,"current_range_meters":22400,"station_id":"ce4bhg12rcd13ifvqf70","pricing_plan_id":"free"},{"bike_id":"a4c2e866-1ad6-4353-a4f2-cb755e151f55","system_id":"levelo_inurba_marseille","lat":43.26324,"lon":5.37682,"is_reserved":false,"is_disabled":false,"rental_uris":{"android":"levelo://app?vid=a4c2e866-1ad6-4353-a4f2-cb755e151f55","ios":"levelo://app?vid=a4c2e866-1ad6-4353-a4f2-cb755e151f55"},"vehicle_type_id":"4","last_reported":1702361400,"current_range_meters":11600,"station_id":"","pricing_plan_id":"free"},{"bike_id":"cc588e65-3c67-418e-85ff-1f30e1451ab4","system_id":"levelo_inurba_marseille","lat":43.26949,"lon":5.40262,"is_reserved":false,"is_disabled":false,"rental_uris":{"android":"levelo://app?vid=cc588e65-3c67-418e-85ff-1f30e1451ab4","ios":"levelo://app?vid=cc588e65-3c67-418e-85ff-1f30e1451ab4"},"vehicle_type_id":"4","last_reported":1702361400,"current_range_meters":30000,"station_id":"cjm6bp8fraef2m0cb0m0","pricing_plan_id":"free"},{"bike_id":"216054f0-cd67-42c9-b39e-e23a367ed646","system_id":"levelo_inurba_marseille","lat":43.269402,"lon":5.402487,"is_reserved":false,"is_disabled":false,"rental_uris":{"android":"levelo://app?vid=216054f0-cd67-42c9-b39e-e23a367ed646","ios":"levelo://app?vid=216054f0-cd67-42c9-b39e-e23a367ed646"},"vehicle_type_id":"4","last_reported":1702361400,"current_range_meters":30000,"station_id":"cjm6bp8fraef2m0cb0m0","pricing_plan_id":"free"},{"bike_id":"2124926b-08c8-4f00-8a0c-8bcd03255dd0","system_id":"levelo_inurba_marseille","lat":43.317133,"lon":5.437033,"is_reserved":false,"is_disabled":false,"rental_uris":{"android":"levelo://app?vid=2124926b-08c8-4f00-8a0c-8bcd03255dd0","ios":"levelo://app?vid=2124926b-08c8-4f00-8a0c-8bcd03255dd0"},"vehicle_type_id":"4","last_reported":1702361400,"current_range_meters":21600,"station_id":"ce4bhp92rcd13ifvqhcg","pricing_plan_id":"free"},{"bike_id":"37645cb8-5c24-41ba-b0d3-f9e32e3bff51","system_id":"levelo_inurba_marseille","lat":43.317104,"lon":5.436818,"is_reserved":false,"is_disabled":false,"rental_uris":{"android":"levelo://app?vid=37645cb8-5c24-41ba-b0d3-f9e32e3bff51","ios":"levelo://app?vid=37645cb8-5c24-41ba-b0d3-f9e32e3bff51"},"vehicle_type_id":"4","last_reported":1702361400,"current_range_meters":31200,"station_id":"ce4bhp92rcd13ifvqhcg","pricing_plan_id":"free"},{"bike_id":"08f0df5a-37d0-47b8-b589-34e20c000007","system_id":"levelo_inurba_marseille","lat":43.31716,"lon":5.43707,"is_reserved":false,"is_disabled":false,"rental_uris":{"android":"levelo://app?vid=08f0df5a-37d0-47b8-b589-34e20c000007","ios":"levelo://app?vid=08f0df5a-37d0-47b8-b589-34e20c000007"},"vehicle_type_id":"4","last_reported":1702361400,"current_range_meters":9200,"station_id":"ce4bhp92rcd13ifvqhcg","pricing_plan_id":"free"},{"bike_id":"26028b8b-2fb7-4fce-9011-67b90fcace31","system_id":"levelo_inurba_marseille","lat":43.317155,"lon":5.437074,"is_reserved":false,"is_disabled":false,"rental_uris":{"android":"levelo://app?vid=26028b8b-2fb7-4fce-9011-67b90fcace31","ios":"levelo://app?vid=26028b8b-2fb7-4fce-9011-67b90fcace31"},"vehicle_type_id":"4","last_reported":1702361400,"current_range_meters":27600,"station_id":"ce4bhp92rcd13ifvqhcg","pricing_plan_id":"free"},{"bike_id":"4ee2ebe4-ccab-47af-b669-1b687cc9fb82","system_id":"levelo_inurba_marseille","lat":43.317104,"lon":5.436818,"is_reserved":false,"is_disabled":false,"rental_uris":{"android":"levelo://app?vid=4ee2ebe4-ccab-47af-b669-1b687cc9fb82","ios":"levelo://app?vid=4ee2ebe4-ccab-47af-b669-1b687cc9fb82"},"vehicle_type_id":"4","last_reported":1702361400,"current_range_meters":28400,"station_id":"ce4bhp92rcd13ifvqhcg","pricing_plan_id":"free"},{"bike_id":"cdd036f6-7ea5-4424-b6f3-3af93ebb2fa0","system_id":"levelo_inurba_marseille","lat":43.317104,"lon":5.436818,"is_reserved":false,"is_disabled":false,"rental_uris":{"android":"levelo://app?vid=cdd036f6-7ea5-4424-b6f3-3af93ebb2fa0","ios":"levelo://app?vid=cdd036f6-7ea5-4424-b6f3-3af93ebb2fa0"},"vehicle_type_id":"4","last_reported":1702361400,"current_range_meters":30800,"station_id":"ce4bhp92rcd13ifvqhcg","pricing_plan_id":"free"},{"bike_id":"1acf6805-7adc-4d3c-b52b-7b0895430b1f","system_id":"levelo_inurba_marseille","lat":43.26202,"lon":5.379299,"is_reserved":false,"is_disabled":false,"rental_uris":{"android":"levelo://app?vid=1acf6805-7adc-4d3c-b52b-7b0895430b1f","ios":"levelo://app?vid=1acf6805-7adc-4d3c-b52b-7b0895430b1f"},"vehicle_type_id":"4","last_reported":1702361400,"current_range_meters":28000,"station_id":"ce4bhjp2rcd13ifvqg90","pricing_plan_id":"free"},{"bike_id":"9c8ef7c8-ba62-4961-8443-d770181c75f2","system_id":"levelo_inurba_marseille","lat":43.271368,"lon":5.40928,"is_reserved":false,"is_disabled":false,"rental_uris":{"android":"levelo://app?vid=9c8ef7c8-ba62-4961-8443-d770181c75f2","ios":"levelo://app?vid=9c8ef7c8-ba62-4961-8443-d770181c75f2"},"vehicle_type_id":"4","last_reported":1702361400,"current_range_meters":27200,"station_id":"ce4bhl12rcd13ifvqgf0","pricing_plan_id":"free"},{"bike_id":"e0eb79fa-1922-49f6-960c-6d3c8cd78c31","system_id":"levelo_inurba_marseille","lat":43.26807,"lon":5.40262,"is_reserved":false,"is_disabled":false,"rental_uris":{"android":"levelo://app?vid=e0eb79fa-1922-49f6-960c-6d3c8cd78c31","ios":"levelo://app?vid=e0eb79fa-1922-49f6-960c-6d3c8cd78c31"},"vehicle_type_id":"4","last_reported":1702361400,"current_range_meters":30800,"station_id":"ce501612rcd8frsf0b60","pricing_plan_id":"free"},{"bike_id":"7ef0e874-4d14-4db6-97d3-23537a85b219","system_id":"levelo_inurba_marseille","lat":43.298768,"lon":5.43643,"is_reserved":false,"is_disabled":false,"rental_uris":{"android":"levelo://app?vid=7ef0e874-4d14-4db6-97d3-23537a85b219","ios":"levelo://app?vid=7ef0e874-4d14-4db6-97d3-23537a85b219"},"vehicle_type_id":"4","last_reported":1702361400,"current_range_meters":28000,"station_id":"ce4bhpp2rcd13ifvqhfg","pricing_plan_id":"free"},{"bike_id":"7785c293-f45a-41fa-bfc7-fc873f99b2b9","system_id":"levelo_inurba_marseille","lat":43.281548,"lon":5.42643,"is_reserved":false,"is_disabled":false,"rental_uris":{"android":"levelo://app?vid=7785c293-f45a-41fa-bfc7-fc873f99b2b9","ios":"levelo://app?vid=7785c293-f45a-41fa-bfc7-fc873f99b2b9"},"vehicle_type_id":"4","last_reported":1702361400,"current_range_meters":31200,"station_id":"ce4bhnh2rcd13ifvqgug","pricing_plan_id":"free"},{"bike_id":"ab0c0700-a3dd-4af2-8622-45d6c3009600","system_id":"levelo_inurba_marseille","lat":43.281548,"lon":5.42643,"is_reserved":false,"is_disabled":false,"rental_uris":{"android":"levelo://app?vid=ab0c0700-a3dd-4af2-8622-45d6c3009600","ios":"levelo://app?vid=ab0c0700-a3dd-4af2-8622-45d6c3009600"},"vehicle_type_id":"4","last_reported":1702361400,"current_range_meters":27600,"station_id":"ce4bhnh2rcd13ifvqgug","pricing_plan_id":"free"},{"bike_id":"180bf347-93f7-4d14-a727-4021a2dbeb7d","system_id":"levelo_inurba_marseille","lat":43.281408,"lon":5.42996,"is_reserved":false,"is_disabled":false,"rental_uris":{"android":"levelo://app?vid=180bf347-93f7-4d14-a727-4021a2dbeb7d","ios":"levelo://app?vid=180bf347-93f7-4d14-a727-4021a2dbeb7d"},"vehicle_type_id":"4","last_reported":1702361400,"current_range_meters":13200,"station_id":"","pricing_plan_id":"free"},{"bike_id":"2904fadb-7bd9-4958-ab41-36e416d618b9","system_id":"levelo_inurba_marseille","lat":43.275028,"lon":5.424534,"is_reserved":false,"is_disabled":false,"rental_uris":{"android":"levelo://app?vid=2904fadb-7bd9-4958-ab41-36e416d618b9","ios":"levelo://app?vid=2904fadb-7bd9-4958-ab41-36e416d618b9"},"vehicle_type_id":"4","last_reported":1702361400,"current_range_meters":27200,"station_id":"ce4bhn92rcd13ifvqgrg","pricing_plan_id":"free"},{"bike_id":"463668ea-b294-4421-824a-c4df85b1e87b","system_id":"levelo_inurba_marseille","lat":43.270721,"lon":5.422764,"is_reserved":false,"is_disabled":false,"rental_uris":{"android":"levelo://app?vid=463668ea-b294-4421-824a-c4df85b1e87b","ios":"levelo://app?vid=463668ea-b294-4421-824a-c4df85b1e87b"},"vehicle_type_id":"4","last_reported":1702361400,"current_range_meters":14400,"station_id":"ce4bhk92rcd13ifvqgb0","pricing_plan_id":"free"},{"bike_id":"cd1904e5-3f41-4572-8872-cc23fca0c4f1","system_id":"levelo_inurba_marseille","lat":43.270721,"lon":5.422764,"is_reserved":false,"is_disabled":false,"rental_uris":{"android":"levelo://app?vid=cd1904e5-3f41-4572-8872-cc23fca0c4f1","ios":"levelo://app?vid=cd1904e5-3f41-4572-8872-cc23fca0c4f1"},"vehicle_type_id":"4","last_reported":1702361400,"current_range_meters":30000,"station_id":"ce4bhk92rcd13ifvqgb0","pricing_plan_id":"free"},{"bike_id":"95ca10d9-cc2d-41b2-b206-d1f102540fea","system_id":"levelo_inurba_marseille","lat":43.270721,"lon":5.422764,"is_reserved":false,"is_disabled":false,"rental_uris":{"android":"levelo://app?vid=95ca10d9-cc2d-41b2-b206-d1f102540fea","ios":"levelo://app?vid=95ca10d9-cc2d-41b2-b206-d1f102540fea"},"vehicle_type_id":"4","last_reported":1702361400,"current_range_meters":15600,"station_id":"ce4bhk92rcd13ifvqgb0","pricing_plan_id":"free"},{"bike_id":"57d1bf4f-9bf9-4213-9a92-5a3ce4c630cb","system_id":"levelo_inurba_marseille","lat":43.25932,"lon":5.40908,"is_reserved":false,"is_disabled":false,"rental_uris":{"android":"levelo://app?vid=57d1bf4f-9bf9-4213-9a92-5a3ce4c630cb","ios":"levelo://app?vid=57d1bf4f-9bf9-4213-9a92-5a3ce4c630cb"},"vehicle_type_id":"4","last_reported":1702361400,"current_range_meters":30000,"station_id":"ce4bhm92rcd13ifvqglg","pricing_plan_id":"free"},{"bike_id":"92a72a23-e4b4-42a5-990e-2e6e8c169807","system_id":"levelo_inurba_marseille","lat":43.25721,"lon":5.41124,"is_reserved":false,"is_disabled":false,"rental_uris":{"android":"levelo://app?vid=92a72a23-e4b4-42a5-990e-2e6e8c169807","ios":"levelo://app?vid=92a72a23-e4b4-42a5-990e-2e6e8c169807"},"vehicle_type_id":"4","last_reported":1702361400,"current_range_meters":16000,"station_id":"ce4bhkp2rcd13ifvqgd0","pricing_plan_id":"free"},{"bike_id":"8bfba5f0-6d02-4058-854b-b88f3097ad8f","system_id":"levelo_inurba_marseille","lat":43.257118,"lon":5.411268,"is_reserved":false,"is_disabled":false,"rental_uris":{"android":"levelo://app?vid=8bfba5f0-6d02-4058-854b-b88f3097ad8f","ios":"levelo://app?vid=8bfba5f0-6d02-4058-854b-b88f3097ad8f"},"vehicle_type_id":"4","last_reported":1702361400,"current_range_meters":6800,"station_id":"ce4bhkp2rcd13ifvqgd0","pricing_plan_id":"free"},{"bike_id":"b608108c-9d88-4a97-9146-8b8b8edf505e","system_id":"levelo_inurba_marseille","lat":43.250023,"lon":5.38919,"is_reserved":false,"is_disabled":false,"rental_uris":{"android":"levelo://app?vid=b608108c-9d88-4a97-9146-8b8b8edf505e","ios":"levelo://app?vid=b608108c-9d88-4a97-9146-8b8b8edf505e"},"vehicle_type_id":"4","last_reported":1702361400,"current_range_meters":24800,"station_id":"ce4bhgp2rcd13ifvqfd0","pricing_plan_id":"free"},{"bike_id":"b04a2d9f-26bf-4487-ba34-d57509c29b38","system_id":"levelo_inurba_marseille","lat":43.2479,"lon":5.374457,"is_reserved":false,"is_disabled":false,"rental_uris":{"android":"levelo://app?vid=b04a2d9f-26bf-4487-ba34-d57509c29b38","ios":"levelo://app?vid=b04a2d9f-26bf-4487-ba34-d57509c29b38"},"vehicle_type_id":"4","last_reported":1702361400,"current_range_meters":26400,"station_id":"ce4bhgh2rcd13ifvqfb0","pricing_plan_id":"free"},{"bike_id":"62d1c4db-6886-4c86-9c62-2c6fa554e6fc","system_id":"levelo_inurba_marseille","lat":43.250966,"lon":5.395186,"is_reserved":false,"is_disabled":false,"rental_uris":{"android":"levelo://app?vid=62d1c4db-6886-4c86-9c62-2c6fa554e6fc","ios":"levelo://app?vid=62d1c4db-6886-4c86-9c62-2c6fa554e6fc"},"vehicle_type_id":"4","last_reported":1702361400,"current_range_meters":17200,"station_id":"ce4bhm12rcd13ifvqgkg","pricing_plan_id":"free"},{"bike_id":"d0e907f7-7026-4fee-ae1b-2f3332fde590","system_id":"levelo_inurba_marseille","lat":43.24693,"lon":5.382096,"is_reserved":false,"is_disabled":false,"rental_uris":{"android":"levelo://app?vid=d0e907f7-7026-4fee-ae1b-2f3332fde590","ios":"levelo://app?vid=d0e907f7-7026-4fee-ae1b-2f3332fde590"},"vehicle_type_id":"4","last_reported":1702361400,"current_range_meters":16400,"station_id":"ce4bhih2rcd13ifvqfr0","pricing_plan_id":"free"},{"bike_id":"0f7fd2ef-e6a4-4938-875f-ee0fc362106e","system_id":"levelo_inurba_marseille","lat":43.24693,"lon":5.382096,"is_reserved":false,"is_disabled":false,"rental_uris":{"android":"levelo://app?vid=0f7fd2ef-e6a4-4938-875f-ee0fc362106e","ios":"levelo://app?vid=0f7fd2ef-e6a4-4938-875f-ee0fc362106e"},"vehicle_type_id":"4","last_reported":1702361400,"current_range_meters":24400,"station_id":"ce4bhih2rcd13ifvqfr0","pricing_plan_id":"free"},{"bike_id":"69fc94e6-d1dc-4eac-bba9-0be2d0c272a6","system_id":"levelo_inurba_marseille","lat":43.24693,"lon":5.382096,"is_reserved":false,"is_disabled":false,"rental_uris":{"android":"levelo://app?vid=69fc94e6-d1dc-4eac-bba9-0be2d0c272a6","ios":"levelo://app?vid=69fc94e6-d1dc-4eac-bba9-0be2d0c272a6"},"vehicle_type_id":"4","last_reported":1702361400,"current_range_meters":31200,"station_id":"ce4bhih2rcd13ifvqfr0","pricing_plan_id":"free"},{"bike_id":"fb6f1718-29f6-420f-b0f1-d655cd3993dd","system_id":"levelo_inurba_marseille","lat":43.25109,"lon":5.40322,"is_reserved":false,"is_disabled":false,"rental_uris":{"android":"levelo://app?vid=fb6f1718-29f6-420f-b0f1-d655cd3993dd","ios":"levelo://app?vid=fb6f1718-29f6-420f-b0f1-d655cd3993dd"},"vehicle_type_id":"4","last_reported":1702361400,"current_range_meters":28400,"station_id":"ce4bhlh2rcd13ifvqgig","pricing_plan_id":"free"},{"bike_id":"5aa7b1d3-3cd1-4119-bb73-0b16d8180d87","system_id":"levelo_inurba_marseille","lat":43.243884,"lon":5.370736,"is_reserved":false,"is_disabled":false,"rental_uris":{"android":"levelo://app?vid=5aa7b1d3-3cd1-4119-bb73-0b16d8180d87","ios":"levelo://app?vid=5aa7b1d3-3cd1-4119-bb73-0b16d8180d87"},"vehicle_type_id":"4","last_reported":1702361400,"current_range_meters":30000,"station_id":"ce4bhhh2rcd13ifvqfk0","pricing_plan_id":"free"},{"bike_id":"846961d7-979a-4ad3-956d-a81bed603614","system_id":"levelo_inurba_marseille","lat":43.24635,"lon":5.39641,"is_reserved":false,"is_disabled":false,"rental_uris":{"android":"levelo://app?vid=846961d7-979a-4ad3-956d-a81bed603614","ios":"levelo://app?vid=846961d7-979a-4ad3-956d-a81bed603614"},"vehicle_type_id":"4","last_reported":1702361400,"current_range_meters":0,"station_id":"","pricing_plan_id":"free"},{"bike_id":"14ae085d-06d5-40d6-bd78-65e0e7fc3378","system_id":"levelo_inurba_marseille","lat":43.245581,"lon":5.395069,"is_reserved":false,"is_disabled":false,"rental_uris":{"android":"levelo://app?vid=14ae085d-06d5-40d6-bd78-65e0e7fc3378","ios":"levelo://app?vid=14ae085d-06d5-40d6-bd78-65e0e7fc3378"},"vehicle_type_id":"4","last_reported":1702361400,"current_range_meters":800,"station_id":"ce4bhlp2rcd13ifvqgjg","pricing_plan_id":"free"},{"bike_id":"8adc57dc-5f99-4b7f-82a8-97089dc07b4b","system_id":"levelo_inurba_marseille","lat":43.240623,"lon":5.377642,"is_reserved":false,"is_disabled":false,"rental_uris":{"android":"levelo://app?vid=8adc57dc-5f99-4b7f-82a8-97089dc07b4b","ios":"levelo://app?vid=8adc57dc-5f99-4b7f-82a8-97089dc07b4b"},"vehicle_type_id":"4","last_reported":1702361400,"current_range_meters":30400,"station_id":"ce4bhnp2rcd13ifvqgvg","pricing_plan_id":"free"},{"bike_id":"51e06b0d-efe5-4c12-b96b-c631cd280870","system_id":"levelo_inurba_marseille","lat":43.240623,"lon":5.377642,"is_reserved":false,"is_disabled":false,"rental_uris":{"android":"levelo://app?vid=51e06b0d-efe5-4c12-b96b-c631cd280870","ios":"levelo://app?vid=51e06b0d-efe5-4c12-b96b-c631cd280870"},"vehicle_type_id":"4","last_reported":1702361400,"current_range_meters":21600,"station_id":"ce4bhnp2rcd13ifvqgvg","pricing_plan_id":"free"},{"bike_id":"6ed1aa78-92c9-420b-8a27-4a6cb2f0340f","system_id":"levelo_inurba_marseille","lat":43.240623,"lon":5.377642,"is_reserved":false,"is_disabled":false,"rental_uris":{"android":"levelo://app?vid=6ed1aa78-92c9-420b-8a27-4a6cb2f0340f","ios":"levelo://app?vid=6ed1aa78-92c9-420b-8a27-4a6cb2f0340f"},"vehicle_type_id":"4","last_reported":1702361400,"current_range_meters":30800,"station_id":"ce4bhnp2rcd13ifvqgvg","pricing_plan_id":"free"},{"bike_id":"d04c4a42-99c3-4376-a5db-a7660c958c9c","system_id":"levelo_inurba_marseille","lat":43.241782,"lon":5.397261,"is_reserved":false,"is_disabled":false,"rental_uris":{"android":"levelo://app?vid=d04c4a42-99c3-4376-a5db-a7660c958c9c","ios":"levelo://app?vid=d04c4a42-99c3-4376-a5db-a7660c958c9c"},"vehicle_type_id":"4","last_reported":1702361400,"current_range_meters":27200,"station_id":"ce4bhn12rcd13ifvqgpg","pricing_plan_id":"free"},{"bike_id":"e5f8a3f9-ad33-4c96-8f80-c9bb436ceb1b","system_id":"levelo_inurba_marseille","lat":43.235792,"lon":5.410506,"is_reserved":false,"is_disabled":false,"rental_uris":{"android":"levelo://app?vid=e5f8a3f9-ad33-4c96-8f80-c9bb436ceb1b","ios":"levelo://app?vid=e5f8a3f9-ad33-4c96-8f80-c9bb436ceb1b"},"vehicle_type_id":"4","last_reported":1702361400,"current_range_meters":16800,"station_id":"","pricing_plan_id":"free"},{"bike_id":"65a732be-a23e-4899-8cd3-be07a2e68d78","system_id":"levelo_inurba_marseille","lat":43.231793,"lon":5.400044,"is_reserved":false,"is_disabled":false,"rental_uris":{"android":"levelo://app?vid=65a732be-a23e-4899-8cd3-be07a2e68d78","ios":"levelo://app?vid=65a732be-a23e-4899-8cd3-be07a2e68d78"},"vehicle_type_id":"4","last_reported":1702361400,"current_range_meters":28800,"station_id":"ce4bhn12rcd13ifvqgqg","pricing_plan_id":"free"},{"bike_id":"d4216b28-6573-4e3c-9c6e-b1f827f4d9da","system_id":"levelo_inurba_marseille","lat":43.231794,"lon":5.400052,"is_reserved":false,"is_disabled":false,"rental_uris":{"android":"levelo://app?vid=d4216b28-6573-4e3c-9c6e-b1f827f4d9da","ios":"levelo://app?vid=d4216b28-6573-4e3c-9c6e-b1f827f4d9da"},"vehicle_type_id":"4","last_reported":1702361400,"current_range_meters":30400,"station_id":"ce4bhn12rcd13ifvqgqg","pricing_plan_id":"free"},{"bike_id":"e1137782-3e3d-499c-a61d-e2c68dc9df2e","system_id":"levelo_inurba_marseille","lat":43.231794,"lon":5.400052,"is_reserved":false,"is_disabled":false,"rental_uris":{"android":"levelo://app?vid=e1137782-3e3d-499c-a61d-e2c68dc9df2e","ios":"levelo://app?vid=e1137782-3e3d-499c-a61d-e2c68dc9df2e"},"vehicle_type_id":"4","last_reported":1702361400,"current_range_meters":23200,"station_id":"ce4bhn12rcd13ifvqgqg","pricing_plan_id":"free"},{"bike_id":"baec5ab2-8c78-4d0a-9686-1f92b4ce0853","system_id":"levelo_inurba_marseille","lat":43.231794,"lon":5.400052,"is_reserved":false,"is_disabled":false,"rental_uris":{"android":"levelo://app?vid=baec5ab2-8c78-4d0a-9686-1f92b4ce0853","ios":"levelo://app?vid=baec5ab2-8c78-4d0a-9686-1f92b4ce0853"},"vehicle_type_id":"4","last_reported":1702361400,"current_range_meters":28000,"station_id":"ce4bhn12rcd13ifvqgqg","pricing_plan_id":"free"}]}}