{"last_updated":1748862593,"ttl":60,"version":"2.2","data":{"bikes":[{"bike_id":"55d42eeb-6b71-4987-a0f2-3d758b10d43e","system_id":"levelo_inurba_marseille","lat":43.33771,"lon":5.37424,"is_reserved":false,"is_disabled":true,"rental_uris":{"android":"levelo://app?vid=55d42eeb-6b71-4987-a0f2-3d758b10d43e","ios":"levelo://app?vid=55d42eeb-6b71-4987-a0f2-3d758b10d43e"},"vehicle_type_id":"4","last_reported":1748862593,"current_range_meters":0,"station_id":"","pricing_plan_id":"cebpf4jnsgd1na2vs0mg"},{"bike_id":"b7fe4621-b706-42f0-9085-4811142f84e8","system_id":"levelo_inurba_marseille","lat":43.337499,"lon":5.374469,"is_reserved":false,"is_disabled":true,"rental_uris":{"android":"levelo://app?vid=b7fe4621-b706-42f0-9085-4811142f84e8","ios":"levelo://app?vid=b7fe4621-b706-42f0-9085-4811142f84e8"},"vehicle_type_id":"4","last_reported":1748862593,"current_range_meters":0,"station_id":"","pricing_plan_id":"cebpf4jnsgd1na2vs0mg"},{"bike_id":"75792891-cb01-4acc-af27-ca3270df63db","system_id":"levelo_inurba_marseille","lat":43.337444,"lon":5.374475,"is_reserved":false,"is_disabled":true,"rental_uris":{"android":"levelo://app?vid=75792891-cb01-4acc-af27-ca3270df63db","ios":"levelo://app?vid=75792891-cb01-4acc-af27-ca3270df63db"},"vehicle_type_id":"4","last_reported":1748862593,"current_range_meters":0,"station_id":"","pricing_plan_id":"cebpf4jnsgd1na2vs0mg"},{"bike_id":"ad402f0f-3192-410c-afac-8cf064a40c6d","system_id":"levelo_inurba_marseille","lat":43.337444,"lon":5.374475,"is_reserved":false,"is_disabled":true,"rental_uris":{"android":"levelo://app?vid=ad402f0f-3192-410c-afac-8cf064a40c6d","ios":"levelo://app?vid=ad402f0f-3192-410c-afac-8cf064a40c6d"},"vehicle_type_id":"4","last_reported":1748862593,"current_range_meters":0,"station_id":"","pricing_plan_id":"cebpf4jnsgd1na2vs0mg"},{"bike_id":"5e442864-4d13-4fec-aa91-1a10b07f4d47","system_id":"levelo_inurba_marseille","lat":43.31938,"lon":5.4418,"is_reserved":false,"is_disabled":true,"rental_uris":{"android":"levelo://app?vid=5e442864-4d13-4fec-aa91-1a10b07f4d47","ios":"levelo://app?vid=5e442864-4d13-4fec-aa91-1a10b07f4d47"},"vehicle_type_id":"4","last_reported":1748862593,"current_range_meters":0,"station_id":"","pricing_plan_id":"cebpf4jnsgd1na2vs0mg"},{"bike_id":"965a1b71-066b-4ec9-961d-05f394cdc1f4","system_id":"levelo_inurba_marseille","lat":43.279161,"lon":5.353284,"is_reserved":false,"is_disabled":true,"rental_uris":{"android":"levelo://app?vid=965a1b71-066b-4ec9-961d-05f394cdc1f4","ios":"levelo://app?vid=965a1b71-066b-4ec9-961d-05f394cdc1f4"},"vehicle_type_id":"4","last_reported":1748862593,"current_range_meters":0,"station_id":"","pricing_plan_id":"cebpf4jnsgd1na2vs0mg"},{"bike_id":"af6c46ba-a17f-44ba-aad4-097e93741f28","system_id":"levelo_inurba_marseille","lat":43.25825,"lon":5.39428,"is_reserved":false,"is_disabled":true,"rental_uris":{"android":"levelo://app?vid=af6c46ba-a17f-44ba-aad4-097e93741f28","ios":"levelo://app?vid=af6c46ba-a17f-44ba-aad4-097e93741f28"},"vehicle_type_id":"4","last_reported":1748862593,"current_range_meters":0,"station_id":"","pricing_plan_id":"cebpf4jnsgd1na2vs0mg"},{"bike_id":"7c166ac5-92ff-44a1-b1c9-724536128e34","system_id":"levelo_inurba_marseille","lat":43.27071,"lon":5.42274,"is_reserved":false,"is_disabled":true,"rental_uris":{"android":"levelo://app?vid=7c166ac5-92ff-44a1-b1c9-724536128e34","ios":"levelo://app?vid=7c166ac5-92ff-44a1-b1c9-724536128e34"},"vehicle_type_id":"4","last_reported":1748862593,"current_range_meters":0,"station_id":"ce4bhk92rcd13ifvqgb0","pricing_plan_id":"cebpf4jnsgd1na2vs0mg"},{"bike_id":"61b830fa-16bc-45f1-8549-4baf4e8fda9a","system_id":"levelo_inurba_marseille","lat":43.231456,"lon":5.437003,"is_reserved":false,"is_disabled":true,"rental_uris":{"android":"levelo://app?vid=61b830fa-16bc-45f1-8549-4baf4e8fda9a","ios":"levelo://app?vid=61b830fa-16bc-45f1-8549-4baf4e8fda9a"},"vehicle_type_id":"4","last_reported":1748862593,"current_range_meters":0,"station_id":"ce4bhmp2rcd13ifvqgog","pricing_plan_id":"cebpf4jnsgd1na2vs0mg"},{"bike_id":"5918cbb3-51e0-41bd-bab5-21e06b0faacd","system_id":"levelo_inurba_marseille","lat":43.229256,"lon":5.353725,"is_reserved":false,"is_disabled":true,"rental_uris":{"android":"levelo://app?vid=5918cbb3-51e0-41bd-bab5-21e06b0faacd","ios":"levelo://app?vid=5918cbb3-51e0-41bd-bab5-21e06b0faacd"},"vehicle_type_id":"4","last_reported":1748862593,"current_range_meters":0,"station_id":"cpo3532slgdg3j2ikp40","pricing_plan_id":"cebpf4jnsgd1na2vs0mg"},{"bike_id":"0d079269-c587-4e20-9bac-6eb5dde4c2b8","system_id":"levelo_inurba_marseille","lat":43.31363,"lon":5.36696,"is_reserved":false,"is_disabled":true,"rental_uris":{"android":"levelo://app?vid=0d079269-c587-4e20-9bac-6eb5dde4c2b8","ios":"levelo://app?vid=0d079269-c587-4e20-9bac-6eb5dde4c2b8"},"vehicle_type_id":"4","last_reported":1748862593,"current_range_meters":800,"station_id":"ce4bgr92rcd13ifvqc6g","pricing_plan_id":"cebpf4jnsgd1na2vs0mg"},{"bike_id":"160279b8-70f3-4b6e-bbee-94dcf0546f7c","system_id":"levelo_inurba_marseille","lat":43.294159,"lon":5.386254,"is_reserved":false,"is_disabled":false,"rental_uris":{"android":"levelo://app?vid=160279b8-70f3-4b6e-bbee-94dcf0546f7c","ios":"levelo://app?vid=160279b8-70f3-4b6e-bbee-94dcf0546f7c"},"vehicle_type_id":"4","last_reported":1748862593,"current_range_meters":1200,"station_id":"ce4bh2h2rcd13ifvqdh0","pricing_plan_id":"cebpf4jnsgd1na2vs0mg"},{"bike_id":"d30e89b6-0eba-412b-8bd8-f2200ea90fde","system_id":"levelo_inurba_marseille","lat":43.27616,"lon":5.361063,"is_reserved":false,"is_disabled":true,"rental_uris":{"android":"levelo://app?vid=d30e89b6-0eba-412b-8bd8-f2200ea90fde","ios":"levelo://app?vid=d30e89b6-0eba-412b-8bd8-f2200ea90fde"},"vehicle_type_id":"4","last_reported":1748862593,"current_range_meters":1600,"station_id":"ce4bgj92rcd13ifvqbe0","pricing_plan_id":"cebpf4jnsgd1na2vs0mg"},{"bike_id":"7448f952-bd00-4c2c-aaf9-f7372300102c","system_id":"levelo_inurba_marseille","lat":43.29585,"lon":5.36737,"is_reserved":false,"is_disabled":true,"rental_uris":{"android":"levelo://app?vid=7448f952-bd00-4c2c-aaf9-f7372300102c","ios":"levelo://app?vid=7448f952-bd00-4c2c-aaf9-f7372300102c"},"vehicle_type_id":"4","last_reported":1748862593,"current_range_meters":2000,"station_id":"ce4bgph2rcd13ifvqc2g","pricing_plan_id":"cebpf4jnsgd1na2vs0mg"},{"bike_id":"0a862801-0d98-428a-8151-bdc663a72c6a","system_id":"levelo_inurba_marseille","lat":43.24073,"lon":5.37764,"is_reserved":false,"is_disabled":false,"rental_uris":{"android":"levelo://app?vid=0a862801-0d98-428a-8151-bdc663a72c6a","ios":"levelo://app?vid=0a862801-0d98-428a-8151-bdc663a72c6a"},"vehicle_type_id":"4","last_reported":1748862593,"current_range_meters":3200,"station_id":"ce4bhnp2rcd13ifvqgvg","pricing_plan_id":"cebpf4jnsgd1na2vs0mg"},{"bike_id":"59ae54bb-ea00-4726-8c0c-f78e033628de","system_id":"levelo_inurba_marseille","lat":43.320069,"lon":5.394663,"is_reserved":false,"is_disabled":false,"rental_uris":{"android":"levelo://app?vid=59ae54bb-ea00-4726-8c0c-f78e033628de","ios":"levelo://app?vid=59ae54bb-ea00-4726-8c0c-f78e033628de"},"vehicle_type_id":"4","last_reported":1748862593,"current_range_meters":3600,"station_id":"","pricing_plan_id":"cebpf4jnsgd1na2vs0mg"},{"bike_id":"edec1b10-6f38-48a5-a4c1-4a47cf4d7b0f","system_id":"levelo_inurba_marseille","lat":43.30769,"lon":5.3765,"is_reserved":false,"is_disabled":false,"rental_uris":{"android":"levelo://app?vid=edec1b10-6f38-48a5-a4c1-4a47cf4d7b0f","ios":"levelo://app?vid=edec1b10-6f38-48a5-a4c1-4a47cf4d7b0f"},"vehicle_type_id":"4","last_reported":1748862593,"current_range_meters":4000,"station_id":"ce4bgv92rcd13ifvqcq0","pricing_plan_id":"cebpf4jnsgd1na2vs0mg"},{"bike_id":"4ad55bf3-cfbe-4dce-9d43-586c4b00d056","system_id":"levelo_inurba_marseille","lat":43.29712,"lon":5.37688,"is_reserved":false,"is_disabled":false,"rental_uris":{"android":"levelo://app?vid=4ad55bf3-cfbe-4dce-9d43-586c4b00d056","ios":"levelo://app?vid=4ad55bf3-cfbe-4dce-9d43-586c4b00d056"},"vehicle_type_id":"4","last_reported":1748862593,"current_range_meters":4400,"station_id":"ce4bgkh2rcd13ifvqbl0","pricing_plan_id":"cebpf4jnsgd1na2vs0mg"},{"bike_id":"c0b484c8-e926-471a-a38d-2cbf10aa7229","system_id":"levelo_inurba_marseille","lat":43.30949,"lon":5.39024,"is_reserved":false,"is_disabled":false,"rental_uris":{"android":"levelo://app?vid=c0b484c8-e926-471a-a38d-2cbf10aa7229","ios":"levelo://app?vid=c0b484c8-e926-471a-a38d-2cbf10aa7229"},"vehicle_type_id":"4","last_reported":1748862593,"current_range_meters":4800,"station_id":"ce4bgup2rcd13ifvqco0","pricing_plan_id":"cebpf4jnsgd1na2vs0mg"},{"bike_id":"da7360de-7dab-4aae-926d-66315a4352f0","system_id":"levelo_inurba_marseille","lat":43.279777,"lon":5.38707,"is_reserved":false,"is_disabled":false,"rental_uris":{"android":"levelo://app?vid=da7360de-7dab-4aae-926d-66315a4352f0","ios":"levelo://app?vid=da7360de-7dab-4aae-926d-66315a4352f0"},"vehicle_type_id":"4","last_reported":1748862593,"current_range_meters":4800,"station_id":"ce4bhg12rcd13ifvqf80","pricing_plan_id":"cebpf4jnsgd1na2vs0mg"},{"bike_id":"75dd3e69-3f22-42f7-a00b-32c3e9ed003a","system_id":"levelo_inurba_marseille","lat":43.251234,"lon":5.403188,"is_reserved":false,"is_disabled":false,"rental_uris":{"android":"levelo://app?vid=75dd3e69-3f22-42f7-a00b-32c3e9ed003a","ios":"levelo://app?vid=75dd3e69-3f22-42f7-a00b-32c3e9ed003a"},"vehicle_type_id":"4","last_reported":1748862593,"current_range_meters":4800,"station_id":"ce4bhlh2rcd13ifvqgig","pricing_plan_id":"cebpf4jnsgd1na2vs0mg"},{"bike_id":"f2d24b18-d214-4b88-99a9-26c99e5fd23c","system_id":"levelo_inurba_marseille","lat":43.24628,"lon":5.39327,"is_reserved":false,"is_disabled":false,"rental_uris":{"android":"levelo://app?vid=f2d24b18-d214-4b88-99a9-26c99e5fd23c","ios":"levelo://app?vid=f2d24b18-d214-4b88-99a9-26c99e5fd23c"},"vehicle_type_id":"4","last_reported":1748862593,"current_range_meters":6000,"station_id":"","pricing_plan_id":"cebpf4jnsgd1na2vs0mg"},{"bike_id":"74c0caba-771c-43e8-9de4-da68588f6509","system_id":"levelo_inurba_marseille","lat":43.31708,"lon":5.40439,"is_reserved":false,"is_disabled":false,"rental_uris":{"android":"levelo://app?vid=74c0caba-771c-43e8-9de4-da68588f6509","ios":"levelo://app?vid=74c0caba-771c-43e8-9de4-da68588f6509"},"vehicle_type_id":"4","last_reported":1748862593,"current_range_meters":6000,"station_id":"ce4bh012rcd13ifvqd00","pricing_plan_id":"cebpf4jnsgd1na2vs0mg"},{"bike_id":"155643d6-ea72-4d0f-b44a-a82216d571b0","system_id":"levelo_inurba_marseille","lat":43.28618,"lon":5.35106,"is_reserved":false,"is_disabled":false,"rental_uris":{"android":"levelo://app?vid=155643d6-ea72-4d0f-b44a-a82216d571b0","ios":"levelo://app?vid=155643d6-ea72-4d0f-b44a-a82216d571b0"},"vehicle_type_id":"4","last_reported":1748862593,"current_range_meters":6000,"station_id":"ce4bhch2rcd13ifvqeug","pricing_plan_id":"cebpf4jnsgd1na2vs0mg"},{"bike_id":"b8e87e85-5214-4070-9c8a-92082067dfb1","system_id":"levelo_inurba_marseille","lat":43.2996,"lon":5.41326,"is_reserved":false,"is_disabled":false,"rental_uris":{"android":"levelo://app?vid=b8e87e85-5214-4070-9c8a-92082067dfb1","ios":"levelo://app?vid=b8e87e85-5214-4070-9c8a-92082067dfb1"},"vehicle_type_id":"4","last_reported":1748862593,"current_range_meters":6000,"station_id":"ce4bhp12rcd13ifvqh9g","pricing_plan_id":"cebpf4jnsgd1na2vs0mg"},{"bike_id":"193a22ab-f9a6-47c4-936e-2590a2a106a6","system_id":"levelo_inurba_marseille","lat":43.29411,"lon":5.3863,"is_reserved":false,"is_disabled":false,"rental_uris":{"android":"levelo://app?vid=193a22ab-f9a6-47c4-936e-2590a2a106a6","ios":"levelo://app?vid=193a22ab-f9a6-47c4-936e-2590a2a106a6"},"vehicle_type_id":"4","last_reported":1748862593,"current_range_meters":6400,"station_id":"ce4bh2h2rcd13ifvqdh0","pricing_plan_id":"cebpf4jnsgd1na2vs0mg"},{"bike_id":"63dd1095-0961-4700-a974-a94749b559ef","system_id":"levelo_inurba_marseille","lat":43.28356,"lon":5.38095,"is_reserved":false,"is_disabled":false,"rental_uris":{"android":"levelo://app?vid=63dd1095-0961-4700-a974-a94749b559ef","ios":"levelo://app?vid=63dd1095-0961-4700-a974-a94749b559ef"},"vehicle_type_id":"4","last_reported":1748862593,"current_range_meters":6400,"station_id":"ce4bh412rcd13ifvqdr0","pricing_plan_id":"cebpf4jnsgd1na2vs0mg"},{"bike_id":"c216253a-543b-4a6f-b439-3433e192f12f","system_id":"levelo_inurba_marseille","lat":43.34138,"lon":5.40903,"is_reserved":false,"is_disabled":false,"rental_uris":{"android":"levelo://app?vid=c216253a-543b-4a6f-b439-3433e192f12f","ios":"levelo://app?vid=c216253a-543b-4a6f-b439-3433e192f12f"},"vehicle_type_id":"4","last_reported":1748862593,"current_range_meters":6400,"station_id":"ce4bhqh2rcd13ifvqhlg","pricing_plan_id":"cebpf4jnsgd1na2vs0mg"},{"bike_id":"390dd1b2-43fd-46cb-988e-eccffe1d95ee","system_id":"levelo_inurba_marseille","lat":43.242823,"lon":5.368275,"is_reserved":false,"is_disabled":false,"rental_uris":{"android":"levelo://app?vid=390dd1b2-43fd-46cb-988e-eccffe1d95ee","ios":"levelo://app?vid=390dd1b2-43fd-46cb-988e-eccffe1d95ee"},"vehicle_type_id":"4","last_reported":1748862593,"current_range_meters":6400,"station_id":"cpo36qri1sfpv3e86is0","pricing_plan_id":"cebpf4jnsgd1na2vs0mg"},{"bike_id":"28efabed-853b-4429-aae7-48463f59a794","system_id":"levelo_inurba_marseille","lat":43.24882,"lon":5.39736,"is_reserved":false,"is_disabled":false,"rental_uris":{"android":"levelo://app?vid=28efabed-853b-4429-aae7-48463f59a794","ios":"levelo://app?vid=28efabed-853b-4429-aae7-48463f59a794"},"vehicle_type_id":"4","last_reported":1748862593,"current_range_meters":6800,"station_id":"","pricing_plan_id":"cebpf4jnsgd1na2vs0mg"},{"bike_id":"5ef067e7-b281-4ef9-ad2a-1c6b02a54c04","system_id":"levelo_inurba_marseille","lat":43.319395,"lon":5.440489,"is_reserved":false,"is_disabled":false,"rental_uris":{"android":"levelo://app?vid=5ef067e7-b281-4ef9-ad2a-1c6b02a54c04","ios":"levelo://app?vid=5ef067e7-b281-4ef9-ad2a-1c6b02a54c04"},"vehicle_type_id":"4","last_reported":1748862593,"current_range_meters":6800,"station_id":"","pricing_plan_id":"cebpf4jnsgd1na2vs0mg"},{"bike_id":"1f94bf6d-698c-4607-b443-efbfda7d64a0","system_id":"levelo_inurba_marseille","lat":43.30462,"lon":5.37908,"is_reserved":false,"is_disabled":false,"rental_uris":{"android":"levelo://app?vid=1f94bf6d-698c-4607-b443-efbfda7d64a0","ios":"levelo://app?vid=1f94bf6d-698c-4607-b443-efbfda7d64a0"},"vehicle_type_id":"4","last_reported":1748862593,"current_range_meters":6800,"station_id":"ce4bgup2rcd13ifvqcn0","pricing_plan_id":"cebpf4jnsgd1na2vs0mg"},{"bike_id":"29089142-ebaf-4431-b586-6bb3e4f9d1de","system_id":"levelo_inurba_marseille","lat":43.28358,"lon":5.38105,"is_reserved":false,"is_disabled":false,"rental_uris":{"android":"levelo://app?vid=29089142-ebaf-4431-b586-6bb3e4f9d1de","ios":"levelo://app?vid=29089142-ebaf-4431-b586-6bb3e4f9d1de"},"vehicle_type_id":"4","last_reported":1748862593,"current_range_meters":6800,"station_id":"ce4bh412rcd13ifvqdr0","pricing_plan_id":"cebpf4jnsgd1na2vs0mg"},{"bike_id":"999388a7-0db4-4bd2-b012-5be22a589fe7","system_id":"levelo_inurba_marseille","lat":43.275792,"lon":5.377786,"is_reserved":false,"is_disabled":false,"rental_uris":{"android":"levelo://app?vid=999388a7-0db4-4bd2-b012-5be22a589fe7","ios":"levelo://app?vid=999388a7-0db4-4bd2-b012-5be22a589fe7"},"vehicle_type_id":"4","last_reported":1748862593,"current_range_meters":7200,"station_id":"","pricing_plan_id":"cebpf4jnsgd1na2vs0mg"},{"bike_id":"e61c98c1-2097-47f5-ba8f-fad807b0f3be","system_id":"levelo_inurba_marseille","lat":43.32877,"lon":5.40514,"is_reserved":false,"is_disabled":false,"rental_uris":{"android":"levelo://app?vid=e61c98c1-2097-47f5-ba8f-fad807b0f3be","ios":"levelo://app?vid=e61c98c1-2097-47f5-ba8f-fad807b0f3be"},"vehicle_type_id":"4","last_reported":1748862593,"current_range_meters":7200,"station_id":"","pricing_plan_id":"cebpf4jnsgd1na2vs0mg"},{"bike_id":"3b5bda72-c1ae-4bb5-a294-062cfb3241b4","system_id":"levelo_inurba_marseille","lat":43.29006,"lon":5.35615,"is_reserved":false,"is_disabled":false,"rental_uris":{"android":"levelo://app?vid=3b5bda72-c1ae-4bb5-a294-062cfb3241b4","ios":"levelo://app?vid=3b5bda72-c1ae-4bb5-a294-062cfb3241b4"},"vehicle_type_id":"4","last_reported":1748862593,"current_range_meters":7200,"station_id":"","pricing_plan_id":"cebpf4jnsgd1na2vs0mg"},{"bike_id":"e210be7e-07b8-44d3-ae09-6702f28e2ae8","system_id":"levelo_inurba_marseille","lat":43.25118,"lon":5.39344,"is_reserved":false,"is_disabled":false,"rental_uris":{"android":"levelo://app?vid=e210be7e-07b8-44d3-ae09-6702f28e2ae8","ios":"levelo://app?vid=e210be7e-07b8-44d3-ae09-6702f28e2ae8"},"vehicle_type_id":"4","last_reported":1748862593,"current_range_meters":7200,"station_id":"","pricing_plan_id":"cebpf4jnsgd1na2vs0mg"},{"bike_id":"c2097dd4-5cf0-4c3e-8c78-f248d97d5560","system_id":"levelo_inurba_marseille","lat":43.296128,"lon":5.38088,"is_reserved":false,"is_disabled":false,"rental_uris":{"android":"levelo://app?vid=c2097dd4-5cf0-4c3e-8c78-f248d97d5560","ios":"levelo://app?vid=c2097dd4-5cf0-4c3e-8c78-f248d97d5560"},"vehicle_type_id":"4","last_reported":1748862593,"current_range_meters":7200,"station_id":"ce4bgl12rcd13ifvqbo0","pricing_plan_id":"cebpf4jnsgd1na2vs0mg"},{"bike_id":"76a5bbdb-49d8-4241-b427-6a93427e60b1","system_id":"levelo_inurba_marseille","lat":43.3018,"lon":5.36624,"is_reserved":false,"is_disabled":false,"rental_uris":{"android":"levelo://app?vid=76a5bbdb-49d8-4241-b427-6a93427e60b1","ios":"levelo://app?vid=76a5bbdb-49d8-4241-b427-6a93427e60b1"},"vehicle_type_id":"4","last_reported":1748862593,"current_range_meters":7200,"station_id":"ce4bgrh2rcd13ifvqc8g","pricing_plan_id":"cebpf4jnsgd1na2vs0mg"},{"bike_id":"bb7dec83-f756-489d-b915-9fa35101ef28","system_id":"levelo_inurba_marseille","lat":43.24389,"lon":5.37063,"is_reserved":false,"is_disabled":false,"rental_uris":{"android":"levelo://app?vid=bb7dec83-f756-489d-b915-9fa35101ef28","ios":"levelo://app?vid=bb7dec83-f756-489d-b915-9fa35101ef28"},"vehicle_type_id":"4","last_reported":1748862593,"current_range_meters":7200,"station_id":"ce4bhhh2rcd13ifvqfk0","pricing_plan_id":"cebpf4jnsgd1na2vs0mg"},{"bike_id":"44937502-9331-4b1f-8bb8-88c6881f7115","system_id":"levelo_inurba_marseille","lat":43.24557,"lon":5.39526,"is_reserved":false,"is_disabled":false,"rental_uris":{"android":"levelo://app?vid=44937502-9331-4b1f-8bb8-88c6881f7115","ios":"levelo://app?vid=44937502-9331-4b1f-8bb8-88c6881f7115"},"vehicle_type_id":"4","last_reported":1748862593,"current_range_meters":7200,"station_id":"ce4bhlp2rcd13ifvqgjg","pricing_plan_id":"cebpf4jnsgd1na2vs0mg"},{"bike_id":"21ff3fb6-d282-4e8f-8c65-749c73573e4b","system_id":"levelo_inurba_marseille","lat":43.33728,"lon":5.39184,"is_reserved":false,"is_disabled":false,"rental_uris":{"android":"levelo://app?vid=21ff3fb6-d282-4e8f-8c65-749c73573e4b","ios":"levelo://app?vid=21ff3fb6-d282-4e8f-8c65-749c73573e4b"},"vehicle_type_id":"4","last_reported":1748862593,"current_range_meters":7200,"station_id":"ce4bhr92rcd13ifvqhsg","pricing_plan_id":"cebpf4jnsgd1na2vs0mg"},{"bike_id":"d95a8927-9413-4ee6-b8dd-9b96d5af8d5e","system_id":"levelo_inurba_marseille","lat":43.28328,"lon":5.35025,"is_reserved":false,"is_disabled":false,"rental_uris":{"android":"levelo://app?vid=d95a8927-9413-4ee6-b8dd-9b96d5af8d5e","ios":"levelo://app?vid=d95a8927-9413-4ee6-b8dd-9b96d5af8d5e"},"vehicle_type_id":"4","last_reported":1748862593,"current_range_meters":8000,"station_id":"","pricing_plan_id":"cebpf4jnsgd1na2vs0mg"},{"bike_id":"228397f0-f948-41be-8ad5-419d106fe459","system_id":"levelo_inurba_marseille","lat":43.28114,"lon":5.37834,"is_reserved":false,"is_disabled":false,"rental_uris":{"android":"levelo://app?vid=228397f0-f948-41be-8ad5-419d106fe459","ios":"levelo://app?vid=228397f0-f948-41be-8ad5-419d106fe459"},"vehicle_type_id":"4","last_reported":1748862593,"current_range_meters":8000,"station_id":"ce4bha12rcd13ifvqee0","pricing_plan_id":"cebpf4jnsgd1na2vs0mg"},{"bike_id":"9d8dfe63-9705-4e08-9ebe-5fa512f023ee","system_id":"levelo_inurba_marseille","lat":43.24176,"lon":5.39736,"is_reserved":false,"is_disabled":false,"rental_uris":{"android":"levelo://app?vid=9d8dfe63-9705-4e08-9ebe-5fa512f023ee","ios":"levelo://app?vid=9d8dfe63-9705-4e08-9ebe-5fa512f023ee"},"vehicle_type_id":"4","last_reported":1748862593,"current_range_meters":8000,"station_id":"ce4bhn12rcd13ifvqgpg","pricing_plan_id":"cebpf4jnsgd1na2vs0mg"},{"bike_id":"bd32732a-0231-4c0c-8272-75d9e5d5101a","system_id":"levelo_inurba_marseille","lat":43.33027,"lon":5.39037,"is_reserved":false,"is_disabled":false,"rental_uris":{"android":"levelo://app?vid=bd32732a-0231-4c0c-8272-75d9e5d5101a","ios":"levelo://app?vid=bd32732a-0231-4c0c-8272-75d9e5d5101a"},"vehicle_type_id":"4","last_reported":1748862593,"current_range_meters":8000,"station_id":"ce4bhr92rcd13ifvqhrg","pricing_plan_id":"cebpf4jnsgd1na2vs0mg"},{"bike_id":"1e3d4f00-1981-46ed-90ec-93f998d719d4","system_id":"levelo_inurba_marseille","lat":43.23962,"lon":5.366219,"is_reserved":false,"is_disabled":false,"rental_uris":{"android":"levelo://app?vid=1e3d4f00-1981-46ed-90ec-93f998d719d4","ios":"levelo://app?vid=1e3d4f00-1981-46ed-90ec-93f998d719d4"},"vehicle_type_id":"4","last_reported":1748862593,"current_range_meters":8400,"station_id":"","pricing_plan_id":"cebpf4jnsgd1na2vs0mg"},{"bike_id":"ee9b8a35-0d60-4f53-82c5-0782d7fc155b","system_id":"levelo_inurba_marseille","lat":43.30896,"lon":5.36863,"is_reserved":false,"is_disabled":false,"rental_uris":{"android":"levelo://app?vid=ee9b8a35-0d60-4f53-82c5-0782d7fc155b","ios":"levelo://app?vid=ee9b8a35-0d60-4f53-82c5-0782d7fc155b"},"vehicle_type_id":"4","last_reported":1748862593,"current_range_meters":8400,"station_id":"ce4bgn92rcd13ifvqbvg","pricing_plan_id":"cebpf4jnsgd1na2vs0mg"},{"bike_id":"6b7624a9-c3b2-4424-be03-58a07d49891f","system_id":"levelo_inurba_marseille","lat":43.31351,"lon":5.36705,"is_reserved":false,"is_disabled":false,"rental_uris":{"android":"levelo://app?vid=6b7624a9-c3b2-4424-be03-58a07d49891f","ios":"levelo://app?vid=6b7624a9-c3b2-4424-be03-58a07d49891f"},"vehicle_type_id":"4","last_reported":1748862593,"current_range_meters":8400,"station_id":"ce4bgr92rcd13ifvqc6g","pricing_plan_id":"cebpf4jnsgd1na2vs0mg"},{"bike_id":"84be4b8e-115d-46dd-ad17-166739bb4bb3","system_id":"levelo_inurba_marseille","lat":43.25585,"lon":5.38232,"is_reserved":false,"is_disabled":false,"rental_uris":{"android":"levelo://app?vid=84be4b8e-115d-46dd-ad17-166739bb4bb3","ios":"levelo://app?vid=84be4b8e-115d-46dd-ad17-166739bb4bb3"},"vehicle_type_id":"4","last_reported":1748862593,"current_range_meters":8400,"station_id":"ce4bhih2rcd13ifvqfs0","pricing_plan_id":"cebpf4jnsgd1na2vs0mg"},{"bike_id":"52138315-f13b-4871-ab78-9e5155a1008c","system_id":"levelo_inurba_marseille","lat":43.32282,"lon":5.38237,"is_reserved":false,"is_disabled":false,"rental_uris":{"android":"levelo://app?vid=52138315-f13b-4871-ab78-9e5155a1008c","ios":"levelo://app?vid=52138315-f13b-4871-ab78-9e5155a1008c"},"vehicle_type_id":"4","last_reported":1748862593,"current_range_meters":8400,"station_id":"ce4bhr12rcd13ifvqhqg","pricing_plan_id":"cebpf4jnsgd1na2vs0mg"},{"bike_id":"75938d69-764f-401e-aada-d5bb480c39a1","system_id":"levelo_inurba_marseille","lat":43.28613,"lon":5.37057,"is_reserved":false,"is_disabled":false,"rental_uris":{"android":"levelo://app?vid=75938d69-764f-401e-aada-d5bb480c39a1","ios":"levelo://app?vid=75938d69-764f-401e-aada-d5bb480c39a1"},"vehicle_type_id":"4","last_reported":1748862593,"current_range_meters":8400,"station_id":"ce4bht12rcd13ifvqi60","pricing_plan_id":"cebpf4jnsgd1na2vs0mg"},{"bike_id":"671df410-c690-4e26-a792-53c4f000c5eb","system_id":"levelo_inurba_marseille","lat":43.29638,"lon":5.40583,"is_reserved":false,"is_disabled":false,"rental_uris":{"android":"levelo://app?vid=671df410-c690-4e26-a792-53c4f000c5eb","ios":"levelo://app?vid=671df410-c690-4e26-a792-53c4f000c5eb"},"vehicle_type_id":"4","last_reported":1748862593,"current_range_meters":8800,"station_id":"ce4bh0h2rcd13ifvqd60","pricing_plan_id":"cebpf4jnsgd1na2vs0mg"},{"bike_id":"8934052e-a6fc-41be-abcf-ac57fa024156","system_id":"levelo_inurba_marseille","lat":43.27378,"lon":5.36258,"is_reserved":false,"is_disabled":false,"rental_uris":{"android":"levelo://app?vid=8934052e-a6fc-41be-abcf-ac57fa024156","ios":"levelo://app?vid=8934052e-a6fc-41be-abcf-ac57fa024156"},"vehicle_type_id":"4","last_reported":1748862593,"current_range_meters":8800,"station_id":"ce4bhbh2rcd13ifvqeo0","pricing_plan_id":"cebpf4jnsgd1na2vs0mg"},{"bike_id":"56b8f16f-e6ba-4aab-acbd-619d8ef89793","system_id":"levelo_inurba_marseille","lat":43.23148,"lon":5.43713,"is_reserved":false,"is_disabled":false,"rental_uris":{"android":"levelo://app?vid=56b8f16f-e6ba-4aab-acbd-619d8ef89793","ios":"levelo://app?vid=56b8f16f-e6ba-4aab-acbd-619d8ef89793"},"vehicle_type_id":"4","last_reported":1748862593,"current_range_meters":8800,"station_id":"ce4bhmp2rcd13ifvqgog","pricing_plan_id":"cebpf4jnsgd1na2vs0mg"},{"bike_id":"7b44173b-5d11-4c0b-8d16-0982084d4bdb","system_id":"levelo_inurba_marseille","lat":43.33736,"lon":5.39191,"is_reserved":false,"is_disabled":false,"rental_uris":{"android":"levelo://app?vid=7b44173b-5d11-4c0b-8d16-0982084d4bdb","ios":"levelo://app?vid=7b44173b-5d11-4c0b-8d16-0982084d4bdb"},"vehicle_type_id":"4","last_reported":1748862593,"current_range_meters":8800,"station_id":"ce4bhr92rcd13ifvqhsg","pricing_plan_id":"cebpf4jnsgd1na2vs0mg"},{"bike_id":"f5a90625-b7e8-48a8-90c6-777efe255a32","system_id":"levelo_inurba_marseille","lat":43.250979,"lon":5.409687,"is_reserved":false,"is_disabled":false,"rental_uris":{"android":"levelo://app?vid=f5a90625-b7e8-48a8-90c6-777efe255a32","ios":"levelo://app?vid=f5a90625-b7e8-48a8-90c6-777efe255a32"},"vehicle_type_id":"4","last_reported":1748862593,"current_range_meters":9200,"station_id":"","pricing_plan_id":"cebpf4jnsgd1na2vs0mg"},{"bike_id":"77520d45-03bf-4b26-9f9b-8ac6c162ce6b","system_id":"levelo_inurba_marseille","lat":43.24342,"lon":5.41142,"is_reserved":false,"is_disabled":false,"rental_uris":{"android":"levelo://app?vid=77520d45-03bf-4b26-9f9b-8ac6c162ce6b","ios":"levelo://app?vid=77520d45-03bf-4b26-9f9b-8ac6c162ce6b"},"vehicle_type_id":"4","last_reported":1748862593,"current_range_meters":9200,"station_id":"","pricing_plan_id":"cebpf4jnsgd1na2vs0mg"},{"bike_id":"3c714906-76f2-42cc-b185-ab332f5426c2","system_id":"levelo_inurba_marseille","lat":43.23089,"lon":5.40172,"is_reserved":false,"is_disabled":false,"rental_uris":{"android":"levelo://app?vid=3c714906-76f2-42cc-b185-ab332f5426c2","ios":"levelo://app?vid=3c714906-76f2-42cc-b185-ab332f5426c2"},"vehicle_type_id":"4","last_reported":1748862593,"current_range_meters":9200,"station_id":"","pricing_plan_id":"cebpf4jnsgd1na2vs0mg"},{"bike_id":"4138deb3-8c43-46aa-b56d-0f663d1b4e79","system_id":"levelo_inurba_marseille","lat":43.29627,"lon":5.37713,"is_reserved":false,"is_disabled":false,"rental_uris":{"android":"levelo://app?vid=4138deb3-8c43-46aa-b56d-0f663d1b4e79","ios":"levelo://app?vid=4138deb3-8c43-46aa-b56d-0f663d1b4e79"},"vehicle_type_id":"4","last_reported":1748862593,"current_range_meters":9200,"station_id":"ce4bgi92rcd13ifvqb90","pricing_plan_id":"cebpf4jnsgd1na2vs0mg"},{"bike_id":"371ccaa6-632d-447d-906d-f602697e0058","system_id":"levelo_inurba_marseille","lat":43.26555,"lon":5.37281,"is_reserved":false,"is_disabled":false,"rental_uris":{"android":"levelo://app?vid=371ccaa6-632d-447d-906d-f602697e0058","ios":"levelo://app?vid=371ccaa6-632d-447d-906d-f602697e0058"},"vehicle_type_id":"4","last_reported":1748862593,"current_range_meters":9200,"station_id":"ce4bhg12rcd13ifvqf70","pricing_plan_id":"cebpf4jnsgd1na2vs0mg"},{"bike_id":"3defe538-f0bb-4534-b6bf-2b078bd6a800","system_id":"levelo_inurba_marseille","lat":43.26062,"lon":5.39394,"is_reserved":false,"is_disabled":false,"rental_uris":{"android":"levelo://app?vid=3defe538-f0bb-4534-b6bf-2b078bd6a800","ios":"levelo://app?vid=3defe538-f0bb-4534-b6bf-2b078bd6a800"},"vehicle_type_id":"4","last_reported":1748862593,"current_range_meters":9200,"station_id":"ce4bhh92rcd13ifvqfj0","pricing_plan_id":"cebpf4jnsgd1na2vs0mg"},{"bike_id":"a308a9c6-0b96-4171-9825-9af925d5afb1","system_id":"levelo_inurba_marseille","lat":43.2572,"lon":5.41113,"is_reserved":false,"is_disabled":false,"rental_uris":{"android":"levelo://app?vid=a308a9c6-0b96-4171-9825-9af925d5afb1","ios":"levelo://app?vid=a308a9c6-0b96-4171-9825-9af925d5afb1"},"vehicle_type_id":"4","last_reported":1748862593,"current_range_meters":9200,"station_id":"ce4bhkp2rcd13ifvqgd0","pricing_plan_id":"cebpf4jnsgd1na2vs0mg"},{"bike_id":"d787cfdb-50c2-451d-8448-0eff07939f1e","system_id":"levelo_inurba_marseille","lat":43.23193,"lon":5.43707,"is_reserved":false,"is_disabled":false,"rental_uris":{"android":"levelo://app?vid=d787cfdb-50c2-451d-8448-0eff07939f1e","ios":"levelo://app?vid=d787cfdb-50c2-451d-8448-0eff07939f1e"},"vehicle_type_id":"4","last_reported":1748862593,"current_range_meters":9200,"station_id":"ce4bhmp2rcd13ifvqgog","pricing_plan_id":"cebpf4jnsgd1na2vs0mg"},{"bike_id":"f8c310ff-7f1e-4846-a3ed-b26bf26e087f","system_id":"levelo_inurba_marseille","lat":43.29215,"lon":5.37916,"is_reserved":false,"is_disabled":false,"rental_uris":{"android":"levelo://app?vid=f8c310ff-7f1e-4846-a3ed-b26bf26e087f","ios":"levelo://app?vid=f8c310ff-7f1e-4846-a3ed-b26bf26e087f"},"vehicle_type_id":"4","last_reported":1748862593,"current_range_meters":9600,"station_id":"","pricing_plan_id":"cebpf4jnsgd1na2vs0mg"},{"bike_id":"e7bb7c28-6006-4c7d-9026-52079d7a7678","system_id":"levelo_inurba_marseille","lat":43.30949,"lon":5.39034,"is_reserved":false,"is_disabled":false,"rental_uris":{"android":"levelo://app?vid=e7bb7c28-6006-4c7d-9026-52079d7a7678","ios":"levelo://app?vid=e7bb7c28-6006-4c7d-9026-52079d7a7678"},"vehicle_type_id":"4","last_reported":1748862593,"current_range_meters":9600,"station_id":"ce4bgup2rcd13ifvqco0","pricing_plan_id":"cebpf4jnsgd1na2vs0mg"},{"bike_id":"7d9d41b3-0e83-4749-afeb-00e04c89abdf","system_id":"levelo_inurba_marseille","lat":43.28367,"lon":5.38109,"is_reserved":false,"is_disabled":false,"rental_uris":{"android":"levelo://app?vid=7d9d41b3-0e83-4749-afeb-00e04c89abdf","ios":"levelo://app?vid=7d9d41b3-0e83-4749-afeb-00e04c89abdf"},"vehicle_type_id":"4","last_reported":1748862593,"current_range_meters":9600,"station_id":"ce4bh412rcd13ifvqdr0","pricing_plan_id":"cebpf4jnsgd1na2vs0mg"},{"bike_id":"c389b1a0-22ea-4268-ba36-abd2c679948d","system_id":"levelo_inurba_marseille","lat":43.28857,"lon":5.35845,"is_reserved":false,"is_disabled":false,"rental_uris":{"android":"levelo://app?vid=c389b1a0-22ea-4268-ba36-abd2c679948d","ios":"levelo://app?vid=c389b1a0-22ea-4268-ba36-abd2c679948d"},"vehicle_type_id":"4","last_reported":1748862593,"current_range_meters":9600,"station_id":"ce4bhb12rcd13ifvqem0","pricing_plan_id":"cebpf4jnsgd1na2vs0mg"},{"bike_id":"8d1ca5c1-f84f-45d2-a4e2-71978a2cc33a","system_id":"levelo_inurba_marseille","lat":43.26945,"lon":5.40248,"is_reserved":false,"is_disabled":false,"rental_uris":{"android":"levelo://app?vid=8d1ca5c1-f84f-45d2-a4e2-71978a2cc33a","ios":"levelo://app?vid=8d1ca5c1-f84f-45d2-a4e2-71978a2cc33a"},"vehicle_type_id":"4","last_reported":1748862593,"current_range_meters":9600,"station_id":"cjm6bp8fraef2m0cb0m0","pricing_plan_id":"cebpf4jnsgd1na2vs0mg"},{"bike_id":"3f442b68-c311-48a8-952d-82b4762093f6","system_id":"levelo_inurba_marseille","lat":43.23159,"lon":5.43705,"is_reserved":false,"is_disabled":false,"rental_uris":{"android":"levelo://app?vid=3f442b68-c311-48a8-952d-82b4762093f6","ios":"levelo://app?vid=3f442b68-c311-48a8-952d-82b4762093f6"},"vehicle_type_id":"4","last_reported":1748862593,"current_range_meters":10000,"station_id":"ce4bhmp2rcd13ifvqgog","pricing_plan_id":"cebpf4jnsgd1na2vs0mg"},{"bike_id":"48063303-4f1b-4047-8d3d-af4488fa2bc5","system_id":"levelo_inurba_marseille","lat":43.32349,"lon":5.36723,"is_reserved":false,"is_disabled":false,"rental_uris":{"android":"levelo://app?vid=48063303-4f1b-4047-8d3d-af4488fa2bc5","ios":"levelo://app?vid=48063303-4f1b-4047-8d3d-af4488fa2bc5"},"vehicle_type_id":"4","last_reported":1748862593,"current_range_meters":10000,"station_id":"ce4bhsh2rcd13ifvqi2g","pricing_plan_id":"cebpf4jnsgd1na2vs0mg"},{"bike_id":"e4f2e553-75d1-42a7-95cb-b18b90074a93","system_id":"levelo_inurba_marseille","lat":43.31743,"lon":5.38761,"is_reserved":false,"is_disabled":false,"rental_uris":{"android":"levelo://app?vid=e4f2e553-75d1-42a7-95cb-b18b90074a93","ios":"levelo://app?vid=e4f2e553-75d1-42a7-95cb-b18b90074a93"},"vehicle_type_id":"4","last_reported":1748862593,"current_range_meters":10800,"station_id":"","pricing_plan_id":"cebpf4jnsgd1na2vs0mg"},{"bike_id":"85a19ec6-a183-4a9d-9c6b-9c6ad8b963d5","system_id":"levelo_inurba_marseille","lat":43.31353,"lon":5.38495,"is_reserved":false,"is_disabled":false,"rental_uris":{"android":"levelo://app?vid=85a19ec6-a183-4a9d-9c6b-9c6ad8b963d5","ios":"levelo://app?vid=85a19ec6-a183-4a9d-9c6b-9c6ad8b963d5"},"vehicle_type_id":"4","last_reported":1748862593,"current_range_meters":10800,"station_id":"ce4bgt92rcd13ifvqcf0","pricing_plan_id":"cebpf4jnsgd1na2vs0mg"},{"bike_id":"b4f34c16-6d44-490a-bbca-1685dcb028f3","system_id":"levelo_inurba_marseille","lat":43.28949,"lon":5.3663,"is_reserved":false,"is_disabled":false,"rental_uris":{"android":"levelo://app?vid=b4f34c16-6d44-490a-bbca-1685dcb028f3","ios":"levelo://app?vid=b4f34c16-6d44-490a-bbca-1685dcb028f3"},"vehicle_type_id":"4","last_reported":1748862593,"current_range_meters":10800,"station_id":"ce4bhap2rcd13ifvqek0","pricing_plan_id":"cebpf4jnsgd1na2vs0mg"},{"bike_id":"471cddf8-eb0c-43d9-b403-3267debce797","system_id":"levelo_inurba_marseille","lat":43.2696,"lon":5.3863,"is_reserved":false,"is_disabled":false,"rental_uris":{"android":"levelo://app?vid=471cddf8-eb0c-43d9-b403-3267debce797","ios":"levelo://app?vid=471cddf8-eb0c-43d9-b403-3267debce797"},"vehicle_type_id":"4","last_reported":1748862593,"current_range_meters":10800,"station_id":"ce4bhh92rcd13ifvqfh0","pricing_plan_id":"cebpf4jnsgd1na2vs0mg"},{"bike_id":"aa25faf2-ffd1-4e97-b0f1-b86864b12847","system_id":"levelo_inurba_marseille","lat":43.27995,"lon":5.40012,"is_reserved":false,"is_disabled":false,"rental_uris":{"android":"levelo://app?vid=aa25faf2-ffd1-4e97-b0f1-b86864b12847","ios":"levelo://app?vid=aa25faf2-ffd1-4e97-b0f1-b86864b12847"},"vehicle_type_id":"4","last_reported":1748862593,"current_range_meters":10800,"station_id":"ce4bho92rcd13ifvqh4g","pricing_plan_id":"cebpf4jnsgd1na2vs0mg"},{"bike_id":"7b11ab60-02fc-435d-8220-718786d271b7","system_id":"levelo_inurba_marseille","lat":43.21754,"lon":5.34598,"is_reserved":false,"is_disabled":false,"rental_uris":{"android":"levelo://app?vid=7b11ab60-02fc-435d-8220-718786d271b7","ios":"levelo://app?vid=7b11ab60-02fc-435d-8220-718786d271b7"},"vehicle_type_id":"4","last_reported":1748862593,"current_range_meters":10800,"station_id":"st_cvj6r9ubvosntc0bgbag","pricing_plan_id":"cebpf4jnsgd1na2vs0mg"},{"bike_id":"34e38c7c-ce8e-4ef6-83cd-81143caf3d90","system_id":"levelo_inurba_marseille","lat":43.239651,"lon":5.366215,"is_reserved":false,"is_disabled":false,"rental_uris":{"android":"levelo://app?vid=34e38c7c-ce8e-4ef6-83cd-81143caf3d90","ios":"levelo://app?vid=34e38c7c-ce8e-4ef6-83cd-81143caf3d90"},"vehicle_type_id":"4","last_reported":1748862593,"current_range_meters":11200,"station_id":"","pricing_plan_id":"cebpf4jnsgd1na2vs0mg"},{"bike_id":"248326b5-3994-409d-b862-a8c3c5a22b58","system_id":"levelo_inurba_marseille","lat":43.29712,"lon":5.3769,"is_reserved":false,"is_disabled":false,"rental_uris":{"android":"levelo://app?vid=248326b5-3994-409d-b862-a8c3c5a22b58","ios":"levelo://app?vid=248326b5-3994-409d-b862-a8c3c5a22b58"},"vehicle_type_id":"4","last_reported":1748862593,"current_range_meters":11200,"station_id":"ce4bgkh2rcd13ifvqbl0","pricing_plan_id":"cebpf4jnsgd1na2vs0mg"},{"bike_id":"64baa8e5-4948-43ef-bd5f-88d4aadfd8f7","system_id":"levelo_inurba_marseille","lat":43.30918,"lon":5.36838,"is_reserved":false,"is_disabled":false,"rental_uris":{"android":"levelo://app?vid=64baa8e5-4948-43ef-bd5f-88d4aadfd8f7","ios":"levelo://app?vid=64baa8e5-4948-43ef-bd5f-88d4aadfd8f7"},"vehicle_type_id":"4","last_reported":1748862593,"current_range_meters":11200,"station_id":"ce4bgn92rcd13ifvqbvg","pricing_plan_id":"cebpf4jnsgd1na2vs0mg"},{"bike_id":"68751ed8-5def-44dd-9302-814c6cb074a4","system_id":"levelo_inurba_marseille","lat":43.31366,"lon":5.36688,"is_reserved":false,"is_disabled":false,"rental_uris":{"android":"levelo://app?vid=68751ed8-5def-44dd-9302-814c6cb074a4","ios":"levelo://app?vid=68751ed8-5def-44dd-9302-814c6cb074a4"},"vehicle_type_id":"4","last_reported":1748862593,"current_range_meters":11200,"station_id":"ce4bgr92rcd13ifvqc6g","pricing_plan_id":"cebpf4jnsgd1na2vs0mg"},{"bike_id":"0d53de41-9434-4eb6-a640-225affa9a08e","system_id":"levelo_inurba_marseille","lat":43.2893,"lon":5.36629,"is_reserved":false,"is_disabled":false,"rental_uris":{"android":"levelo://app?vid=0d53de41-9434-4eb6-a640-225affa9a08e","ios":"levelo://app?vid=0d53de41-9434-4eb6-a640-225affa9a08e"},"vehicle_type_id":"4","last_reported":1748862593,"current_range_meters":11200,"station_id":"ce4bhap2rcd13ifvqek0","pricing_plan_id":"cebpf4jnsgd1na2vs0mg"},{"bike_id":"d62fb8d3-c1d7-41d1-8561-08ae0419544b","system_id":"levelo_inurba_marseille","lat":43.24666,"lon":5.38165,"is_reserved":false,"is_disabled":false,"rental_uris":{"android":"levelo://app?vid=d62fb8d3-c1d7-41d1-8561-08ae0419544b","ios":"levelo://app?vid=d62fb8d3-c1d7-41d1-8561-08ae0419544b"},"vehicle_type_id":"4","last_reported":1748862593,"current_range_meters":11200,"station_id":"ce4bhih2rcd13ifvqfr0","pricing_plan_id":"cebpf4jnsgd1na2vs0mg"},{"bike_id":"4aa25762-899a-48d9-9400-a516f883e4ca","system_id":"levelo_inurba_marseille","lat":43.24072,"lon":5.37749,"is_reserved":false,"is_disabled":false,"rental_uris":{"android":"levelo://app?vid=4aa25762-899a-48d9-9400-a516f883e4ca","ios":"levelo://app?vid=4aa25762-899a-48d9-9400-a516f883e4ca"},"vehicle_type_id":"4","last_reported":1748862593,"current_range_meters":11200,"station_id":"ce4bhnp2rcd13ifvqgvg","pricing_plan_id":"cebpf4jnsgd1na2vs0mg"},{"bike_id":"be66391c-7373-48e3-91f0-11e27ef5bbc1","system_id":"levelo_inurba_marseille","lat":43.30352,"lon":5.41869,"is_reserved":false,"is_disabled":false,"rental_uris":{"android":"levelo://app?vid=be66391c-7373-48e3-91f0-11e27ef5bbc1","ios":"levelo://app?vid=be66391c-7373-48e3-91f0-11e27ef5bbc1"},"vehicle_type_id":"4","last_reported":1748862593,"current_range_meters":11200,"station_id":"ce4bhop2rcd13ifvqh7g","pricing_plan_id":"cebpf4jnsgd1na2vs0mg"},{"bike_id":"a8af9193-1f0b-4e5d-99a2-be78ccabc55b","system_id":"levelo_inurba_marseille","lat":43.31195,"lon":5.41657,"is_reserved":false,"is_disabled":false,"rental_uris":{"android":"levelo://app?vid=a8af9193-1f0b-4e5d-99a2-be78ccabc55b","ios":"levelo://app?vid=a8af9193-1f0b-4e5d-99a2-be78ccabc55b"},"vehicle_type_id":"4","last_reported":1748862593,"current_range_meters":11600,"station_id":"","pricing_plan_id":"cebpf4jnsgd1na2vs0mg"},{"bike_id":"aa443f48-cb6d-481d-a6ba-15cea747f7d6","system_id":"levelo_inurba_marseille","lat":43.28371,"lon":5.38633,"is_reserved":false,"is_disabled":false,"rental_uris":{"android":"levelo://app?vid=aa443f48-cb6d-481d-a6ba-15cea747f7d6","ios":"levelo://app?vid=aa443f48-cb6d-481d-a6ba-15cea747f7d6"},"vehicle_type_id":"4","last_reported":1748862593,"current_range_meters":11600,"station_id":"ce4bh492rcd13ifvqdvg","pricing_plan_id":"cebpf4jnsgd1na2vs0mg"},{"bike_id":"44a204d1-64f2-43f6-add1-47ed9b898e6c","system_id":"levelo_inurba_marseille","lat":43.27564,"lon":5.38408,"is_reserved":false,"is_disabled":false,"rental_uris":{"android":"levelo://app?vid=44a204d1-64f2-43f6-add1-47ed9b898e6c","ios":"levelo://app?vid=44a204d1-64f2-43f6-add1-47ed9b898e6c"},"vehicle_type_id":"4","last_reported":1748862593,"current_range_meters":11600,"station_id":"ce4bhh92rcd13ifvqfi0","pricing_plan_id":"cebpf4jnsgd1na2vs0mg"},{"bike_id":"12f12f7d-5a9c-489c-804f-030e268658f0","system_id":"levelo_inurba_marseille","lat":43.2806,"lon":5.39651,"is_reserved":false,"is_disabled":false,"rental_uris":{"android":"levelo://app?vid=12f12f7d-5a9c-489c-804f-030e268658f0","ios":"levelo://app?vid=12f12f7d-5a9c-489c-804f-030e268658f0"},"vehicle_type_id":"4","last_reported":1748862593,"current_range_meters":11600,"station_id":"ce4bho12rcd13ifvqh2g","pricing_plan_id":"cebpf4jnsgd1na2vs0mg"},{"bike_id":"a51e7728-4cf4-49aa-8747-b917b87d5574","system_id":"levelo_inurba_marseille","lat":43.21768,"lon":5.34584,"is_reserved":false,"is_disabled":false,"rental_uris":{"android":"levelo://app?vid=a51e7728-4cf4-49aa-8747-b917b87d5574","ios":"levelo://app?vid=a51e7728-4cf4-49aa-8747-b917b87d5574"},"vehicle_type_id":"4","last_reported":1748862593,"current_range_meters":11600,"station_id":"st_cvj6r9ubvosntc0bgbag","pricing_plan_id":"cebpf4jnsgd1na2vs0mg"},{"bike_id":"cbb6fc81-f7b2-40d7-ba77-b733621b4c80","system_id":"levelo_inurba_marseille","lat":43.28933,"lon":5.38405,"is_reserved":false,"is_disabled":false,"rental_uris":{"android":"levelo://app?vid=cbb6fc81-f7b2-40d7-ba77-b733621b4c80","ios":"levelo://app?vid=cbb6fc81-f7b2-40d7-ba77-b733621b4c80"},"vehicle_type_id":"4","last_reported":1748862593,"current_range_meters":12000,"station_id":"ce4bh612rcd13ifvqe6g","pricing_plan_id":"cebpf4jnsgd1na2vs0mg"},{"bike_id":"975743ac-c1e0-4a65-9b84-a7f91a3f9072","system_id":"levelo_inurba_marseille","lat":43.2896,"lon":5.37841,"is_reserved":false,"is_disabled":false,"rental_uris":{"android":"levelo://app?vid=975743ac-c1e0-4a65-9b84-a7f91a3f9072","ios":"levelo://app?vid=975743ac-c1e0-4a65-9b84-a7f91a3f9072"},"vehicle_type_id":"4","last_reported":1748862593,"current_range_meters":12000,"station_id":"ce4bh9p2rcd13ifvqed0","pricing_plan_id":"cebpf4jnsgd1na2vs0mg"},{"bike_id":"acbe00fc-31af-42d7-9eb4-6f976caf4873","system_id":"levelo_inurba_marseille","lat":43.24193,"lon":5.39709,"is_reserved":false,"is_disabled":false,"rental_uris":{"android":"levelo://app?vid=acbe00fc-31af-42d7-9eb4-6f976caf4873","ios":"levelo://app?vid=acbe00fc-31af-42d7-9eb4-6f976caf4873"},"vehicle_type_id":"4","last_reported":1748862593,"current_range_meters":12000,"station_id":"ce4bhn12rcd13ifvqgpg","pricing_plan_id":"cebpf4jnsgd1na2vs0mg"},{"bike_id":"1ebce135-2952-4309-92b1-cee5a7cd88ce","system_id":"levelo_inurba_marseille","lat":43.24071,"lon":5.37763,"is_reserved":false,"is_disabled":false,"rental_uris":{"android":"levelo://app?vid=1ebce135-2952-4309-92b1-cee5a7cd88ce","ios":"levelo://app?vid=1ebce135-2952-4309-92b1-cee5a7cd88ce"},"vehicle_type_id":"4","last_reported":1748862593,"current_range_meters":12000,"station_id":"ce4bhnp2rcd13ifvqgvg","pricing_plan_id":"cebpf4jnsgd1na2vs0mg"},{"bike_id":"15349654-7ee5-4986-b605-9ad95f1b2bbb","system_id":"levelo_inurba_marseille","lat":43.217527,"lon":5.345968,"is_reserved":false,"is_disabled":false,"rental_uris":{"android":"levelo://app?vid=15349654-7ee5-4986-b605-9ad95f1b2bbb","ios":"levelo://app?vid=15349654-7ee5-4986-b605-9ad95f1b2bbb"},"vehicle_type_id":"4","last_reported":1748862593,"current_range_meters":12000,"station_id":"st_cvj6r9ubvosntc0bgbag","pricing_plan_id":"cebpf4jnsgd1na2vs0mg"},{"bike_id":"4fc38c6c-42f3-4baa-8501-5e69717b2298","system_id":"levelo_inurba_marseille","lat":43.21756,"lon":5.34597,"is_reserved":false,"is_disabled":false,"rental_uris":{"android":"levelo://app?vid=4fc38c6c-42f3-4baa-8501-5e69717b2298","ios":"levelo://app?vid=4fc38c6c-42f3-4baa-8501-5e69717b2298"},"vehicle_type_id":"4","last_reported":1748862593,"current_range_meters":12000,"station_id":"st_cvj6r9ubvosntc0bgbag","pricing_plan_id":"cebpf4jnsgd1na2vs0mg"},{"bike_id":"eafc3cd6-d501-4048-abd6-eabf2b1a7db9","system_id":"levelo_inurba_marseille","lat":43.28106,"lon":5.37815,"is_reserved":false,"is_disabled":false,"rental_uris":{"android":"levelo://app?vid=eafc3cd6-d501-4048-abd6-eabf2b1a7db9","ios":"levelo://app?vid=eafc3cd6-d501-4048-abd6-eabf2b1a7db9"},"vehicle_type_id":"4","last_reported":1748862593,"current_range_meters":12400,"station_id":"ce4bha12rcd13ifvqee0","pricing_plan_id":"cebpf4jnsgd1na2vs0mg"},{"bike_id":"35ed2995-17a2-4549-bb55-810459c05dd0","system_id":"levelo_inurba_marseille","lat":43.26227,"lon":5.40444,"is_reserved":false,"is_disabled":false,"rental_uris":{"android":"levelo://app?vid=35ed2995-17a2-4549-bb55-810459c05dd0","ios":"levelo://app?vid=35ed2995-17a2-4549-bb55-810459c05dd0"},"vehicle_type_id":"4","last_reported":1748862593,"current_range_meters":12400,"station_id":"ce4bhmh2rcd13ifvqgmg","pricing_plan_id":"cebpf4jnsgd1na2vs0mg"},{"bike_id":"0c9ede06-fc17-4c4b-896d-6fee78f5f9ae","system_id":"levelo_inurba_marseille","lat":43.2407,"lon":5.37763,"is_reserved":false,"is_disabled":false,"rental_uris":{"android":"levelo://app?vid=0c9ede06-fc17-4c4b-896d-6fee78f5f9ae","ios":"levelo://app?vid=0c9ede06-fc17-4c4b-896d-6fee78f5f9ae"},"vehicle_type_id":"4","last_reported":1748862593,"current_range_meters":12400,"station_id":"ce4bhnp2rcd13ifvqgvg","pricing_plan_id":"cebpf4jnsgd1na2vs0mg"},{"bike_id":"7ad062f4-26a6-4c8a-b137-29b7bdd52d40","system_id":"levelo_inurba_marseille","lat":43.29877,"lon":5.4366,"is_reserved":false,"is_disabled":false,"rental_uris":{"android":"levelo://app?vid=7ad062f4-26a6-4c8a-b137-29b7bdd52d40","ios":"levelo://app?vid=7ad062f4-26a6-4c8a-b137-29b7bdd52d40"},"vehicle_type_id":"4","last_reported":1748862593,"current_range_meters":12400,"station_id":"ce4bhpp2rcd13ifvqhfg","pricing_plan_id":"cebpf4jnsgd1na2vs0mg"},{"bike_id":"11634601-3032-45af-9779-932af61b1d37","system_id":"levelo_inurba_marseille","lat":43.229323,"lon":5.353789,"is_reserved":false,"is_disabled":false,"rental_uris":{"android":"levelo://app?vid=11634601-3032-45af-9779-932af61b1d37","ios":"levelo://app?vid=11634601-3032-45af-9779-932af61b1d37"},"vehicle_type_id":"4","last_reported":1748862593,"current_range_meters":12400,"station_id":"cpo3532slgdg3j2ikp40","pricing_plan_id":"cebpf4jnsgd1na2vs0mg"},{"bike_id":"33985386-7b7e-4503-9414-b7464ff6efea","system_id":"levelo_inurba_marseille","lat":43.22502,"lon":5.34788,"is_reserved":false,"is_disabled":false,"rental_uris":{"android":"levelo://app?vid=33985386-7b7e-4503-9414-b7464ff6efea","ios":"levelo://app?vid=33985386-7b7e-4503-9414-b7464ff6efea"},"vehicle_type_id":"4","last_reported":1748862593,"current_range_meters":12400,"station_id":"st_cvj5dfep6f1abm77gieg","pricing_plan_id":"cebpf4jnsgd1na2vs0mg"},{"bike_id":"e76454f7-d5f9-472e-a65d-67bcdd098e00","system_id":"levelo_inurba_marseille","lat":43.30528,"lon":5.36688,"is_reserved":false,"is_disabled":false,"rental_uris":{"android":"levelo://app?vid=e76454f7-d5f9-472e-a65d-67bcdd098e00","ios":"levelo://app?vid=e76454f7-d5f9-472e-a65d-67bcdd098e00"},"vehicle_type_id":"4","last_reported":1748862593,"current_range_meters":12800,"station_id":"ce4bgrp2rcd13ifvqc9g","pricing_plan_id":"cebpf4jnsgd1na2vs0mg"},{"bike_id":"d8a20a0b-c2d3-46b0-9f53-67ea144061ea","system_id":"levelo_inurba_marseille","lat":43.29021,"lon":5.38638,"is_reserved":false,"is_disabled":false,"rental_uris":{"android":"levelo://app?vid=d8a20a0b-c2d3-46b0-9f53-67ea144061ea","ios":"levelo://app?vid=d8a20a0b-c2d3-46b0-9f53-67ea144061ea"},"vehicle_type_id":"4","last_reported":1748862593,"current_range_meters":12800,"station_id":"ce4bh4p2rcd13ifvqe0g","pricing_plan_id":"cebpf4jnsgd1na2vs0mg"},{"bike_id":"58f29703-edd3-4b1e-9613-de6fcdef5c3d","system_id":"levelo_inurba_marseille","lat":43.26064,"lon":5.41868,"is_reserved":false,"is_disabled":false,"rental_uris":{"android":"levelo://app?vid=58f29703-edd3-4b1e-9613-de6fcdef5c3d","ios":"levelo://app?vid=58f29703-edd3-4b1e-9613-de6fcdef5c3d"},"vehicle_type_id":"4","last_reported":1748862593,"current_range_meters":13600,"station_id":"","pricing_plan_id":"cebpf4jnsgd1na2vs0mg"},{"bike_id":"2d3f7490-8fef-4a03-bec4-e9a880a09dd8","system_id":"levelo_inurba_marseille","lat":43.30146,"lon":5.37421,"is_reserved":false,"is_disabled":false,"rental_uris":{"android":"levelo://app?vid=2d3f7490-8fef-4a03-bec4-e9a880a09dd8","ios":"levelo://app?vid=2d3f7490-8fef-4a03-bec4-e9a880a09dd8"},"vehicle_type_id":"4","last_reported":1748862593,"current_range_meters":13600,"station_id":"ce4bgs92rcd13ifvqcc0","pricing_plan_id":"cebpf4jnsgd1na2vs0mg"},{"bike_id":"d0e551d0-fe0a-4321-b941-d33b274fd611","system_id":"levelo_inurba_marseille","lat":43.31708,"lon":5.37723,"is_reserved":false,"is_disabled":false,"rental_uris":{"android":"levelo://app?vid=d0e551d0-fe0a-4321-b941-d33b274fd611","ios":"levelo://app?vid=d0e551d0-fe0a-4321-b941-d33b274fd611"},"vehicle_type_id":"4","last_reported":1748862593,"current_range_meters":13600,"station_id":"ce4bgth2rcd13ifvqch0","pricing_plan_id":"cebpf4jnsgd1na2vs0mg"},{"bike_id":"274c04b4-f52a-4d7c-90c9-171aa971a94b","system_id":"levelo_inurba_marseille","lat":43.3033,"lon":5.40437,"is_reserved":false,"is_disabled":false,"rental_uris":{"android":"levelo://app?vid=274c04b4-f52a-4d7c-90c9-171aa971a94b","ios":"levelo://app?vid=274c04b4-f52a-4d7c-90c9-171aa971a94b"},"vehicle_type_id":"4","last_reported":1748862593,"current_range_meters":13600,"station_id":"ce4bh012rcd13ifvqd10","pricing_plan_id":"cebpf4jnsgd1na2vs0mg"},{"bike_id":"9427ed69-8ced-4732-b08e-a42aedb5e994","system_id":"levelo_inurba_marseille","lat":43.2743,"lon":5.39416,"is_reserved":false,"is_disabled":false,"rental_uris":{"android":"levelo://app?vid=9427ed69-8ced-4732-b08e-a42aedb5e994","ios":"levelo://app?vid=9427ed69-8ced-4732-b08e-a42aedb5e994"},"vehicle_type_id":"4","last_reported":1748862593,"current_range_meters":13600,"station_id":"ce4bhdp2rcd13ifvqf20","pricing_plan_id":"cebpf4jnsgd1na2vs0mg"},{"bike_id":"a97ec209-aa76-4ef3-89ec-8d881c8fb33c","system_id":"levelo_inurba_marseille","lat":43.262252,"lon":5.404495,"is_reserved":false,"is_disabled":false,"rental_uris":{"android":"levelo://app?vid=a97ec209-aa76-4ef3-89ec-8d881c8fb33c","ios":"levelo://app?vid=a97ec209-aa76-4ef3-89ec-8d881c8fb33c"},"vehicle_type_id":"4","last_reported":1748862593,"current_range_meters":13600,"station_id":"ce4bhmh2rcd13ifvqgmg","pricing_plan_id":"cebpf4jnsgd1na2vs0mg"},{"bike_id":"4d792978-04b8-4d9d-a4e5-25acbff07fed","system_id":"levelo_inurba_marseille","lat":43.292626,"lon":5.376203,"is_reserved":false,"is_disabled":false,"rental_uris":{"android":"levelo://app?vid=4d792978-04b8-4d9d-a4e5-25acbff07fed","ios":"levelo://app?vid=4d792978-04b8-4d9d-a4e5-25acbff07fed"},"vehicle_type_id":"4","last_reported":1748862593,"current_range_meters":14000,"station_id":"ce4bgi12rcd13ifvqb80","pricing_plan_id":"cebpf4jnsgd1na2vs0mg"},{"bike_id":"b480af76-acf1-407d-a0a0-d6acbbfa00e5","system_id":"levelo_inurba_marseille","lat":43.29029,"lon":5.38633,"is_reserved":false,"is_disabled":false,"rental_uris":{"android":"levelo://app?vid=b480af76-acf1-407d-a0a0-d6acbbfa00e5","ios":"levelo://app?vid=b480af76-acf1-407d-a0a0-d6acbbfa00e5"},"vehicle_type_id":"4","last_reported":1748862593,"current_range_meters":14000,"station_id":"ce4bh4p2rcd13ifvqe0g","pricing_plan_id":"cebpf4jnsgd1na2vs0mg"},{"bike_id":"0111d4b2-7487-4f71-8b73-5ac6f2fe854b","system_id":"levelo_inurba_marseille","lat":43.26555,"lon":5.37284,"is_reserved":false,"is_disabled":false,"rental_uris":{"android":"levelo://app?vid=0111d4b2-7487-4f71-8b73-5ac6f2fe854b","ios":"levelo://app?vid=0111d4b2-7487-4f71-8b73-5ac6f2fe854b"},"vehicle_type_id":"4","last_reported":1748862593,"current_range_meters":14000,"station_id":"ce4bhg12rcd13ifvqf70","pricing_plan_id":"cebpf4jnsgd1na2vs0mg"},{"bike_id":"5aabb07e-b02b-4368-a26a-47b1e2536717","system_id":"levelo_inurba_marseille","lat":43.28084,"lon":5.396294,"is_reserved":false,"is_disabled":false,"rental_uris":{"android":"levelo://app?vid=5aabb07e-b02b-4368-a26a-47b1e2536717","ios":"levelo://app?vid=5aabb07e-b02b-4368-a26a-47b1e2536717"},"vehicle_type_id":"4","last_reported":1748862593,"current_range_meters":14000,"station_id":"ce4bho12rcd13ifvqh2g","pricing_plan_id":"cebpf4jnsgd1na2vs0mg"},{"bike_id":"b1eb7e5e-55c6-4683-a8eb-38b174a7f4ac","system_id":"levelo_inurba_marseille","lat":43.22507,"lon":5.34778,"is_reserved":false,"is_disabled":false,"rental_uris":{"android":"levelo://app?vid=b1eb7e5e-55c6-4683-a8eb-38b174a7f4ac","ios":"levelo://app?vid=b1eb7e5e-55c6-4683-a8eb-38b174a7f4ac"},"vehicle_type_id":"4","last_reported":1748862593,"current_range_meters":14400,"station_id":"","pricing_plan_id":"cebpf4jnsgd1na2vs0mg"},{"bike_id":"8f8db83b-93a4-4fb2-b181-50b98bfbfc20","system_id":"levelo_inurba_marseille","lat":43.27939,"lon":5.38898,"is_reserved":false,"is_disabled":false,"rental_uris":{"android":"levelo://app?vid=8f8db83b-93a4-4fb2-b181-50b98bfbfc20","ios":"levelo://app?vid=8f8db83b-93a4-4fb2-b181-50b98bfbfc20"},"vehicle_type_id":"4","last_reported":1748862593,"current_range_meters":14400,"station_id":"","pricing_plan_id":"cebpf4jnsgd1na2vs0mg"},{"bike_id":"feabc24d-3025-47a8-a68e-c9e44b405200","system_id":"levelo_inurba_marseille","lat":43.23975,"lon":5.36624,"is_reserved":false,"is_disabled":false,"rental_uris":{"android":"levelo://app?vid=feabc24d-3025-47a8-a68e-c9e44b405200","ios":"levelo://app?vid=feabc24d-3025-47a8-a68e-c9e44b405200"},"vehicle_type_id":"4","last_reported":1748862593,"current_range_meters":14400,"station_id":"ce4bhi12rcd13ifvqfp0","pricing_plan_id":"cebpf4jnsgd1na2vs0mg"},{"bike_id":"7befae79-b580-41f1-a667-d0e17bb5e123","system_id":"levelo_inurba_marseille","lat":43.24672,"lon":5.38156,"is_reserved":false,"is_disabled":false,"rental_uris":{"android":"levelo://app?vid=7befae79-b580-41f1-a667-d0e17bb5e123","ios":"levelo://app?vid=7befae79-b580-41f1-a667-d0e17bb5e123"},"vehicle_type_id":"4","last_reported":1748862593,"current_range_meters":14400,"station_id":"ce4bhih2rcd13ifvqfr0","pricing_plan_id":"cebpf4jnsgd1na2vs0mg"},{"bike_id":"3004e7e8-9484-4595-b022-ec8baee9df0a","system_id":"levelo_inurba_marseille","lat":43.26218,"lon":5.40452,"is_reserved":false,"is_disabled":false,"rental_uris":{"android":"levelo://app?vid=3004e7e8-9484-4595-b022-ec8baee9df0a","ios":"levelo://app?vid=3004e7e8-9484-4595-b022-ec8baee9df0a"},"vehicle_type_id":"4","last_reported":1748862593,"current_range_meters":14400,"station_id":"ce4bhmh2rcd13ifvqgmg","pricing_plan_id":"cebpf4jnsgd1na2vs0mg"},{"bike_id":"fa8b677e-31a5-4eed-b8ce-e078cf505527","system_id":"levelo_inurba_marseille","lat":43.28156,"lon":5.42639,"is_reserved":false,"is_disabled":false,"rental_uris":{"android":"levelo://app?vid=fa8b677e-31a5-4eed-b8ce-e078cf505527","ios":"levelo://app?vid=fa8b677e-31a5-4eed-b8ce-e078cf505527"},"vehicle_type_id":"4","last_reported":1748862593,"current_range_meters":14400,"station_id":"ce4bhnh2rcd13ifvqgug","pricing_plan_id":"cebpf4jnsgd1na2vs0mg"},{"bike_id":"0e1019f5-cff8-4976-908b-4232ce508bea","system_id":"levelo_inurba_marseille","lat":43.280043,"lon":5.400129,"is_reserved":false,"is_disabled":false,"rental_uris":{"android":"levelo://app?vid=0e1019f5-cff8-4976-908b-4232ce508bea","ios":"levelo://app?vid=0e1019f5-cff8-4976-908b-4232ce508bea"},"vehicle_type_id":"4","last_reported":1748862593,"current_range_meters":14400,"station_id":"ce4bho92rcd13ifvqh4g","pricing_plan_id":"cebpf4jnsgd1na2vs0mg"},{"bike_id":"7b846a6d-4a6f-4606-b8af-be0d0d4faa55","system_id":"levelo_inurba_marseille","lat":43.31222,"lon":5.36858,"is_reserved":false,"is_disabled":false,"rental_uris":{"android":"levelo://app?vid=7b846a6d-4a6f-4606-b8af-be0d0d4faa55","ios":"levelo://app?vid=7b846a6d-4a6f-4606-b8af-be0d0d4faa55"},"vehicle_type_id":"4","last_reported":1748862593,"current_range_meters":14800,"station_id":"ce4bgl92rcd13ifvqbq0","pricing_plan_id":"cebpf4jnsgd1na2vs0mg"},{"bike_id":"1513f572-bbdf-4133-b408-f9e331b60714","system_id":"levelo_inurba_marseille","lat":43.250035,"lon":5.389263,"is_reserved":false,"is_disabled":false,"rental_uris":{"android":"levelo://app?vid=1513f572-bbdf-4133-b408-f9e331b60714","ios":"levelo://app?vid=1513f572-bbdf-4133-b408-f9e331b60714"},"vehicle_type_id":"4","last_reported":1748862593,"current_range_meters":14800,"station_id":"ce4bhgp2rcd13ifvqfd0","pricing_plan_id":"cebpf4jnsgd1na2vs0mg"},{"bike_id":"a39df39d-93aa-4b03-b474-7b2ff1b86284","system_id":"levelo_inurba_marseille","lat":43.323575,"lon":5.367531,"is_reserved":false,"is_disabled":false,"rental_uris":{"android":"levelo://app?vid=a39df39d-93aa-4b03-b474-7b2ff1b86284","ios":"levelo://app?vid=a39df39d-93aa-4b03-b474-7b2ff1b86284"},"vehicle_type_id":"4","last_reported":1748862593,"current_range_meters":14800,"station_id":"ce4bhsh2rcd13ifvqi2g","pricing_plan_id":"cebpf4jnsgd1na2vs0mg"},{"bike_id":"a349c1bd-f683-4736-a8cf-d98380544376","system_id":"levelo_inurba_marseille","lat":43.31365,"lon":5.38256,"is_reserved":false,"is_disabled":false,"rental_uris":{"android":"levelo://app?vid=a349c1bd-f683-4736-a8cf-d98380544376","ios":"levelo://app?vid=a349c1bd-f683-4736-a8cf-d98380544376"},"vehicle_type_id":"4","last_reported":1748862593,"current_range_meters":15200,"station_id":"","pricing_plan_id":"cebpf4jnsgd1na2vs0mg"},{"bike_id":"21335fe1-e361-4f25-9703-649c07cc251d","system_id":"levelo_inurba_marseille","lat":43.320083,"lon":5.368101,"is_reserved":false,"is_disabled":false,"rental_uris":{"android":"levelo://app?vid=21335fe1-e361-4f25-9703-649c07cc251d","ios":"levelo://app?vid=21335fe1-e361-4f25-9703-649c07cc251d"},"vehicle_type_id":"4","last_reported":1748862593,"current_range_meters":16000,"station_id":"","pricing_plan_id":"cebpf4jnsgd1na2vs0mg"},{"bike_id":"9d86dbd1-067d-469f-9039-aa45c3743fb0","system_id":"levelo_inurba_marseille","lat":43.28818,"lon":5.40053,"is_reserved":false,"is_disabled":false,"rental_uris":{"android":"levelo://app?vid=9d86dbd1-067d-469f-9039-aa45c3743fb0","ios":"levelo://app?vid=9d86dbd1-067d-469f-9039-aa45c3743fb0"},"vehicle_type_id":"4","last_reported":1748862593,"current_range_meters":16000,"station_id":"","pricing_plan_id":"cebpf4jnsgd1na2vs0mg"},{"bike_id":"7273030d-9adc-45f9-b57f-8a33ab49dd5a","system_id":"levelo_inurba_marseille","lat":43.21194,"lon":5.35071,"is_reserved":false,"is_disabled":false,"rental_uris":{"android":"levelo://app?vid=7273030d-9adc-45f9-b57f-8a33ab49dd5a","ios":"levelo://app?vid=7273030d-9adc-45f9-b57f-8a33ab49dd5a"},"vehicle_type_id":"4","last_reported":1748862593,"current_range_meters":16000,"station_id":"","pricing_plan_id":"cebpf4jnsgd1na2vs0mg"},{"bike_id":"5f60b393-ab4e-48bf-b34b-64b5dcdf3b02","system_id":"levelo_inurba_marseille","lat":43.30298,"lon":5.39207,"is_reserved":false,"is_disabled":false,"rental_uris":{"android":"levelo://app?vid=5f60b393-ab4e-48bf-b34b-64b5dcdf3b02","ios":"levelo://app?vid=5f60b393-ab4e-48bf-b34b-64b5dcdf3b02"},"vehicle_type_id":"4","last_reported":1748862593,"current_range_meters":16000,"station_id":"ce4bgkh2rcd13ifvqbk0","pricing_plan_id":"cebpf4jnsgd1na2vs0mg"},{"bike_id":"9770d4a3-077a-4ab0-9466-40bf0f079c6c","system_id":"levelo_inurba_marseille","lat":43.309022,"lon":5.368272,"is_reserved":false,"is_disabled":false,"rental_uris":{"android":"levelo://app?vid=9770d4a3-077a-4ab0-9466-40bf0f079c6c","ios":"levelo://app?vid=9770d4a3-077a-4ab0-9466-40bf0f079c6c"},"vehicle_type_id":"4","last_reported":1748862593,"current_range_meters":16000,"station_id":"ce4bgn92rcd13ifvqbvg","pricing_plan_id":"cebpf4jnsgd1na2vs0mg"},{"bike_id":"ae7aa735-1011-4857-8bab-7d6f9c7288e5","system_id":"levelo_inurba_marseille","lat":43.305423,"lon":5.365416,"is_reserved":false,"is_disabled":false,"rental_uris":{"android":"levelo://app?vid=ae7aa735-1011-4857-8bab-7d6f9c7288e5","ios":"levelo://app?vid=ae7aa735-1011-4857-8bab-7d6f9c7288e5"},"vehicle_type_id":"4","last_reported":1748862593,"current_range_meters":16000,"station_id":"ce4bgs12rcd13ifvqcag","pricing_plan_id":"cebpf4jnsgd1na2vs0mg"},{"bike_id":"fbe50fe9-da51-47f0-9c6c-5a2b7dc2cb32","system_id":"levelo_inurba_marseille","lat":43.30596,"lon":5.39351,"is_reserved":false,"is_disabled":false,"rental_uris":{"android":"levelo://app?vid=fbe50fe9-da51-47f0-9c6c-5a2b7dc2cb32","ios":"levelo://app?vid=fbe50fe9-da51-47f0-9c6c-5a2b7dc2cb32"},"vehicle_type_id":"4","last_reported":1748862593,"current_range_meters":16000,"station_id":"ce4bh0p2rcd13ifvqd80","pricing_plan_id":"cebpf4jnsgd1na2vs0mg"},{"bike_id":"4b8e83aa-8fed-4573-b698-84553073707e","system_id":"levelo_inurba_marseille","lat":43.28856,"lon":5.35861,"is_reserved":false,"is_disabled":false,"rental_uris":{"android":"levelo://app?vid=4b8e83aa-8fed-4573-b698-84553073707e","ios":"levelo://app?vid=4b8e83aa-8fed-4573-b698-84553073707e"},"vehicle_type_id":"4","last_reported":1748862593,"current_range_meters":16000,"station_id":"ce4bhb12rcd13ifvqem0","pricing_plan_id":"cebpf4jnsgd1na2vs0mg"},{"bike_id":"af6540d5-682c-45c0-ad40-d233548c01b5","system_id":"levelo_inurba_marseille","lat":43.2827,"lon":5.35067,"is_reserved":false,"is_disabled":false,"rental_uris":{"android":"levelo://app?vid=af6540d5-682c-45c0-ad40-d233548c01b5","ios":"levelo://app?vid=af6540d5-682c-45c0-ad40-d233548c01b5"},"vehicle_type_id":"4","last_reported":1748862593,"current_range_meters":16000,"station_id":"ce4bhbp2rcd13ifvqerg","pricing_plan_id":"cebpf4jnsgd1na2vs0mg"},{"bike_id":"dbe1d8f5-9633-4a7b-b54d-c461261d5434","system_id":"levelo_inurba_marseille","lat":43.26949,"lon":5.38632,"is_reserved":false,"is_disabled":false,"rental_uris":{"android":"levelo://app?vid=dbe1d8f5-9633-4a7b-b54d-c461261d5434","ios":"levelo://app?vid=dbe1d8f5-9633-4a7b-b54d-c461261d5434"},"vehicle_type_id":"4","last_reported":1748862593,"current_range_meters":16000,"station_id":"ce4bhh92rcd13ifvqfh0","pricing_plan_id":"cebpf4jnsgd1na2vs0mg"},{"bike_id":"0b7dd8f7-77ca-4cb6-ae7c-7512ddb4ff46","system_id":"levelo_inurba_marseille","lat":43.24664,"lon":5.38153,"is_reserved":false,"is_disabled":false,"rental_uris":{"android":"levelo://app?vid=0b7dd8f7-77ca-4cb6-ae7c-7512ddb4ff46","ios":"levelo://app?vid=0b7dd8f7-77ca-4cb6-ae7c-7512ddb4ff46"},"vehicle_type_id":"4","last_reported":1748862593,"current_range_meters":16000,"station_id":"ce4bhih2rcd13ifvqfr0","pricing_plan_id":"cebpf4jnsgd1na2vs0mg"},{"bike_id":"3e7b7eea-a7c6-4434-97d8-def9d0cd5576","system_id":"levelo_inurba_marseille","lat":43.27072,"lon":5.4228,"is_reserved":false,"is_disabled":false,"rental_uris":{"android":"levelo://app?vid=3e7b7eea-a7c6-4434-97d8-def9d0cd5576","ios":"levelo://app?vid=3e7b7eea-a7c6-4434-97d8-def9d0cd5576"},"vehicle_type_id":"4","last_reported":1748862593,"current_range_meters":16000,"station_id":"ce4bhk92rcd13ifvqgb0","pricing_plan_id":"cebpf4jnsgd1na2vs0mg"},{"bike_id":"8a675cf2-0f66-4577-865e-356d858be3df","system_id":"levelo_inurba_marseille","lat":43.27811,"lon":5.40702,"is_reserved":false,"is_disabled":false,"rental_uris":{"android":"levelo://app?vid=8a675cf2-0f66-4577-865e-356d858be3df","ios":"levelo://app?vid=8a675cf2-0f66-4577-865e-356d858be3df"},"vehicle_type_id":"4","last_reported":1748862593,"current_range_meters":16000,"station_id":"ce4bhnh2rcd13ifvqgtg","pricing_plan_id":"cebpf4jnsgd1na2vs0mg"},{"bike_id":"32cdc2ba-8bb5-4859-bee4-c93f3a3853c0","system_id":"levelo_inurba_marseille","lat":43.278142,"lon":5.407058,"is_reserved":false,"is_disabled":false,"rental_uris":{"android":"levelo://app?vid=32cdc2ba-8bb5-4859-bee4-c93f3a3853c0","ios":"levelo://app?vid=32cdc2ba-8bb5-4859-bee4-c93f3a3853c0"},"vehicle_type_id":"4","last_reported":1748862593,"current_range_meters":16000,"station_id":"ce4bhnh2rcd13ifvqgtg","pricing_plan_id":"cebpf4jnsgd1na2vs0mg"},{"bike_id":"ba0ad73f-9b93-48b9-a2f6-562edffece5f","system_id":"levelo_inurba_marseille","lat":43.30905,"lon":5.36848,"is_reserved":false,"is_disabled":false,"rental_uris":{"android":"levelo://app?vid=ba0ad73f-9b93-48b9-a2f6-562edffece5f","ios":"levelo://app?vid=ba0ad73f-9b93-48b9-a2f6-562edffece5f"},"vehicle_type_id":"4","last_reported":1748862593,"current_range_meters":16400,"station_id":"ce4bgn92rcd13ifvqbvg","pricing_plan_id":"cebpf4jnsgd1na2vs0mg"},{"bike_id":"ca07d0a6-f17b-4366-a078-db4281478da3","system_id":"levelo_inurba_marseille","lat":43.30954,"lon":5.39032,"is_reserved":false,"is_disabled":false,"rental_uris":{"android":"levelo://app?vid=ca07d0a6-f17b-4366-a078-db4281478da3","ios":"levelo://app?vid=ca07d0a6-f17b-4366-a078-db4281478da3"},"vehicle_type_id":"4","last_reported":1748862593,"current_range_meters":16400,"station_id":"ce4bgup2rcd13ifvqco0","pricing_plan_id":"cebpf4jnsgd1na2vs0mg"},{"bike_id":"54b6aa1f-5bed-48b1-bd8f-cd3171a6b1c7","system_id":"levelo_inurba_marseille","lat":43.301424,"lon":5.374193,"is_reserved":false,"is_disabled":false,"rental_uris":{"android":"levelo://app?vid=54b6aa1f-5bed-48b1-bd8f-cd3171a6b1c7","ios":"levelo://app?vid=54b6aa1f-5bed-48b1-bd8f-cd3171a6b1c7"},"vehicle_type_id":"4","last_reported":1748862593,"current_range_meters":16800,"station_id":"ce4bgs92rcd13ifvqcc0","pricing_plan_id":"cebpf4jnsgd1na2vs0mg"},{"bike_id":"48a84d49-cf8e-4e76-9276-238198fce39b","system_id":"levelo_inurba_marseille","lat":43.29866,"lon":5.39729,"is_reserved":false,"is_disabled":false,"rental_uris":{"android":"levelo://app?vid=48a84d49-cf8e-4e76-9276-238198fce39b","ios":"levelo://app?vid=48a84d49-cf8e-4e76-9276-238198fce39b"},"vehicle_type_id":"4","last_reported":1748862593,"current_range_meters":16800,"station_id":"ce4bh0h2rcd13ifvqd50","pricing_plan_id":"cebpf4jnsgd1na2vs0mg"},{"bike_id":"95669bc8-48bc-4e89-b211-2a649692b178","system_id":"levelo_inurba_marseille","lat":43.28106,"lon":5.37837,"is_reserved":false,"is_disabled":false,"rental_uris":{"android":"levelo://app?vid=95669bc8-48bc-4e89-b211-2a649692b178","ios":"levelo://app?vid=95669bc8-48bc-4e89-b211-2a649692b178"},"vehicle_type_id":"4","last_reported":1748862593,"current_range_meters":16800,"station_id":"ce4bha12rcd13ifvqee0","pricing_plan_id":"cebpf4jnsgd1na2vs0mg"},{"bike_id":"e8e77b91-2604-4b3e-81c0-8943013487fa","system_id":"levelo_inurba_marseille","lat":43.24183,"lon":5.39724,"is_reserved":false,"is_disabled":false,"rental_uris":{"android":"levelo://app?vid=e8e77b91-2604-4b3e-81c0-8943013487fa","ios":"levelo://app?vid=e8e77b91-2604-4b3e-81c0-8943013487fa"},"vehicle_type_id":"4","last_reported":1748862593,"current_range_meters":16800,"station_id":"ce4bhn12rcd13ifvqgpg","pricing_plan_id":"cebpf4jnsgd1na2vs0mg"},{"bike_id":"5ad5fbeb-21ad-45ca-80aa-37c3b1f7855e","system_id":"levelo_inurba_marseille","lat":43.29923,"lon":5.37472,"is_reserved":false,"is_disabled":false,"rental_uris":{"android":"levelo://app?vid=5ad5fbeb-21ad-45ca-80aa-37c3b1f7855e","ios":"levelo://app?vid=5ad5fbeb-21ad-45ca-80aa-37c3b1f7855e"},"vehicle_type_id":"4","last_reported":1748862593,"current_range_meters":17200,"station_id":"ce4bgjh2rcd13ifvqbg0","pricing_plan_id":"cebpf4jnsgd1na2vs0mg"},{"bike_id":"f4eed3ca-abf0-4027-a8da-7ce1314f5042","system_id":"levelo_inurba_marseille","lat":43.30602,"lon":5.39352,"is_reserved":false,"is_disabled":false,"rental_uris":{"android":"levelo://app?vid=f4eed3ca-abf0-4027-a8da-7ce1314f5042","ios":"levelo://app?vid=f4eed3ca-abf0-4027-a8da-7ce1314f5042"},"vehicle_type_id":"4","last_reported":1748862593,"current_range_meters":17200,"station_id":"ce4bh0p2rcd13ifvqd80","pricing_plan_id":"cebpf4jnsgd1na2vs0mg"},{"bike_id":"9fee653f-593c-4f3c-aa3a-c8a5f8b3ea82","system_id":"levelo_inurba_marseille","lat":43.28363,"lon":5.38101,"is_reserved":false,"is_disabled":false,"rental_uris":{"android":"levelo://app?vid=9fee653f-593c-4f3c-aa3a-c8a5f8b3ea82","ios":"levelo://app?vid=9fee653f-593c-4f3c-aa3a-c8a5f8b3ea82"},"vehicle_type_id":"4","last_reported":1748862593,"current_range_meters":17200,"station_id":"ce4bh412rcd13ifvqdr0","pricing_plan_id":"cebpf4jnsgd1na2vs0mg"},{"bike_id":"71d304db-a773-4da9-9875-9bf0fdea65ac","system_id":"levelo_inurba_marseille","lat":43.32036,"lon":5.41567,"is_reserved":false,"is_disabled":false,"rental_uris":{"android":"levelo://app?vid=71d304db-a773-4da9-9875-9bf0fdea65ac","ios":"levelo://app?vid=71d304db-a773-4da9-9875-9bf0fdea65ac"},"vehicle_type_id":"4","last_reported":1748862593,"current_range_meters":17200,"station_id":"ce4bhq92rcd13ifvqhkg","pricing_plan_id":"cebpf4jnsgd1na2vs0mg"},{"bike_id":"191855c9-21d0-42c4-95ac-7b571d0b36a9","system_id":"levelo_inurba_marseille","lat":43.305297,"lon":5.365694,"is_reserved":false,"is_disabled":false,"rental_uris":{"android":"levelo://app?vid=191855c9-21d0-42c4-95ac-7b571d0b36a9","ios":"levelo://app?vid=191855c9-21d0-42c4-95ac-7b571d0b36a9"},"vehicle_type_id":"4","last_reported":1748862593,"current_range_meters":17600,"station_id":"ce4bgs12rcd13ifvqcag","pricing_plan_id":"cebpf4jnsgd1na2vs0mg"},{"bike_id":"93c70ec0-5cae-4f62-8652-ad48b97b0beb","system_id":"levelo_inurba_marseille","lat":43.30949,"lon":5.3903,"is_reserved":false,"is_disabled":false,"rental_uris":{"android":"levelo://app?vid=93c70ec0-5cae-4f62-8652-ad48b97b0beb","ios":"levelo://app?vid=93c70ec0-5cae-4f62-8652-ad48b97b0beb"},"vehicle_type_id":"4","last_reported":1748862593,"current_range_meters":17600,"station_id":"ce4bgup2rcd13ifvqco0","pricing_plan_id":"cebpf4jnsgd1na2vs0mg"},{"bike_id":"428f4920-3e63-43ef-96f6-de28baa376dd","system_id":"levelo_inurba_marseille","lat":43.30587,"lon":5.39356,"is_reserved":false,"is_disabled":false,"rental_uris":{"android":"levelo://app?vid=428f4920-3e63-43ef-96f6-de28baa376dd","ios":"levelo://app?vid=428f4920-3e63-43ef-96f6-de28baa376dd"},"vehicle_type_id":"4","last_reported":1748862593,"current_range_meters":17600,"station_id":"ce4bh0p2rcd13ifvqd80","pricing_plan_id":"cebpf4jnsgd1na2vs0mg"},{"bike_id":"ddc8f5e4-231b-4609-8f5e-bb2853085bb2","system_id":"levelo_inurba_marseille","lat":43.305928,"lon":5.393535,"is_reserved":false,"is_disabled":false,"rental_uris":{"android":"levelo://app?vid=ddc8f5e4-231b-4609-8f5e-bb2853085bb2","ios":"levelo://app?vid=ddc8f5e4-231b-4609-8f5e-bb2853085bb2"},"vehicle_type_id":"4","last_reported":1748862593,"current_range_meters":17600,"station_id":"ce4bh0p2rcd13ifvqd80","pricing_plan_id":"cebpf4jnsgd1na2vs0mg"},{"bike_id":"c7484275-d4d1-4a04-9d4c-6ab83f8f05b2","system_id":"levelo_inurba_marseille","lat":43.28412,"lon":5.34989,"is_reserved":false,"is_disabled":false,"rental_uris":{"android":"levelo://app?vid=c7484275-d4d1-4a04-9d4c-6ab83f8f05b2","ios":"levelo://app?vid=c7484275-d4d1-4a04-9d4c-6ab83f8f05b2"},"vehicle_type_id":"4","last_reported":1748862593,"current_range_meters":17600,"station_id":"ce4bhbh2rcd13ifvqepg","pricing_plan_id":"cebpf4jnsgd1na2vs0mg"},{"bike_id":"b11cd0fb-fae7-4642-ab25-3a320dca56b2","system_id":"levelo_inurba_marseille","lat":43.27999,"lon":5.41665,"is_reserved":false,"is_disabled":false,"rental_uris":{"android":"levelo://app?vid=b11cd0fb-fae7-4642-ab25-3a320dca56b2","ios":"levelo://app?vid=b11cd0fb-fae7-4642-ab25-3a320dca56b2"},"vehicle_type_id":"4","last_reported":1748862593,"current_range_meters":17600,"station_id":"ce4bho12rcd13ifvqh1g","pricing_plan_id":"cebpf4jnsgd1na2vs0mg"},{"bike_id":"a2baceb5-eff0-45de-ae00-9172b7ee2d7b","system_id":"levelo_inurba_marseille","lat":43.31248,"lon":5.37608,"is_reserved":false,"is_disabled":false,"rental_uris":{"android":"levelo://app?vid=a2baceb5-eff0-45de-ae00-9172b7ee2d7b","ios":"levelo://app?vid=a2baceb5-eff0-45de-ae00-9172b7ee2d7b"},"vehicle_type_id":"4","last_reported":1748862593,"current_range_meters":18000,"station_id":"","pricing_plan_id":"cebpf4jnsgd1na2vs0mg"},{"bike_id":"8debd405-8645-47bc-87f9-c9541b2fda8a","system_id":"levelo_inurba_marseille","lat":43.30542,"lon":5.36519,"is_reserved":false,"is_disabled":false,"rental_uris":{"android":"levelo://app?vid=8debd405-8645-47bc-87f9-c9541b2fda8a","ios":"levelo://app?vid=8debd405-8645-47bc-87f9-c9541b2fda8a"},"vehicle_type_id":"4","last_reported":1748862593,"current_range_meters":18000,"station_id":"ce4bgs12rcd13ifvqcag","pricing_plan_id":"cebpf4jnsgd1na2vs0mg"},{"bike_id":"3511eb1e-2720-49f9-b86e-65e7b9c53d7d","system_id":"levelo_inurba_marseille","lat":43.26567,"lon":5.39005,"is_reserved":false,"is_disabled":false,"rental_uris":{"android":"levelo://app?vid=3511eb1e-2720-49f9-b86e-65e7b9c53d7d","ios":"levelo://app?vid=3511eb1e-2720-49f9-b86e-65e7b9c53d7d"},"vehicle_type_id":"4","last_reported":1748862593,"current_range_meters":18000,"station_id":"ce4bhe12rcd13ifvqf30","pricing_plan_id":"cebpf4jnsgd1na2vs0mg"},{"bike_id":"8b1e8b45-f57f-4122-b27a-d1f00d2e0d23","system_id":"levelo_inurba_marseille","lat":43.26027,"lon":5.37547,"is_reserved":false,"is_disabled":false,"rental_uris":{"android":"levelo://app?vid=8b1e8b45-f57f-4122-b27a-d1f00d2e0d23","ios":"levelo://app?vid=8b1e8b45-f57f-4122-b27a-d1f00d2e0d23"},"vehicle_type_id":"4","last_reported":1748862593,"current_range_meters":18000,"station_id":"ce4bhgh2rcd13ifvqfa0","pricing_plan_id":"cebpf4jnsgd1na2vs0mg"},{"bike_id":"10e933de-9219-43e0-8d98-07b347a4c5e1","system_id":"levelo_inurba_marseille","lat":43.25038,"lon":5.38949,"is_reserved":false,"is_disabled":false,"rental_uris":{"android":"levelo://app?vid=10e933de-9219-43e0-8d98-07b347a4c5e1","ios":"levelo://app?vid=10e933de-9219-43e0-8d98-07b347a4c5e1"},"vehicle_type_id":"4","last_reported":1748862593,"current_range_meters":18000,"station_id":"ce4bhgp2rcd13ifvqfd0","pricing_plan_id":"cebpf4jnsgd1na2vs0mg"},{"bike_id":"083f334d-909d-4df4-8315-e8058ca61af2","system_id":"levelo_inurba_marseille","lat":43.26206,"lon":5.40444,"is_reserved":false,"is_disabled":false,"rental_uris":{"android":"levelo://app?vid=083f334d-909d-4df4-8315-e8058ca61af2","ios":"levelo://app?vid=083f334d-909d-4df4-8315-e8058ca61af2"},"vehicle_type_id":"4","last_reported":1748862593,"current_range_meters":18000,"station_id":"ce4bhmh2rcd13ifvqgmg","pricing_plan_id":"cebpf4jnsgd1na2vs0mg"},{"bike_id":"aadaf6f6-c725-4266-bc52-4f0c4ae8ae1d","system_id":"levelo_inurba_marseille","lat":43.27813,"lon":5.40712,"is_reserved":false,"is_disabled":false,"rental_uris":{"android":"levelo://app?vid=aadaf6f6-c725-4266-bc52-4f0c4ae8ae1d","ios":"levelo://app?vid=aadaf6f6-c725-4266-bc52-4f0c4ae8ae1d"},"vehicle_type_id":"4","last_reported":1748862593,"current_range_meters":18000,"station_id":"ce4bhnh2rcd13ifvqgtg","pricing_plan_id":"cebpf4jnsgd1na2vs0mg"},{"bike_id":"245863db-4ec2-4fc4-ad5b-9e28017ff01f","system_id":"levelo_inurba_marseille","lat":43.29906,"lon":5.43639,"is_reserved":false,"is_disabled":false,"rental_uris":{"android":"levelo://app?vid=245863db-4ec2-4fc4-ad5b-9e28017ff01f","ios":"levelo://app?vid=245863db-4ec2-4fc4-ad5b-9e28017ff01f"},"vehicle_type_id":"4","last_reported":1748862593,"current_range_meters":18000,"station_id":"ce4bhpp2rcd13ifvqhfg","pricing_plan_id":"cebpf4jnsgd1na2vs0mg"},{"bike_id":"5166a37c-2da8-491f-9475-fb095a8d0fcc","system_id":"levelo_inurba_marseille","lat":43.33611,"lon":5.41033,"is_reserved":false,"is_disabled":false,"rental_uris":{"android":"levelo://app?vid=5166a37c-2da8-491f-9475-fb095a8d0fcc","ios":"levelo://app?vid=5166a37c-2da8-491f-9475-fb095a8d0fcc"},"vehicle_type_id":"4","last_reported":1748862593,"current_range_meters":18000,"station_id":"ce4bhqh2rcd13ifvqhmg","pricing_plan_id":"cebpf4jnsgd1na2vs0mg"},{"bike_id":"3b33bf2e-4a72-4000-9486-1e7cdb099753","system_id":"levelo_inurba_marseille","lat":43.31748,"lon":5.39035,"is_reserved":false,"is_disabled":false,"rental_uris":{"android":"levelo://app?vid=3b33bf2e-4a72-4000-9486-1e7cdb099753","ios":"levelo://app?vid=3b33bf2e-4a72-4000-9486-1e7cdb099753"},"vehicle_type_id":"4","last_reported":1748862593,"current_range_meters":18000,"station_id":"ce4bhqp2rcd13ifvqhng","pricing_plan_id":"cebpf4jnsgd1na2vs0mg"},{"bike_id":"b8e1b2ba-68b2-4000-b58d-4698893d7c6e","system_id":"levelo_inurba_marseille","lat":43.33024,"lon":5.39033,"is_reserved":false,"is_disabled":false,"rental_uris":{"android":"levelo://app?vid=b8e1b2ba-68b2-4000-b58d-4698893d7c6e","ios":"levelo://app?vid=b8e1b2ba-68b2-4000-b58d-4698893d7c6e"},"vehicle_type_id":"4","last_reported":1748862593,"current_range_meters":18000,"station_id":"ce4bhr92rcd13ifvqhrg","pricing_plan_id":"cebpf4jnsgd1na2vs0mg"},{"bike_id":"b4233b79-22a9-4489-8543-466082a0d91c","system_id":"levelo_inurba_marseille","lat":43.22938,"lon":5.35385,"is_reserved":false,"is_disabled":false,"rental_uris":{"android":"levelo://app?vid=b4233b79-22a9-4489-8543-466082a0d91c","ios":"levelo://app?vid=b4233b79-22a9-4489-8543-466082a0d91c"},"vehicle_type_id":"4","last_reported":1748862593,"current_range_meters":18000,"station_id":"cpo3532slgdg3j2ikp40","pricing_plan_id":"cebpf4jnsgd1na2vs0mg"},{"bike_id":"9f1fe4c7-e198-4340-bbc2-667967f71726","system_id":"levelo_inurba_marseille","lat":43.29812,"lon":5.38101,"is_reserved":false,"is_disabled":false,"rental_uris":{"android":"levelo://app?vid=9f1fe4c7-e198-4340-bbc2-667967f71726","ios":"levelo://app?vid=9f1fe4c7-e198-4340-bbc2-667967f71726"},"vehicle_type_id":"4","last_reported":1748862593,"current_range_meters":18800,"station_id":"ce4bgip2rcd13ifvqbb0","pricing_plan_id":"cebpf4jnsgd1na2vs0mg"},{"bike_id":"1d788bc2-a158-4f72-a6da-fc7d67998e14","system_id":"levelo_inurba_marseille","lat":43.30547,"lon":5.36542,"is_reserved":false,"is_disabled":false,"rental_uris":{"android":"levelo://app?vid=1d788bc2-a158-4f72-a6da-fc7d67998e14","ios":"levelo://app?vid=1d788bc2-a158-4f72-a6da-fc7d67998e14"},"vehicle_type_id":"4","last_reported":1748862593,"current_range_meters":18800,"station_id":"ce4bgs12rcd13ifvqcag","pricing_plan_id":"cebpf4jnsgd1na2vs0mg"},{"bike_id":"9529fe83-cfc5-4271-9d71-2b8630d8d506","system_id":"levelo_inurba_marseille","lat":43.29285,"lon":5.40116,"is_reserved":false,"is_disabled":false,"rental_uris":{"android":"levelo://app?vid=9529fe83-cfc5-4271-9d71-2b8630d8d506","ios":"levelo://app?vid=9529fe83-cfc5-4271-9d71-2b8630d8d506"},"vehicle_type_id":"4","last_reported":1748862593,"current_range_meters":18800,"station_id":"ce4bh312rcd13ifvqdk0","pricing_plan_id":"cebpf4jnsgd1na2vs0mg"},{"bike_id":"caeda4d1-c0c1-45c3-a776-09d5e1f51cf3","system_id":"levelo_inurba_marseille","lat":43.29009,"lon":5.38623,"is_reserved":false,"is_disabled":false,"rental_uris":{"android":"levelo://app?vid=caeda4d1-c0c1-45c3-a776-09d5e1f51cf3","ios":"levelo://app?vid=caeda4d1-c0c1-45c3-a776-09d5e1f51cf3"},"vehicle_type_id":"4","last_reported":1748862593,"current_range_meters":18800,"station_id":"ce4bh4p2rcd13ifvqe0g","pricing_plan_id":"cebpf4jnsgd1na2vs0mg"},{"bike_id":"4d4e6f58-f6ea-4e58-b2fb-0445f596f5e6","system_id":"levelo_inurba_marseille","lat":43.27836,"lon":5.39206,"is_reserved":false,"is_disabled":false,"rental_uris":{"android":"levelo://app?vid=4d4e6f58-f6ea-4e58-b2fb-0445f596f5e6","ios":"levelo://app?vid=4d4e6f58-f6ea-4e58-b2fb-0445f596f5e6"},"vehicle_type_id":"4","last_reported":1748862593,"current_range_meters":18800,"station_id":"ce4bhjp2rcd13ifvqga0","pricing_plan_id":"cebpf4jnsgd1na2vs0mg"},{"bike_id":"61b32a61-8f3d-4490-8fa5-481455306397","system_id":"levelo_inurba_marseille","lat":43.29788,"lon":5.39327,"is_reserved":false,"is_disabled":false,"rental_uris":{"android":"levelo://app?vid=61b32a61-8f3d-4490-8fa5-481455306397","ios":"levelo://app?vid=61b32a61-8f3d-4490-8fa5-481455306397"},"vehicle_type_id":"4","last_reported":1748862593,"current_range_meters":18800,"station_id":"chh1huq6cuj3fo74tm60","pricing_plan_id":"cebpf4jnsgd1na2vs0mg"},{"bike_id":"da4b004f-e0f6-4588-8cb7-185348fd55c0","system_id":"levelo_inurba_marseille","lat":43.26222,"lon":5.40146,"is_reserved":false,"is_disabled":false,"rental_uris":{"android":"levelo://app?vid=da4b004f-e0f6-4588-8cb7-185348fd55c0","ios":"levelo://app?vid=da4b004f-e0f6-4588-8cb7-185348fd55c0"},"vehicle_type_id":"4","last_reported":1748862593,"current_range_meters":19200,"station_id":"","pricing_plan_id":"cebpf4jnsgd1na2vs0mg"},{"bike_id":"11ea1f0c-e4b9-44a2-96a5-2f0d9a175698","system_id":"levelo_inurba_marseille","lat":43.30249,"lon":5.400676,"is_reserved":false,"is_disabled":false,"rental_uris":{"android":"levelo://app?vid=11ea1f0c-e4b9-44a2-96a5-2f0d9a175698","ios":"levelo://app?vid=11ea1f0c-e4b9-44a2-96a5-2f0d9a175698"},"vehicle_type_id":"4","last_reported":1748862593,"current_range_meters":19200,"station_id":"","pricing_plan_id":"cebpf4jnsgd1na2vs0mg"},{"bike_id":"0673b948-6cc3-4c73-9f54-9d5a7ebf60e6","system_id":"levelo_inurba_marseille","lat":43.29307,"lon":5.374643,"is_reserved":false,"is_disabled":false,"rental_uris":{"android":"levelo://app?vid=0673b948-6cc3-4c73-9f54-9d5a7ebf60e6","ios":"levelo://app?vid=0673b948-6cc3-4c73-9f54-9d5a7ebf60e6"},"vehicle_type_id":"4","last_reported":1748862593,"current_range_meters":19200,"station_id":"ce4bgi12rcd13ifvqb70","pricing_plan_id":"cebpf4jnsgd1na2vs0mg"},{"bike_id":"e4994b78-706b-4eda-ad81-4c6f4007ead1","system_id":"levelo_inurba_marseille","lat":43.31227,"lon":5.36873,"is_reserved":false,"is_disabled":false,"rental_uris":{"android":"levelo://app?vid=e4994b78-706b-4eda-ad81-4c6f4007ead1","ios":"levelo://app?vid=e4994b78-706b-4eda-ad81-4c6f4007ead1"},"vehicle_type_id":"4","last_reported":1748862593,"current_range_meters":19200,"station_id":"ce4bgl92rcd13ifvqbq0","pricing_plan_id":"cebpf4jnsgd1na2vs0mg"},{"bike_id":"d076833d-d22f-40a8-9720-ff437466d62d","system_id":"levelo_inurba_marseille","lat":43.29971,"lon":5.3718,"is_reserved":false,"is_disabled":false,"rental_uris":{"android":"levelo://app?vid=d076833d-d22f-40a8-9720-ff437466d62d","ios":"levelo://app?vid=d076833d-d22f-40a8-9720-ff437466d62d"},"vehicle_type_id":"4","last_reported":1748862593,"current_range_meters":19200,"station_id":"ce4bgr92rcd13ifvqc7g","pricing_plan_id":"cebpf4jnsgd1na2vs0mg"},{"bike_id":"b5b9e291-f582-4d06-b9cb-256e5a083144","system_id":"levelo_inurba_marseille","lat":43.30563,"lon":5.36517,"is_reserved":false,"is_disabled":false,"rental_uris":{"android":"levelo://app?vid=b5b9e291-f582-4d06-b9cb-256e5a083144","ios":"levelo://app?vid=b5b9e291-f582-4d06-b9cb-256e5a083144"},"vehicle_type_id":"4","last_reported":1748862593,"current_range_meters":19200,"station_id":"ce4bgs12rcd13ifvqcag","pricing_plan_id":"cebpf4jnsgd1na2vs0mg"},{"bike_id":"65ae298f-8b5a-4b0f-9092-11a31dc06f4e","system_id":"levelo_inurba_marseille","lat":43.28862,"lon":5.39339,"is_reserved":false,"is_disabled":false,"rental_uris":{"android":"levelo://app?vid=65ae298f-8b5a-4b0f-9092-11a31dc06f4e","ios":"levelo://app?vid=65ae298f-8b5a-4b0f-9092-11a31dc06f4e"},"vehicle_type_id":"4","last_reported":1748862593,"current_range_meters":19200,"station_id":"ce4bh2p2rcd13ifvqdi0","pricing_plan_id":"cebpf4jnsgd1na2vs0mg"},{"bike_id":"272c7b0c-32ab-45c0-b49b-1223da6a865d","system_id":"levelo_inurba_marseille","lat":43.26058,"lon":5.39399,"is_reserved":false,"is_disabled":false,"rental_uris":{"android":"levelo://app?vid=272c7b0c-32ab-45c0-b49b-1223da6a865d","ios":"levelo://app?vid=272c7b0c-32ab-45c0-b49b-1223da6a865d"},"vehicle_type_id":"4","last_reported":1748862593,"current_range_meters":19200,"station_id":"ce4bhh92rcd13ifvqfj0","pricing_plan_id":"cebpf4jnsgd1na2vs0mg"},{"bike_id":"626c96a6-ff66-417b-bb08-d146f3d937ff","system_id":"levelo_inurba_marseille","lat":43.23154,"lon":5.43704,"is_reserved":false,"is_disabled":false,"rental_uris":{"android":"levelo://app?vid=626c96a6-ff66-417b-bb08-d146f3d937ff","ios":"levelo://app?vid=626c96a6-ff66-417b-bb08-d146f3d937ff"},"vehicle_type_id":"4","last_reported":1748862593,"current_range_meters":19200,"station_id":"ce4bhmp2rcd13ifvqgog","pricing_plan_id":"cebpf4jnsgd1na2vs0mg"},{"bike_id":"11c29518-7973-4ca5-a8dd-7538a6783bb3","system_id":"levelo_inurba_marseille","lat":43.32357,"lon":5.36719,"is_reserved":false,"is_disabled":false,"rental_uris":{"android":"levelo://app?vid=11c29518-7973-4ca5-a8dd-7538a6783bb3","ios":"levelo://app?vid=11c29518-7973-4ca5-a8dd-7538a6783bb3"},"vehicle_type_id":"4","last_reported":1748862593,"current_range_meters":19200,"station_id":"ce4bhsh2rcd13ifvqi2g","pricing_plan_id":"cebpf4jnsgd1na2vs0mg"},{"bike_id":"17db2b72-b7e3-41a0-88c5-ce61fc6789ad","system_id":"levelo_inurba_marseille","lat":43.23051,"lon":5.35472,"is_reserved":false,"is_disabled":false,"rental_uris":{"android":"levelo://app?vid=17db2b72-b7e3-41a0-88c5-ce61fc6789ad","ios":"levelo://app?vid=17db2b72-b7e3-41a0-88c5-ce61fc6789ad"},"vehicle_type_id":"4","last_reported":1748862593,"current_range_meters":19200,"station_id":"cpo3342slgdg3j2ifvpg","pricing_plan_id":"cebpf4jnsgd1na2vs0mg"},{"bike_id":"768b277d-238a-4c35-a73a-bd4cafe77892","system_id":"levelo_inurba_marseille","lat":43.29723,"lon":5.38194,"is_reserved":false,"is_disabled":false,"rental_uris":{"android":"levelo://app?vid=768b277d-238a-4c35-a73a-bd4cafe77892","ios":"levelo://app?vid=768b277d-238a-4c35-a73a-bd4cafe77892"},"vehicle_type_id":"4","last_reported":1748862593,"current_range_meters":19600,"station_id":"ce4bgip2rcd13ifvqbb0","pricing_plan_id":"cebpf4jnsgd1na2vs0mg"},{"bike_id":"6b14581d-7d7c-4cd6-8bb5-46171bfc086b","system_id":"levelo_inurba_marseille","lat":43.31488,"lon":5.37291,"is_reserved":false,"is_disabled":false,"rental_uris":{"android":"levelo://app?vid=6b14581d-7d7c-4cd6-8bb5-46171bfc086b","ios":"levelo://app?vid=6b14581d-7d7c-4cd6-8bb5-46171bfc086b"},"vehicle_type_id":"4","last_reported":1748862593,"current_range_meters":19600,"station_id":"ce4bgt12rcd13ifvqcd0","pricing_plan_id":"cebpf4jnsgd1na2vs0mg"},{"bike_id":"f5665eb0-b995-42db-9e1b-94c285194748","system_id":"levelo_inurba_marseille","lat":43.28426,"lon":5.34988,"is_reserved":false,"is_disabled":false,"rental_uris":{"android":"levelo://app?vid=f5665eb0-b995-42db-9e1b-94c285194748","ios":"levelo://app?vid=f5665eb0-b995-42db-9e1b-94c285194748"},"vehicle_type_id":"4","last_reported":1748862593,"current_range_meters":19600,"station_id":"ce4bhbh2rcd13ifvqepg","pricing_plan_id":"cebpf4jnsgd1na2vs0mg"},{"bike_id":"7fbb7116-b9eb-4ba5-910f-46c0dc4c4ddd","system_id":"levelo_inurba_marseille","lat":43.27202,"lon":5.3919,"is_reserved":false,"is_disabled":false,"rental_uris":{"android":"levelo://app?vid=7fbb7116-b9eb-4ba5-910f-46c0dc4c4ddd","ios":"levelo://app?vid=7fbb7116-b9eb-4ba5-910f-46c0dc4c4ddd"},"vehicle_type_id":"4","last_reported":1748862593,"current_range_meters":19600,"station_id":"ce4bhhp2rcd13ifvqfm0","pricing_plan_id":"cebpf4jnsgd1na2vs0mg"},{"bike_id":"eb99f786-0119-4463-b7ba-b25bff46fd39","system_id":"levelo_inurba_marseille","lat":43.27999,"lon":5.40011,"is_reserved":false,"is_disabled":false,"rental_uris":{"android":"levelo://app?vid=eb99f786-0119-4463-b7ba-b25bff46fd39","ios":"levelo://app?vid=eb99f786-0119-4463-b7ba-b25bff46fd39"},"vehicle_type_id":"4","last_reported":1748862593,"current_range_meters":19600,"station_id":"ce4bho92rcd13ifvqh4g","pricing_plan_id":"cebpf4jnsgd1na2vs0mg"},{"bike_id":"60d8779b-d335-48e5-b4f1-b9da6adf75a8","system_id":"levelo_inurba_marseille","lat":43.21753,"lon":5.34598,"is_reserved":false,"is_disabled":false,"rental_uris":{"android":"levelo://app?vid=60d8779b-d335-48e5-b4f1-b9da6adf75a8","ios":"levelo://app?vid=60d8779b-d335-48e5-b4f1-b9da6adf75a8"},"vehicle_type_id":"4","last_reported":1748862593,"current_range_meters":19600,"station_id":"st_cvj6r9ubvosntc0bgbag","pricing_plan_id":"cebpf4jnsgd1na2vs0mg"},{"bike_id":"25ec67d4-0e3b-4c14-8823-534c6ab10894","system_id":"levelo_inurba_marseille","lat":43.30909,"lon":5.36847,"is_reserved":false,"is_disabled":false,"rental_uris":{"android":"levelo://app?vid=25ec67d4-0e3b-4c14-8823-534c6ab10894","ios":"levelo://app?vid=25ec67d4-0e3b-4c14-8823-534c6ab10894"},"vehicle_type_id":"4","last_reported":1748862593,"current_range_meters":20000,"station_id":"ce4bgn92rcd13ifvqbvg","pricing_plan_id":"cebpf4jnsgd1na2vs0mg"},{"bike_id":"7c2f6b47-1493-4d45-9607-35c5e749d75e","system_id":"levelo_inurba_marseille","lat":43.27308,"lon":5.39081,"is_reserved":false,"is_disabled":false,"rental_uris":{"android":"levelo://app?vid=7c2f6b47-1493-4d45-9607-35c5e749d75e","ios":"levelo://app?vid=7c2f6b47-1493-4d45-9607-35c5e749d75e"},"vehicle_type_id":"4","last_reported":1748862593,"current_range_meters":20000,"station_id":"ce4bhgp2rcd13ifvqfe0","pricing_plan_id":"cebpf4jnsgd1na2vs0mg"},{"bike_id":"6b5fab56-9083-489b-9136-07ba2cacf0b6","system_id":"levelo_inurba_marseille","lat":43.24665,"lon":5.38165,"is_reserved":false,"is_disabled":false,"rental_uris":{"android":"levelo://app?vid=6b5fab56-9083-489b-9136-07ba2cacf0b6","ios":"levelo://app?vid=6b5fab56-9083-489b-9136-07ba2cacf0b6"},"vehicle_type_id":"4","last_reported":1748862593,"current_range_meters":20000,"station_id":"ce4bhih2rcd13ifvqfr0","pricing_plan_id":"cebpf4jnsgd1na2vs0mg"},{"bike_id":"ccabcbd7-a1df-4ae3-91eb-d8abc84b9824","system_id":"levelo_inurba_marseille","lat":43.25113,"lon":5.4032,"is_reserved":false,"is_disabled":false,"rental_uris":{"android":"levelo://app?vid=ccabcbd7-a1df-4ae3-91eb-d8abc84b9824","ios":"levelo://app?vid=ccabcbd7-a1df-4ae3-91eb-d8abc84b9824"},"vehicle_type_id":"4","last_reported":1748862593,"current_range_meters":20000,"station_id":"ce4bhlh2rcd13ifvqgig","pricing_plan_id":"cebpf4jnsgd1na2vs0mg"},{"bike_id":"91fc325b-ef7f-40e8-a7b0-68a0fb45832b","system_id":"levelo_inurba_marseille","lat":43.23158,"lon":5.43716,"is_reserved":false,"is_disabled":false,"rental_uris":{"android":"levelo://app?vid=91fc325b-ef7f-40e8-a7b0-68a0fb45832b","ios":"levelo://app?vid=91fc325b-ef7f-40e8-a7b0-68a0fb45832b"},"vehicle_type_id":"4","last_reported":1748862593,"current_range_meters":20000,"station_id":"ce4bhmp2rcd13ifvqgog","pricing_plan_id":"cebpf4jnsgd1na2vs0mg"},{"bike_id":"825eceac-92de-4b86-8797-e808e92fc003","system_id":"levelo_inurba_marseille","lat":43.33732,"lon":5.39192,"is_reserved":false,"is_disabled":false,"rental_uris":{"android":"levelo://app?vid=825eceac-92de-4b86-8797-e808e92fc003","ios":"levelo://app?vid=825eceac-92de-4b86-8797-e808e92fc003"},"vehicle_type_id":"4","last_reported":1748862593,"current_range_meters":20000,"station_id":"ce4bhr92rcd13ifvqhsg","pricing_plan_id":"cebpf4jnsgd1na2vs0mg"},{"bike_id":"efee492a-0a5d-4062-ab01-201286c8dbc0","system_id":"levelo_inurba_marseille","lat":43.25505,"lon":5.37647,"is_reserved":false,"is_disabled":false,"rental_uris":{"android":"levelo://app?vid=efee492a-0a5d-4062-ab01-201286c8dbc0","ios":"levelo://app?vid=efee492a-0a5d-4062-ab01-201286c8dbc0"},"vehicle_type_id":"4","last_reported":1748862593,"current_range_meters":20400,"station_id":"ce4bhh12rcd13ifvqff0","pricing_plan_id":"cebpf4jnsgd1na2vs0mg"},{"bike_id":"27786981-674d-4ecc-9011-ac3fecf2fab1","system_id":"levelo_inurba_marseille","lat":43.27848,"lon":5.39203,"is_reserved":false,"is_disabled":false,"rental_uris":{"android":"levelo://app?vid=27786981-674d-4ecc-9011-ac3fecf2fab1","ios":"levelo://app?vid=27786981-674d-4ecc-9011-ac3fecf2fab1"},"vehicle_type_id":"4","last_reported":1748862593,"current_range_meters":20400,"station_id":"ce4bhjp2rcd13ifvqga0","pricing_plan_id":"cebpf4jnsgd1na2vs0mg"},{"bike_id":"a5099cea-c04d-42f4-98d2-17c9d8e13bbb","system_id":"levelo_inurba_marseille","lat":43.27056,"lon":5.40257,"is_reserved":false,"is_disabled":false,"rental_uris":{"android":"levelo://app?vid=a5099cea-c04d-42f4-98d2-17c9d8e13bbb","ios":"levelo://app?vid=a5099cea-c04d-42f4-98d2-17c9d8e13bbb"},"vehicle_type_id":"4","last_reported":1748862593,"current_range_meters":20400,"station_id":"ce4bhk92rcd13ifvqgc0","pricing_plan_id":"cebpf4jnsgd1na2vs0mg"},{"bike_id":"81661448-d55a-4769-a4d7-6c69e782c7aa","system_id":"levelo_inurba_marseille","lat":43.33749,"lon":5.39162,"is_reserved":false,"is_disabled":false,"rental_uris":{"android":"levelo://app?vid=81661448-d55a-4769-a4d7-6c69e782c7aa","ios":"levelo://app?vid=81661448-d55a-4769-a4d7-6c69e782c7aa"},"vehicle_type_id":"4","last_reported":1748862593,"current_range_meters":20400,"station_id":"ce4bhr92rcd13ifvqhsg","pricing_plan_id":"cebpf4jnsgd1na2vs0mg"},{"bike_id":"0f8606fb-3049-4d03-be35-e596889b5abe","system_id":"levelo_inurba_marseille","lat":43.260576,"lon":5.394002,"is_reserved":false,"is_disabled":false,"rental_uris":{"android":"levelo://app?vid=0f8606fb-3049-4d03-be35-e596889b5abe","ios":"levelo://app?vid=0f8606fb-3049-4d03-be35-e596889b5abe"},"vehicle_type_id":"4","last_reported":1748862593,"current_range_meters":20800,"station_id":"","pricing_plan_id":"cebpf4jnsgd1na2vs0mg"},{"bike_id":"c1e9a7ba-4445-438c-9277-f4253d1f328d","system_id":"levelo_inurba_marseille","lat":43.2762,"lon":5.36107,"is_reserved":false,"is_disabled":false,"rental_uris":{"android":"levelo://app?vid=c1e9a7ba-4445-438c-9277-f4253d1f328d","ios":"levelo://app?vid=c1e9a7ba-4445-438c-9277-f4253d1f328d"},"vehicle_type_id":"4","last_reported":1748862593,"current_range_meters":20800,"station_id":"ce4bgj92rcd13ifvqbe0","pricing_plan_id":"cebpf4jnsgd1na2vs0mg"},{"bike_id":"febaf7e4-8a19-4a58-8327-6e5404662d47","system_id":"levelo_inurba_marseille","lat":43.29029,"lon":5.386463,"is_reserved":false,"is_disabled":false,"rental_uris":{"android":"levelo://app?vid=febaf7e4-8a19-4a58-8327-6e5404662d47","ios":"levelo://app?vid=febaf7e4-8a19-4a58-8327-6e5404662d47"},"vehicle_type_id":"4","last_reported":1748862593,"current_range_meters":20800,"station_id":"ce4bh4p2rcd13ifvqe0g","pricing_plan_id":"cebpf4jnsgd1na2vs0mg"},{"bike_id":"4eb1e20d-ab0b-4c90-a3fd-241bda068398","system_id":"levelo_inurba_marseille","lat":43.27212,"lon":5.39176,"is_reserved":false,"is_disabled":false,"rental_uris":{"android":"levelo://app?vid=4eb1e20d-ab0b-4c90-a3fd-241bda068398","ios":"levelo://app?vid=4eb1e20d-ab0b-4c90-a3fd-241bda068398"},"vehicle_type_id":"4","last_reported":1748862593,"current_range_meters":20800,"station_id":"ce4bhhp2rcd13ifvqfm0","pricing_plan_id":"cebpf4jnsgd1na2vs0mg"},{"bike_id":"93a21606-1e93-4cc7-8140-a84803624b53","system_id":"levelo_inurba_marseille","lat":43.24678,"lon":5.38147,"is_reserved":false,"is_disabled":false,"rental_uris":{"android":"levelo://app?vid=93a21606-1e93-4cc7-8140-a84803624b53","ios":"levelo://app?vid=93a21606-1e93-4cc7-8140-a84803624b53"},"vehicle_type_id":"4","last_reported":1748862593,"current_range_meters":20800,"station_id":"ce4bhih2rcd13ifvqfr0","pricing_plan_id":"cebpf4jnsgd1na2vs0mg"},{"bike_id":"c6b11320-d837-4465-a7e0-5dbec4bfc662","system_id":"levelo_inurba_marseille","lat":43.24073,"lon":5.37764,"is_reserved":false,"is_disabled":false,"rental_uris":{"android":"levelo://app?vid=c6b11320-d837-4465-a7e0-5dbec4bfc662","ios":"levelo://app?vid=c6b11320-d837-4465-a7e0-5dbec4bfc662"},"vehicle_type_id":"4","last_reported":1748862593,"current_range_meters":20800,"station_id":"ce4bhnp2rcd13ifvqgvg","pricing_plan_id":"cebpf4jnsgd1na2vs0mg"},{"bike_id":"49a884c6-32c5-4489-8361-5676db2be1d3","system_id":"levelo_inurba_marseille","lat":43.30487,"lon":5.37096,"is_reserved":false,"is_disabled":false,"rental_uris":{"android":"levelo://app?vid=49a884c6-32c5-4489-8361-5676db2be1d3","ios":"levelo://app?vid=49a884c6-32c5-4489-8361-5676db2be1d3"},"vehicle_type_id":"4","last_reported":1748862593,"current_range_meters":21600,"station_id":"","pricing_plan_id":"cebpf4jnsgd1na2vs0mg"},{"bike_id":"a82834bd-81c7-4911-8435-ab0695adb79e","system_id":"levelo_inurba_marseille","lat":43.29791,"lon":5.38082,"is_reserved":false,"is_disabled":false,"rental_uris":{"android":"levelo://app?vid=a82834bd-81c7-4911-8435-ab0695adb79e","ios":"levelo://app?vid=a82834bd-81c7-4911-8435-ab0695adb79e"},"vehicle_type_id":"4","last_reported":1748862593,"current_range_meters":21600,"station_id":"ce4bgip2rcd13ifvqbb0","pricing_plan_id":"cebpf4jnsgd1na2vs0mg"},{"bike_id":"90ad069a-6751-487d-8024-093e1020456e","system_id":"levelo_inurba_marseille","lat":43.29713,"lon":5.37688,"is_reserved":false,"is_disabled":false,"rental_uris":{"android":"levelo://app?vid=90ad069a-6751-487d-8024-093e1020456e","ios":"levelo://app?vid=90ad069a-6751-487d-8024-093e1020456e"},"vehicle_type_id":"4","last_reported":1748862593,"current_range_meters":21600,"station_id":"ce4bgkh2rcd13ifvqbl0","pricing_plan_id":"cebpf4jnsgd1na2vs0mg"},{"bike_id":"6cf133ba-dabe-4ce5-8dd9-200eb73e3298","system_id":"levelo_inurba_marseille","lat":43.313729,"lon":5.367126,"is_reserved":false,"is_disabled":false,"rental_uris":{"android":"levelo://app?vid=6cf133ba-dabe-4ce5-8dd9-200eb73e3298","ios":"levelo://app?vid=6cf133ba-dabe-4ce5-8dd9-200eb73e3298"},"vehicle_type_id":"4","last_reported":1748862593,"current_range_meters":21600,"station_id":"ce4bgr92rcd13ifvqc6g","pricing_plan_id":"cebpf4jnsgd1na2vs0mg"},{"bike_id":"364ef8dd-8f0d-490c-a48d-afb8e956d1e4","system_id":"levelo_inurba_marseille","lat":43.286627,"lon":5.386722,"is_reserved":false,"is_disabled":false,"rental_uris":{"android":"levelo://app?vid=364ef8dd-8f0d-490c-a48d-afb8e956d1e4","ios":"levelo://app?vid=364ef8dd-8f0d-490c-a48d-afb8e956d1e4"},"vehicle_type_id":"4","last_reported":1748862593,"current_range_meters":21600,"station_id":"ce4bh492rcd13ifvqdug","pricing_plan_id":"cebpf4jnsgd1na2vs0mg"},{"bike_id":"892a02a0-4ef8-4a12-936a-726d9ca6a05a","system_id":"levelo_inurba_marseille","lat":43.28857,"lon":5.35856,"is_reserved":false,"is_disabled":false,"rental_uris":{"android":"levelo://app?vid=892a02a0-4ef8-4a12-936a-726d9ca6a05a","ios":"levelo://app?vid=892a02a0-4ef8-4a12-936a-726d9ca6a05a"},"vehicle_type_id":"4","last_reported":1748862593,"current_range_meters":21600,"station_id":"ce4bhb12rcd13ifvqem0","pricing_plan_id":"cebpf4jnsgd1na2vs0mg"},{"bike_id":"e8c67488-4907-4439-9981-16e06f84ce10","system_id":"levelo_inurba_marseille","lat":43.265,"lon":5.39534,"is_reserved":false,"is_disabled":false,"rental_uris":{"android":"levelo://app?vid=e8c67488-4907-4439-9981-16e06f84ce10","ios":"levelo://app?vid=e8c67488-4907-4439-9981-16e06f84ce10"},"vehicle_type_id":"4","last_reported":1748862593,"current_range_meters":21600,"station_id":"ce4bhi12rcd13ifvqfq0","pricing_plan_id":"cebpf4jnsgd1na2vs0mg"},{"bike_id":"33dc031c-195a-4b5f-9bfc-9daaafd9361f","system_id":"levelo_inurba_marseille","lat":43.28158,"lon":5.42631,"is_reserved":false,"is_disabled":false,"rental_uris":{"android":"levelo://app?vid=33dc031c-195a-4b5f-9bfc-9daaafd9361f","ios":"levelo://app?vid=33dc031c-195a-4b5f-9bfc-9daaafd9361f"},"vehicle_type_id":"4","last_reported":1748862593,"current_range_meters":21600,"station_id":"ce4bhnh2rcd13ifvqgug","pricing_plan_id":"cebpf4jnsgd1na2vs0mg"},{"bike_id":"fb2468c3-0b12-4742-ab64-192f1e52d309","system_id":"levelo_inurba_marseille","lat":43.28079,"lon":5.39659,"is_reserved":false,"is_disabled":false,"rental_uris":{"android":"levelo://app?vid=fb2468c3-0b12-4742-ab64-192f1e52d309","ios":"levelo://app?vid=fb2468c3-0b12-4742-ab64-192f1e52d309"},"vehicle_type_id":"4","last_reported":1748862593,"current_range_meters":21600,"station_id":"ce4bho12rcd13ifvqh2g","pricing_plan_id":"cebpf4jnsgd1na2vs0mg"},{"bike_id":"c241f39a-372f-4543-8442-b961460b4650","system_id":"levelo_inurba_marseille","lat":43.26068,"lon":5.41866,"is_reserved":false,"is_disabled":false,"rental_uris":{"android":"levelo://app?vid=c241f39a-372f-4543-8442-b961460b4650","ios":"levelo://app?vid=c241f39a-372f-4543-8442-b961460b4650"},"vehicle_type_id":"4","last_reported":1748862593,"current_range_meters":22000,"station_id":"","pricing_plan_id":"cebpf4jnsgd1na2vs0mg"},{"bike_id":"1ecac50a-e20c-4771-b44f-49c165513138","system_id":"levelo_inurba_marseille","lat":43.30865,"lon":5.37796,"is_reserved":false,"is_disabled":false,"rental_uris":{"android":"levelo://app?vid=1ecac50a-e20c-4771-b44f-49c165513138","ios":"levelo://app?vid=1ecac50a-e20c-4771-b44f-49c165513138"},"vehicle_type_id":"4","last_reported":1748862593,"current_range_meters":22000,"station_id":"","pricing_plan_id":"cebpf4jnsgd1na2vs0mg"},{"bike_id":"e10616f9-2db5-4e9d-9787-63e25c4ffb92","system_id":"levelo_inurba_marseille","lat":43.2972,"lon":5.36606,"is_reserved":false,"is_disabled":false,"rental_uris":{"android":"levelo://app?vid=e10616f9-2db5-4e9d-9787-63e25c4ffb92","ios":"levelo://app?vid=e10616f9-2db5-4e9d-9787-63e25c4ffb92"},"vehicle_type_id":"4","last_reported":1748862593,"current_range_meters":22000,"station_id":"ce4bgn12rcd13ifvqbt0","pricing_plan_id":"cebpf4jnsgd1na2vs0mg"},{"bike_id":"e159e747-169e-416b-a308-9c1e728f6daa","system_id":"levelo_inurba_marseille","lat":43.3058,"lon":5.37217,"is_reserved":false,"is_disabled":false,"rental_uris":{"android":"levelo://app?vid=e159e747-169e-416b-a308-9c1e728f6daa","ios":"levelo://app?vid=e159e747-169e-416b-a308-9c1e728f6daa"},"vehicle_type_id":"4","last_reported":1748862593,"current_range_meters":22000,"station_id":"ce4bgqh2rcd13ifvqc4g","pricing_plan_id":"cebpf4jnsgd1na2vs0mg"},{"bike_id":"62459cab-ea6d-46a0-bea5-37a0efa49ce0","system_id":"levelo_inurba_marseille","lat":43.30541,"lon":5.36561,"is_reserved":false,"is_disabled":false,"rental_uris":{"android":"levelo://app?vid=62459cab-ea6d-46a0-bea5-37a0efa49ce0","ios":"levelo://app?vid=62459cab-ea6d-46a0-bea5-37a0efa49ce0"},"vehicle_type_id":"4","last_reported":1748862593,"current_range_meters":22000,"station_id":"ce4bgs12rcd13ifvqcag","pricing_plan_id":"cebpf4jnsgd1na2vs0mg"},