{"last_updated":1692565500,"ttl":30,"version":"2.2","data":{"bikes":[{"bike_id":"143a0b7d-c6fa-44e5-8ad6-cd8ca1b2cadf","system_id":"levelo_inurba_marseille","lat":43.312239,"lon":5.368562,"is_reserved":false,"is_disabled":false,"rental_uris":{"android":"levelo://app?vid=143a0b7d-c6fa-44e5-8ad6-cd8ca1b2cadf","ios":"levelo://app?vid=143a0b7d-c6fa-44e5-8ad6-cd8ca1b2cadf"},"vehicle_type_id":"4","last_reported":1692565500,"current_range_meters":15600,"station_id":"ce4bgl92rcd13ifvqbq0","pricing_plan_id":"free"},{"bike_id":"f22ca441-4e4e-4660-b824-b2f46943e54d","system_id":"levelo_inurba_marseille","lat":43.312239,"lon":5.368562,"is_reserved":false,"is_disabled":false,"rental_uris":{"android":"levelo://app?vid=f22ca441-4e4e-4660-b824-b2f46943e54d","ios":"levelo://app?vid=f22ca441-4e4e-4660-b824-b2f46943e54d"},"vehicle_type_id":"4","last_reported":1692565500,"current_range_meters":31200,"station_id":"ce4bgl92rcd13ifvqbq0","pricing_plan_id":"free"},{"bike_id":"a3cd648c-cd94-4c03-b833-4bb43cf0c109","system_id":"levelo_inurba_marseille","lat":43.312239,"lon":5.368562,"is_reserved":false,"is_disabled":false,"rental_uris":{"android":"levelo://app?vid=a3cd648c-cd94-4c03-b833-4bb43cf0c109","ios":"levelo://app?vid=a3cd648c-cd94-4c03-b833-4bb43cf0c109"},"vehicle_type_id":"4","last_reported":1692565500,"current_range_meters":30000,"station_id":"ce4bgl92rcd13ifvqbq0","pricing_plan_id":"free"},{"bike_id":"bc7232c0-e645-48d4-b684-315dd73ebdc2","system_id":"levelo_inurba_marseille","lat":43.309076,"lon":5.368465,"is_reserved":false,"is_disabled":false,"rental_uris":{"android":"levelo://app?vid=bc7232c0-e645-48d4-b684-315dd73ebdc2","ios":"levelo://app?vid=bc7232c0-e645-48d4-b684-315dd73ebdc2"},"vehicle_type_id":"4","last_reported":1692565500,"current_range_meters":7600,"station_id":"ce4bgn92rcd13ifvqbvg","pricing_plan_id":"free"},{"bike_id":"34269435-7ad8-48a0-90fe-0444fd4950f9","system_id":"levelo_inurba_marseille","lat":43.314811,"lon":5.373103,"is_reserved":false,"is_disabled":false,"rental_uris":{"android":"levelo://app?vid=34269435-7ad8-48a0-90fe-0444fd4950f9","ios":"levelo://app?vid=34269435-7ad8-48a0-90fe-0444fd4950f9"},"vehicle_type_id":"4","last_reported":1692565500,"current_range_meters":20800,"station_id":"ce4bgt12rcd13ifvqcd0","pricing_plan_id":"free"},{"bike_id":"ec46d9cb-adfa-4f34-8118-7c9096ed9998","system_id":"levelo_inurba_marseille","lat":43.314811,"lon":5.373104,"is_reserved":false,"is_disabled":false,"rental_uris":{"android":"levelo://app?vid=ec46d9cb-adfa-4f34-8118-7c9096ed9998","ios":"levelo://app?vid=ec46d9cb-adfa-4f34-8118-7c9096ed9998"},"vehicle_type_id":"4","last_reported":1692565500,"current_range_meters":4800,"station_id":"ce4bgt12rcd13ifvqcd0","pricing_plan_id":"free"},{"bike_id":"8726921c-902a-449c-90e8-52b688ddc824","system_id":"levelo_inurba_marseille","lat":43.309039,"lon":5.371797,"is_reserved":false,"is_disabled":false,"rental_uris":{"android":"levelo://app?vid=8726921c-902a-449c-90e8-52b688ddc824","ios":"levelo://app?vid=8726921c-902a-449c-90e8-52b688ddc824"},"vehicle_type_id":"4","last_reported":1692565500,"current_range_meters":30000,"station_id":"ce4bguh2rcd13ifvqckg","pricing_plan_id":"free"},{"bike_id":"4c05ed74-b6cf-478b-a88c-3915bd5c0e91","system_id":"levelo_inurba_marseille","lat":43.309039,"lon":5.371797,"is_reserved":false,"is_disabled":false,"rental_uris":{"android":"levelo://app?vid=4c05ed74-b6cf-478b-a88c-3915bd5c0e91","ios":"levelo://app?vid=4c05ed74-b6cf-478b-a88c-3915bd5c0e91"},"vehicle_type_id":"4","last_reported":1692565500,"current_range_meters":10800,"station_id":"ce4bguh2rcd13ifvqckg","pricing_plan_id":"free"},{"bike_id":"9fbe6e18-d192-44c2-98b5-cafb68b41aa4","system_id":"levelo_inurba_marseille","lat":43.30561,"lon":5.36536,"is_reserved":false,"is_disabled":false,"rental_uris":{"android":"levelo://app?vid=9fbe6e18-d192-44c2-98b5-cafb68b41aa4","ios":"levelo://app?vid=9fbe6e18-d192-44c2-98b5-cafb68b41aa4"},"vehicle_type_id":"4","last_reported":1692565500,"current_range_meters":4800,"station_id":"ce4bgs12rcd13ifvqcag","pricing_plan_id":"free"},{"bike_id":"386ed8e3-b71e-4f68-86af-202c5b76503e","system_id":"levelo_inurba_marseille","lat":43.30546,"lon":5.36707,"is_reserved":false,"is_disabled":false,"rental_uris":{"android":"levelo://app?vid=386ed8e3-b71e-4f68-86af-202c5b76503e","ios":"levelo://app?vid=386ed8e3-b71e-4f68-86af-202c5b76503e"},"vehicle_type_id":"4","last_reported":1692565500,"current_range_meters":18800,"station_id":"ce4bgrp2rcd13ifvqc9g","pricing_plan_id":"free"},{"bike_id":"3c1be5e0-ec8a-4d61-9108-c7abc948381f","system_id":"levelo_inurba_marseille","lat":43.30539,"lon":5.36708,"is_reserved":false,"is_disabled":false,"rental_uris":{"android":"levelo://app?vid=3c1be5e0-ec8a-4d61-9108-c7abc948381f","ios":"levelo://app?vid=3c1be5e0-ec8a-4d61-9108-c7abc948381f"},"vehicle_type_id":"4","last_reported":1692565500,"current_range_meters":19200,"station_id":"ce4bgrp2rcd13ifvqc9g","pricing_plan_id":"free"},{"bike_id":"fb97abca-8909-489e-a26a-1b72d76c7cf2","system_id":"levelo_inurba_marseille","lat":43.30546,"lon":5.36548,"is_reserved":false,"is_disabled":false,"rental_uris":{"android":"levelo://app?vid=fb97abca-8909-489e-a26a-1b72d76c7cf2","ios":"levelo://app?vid=fb97abca-8909-489e-a26a-1b72d76c7cf2"},"vehicle_type_id":"4","last_reported":1692565500,"current_range_meters":10400,"station_id":"ce4bgs12rcd13ifvqcag","pricing_plan_id":"free"},{"bike_id":"e5b1bbce-4000-417b-b3fa-ced0088af9b5","system_id":"levelo_inurba_marseille","lat":43.30538,"lon":5.36548,"is_reserved":false,"is_disabled":false,"rental_uris":{"android":"levelo://app?vid=e5b1bbce-4000-417b-b3fa-ced0088af9b5","ios":"levelo://app?vid=e5b1bbce-4000-417b-b3fa-ced0088af9b5"},"vehicle_type_id":"4","last_reported":1692565500,"current_range_meters":15200,"station_id":"ce4bgs12rcd13ifvqcag","pricing_plan_id":"free"},{"bike_id":"cf424a50-e1b4-475a-814f-ea2ee696ed28","system_id":"levelo_inurba_marseille","lat":43.305706,"lon":5.365654,"is_reserved":false,"is_disabled":false,"rental_uris":{"android":"levelo://app?vid=cf424a50-e1b4-475a-814f-ea2ee696ed28","ios":"levelo://app?vid=cf424a50-e1b4-475a-814f-ea2ee696ed28"},"vehicle_type_id":"4","last_reported":1692565500,"current_range_meters":5600,"station_id":"ce4bgs12rcd13ifvqcag","pricing_plan_id":"free"},{"bike_id":"483d0db9-d286-40c5-aadf-e10ce951e3f6","system_id":"levelo_inurba_marseille","lat":43.305989,"lon":5.37225,"is_reserved":false,"is_disabled":false,"rental_uris":{"android":"levelo://app?vid=483d0db9-d286-40c5-aadf-e10ce951e3f6","ios":"levelo://app?vid=483d0db9-d286-40c5-aadf-e10ce951e3f6"},"vehicle_type_id":"4","last_reported":1692565500,"current_range_meters":2800,"station_id":"ce4bgqh2rcd13ifvqc4g","pricing_plan_id":"free"},{"bike_id":"48707bdc-5fe6-412f-b897-a80c6f7735ca","system_id":"levelo_inurba_marseille","lat":43.31116,"lon":5.37773,"is_reserved":false,"is_disabled":false,"rental_uris":{"android":"levelo://app?vid=48707bdc-5fe6-412f-b897-a80c6f7735ca","ios":"levelo://app?vid=48707bdc-5fe6-412f-b897-a80c6f7735ca"},"vehicle_type_id":"4","last_reported":1692565500,"current_range_meters":4000,"station_id":"ce4bgt92rcd13ifvqcg0","pricing_plan_id":"free"},{"bike_id":"643f142d-b0dd-486c-8732-24bab6ac803e","system_id":"levelo_inurba_marseille","lat":43.30787,"lon":5.37647,"is_reserved":false,"is_disabled":false,"rental_uris":{"android":"levelo://app?vid=643f142d-b0dd-486c-8732-24bab6ac803e","ios":"levelo://app?vid=643f142d-b0dd-486c-8732-24bab6ac803e"},"vehicle_type_id":"4","last_reported":1692565500,"current_range_meters":0,"station_id":"ce4bgv92rcd13ifvqcq0","pricing_plan_id":"free"},{"bike_id":"4ff2f5ca-4b9e-4d36-9028-a50a7496c73d","system_id":"levelo_inurba_marseille","lat":43.30795,"lon":5.37656,"is_reserved":false,"is_disabled":false,"rental_uris":{"android":"levelo://app?vid=4ff2f5ca-4b9e-4d36-9028-a50a7496c73d","ios":"levelo://app?vid=4ff2f5ca-4b9e-4d36-9028-a50a7496c73d"},"vehicle_type_id":"4","last_reported":1692565500,"current_range_meters":5200,"station_id":"ce4bgv92rcd13ifvqcq0","pricing_plan_id":"free"},{"bike_id":"327fe0dc-08c0-428e-baf6-82942cb2943b","system_id":"levelo_inurba_marseille","lat":43.31527,"lon":5.38026,"is_reserved":false,"is_disabled":false,"rental_uris":{"android":"levelo://app?vid=327fe0dc-08c0-428e-baf6-82942cb2943b","ios":"levelo://app?vid=327fe0dc-08c0-428e-baf6-82942cb2943b"},"vehicle_type_id":"4","last_reported":1692565500,"current_range_meters":3600,"station_id":"ce4bhsp2rcd13ifvqi50","pricing_plan_id":"free"},{"bike_id":"779f8c7d-f6c1-4cc9-a593-c88874220bcf","system_id":"levelo_inurba_marseille","lat":43.31533,"lon":5.38029,"is_reserved":false,"is_disabled":false,"rental_uris":{"android":"levelo://app?vid=779f8c7d-f6c1-4cc9-a593-c88874220bcf","ios":"levelo://app?vid=779f8c7d-f6c1-4cc9-a593-c88874220bcf"},"vehicle_type_id":"4","last_reported":1692565500,"current_range_meters":23600,"station_id":"ce4bhsp2rcd13ifvqi50","pricing_plan_id":"free"},{"bike_id":"61e799a6-dd42-4623-ae7e-0502f4e3bda5","system_id":"levelo_inurba_marseille","lat":43.308012,"lon":5.381511,"is_reserved":false,"is_disabled":false,"rental_uris":{"android":"levelo://app?vid=61e799a6-dd42-4623-ae7e-0502f4e3bda5","ios":"levelo://app?vid=61e799a6-dd42-4623-ae7e-0502f4e3bda5"},"vehicle_type_id":"4","last_reported":1692565500,"current_range_meters":6800,"station_id":"ce4bgt12rcd13ifvqce0","pricing_plan_id":"free"},{"bike_id":"dff8b39e-d888-4341-8cce-0d050e87caf3","system_id":"levelo_inurba_marseille","lat":43.30781,"lon":5.38165,"is_reserved":false,"is_disabled":false,"rental_uris":{"android":"levelo://app?vid=dff8b39e-d888-4341-8cce-0d050e87caf3","ios":"levelo://app?vid=dff8b39e-d888-4341-8cce-0d050e87caf3"},"vehicle_type_id":"4","last_reported":1692565500,"current_range_meters":2400,"station_id":"ce4bgt12rcd13ifvqce0","pricing_plan_id":"free"},{"bike_id":"c2950f90-cf56-48e6-92f5-c9e6c4703d61","system_id":"levelo_inurba_marseille","lat":43.304606,"lon":5.379026,"is_reserved":false,"is_disabled":false,"rental_uris":{"android":"levelo://app?vid=c2950f90-cf56-48e6-92f5-c9e6c4703d61","ios":"levelo://app?vid=c2950f90-cf56-48e6-92f5-c9e6c4703d61"},"vehicle_type_id":"4","last_reported":1692565500,"current_range_meters":0,"station_id":"ce4bgup2rcd13ifvqcn0","pricing_plan_id":"free"},{"bike_id":"ae5c898d-ade2-401d-95b7-76584725a01f","system_id":"levelo_inurba_marseille","lat":43.31989,"lon":5.38169,"is_reserved":false,"is_disabled":false,"rental_uris":{"android":"levelo://app?vid=ae5c898d-ade2-401d-95b7-76584725a01f","ios":"levelo://app?vid=ae5c898d-ade2-401d-95b7-76584725a01f"},"vehicle_type_id":"4","last_reported":1692565500,"current_range_meters":8400,"station_id":"ce4bhr12rcd13ifvqhpg","pricing_plan_id":"free"},{"bike_id":"e1551569-4640-4838-a3c7-25594ec038b3","system_id":"levelo_inurba_marseille","lat":43.32567,"lon":5.36625,"is_reserved":false,"is_disabled":false,"rental_uris":{"android":"levelo://app?vid=e1551569-4640-4838-a3c7-25594ec038b3","ios":"levelo://app?vid=e1551569-4640-4838-a3c7-25594ec038b3"},"vehicle_type_id":"4","last_reported":1692565500,"current_range_meters":2800,"station_id":"","pricing_plan_id":"free"},{"bike_id":"4e958ac9-9f75-4b71-be9b-9d520672c397","system_id":"levelo_inurba_marseille","lat":43.30002,"lon":5.37349,"is_reserved":false,"is_disabled":false,"rental_uris":{"android":"levelo://app?vid=4e958ac9-9f75-4b71-be9b-9d520672c397","ios":"levelo://app?vid=4e958ac9-9f75-4b71-be9b-9d520672c397"},"vehicle_type_id":"4","last_reported":1692565500,"current_range_meters":10800,"station_id":"","pricing_plan_id":"free"},{"bike_id":"95dc9ecf-047e-4c3a-bb12-a5676cb36ad4","system_id":"levelo_inurba_marseille","lat":43.3216,"lon":5.38166,"is_reserved":false,"is_disabled":false,"rental_uris":{"android":"levelo://app?vid=95dc9ecf-047e-4c3a-bb12-a5676cb36ad4","ios":"levelo://app?vid=95dc9ecf-047e-4c3a-bb12-a5676cb36ad4"},"vehicle_type_id":"4","last_reported":1692565500,"current_range_meters":13600,"station_id":"","pricing_plan_id":"free"},{"bike_id":"cfa01afe-03ec-41a7-8898-d2620fdc5816","system_id":"levelo_inurba_marseille","lat":43.298433,"lon":5.362774,"is_reserved":false,"is_disabled":false,"rental_uris":{"android":"levelo://app?vid=cfa01afe-03ec-41a7-8898-d2620fdc5816","ios":"levelo://app?vid=cfa01afe-03ec-41a7-8898-d2620fdc5816"},"vehicle_type_id":"4","last_reported":1692565500,"current_range_meters":4000,"station_id":"ce4bgpp2rcd13ifvqc3g","pricing_plan_id":"free"},{"bike_id":"1113d87b-8dc1-43dd-bea9-1d25429d341f","system_id":"levelo_inurba_marseille","lat":43.298433,"lon":5.362774,"is_reserved":false,"is_disabled":false,"rental_uris":{"android":"levelo://app?vid=1113d87b-8dc1-43dd-bea9-1d25429d341f","ios":"levelo://app?vid=1113d87b-8dc1-43dd-bea9-1d25429d341f"},"vehicle_type_id":"4","last_reported":1692565500,"current_range_meters":29600,"station_id":"ce4bgpp2rcd13ifvqc3g","pricing_plan_id":"free"},{"bike_id":"4446f455-0ad9-4b0f-b38a-51f8548b83e4","system_id":"levelo_inurba_marseille","lat":43.298433,"lon":5.362774,"is_reserved":false,"is_disabled":false,"rental_uris":{"android":"levelo://app?vid=4446f455-0ad9-4b0f-b38a-51f8548b83e4","ios":"levelo://app?vid=4446f455-0ad9-4b0f-b38a-51f8548b83e4"},"vehicle_type_id":"4","last_reported":1692565500,"current_range_meters":2000,"station_id":"ce4bgpp2rcd13ifvqc3g","pricing_plan_id":"free"},{"bike_id":"e3e34699-0d40-4201-8f08-d96e2b995f91","system_id":"levelo_inurba_marseille","lat":43.30531,"lon":5.38424,"is_reserved":false,"is_disabled":false,"rental_uris":{"android":"levelo://app?vid=e3e34699-0d40-4201-8f08-d96e2b995f91","ios":"levelo://app?vid=e3e34699-0d40-4201-8f08-d96e2b995f91"},"vehicle_type_id":"4","last_reported":1692565500,"current_range_meters":6000,"station_id":"ce4bgg92rcd13ifvqb30","pricing_plan_id":"free"},{"bike_id":"a01fe00a-986c-46c7-ac16-33bbc8e9f79a","system_id":"levelo_inurba_marseille","lat":43.311722,"lon":5.387247,"is_reserved":false,"is_disabled":false,"rental_uris":{"android":"levelo://app?vid=a01fe00a-986c-46c7-ac16-33bbc8e9f79a","ios":"levelo://app?vid=a01fe00a-986c-46c7-ac16-33bbc8e9f79a"},"vehicle_type_id":"4","last_reported":1692565500,"current_range_meters":30800,"station_id":"ce4bgv12rcd13ifvqcp0","pricing_plan_id":"free"},{"bike_id":"b885f463-e8c5-42cc-902f-7152167ce1c7","system_id":"levelo_inurba_marseille","lat":43.29913,"lon":5.37485,"is_reserved":false,"is_disabled":false,"rental_uris":{"android":"levelo://app?vid=b885f463-e8c5-42cc-902f-7152167ce1c7","ios":"levelo://app?vid=b885f463-e8c5-42cc-902f-7152167ce1c7"},"vehicle_type_id":"4","last_reported":1692565500,"current_range_meters":31200,"station_id":"ce4bgjh2rcd13ifvqbg0","pricing_plan_id":"free"},{"bike_id":"a1f7b084-f437-4e0c-8b20-334f54c48d59","system_id":"levelo_inurba_marseille","lat":43.32289,"lon":5.38267,"is_reserved":false,"is_disabled":false,"rental_uris":{"android":"levelo://app?vid=a1f7b084-f437-4e0c-8b20-334f54c48d59","ios":"levelo://app?vid=a1f7b084-f437-4e0c-8b20-334f54c48d59"},"vehicle_type_id":"4","last_reported":1692565500,"current_range_meters":12400,"station_id":"ce4bhr12rcd13ifvqhqg","pricing_plan_id":"free"},{"bike_id":"5b5c8cae-b425-4976-9ba8-5ae205664d6b","system_id":"levelo_inurba_marseille","lat":43.32291,"lon":5.38265,"is_reserved":false,"is_disabled":false,"rental_uris":{"android":"levelo://app?vid=5b5c8cae-b425-4976-9ba8-5ae205664d6b","ios":"levelo://app?vid=5b5c8cae-b425-4976-9ba8-5ae205664d6b"},"vehicle_type_id":"4","last_reported":1692565500,"current_range_meters":12400,"station_id":"ce4bhr12rcd13ifvqhqg","pricing_plan_id":"free"},{"bike_id":"b9784bc4-a1f4-4e7b-a996-3746dcc4c656","system_id":"levelo_inurba_marseille","lat":43.32291,"lon":5.38269,"is_reserved":false,"is_disabled":false,"rental_uris":{"android":"levelo://app?vid=b9784bc4-a1f4-4e7b-a996-3746dcc4c656","ios":"levelo://app?vid=b9784bc4-a1f4-4e7b-a996-3746dcc4c656"},"vehicle_type_id":"4","last_reported":1692565500,"current_range_meters":4400,"station_id":"ce4bhr12rcd13ifvqhqg","pricing_plan_id":"free"},{"bike_id":"110bd150-ae2d-4085-890c-a8f4481980e0","system_id":"levelo_inurba_marseille","lat":43.32291,"lon":5.38275,"is_reserved":false,"is_disabled":false,"rental_uris":{"android":"levelo://app?vid=110bd150-ae2d-4085-890c-a8f4481980e0","ios":"levelo://app?vid=110bd150-ae2d-4085-890c-a8f4481980e0"},"vehicle_type_id":"4","last_reported":1692565500,"current_range_meters":24400,"station_id":"ce4bhr12rcd13ifvqhqg","pricing_plan_id":"free"},{"bike_id":"b344e2d0-98e1-4428-84f2-63b39a30dc96","system_id":"levelo_inurba_marseille","lat":43.29735,"lon":5.36402,"is_reserved":false,"is_disabled":false,"rental_uris":{"android":"levelo://app?vid=b344e2d0-98e1-4428-84f2-63b39a30dc96","ios":"levelo://app?vid=b344e2d0-98e1-4428-84f2-63b39a30dc96"},"vehicle_type_id":"4","last_reported":1692565500,"current_range_meters":30400,"station_id":"","pricing_plan_id":"free"},{"bike_id":"5f37529d-12d8-401f-9329-d44e259e971d","system_id":"levelo_inurba_marseille","lat":43.328371,"lon":5.366909,"is_reserved":false,"is_disabled":false,"rental_uris":{"android":"levelo://app?vid=5f37529d-12d8-401f-9329-d44e259e971d","ios":"levelo://app?vid=5f37529d-12d8-401f-9329-d44e259e971d"},"vehicle_type_id":"4","last_reported":1692565500,"current_range_meters":6800,"station_id":"ce4bhs92rcd13ifvqi0g","pricing_plan_id":"free"},{"bike_id":"dd789220-e7b5-42c1-b9dc-dc4243148021","system_id":"levelo_inurba_marseille","lat":43.297163,"lon":5.365866,"is_reserved":false,"is_disabled":false,"rental_uris":{"android":"levelo://app?vid=dd789220-e7b5-42c1-b9dc-dc4243148021","ios":"levelo://app?vid=dd789220-e7b5-42c1-b9dc-dc4243148021"},"vehicle_type_id":"4","last_reported":1692565500,"current_range_meters":31600,"station_id":"ce4bgn12rcd13ifvqbt0","pricing_plan_id":"free"},{"bike_id":"bb155e93-116e-494a-9911-2df351c7dae8","system_id":"levelo_inurba_marseille","lat":43.296129,"lon":5.370777,"is_reserved":false,"is_disabled":false,"rental_uris":{"android":"levelo://app?vid=bb155e93-116e-494a-9911-2df351c7dae8","ios":"levelo://app?vid=bb155e93-116e-494a-9911-2df351c7dae8"},"vehicle_type_id":"4","last_reported":1692565500,"current_range_meters":29200,"station_id":"ce4bgnh2rcd13ifvqc0g","pricing_plan_id":"free"},{"bike_id":"e5140c8f-e876-4aaa-a017-350b7ffff628","system_id":"levelo_inurba_marseille","lat":43.30265,"lon":5.38558,"is_reserved":false,"is_disabled":false,"rental_uris":{"android":"levelo://app?vid=e5140c8f-e876-4aaa-a017-350b7ffff628","ios":"levelo://app?vid=e5140c8f-e876-4aaa-a017-350b7ffff628"},"vehicle_type_id":"4","last_reported":1692565500,"current_range_meters":25200,"station_id":"","pricing_plan_id":"free"},{"bike_id":"d3139180-8ba9-4c91-b6e4-8baae3c22113","system_id":"levelo_inurba_marseille","lat":43.2961,"lon":5.37191,"is_reserved":false,"is_disabled":false,"rental_uris":{"android":"levelo://app?vid=d3139180-8ba9-4c91-b6e4-8baae3c22113","ios":"levelo://app?vid=d3139180-8ba9-4c91-b6e4-8baae3c22113"},"vehicle_type_id":"4","last_reported":1692565500,"current_range_meters":29200,"station_id":"","pricing_plan_id":"free"},{"bike_id":"945350bf-a41a-4f93-bd43-5df9ad7262ab","system_id":"levelo_inurba_marseille","lat":43.296935,"lon":5.376544,"is_reserved":false,"is_disabled":false,"rental_uris":{"android":"levelo://app?vid=945350bf-a41a-4f93-bd43-5df9ad7262ab","ios":"levelo://app?vid=945350bf-a41a-4f93-bd43-5df9ad7262ab"},"vehicle_type_id":"4","last_reported":1692565500,"current_range_meters":3600,"station_id":"ce4bgkh2rcd13ifvqbl0","pricing_plan_id":"free"},{"bike_id":"ab3d929e-f728-4abc-b47e-54fe6fbe7cbe","system_id":"levelo_inurba_marseille","lat":43.299028,"lon":5.381509,"is_reserved":false,"is_disabled":false,"rental_uris":{"android":"levelo://app?vid=ab3d929e-f728-4abc-b47e-54fe6fbe7cbe","ios":"levelo://app?vid=ab3d929e-f728-4abc-b47e-54fe6fbe7cbe"},"vehicle_type_id":"4","last_reported":1692565500,"current_range_meters":13600,"station_id":"ce4bgj12rcd13ifvqbc0","pricing_plan_id":"free"},{"bike_id":"2051576f-52e3-4e02-8b5d-9a6ae3750d88","system_id":"levelo_inurba_marseille","lat":43.298037,"lon":5.381066,"is_reserved":false,"is_disabled":false,"rental_uris":{"android":"levelo://app?vid=2051576f-52e3-4e02-8b5d-9a6ae3750d88","ios":"levelo://app?vid=2051576f-52e3-4e02-8b5d-9a6ae3750d88"},"vehicle_type_id":"4","last_reported":1692565500,"current_range_meters":3600,"station_id":"ce4bgip2rcd13ifvqbb0","pricing_plan_id":"free"},{"bike_id":"9838a372-8e39-485e-b6f5-da381ae5ddb4","system_id":"levelo_inurba_marseille","lat":43.298037,"lon":5.381066,"is_reserved":false,"is_disabled":false,"rental_uris":{"android":"levelo://app?vid=9838a372-8e39-485e-b6f5-da381ae5ddb4","ios":"levelo://app?vid=9838a372-8e39-485e-b6f5-da381ae5ddb4"},"vehicle_type_id":"4","last_reported":1692565500,"current_range_meters":8400,"station_id":"ce4bgip2rcd13ifvqbb0","pricing_plan_id":"free"},{"bike_id":"8110eb95-9d8a-445e-882b-debe77426a4b","system_id":"levelo_inurba_marseille","lat":43.304278,"lon":5.388868,"is_reserved":false,"is_disabled":false,"rental_uris":{"android":"levelo://app?vid=8110eb95-9d8a-445e-882b-debe77426a4b","ios":"levelo://app?vid=8110eb95-9d8a-445e-882b-debe77426a4b"},"vehicle_type_id":"4","last_reported":1692565500,"current_range_meters":5200,"station_id":"ce4bgk12rcd13ifvqbi0","pricing_plan_id":"free"},{"bike_id":"9054a705-fbaa-4a7e-a10c-8a5cdf514c5b","system_id":"levelo_inurba_marseille","lat":43.30432,"lon":5.38887,"is_reserved":false,"is_disabled":false,"rental_uris":{"android":"levelo://app?vid=9054a705-fbaa-4a7e-a10c-8a5cdf514c5b","ios":"levelo://app?vid=9054a705-fbaa-4a7e-a10c-8a5cdf514c5b"},"vehicle_type_id":"4","last_reported":1692565500,"current_range_meters":5600,"station_id":"ce4bgk12rcd13ifvqbi0","pricing_plan_id":"free"},{"bike_id":"24e9bc60-019f-45bb-979a-3d2f26dffa6a","system_id":"levelo_inurba_marseille","lat":43.30424,"lon":5.3889,"is_reserved":false,"is_disabled":false,"rental_uris":{"android":"levelo://app?vid=24e9bc60-019f-45bb-979a-3d2f26dffa6a","ios":"levelo://app?vid=24e9bc60-019f-45bb-979a-3d2f26dffa6a"},"vehicle_type_id":"4","last_reported":1692565500,"current_range_meters":6800,"station_id":"ce4bgk12rcd13ifvqbi0","pricing_plan_id":"free"},{"bike_id":"a4df99ce-0488-49dd-a888-94686f562e88","system_id":"levelo_inurba_marseille","lat":43.29567,"lon":5.37529,"is_reserved":false,"is_disabled":false,"rental_uris":{"android":"levelo://app?vid=a4df99ce-0488-49dd-a888-94686f562e88","ios":"levelo://app?vid=a4df99ce-0488-49dd-a888-94686f562e88"},"vehicle_type_id":"4","last_reported":1692565500,"current_range_meters":28400,"station_id":"ce4bgh92rcd13ifvqb50","pricing_plan_id":"free"},{"bike_id":"ce5c9f64-280a-4010-8062-4e7942e629a8","system_id":"levelo_inurba_marseille","lat":43.304274,"lon":5.388873,"is_reserved":false,"is_disabled":false,"rental_uris":{"android":"levelo://app?vid=ce5c9f64-280a-4010-8062-4e7942e629a8","ios":"levelo://app?vid=ce5c9f64-280a-4010-8062-4e7942e629a8"},"vehicle_type_id":"4","last_reported":1692565500,"current_range_meters":2000,"station_id":"ce4bgk12rcd13ifvqbi0","pricing_plan_id":"free"},{"bike_id":"747392e0-98de-4a73-a7ca-59de48ca9f61","system_id":"levelo_inurba_marseille","lat":43.299707,"lon":5.384859,"is_reserved":false,"is_disabled":false,"rental_uris":{"android":"levelo://app?vid=747392e0-98de-4a73-a7ca-59de48ca9f61","ios":"levelo://app?vid=747392e0-98de-4a73-a7ca-59de48ca9f61"},"vehicle_type_id":"4","last_reported":1692565500,"current_range_meters":21200,"station_id":"ce4bgj92rcd13ifvqbd0","pricing_plan_id":"free"},{"bike_id":"99041c1e-ebd0-47f8-bb81-b3d37242ca91","system_id":"levelo_inurba_marseille","lat":43.299707,"lon":5.384859,"is_reserved":false,"is_disabled":false,"rental_uris":{"android":"levelo://app?vid=99041c1e-ebd0-47f8-bb81-b3d37242ca91","ios":"levelo://app?vid=99041c1e-ebd0-47f8-bb81-b3d37242ca91"},"vehicle_type_id":"4","last_reported":1692565500,"current_range_meters":8400,"station_id":"ce4bgj92rcd13ifvqbd0","pricing_plan_id":"free"},{"bike_id":"537b7707-6c3c-4d7b-a82d-83afe01d41d5","system_id":"levelo_inurba_marseille","lat":43.299707,"lon":5.384859,"is_reserved":false,"is_disabled":false,"rental_uris":{"android":"levelo://app?vid=537b7707-6c3c-4d7b-a82d-83afe01d41d5","ios":"levelo://app?vid=537b7707-6c3c-4d7b-a82d-83afe01d41d5"},"vehicle_type_id":"4","last_reported":1692565500,"current_range_meters":9200,"station_id":"ce4bgj92rcd13ifvqbd0","pricing_plan_id":"free"},{"bike_id":"a02d18b5-3cba-4424-bb1c-b9fd8deffed3","system_id":"levelo_inurba_marseille","lat":43.299707,"lon":5.384859,"is_reserved":false,"is_disabled":false,"rental_uris":{"android":"levelo://app?vid=a02d18b5-3cba-4424-bb1c-b9fd8deffed3","ios":"levelo://app?vid=a02d18b5-3cba-4424-bb1c-b9fd8deffed3"},"vehicle_type_id":"4","last_reported":1692565500,"current_range_meters":1600,"station_id":"ce4bgj92rcd13ifvqbd0","pricing_plan_id":"free"},{"bike_id":"200c0c7f-791a-414e-bb94-1e09ff0a60cc","system_id":"levelo_inurba_marseille","lat":43.299707,"lon":5.384859,"is_reserved":false,"is_disabled":false,"rental_uris":{"android":"levelo://app?vid=200c0c7f-791a-414e-bb94-1e09ff0a60cc","ios":"levelo://app?vid=200c0c7f-791a-414e-bb94-1e09ff0a60cc"},"vehicle_type_id":"4","last_reported":1692565500,"current_range_meters":1600,"station_id":"ce4bgj92rcd13ifvqbd0","pricing_plan_id":"free"},{"bike_id":"8e570b14-a3b5-4d58-be66-f31d91af9244","system_id":"levelo_inurba_marseille","lat":43.299707,"lon":5.384859,"is_reserved":false,"is_disabled":false,"rental_uris":{"android":"levelo://app?vid=8e570b14-a3b5-4d58-be66-f31d91af9244","ios":"levelo://app?vid=8e570b14-a3b5-4d58-be66-f31d91af9244"},"vehicle_type_id":"4","last_reported":1692565500,"current_range_meters":22000,"station_id":"ce4bgj92rcd13ifvqbd0","pricing_plan_id":"free"},{"bike_id":"5b36a0e8-3481-4853-a0a2-c56a0b0f15ff","system_id":"levelo_inurba_marseille","lat":43.299707,"lon":5.384859,"is_reserved":false,"is_disabled":false,"rental_uris":{"android":"levelo://app?vid=5b36a0e8-3481-4853-a0a2-c56a0b0f15ff","ios":"levelo://app?vid=5b36a0e8-3481-4853-a0a2-c56a0b0f15ff"},"vehicle_type_id":"4","last_reported":1692565500,"current_range_meters":14000,"station_id":"ce4bgj92rcd13ifvqbd0","pricing_plan_id":"free"},{"bike_id":"cdfb5c91-6029-402e-8d26-637d768e0f57","system_id":"levelo_inurba_marseille","lat":43.299707,"lon":5.384859,"is_reserved":false,"is_disabled":false,"rental_uris":{"android":"levelo://app?vid=cdfb5c91-6029-402e-8d26-637d768e0f57","ios":"levelo://app?vid=cdfb5c91-6029-402e-8d26-637d768e0f57"},"vehicle_type_id":"4","last_reported":1692565500,"current_range_meters":5600,"station_id":"ce4bgj92rcd13ifvqbd0","pricing_plan_id":"free"},{"bike_id":"e4cac116-dc1c-4403-99bf-09ca7a82b537","system_id":"levelo_inurba_marseille","lat":43.299707,"lon":5.384859,"is_reserved":false,"is_disabled":false,"rental_uris":{"android":"levelo://app?vid=e4cac116-dc1c-4403-99bf-09ca7a82b537","ios":"levelo://app?vid=e4cac116-dc1c-4403-99bf-09ca7a82b537"},"vehicle_type_id":"4","last_reported":1692565500,"current_range_meters":9200,"station_id":"ce4bgj92rcd13ifvqbd0","pricing_plan_id":"free"},{"bike_id":"4aa8f6cb-0784-4012-842e-647fc5fd0056","system_id":"levelo_inurba_marseille","lat":43.299707,"lon":5.384859,"is_reserved":false,"is_disabled":false,"rental_uris":{"android":"levelo://app?vid=4aa8f6cb-0784-4012-842e-647fc5fd0056","ios":"levelo://app?vid=4aa8f6cb-0784-4012-842e-647fc5fd0056"},"vehicle_type_id":"4","last_reported":1692565500,"current_range_meters":24000,"station_id":"ce4bgj92rcd13ifvqbd0","pricing_plan_id":"free"},{"bike_id":"f6f4a9d5-ead9-4141-a6bb-d60f71b2a47a","system_id":"levelo_inurba_marseille","lat":43.299717,"lon":5.384845,"is_reserved":false,"is_disabled":false,"rental_uris":{"android":"levelo://app?vid=f6f4a9d5-ead9-4141-a6bb-d60f71b2a47a","ios":"levelo://app?vid=f6f4a9d5-ead9-4141-a6bb-d60f71b2a47a"},"vehicle_type_id":"4","last_reported":1692565500,"current_range_meters":4400,"station_id":"ce4bgj92rcd13ifvqbd0","pricing_plan_id":"free"},{"bike_id":"d46171f3-dadb-4a56-ac75-18b92b2d3616","system_id":"levelo_inurba_marseille","lat":43.299717,"lon":5.384845,"is_reserved":false,"is_disabled":false,"rental_uris":{"android":"levelo://app?vid=d46171f3-dadb-4a56-ac75-18b92b2d3616","ios":"levelo://app?vid=d46171f3-dadb-4a56-ac75-18b92b2d3616"},"vehicle_type_id":"4","last_reported":1692565500,"current_range_meters":0,"station_id":"ce4bgj92rcd13ifvqbd0","pricing_plan_id":"free"},{"bike_id":"188c25de-ca4b-4704-ac9c-cc8009319a08","system_id":"levelo_inurba_marseille","lat":43.299717,"lon":5.384845,"is_reserved":false,"is_disabled":false,"rental_uris":{"android":"levelo://app?vid=188c25de-ca4b-4704-ac9c-cc8009319a08","ios":"levelo://app?vid=188c25de-ca4b-4704-ac9c-cc8009319a08"},"vehicle_type_id":"4","last_reported":1692565500,"current_range_meters":13200,"station_id":"ce4bgj92rcd13ifvqbd0","pricing_plan_id":"free"},{"bike_id":"ac26947e-0972-4c63-a0e3-2289dca5106f","system_id":"levelo_inurba_marseille","lat":43.299717,"lon":5.384845,"is_reserved":false,"is_disabled":false,"rental_uris":{"android":"levelo://app?vid=ac26947e-0972-4c63-a0e3-2289dca5106f","ios":"levelo://app?vid=ac26947e-0972-4c63-a0e3-2289dca5106f"},"vehicle_type_id":"4","last_reported":1692565500,"current_range_meters":10000,"station_id":"ce4bgj92rcd13ifvqbd0","pricing_plan_id":"free"},{"bike_id":"511764aa-e5d0-4816-8cd0-9ecec130b849","system_id":"levelo_inurba_marseille","lat":43.299717,"lon":5.384845,"is_reserved":false,"is_disabled":false,"rental_uris":{"android":"levelo://app?vid=511764aa-e5d0-4816-8cd0-9ecec130b849","ios":"levelo://app?vid=511764aa-e5d0-4816-8cd0-9ecec130b849"},"vehicle_type_id":"4","last_reported":1692565500,"current_range_meters":20800,"station_id":"ce4bgj92rcd13ifvqbd0","pricing_plan_id":"free"},{"bike_id":"e9f984f3-6b49-4b14-b2c5-f158b3a76b40","system_id":"levelo_inurba_marseille","lat":43.299717,"lon":5.384845,"is_reserved":false,"is_disabled":false,"rental_uris":{"android":"levelo://app?vid=e9f984f3-6b49-4b14-b2c5-f158b3a76b40","ios":"levelo://app?vid=e9f984f3-6b49-4b14-b2c5-f158b3a76b40"},"vehicle_type_id":"4","last_reported":1692565500,"current_range_meters":19600,"station_id":"ce4bgj92rcd13ifvqbd0","pricing_plan_id":"free"},{"bike_id":"960abf16-d48c-483c-a7be-5016e3b0b9ae","system_id":"levelo_inurba_marseille","lat":43.299717,"lon":5.384845,"is_reserved":false,"is_disabled":false,"rental_uris":{"android":"levelo://app?vid=960abf16-d48c-483c-a7be-5016e3b0b9ae","ios":"levelo://app?vid=960abf16-d48c-483c-a7be-5016e3b0b9ae"},"vehicle_type_id":"4","last_reported":1692565500,"current_range_meters":23200,"station_id":"ce4bgj92rcd13ifvqbd0","pricing_plan_id":"free"},{"bike_id":"632d92f0-ac35-4d8d-8205-b26ead77faf8","system_id":"levelo_inurba_marseille","lat":43.299717,"lon":5.384845,"is_reserved":false,"is_disabled":false,"rental_uris":{"android":"levelo://app?vid=632d92f0-ac35-4d8d-8205-b26ead77faf8","ios":"levelo://app?vid=632d92f0-ac35-4d8d-8205-b26ead77faf8"},"vehicle_type_id":"4","last_reported":1692565500,"current_range_meters":14400,"station_id":"ce4bgj92rcd13ifvqbd0","pricing_plan_id":"free"},{"bike_id":"00883cd9-a56a-4720-bb55-237d0136a4a1","system_id":"levelo_inurba_marseille","lat":43.32367,"lon":5.388836,"is_reserved":false,"is_disabled":false,"rental_uris":{"android":"levelo://app?vid=00883cd9-a56a-4720-bb55-237d0136a4a1","ios":"levelo://app?vid=00883cd9-a56a-4720-bb55-237d0136a4a1"},"vehicle_type_id":"4","last_reported":1692565500,"current_range_meters":21600,"station_id":"ce4bhqp2rcd13ifvqhog","pricing_plan_id":"free"},{"bike_id":"d539d833-c23b-4e1d-997f-3554b5298a7a","system_id":"levelo_inurba_marseille","lat":43.29602,"lon":5.381084,"is_reserved":false,"is_disabled":false,"rental_uris":{"android":"levelo://app?vid=d539d833-c23b-4e1d-997f-3554b5298a7a","ios":"levelo://app?vid=d539d833-c23b-4e1d-997f-3554b5298a7a"},"vehicle_type_id":"4","last_reported":1692565500,"current_range_meters":24800,"station_id":"ce4bgl12rcd13ifvqbo0","pricing_plan_id":"free"},{"bike_id":"ef65e3f1-7016-4c08-9a58-0f45a81189d2","system_id":"levelo_inurba_marseille","lat":43.29602,"lon":5.381084,"is_reserved":false,"is_disabled":false,"rental_uris":{"android":"levelo://app?vid=ef65e3f1-7016-4c08-9a58-0f45a81189d2","ios":"levelo://app?vid=ef65e3f1-7016-4c08-9a58-0f45a81189d2"},"vehicle_type_id":"4","last_reported":1692565500,"current_range_meters":1600,"station_id":"ce4bgl12rcd13ifvqbo0","pricing_plan_id":"free"},{"bike_id":"f04ac4c8-0629-4edf-ae3c-c0c7d28c5868","system_id":"levelo_inurba_marseille","lat":43.294153,"lon":5.386305,"is_reserved":false,"is_disabled":false,"rental_uris":{"android":"levelo://app?vid=f04ac4c8-0629-4edf-ae3c-c0c7d28c5868","ios":"levelo://app?vid=f04ac4c8-0629-4edf-ae3c-c0c7d28c5868"},"vehicle_type_id":"4","last_reported":1692565500,"current_range_meters":22400,"station_id":"ce4bh2h2rcd13ifvqdh0","pricing_plan_id":"free"},{"bike_id":"38fef587-7cc5-4800-b069-87b8f296a10a","system_id":"levelo_inurba_marseille","lat":43.293009,"lon":5.374584,"is_reserved":false,"is_disabled":false,"rental_uris":{"android":"levelo://app?vid=38fef587-7cc5-4800-b069-87b8f296a10a","ios":"levelo://app?vid=38fef587-7cc5-4800-b069-87b8f296a10a"},"vehicle_type_id":"4","last_reported":1692565500,"current_range_meters":31200,"station_id":"ce4bgi12rcd13ifvqb70","pricing_plan_id":"free"},{"bike_id":"0724f352-a262-45b7-9b71-9a09ff17d945","system_id":"levelo_inurba_marseille","lat":43.30307,"lon":5.39194,"is_reserved":false,"is_disabled":false,"rental_uris":{"android":"levelo://app?vid=0724f352-a262-45b7-9b71-9a09ff17d945","ios":"levelo://app?vid=0724f352-a262-45b7-9b71-9a09ff17d945"},"vehicle_type_id":"4","last_reported":1692565500,"current_range_meters":18400,"station_id":"ce4bgkh2rcd13ifvqbk0","pricing_plan_id":"free"},{"bike_id":"f5ccdd66-7151-459a-a6b0-bf872f3a61af","system_id":"levelo_inurba_marseille","lat":43.2936,"lon":5.37835,"is_reserved":false,"is_disabled":false,"rental_uris":{"android":"levelo://app?vid=f5ccdd66-7151-459a-a6b0-bf872f3a61af","ios":"levelo://app?vid=f5ccdd66-7151-459a-a6b0-bf872f3a61af"},"vehicle_type_id":"4","last_reported":1692565500,"current_range_meters":11200,"station_id":"ce4bgjh2rcd13ifvqbf0","pricing_plan_id":"free"},{"bike_id":"8ebed829-da73-44c3-94e9-30973d376d17","system_id":"levelo_inurba_marseille","lat":43.2936,"lon":5.37835,"is_reserved":false,"is_disabled":false,"rental_uris":{"android":"levelo://app?vid=8ebed829-da73-44c3-94e9-30973d376d17","ios":"levelo://app?vid=8ebed829-da73-44c3-94e9-30973d376d17"},"vehicle_type_id":"4","last_reported":1692565500,"current_range_meters":0,"station_id":"ce4bgjh2rcd13ifvqbf0","pricing_plan_id":"free"},{"bike_id":"986b5ed1-34fc-4d78-9c6e-f5bf1b1deffb","system_id":"levelo_inurba_marseille","lat":43.298905,"lon":5.389013,"is_reserved":false,"is_disabled":false,"rental_uris":{"android":"levelo://app?vid=986b5ed1-34fc-4d78-9c6e-f5bf1b1deffb","ios":"levelo://app?vid=986b5ed1-34fc-4d78-9c6e-f5bf1b1deffb"},"vehicle_type_id":"4","last_reported":1692565500,"current_range_meters":8400,"station_id":"ce4bh392rcd13ifvqdl0","pricing_plan_id":"free"},{"bike_id":"419b8ab7-d1da-4c04-b869-3a42caba275d","system_id":"levelo_inurba_marseille","lat":43.29887,"lon":5.38899,"is_reserved":false,"is_disabled":false,"rental_uris":{"android":"levelo://app?vid=419b8ab7-d1da-4c04-b869-3a42caba275d","ios":"levelo://app?vid=419b8ab7-d1da-4c04-b869-3a42caba275d"},"vehicle_type_id":"4","last_reported":1692565500,"current_range_meters":7600,"station_id":"ce4bh392rcd13ifvqdl0","pricing_plan_id":"free"},{"bike_id":"0356dca1-8385-44cb-8485-6b96255433b9","system_id":"levelo_inurba_marseille","lat":43.298764,"lon":5.388973,"is_reserved":false,"is_disabled":false,"rental_uris":{"android":"levelo://app?vid=0356dca1-8385-44cb-8485-6b96255433b9","ios":"levelo://app?vid=0356dca1-8385-44cb-8485-6b96255433b9"},"vehicle_type_id":"4","last_reported":1692565500,"current_range_meters":16400,"station_id":"ce4bh392rcd13ifvqdl0","pricing_plan_id":"free"},{"bike_id":"07d26645-49cc-495c-9048-6288d9762701","system_id":"levelo_inurba_marseille","lat":43.29199,"lon":5.35799,"is_reserved":false,"is_disabled":false,"rental_uris":{"android":"levelo://app?vid=07d26645-49cc-495c-9048-6288d9762701","ios":"levelo://app?vid=07d26645-49cc-495c-9048-6288d9762701"},"vehicle_type_id":"4","last_reported":1692565500,"current_range_meters":4800,"station_id":"ce4bhb12rcd13ifvqel0","pricing_plan_id":"free"},{"bike_id":"2cba444c-28f6-4c25-82d1-c2441f515d9e","system_id":"levelo_inurba_marseille","lat":43.313291,"lon":5.396838,"is_reserved":false,"is_disabled":false,"rental_uris":{"android":"levelo://app?vid=2cba444c-28f6-4c25-82d1-c2441f515d9e","ios":"levelo://app?vid=2cba444c-28f6-4c25-82d1-c2441f515d9e"},"vehicle_type_id":"4","last_reported":1692565500,"current_range_meters":7600,"station_id":"ce4bgvp2rcd13ifvqcu0","pricing_plan_id":"free"},{"bike_id":"a6d28f4d-61c7-412f-a5d7-ab1701db555e","system_id":"levelo_inurba_marseille","lat":43.30879,"lon":5.39656,"is_reserved":false,"is_disabled":false,"rental_uris":{"android":"levelo://app?vid=a6d28f4d-61c7-412f-a5d7-ab1701db555e","ios":"levelo://app?vid=a6d28f4d-61c7-412f-a5d7-ab1701db555e"},"vehicle_type_id":"4","last_reported":1692565500,"current_range_meters":19600,"station_id":"ce4bh012rcd13ifvqcv0","pricing_plan_id":"free"},{"bike_id":"ed405518-e00f-42a1-a9e1-81eddb55ccd4","system_id":"levelo_inurba_marseille","lat":43.30883,"lon":5.39658,"is_reserved":false,"is_disabled":false,"rental_uris":{"android":"levelo://app?vid=ed405518-e00f-42a1-a9e1-81eddb55ccd4","ios":"levelo://app?vid=ed405518-e00f-42a1-a9e1-81eddb55ccd4"},"vehicle_type_id":"4","last_reported":1692565500,"current_range_meters":14000,"station_id":"ce4bh012rcd13ifvqcv0","pricing_plan_id":"free"},{"bike_id":"8338344d-9188-4cbf-85c2-b4545e5b7911","system_id":"levelo_inurba_marseille","lat":43.30881,"lon":5.39659,"is_reserved":false,"is_disabled":false,"rental_uris":{"android":"levelo://app?vid=8338344d-9188-4cbf-85c2-b4545e5b7911","ios":"levelo://app?vid=8338344d-9188-4cbf-85c2-b4545e5b7911"},"vehicle_type_id":"4","last_reported":1692565500,"current_range_meters":0,"station_id":"ce4bh012rcd13ifvqcv0","pricing_plan_id":"free"},{"bike_id":"1a24b6c7-2531-48e8-8fa7-34d6a5fbf147","system_id":"levelo_inurba_marseille","lat":43.29529,"lon":5.385581,"is_reserved":false,"is_disabled":false,"rental_uris":{"android":"levelo://app?vid=1a24b6c7-2531-48e8-8fa7-34d6a5fbf147","ios":"levelo://app?vid=1a24b6c7-2531-48e8-8fa7-34d6a5fbf147"},"vehicle_type_id":"4","last_reported":1692565500,"current_range_meters":11600,"station_id":"ce4bgih2rcd13ifvqba0","pricing_plan_id":"free"},{"bike_id":"d8598f0d-6711-4a47-8c56-5c0dba090004","system_id":"levelo_inurba_marseille","lat":43.29529,"lon":5.385581,"is_reserved":false,"is_disabled":false,"rental_uris":{"android":"levelo://app?vid=d8598f0d-6711-4a47-8c56-5c0dba090004","ios":"levelo://app?vid=d8598f0d-6711-4a47-8c56-5c0dba090004"},"vehicle_type_id":"4","last_reported":1692565500,"current_range_meters":400,"station_id":"ce4bgih2rcd13ifvqba0","pricing_plan_id":"free"},{"bike_id":"19e92f38-116c-464c-b8c5-5155aaab6778","system_id":"levelo_inurba_marseille","lat":43.2953,"lon":5.38543,"is_reserved":false,"is_disabled":false,"rental_uris":{"android":"levelo://app?vid=19e92f38-116c-464c-b8c5-5155aaab6778","ios":"levelo://app?vid=19e92f38-116c-464c-b8c5-5155aaab6778"},"vehicle_type_id":"4","last_reported":1692565500,"current_range_meters":14400,"station_id":"ce4bgih2rcd13ifvqba0","pricing_plan_id":"free"},{"bike_id":"e3da5d76-fe7e-49c1-b65f-7415f4477bb6","system_id":"levelo_inurba_marseille","lat":43.29529,"lon":5.385581,"is_reserved":false,"is_disabled":false,"rental_uris":{"android":"levelo://app?vid=e3da5d76-fe7e-49c1-b65f-7415f4477bb6","ios":"levelo://app?vid=e3da5d76-fe7e-49c1-b65f-7415f4477bb6"},"vehicle_type_id":"4","last_reported":1692565500,"current_range_meters":16000,"station_id":"ce4bgih2rcd13ifvqba0","pricing_plan_id":"free"},{"bike_id":"25a491fd-6a6c-453b-9c73-2fdc6963e863","system_id":"levelo_inurba_marseille","lat":43.29529,"lon":5.38544,"is_reserved":false,"is_disabled":false,"rental_uris":{"android":"levelo://app?vid=25a491fd-6a6c-453b-9c73-2fdc6963e863","ios":"levelo://app?vid=25a491fd-6a6c-453b-9c73-2fdc6963e863"},"vehicle_type_id":"4","last_reported":1692565500,"current_range_meters":6400,"station_id":"ce4bgih2rcd13ifvqba0","pricing_plan_id":"free"},{"bike_id":"062a4aec-cf02-4a26-8336-bc68f893145a","system_id":"levelo_inurba_marseille","lat":43.29528,"lon":5.38543,"is_reserved":false,"is_disabled":false,"rental_uris":{"android":"levelo://app?vid=062a4aec-cf02-4a26-8336-bc68f893145a","ios":"levelo://app?vid=062a4aec-cf02-4a26-8336-bc68f893145a"},"vehicle_type_id":"4","last_reported":1692565500,"current_range_meters":1200,"station_id":"ce4bgih2rcd13ifvqba0","pricing_plan_id":"free"},{"bike_id":"d6263c4f-4857-4c57-8680-ec7f894cd38f","system_id":"levelo_inurba_marseille","lat":43.29516,"lon":5.38533,"is_reserved":false,"is_disabled":false,"rental_uris":{"android":"levelo://app?vid=d6263c4f-4857-4c57-8680-ec7f894cd38f","ios":"levelo://app?vid=d6263c4f-4857-4c57-8680-ec7f894cd38f"},"vehicle_type_id":"4","last_reported":1692565500,"current_range_meters":4800,"station_id":"ce4bgih2rcd13ifvqba0","pricing_plan_id":"free"},{"bike_id":"3c99606a-cfd1-4b08-a5da-392aa4b30abe","system_id":"levelo_inurba_marseille","lat":43.329,"lon":5.38776,"is_reserved":false,"is_disabled":false,"rental_uris":{"android":"levelo://app?vid=3c99606a-cfd1-4b08-a5da-392aa4b30abe","ios":"levelo://app?vid=3c99606a-cfd1-4b08-a5da-392aa4b30abe"},"vehicle_type_id":"4","last_reported":1692565500,"current_range_meters":8800,"station_id":"","pricing_plan_id":"free"},{"bike_id":"2566023a-8c9e-4824-867a-385acff2dcf6","system_id":"levelo_inurba_marseille","lat":43.290631,"lon":5.359244,"is_reserved":false,"is_disabled":false,"rental_uris":{"android":"levelo://app?vid=2566023a-8c9e-4824-867a-385acff2dcf6","ios":"levelo://app?vid=2566023a-8c9e-4824-867a-385acff2dcf6"},"vehicle_type_id":"4","last_reported":1692565500,"current_range_meters":16000,"station_id":"ce4bha92rcd13ifvqeg0","pricing_plan_id":"free"},{"bike_id":"3334eec9-35c6-4be1-8f7c-ea9c86ba2dc9","system_id":"levelo_inurba_marseille","lat":43.294153,"lon":5.386305,"is_reserved":false,"is_disabled":false,"rental_uris":{"android":"levelo://app?vid=3334eec9-35c6-4be1-8f7c-ea9c86ba2dc9","ios":"levelo://app?vid=3334eec9-35c6-4be1-8f7c-ea9c86ba2dc9"},"vehicle_type_id":"4","last_reported":1692565500,"current_range_meters":800,"station_id":"ce4bh2h2rcd13ifvqdh0","pricing_plan_id":"free"},{"bike_id":"0d7b6b1f-175b-404e-9c18-911b3eb66f5d","system_id":"levelo_inurba_marseille","lat":43.294153,"lon":5.386305,"is_reserved":false,"is_disabled":false,"rental_uris":{"android":"levelo://app?vid=0d7b6b1f-175b-404e-9c18-911b3eb66f5d","ios":"levelo://app?vid=0d7b6b1f-175b-404e-9c18-911b3eb66f5d"},"vehicle_type_id":"4","last_reported":1692565500,"current_range_meters":16000,"station_id":"ce4bh2h2rcd13ifvqdh0","pricing_plan_id":"free"},{"bike_id":"59494849-030b-415c-93d5-0d99b1ecc331","system_id":"levelo_inurba_marseille","lat":43.294153,"lon":5.386305,"is_reserved":false,"is_disabled":false,"rental_uris":{"android":"levelo://app?vid=59494849-030b-415c-93d5-0d99b1ecc331","ios":"levelo://app?vid=59494849-030b-415c-93d5-0d99b1ecc331"},"vehicle_type_id":"4","last_reported":1692565500,"current_range_meters":1600,"station_id":"ce4bh2h2rcd13ifvqdh0","pricing_plan_id":"free"},{"bike_id":"4c30d866-d413-4f31-a61f-e674c6d11c11","system_id":"levelo_inurba_marseille","lat":43.294153,"lon":5.386305,"is_reserved":false,"is_disabled":false,"rental_uris":{"android":"levelo://app?vid=4c30d866-d413-4f31-a61f-e674c6d11c11","ios":"levelo://app?vid=4c30d866-d413-4f31-a61f-e674c6d11c11"},"vehicle_type_id":"4","last_reported":1692565500,"current_range_meters":24800,"station_id":"ce4bh2h2rcd13ifvqdh0","pricing_plan_id":"free"},{"bike_id":"15b77cf7-c0ae-48c7-a522-a38e6e50e003","system_id":"levelo_inurba_marseille","lat":43.294153,"lon":5.386305,"is_reserved":false,"is_disabled":false,"rental_uris":{"android":"levelo://app?vid=15b77cf7-c0ae-48c7-a522-a38e6e50e003","ios":"levelo://app?vid=15b77cf7-c0ae-48c7-a522-a38e6e50e003"},"vehicle_type_id":"4","last_reported":1692565500,"current_range_meters":3600,"station_id":"ce4bh2h2rcd13ifvqdh0","pricing_plan_id":"free"},{"bike_id":"4c07af61-bd70-4ecb-ae14-2badc33cf625","system_id":"levelo_inurba_marseille","lat":43.292644,"lon":5.384257,"is_reserved":false,"is_disabled":false,"rental_uris":{"android":"levelo://app?vid=4c07af61-bd70-4ecb-ae14-2badc33cf625","ios":"levelo://app?vid=4c07af61-bd70-4ecb-ae14-2badc33cf625"},"vehicle_type_id":"4","last_reported":1692565500,"current_range_meters":8800,"station_id":"ce4bh692rcd13ifvqea0","pricing_plan_id":"free"},{"bike_id":"33b69243-5e69-4fcb-b1c9-2df62de8beb0","system_id":"levelo_inurba_marseille","lat":43.292644,"lon":5.384257,"is_reserved":false,"is_disabled":false,"rental_uris":{"android":"levelo://app?vid=33b69243-5e69-4fcb-b1c9-2df62de8beb0","ios":"levelo://app?vid=33b69243-5e69-4fcb-b1c9-2df62de8beb0"},"vehicle_type_id":"4","last_reported":1692565500,"current_range_meters":23200,"station_id":"ce4bh692rcd13ifvqea0","pricing_plan_id":"free"},{"bike_id":"7d9879f3-3cfd-4aa0-9f84-505310a0dc49","system_id":"levelo_inurba_marseille","lat":43.29265,"lon":5.38434,"is_reserved":false,"is_disabled":false,"rental_uris":{"android":"levelo://app?vid=7d9879f3-3cfd-4aa0-9f84-505310a0dc49","ios":"levelo://app?vid=7d9879f3-3cfd-4aa0-9f84-505310a0dc49"},"vehicle_type_id":"4","last_reported":1692565500,"current_range_meters":16400,"station_id":"ce4bh692rcd13ifvqea0","pricing_plan_id":"free"},{"bike_id":"91d53586-0fe2-4888-b19d-46842b9c30c3","system_id":"levelo_inurba_marseille","lat":43.29265,"lon":5.3844,"is_reserved":false,"is_disabled":false,"rental_uris":{"android":"levelo://app?vid=91d53586-0fe2-4888-b19d-46842b9c30c3","ios":"levelo://app?vid=91d53586-0fe2-4888-b19d-46842b9c30c3"},"vehicle_type_id":"4","last_reported":1692565500,"current_range_meters":1600,"station_id":"ce4bh692rcd13ifvqea0","pricing_plan_id":"free"},{"bike_id":"66d9f7db-8cd6-4b99-85e8-4fef632d161c","system_id":"levelo_inurba_marseille","lat":43.304296,"lon":5.397513,"is_reserved":false,"is_disabled":false,"rental_uris":{"android":"levelo://app?vid=66d9f7db-8cd6-4b99-85e8-4fef632d161c","ios":"levelo://app?vid=66d9f7db-8cd6-4b99-85e8-4fef632d161c"},"vehicle_type_id":"4","last_reported":1692565500,"current_range_meters":0,"station_id":"ce4bh092rcd13ifvqd20","pricing_plan_id":"free"},{"bike_id":"85e69ed3-c386-40d0-8e4a-e1ddf6d2bdf8","system_id":"levelo_inurba_marseille","lat":43.29267,"lon":5.384471,"is_reserved":false,"is_disabled":false,"rental_uris":{"android":"levelo://app?vid=85e69ed3-c386-40d0-8e4a-e1ddf6d2bdf8","ios":"levelo://app?vid=85e69ed3-c386-40d0-8e4a-e1ddf6d2bdf8"},"vehicle_type_id":"4","last_reported":1692565500,"current_range_meters":400,"station_id":"ce4bh692rcd13ifvqea0","pricing_plan_id":"free"},{"bike_id":"eef2954c-e5b7-4f6f-ba34-64059a553a3c","system_id":"levelo_inurba_marseille","lat":43.29266,"lon":5.38445,"is_reserved":false,"is_disabled":false,"rental_uris":{"android":"levelo://app?vid=eef2954c-e5b7-4f6f-ba34-64059a553a3c","ios":"levelo://app?vid=eef2954c-e5b7-4f6f-ba34-64059a553a3c"},"vehicle_type_id":"4","last_reported":1692565500,"current_range_meters":25200,"station_id":"ce4bh692rcd13ifvqea0","pricing_plan_id":"free"},{"bike_id":"230a3bd6-c582-4dcf-b5ee-f732c9eb3d4a","system_id":"levelo_inurba_marseille","lat":43.29265,"lon":5.38444,"is_reserved":false,"is_disabled":false,"rental_uris":{"android":"levelo://app?vid=230a3bd6-c582-4dcf-b5ee-f732c9eb3d4a","ios":"levelo://app?vid=230a3bd6-c582-4dcf-b5ee-f732c9eb3d4a"},"vehicle_type_id":"4","last_reported":1692565500,"current_range_meters":23600,"station_id":"ce4bh692rcd13ifvqea0","pricing_plan_id":"free"},{"bike_id":"845c6b2c-6e65-466e-895b-7266c8c7aba2","system_id":"levelo_inurba_marseille","lat":43.29263,"lon":5.38441,"is_reserved":false,"is_disabled":false,"rental_uris":{"android":"levelo://app?vid=845c6b2c-6e65-466e-895b-7266c8c7aba2","ios":"levelo://app?vid=845c6b2c-6e65-466e-895b-7266c8c7aba2"},"vehicle_type_id":"4","last_reported":1692565500,"current_range_meters":15600,"station_id":"ce4bh692rcd13ifvqea0","pricing_plan_id":"free"},{"bike_id":"b543de04-a3d3-4d2e-abf3-941b50e8b59b","system_id":"levelo_inurba_marseille","lat":43.292644,"lon":5.384257,"is_reserved":false,"is_disabled":false,"rental_uris":{"android":"levelo://app?vid=b543de04-a3d3-4d2e-abf3-941b50e8b59b","ios":"levelo://app?vid=b543de04-a3d3-4d2e-abf3-941b50e8b59b"},"vehicle_type_id":"4","last_reported":1692565500,"current_range_meters":400,"station_id":"ce4bh692rcd13ifvqea0","pricing_plan_id":"free"},{"bike_id":"bbdfa71d-f978-4f2c-8f7b-69e20c1efe25","system_id":"levelo_inurba_marseille","lat":43.29258,"lon":5.38435,"is_reserved":false,"is_disabled":false,"rental_uris":{"android":"levelo://app?vid=bbdfa71d-f978-4f2c-8f7b-69e20c1efe25","ios":"levelo://app?vid=bbdfa71d-f978-4f2c-8f7b-69e20c1efe25"},"vehicle_type_id":"4","last_reported":1692565500,"current_range_meters":4800,"station_id":"ce4bh692rcd13ifvqea0","pricing_plan_id":"free"},{"bike_id":"06f42ee0-4b4e-4431-821d-fa731fdcb786","system_id":"levelo_inurba_marseille","lat":43.30432,"lon":5.39757,"is_reserved":false,"is_disabled":false,"rental_uris":{"android":"levelo://app?vid=06f42ee0-4b4e-4431-821d-fa731fdcb786","ios":"levelo://app?vid=06f42ee0-4b4e-4431-821d-fa731fdcb786"},"vehicle_type_id":"4","last_reported":1692565500,"current_range_meters":14800,"station_id":"ce4bh092rcd13ifvqd20","pricing_plan_id":"free"},{"bike_id":"6c823f21-9717-4d48-8604-aa8539b1e050","system_id":"levelo_inurba_marseille","lat":43.29258,"lon":5.38451,"is_reserved":false,"is_disabled":false,"rental_uris":{"android":"levelo://app?vid=6c823f21-9717-4d48-8604-aa8539b1e050","ios":"levelo://app?vid=6c823f21-9717-4d48-8604-aa8539b1e050"},"vehicle_type_id":"4","last_reported":1692565500,"current_range_meters":0,"station_id":"ce4bh692rcd13ifvqea0","pricing_plan_id":"free"},{"bike_id":"5036c72a-6252-47f4-a9fb-50fd514d506a","system_id":"levelo_inurba_marseille","lat":43.33039,"lon":5.38919,"is_reserved":false,"is_disabled":false,"rental_uris":{"android":"levelo://app?vid=5036c72a-6252-47f4-a9fb-50fd514d506a","ios":"levelo://app?vid=5036c72a-6252-47f4-a9fb-50fd514d506a"},"vehicle_type_id":"4","last_reported":1692565500,"current_range_meters":18400,"station_id":"ce4bhr92rcd13ifvqhrg","pricing_plan_id":"free"},{"bike_id":"3b3e7c42-cded-4bde-b175-99650afa4f17","system_id":"levelo_inurba_marseille","lat":43.33043,"lon":5.38913,"is_reserved":false,"is_disabled":false,"rental_uris":{"android":"levelo://app?vid=3b3e7c42-cded-4bde-b175-99650afa4f17","ios":"levelo://app?vid=3b3e7c42-cded-4bde-b175-99650afa4f17"},"vehicle_type_id":"4","last_reported":1692565500,"current_range_meters":20000,"station_id":"ce4bhr92rcd13ifvqhrg","pricing_plan_id":"free"},{"bike_id":"b49ef1fe-d3e0-4690-8529-1330f595a727","system_id":"levelo_inurba_marseille","lat":43.33045,"lon":5.38911,"is_reserved":false,"is_disabled":false,"rental_uris":{"android":"levelo://app?vid=b49ef1fe-d3e0-4690-8529-1330f595a727","ios":"levelo://app?vid=b49ef1fe-d3e0-4690-8529-1330f595a727"},"vehicle_type_id":"4","last_reported":1692565500,"current_range_meters":8800,"station_id":"ce4bhr92rcd13ifvqhrg","pricing_plan_id":"free"},{"bike_id":"331b6e0a-8cfc-4305-9eef-0266cde03da7","system_id":"levelo_inurba_marseille","lat":43.33041,"lon":5.38919,"is_reserved":false,"is_disabled":false,"rental_uris":{"android":"levelo://app?vid=331b6e0a-8cfc-4305-9eef-0266cde03da7","ios":"levelo://app?vid=331b6e0a-8cfc-4305-9eef-0266cde03da7"},"vehicle_type_id":"4","last_reported":1692565500,"current_range_meters":11600,"station_id":"ce4bhr92rcd13ifvqhrg","pricing_plan_id":"free"},{"bike_id":"de450cac-4370-4660-9455-3e94463307a2","system_id":"levelo_inurba_marseille","lat":43.3304,"lon":5.38922,"is_reserved":false,"is_disabled":false,"rental_uris":{"android":"levelo://app?vid=de450cac-4370-4660-9455-3e94463307a2","ios":"levelo://app?vid=de450cac-4370-4660-9455-3e94463307a2"},"vehicle_type_id":"4","last_reported":1692565500,"current_range_meters":13600,"station_id":"ce4bhr92rcd13ifvqhrg","pricing_plan_id":"free"},{"bike_id":"c65152a1-dca7-4ee4-9864-308587d5ed74","system_id":"levelo_inurba_marseille","lat":43.3304,"lon":5.38922,"is_reserved":false,"is_disabled":false,"rental_uris":{"android":"levelo://app?vid=c65152a1-dca7-4ee4-9864-308587d5ed74","ios":"levelo://app?vid=c65152a1-dca7-4ee4-9864-308587d5ed74"},"vehicle_type_id":"4","last_reported":1692565500,"current_range_meters":18400,"station_id":"ce4bhr92rcd13ifvqhrg","pricing_plan_id":"free"},{"bike_id":"311cb0a1-d2bd-42c8-aa64-be9b063c2c5e","system_id":"levelo_inurba_marseille","lat":43.33038,"lon":5.38925,"is_reserved":false,"is_disabled":false,"rental_uris":{"android":"levelo://app?vid=311cb0a1-d2bd-42c8-aa64-be9b063c2c5e","ios":"levelo://app?vid=311cb0a1-d2bd-42c8-aa64-be9b063c2c5e"},"vehicle_type_id":"4","last_reported":1692565500,"current_range_meters":22000,"station_id":"ce4bhr92rcd13ifvqhrg","pricing_plan_id":"free"},{"bike_id":"a5d7998c-4c76-4390-bbcf-8c2a2abd7eba","system_id":"levelo_inurba_marseille","lat":43.3304,"lon":5.38923,"is_reserved":false,"is_disabled":false,"rental_uris":{"android":"levelo://app?vid=a5d7998c-4c76-4390-bbcf-8c2a2abd7eba","ios":"levelo://app?vid=a5d7998c-4c76-4390-bbcf-8c2a2abd7eba"},"vehicle_type_id":"4","last_reported":1692565500,"current_range_meters":27600,"station_id":"ce4bhr92rcd13ifvqhrg","pricing_plan_id":"free"},{"bike_id":"d2b15eb2-4474-4e56-aace-fe335ab0092e","system_id":"levelo_inurba_marseille","lat":43.33045,"lon":5.38917,"is_reserved":false,"is_disabled":false,"rental_uris":{"android":"levelo://app?vid=d2b15eb2-4474-4e56-aace-fe335ab0092e","ios":"levelo://app?vid=d2b15eb2-4474-4e56-aace-fe335ab0092e"},"vehicle_type_id":"4","last_reported":1692565500,"current_range_meters":10800,"station_id":"ce4bhr92rcd13ifvqhrg","pricing_plan_id":"free"},{"bike_id":"f7005a11-f4b8-40eb-a1e9-6d3833ad8114","system_id":"levelo_inurba_marseille","lat":43.33045,"lon":5.38917,"is_reserved":false,"is_disabled":false,"rental_uris":{"android":"levelo://app?vid=f7005a11-f4b8-40eb-a1e9-6d3833ad8114","ios":"levelo://app?vid=f7005a11-f4b8-40eb-a1e9-6d3833ad8114"},"vehicle_type_id":"4","last_reported":1692565500,"current_range_meters":25200,"station_id":"ce4bhr92rcd13ifvqhrg","pricing_plan_id":"free"},{"bike_id":"c8619c93-5f6a-45f4-8e07-c81fcc1e21be","system_id":"levelo_inurba_marseille","lat":43.33044,"lon":5.38919,"is_reserved":false,"is_disabled":false,"rental_uris":{"android":"levelo://app?vid=c8619c93-5f6a-45f4-8e07-c81fcc1e21be","ios":"levelo://app?vid=c8619c93-5f6a-45f4-8e07-c81fcc1e21be"},"vehicle_type_id":"4","last_reported":1692565500,"current_range_meters":22800,"station_id":"ce4bhr92rcd13ifvqhrg","pricing_plan_id":"free"},{"bike_id":"86eac789-1e56-496d-abfa-705e29d378c7","system_id":"levelo_inurba_marseille","lat":43.33043,"lon":5.38921,"is_reserved":false,"is_disabled":false,"rental_uris":{"android":"levelo://app?vid=86eac789-1e56-496d-abfa-705e29d378c7","ios":"levelo://app?vid=86eac789-1e56-496d-abfa-705e29d378c7"},"vehicle_type_id":"4","last_reported":1692565500,"current_range_meters":26000,"station_id":"ce4bhr92rcd13ifvqhrg","pricing_plan_id":"free"},{"bike_id":"9e24a65c-fe1e-45dc-88b9-dd0cad85064c","system_id":"levelo_inurba_marseille","lat":43.33046,"lon":5.38917,"is_reserved":false,"is_disabled":false,"rental_uris":{"android":"levelo://app?vid=9e24a65c-fe1e-45dc-88b9-dd0cad85064c","ios":"levelo://app?vid=9e24a65c-fe1e-45dc-88b9-dd0cad85064c"},"vehicle_type_id":"4","last_reported":1692565500,"current_range_meters":26000,"station_id":"ce4bhr92rcd13ifvqhrg","pricing_plan_id":"free"},{"bike_id":"708f7f21-b221-4c14-94b6-b5d8e3289350","system_id":"levelo_inurba_marseille","lat":43.33045,"lon":5.3892,"is_reserved":false,"is_disabled":false,"rental_uris":{"android":"levelo://app?vid=708f7f21-b221-4c14-94b6-b5d8e3289350","ios":"levelo://app?vid=708f7f21-b221-4c14-94b6-b5d8e3289350"},"vehicle_type_id":"4","last_reported":1692565500,"current_range_meters":17200,"station_id":"ce4bhr92rcd13ifvqhrg","pricing_plan_id":"free"},{"bike_id":"eb950724-6c95-4fb2-915f-35b08a8cfd23","system_id":"levelo_inurba_marseille","lat":43.33048,"lon":5.38919,"is_reserved":false,"is_disabled":false,"rental_uris":{"android":"levelo://app?vid=eb950724-6c95-4fb2-915f-35b08a8cfd23","ios":"levelo://app?vid=eb950724-6c95-4fb2-915f-35b08a8cfd23"},"vehicle_type_id":"4","last_reported":1692565500,"current_range_meters":15600,"station_id":"ce4bhr92rcd13ifvqhrg","pricing_plan_id":"free"},{"bike_id":"52662068-d06a-40c1-bfee-ce6664dc3a83","system_id":"levelo_inurba_marseille","lat":43.33048,"lon":5.3892,"is_reserved":false,"is_disabled":false,"rental_uris":{"android":"levelo://app?vid=52662068-d06a-40c1-bfee-ce6664dc3a83","ios":"levelo://app?vid=52662068-d06a-40c1-bfee-ce6664dc3a83"},"vehicle_type_id":"4","last_reported":1692565500,"current_range_meters":0,"station_id":"ce4bhr92rcd13ifvqhrg","pricing_plan_id":"free"},{"bike_id":"b32c75fe-8ee5-49cd-933a-8eedee130c32","system_id":"levelo_inurba_marseille","lat":43.29789,"lon":5.39344,"is_reserved":false,"is_disabled":false,"rental_uris":{"android":"levelo://app?vid=b32c75fe-8ee5-49cd-933a-8eedee130c32","ios":"levelo://app?vid=b32c75fe-8ee5-49cd-933a-8eedee130c32"},"vehicle_type_id":"4","last_reported":1692565500,"current_range_meters":800,"station_id":"chh1huq6cuj3fo74tm60","pricing_plan_id":"free"},{"bike_id":"8bb03e78-7ae8-4510-b872-fc9fdf05ecef","system_id":"levelo_inurba_marseille","lat":43.29785,"lon":5.3934,"is_reserved":false,"is_disabled":false,"rental_uris":{"android":"levelo://app?vid=8bb03e78-7ae8-4510-b872-fc9fdf05ecef","ios":"levelo://app?vid=8bb03e78-7ae8-4510-b872-fc9fdf05ecef"},"vehicle_type_id":"4","last_reported":1692565500,"current_range_meters":8800,"station_id":"","pricing_plan_id":"free"},{"bike_id":"a7efb412-b9e6-4608-bba6-50c437e0eab5","system_id":"levelo_inurba_marseille","lat":43.297815,"lon":5.393548,"is_reserved":false,"is_disabled":false,"rental_uris":{"android":"levelo://app?vid=a7efb412-b9e6-4608-bba6-50c437e0eab5","ios":"levelo://app?vid=a7efb412-b9e6-4608-bba6-50c437e0eab5"},"vehicle_type_id":"4","last_reported":1692565500,"current_range_meters":22400,"station_id":"chh1huq6cuj3fo74tm60","pricing_plan_id":"free"},{"bike_id":"04fb9bcb-264a-4f36-ba08-b105632d40f9","system_id":"levelo_inurba_marseille","lat":43.298,"lon":5.39359,"is_reserved":false,"is_disabled":false,"rental_uris":{"android":"levelo://app?vid=04fb9bcb-264a-4f36-ba08-b105632d40f9","ios":"levelo://app?vid=04fb9bcb-264a-4f36-ba08-b105632d40f9"},"vehicle_type_id":"4","last_reported":1692565500,"current_range_meters":1200,"station_id":"chh1huq6cuj3fo74tm60","pricing_plan_id":"free"},{"bike_id":"c4df9c1c-0f05-412d-8d7f-baa45b7ed6b4","system_id":"levelo_inurba_marseille","lat":43.289741,"lon":5.378306,"is_reserved":false,"is_disabled":false,"rental_uris":{"android":"levelo://app?vid=c4df9c1c-0f05-412d-8d7f-baa45b7ed6b4","ios":"levelo://app?vid=c4df9c1c-0f05-412d-8d7f-baa45b7ed6b4"},"vehicle_type_id":"4","last_reported":1692565500,"current_range_meters":8400,"station_id":"ce4bh9p2rcd13ifvqed0","pricing_plan_id":"free"},{"bike_id":"e973b58d-f893-403d-ba56-ef5d2acef669","system_id":"levelo_inurba_marseille","lat":43.289741,"lon":5.378306,"is_reserved":false,"is_disabled":false,"rental_uris":{"android":"levelo://app?vid=e973b58d-f893-403d-ba56-ef5d2acef669","ios":"levelo://app?vid=e973b58d-f893-403d-ba56-ef5d2acef669"},"vehicle_type_id":"4","last_reported":1692565500,"current_range_meters":8400,"station_id":"ce4bh9p2rcd13ifvqed0","pricing_plan_id":"free"},{"bike_id":"f5e54423-e30e-4854-ad4a-decfd9f4eef2","system_id":"levelo_inurba_marseille","lat":43.289741,"lon":5.378306,"is_reserved":false,"is_disabled":false,"rental_uris":{"android":"levelo://app?vid=f5e54423-e30e-4854-ad4a-decfd9f4eef2","ios":"levelo://app?vid=f5e54423-e30e-4854-ad4a-decfd9f4eef2"},"vehicle_type_id":"4","last_reported":1692565500,"current_range_meters":12000,"station_id":"ce4bh9p2rcd13ifvqed0","pricing_plan_id":"free"},{"bike_id":"fb842917-dcea-4d37-8c8f-036ef5e82569","system_id":"levelo_inurba_marseille","lat":43.295169,"lon":5.390426,"is_reserved":false,"is_disabled":false,"rental_uris":{"android":"levelo://app?vid=fb842917-dcea-4d37-8c8f-036ef5e82569","ios":"levelo://app?vid=fb842917-dcea-4d37-8c8f-036ef5e82569"},"vehicle_type_id":"4","last_reported":1692565500,"current_range_meters":15600,"station_id":"ce4bh3p2rcd13ifvqdp0","pricing_plan_id":"free"},{"bike_id":"6282d6e8-2420-42fb-9959-f3589b7e7724","system_id":"levelo_inurba_marseille","lat":43.29017,"lon":5.38133,"is_reserved":false,"is_disabled":false,"rental_uris":{"android":"levelo://app?vid=6282d6e8-2420-42fb-9959-f3589b7e7724","ios":"levelo://app?vid=6282d6e8-2420-42fb-9959-f3589b7e7724"},"vehicle_type_id":"4","last_reported":1692565500,"current_range_meters":29600,"station_id":"ce4bh4p2rcd13ifvqe1g","pricing_plan_id":"free"},{"bike_id":"753651cb-1607-4ffc-97f4-df65170cc673","system_id":"levelo_inurba_marseille","lat":43.31262,"lon":5.40169,"is_reserved":false,"is_disabled":false,"rental_uris":{"android":"levelo://app?vid=753651cb-1607-4ffc-97f4-df65170cc673","ios":"levelo://app?vid=753651cb-1607-4ffc-97f4-df65170cc673"},"vehicle_type_id":"4","last_reported":1692565500,"current_range_meters":15200,"station_id":"ce4bh092rcd13ifvqd30","pricing_plan_id":"free"},{"bike_id":"584d407e-72a2-4af4-a29f-a846e1be79e1","system_id":"levelo_inurba_marseille","lat":43.31276,"lon":5.40171,"is_reserved":false,"is_disabled":false,"rental_uris":{"android":"levelo://app?vid=584d407e-72a2-4af4-a29f-a846e1be79e1","ios":"levelo://app?vid=584d407e-72a2-4af4-a29f-a846e1be79e1"},"vehicle_type_id":"4","last_reported":1692565500,"current_range_meters":22400,"station_id":"ce4bh092rcd13ifvqd30","pricing_plan_id":"free"},{"bike_id":"15ffda53-1fd8-4097-a5eb-d1e9ce53adc5","system_id":"levelo_inurba_marseille","lat":43.309371,"lon":5.401449,"is_reserved":false,"is_disabled":false,"rental_uris":{"android":"levelo://app?vid=15ffda53-1fd8-4097-a5eb-d1e9ce53adc5","ios":"levelo://app?vid=15ffda53-1fd8-4097-a5eb-d1e9ce53adc5"},"vehicle_type_id":"4","last_reported":1692565500,"current_range_meters":12000,"station_id":"ce4bgvp2rcd13ifvqct0","pricing_plan_id":"free"},{"bike_id":"e466bb0f-a77c-4aa1-9822-4dcb8ea93d8e","system_id":"levelo_inurba_marseille","lat":43.31273,"lon":5.40172,"is_reserved":false,"is_disabled":false,"rental_uris":{"android":"levelo://app?vid=e466bb0f-a77c-4aa1-9822-4dcb8ea93d8e","ios":"levelo://app?vid=e466bb0f-a77c-4aa1-9822-4dcb8ea93d8e"},"vehicle_type_id":"4","last_reported":1692565500,"current_range_meters":14400,"station_id":"ce4bh092rcd13ifvqd30","pricing_plan_id":"free"},{"bike_id":"22a26857-c5c7-4c44-8c23-2cc580544583","system_id":"levelo_inurba_marseille","lat":43.309371,"lon":5.401449,"is_reserved":false,"is_disabled":false,"rental_uris":{"android":"levelo://app?vid=22a26857-c5c7-4c44-8c23-2cc580544583","ios":"levelo://app?vid=22a26857-c5c7-4c44-8c23-2cc580544583"},"vehicle_type_id":"4","last_reported":1692565500,"current_range_meters":23600,"station_id":"ce4bgvp2rcd13ifvqct0","pricing_plan_id":"free"},{"bike_id":"0dbff658-d426-413c-b8d4-21ca938ee664","system_id":"levelo_inurba_marseille","lat":43.31273,"lon":5.40174,"is_reserved":false,"is_disabled":false,"rental_uris":{"android":"levelo://app?vid=0dbff658-d426-413c-b8d4-21ca938ee664","ios":"levelo://app?vid=0dbff658-d426-413c-b8d4-21ca938ee664"},"vehicle_type_id":"4","last_reported":1692565500,"current_range_meters":9600,"station_id":"ce4bh092rcd13ifvqd30","pricing_plan_id":"free"},{"bike_id":"3b4cc115-c82c-4fa6-a8f3-0f5e7121504c","system_id":"levelo_inurba_marseille","lat":43.312609,"lon":5.401662,"is_reserved":false,"is_disabled":false,"rental_uris":{"android":"levelo://app?vid=3b4cc115-c82c-4fa6-a8f3-0f5e7121504c","ios":"levelo://app?vid=3b4cc115-c82c-4fa6-a8f3-0f5e7121504c"},"vehicle_type_id":"4","last_reported":1692565500,"current_range_meters":13600,"station_id":"ce4bh092rcd13ifvqd30","pricing_plan_id":"free"},{"bike_id":"483baaf5-5510-4c9d-b1ac-4daf8fc95845","system_id":"levelo_inurba_marseille","lat":43.312609,"lon":5.401662,"is_reserved":false,"is_disabled":false,"rental_uris":{"android":"levelo://app?vid=483baaf5-5510-4c9d-b1ac-4daf8fc95845","ios":"levelo://app?vid=483baaf5-5510-4c9d-b1ac-4daf8fc95845"},"vehicle_type_id":"4","last_reported":1692565500,"current_range_meters":10800,"station_id":"ce4bh092rcd13ifvqd30","pricing_plan_id":"free"},{"bike_id":"fc9a0d8f-a4ff-4882-97ff-6f99ef5c342b","system_id":"levelo_inurba_marseille","lat":43.30933,"lon":5.40144,"is_reserved":false,"is_disabled":false,"rental_uris":{"android":"levelo://app?vid=fc9a0d8f-a4ff-4882-97ff-6f99ef5c342b","ios":"levelo://app?vid=fc9a0d8f-a4ff-4882-97ff-6f99ef5c342b"},"vehicle_type_id":"4","last_reported":1692565500,"current_range_meters":0,"station_id":"ce4bgvp2rcd13ifvqct0","pricing_plan_id":"free"},{"bike_id":"5cd03c7b-a5de-4bb3-80f8-916a2a7d7c64","system_id":"levelo_inurba_marseille","lat":43.309371,"lon":5.401449,"is_reserved":false,"is_disabled":false,"rental_uris":{"android":"levelo://app?vid=5cd03c7b-a5de-4bb3-80f8-916a2a7d7c64","ios":"levelo://app?vid=5cd03c7b-a5de-4bb3-80f8-916a2a7d7c64"},"vehicle_type_id":"4","last_reported":1692565500,"current_range_meters":6000,"station_id":"ce4bgvp2rcd13ifvqct0","pricing_plan_id":"free"},{"bike_id":"2241bce1-ebf9-4d91-b7e5-fe08a6544f42","system_id":"levelo_inurba_marseille","lat":43.33749,"lon":5.37502,"is_reserved":false,"is_disabled":false,"rental_uris":{"android":"levelo://app?vid=2241bce1-ebf9-4d91-b7e5-fe08a6544f42","ios":"levelo://app?vid=2241bce1-ebf9-4d91-b7e5-fe08a6544f42"},"vehicle_type_id":"4","last_reported":1692565500,"current_range_meters":18800,"station_id":"","pricing_plan_id":"free"},{"bike_id":"0da24a39-5174-41db-b945-de50dee4b34e","system_id":"levelo_inurba_marseille","lat":43.306412,"lon":5.401035,"is_reserved":false,"is_disabled":false,"rental_uris":{"android":"levelo://app?vid=0da24a39-5174-41db-b945-de50dee4b34e","ios":"levelo://app?vid=0da24a39-5174-41db-b945-de50dee4b34e"},"vehicle_type_id":"4","last_reported":1692565500,"current_range_meters":3200,"station_id":"ce4bh112rcd13ifvqda0","pricing_plan_id":"free"},{"bike_id":"e46cefb8-d562-4a46-98fc-db8af6a7160c","system_id":"levelo_inurba_marseille","lat":43.3064,"lon":5.40107,"is_reserved":false,"is_disabled":false,"rental_uris":{"android":"levelo://app?vid=e46cefb8-d562-4a46-98fc-db8af6a7160c","ios":"levelo://app?vid=e46cefb8-d562-4a46-98fc-db8af6a7160c"},"vehicle_type_id":"4","last_reported":1692565500,"current_range_meters":13200,"station_id":"ce4bh112rcd13ifvqda0","pricing_plan_id":"free"},{"bike_id":"437b6d12-2a65-4f61-a629-551240c939f8","system_id":"levelo_inurba_marseille","lat":43.3013,"lon":5.39872,"is_reserved":false,"is_disabled":false,"rental_uris":{"android":"levelo://app?vid=437b6d12-2a65-4f61-a629-551240c939f8","ios":"levelo://app?vid=437b6d12-2a65-4f61-a629-551240c939f8"},"vehicle_type_id":"4","last_reported":1692565500,"current_range_meters":4400,"station_id":"ce4bh0h2rcd13ifvqd40","pricing_plan_id":"free"},{"bike_id":"cdddb565-a86c-4927-b7cc-1fc7b2928d0a","system_id":"levelo_inurba_marseille","lat":43.30123,"lon":5.39895,"is_reserved":false,"is_disabled":false,"rental_uris":{"android":"levelo://app?vid=cdddb565-a86c-4927-b7cc-1fc7b2928d0a","ios":"levelo://app?vid=cdddb565-a86c-4927-b7cc-1fc7b2928d0a"},"vehicle_type_id":"4","last_reported":1692565500,"current_range_meters":22000,"station_id":"ce4bh0h2rcd13ifvqd40","pricing_plan_id":"free"},{"bike_id":"75199276-b705-4ad7-b6a9-49aeaa84628a","system_id":"levelo_inurba_marseille","lat":43.286591,"lon":5.363346,"is_reserved":false,"is_disabled":false,"rental_uris":{"android":"levelo://app?vid=75199276-b705-4ad7-b6a9-49aeaa84628a","ios":"levelo://app?vid=75199276-b705-4ad7-b6a9-49aeaa84628a"},"vehicle_type_id":"4","last_reported":1692565500,"current_range_meters":31200,"station_id":"ce4bhah2rcd13ifvqej0","pricing_plan_id":"free"},{"bike_id":"689498dc-6ce2-4843-9aef-4b32c6128243","system_id":"levelo_inurba_marseille","lat":43.286961,"lon":5.373785,"is_reserved":false,"is_disabled":false,"rental_uris":{"android":"levelo://app?vid=689498dc-6ce2-4843-9aef-4b32c6128243","ios":"levelo://app?vid=689498dc-6ce2-4843-9aef-4b32c6128243"},"vehicle_type_id":"4","last_reported":1692565500,"current_range_meters":0,"station_id":"ce4bh3p2rcd13ifvqdq0","pricing_plan_id":"free"},{"bike_id":"8d4a95d3-f608-4f41-aedf-5504a19cbfb6","system_id":"levelo_inurba_marseille","lat":43.295194,"lon":5.39397,"is_reserved":false,"is_disabled":false,"rental_uris":{"android":"levelo://app?vid=8d4a95d3-f608-4f41-aedf-5504a19cbfb6","ios":"levelo://app?vid=8d4a95d3-f608-4f41-aedf-5504a19cbfb6"},"vehicle_type_id":"4","last_reported":1692565500,"current_range_meters":9600,"station_id":"ce4bh292rcd13ifvqdf0","pricing_plan_id":"free"},{"bike_id":"25655e69-9fdf-4c00-a33e-6c48a7e3f9c7","system_id":"levelo_inurba_marseille","lat":43.286961,"lon":5.373785,"is_reserved":false,"is_disabled":false,"rental_uris":{"android":"levelo://app?vid=25655e69-9fdf-4c00-a33e-6c48a7e3f9c7","ios":"levelo://app?vid=25655e69-9fdf-4c00-a33e-6c48a7e3f9c7"},"vehicle_type_id":"4","last_reported":1692565500,"current_range_meters":20800,"station_id":"ce4bh3p2rcd13ifvqdq0","pricing_plan_id":"free"},{"bike_id":"1e34eae2-0e84-4041-bdd7-f13556915f3b","system_id":"levelo_inurba_marseille","lat":43.295196,"lon":5.39397,"is_reserved":false,"is_disabled":false,"rental_uris":{"android":"levelo://app?vid=1e34eae2-0e84-4041-bdd7-f13556915f3b","ios":"levelo://app?vid=1e34eae2-0e84-4041-bdd7-f13556915f3b"},"vehicle_type_id":"4","last_reported":1692565500,"current_range_meters":16000,"station_id":"ce4bh292rcd13ifvqdf0","pricing_plan_id":"free"},{"bike_id":"d09fe075-13c2-44b8-a2d7-d164fa7af7ae","system_id":"levelo_inurba_marseille","lat":43.295196,"lon":5.39397,"is_reserved":false,"is_disabled":false,"rental_uris":{"android":"levelo://app?vid=d09fe075-13c2-44b8-a2d7-d164fa7af7ae","ios":"levelo://app?vid=d09fe075-13c2-44b8-a2d7-d164fa7af7ae"},"vehicle_type_id":"4","last_reported":1692565500,"current_range_meters":17600,"station_id":"ce4bh292rcd13ifvqdf0","pricing_plan_id":"free"},{"bike_id":"4213421f-31f7-49eb-98e0-58f54eafd4a9","system_id":"levelo_inurba_marseille","lat":43.29031,"lon":5.3865,"is_reserved":false,"is_disabled":false,"rental_uris":{"android":"levelo://app?vid=4213421f-31f7-49eb-98e0-58f54eafd4a9","ios":"levelo://app?vid=4213421f-31f7-49eb-98e0-58f54eafd4a9"},"vehicle_type_id":"4","last_reported":1692565500,"current_range_meters":4800,"station_id":"ce4bh4p2rcd13ifvqe0g","pricing_plan_id":"free"},{"bike_id":"2accfa00-05f6-4f5e-b705-05be59500c39","system_id":"levelo_inurba_marseille","lat":43.302759,"lon":5.400793,"is_reserved":false,"is_disabled":false,"rental_uris":{"android":"levelo://app?vid=2accfa00-05f6-4f5e-b705-05be59500c39","ios":"levelo://app?vid=2accfa00-05f6-4f5e-b705-05be59500c39"},"vehicle_type_id":"4","last_reported":1692565500,"current_range_meters":4400,"station_id":"ce4bgvh2rcd13ifvqcs0","pricing_plan_id":"free"},{"bike_id":"b6f5f19a-f90c-4680-ba3c-07e8908f3197","system_id":"levelo_inurba_marseille","lat":43.287184,"lon":5.37937,"is_reserved":false,"is_disabled":false,"rental_uris":{"android":"levelo://app?vid=b6f5f19a-f90c-4680-ba3c-07e8908f3197","ios":"levelo://app?vid=b6f5f19a-f90c-4680-ba3c-07e8908f3197"},"vehicle_type_id":"4","last_reported":1692565500,"current_range_meters":22800,"station_id":"ce4bh9p2rcd13ifvqec0","pricing_plan_id":"free"},{"bike_id":"cd12af34-545e-4336-9199-d60028070528","system_id":"levelo_inurba_marseille","lat":43.31645,"lon":5.40432,"is_reserved":false,"is_disabled":false,"rental_uris":{"android":"levelo://app?vid=cd12af34-545e-4336-9199-d60028070528","ios":"levelo://app?vid=cd12af34-545e-4336-9199-d60028070528"},"vehicle_type_id":"4","last_reported":1692565500,"current_range_meters":0,"station_id":"ce4bh012rcd13ifvqd00","pricing_plan_id":"free"},{"bike_id":"23a231cb-7413-4292-abd1-305ea6c8fb20","system_id":"levelo_inurba_marseille","lat":43.31643,"lon":5.40437,"is_reserved":false,"is_disabled":false,"rental_uris":{"android":"levelo://app?vid=23a231cb-7413-4292-abd1-305ea6c8fb20","ios":"levelo://app?vid=23a231cb-7413-4292-abd1-305ea6c8fb20"},"vehicle_type_id":"4","last_reported":1692565500,"current_range_meters":18400,"station_id":"ce4bh012rcd13ifvqd00","pricing_plan_id":"free"},{"bike_id":"7da9e437-1e79-4b5f-9ab0-65254ac17dd7","system_id":"levelo_inurba_marseille","lat":43.31658,"lon":5.40443,"is_reserved":false,"is_disabled":false,"rental_uris":{"android":"levelo://app?vid=7da9e437-1e79-4b5f-9ab0-65254ac17dd7","ios":"levelo://app?vid=7da9e437-1e79-4b5f-9ab0-65254ac17dd7"},"vehicle_type_id":"4","last_reported":1692565500,"current_range_meters":20000,"station_id":"ce4bh012rcd13ifvqd00","pricing_plan_id":"free"},{"bike_id":"0cef90d0-e27b-472a-951f-ae78d50226ed","system_id":"levelo_inurba_marseille","lat":43.291994,"lon":5.392907,"is_reserved":false,"is_disabled":false,"rental_uris":{"android":"levelo://app?vid=0cef90d0-e27b-472a-951f-ae78d50226ed","ios":"levelo://app?vid=0cef90d0-e27b-472a-951f-ae78d50226ed"},"vehicle_type_id":"4","last_reported":1692565500,"current_range_meters":13200,"station_id":"ce4bh192rcd13ifvqdd0","pricing_plan_id":"free"},{"bike_id":"8079c9f4-61b0-48a7-bfae-fbf36abe289a","system_id":"levelo_inurba_marseille","lat":43.291994,"lon":5.392907,"is_reserved":false,"is_disabled":false,"rental_uris":{"android":"levelo://app?vid=8079c9f4-61b0-48a7-bfae-fbf36abe289a","ios":"levelo://app?vid=8079c9f4-61b0-48a7-bfae-fbf36abe289a"},"vehicle_type_id":"4","last_reported":1692565500,"current_range_meters":28800,"station_id":"ce4bh192rcd13ifvqdd0","pricing_plan_id":"free"},{"bike_id":"0bda4e83-10c1-4537-b2dd-d5308277df24","system_id":"levelo_inurba_marseille","lat":43.291994,"lon":5.392907,"is_reserved":false,"is_disabled":false,"rental_uris":{"android":"levelo://app?vid=0bda4e83-10c1-4537-b2dd-d5308277df24","ios":"levelo://app?vid=0bda4e83-10c1-4537-b2dd-d5308277df24"},"vehicle_type_id":"4","last_reported":1692565500,"current_range_meters":17200,"station_id":"ce4bh192rcd13ifvqdd0","pricing_plan_id":"free"},{"bike_id":"1def9e1e-ebb0-40c0-a136-cedc8501752d","system_id":"levelo_inurba_marseille","lat":43.284538,"lon":5.358657,"is_reserved":false,"is_disabled":false,"rental_uris":{"android":"levelo://app?vid=1def9e1e-ebb0-40c0-a136-cedc8501752d","ios":"levelo://app?vid=1def9e1e-ebb0-40c0-a136-cedc8501752d"},"vehicle_type_id":"4","last_reported":1692565500,"current_range_meters":30800,"station_id":"ce4bhah2rcd13ifvqei0","pricing_plan_id":"free"},{"bike_id":"f15380e7-17b2-41d0-b52d-a2b7465e1cb9","system_id":"levelo_inurba_marseille","lat":43.284538,"lon":5.358657,"is_reserved":false,"is_disabled":false,"rental_uris":{"android":"levelo://app?vid=f15380e7-17b2-41d0-b52d-a2b7465e1cb9","ios":"levelo://app?vid=f15380e7-17b2-41d0-b52d-a2b7465e1cb9"},"vehicle_type_id":"4","last_reported":1692565500,"current_range_meters":28400,"station_id":"ce4bhah2rcd13ifvqei0","pricing_plan_id":"free"},{"bike_id":"737096d6-1bf1-4342-9b62-bb9bc379b425","system_id":"levelo_inurba_marseille","lat":43.284538,"lon":5.358657,"is_reserved":false,"is_disabled":false,"rental_uris":{"android":"levelo://app?vid=737096d6-1bf1-4342-9b62-bb9bc379b425","ios":"levelo://app?vid=737096d6-1bf1-4342-9b62-bb9bc379b425"},"vehicle_type_id":"4","last_reported":1692565500,"current_range_meters":6400,"station_id":"ce4bhah2rcd13ifvqei0","pricing_plan_id":"free"},{"bike_id":"4dbf0e68-b3e3-459b-ab22-3c160608ea64","system_id":"levelo_inurba_marseille","lat":43.294314,"lon":5.397498,"is_reserved":false,"is_disabled":false,"rental_uris":{"android":"levelo://app?vid=4dbf0e68-b3e3-459b-ab22-3c160608ea64","ios":"levelo://app?vid=4dbf0e68-b3e3-459b-ab22-3c160608ea64"},"vehicle_type_id":"4","last_reported":1692565500,"current_range_meters":0,"station_id":"ce4bh3h2rcd13ifvqdo0","pricing_plan_id":"free"},{"bike_id":"bf91b9ec-ffff-4f25-a5a1-d8936e278a78","system_id":"levelo_inurba_marseille","lat":43.284534,"lon":5.358662,"is_reserved":false,"is_disabled":false,"rental_uris":{"android":"levelo://app?vid=bf91b9ec-ffff-4f25-a5a1-d8936e278a78","ios":"levelo://app?vid=bf91b9ec-ffff-4f25-a5a1-d8936e278a78"},"vehicle_type_id":"4","last_reported":1692565500,"current_range_meters":1200,"station_id":"ce4bhah2rcd13ifvqei0","pricing_plan_id":"free"},{"bike_id":"35eec3a1-aa54-4990-8eb4-78e6c0dd24d0","system_id":"levelo_inurba_marseille","lat":43.285856,"lon":5.350771,"is_reserved":false,"is_disabled":false,"rental_uris":{"android":"levelo://app?vid=35eec3a1-aa54-4990-8eb4-78e6c0dd24d0","ios":"levelo://app?vid=35eec3a1-aa54-4990-8eb4-78e6c0dd24d0"},"vehicle_type_id":"4","last_reported":1692565500,"current_range_meters":27600,"station_id":"ce4bhch2rcd13ifvqeug","pricing_plan_id":"free"},{"bike_id":"2363d3b5-6c15-401a-a59c-ee80bd4af927","system_id":"levelo_inurba_marseille","lat":43.28415,"lon":5.37522,"is_reserved":false,"is_disabled":false,"rental_uris":{"android":"levelo://app?vid=2363d3b5-6c15-401a-a59c-ee80bd4af927","ios":"levelo://app?vid=2363d3b5-6c15-401a-a59c-ee80bd4af927"},"vehicle_type_id":"4","last_reported":1692565500,"current_range_meters":15600,"station_id":"ce4bh412rcd13ifvqds0","pricing_plan_id":"free"},{"bike_id":"79ae07f7-3d9b-456b-927e-8e880eafedba","system_id":"levelo_inurba_marseille","lat":43.32541,"lon":5.40439,"is_reserved":false,"is_disabled":false,"rental_uris":{"android":"levelo://app?vid=79ae07f7-3d9b-456b-927e-8e880eafedba","ios":"levelo://app?vid=79ae07f7-3d9b-456b-927e-8e880eafedba"},"vehicle_type_id":"4","last_reported":1692565500,"current_range_meters":2400,"station_id":"","pricing_plan_id":"free"},{"bike_id":"cb97d7f6-ab64-4d52-b2f3-b33486c80b80","system_id":"levelo_inurba_marseille","lat":43.33717,"lon":5.391857,"is_reserved":false,"is_disabled":false,"rental_uris":{"android":"levelo://app?vid=cb97d7f6-ab64-4d52-b2f3-b33486c80b80","ios":"levelo://app?vid=cb97d7f6-ab64-4d52-b2f3-b33486c80b80"},"vehicle_type_id":"4","last_reported":1692565500,"current_range_meters":2400,"station_id":"ce4bhr92rcd13ifvqhsg","pricing_plan_id":"free"},{"bike_id":"57ce3eb8-ba2b-4d74-a22f-ba5a662e4d0b","system_id":"levelo_inurba_marseille","lat":43.33721,"lon":5.39177,"is_reserved":false,"is_disabled":false,"rental_uris":{"android":"levelo://app?vid=57ce3eb8-ba2b-4d74-a22f-ba5a662e4d0b","ios":"levelo://app?vid=57ce3eb8-ba2b-4d74-a22f-ba5a662e4d0b"},"vehicle_type_id":"4","last_reported":1692565500,"current_range_meters":0,"station_id":"ce4bhr92rcd13ifvqhsg","pricing_plan_id":"free"},{"bike_id":"17105054-6fd8-493b-b0be-1ed88688055c","system_id":"levelo_inurba_marseille","lat":43.3372,"lon":5.39179,"is_reserved":false,"is_disabled":false,"rental_uris":{"android":"levelo://app?vid=17105054-6fd8-493b-b0be-1ed88688055c","ios":"levelo://app?vid=17105054-6fd8-493b-b0be-1ed88688055c"},"vehicle_type_id":"4","last_reported":1692565500,"current_range_meters":24800,"station_id":"ce4bhr92rcd13ifvqhsg","pricing_plan_id":"free"},{"bike_id":"2b3f06e0-8f2d-4133-9563-f19f57fe46e5","system_id":"levelo_inurba_marseille","lat":43.33722,"lon":5.39184,"is_reserved":false,"is_disabled":false,"rental_uris":{"android":"levelo://app?vid=2b3f06e0-8f2d-4133-9563-f19f57fe46e5","ios":"levelo://app?vid=2b3f06e0-8f2d-4133-9563-f19f57fe46e5"},"vehicle_type_id":"4","last_reported":1692565500,"current_range_meters":5200,"station_id":"ce4bhr92rcd13ifvqhsg","pricing_plan_id":"free"},{"bike_id":"0dda2562-498f-4f90-abfb-f3c666db2d2e","system_id":"levelo_inurba_marseille","lat":43.33722,"lon":5.39187,"is_reserved":false,"is_disabled":false,"rental_uris":{"android":"levelo://app?vid=0dda2562-498f-4f90-abfb-f3c666db2d2e","ios":"levelo://app?vid=0dda2562-498f-4f90-abfb-f3c666db2d2e"},"vehicle_type_id":"4","last_reported":1692565500,"current_range_meters":18400,"station_id":"ce4bhr92rcd13ifvqhsg","pricing_plan_id":"free"},{"bike_id":"5b1fb66f-b33e-4a00-8edf-9261c9b5976c","system_id":"levelo_inurba_marseille","lat":43.33722,"lon":5.3919,"is_reserved":false,"is_disabled":false,"rental_uris":{"android":"levelo://app?vid=5b1fb66f-b33e-4a00-8edf-9261c9b5976c","ios":"levelo://app?vid=5b1fb66f-b33e-4a00-8edf-9261c9b5976c"},"vehicle_type_id":"4","last_reported":1692565500,"current_range_meters":2400,"station_id":"ce4bhr92rcd13ifvqhsg","pricing_plan_id":"free"},{"bike_id":"12c0f407-4ac2-49d3-b1e8-783bd26a8644","system_id":"levelo_inurba_marseille","lat":43.33725,"lon":5.39185,"is_reserved":false,"is_disabled":false,"rental_uris":{"android":"levelo://app?vid=12c0f407-4ac2-49d3-b1e8-783bd26a8644","ios":"levelo://app?vid=12c0f407-4ac2-49d3-b1e8-783bd26a8644"},"vehicle_type_id":"4","last_reported":1692565500,"current_range_meters":24000,"station_id":"ce4bhr92rcd13ifvqhsg","pricing_plan_id":"free"},{"bike_id":"e45012d8-673a-4bd6-93d3-a427f767a00d","system_id":"levelo_inurba_marseille","lat":43.33729,"lon":5.39178,"is_reserved":false,"is_disabled":false,"rental_uris":{"android":"levelo://app?vid=e45012d8-673a-4bd6-93d3-a427f767a00d","ios":"levelo://app?vid=e45012d8-673a-4bd6-93d3-a427f767a00d"},"vehicle_type_id":"4","last_reported":1692565500,"current_range_meters":22400,"station_id":"ce4bhr92rcd13ifvqhsg","pricing_plan_id":"free"},{"bike_id":"01f563c5-7ac0-4d44-b1b3-0549f3b949f3","system_id":"levelo_inurba_marseille","lat":43.33729,"lon":5.39179,"is_reserved":false,"is_disabled":false,"rental_uris":{"android":"levelo://app?vid=01f563c5-7ac0-4d44-b1b3-0549f3b949f3","ios":"levelo://app?vid=01f563c5-7ac0-4d44-b1b3-0549f3b949f3"},"vehicle_type_id":"4","last_reported":1692565500,"current_range_meters":24400,"station_id":"ce4bhr92rcd13ifvqhsg","pricing_plan_id":"free"},{"bike_id":"7d2969ab-a065-4a23-b19e-667095d799c9","system_id":"levelo_inurba_marseille","lat":43.33725,"lon":5.39187,"is_reserved":false,"is_disabled":false,"rental_uris":{"android":"levelo://app?vid=7d2969ab-a065-4a23-b19e-667095d799c9","ios":"levelo://app?vid=7d2969ab-a065-4a23-b19e-667095d799c9"},"vehicle_type_id":"4","last_reported":1692565500,"current_range_meters":5200,"station_id":"ce4bhr92rcd13ifvqhsg","pricing_plan_id":"free"},{"bike_id":"72fc020d-a1d4-460a-a3d1-6187a1ea65d2","system_id":"levelo_inurba_marseille","lat":43.33731,"lon":5.39176,"is_reserved":false,"is_disabled":false,"rental_uris":{"android":"levelo://app?vid=72fc020d-a1d4-460a-a3d1-6187a1ea65d2","ios":"levelo://app?vid=72fc020d-a1d4-460a-a3d1-6187a1ea65d2"},"vehicle_type_id":"4","last_reported":1692565500,"current_range_meters":21600,"station_id":"ce4bhr92rcd13ifvqhsg","pricing_plan_id":"free"},{"bike_id":"8bd09c71-02ae-4371-8b55-ce1e7e2bf2df","system_id":"levelo_inurba_marseille","lat":43.33728,"lon":5.39182,"is_reserved":false,"is_disabled":false,"rental_uris":{"android":"levelo://app?vid=8bd09c71-02ae-4371-8b55-ce1e7e2bf2df","ios":"levelo://app?vid=8bd09c71-02ae-4371-8b55-ce1e7e2bf2df"},"vehicle_type_id":"4","last_reported":1692565500,"current_range_meters":24400,"station_id":"ce4bhr92rcd13ifvqhsg","pricing_plan_id":"free"},{"bike_id":"02f29c2d-847e-4148-9200-bdb4c19acc46","system_id":"levelo_inurba_marseille","lat":43.33727,"lon":5.39184,"is_reserved":false,"is_disabled":false,"rental_uris":{"android":"levelo://app?vid=02f29c2d-847e-4148-9200-bdb4c19acc46","ios":"levelo://app?vid=02f29c2d-847e-4148-9200-bdb4c19acc46"},"vehicle_type_id":"4","last_reported":1692565500,"current_range_meters":24400,"station_id":"ce4bhr92rcd13ifvqhsg","pricing_plan_id":"free"},{"bike_id":"c24cecf2-0503-470c-b3d3-fc37f377f710","system_id":"levelo_inurba_marseille","lat":43.33729,"lon":5.39181,"is_reserved":false,"is_disabled":false,"rental_uris":{"android":"levelo://app?vid=c24cecf2-0503-470c-b3d3-fc37f377f710","ios":"levelo://app?vid=c24cecf2-0503-470c-b3d3-fc37f377f710"},"vehicle_type_id":"4","last_reported":1692565500,"current_range_meters":23600,"station_id":"ce4bhr92rcd13ifvqhsg","pricing_plan_id":"free"},{"bike_id":"727bd905-5135-4c2a-9579-e388244da342","system_id":"levelo_inurba_marseille","lat":43.28858,"lon":5.39301,"is_reserved":false,"is_disabled":false,"rental_uris":{"android":"levelo://app?vid=727bd905-5135-4c2a-9579-e388244da342","ios":"levelo://app?vid=727bd905-5135-4c2a-9579-e388244da342"},"vehicle_type_id":"4","last_reported":1692565500,"current_range_meters":28400,"station_id":"ce4bh2p2rcd13ifvqdi0","pricing_plan_id":"free"},{"bike_id":"5148f752-41ce-47af-9cf0-c7d7813fcef0","system_id":"levelo_inurba_marseille","lat":43.297946,"lon":5.404063,"is_reserved":false,"is_disabled":false,"rental_uris":{"android":"levelo://app?vid=5148f752-41ce-47af-9cf0-c7d7813fcef0","ios":"levelo://app?vid=5148f752-41ce-47af-9cf0-c7d7813fcef0"},"vehicle_type_id":"4","last_reported":1692565500,"current_range_meters":28400,"station_id":"ce4bh112rcd13ifvqd90","pricing_plan_id":"free"},{"bike_id":"d7e63771-c64e-440c-8b13-5b05af596368","system_id":"levelo_inurba_marseille","lat":43.288458,"lon":5.39307,"is_reserved":false,"is_disabled":false,"rental_uris":{"android":"levelo://app?vid=d7e63771-c64e-440c-8b13-5b05af596368","ios":"levelo://app?vid=d7e63771-c64e-440c-8b13-5b05af596368"},"vehicle_type_id":"4","last_reported":1692565500,"current_range_meters":28000,"station_id":"ce4bh2p2rcd13ifvqdi0","pricing_plan_id":"free"},{"bike_id":"dc14a2e4-943f-4f50-9c02-70f5765f5924","system_id":"levelo_inurba_marseille","lat":43.28848,"lon":5.39314,"is_reserved":false,"is_disabled":false,"rental_uris":{"android":"levelo://app?vid=dc14a2e4-943f-4f50-9c02-70f5765f5924","ios":"levelo://app?vid=dc14a2e4-943f-4f50-9c02-70f5765f5924"},"vehicle_type_id":"4","last_reported":1692565500,"current_range_meters":0,"station_id":"ce4bh2p2rcd13ifvqdi0","pricing_plan_id":"free"},{"bike_id":"ca39c31a-6e62-4791-a6f6-d6ee6f8e5e5e","system_id":"levelo_inurba_marseille","lat":43.288501,"lon":5.393087,"is_reserved":false,"is_disabled":false,"rental_uris":{"android":"levelo://app?vid=ca39c31a-6e62-4791-a6f6-d6ee6f8e5e5e","ios":"levelo://app?vid=ca39c31a-6e62-4791-a6f6-d6ee6f8e5e5e"},"vehicle_type_id":"4","last_reported":1692565500,"current_range_meters":2800,"station_id":"ce4bh2p2rcd13ifvqdi0","pricing_plan_id":"free"},{"bike_id":"c761bfc6-19dc-497e-81e9-e64856bcf106","system_id":"levelo_inurba_marseille","lat":43.283494,"lon":5.380945,"is_reserved":false,"is_disabled":false,"rental_uris":{"android":"levelo://app?vid=c761bfc6-19dc-497e-81e9-e64856bcf106","ios":"levelo://app?vid=c761bfc6-19dc-497e-81e9-e64856bcf106"},"vehicle_type_id":"4","last_reported":1692565500,"current_range_meters":6800,"station_id":"ce4bh412rcd13ifvqdr0","pricing_plan_id":"free"},{"bike_id":"2f473406-8096-42d5-a1bc-550753c08ff7","system_id":"levelo_inurba_marseille","lat":43.283494,"lon":5.380945,"is_reserved":false,"is_disabled":false,"rental_uris":{"android":"levelo://app?vid=2f473406-8096-42d5-a1bc-550753c08ff7","ios":"levelo://app?vid=2f473406-8096-42d5-a1bc-550753c08ff7"},"vehicle_type_id":"4","last_reported":1692565500,"current_range_meters":3200,"station_id":"ce4bh412rcd13ifvqdr0","pricing_plan_id":"free"},{"bike_id":"f50aca5f-cf5b-4020-925f-826a2e34874f","system_id":"levelo_inurba_marseille","lat":43.289363,"lon":5.396322,"is_reserved":false,"is_disabled":false,"rental_uris":{"android":"levelo://app?vid=f50aca5f-cf5b-4020-925f-826a2e34874f","ios":"levelo://app?vid=f50aca5f-cf5b-4020-925f-826a2e34874f"},"vehicle_type_id":"4","last_reported":1692565500,"current_range_meters":31600,"station_id":"ce4bh3h2rcd13ifvqdn0","pricing_plan_id":"free"},{"bike_id":"11aeb756-5079-4f5e-9dfd-e4c45d31e93e","system_id":"levelo_inurba_marseille","lat":43.289363,"lon":5.396322,"is_reserved":false,"is_disabled":false,"rental_uris":{"android":"levelo://app?vid=11aeb756-5079-4f5e-9dfd-e4c45d31e93e","ios":"levelo://app?vid=11aeb756-5079-4f5e-9dfd-e4c45d31e93e"},"vehicle_type_id":"4","last_reported":1692565500,"current_range_meters":2000,"station_id":"ce4bh3h2rcd13ifvqdn0","pricing_plan_id":"free"},{"bike_id":"dce536b9-590d-44c0-b8ac-fe75971ed015","system_id":"levelo_inurba_marseille","lat":43.289363,"lon":5.396322,"is_reserved":false,"is_disabled":false,"rental_uris":{"android":"levelo://app?vid=dce536b9-590d-44c0-b8ac-fe75971ed015","ios":"levelo://app?vid=dce536b9-590d-44c0-b8ac-fe75971ed015"},"vehicle_type_id":"4","last_reported":1692565500,"current_range_meters":11200,"station_id":"ce4bh3h2rcd13ifvqdn0","pricing_plan_id":"free"},{"bike_id":"fe41b19c-0b61-44c0-9ddc-b4c13bb57404","system_id":"levelo_inurba_marseille","lat":43.292724,"lon":5.401131,"is_reserved":false,"is_disabled":false,"rental_uris":{"android":"levelo://app?vid=fe41b19c-0b61-44c0-9ddc-b4c13bb57404","ios":"levelo://app?vid=fe41b19c-0b61-44c0-9ddc-b4c13bb57404"},"vehicle_type_id":"4","last_reported":1692565500,"current_range_meters":10400,"station_id":"ce4bh312rcd13ifvqdk0","pricing_plan_id":"free"},{"bike_id":"ec9e15e1-a9c4-45d5-b907-eea5a2d272e6","system_id":"levelo_inurba_marseille","lat":43.292724,"lon":5.401131,"is_reserved":false,"is_disabled":false,"rental_uris":{"android":"levelo://app?vid=ec9e15e1-a9c4-45d5-b907-eea5a2d272e6","ios":"levelo://app?vid=ec9e15e1-a9c4-45d5-b907-eea5a2d272e6"},"vehicle_type_id":"4","last_reported":1692565500,"current_range_meters":6800,"station_id":"ce4bh312rcd13ifvqdk0","pricing_plan_id":"free"},{"bike_id":"5cec26ac-344f-432b-af34-450b75305b9b","system_id":"levelo_inurba_marseille","lat":43.29283,"lon":5.40127,"is_reserved":false,"is_disabled":false,"rental_uris":{"android":"levelo://app?vid=5cec26ac-344f-432b-af34-450b75305b9b","ios":"levelo://app?vid=5cec26ac-344f-432b-af34-450b75305b9b"},"vehicle_type_id":"4","last_reported":1692565500,"current_range_meters":31200,"station_id":"ce4bh312rcd13ifvqdk0","pricing_plan_id":"free"},{"bike_id":"160240de-b2d7-40c0-bd71-9e0ef6ae494b","system_id":"levelo_inurba_marseille","lat":43.29274,"lon":5.40118,"is_reserved":false,"is_disabled":false,"rental_uris":{"android":"levelo://app?vid=160240de-b2d7-40c0-bd71-9e0ef6ae494b","ios":"levelo://app?vid=160240de-b2d7-40c0-bd71-9e0ef6ae494b"},"vehicle_type_id":"4","last_reported":1692565500,"current_range_meters":0,"station_id":"ce4bh312rcd13ifvqdk0","pricing_plan_id":"free"},{"bike_id":"8f9c45c9-0f83-4ea6-aa31-f1598d14fa54","system_id":"levelo_inurba_marseille","lat":43.29272,"lon":5.40119,"is_reserved":false,"is_disabled":false,"rental_uris":{"android":"levelo://app?vid=8f9c45c9-0f83-4ea6-aa31-f1598d14fa54","ios":"levelo://app?vid=8f9c45c9-0f83-4ea6-aa31-f1598d14fa54"},"vehicle_type_id":"4","last_reported":1692565500,"current_range_meters":22800,"station_id":"ce4bh312rcd13ifvqdk0","pricing_plan_id":"free"},{"bike_id":"91b8cf87-c29c-4d17-8974-cb53f38be316","system_id":"levelo_inurba_marseille","lat":43.292724,"lon":5.401131,"is_reserved":false,"is_disabled":false,"rental_uris":{"android":"levelo://app?vid=91b8cf87-c29c-4d17-8974-cb53f38be316","ios":"levelo://app?vid=91b8cf87-c29c-4d17-8974-cb53f38be316"},"vehicle_type_id":"4","last_reported":1692565500,"current_range_meters":14400,"station_id":"ce4bh312rcd13ifvqdk0","pricing_plan_id":"free"},{"bike_id":"128d228b-2162-4f51-8703-0f1c0af35064","system_id":"levelo_inurba_marseille","lat":43.292512,"lon":5.401396,"is_reserved":false,"is_disabled":false,"rental_uris":{"android":"levelo://app?vid=128d228b-2162-4f51-8703-0f1c0af35064","ios":"levelo://app?vid=128d228b-2162-4f51-8703-0f1c0af35064"},"vehicle_type_id":"4","last_reported":1692565500,"current_range_meters":0,"station_id":"ce4bh312rcd13ifvqdk0","pricing_plan_id":"free"},{"bike_id":"88940920-727e-47f8-bee6-24feedff1167","system_id":"levelo_inurba_marseille","lat":43.282744,"lon":5.350533,"is_reserved":false,"is_disabled":false,"rental_uris":{"android":"levelo://app?vid=88940920-727e-47f8-bee6-24feedff1167","ios":"levelo://app?vid=88940920-727e-47f8-bee6-24feedff1167"},"vehicle_type_id":"4","last_reported":1692565500,"current_range_meters":30000,"station_id":"ce4bhbp2rcd13ifvqerg","pricing_plan_id":"free"},{"bike_id":"c10fa3e2-3900-43c7-bc4f-3aa54d8b477f","system_id":"levelo_inurba_marseille","lat":43.283502,"lon":5.386471,"is_reserved":false,"is_disabled":false,"rental_uris":{"android":"levelo://app?vid=c10fa3e2-3900-43c7-bc4f-3aa54d8b477f","ios":"levelo://app?vid=c10fa3e2-3900-43c7-bc4f-3aa54d8b477f"},"vehicle_type_id":"4","last_reported":1692565500,"current_range_meters":11600,"station_id":"ce4bh492rcd13ifvqdvg","pricing_plan_id":"free"},{"bike_id":"9f46cfde-4f76-4076-bade-5765c2d3d473","system_id":"levelo_inurba_marseille","lat":43.28039,"lon":5.369297,"is_reserved":false,"is_disabled":false,"rental_uris":{"android":"levelo://app?vid=9f46cfde-4f76-4076-bade-5765c2d3d473","ios":"levelo://app?vid=9f46cfde-4f76-4076-bade-5765c2d3d473"},"vehicle_type_id":"4","last_reported":1692565500,"current_range_meters":32000,"station_id":"ce4bha12rcd13ifvqef0","pricing_plan_id":"free"},{"bike_id":"bc90c894-0931-4efc-bd75-a6493fcb49b0","system_id":"levelo_inurba_marseille","lat":43.281044,"lon":5.378308,"is_reserved":false,"is_disabled":false,"rental_uris":{"android":"levelo://app?vid=bc90c894-0931-4efc-bd75-a6493fcb49b0","ios":"levelo://app?vid=bc90c894-0931-4efc-bd75-a6493fcb49b0"},"vehicle_type_id":"4","last_reported":1692565500,"current_range_meters":13600,"station_id":"ce4bha12rcd13ifvqee0","pricing_plan_id":"free"},{"bike_id":"10e24c93-44c4-4004-867b-dcded8084f99","system_id":"levelo_inurba_marseille","lat":43.28106,"lon":5.37844,"is_reserved":false,"is_disabled":false,"rental_uris":{"android":"levelo://app?vid=10e24c93-44c4-4004-867b-dcded8084f99","ios":"levelo://app?vid=10e24c93-44c4-4004-867b-dcded8084f99"},"vehicle_type_id":"4","last_reported":1692565500,"current_range_meters":16400,"station_id":"ce4bha12rcd13ifvqee0","pricing_plan_id":"free"},{"bike_id":"7ae2e1cd-fac9-4ec4-8a0a-f49aa890c754","system_id":"levelo_inurba_marseille","lat":43.28103,"lon":5.3783,"is_reserved":false,"is_disabled":false,"rental_uris":{"android":"levelo://app?vid=7ae2e1cd-fac9-4ec4-8a0a-f49aa890c754","ios":"levelo://app?vid=7ae2e1cd-fac9-4ec4-8a0a-f49aa890c754"},"vehicle_type_id":"4","last_reported":1692565500,"current_range_meters":11200,"station_id":"ce4bha12rcd13ifvqee0","pricing_plan_id":"free"},{"bike_id":"e3ab4aee-2420-46cb-9b20-1e3740d94fed","system_id":"levelo_inurba_marseille","lat":43.281044,"lon":5.378308,"is_reserved":false,"is_disabled":false,"rental_uris":{"android":"levelo://app?vid=e3ab4aee-2420-46cb-9b20-1e3740d94fed","ios":"levelo://app?vid=e3ab4aee-2420-46cb-9b20-1e3740d94fed"},"vehicle_type_id":"4","last_reported":1692565500,"current_range_meters":3200,"station_id":"ce4bha12rcd13ifvqee0","pricing_plan_id":"free"},{"bike_id":"d4855cf6-74e1-4f5d-8e67-bb7eba1cb184","system_id":"levelo_inurba_marseille","lat":43.28103,"lon":5.37849,"is_reserved":false,"is_disabled":false,"rental_uris":{"android":"levelo://app?vid=d4855cf6-74e1-4f5d-8e67-bb7eba1cb184","ios":"levelo://app?vid=d4855cf6-74e1-4f5d-8e67-bb7eba1cb184"},"vehicle_type_id":"4","last_reported":1692565500,"current_range_meters":400,"station_id":"ce4bha12rcd13ifvqee0","pricing_plan_id":"free"},{"bike_id":"f8ef4f78-badc-40d1-a4a9-077301466e56","system_id":"levelo_inurba_marseille","lat":43.32662,"lon":5.40978,"is_reserved":false,"is_disabled":false,"rental_uris":{"android":"levelo://app?vid=f8ef4f78-badc-40d1-a4a9-077301466e56","ios":"levelo://app?vid=f8ef4f78-badc-40d1-a4a9-077301466e56"},"vehicle_type_id":"4","last_reported":1692565500,"current_range_meters":8000,"station_id":"ce4bhpp2rcd13ifvqhgg","pricing_plan_id":"free"},{"bike_id":"2fef9023-dae9-4f82-aa7f-f5cec869a92f","system_id":"levelo_inurba_marseille","lat":43.32658,"lon":5.40994,"is_reserved":false,"is_disabled":false,"rental_uris":{"android":"levelo://app?vid=2fef9023-dae9-4f82-aa7f-f5cec869a92f","ios":"levelo://app?vid=2fef9023-dae9-4f82-aa7f-f5cec869a92f"},"vehicle_type_id":"4","last_reported":1692565500,"current_range_meters":8000,"station_id":"ce4bhpp2rcd13ifvqhgg","pricing_plan_id":"free"},{"bike_id":"43f05797-d26d-42a5-9c35-0c2a25d10164","system_id":"levelo_inurba_marseille","lat":43.304188,"lon":5.412904,"is_reserved":false,"is_disabled":false,"rental_uris":{"android":"levelo://app?vid=43f05797-d26d-42a5-9c35-0c2a25d10164","ios":"levelo://app?vid=43f05797-d26d-42a5-9c35-0c2a25d10164"},"vehicle_type_id":"4","last_reported":1692565500,"current_range_meters":13600,"station_id":"ce4bhop2rcd13ifvqh8g","pricing_plan_id":"free"},{"bike_id":"7ae99015-6ac7-49c2-b9fb-b461dd7678a5","system_id":"levelo_inurba_marseille","lat":43.304188,"lon":5.412904,"is_reserved":false,"is_disabled":false,"rental_uris":{"android":"levelo://app?vid=7ae99015-6ac7-49c2-b9fb-b461dd7678a5","ios":"levelo://app?vid=7ae99015-6ac7-49c2-b9fb-b461dd7678a5"},"vehicle_type_id":"4","last_reported":1692565500,"current_range_meters":2800,"station_id":"ce4bhop2rcd13ifvqh8g","pricing_plan_id":"free"},{"bike_id":"62207ed7-2bb3-4a84-ae97-08e6a24132e0","system_id":"levelo_inurba_marseille","lat":43.279087,"lon":5.380114,"is_reserved":false,"is_disabled":false,"rental_uris":{"android":"levelo://app?vid=62207ed7-2bb3-4a84-ae97-08e6a24132e0","ios":"levelo://app?vid=62207ed7-2bb3-4a84-ae97-08e6a24132e0"},"vehicle_type_id":"4","last_reported":1692565500,"current_range_meters":20000,"station_id":"ce4bhf92rcd13ifvqf50","pricing_plan_id":"free"},{"bike_id":"7cc0ec12-34c0-451f-8dc3-fd4727cf417a","system_id":"levelo_inurba_marseille","lat":43.279087,"lon":5.380114,"is_reserved":false,"is_disabled":false,"rental_uris":{"android":"levelo://app?vid=7cc0ec12-34c0-451f-8dc3-fd4727cf417a","ios":"levelo://app?vid=7cc0ec12-34c0-451f-8dc3-fd4727cf417a"},"vehicle_type_id":"4","last_reported":1692565500,"current_range_meters":21600,"station_id":"ce4bhf92rcd13ifvqf50","pricing_plan_id":"free"},{"bike_id":"1a3a5cc5-6d8f-4968-bb8a-050b284b79ab","system_id":"levelo_inurba_marseille","lat":43.279087,"lon":5.380114,"is_reserved":false,"is_disabled":false,"rental_uris":{"android":"levelo://app?vid=1a3a5cc5-6d8f-4968-bb8a-050b284b79ab","ios":"levelo://app?vid=1a3a5cc5-6d8f-4968-bb8a-050b284b79ab"},"vehicle_type_id":"4","last_reported":1692565500,"current_range_meters":4000,"station_id":"ce4bhf92rcd13ifvqf50","pricing_plan_id":"free"},{"bike_id":"071a165e-b2af-4a91-aaf7-06ee39290172","system_id":"levelo_inurba_marseille","lat":43.279087,"lon":5.380114,"is_reserved":false,"is_disabled":false,"rental_uris":{"android":"levelo://app?vid=071a165e-b2af-4a91-aaf7-06ee39290172","ios":"levelo://app?vid=071a165e-b2af-4a91-aaf7-06ee39290172"},"vehicle_type_id":"4","last_reported":1692565500,"current_range_meters":13600,"station_id":"ce4bhf92rcd13ifvqf50","pricing_plan_id":"free"},{"bike_id":"f0331e0c-f18c-4ab4-b595-25481231c5a0","system_id":"levelo_inurba_marseille","lat":43.279087,"lon":5.380114,"is_reserved":false,"is_disabled":false,"rental_uris":{"android":"levelo://app?vid=f0331e0c-f18c-4ab4-b595-25481231c5a0","ios":"levelo://app?vid=f0331e0c-f18c-4ab4-b595-25481231c5a0"},"vehicle_type_id":"4","last_reported":1692565500,"current_range_meters":3600,"station_id":"ce4bhf92rcd13ifvqf50","pricing_plan_id":"free"},{"bike_id":"07cf4526-abf6-4434-8086-00582d13a818","system_id":"levelo_inurba_marseille","lat":43.279087,"lon":5.380114,"is_reserved":false,"is_disabled":false,"rental_uris":{"android":"levelo://app?vid=07cf4526-abf6-4434-8086-00582d13a818","ios":"levelo://app?vid=07cf4526-abf6-4434-8086-00582d13a818"},"vehicle_type_id":"4","last_reported":1692565500,"current_range_meters":3600,"station_id":"ce4bhf92rcd13ifvqf50","pricing_plan_id":"free"},{"bike_id":"0840e4a7-78ed-424e-8b3a-8d6664b678a9","system_id":"levelo_inurba_marseille","lat":43.287154,"lon":5.399979,"is_reserved":false,"is_disabled":false,"rental_uris":{"android":"levelo://app?vid=0840e4a7-78ed-424e-8b3a-8d6664b678a9","ios":"levelo://app?vid=0840e4a7-78ed-424e-8b3a-8d6664b678a9"},"vehicle_type_id":"4","last_reported":1692565500,"current_range_meters":15200,"station_id":"ce4bho92rcd13ifvqh3g","pricing_plan_id":"free"},{"bike_id":"aedbd40d-68b6-467d-9b82-2508dd2af155","system_id":"levelo_inurba_marseille","lat":43.287154,"lon":5.399979,"is_reserved":false,"is_disabled":false,"rental_uris":{"android":"levelo://app?vid=aedbd40d-68b6-467d-9b82-2508dd2af155","ios":"levelo://app?vid=aedbd40d-68b6-467d-9b82-2508dd2af155"},