{"last_updated":1701947188,"ttl":30,"version":"2.2","data":{"bikes":[{"bike_id":"6f08718a-8324-40bd-9496-89e7238df4ef","system_id":"levelo_inurba_marseille","lat":43.313391,"lon":5.36706,"is_reserved":false,"is_disabled":false,"rental_uris":{"android":"levelo://app?vid=6f08718a-8324-40bd-9496-89e7238df4ef","ios":"levelo://app?vid=6f08718a-8324-40bd-9496-89e7238df4ef"},"vehicle_type_id":"4","last_reported":1701947188,"current_range_meters":28000,"station_id":"ce4bgr92rcd13ifvqc6g","pricing_plan_id":"free"},{"bike_id":"6d63928c-e42d-4622-9a66-dd9b0a6791bf","system_id":"levelo_inurba_marseille","lat":43.313489,"lon":5.367104,"is_reserved":false,"is_disabled":false,"rental_uris":{"android":"levelo://app?vid=6d63928c-e42d-4622-9a66-dd9b0a6791bf","ios":"levelo://app?vid=6d63928c-e42d-4622-9a66-dd9b0a6791bf"},"vehicle_type_id":"4","last_reported":1701947188,"current_range_meters":30000,"station_id":"ce4bgr92rcd13ifvqc6g","pricing_plan_id":"free"},{"bike_id":"7c70633e-c74d-4a61-b7d1-1ae69f04fc9a","system_id":"levelo_inurba_marseille","lat":43.313569,"lon":5.367296,"is_reserved":false,"is_disabled":false,"rental_uris":{"android":"levelo://app?vid=7c70633e-c74d-4a61-b7d1-1ae69f04fc9a","ios":"levelo://app?vid=7c70633e-c74d-4a61-b7d1-1ae69f04fc9a"},"vehicle_type_id":"4","last_reported":1701947188,"current_range_meters":0,"station_id":"ce4bgr92rcd13ifvqc6g","pricing_plan_id":"free"},{"bike_id":"e94c3050-0364-4bb9-8d86-cc49c5e2ab27","system_id":"levelo_inurba_marseille","lat":43.309076,"lon":5.368465,"is_reserved":false,"is_disabled":false,"rental_uris":{"android":"levelo://app?vid=e94c3050-0364-4bb9-8d86-cc49c5e2ab27","ios":"levelo://app?vid=e94c3050-0364-4bb9-8d86-cc49c5e2ab27"},"vehicle_type_id":"4","last_reported":1701947188,"current_range_meters":30800,"station_id":"ce4bgn92rcd13ifvqbvg","pricing_plan_id":"free"},{"bike_id":"a5e74075-f518-4d0d-b662-356c7cdece66","system_id":"levelo_inurba_marseille","lat":43.309076,"lon":5.368465,"is_reserved":false,"is_disabled":false,"rental_uris":{"android":"levelo://app?vid=a5e74075-f518-4d0d-b662-356c7cdece66","ios":"levelo://app?vid=a5e74075-f518-4d0d-b662-356c7cdece66"},"vehicle_type_id":"4","last_reported":1701947188,"current_range_meters":31200,"station_id":"ce4bgn92rcd13ifvqbvg","pricing_plan_id":"free"},{"bike_id":"9635cede-26cd-4f4e-8cd2-13220ef3820c","system_id":"levelo_inurba_marseille","lat":43.309076,"lon":5.368465,"is_reserved":false,"is_disabled":false,"rental_uris":{"android":"levelo://app?vid=9635cede-26cd-4f4e-8cd2-13220ef3820c","ios":"levelo://app?vid=9635cede-26cd-4f4e-8cd2-13220ef3820c"},"vehicle_type_id":"4","last_reported":1701947188,"current_range_meters":24400,"station_id":"ce4bgn92rcd13ifvqbvg","pricing_plan_id":"free"},{"bike_id":"5c49b4d1-b8e6-4763-8fb1-b3f8819fa983","system_id":"levelo_inurba_marseille","lat":43.309076,"lon":5.368465,"is_reserved":false,"is_disabled":false,"rental_uris":{"android":"levelo://app?vid=5c49b4d1-b8e6-4763-8fb1-b3f8819fa983","ios":"levelo://app?vid=5c49b4d1-b8e6-4763-8fb1-b3f8819fa983"},"vehicle_type_id":"4","last_reported":1701947188,"current_range_meters":24800,"station_id":"ce4bgn92rcd13ifvqbvg","pricing_plan_id":"free"},{"bike_id":"a7925edc-ad9a-488b-b971-1364fb7a2ffd","system_id":"levelo_inurba_marseille","lat":43.309076,"lon":5.368465,"is_reserved":false,"is_disabled":false,"rental_uris":{"android":"levelo://app?vid=a7925edc-ad9a-488b-b971-1364fb7a2ffd","ios":"levelo://app?vid=a7925edc-ad9a-488b-b971-1364fb7a2ffd"},"vehicle_type_id":"4","last_reported":1701947188,"current_range_meters":31200,"station_id":"ce4bgn92rcd13ifvqbvg","pricing_plan_id":"free"},{"bike_id":"8bb1cf9a-2a7d-44ad-96d1-4abef2cefa22","system_id":"levelo_inurba_marseille","lat":43.309076,"lon":5.368465,"is_reserved":false,"is_disabled":false,"rental_uris":{"android":"levelo://app?vid=8bb1cf9a-2a7d-44ad-96d1-4abef2cefa22","ios":"levelo://app?vid=8bb1cf9a-2a7d-44ad-96d1-4abef2cefa22"},"vehicle_type_id":"4","last_reported":1701947188,"current_range_meters":31600,"station_id":"ce4bgn92rcd13ifvqbvg","pricing_plan_id":"free"},{"bike_id":"a50ea77e-6623-4c6f-87f6-a0c366886c29","system_id":"levelo_inurba_marseille","lat":43.309076,"lon":5.368465,"is_reserved":false,"is_disabled":false,"rental_uris":{"android":"levelo://app?vid=a50ea77e-6623-4c6f-87f6-a0c366886c29","ios":"levelo://app?vid=a50ea77e-6623-4c6f-87f6-a0c366886c29"},"vehicle_type_id":"4","last_reported":1701947188,"current_range_meters":29600,"station_id":"ce4bgn92rcd13ifvqbvg","pricing_plan_id":"free"},{"bike_id":"2073726f-ebd7-4070-839d-e61af8dfe928","system_id":"levelo_inurba_marseille","lat":43.309039,"lon":5.371797,"is_reserved":false,"is_disabled":false,"rental_uris":{"android":"levelo://app?vid=2073726f-ebd7-4070-839d-e61af8dfe928","ios":"levelo://app?vid=2073726f-ebd7-4070-839d-e61af8dfe928"},"vehicle_type_id":"4","last_reported":1701947188,"current_range_meters":16400,"station_id":"ce4bguh2rcd13ifvqckg","pricing_plan_id":"free"},{"bike_id":"fd36f5a6-9f98-44cb-b477-28ba29dc398c","system_id":"levelo_inurba_marseille","lat":43.305714,"lon":5.365633,"is_reserved":false,"is_disabled":false,"rental_uris":{"android":"levelo://app?vid=fd36f5a6-9f98-44cb-b477-28ba29dc398c","ios":"levelo://app?vid=fd36f5a6-9f98-44cb-b477-28ba29dc398c"},"vehicle_type_id":"4","last_reported":1701947188,"current_range_meters":25600,"station_id":"ce4bgs12rcd13ifvqcag","pricing_plan_id":"free"},{"bike_id":"38a575f5-6e8c-41c2-a490-722256a48f49","system_id":"levelo_inurba_marseille","lat":43.305712,"lon":5.365641,"is_reserved":false,"is_disabled":false,"rental_uris":{"android":"levelo://app?vid=38a575f5-6e8c-41c2-a490-722256a48f49","ios":"levelo://app?vid=38a575f5-6e8c-41c2-a490-722256a48f49"},"vehicle_type_id":"4","last_reported":1701947188,"current_range_meters":26400,"station_id":"ce4bgs12rcd13ifvqcag","pricing_plan_id":"free"},{"bike_id":"a3cf0ca5-4974-404b-8e4e-649012e850ca","system_id":"levelo_inurba_marseille","lat":43.305706,"lon":5.365654,"is_reserved":false,"is_disabled":false,"rental_uris":{"android":"levelo://app?vid=a3cf0ca5-4974-404b-8e4e-649012e850ca","ios":"levelo://app?vid=a3cf0ca5-4974-404b-8e4e-649012e850ca"},"vehicle_type_id":"4","last_reported":1701947188,"current_range_meters":7600,"station_id":"ce4bgs12rcd13ifvqcag","pricing_plan_id":"free"},{"bike_id":"e9e4f3a1-bf31-4d71-8ef7-29ee78726da9","system_id":"levelo_inurba_marseille","lat":43.305989,"lon":5.37225,"is_reserved":false,"is_disabled":false,"rental_uris":{"android":"levelo://app?vid=e9e4f3a1-bf31-4d71-8ef7-29ee78726da9","ios":"levelo://app?vid=e9e4f3a1-bf31-4d71-8ef7-29ee78726da9"},"vehicle_type_id":"4","last_reported":1701947188,"current_range_meters":5600,"station_id":"ce4bgqh2rcd13ifvqc4g","pricing_plan_id":"free"},{"bike_id":"ed8eeb40-a9c9-4863-b898-68a584120512","system_id":"levelo_inurba_marseille","lat":43.305989,"lon":5.37225,"is_reserved":false,"is_disabled":false,"rental_uris":{"android":"levelo://app?vid=ed8eeb40-a9c9-4863-b898-68a584120512","ios":"levelo://app?vid=ed8eeb40-a9c9-4863-b898-68a584120512"},"vehicle_type_id":"4","last_reported":1701947188,"current_range_meters":17600,"station_id":"ce4bgqh2rcd13ifvqc4g","pricing_plan_id":"free"},{"bike_id":"1540c264-7203-4024-b9bb-ebf479968ff3","system_id":"levelo_inurba_marseille","lat":43.305989,"lon":5.37225,"is_reserved":false,"is_disabled":false,"rental_uris":{"android":"levelo://app?vid=1540c264-7203-4024-b9bb-ebf479968ff3","ios":"levelo://app?vid=1540c264-7203-4024-b9bb-ebf479968ff3"},"vehicle_type_id":"4","last_reported":1701947188,"current_range_meters":2800,"station_id":"ce4bgqh2rcd13ifvqc4g","pricing_plan_id":"free"},{"bike_id":"00232a32-f4d8-40f9-833c-7bc18f56f88a","system_id":"levelo_inurba_marseille","lat":43.307833,"lon":5.376488,"is_reserved":false,"is_disabled":false,"rental_uris":{"android":"levelo://app?vid=00232a32-f4d8-40f9-833c-7bc18f56f88a","ios":"levelo://app?vid=00232a32-f4d8-40f9-833c-7bc18f56f88a"},"vehicle_type_id":"4","last_reported":1701947188,"current_range_meters":11200,"station_id":"","pricing_plan_id":"free"},{"bike_id":"6ab9761b-18dc-423f-b86f-2018dded1b8a","system_id":"levelo_inurba_marseille","lat":43.30812,"lon":5.37678,"is_reserved":false,"is_disabled":false,"rental_uris":{"android":"levelo://app?vid=6ab9761b-18dc-423f-b86f-2018dded1b8a","ios":"levelo://app?vid=6ab9761b-18dc-423f-b86f-2018dded1b8a"},"vehicle_type_id":"4","last_reported":1701947188,"current_range_meters":22000,"station_id":"ce4bgv92rcd13ifvqcq0","pricing_plan_id":"free"},{"bike_id":"14cd0391-dcc8-443a-a923-178e412f0b41","system_id":"levelo_inurba_marseille","lat":43.317075,"lon":5.377367,"is_reserved":false,"is_disabled":false,"rental_uris":{"android":"levelo://app?vid=14cd0391-dcc8-443a-a923-178e412f0b41","ios":"levelo://app?vid=14cd0391-dcc8-443a-a923-178e412f0b41"},"vehicle_type_id":"4","last_reported":1701947188,"current_range_meters":28400,"station_id":"ce4bgth2rcd13ifvqch0","pricing_plan_id":"free"},{"bike_id":"adf146c5-e4e1-4668-9a33-042940925130","system_id":"levelo_inurba_marseille","lat":43.31351,"lon":5.37909,"is_reserved":false,"is_disabled":false,"rental_uris":{"android":"levelo://app?vid=adf146c5-e4e1-4668-9a33-042940925130","ios":"levelo://app?vid=adf146c5-e4e1-4668-9a33-042940925130"},"vehicle_type_id":"4","last_reported":1701947188,"current_range_meters":2800,"station_id":"","pricing_plan_id":"free"},{"bike_id":"19c04305-cb5d-4155-bf23-90541b475f14","system_id":"levelo_inurba_marseille","lat":43.30304,"lon":5.368987,"is_reserved":false,"is_disabled":false,"rental_uris":{"android":"levelo://app?vid=19c04305-cb5d-4155-bf23-90541b475f14","ios":"levelo://app?vid=19c04305-cb5d-4155-bf23-90541b475f14"},"vehicle_type_id":"4","last_reported":1701947188,"current_range_meters":18400,"station_id":"ce4bgqh2rcd13ifvqc5g","pricing_plan_id":"free"},{"bike_id":"b802e16d-40ee-4538-91ef-6ddc5e0ccfb5","system_id":"levelo_inurba_marseille","lat":43.30304,"lon":5.368987,"is_reserved":false,"is_disabled":false,"rental_uris":{"android":"levelo://app?vid=b802e16d-40ee-4538-91ef-6ddc5e0ccfb5","ios":"levelo://app?vid=b802e16d-40ee-4538-91ef-6ddc5e0ccfb5"},"vehicle_type_id":"4","last_reported":1701947188,"current_range_meters":13600,"station_id":"ce4bgqh2rcd13ifvqc5g","pricing_plan_id":"free"},{"bike_id":"b0f3b03a-f67b-411e-8d4c-bb4f2789cdd0","system_id":"levelo_inurba_marseille","lat":43.30304,"lon":5.368987,"is_reserved":false,"is_disabled":false,"rental_uris":{"android":"levelo://app?vid=b0f3b03a-f67b-411e-8d4c-bb4f2789cdd0","ios":"levelo://app?vid=b0f3b03a-f67b-411e-8d4c-bb4f2789cdd0"},"vehicle_type_id":"4","last_reported":1701947188,"current_range_meters":31200,"station_id":"ce4bgqh2rcd13ifvqc5g","pricing_plan_id":"free"},{"bike_id":"00e34245-dc8e-471f-b3a2-1e7546744824","system_id":"levelo_inurba_marseille","lat":43.30304,"lon":5.368987,"is_reserved":false,"is_disabled":false,"rental_uris":{"android":"levelo://app?vid=00e34245-dc8e-471f-b3a2-1e7546744824","ios":"levelo://app?vid=00e34245-dc8e-471f-b3a2-1e7546744824"},"vehicle_type_id":"4","last_reported":1701947188,"current_range_meters":31200,"station_id":"ce4bgqh2rcd13ifvqc5g","pricing_plan_id":"free"},{"bike_id":"1ea60f58-75f7-4484-b705-1156df4b02ad","system_id":"levelo_inurba_marseille","lat":43.302816,"lon":5.373436,"is_reserved":false,"is_disabled":false,"rental_uris":{"android":"levelo://app?vid=1ea60f58-75f7-4484-b705-1156df4b02ad","ios":"levelo://app?vid=1ea60f58-75f7-4484-b705-1156df4b02ad"},"vehicle_type_id":"4","last_reported":1701947188,"current_range_meters":5200,"station_id":"","pricing_plan_id":"free"},{"bike_id":"1c3409b6-3ef7-4201-9477-ace56ebe0ee1","system_id":"levelo_inurba_marseille","lat":43.30463,"lon":5.37896,"is_reserved":false,"is_disabled":false,"rental_uris":{"android":"levelo://app?vid=1c3409b6-3ef7-4201-9477-ace56ebe0ee1","ios":"levelo://app?vid=1c3409b6-3ef7-4201-9477-ace56ebe0ee1"},"vehicle_type_id":"4","last_reported":1701947188,"current_range_meters":0,"station_id":"ce4bgup2rcd13ifvqcn0","pricing_plan_id":"free"},{"bike_id":"e6a7946c-a7d5-4369-b254-577b631c8d1a","system_id":"levelo_inurba_marseille","lat":43.31723,"lon":5.38245,"is_reserved":false,"is_disabled":false,"rental_uris":{"android":"levelo://app?vid=e6a7946c-a7d5-4369-b254-577b631c8d1a","ios":"levelo://app?vid=e6a7946c-a7d5-4369-b254-577b631c8d1a"},"vehicle_type_id":"4","last_reported":1701947188,"current_range_meters":25600,"station_id":"","pricing_plan_id":"free"},{"bike_id":"44b639d4-c394-49b2-9e18-6098ae373bd6","system_id":"levelo_inurba_marseille","lat":43.31932,"lon":5.38124,"is_reserved":false,"is_disabled":false,"rental_uris":{"android":"levelo://app?vid=44b639d4-c394-49b2-9e18-6098ae373bd6","ios":"levelo://app?vid=44b639d4-c394-49b2-9e18-6098ae373bd6"},"vehicle_type_id":"4","last_reported":1701947188,"current_range_meters":30000,"station_id":"","pricing_plan_id":"free"},{"bike_id":"ecb39d10-7d8b-42ff-86f5-b86912cde87c","system_id":"levelo_inurba_marseille","lat":43.30144,"lon":5.37415,"is_reserved":false,"is_disabled":false,"rental_uris":{"android":"levelo://app?vid=ecb39d10-7d8b-42ff-86f5-b86912cde87c","ios":"levelo://app?vid=ecb39d10-7d8b-42ff-86f5-b86912cde87c"},"vehicle_type_id":"4","last_reported":1701947188,"current_range_meters":30800,"station_id":"ce4bgs92rcd13ifvqcc0","pricing_plan_id":"free"},{"bike_id":"92bee97e-c2dc-4a91-9f35-83b301eb6171","system_id":"levelo_inurba_marseille","lat":43.30144,"lon":5.37424,"is_reserved":false,"is_disabled":false,"rental_uris":{"android":"levelo://app?vid=92bee97e-c2dc-4a91-9f35-83b301eb6171","ios":"levelo://app?vid=92bee97e-c2dc-4a91-9f35-83b301eb6171"},"vehicle_type_id":"4","last_reported":1701947188,"current_range_meters":30400,"station_id":"ce4bgs92rcd13ifvqcc0","pricing_plan_id":"free"},{"bike_id":"1d0c4827-0252-48af-b246-ff25addf8bbc","system_id":"levelo_inurba_marseille","lat":43.30143,"lon":5.37413,"is_reserved":false,"is_disabled":false,"rental_uris":{"android":"levelo://app?vid=1d0c4827-0252-48af-b246-ff25addf8bbc","ios":"levelo://app?vid=1d0c4827-0252-48af-b246-ff25addf8bbc"},"vehicle_type_id":"4","last_reported":1701947188,"current_range_meters":24800,"station_id":"ce4bgs92rcd13ifvqcc0","pricing_plan_id":"free"},{"bike_id":"9ee0ef7a-8d9c-4d78-8ae5-64e12b708d26","system_id":"levelo_inurba_marseille","lat":43.319997,"lon":5.381594,"is_reserved":false,"is_disabled":false,"rental_uris":{"android":"levelo://app?vid=9ee0ef7a-8d9c-4d78-8ae5-64e12b708d26","ios":"levelo://app?vid=9ee0ef7a-8d9c-4d78-8ae5-64e12b708d26"},"vehicle_type_id":"4","last_reported":1701947188,"current_range_meters":0,"station_id":"ce4bhr12rcd13ifvqhpg","pricing_plan_id":"free"},{"bike_id":"299b293d-9c7e-4cdd-84f8-c666ae79a737","system_id":"levelo_inurba_marseille","lat":43.29981,"lon":5.37178,"is_reserved":false,"is_disabled":false,"rental_uris":{"android":"levelo://app?vid=299b293d-9c7e-4cdd-84f8-c666ae79a737","ios":"levelo://app?vid=299b293d-9c7e-4cdd-84f8-c666ae79a737"},"vehicle_type_id":"4","last_reported":1701947188,"current_range_meters":4800,"station_id":"ce4bgr92rcd13ifvqc7g","pricing_plan_id":"free"},{"bike_id":"6ac70976-1d6d-4f4f-a632-78a21488b275","system_id":"levelo_inurba_marseille","lat":43.2998,"lon":5.37175,"is_reserved":false,"is_disabled":false,"rental_uris":{"android":"levelo://app?vid=6ac70976-1d6d-4f4f-a632-78a21488b275","ios":"levelo://app?vid=6ac70976-1d6d-4f4f-a632-78a21488b275"},"vehicle_type_id":"4","last_reported":1701947188,"current_range_meters":20400,"station_id":"ce4bgr92rcd13ifvqc7g","pricing_plan_id":"free"},{"bike_id":"9ae651cb-d71b-41d7-b7ba-493405764c0d","system_id":"levelo_inurba_marseille","lat":43.29979,"lon":5.37177,"is_reserved":false,"is_disabled":false,"rental_uris":{"android":"levelo://app?vid=9ae651cb-d71b-41d7-b7ba-493405764c0d","ios":"levelo://app?vid=9ae651cb-d71b-41d7-b7ba-493405764c0d"},"vehicle_type_id":"4","last_reported":1701947188,"current_range_meters":23200,"station_id":"ce4bgr92rcd13ifvqc7g","pricing_plan_id":"free"},{"bike_id":"5d093bd4-c3af-473f-8bf3-227c08284f65","system_id":"levelo_inurba_marseille","lat":43.299724,"lon":5.371829,"is_reserved":false,"is_disabled":false,"rental_uris":{"android":"levelo://app?vid=5d093bd4-c3af-473f-8bf3-227c08284f65","ios":"levelo://app?vid=5d093bd4-c3af-473f-8bf3-227c08284f65"},"vehicle_type_id":"4","last_reported":1701947188,"current_range_meters":16800,"station_id":"ce4bgr92rcd13ifvqc7g","pricing_plan_id":"free"},{"bike_id":"3cec4d17-b3bb-499e-b814-99cb08f42894","system_id":"levelo_inurba_marseille","lat":43.29966,"lon":5.37175,"is_reserved":false,"is_disabled":false,"rental_uris":{"android":"levelo://app?vid=3cec4d17-b3bb-499e-b814-99cb08f42894","ios":"levelo://app?vid=3cec4d17-b3bb-499e-b814-99cb08f42894"},"vehicle_type_id":"4","last_reported":1701947188,"current_range_meters":25600,"station_id":"ce4bgr92rcd13ifvqc7g","pricing_plan_id":"free"},{"bike_id":"6a41068a-300a-41e2-aa00-c23646a1b436","system_id":"levelo_inurba_marseille","lat":43.298433,"lon":5.362774,"is_reserved":false,"is_disabled":false,"rental_uris":{"android":"levelo://app?vid=6a41068a-300a-41e2-aa00-c23646a1b436","ios":"levelo://app?vid=6a41068a-300a-41e2-aa00-c23646a1b436"},"vehicle_type_id":"4","last_reported":1701947188,"current_range_meters":30000,"station_id":"ce4bgpp2rcd13ifvqc3g","pricing_plan_id":"free"},{"bike_id":"3fa1e145-12bd-4b72-b842-be7aafc9e95a","system_id":"levelo_inurba_marseille","lat":43.298433,"lon":5.362774,"is_reserved":false,"is_disabled":false,"rental_uris":{"android":"levelo://app?vid=3fa1e145-12bd-4b72-b842-be7aafc9e95a","ios":"levelo://app?vid=3fa1e145-12bd-4b72-b842-be7aafc9e95a"},"vehicle_type_id":"4","last_reported":1701947188,"current_range_meters":27600,"station_id":"ce4bgpp2rcd13ifvqc3g","pricing_plan_id":"free"},{"bike_id":"7d1cff4c-ccf2-4c50-90cb-2c31208e7da7","system_id":"levelo_inurba_marseille","lat":43.298433,"lon":5.362774,"is_reserved":false,"is_disabled":false,"rental_uris":{"android":"levelo://app?vid=7d1cff4c-ccf2-4c50-90cb-2c31208e7da7","ios":"levelo://app?vid=7d1cff4c-ccf2-4c50-90cb-2c31208e7da7"},"vehicle_type_id":"4","last_reported":1701947188,"current_range_meters":31200,"station_id":"ce4bgpp2rcd13ifvqc3g","pricing_plan_id":"free"},{"bike_id":"ea1397b8-afff-4c71-b1b9-4e5557edc18a","system_id":"levelo_inurba_marseille","lat":43.299243,"lon":5.374807,"is_reserved":false,"is_disabled":false,"rental_uris":{"android":"levelo://app?vid=ea1397b8-afff-4c71-b1b9-4e5557edc18a","ios":"levelo://app?vid=ea1397b8-afff-4c71-b1b9-4e5557edc18a"},"vehicle_type_id":"4","last_reported":1701947188,"current_range_meters":27600,"station_id":"ce4bgjh2rcd13ifvqbg0","pricing_plan_id":"free"},{"bike_id":"9a545da0-b00c-4288-a35c-6a24b3392920","system_id":"levelo_inurba_marseille","lat":43.305364,"lon":5.384119,"is_reserved":false,"is_disabled":false,"rental_uris":{"android":"levelo://app?vid=9a545da0-b00c-4288-a35c-6a24b3392920","ios":"levelo://app?vid=9a545da0-b00c-4288-a35c-6a24b3392920"},"vehicle_type_id":"4","last_reported":1701947188,"current_range_meters":0,"station_id":"ce4bgg92rcd13ifvqb30","pricing_plan_id":"free"},{"bike_id":"479323bc-fda1-4df7-8c67-4524bc1c8958","system_id":"levelo_inurba_marseille","lat":43.298218,"lon":5.374416,"is_reserved":false,"is_disabled":false,"rental_uris":{"android":"levelo://app?vid=479323bc-fda1-4df7-8c67-4524bc1c8958","ios":"levelo://app?vid=479323bc-fda1-4df7-8c67-4524bc1c8958"},"vehicle_type_id":"4","last_reported":1701947188,"current_range_meters":10000,"station_id":"","pricing_plan_id":"free"},{"bike_id":"a4ff908c-f768-44ca-b03b-0ed7a738f283","system_id":"levelo_inurba_marseille","lat":43.328283,"lon":5.366747,"is_reserved":false,"is_disabled":false,"rental_uris":{"android":"levelo://app?vid=a4ff908c-f768-44ca-b03b-0ed7a738f283","ios":"levelo://app?vid=a4ff908c-f768-44ca-b03b-0ed7a738f283"},"vehicle_type_id":"4","last_reported":1701947188,"current_range_meters":22000,"station_id":"ce4bhs92rcd13ifvqi0g","pricing_plan_id":"free"},{"bike_id":"55311dec-ec61-4646-8d1a-4ddd89532043","system_id":"levelo_inurba_marseille","lat":43.328371,"lon":5.366909,"is_reserved":false,"is_disabled":false,"rental_uris":{"android":"levelo://app?vid=55311dec-ec61-4646-8d1a-4ddd89532043","ios":"levelo://app?vid=55311dec-ec61-4646-8d1a-4ddd89532043"},"vehicle_type_id":"4","last_reported":1701947188,"current_range_meters":24000,"station_id":"ce4bhs92rcd13ifvqi0g","pricing_plan_id":"free"},{"bike_id":"9190eb99-d6ca-4501-a2a4-7ed7fc8df97e","system_id":"levelo_inurba_marseille","lat":43.328371,"lon":5.366909,"is_reserved":false,"is_disabled":false,"rental_uris":{"android":"levelo://app?vid=9190eb99-d6ca-4501-a2a4-7ed7fc8df97e","ios":"levelo://app?vid=9190eb99-d6ca-4501-a2a4-7ed7fc8df97e"},"vehicle_type_id":"4","last_reported":1701947188,"current_range_meters":19200,"station_id":"ce4bhs92rcd13ifvqi0g","pricing_plan_id":"free"},{"bike_id":"92dc65d6-6823-4de3-93d4-056f738f090c","system_id":"levelo_inurba_marseille","lat":43.316538,"lon":5.38954,"is_reserved":false,"is_disabled":false,"rental_uris":{"android":"levelo://app?vid=92dc65d6-6823-4de3-93d4-056f738f090c","ios":"levelo://app?vid=92dc65d6-6823-4de3-93d4-056f738f090c"},"vehicle_type_id":"4","last_reported":1701947188,"current_range_meters":6000,"station_id":"","pricing_plan_id":"free"},{"bike_id":"0c6e7ede-7a61-47cd-8060-f71cf738baf3","system_id":"levelo_inurba_marseille","lat":43.296921,"lon":5.376579,"is_reserved":false,"is_disabled":false,"rental_uris":{"android":"levelo://app?vid=0c6e7ede-7a61-47cd-8060-f71cf738baf3","ios":"levelo://app?vid=0c6e7ede-7a61-47cd-8060-f71cf738baf3"},"vehicle_type_id":"4","last_reported":1701947188,"current_range_meters":20400,"station_id":"ce4bgkh2rcd13ifvqbl0","pricing_plan_id":"free"},{"bike_id":"c3ed4cf9-e5c4-4cdc-ae10-5a478c835643","system_id":"levelo_inurba_marseille","lat":43.296921,"lon":5.376579,"is_reserved":false,"is_disabled":false,"rental_uris":{"android":"levelo://app?vid=c3ed4cf9-e5c4-4cdc-ae10-5a478c835643","ios":"levelo://app?vid=c3ed4cf9-e5c4-4cdc-ae10-5a478c835643"},"vehicle_type_id":"4","last_reported":1701947188,"current_range_meters":8400,"station_id":"ce4bgkh2rcd13ifvqbl0","pricing_plan_id":"free"},{"bike_id":"583432ab-f787-4f97-8f16-a1ce47c9085b","system_id":"levelo_inurba_marseille","lat":43.299028,"lon":5.381509,"is_reserved":false,"is_disabled":false,"rental_uris":{"android":"levelo://app?vid=583432ab-f787-4f97-8f16-a1ce47c9085b","ios":"levelo://app?vid=583432ab-f787-4f97-8f16-a1ce47c9085b"},"vehicle_type_id":"4","last_reported":1701947188,"current_range_meters":27600,"station_id":"ce4bgj12rcd13ifvqbc0","pricing_plan_id":"free"},{"bike_id":"1e1d9284-d212-4666-9e29-2e3af2ed16e2","system_id":"levelo_inurba_marseille","lat":43.296921,"lon":5.376579,"is_reserved":false,"is_disabled":false,"rental_uris":{"android":"levelo://app?vid=1e1d9284-d212-4666-9e29-2e3af2ed16e2","ios":"levelo://app?vid=1e1d9284-d212-4666-9e29-2e3af2ed16e2"},"vehicle_type_id":"4","last_reported":1701947188,"current_range_meters":400,"station_id":"ce4bgkh2rcd13ifvqbl0","pricing_plan_id":"free"},{"bike_id":"2c0a053b-9668-4c02-96ad-931af061ec3a","system_id":"levelo_inurba_marseille","lat":43.317557,"lon":5.390173,"is_reserved":false,"is_disabled":false,"rental_uris":{"android":"levelo://app?vid=2c0a053b-9668-4c02-96ad-931af061ec3a","ios":"levelo://app?vid=2c0a053b-9668-4c02-96ad-931af061ec3a"},"vehicle_type_id":"4","last_reported":1701947188,"current_range_meters":29200,"station_id":"ce4bhqp2rcd13ifvqhng","pricing_plan_id":"free"},{"bike_id":"af708480-9075-4748-8531-c1bf10415f10","system_id":"levelo_inurba_marseille","lat":43.309589,"lon":5.390258,"is_reserved":false,"is_disabled":false,"rental_uris":{"android":"levelo://app?vid=af708480-9075-4748-8531-c1bf10415f10","ios":"levelo://app?vid=af708480-9075-4748-8531-c1bf10415f10"},"vehicle_type_id":"4","last_reported":1701947188,"current_range_meters":24000,"station_id":"ce4bgup2rcd13ifvqco0","pricing_plan_id":"free"},{"bike_id":"95951898-7843-46ce-b2fc-588e4d45d898","system_id":"levelo_inurba_marseille","lat":43.29529,"lon":5.385581,"is_reserved":false,"is_disabled":false,"rental_uris":{"android":"levelo://app?vid=95951898-7843-46ce-b2fc-588e4d45d898","ios":"levelo://app?vid=95951898-7843-46ce-b2fc-588e4d45d898"},"vehicle_type_id":"4","last_reported":1701947188,"current_range_meters":3200,"station_id":"ce4bgih2rcd13ifvqba0","pricing_plan_id":"free"},{"bike_id":"5abcd254-171b-46ac-8094-8ce17664b0a6","system_id":"levelo_inurba_marseille","lat":43.32367,"lon":5.388836,"is_reserved":false,"is_disabled":false,"rental_uris":{"android":"levelo://app?vid=5abcd254-171b-46ac-8094-8ce17664b0a6","ios":"levelo://app?vid=5abcd254-171b-46ac-8094-8ce17664b0a6"},"vehicle_type_id":"4","last_reported":1701947188,"current_range_meters":24000,"station_id":"ce4bhqp2rcd13ifvqhog","pricing_plan_id":"free"},{"bike_id":"365d060e-bb4a-49ff-96c2-ff5ffecba86e","system_id":"levelo_inurba_marseille","lat":43.29601,"lon":5.381084,"is_reserved":false,"is_disabled":false,"rental_uris":{"android":"levelo://app?vid=365d060e-bb4a-49ff-96c2-ff5ffecba86e","ios":"levelo://app?vid=365d060e-bb4a-49ff-96c2-ff5ffecba86e"},"vehicle_type_id":"4","last_reported":1701947188,"current_range_meters":22800,"station_id":"ce4bgl12rcd13ifvqbo0","pricing_plan_id":"free"},{"bike_id":"dbdbf049-d363-48f4-962a-35e0839dda16","system_id":"levelo_inurba_marseille","lat":43.29601,"lon":5.381084,"is_reserved":false,"is_disabled":false,"rental_uris":{"android":"levelo://app?vid=dbdbf049-d363-48f4-962a-35e0839dda16","ios":"levelo://app?vid=dbdbf049-d363-48f4-962a-35e0839dda16"},"vehicle_type_id":"4","last_reported":1701947188,"current_range_meters":0,"station_id":"ce4bgl12rcd13ifvqbo0","pricing_plan_id":"free"},{"bike_id":"fc13da3b-addf-442d-9fb2-073710229296","system_id":"levelo_inurba_marseille","lat":43.29601,"lon":5.381084,"is_reserved":false,"is_disabled":false,"rental_uris":{"android":"levelo://app?vid=fc13da3b-addf-442d-9fb2-073710229296","ios":"levelo://app?vid=fc13da3b-addf-442d-9fb2-073710229296"},"vehicle_type_id":"4","last_reported":1701947188,"current_range_meters":6000,"station_id":"ce4bgl12rcd13ifvqbo0","pricing_plan_id":"free"},{"bike_id":"cc426ff1-172b-49b7-a754-fce151152e76","system_id":"levelo_inurba_marseille","lat":43.295986,"lon":5.381099,"is_reserved":false,"is_disabled":false,"rental_uris":{"android":"levelo://app?vid=cc426ff1-172b-49b7-a754-fce151152e76","ios":"levelo://app?vid=cc426ff1-172b-49b7-a754-fce151152e76"},"vehicle_type_id":"4","last_reported":1701947188,"current_range_meters":8800,"station_id":"","pricing_plan_id":"free"},{"bike_id":"72714644-a730-462a-b220-6837667c5de6","system_id":"levelo_inurba_marseille","lat":43.318132,"lon":5.394114,"is_reserved":false,"is_disabled":false,"rental_uris":{"android":"levelo://app?vid=72714644-a730-462a-b220-6837667c5de6","ios":"levelo://app?vid=72714644-a730-462a-b220-6837667c5de6"},"vehicle_type_id":"4","last_reported":1701947188,"current_range_meters":14400,"station_id":"","pricing_plan_id":"free"},{"bike_id":"3c9b05b4-ff43-41ff-a811-8dbca9e09ee9","system_id":"levelo_inurba_marseille","lat":43.293009,"lon":5.374584,"is_reserved":false,"is_disabled":false,"rental_uris":{"android":"levelo://app?vid=3c9b05b4-ff43-41ff-a811-8dbca9e09ee9","ios":"levelo://app?vid=3c9b05b4-ff43-41ff-a811-8dbca9e09ee9"},"vehicle_type_id":"4","last_reported":1701947188,"current_range_meters":23600,"station_id":"ce4bgi12rcd13ifvqb70","pricing_plan_id":"free"},{"bike_id":"c56292eb-12a8-4525-895b-d9ab57da3d60","system_id":"levelo_inurba_marseille","lat":43.2936,"lon":5.37835,"is_reserved":false,"is_disabled":false,"rental_uris":{"android":"levelo://app?vid=c56292eb-12a8-4525-895b-d9ab57da3d60","ios":"levelo://app?vid=c56292eb-12a8-4525-895b-d9ab57da3d60"},"vehicle_type_id":"4","last_reported":1701947188,"current_range_meters":19600,"station_id":"ce4bgjh2rcd13ifvqbf0","pricing_plan_id":"free"},{"bike_id":"e0ac6820-80cc-4d0e-b80c-aae340985571","system_id":"levelo_inurba_marseille","lat":43.292663,"lon":5.376394,"is_reserved":false,"is_disabled":false,"rental_uris":{"android":"levelo://app?vid=e0ac6820-80cc-4d0e-b80c-aae340985571","ios":"levelo://app?vid=e0ac6820-80cc-4d0e-b80c-aae340985571"},"vehicle_type_id":"4","last_reported":1701947188,"current_range_meters":29200,"station_id":"ce4bgi12rcd13ifvqb80","pricing_plan_id":"free"},{"bike_id":"bc13bbb0-bf9a-4c0b-a77d-3ab0875cf337","system_id":"levelo_inurba_marseille","lat":43.292663,"lon":5.376389,"is_reserved":false,"is_disabled":false,"rental_uris":{"android":"levelo://app?vid=bc13bbb0-bf9a-4c0b-a77d-3ab0875cf337","ios":"levelo://app?vid=bc13bbb0-bf9a-4c0b-a77d-3ab0875cf337"},"vehicle_type_id":"4","last_reported":1701947188,"current_range_meters":26000,"station_id":"ce4bgi12rcd13ifvqb80","pricing_plan_id":"free"},{"bike_id":"2c1986b2-b7c2-4af7-b67a-7bd61b44dc85","system_id":"levelo_inurba_marseille","lat":43.292453,"lon":5.377168,"is_reserved":false,"is_disabled":false,"rental_uris":{"android":"levelo://app?vid=2c1986b2-b7c2-4af7-b67a-7bd61b44dc85","ios":"levelo://app?vid=2c1986b2-b7c2-4af7-b67a-7bd61b44dc85"},"vehicle_type_id":"4","last_reported":1701947188,"current_range_meters":0,"station_id":"","pricing_plan_id":"free"},{"bike_id":"cde7b4ab-2d50-46ed-bd3a-ca5d0098af31","system_id":"levelo_inurba_marseille","lat":43.291994,"lon":5.357886,"is_reserved":false,"is_disabled":false,"rental_uris":{"android":"levelo://app?vid=cde7b4ab-2d50-46ed-bd3a-ca5d0098af31","ios":"levelo://app?vid=cde7b4ab-2d50-46ed-bd3a-ca5d0098af31"},"vehicle_type_id":"4","last_reported":1701947188,"current_range_meters":16000,"station_id":"ce4bhb12rcd13ifvqel0","pricing_plan_id":"free"},{"bike_id":"c3392247-519e-4a8b-8218-99f339a08c4e","system_id":"levelo_inurba_marseille","lat":43.292,"lon":5.357983,"is_reserved":false,"is_disabled":false,"rental_uris":{"android":"levelo://app?vid=c3392247-519e-4a8b-8218-99f339a08c4e","ios":"levelo://app?vid=c3392247-519e-4a8b-8218-99f339a08c4e"},"vehicle_type_id":"4","last_reported":1701947188,"current_range_meters":20000,"station_id":"ce4bhb12rcd13ifvqel0","pricing_plan_id":"free"},{"bike_id":"319a17e7-17f7-425f-af3e-ceaaf4959f47","system_id":"levelo_inurba_marseille","lat":43.296921,"lon":5.376579,"is_reserved":false,"is_disabled":false,"rental_uris":{"android":"levelo://app?vid=319a17e7-17f7-425f-af3e-ceaaf4959f47","ios":"levelo://app?vid=319a17e7-17f7-425f-af3e-ceaaf4959f47"},"vehicle_type_id":"4","last_reported":1701947188,"current_range_meters":21600,"station_id":"ce4bgkh2rcd13ifvqbl0","pricing_plan_id":"free"},{"bike_id":"83c174b5-7ca8-4a33-80b0-d99ebec0f686","system_id":"levelo_inurba_marseille","lat":43.290631,"lon":5.359244,"is_reserved":false,"is_disabled":false,"rental_uris":{"android":"levelo://app?vid=83c174b5-7ca8-4a33-80b0-d99ebec0f686","ios":"levelo://app?vid=83c174b5-7ca8-4a33-80b0-d99ebec0f686"},"vehicle_type_id":"4","last_reported":1701947188,"current_range_meters":12000,"station_id":"ce4bha92rcd13ifvqeg0","pricing_plan_id":"free"},{"bike_id":"7055c009-2ed8-45db-a026-c5017d2cc67c","system_id":"levelo_inurba_marseille","lat":43.289576,"lon":5.364093,"is_reserved":false,"is_disabled":false,"rental_uris":{"android":"levelo://app?vid=7055c009-2ed8-45db-a026-c5017d2cc67c","ios":"levelo://app?vid=7055c009-2ed8-45db-a026-c5017d2cc67c"},"vehicle_type_id":"4","last_reported":1701947188,"current_range_meters":13200,"station_id":"ce4bhc92rcd13ifvqetg","pricing_plan_id":"free"},{"bike_id":"f1d7ed3e-d2fc-4f3b-9bf1-0573d2ccffd4","system_id":"levelo_inurba_marseille","lat":43.294153,"lon":5.386305,"is_reserved":false,"is_disabled":false,"rental_uris":{"android":"levelo://app?vid=f1d7ed3e-d2fc-4f3b-9bf1-0573d2ccffd4","ios":"levelo://app?vid=f1d7ed3e-d2fc-4f3b-9bf1-0573d2ccffd4"},"vehicle_type_id":"4","last_reported":1701947188,"current_range_meters":22800,"station_id":"ce4bh2h2rcd13ifvqdh0","pricing_plan_id":"free"},{"bike_id":"718faa97-8218-44d2-8cf4-2807d7df73a3","system_id":"levelo_inurba_marseille","lat":43.289184,"lon":5.366408,"is_reserved":false,"is_disabled":false,"rental_uris":{"android":"levelo://app?vid=718faa97-8218-44d2-8cf4-2807d7df73a3","ios":"levelo://app?vid=718faa97-8218-44d2-8cf4-2807d7df73a3"},"vehicle_type_id":"4","last_reported":1701947188,"current_range_meters":12800,"station_id":"ce4bhap2rcd13ifvqek0","pricing_plan_id":"free"},{"bike_id":"a02a1b20-1fb1-4951-988a-77389649024d","system_id":"levelo_inurba_marseille","lat":43.289259,"lon":5.366364,"is_reserved":false,"is_disabled":false,"rental_uris":{"android":"levelo://app?vid=a02a1b20-1fb1-4951-988a-77389649024d","ios":"levelo://app?vid=a02a1b20-1fb1-4951-988a-77389649024d"},"vehicle_type_id":"4","last_reported":1701947188,"current_range_meters":20000,"station_id":"","pricing_plan_id":"free"},{"bike_id":"2424b203-2bfa-46d0-8b7b-b616d11edac6","system_id":"levelo_inurba_marseille","lat":43.336216,"lon":5.362544,"is_reserved":false,"is_disabled":false,"rental_uris":{"android":"levelo://app?vid=2424b203-2bfa-46d0-8b7b-b616d11edac6","ios":"levelo://app?vid=2424b203-2bfa-46d0-8b7b-b616d11edac6"},"vehicle_type_id":"4","last_reported":1701947188,"current_range_meters":7200,"station_id":"","pricing_plan_id":"free"},{"bike_id":"9770502c-a58e-4dec-b7ec-ccc372dcd6b6","system_id":"levelo_inurba_marseille","lat":43.292642,"lon":5.384254,"is_reserved":false,"is_disabled":false,"rental_uris":{"android":"levelo://app?vid=9770502c-a58e-4dec-b7ec-ccc372dcd6b6","ios":"levelo://app?vid=9770502c-a58e-4dec-b7ec-ccc372dcd6b6"},"vehicle_type_id":"4","last_reported":1701947188,"current_range_meters":8000,"station_id":"ce4bh692rcd13ifvqea0","pricing_plan_id":"free"},{"bike_id":"c12df127-f915-48f4-85a1-4011b4c894ae","system_id":"levelo_inurba_marseille","lat":43.33038,"lon":5.38923,"is_reserved":false,"is_disabled":false,"rental_uris":{"android":"levelo://app?vid=c12df127-f915-48f4-85a1-4011b4c894ae","ios":"levelo://app?vid=c12df127-f915-48f4-85a1-4011b4c894ae"},"vehicle_type_id":"4","last_reported":1701947188,"current_range_meters":17600,"station_id":"ce4bhr92rcd13ifvqhrg","pricing_plan_id":"free"},{"bike_id":"608fb355-c8ed-4ffa-a0f4-0f29e5b4cc45","system_id":"levelo_inurba_marseille","lat":43.289741,"lon":5.378306,"is_reserved":false,"is_disabled":false,"rental_uris":{"android":"levelo://app?vid=608fb355-c8ed-4ffa-a0f4-0f29e5b4cc45","ios":"levelo://app?vid=608fb355-c8ed-4ffa-a0f4-0f29e5b4cc45"},"vehicle_type_id":"4","last_reported":1701947188,"current_range_meters":21200,"station_id":"ce4bh9p2rcd13ifvqed0","pricing_plan_id":"free"},{"bike_id":"261cfe8b-43f6-4514-a1a5-395beb3f341a","system_id":"levelo_inurba_marseille","lat":43.295169,"lon":5.390426,"is_reserved":false,"is_disabled":false,"rental_uris":{"android":"levelo://app?vid=261cfe8b-43f6-4514-a1a5-395beb3f341a","ios":"levelo://app?vid=261cfe8b-43f6-4514-a1a5-395beb3f341a"},"vehicle_type_id":"4","last_reported":1701947188,"current_range_meters":20800,"station_id":"ce4bh3p2rcd13ifvqdp0","pricing_plan_id":"free"},{"bike_id":"ec900e69-4793-4106-a03e-8dc67d6564ce","system_id":"levelo_inurba_marseille","lat":43.290094,"lon":5.381264,"is_reserved":false,"is_disabled":false,"rental_uris":{"android":"levelo://app?vid=ec900e69-4793-4106-a03e-8dc67d6564ce","ios":"levelo://app?vid=ec900e69-4793-4106-a03e-8dc67d6564ce"},"vehicle_type_id":"4","last_reported":1701947188,"current_range_meters":27600,"station_id":"ce4bh4p2rcd13ifvqe1g","pricing_plan_id":"free"},{"bike_id":"efe46e7c-cf49-4c7b-80fb-eea57c1d5a63","system_id":"levelo_inurba_marseille","lat":43.288558,"lon":5.358635,"is_reserved":false,"is_disabled":false,"rental_uris":{"android":"levelo://app?vid=efe46e7c-cf49-4c7b-80fb-eea57c1d5a63","ios":"levelo://app?vid=efe46e7c-cf49-4c7b-80fb-eea57c1d5a63"},"vehicle_type_id":"4","last_reported":1701947188,"current_range_meters":28400,"station_id":"","pricing_plan_id":"free"},{"bike_id":"2b982e88-1b8f-4ac4-8593-55ae281e48ee","system_id":"levelo_inurba_marseille","lat":43.301117,"lon":5.398795,"is_reserved":false,"is_disabled":false,"rental_uris":{"android":"levelo://app?vid=2b982e88-1b8f-4ac4-8593-55ae281e48ee","ios":"levelo://app?vid=2b982e88-1b8f-4ac4-8593-55ae281e48ee"},"vehicle_type_id":"4","last_reported":1701947188,"current_range_meters":16800,"station_id":"ce4bh0h2rcd13ifvqd40","pricing_plan_id":"free"},{"bike_id":"1791a20b-a240-4091-8daf-cec3f6dbe9f9","system_id":"levelo_inurba_marseille","lat":43.301117,"lon":5.398795,"is_reserved":false,"is_disabled":false,"rental_uris":{"android":"levelo://app?vid=1791a20b-a240-4091-8daf-cec3f6dbe9f9","ios":"levelo://app?vid=1791a20b-a240-4091-8daf-cec3f6dbe9f9"},"vehicle_type_id":"4","last_reported":1701947188,"current_range_meters":4800,"station_id":"ce4bh0h2rcd13ifvqd40","pricing_plan_id":"free"},{"bike_id":"3212b138-74ce-45c3-b6e8-a6f0faece1b7","system_id":"levelo_inurba_marseille","lat":43.286961,"lon":5.373785,"is_reserved":false,"is_disabled":false,"rental_uris":{"android":"levelo://app?vid=3212b138-74ce-45c3-b6e8-a6f0faece1b7","ios":"levelo://app?vid=3212b138-74ce-45c3-b6e8-a6f0faece1b7"},"vehicle_type_id":"4","last_reported":1701947188,"current_range_meters":2800,"station_id":"ce4bh3p2rcd13ifvqdq0","pricing_plan_id":"free"},{"bike_id":"6c3c57f2-3718-43cd-8758-ec92ac71d3cf","system_id":"levelo_inurba_marseille","lat":43.286593,"lon":5.363346,"is_reserved":false,"is_disabled":false,"rental_uris":{"android":"levelo://app?vid=6c3c57f2-3718-43cd-8758-ec92ac71d3cf","ios":"levelo://app?vid=6c3c57f2-3718-43cd-8758-ec92ac71d3cf"},"vehicle_type_id":"4","last_reported":1701947188,"current_range_meters":21600,"station_id":"ce4bhah2rcd13ifvqej0","pricing_plan_id":"free"},{"bike_id":"bd747ceb-911f-49b8-8965-5e689aed181f","system_id":"levelo_inurba_marseille","lat":43.286591,"lon":5.363346,"is_reserved":false,"is_disabled":false,"rental_uris":{"android":"levelo://app?vid=bd747ceb-911f-49b8-8965-5e689aed181f","ios":"levelo://app?vid=bd747ceb-911f-49b8-8965-5e689aed181f"},"vehicle_type_id":"4","last_reported":1701947188,"current_range_meters":29200,"station_id":"ce4bhah2rcd13ifvqej0","pricing_plan_id":"free"},{"bike_id":"c9415b1b-1008-4e1a-9b31-ffd4c9997110","system_id":"levelo_inurba_marseille","lat":43.286961,"lon":5.373785,"is_reserved":false,"is_disabled":false,"rental_uris":{"android":"levelo://app?vid=c9415b1b-1008-4e1a-9b31-ffd4c9997110","ios":"levelo://app?vid=c9415b1b-1008-4e1a-9b31-ffd4c9997110"},"vehicle_type_id":"4","last_reported":1701947188,"current_range_meters":12400,"station_id":"ce4bh3p2rcd13ifvqdq0","pricing_plan_id":"free"},{"bike_id":"a5d13238-a60e-4907-b15c-05b9b476718a","system_id":"levelo_inurba_marseille","lat":43.286039,"lon":5.370679,"is_reserved":false,"is_disabled":false,"rental_uris":{"android":"levelo://app?vid=a5d13238-a60e-4907-b15c-05b9b476718a","ios":"levelo://app?vid=a5d13238-a60e-4907-b15c-05b9b476718a"},"vehicle_type_id":"4","last_reported":1701947188,"current_range_meters":7600,"station_id":"ce4bht12rcd13ifvqi60","pricing_plan_id":"free"},{"bike_id":"0cc88580-067f-44bf-83c9-a5919dea8ea1","system_id":"levelo_inurba_marseille","lat":43.286039,"lon":5.370679,"is_reserved":false,"is_disabled":false,"rental_uris":{"android":"levelo://app?vid=0cc88580-067f-44bf-83c9-a5919dea8ea1","ios":"levelo://app?vid=0cc88580-067f-44bf-83c9-a5919dea8ea1"},"vehicle_type_id":"4","last_reported":1701947188,"current_range_meters":6000,"station_id":"ce4bht12rcd13ifvqi60","pricing_plan_id":"free"},{"bike_id":"7918c20a-27d2-46ca-83c5-83772aef4d25","system_id":"levelo_inurba_marseille","lat":43.291994,"lon":5.392907,"is_reserved":false,"is_disabled":false,"rental_uris":{"android":"levelo://app?vid=7918c20a-27d2-46ca-83c5-83772aef4d25","ios":"levelo://app?vid=7918c20a-27d2-46ca-83c5-83772aef4d25"},"vehicle_type_id":"4","last_reported":1701947188,"current_range_meters":29600,"station_id":"ce4bh192rcd13ifvqdd0","pricing_plan_id":"free"},{"bike_id":"a545c183-459b-48f5-a27f-65b44ea86997","system_id":"levelo_inurba_marseille","lat":43.284538,"lon":5.358657,"is_reserved":false,"is_disabled":false,"rental_uris":{"android":"levelo://app?vid=a545c183-459b-48f5-a27f-65b44ea86997","ios":"levelo://app?vid=a545c183-459b-48f5-a27f-65b44ea86997"},"vehicle_type_id":"4","last_reported":1701947188,"current_range_meters":5200,"station_id":"ce4bhah2rcd13ifvqei0","pricing_plan_id":"free"},{"bike_id":"925c6bfe-1e7b-4b1a-88fa-9c06c8535740","system_id":"levelo_inurba_marseille","lat":43.284151,"lon":5.375154,"is_reserved":false,"is_disabled":false,"rental_uris":{"android":"levelo://app?vid=925c6bfe-1e7b-4b1a-88fa-9c06c8535740","ios":"levelo://app?vid=925c6bfe-1e7b-4b1a-88fa-9c06c8535740"},"vehicle_type_id":"4","last_reported":1701947188,"current_range_meters":30000,"station_id":"ce4bh412rcd13ifvqds0","pricing_plan_id":"free"},{"bike_id":"a9b44900-203f-4a3f-9faf-c3c5e8137232","system_id":"levelo_inurba_marseille","lat":43.295713,"lon":5.399639,"is_reserved":false,"is_disabled":false,"rental_uris":{"android":"levelo://app?vid=a9b44900-203f-4a3f-9faf-c3c5e8137232","ios":"levelo://app?vid=a9b44900-203f-4a3f-9faf-c3c5e8137232"},"vehicle_type_id":"4","last_reported":1701947188,"current_range_meters":29600,"station_id":"ce4bh312rcd13ifvqdj0","pricing_plan_id":"free"},{"bike_id":"88d81080-d6f9-4eff-baea-70fcf2b0faf9","system_id":"levelo_inurba_marseille","lat":43.283998,"lon":5.375062,"is_reserved":false,"is_disabled":false,"rental_uris":{"android":"levelo://app?vid=88d81080-d6f9-4eff-baea-70fcf2b0faf9","ios":"levelo://app?vid=88d81080-d6f9-4eff-baea-70fcf2b0faf9"},"vehicle_type_id":"4","last_reported":1701947188,"current_range_meters":18000,"station_id":"ce4bh412rcd13ifvqds0","pricing_plan_id":"free"},{"bike_id":"ed4aa3ec-3b6c-410b-ad5e-ffd0d18ddef0","system_id":"levelo_inurba_marseille","lat":43.28672,"lon":5.38663,"is_reserved":false,"is_disabled":false,"rental_uris":{"android":"levelo://app?vid=ed4aa3ec-3b6c-410b-ad5e-ffd0d18ddef0","ios":"levelo://app?vid=ed4aa3ec-3b6c-410b-ad5e-ffd0d18ddef0"},"vehicle_type_id":"4","last_reported":1701947188,"current_range_meters":5200,"station_id":"ce4bh492rcd13ifvqdug","pricing_plan_id":"free"},{"bike_id":"6db55031-df47-4fb6-8b80-a9e9fa62b66a","system_id":"levelo_inurba_marseille","lat":43.337168,"lon":5.391825,"is_reserved":false,"is_disabled":false,"rental_uris":{"android":"levelo://app?vid=6db55031-df47-4fb6-8b80-a9e9fa62b66a","ios":"levelo://app?vid=6db55031-df47-4fb6-8b80-a9e9fa62b66a"},"vehicle_type_id":"4","last_reported":1701947188,"current_range_meters":29600,"station_id":"ce4bhr92rcd13ifvqhsg","pricing_plan_id":"free"},{"bike_id":"2ca34fe8-82c8-4c21-be5f-e3da96c33646","system_id":"levelo_inurba_marseille","lat":43.33717,"lon":5.391857,"is_reserved":false,"is_disabled":false,"rental_uris":{"android":"levelo://app?vid=2ca34fe8-82c8-4c21-be5f-e3da96c33646","ios":"levelo://app?vid=2ca34fe8-82c8-4c21-be5f-e3da96c33646"},"vehicle_type_id":"4","last_reported":1701947188,"current_range_meters":24800,"station_id":"ce4bhr92rcd13ifvqhsg","pricing_plan_id":"free"},{"bike_id":"eec017fd-8297-4ba4-b48c-cbce9b0a3f5e","system_id":"levelo_inurba_marseille","lat":43.337168,"lon":5.391825,"is_reserved":false,"is_disabled":false,"rental_uris":{"android":"levelo://app?vid=eec017fd-8297-4ba4-b48c-cbce9b0a3f5e","ios":"levelo://app?vid=eec017fd-8297-4ba4-b48c-cbce9b0a3f5e"},"vehicle_type_id":"4","last_reported":1701947188,"current_range_meters":29200,"station_id":"ce4bhr92rcd13ifvqhsg","pricing_plan_id":"free"},{"bike_id":"d99fd2ee-cc20-4aa4-b4fe-58e18bf9af10","system_id":"levelo_inurba_marseille","lat":43.323464,"lon":5.406297,"is_reserved":false,"is_disabled":false,"rental_uris":{"android":"levelo://app?vid=d99fd2ee-cc20-4aa4-b4fe-58e18bf9af10","ios":"levelo://app?vid=d99fd2ee-cc20-4aa4-b4fe-58e18bf9af10"},"vehicle_type_id":"4","last_reported":1701947188,"current_range_meters":22800,"station_id":"ce4bhq92rcd13ifvqhjg","pricing_plan_id":"free"},{"bike_id":"bb6b134e-2062-49b1-a19e-d37ff60a3cfe","system_id":"levelo_inurba_marseille","lat":43.284787,"lon":5.384116,"is_reserved":false,"is_disabled":false,"rental_uris":{"android":"levelo://app?vid=bb6b134e-2062-49b1-a19e-d37ff60a3cfe","ios":"levelo://app?vid=bb6b134e-2062-49b1-a19e-d37ff60a3cfe"},"vehicle_type_id":"4","last_reported":1701947188,"current_range_meters":23600,"station_id":"ce4bh512rcd13ifvqe3g","pricing_plan_id":"free"},{"bike_id":"9f00f796-c55c-436b-9808-e29ebb860fae","system_id":"levelo_inurba_marseille","lat":43.284793,"lon":5.384119,"is_reserved":false,"is_disabled":false,"rental_uris":{"android":"levelo://app?vid=9f00f796-c55c-436b-9808-e29ebb860fae","ios":"levelo://app?vid=9f00f796-c55c-436b-9808-e29ebb860fae"},"vehicle_type_id":"4","last_reported":1701947188,"current_range_meters":13200,"station_id":"ce4bh512rcd13ifvqe3g","pricing_plan_id":"free"},{"bike_id":"0dcf4944-2f65-44ab-abd9-52a083367564","system_id":"levelo_inurba_marseille","lat":43.283502,"lon":5.386471,"is_reserved":false,"is_disabled":false,"rental_uris":{"android":"levelo://app?vid=0dcf4944-2f65-44ab-abd9-52a083367564","ios":"levelo://app?vid=0dcf4944-2f65-44ab-abd9-52a083367564"},"vehicle_type_id":"4","last_reported":1701947188,"current_range_meters":29200,"station_id":"ce4bh492rcd13ifvqdvg","pricing_plan_id":"free"},{"bike_id":"2f1c71eb-1b1a-4e53-b576-e58c1614650e","system_id":"levelo_inurba_marseille","lat":43.282754,"lon":5.350519,"is_reserved":false,"is_disabled":false,"rental_uris":{"android":"levelo://app?vid=2f1c71eb-1b1a-4e53-b576-e58c1614650e","ios":"levelo://app?vid=2f1c71eb-1b1a-4e53-b576-e58c1614650e"},"vehicle_type_id":"4","last_reported":1701947188,"current_range_meters":23200,"station_id":"ce4bhbp2rcd13ifvqerg","pricing_plan_id":"free"},{"bike_id":"58bd44d2-7b1e-4c1c-8468-e3822c0abba8","system_id":"levelo_inurba_marseille","lat":43.283502,"lon":5.386471,"is_reserved":false,"is_disabled":false,"rental_uris":{"android":"levelo://app?vid=58bd44d2-7b1e-4c1c-8468-e3822c0abba8","ios":"levelo://app?vid=58bd44d2-7b1e-4c1c-8468-e3822c0abba8"},"vehicle_type_id":"4","last_reported":1701947188,"current_range_meters":30000,"station_id":"ce4bh492rcd13ifvqdvg","pricing_plan_id":"free"},{"bike_id":"f2d499b8-6e62-451e-820f-5edacdec98ee","system_id":"levelo_inurba_marseille","lat":43.31686,"lon":5.41239,"is_reserved":false,"is_disabled":false,"rental_uris":{"android":"levelo://app?vid=f2d499b8-6e62-451e-820f-5edacdec98ee","ios":"levelo://app?vid=f2d499b8-6e62-451e-820f-5edacdec98ee"},"vehicle_type_id":"4","last_reported":1701947188,"current_range_meters":14000,"station_id":"","pricing_plan_id":"free"},{"bike_id":"a59bae73-ed39-4194-b26e-5d1a897acfd4","system_id":"levelo_inurba_marseille","lat":43.33717,"lon":5.391857,"is_reserved":false,"is_disabled":false,"rental_uris":{"android":"levelo://app?vid=a59bae73-ed39-4194-b26e-5d1a897acfd4","ios":"levelo://app?vid=a59bae73-ed39-4194-b26e-5d1a897acfd4"},"vehicle_type_id":"4","last_reported":1701947188,"current_range_meters":30000,"station_id":"ce4bhr92rcd13ifvqhsg","pricing_plan_id":"free"},{"bike_id":"be22bc07-8800-4ec1-9877-031db4c29cc7","system_id":"levelo_inurba_marseille","lat":43.326605,"lon":5.409903,"is_reserved":false,"is_disabled":false,"rental_uris":{"android":"levelo://app?vid=be22bc07-8800-4ec1-9877-031db4c29cc7","ios":"levelo://app?vid=be22bc07-8800-4ec1-9877-031db4c29cc7"},"vehicle_type_id":"4","last_reported":1701947188,"current_range_meters":20800,"station_id":"ce4bhpp2rcd13ifvqhgg","pricing_plan_id":"free"},{"bike_id":"b3e0b75a-c236-4a8a-a021-07c1d09b983f","system_id":"levelo_inurba_marseille","lat":43.287154,"lon":5.399979,"is_reserved":false,"is_disabled":false,"rental_uris":{"android":"levelo://app?vid=b3e0b75a-c236-4a8a-a021-07c1d09b983f","ios":"levelo://app?vid=b3e0b75a-c236-4a8a-a021-07c1d09b983f"},"vehicle_type_id":"4","last_reported":1701947188,"current_range_meters":29600,"station_id":"ce4bho92rcd13ifvqh3g","pricing_plan_id":"free"},{"bike_id":"872f60ca-2e10-4cda-8ec3-c3f78115ea8e","system_id":"levelo_inurba_marseille","lat":43.325233,"lon":5.414318,"is_reserved":false,"is_disabled":false,"rental_uris":{"android":"levelo://app?vid=872f60ca-2e10-4cda-8ec3-c3f78115ea8e","ios":"levelo://app?vid=872f60ca-2e10-4cda-8ec3-c3f78115ea8e"},"vehicle_type_id":"4","last_reported":1701947188,"current_range_meters":18400,"station_id":"ce4bhq12rcd13ifvqhhg","pricing_plan_id":"free"},{"bike_id":"53418cee-9414-4222-b225-121c01e9d912","system_id":"levelo_inurba_marseille","lat":43.325233,"lon":5.414318,"is_reserved":false,"is_disabled":false,"rental_uris":{"android":"levelo://app?vid=53418cee-9414-4222-b225-121c01e9d912","ios":"levelo://app?vid=53418cee-9414-4222-b225-121c01e9d912"},"vehicle_type_id":"4","last_reported":1701947188,"current_range_meters":0,"station_id":"ce4bhq12rcd13ifvqhhg","pricing_plan_id":"free"},{"bike_id":"a927bae8-eb28-42ac-9726-0d4c98e3f84d","system_id":"levelo_inurba_marseille","lat":43.325243,"lon":5.414326,"is_reserved":false,"is_disabled":false,"rental_uris":{"android":"levelo://app?vid=a927bae8-eb28-42ac-9726-0d4c98e3f84d","ios":"levelo://app?vid=a927bae8-eb28-42ac-9726-0d4c98e3f84d"},"vehicle_type_id":"4","last_reported":1701947188,"current_range_meters":31200,"station_id":"ce4bhq12rcd13ifvqhhg","pricing_plan_id":"free"},{"bike_id":"f32150cc-8575-4fe8-97c1-11e164d807ed","system_id":"levelo_inurba_marseille","lat":43.325233,"lon":5.414318,"is_reserved":false,"is_disabled":false,"rental_uris":{"android":"levelo://app?vid=f32150cc-8575-4fe8-97c1-11e164d807ed","ios":"levelo://app?vid=f32150cc-8575-4fe8-97c1-11e164d807ed"},"vehicle_type_id":"4","last_reported":1701947188,"current_range_meters":28800,"station_id":"ce4bhq12rcd13ifvqhhg","pricing_plan_id":"free"},{"bike_id":"e0c9421d-7158-47be-b0e8-55bb745b4705","system_id":"levelo_inurba_marseille","lat":43.275625,"lon":5.384392,"is_reserved":false,"is_disabled":false,"rental_uris":{"android":"levelo://app?vid=e0c9421d-7158-47be-b0e8-55bb745b4705","ios":"levelo://app?vid=e0c9421d-7158-47be-b0e8-55bb745b4705"},"vehicle_type_id":"4","last_reported":1701947188,"current_range_meters":28000,"station_id":"ce4bhh92rcd13ifvqfi0","pricing_plan_id":"free"},{"bike_id":"048238ab-4ab8-4324-9d33-ba4e8623d23e","system_id":"levelo_inurba_marseille","lat":43.276769,"lon":5.388787,"is_reserved":false,"is_disabled":false,"rental_uris":{"android":"levelo://app?vid=048238ab-4ab8-4324-9d33-ba4e8623d23e","ios":"levelo://app?vid=048238ab-4ab8-4324-9d33-ba4e8623d23e"},"vehicle_type_id":"4","last_reported":1701947188,"current_range_meters":2800,"station_id":"ce4bhi12rcd13ifvqfo0","pricing_plan_id":"free"},{"bike_id":"768e311d-e7cb-4f7f-95ba-85db3d6a6919","system_id":"levelo_inurba_marseille","lat":43.279952,"lon":5.400085,"is_reserved":false,"is_disabled":false,"rental_uris":{"android":"levelo://app?vid=768e311d-e7cb-4f7f-95ba-85db3d6a6919","ios":"levelo://app?vid=768e311d-e7cb-4f7f-95ba-85db3d6a6919"},"vehicle_type_id":"4","last_reported":1701947188,"current_range_meters":29600,"station_id":"ce4bho92rcd13ifvqh4g","pricing_plan_id":"free"},{"bike_id":"39030b3b-8a1b-4cc4-9243-e03b3b3b38fe","system_id":"levelo_inurba_marseille","lat":43.310785,"lon":5.424305,"is_reserved":false,"is_disabled":false,"rental_uris":{"android":"levelo://app?vid=39030b3b-8a1b-4cc4-9243-e03b3b3b38fe","ios":"levelo://app?vid=39030b3b-8a1b-4cc4-9243-e03b3b3b38fe"},"vehicle_type_id":"4","last_reported":1701947188,"current_range_meters":26800,"station_id":"ce4bhp92rcd13ifvqhag","pricing_plan_id":"free"},{"bike_id":"50177c21-78cc-4d56-9a69-6da6d615cf57","system_id":"levelo_inurba_marseille","lat":43.273125,"lon":5.390731,"is_reserved":false,"is_disabled":false,"rental_uris":{"android":"levelo://app?vid=50177c21-78cc-4d56-9a69-6da6d615cf57","ios":"levelo://app?vid=50177c21-78cc-4d56-9a69-6da6d615cf57"},"vehicle_type_id":"4","last_reported":1701947188,"current_range_meters":2800,"station_id":"ce4bhgp2rcd13ifvqfe0","pricing_plan_id":"free"},{"bike_id":"283b1518-47c4-4c7a-aece-e76435d9d17e","system_id":"levelo_inurba_marseille","lat":43.27423,"lon":5.39426,"is_reserved":false,"is_disabled":false,"rental_uris":{"android":"levelo://app?vid=283b1518-47c4-4c7a-aece-e76435d9d17e","ios":"levelo://app?vid=283b1518-47c4-4c7a-aece-e76435d9d17e"},"vehicle_type_id":"4","last_reported":1701947188,"current_range_meters":29200,"station_id":"","pricing_plan_id":"free"},{"bike_id":"fc452a7a-a221-40ab-bc47-a38b73e93524","system_id":"levelo_inurba_marseille","lat":43.30422,"lon":5.42543,"is_reserved":false,"is_disabled":false,"rental_uris":{"android":"levelo://app?vid=fc452a7a-a221-40ab-bc47-a38b73e93524","ios":"levelo://app?vid=fc452a7a-a221-40ab-bc47-a38b73e93524"},"vehicle_type_id":"4","last_reported":1701947188,"current_range_meters":0,"station_id":"ce4bhoh2rcd13ifvqh6g","pricing_plan_id":"free"},{"bike_id":"7c498e42-98b3-4dd4-98dd-8e57123eaff5","system_id":"levelo_inurba_marseille","lat":43.30407,"lon":5.42545,"is_reserved":false,"is_disabled":false,"rental_uris":{"android":"levelo://app?vid=7c498e42-98b3-4dd4-98dd-8e57123eaff5","ios":"levelo://app?vid=7c498e42-98b3-4dd4-98dd-8e57123eaff5"},"vehicle_type_id":"4","last_reported":1701947188,"current_range_meters":1600,"station_id":"ce4bhoh2rcd13ifvqh6g","pricing_plan_id":"free"},{"bike_id":"3d817b9d-cf7e-4ff6-8e25-346e6913ee9f","system_id":"levelo_inurba_marseille","lat":43.30406,"lon":5.4255,"is_reserved":false,"is_disabled":false,"rental_uris":{"android":"levelo://app?vid=3d817b9d-cf7e-4ff6-8e25-346e6913ee9f","ios":"levelo://app?vid=3d817b9d-cf7e-4ff6-8e25-346e6913ee9f"},"vehicle_type_id":"4","last_reported":1701947188,"current_range_meters":6400,"station_id":"ce4bhoh2rcd13ifvqh6g","pricing_plan_id":"free"},{"bike_id":"e0756567-7870-49b5-9af8-73e51703da33","system_id":"levelo_inurba_marseille","lat":43.295523,"lon":5.422926,"is_reserved":false,"is_disabled":false,"rental_uris":{"android":"levelo://app?vid=e0756567-7870-49b5-9af8-73e51703da33","ios":"levelo://app?vid=e0756567-7870-49b5-9af8-73e51703da33"},"vehicle_type_id":"4","last_reported":1701947188,"current_range_meters":29200,"station_id":"ce4bhph2rcd13ifvqhdg","pricing_plan_id":"free"},{"bike_id":"8a8bc4d6-0029-4fbf-9728-a692a0316877","system_id":"levelo_inurba_marseille","lat":43.272124,"lon":5.391768,"is_reserved":false,"is_disabled":false,"rental_uris":{"android":"levelo://app?vid=8a8bc4d6-0029-4fbf-9728-a692a0316877","ios":"levelo://app?vid=8a8bc4d6-0029-4fbf-9728-a692a0316877"},"vehicle_type_id":"4","last_reported":1701947188,"current_range_meters":1200,"station_id":"ce4bhhp2rcd13ifvqfm0","pricing_plan_id":"free"},{"bike_id":"77e2df1b-d75a-48fe-a6ad-744dfbe91f1d","system_id":"levelo_inurba_marseille","lat":43.27214,"lon":5.3925,"is_reserved":false,"is_disabled":false,"rental_uris":{"android":"levelo://app?vid=77e2df1b-d75a-48fe-a6ad-744dfbe91f1d","ios":"levelo://app?vid=77e2df1b-d75a-48fe-a6ad-744dfbe91f1d"},"vehicle_type_id":"4","last_reported":1701947188,"current_range_meters":9600,"station_id":"","pricing_plan_id":"free"},{"bike_id":"f77e31db-8346-4da6-a7f5-1930e3c5f4b6","system_id":"levelo_inurba_marseille","lat":43.278128,"lon":5.407195,"is_reserved":false,"is_disabled":false,"rental_uris":{"android":"levelo://app?vid=f77e31db-8346-4da6-a7f5-1930e3c5f4b6","ios":"levelo://app?vid=f77e31db-8346-4da6-a7f5-1930e3c5f4b6"},"vehicle_type_id":"4","last_reported":1701947188,"current_range_meters":20800,"station_id":"ce4bhnh2rcd13ifvqgtg","pricing_plan_id":"free"},{"bike_id":"3b1f7d01-0982-4d35-9a0c-3fc438a14900","system_id":"levelo_inurba_marseille","lat":43.269467,"lon":5.386439,"is_reserved":false,"is_disabled":false,"rental_uris":{"android":"levelo://app?vid=3b1f7d01-0982-4d35-9a0c-3fc438a14900","ios":"levelo://app?vid=3b1f7d01-0982-4d35-9a0c-3fc438a14900"},"vehicle_type_id":"4","last_reported":1701947188,"current_range_meters":11600,"station_id":"ce4bhh92rcd13ifvqfh0","pricing_plan_id":"free"},{"bike_id":"a83e76ef-6102-475d-b1a3-40f91f94482f","system_id":"levelo_inurba_marseille","lat":43.279465,"lon":5.410561,"is_reserved":false,"is_disabled":false,"rental_uris":{"android":"levelo://app?vid=a83e76ef-6102-475d-b1a3-40f91f94482f","ios":"levelo://app?vid=a83e76ef-6102-475d-b1a3-40f91f94482f"},"vehicle_type_id":"4","last_reported":1701947188,"current_range_meters":23200,"station_id":"ce4bhnp2rcd13ifvqh0g","pricing_plan_id":"free"},{"bike_id":"0fe5a138-40ea-49d1-a00c-4f018ea8761c","system_id":"levelo_inurba_marseille","lat":43.26562,"lon":5.37285,"is_reserved":false,"is_disabled":false,"rental_uris":{"android":"levelo://app?vid=0fe5a138-40ea-49d1-a00c-4f018ea8761c","ios":"levelo://app?vid=0fe5a138-40ea-49d1-a00c-4f018ea8761c"},"vehicle_type_id":"4","last_reported":1701947188,"current_range_meters":9200,"station_id":"ce4bhg12rcd13ifvqf70","pricing_plan_id":"free"},{"bike_id":"0b034be8-6149-4123-b345-96c4aa14cfd9","system_id":"levelo_inurba_marseille","lat":43.2799,"lon":5.41665,"is_reserved":false,"is_disabled":false,"rental_uris":{"android":"levelo://app?vid=0b034be8-6149-4123-b345-96c4aa14cfd9","ios":"levelo://app?vid=0b034be8-6149-4123-b345-96c4aa14cfd9"},"vehicle_type_id":"4","last_reported":1701947188,"current_range_meters":10800,"station_id":"ce4bho12rcd13ifvqh1g","pricing_plan_id":"free"},{"bike_id":"5c62f0fe-2a68-4f0e-8c5e-1c3be35b64ff","system_id":"levelo_inurba_marseille","lat":43.292871,"lon":5.428494,"is_reserved":false,"is_disabled":false,"rental_uris":{"android":"levelo://app?vid=5c62f0fe-2a68-4f0e-8c5e-1c3be35b64ff","ios":"levelo://app?vid=5c62f0fe-2a68-4f0e-8c5e-1c3be35b64ff"},"vehicle_type_id":"4","last_reported":1701947188,"current_range_meters":16000,"station_id":"","pricing_plan_id":"free"},{"bike_id":"65b3cf68-eca2-4d7b-b18d-87daafe89a02","system_id":"levelo_inurba_marseille","lat":43.26188,"lon":5.37448,"is_reserved":false,"is_disabled":false,"rental_uris":{"android":"levelo://app?vid=65b3cf68-eca2-4d7b-b18d-87daafe89a02","ios":"levelo://app?vid=65b3cf68-eca2-4d7b-b18d-87daafe89a02"},"vehicle_type_id":"4","last_reported":1701947188,"current_range_meters":0,"station_id":"ce4bhgp2rcd13ifvqfc0","pricing_plan_id":"free"},{"bike_id":"4f68f183-a711-4386-a731-e8ea8e2f115e","system_id":"levelo_inurba_marseille","lat":43.298768,"lon":5.43643,"is_reserved":false,"is_disabled":false,"rental_uris":{"android":"levelo://app?vid=4f68f183-a711-4386-a731-e8ea8e2f115e","ios":"levelo://app?vid=4f68f183-a711-4386-a731-e8ea8e2f115e"},"vehicle_type_id":"4","last_reported":1701947188,"current_range_meters":27200,"station_id":"ce4bhpp2rcd13ifvqhfg","pricing_plan_id":"free"},{"bike_id":"15516f19-6688-4602-81b1-7032ebea46f1","system_id":"levelo_inurba_marseille","lat":43.298768,"lon":5.43643,"is_reserved":false,"is_disabled":false,"rental_uris":{"android":"levelo://app?vid=15516f19-6688-4602-81b1-7032ebea46f1","ios":"levelo://app?vid=15516f19-6688-4602-81b1-7032ebea46f1"},"vehicle_type_id":"4","last_reported":1701947188,"current_range_meters":2800,"station_id":"ce4bhpp2rcd13ifvqhfg","pricing_plan_id":"free"},{"bike_id":"8c066ef0-8e33-4692-81e9-53a96288cf19","system_id":"levelo_inurba_marseille","lat":43.298768,"lon":5.43643,"is_reserved":false,"is_disabled":false,"rental_uris":{"android":"levelo://app?vid=8c066ef0-8e33-4692-81e9-53a96288cf19","ios":"levelo://app?vid=8c066ef0-8e33-4692-81e9-53a96288cf19"},"vehicle_type_id":"4","last_reported":1701947188,"current_range_meters":32000,"station_id":"ce4bhpp2rcd13ifvqhfg","pricing_plan_id":"free"},{"bike_id":"83e2018e-7127-4415-8bbf-2e347a9c6750","system_id":"levelo_inurba_marseille","lat":43.298768,"lon":5.43643,"is_reserved":false,"is_disabled":false,"rental_uris":{"android":"levelo://app?vid=83e2018e-7127-4415-8bbf-2e347a9c6750","ios":"levelo://app?vid=83e2018e-7127-4415-8bbf-2e347a9c6750"},"vehicle_type_id":"4","last_reported":1701947188,"current_range_meters":8800,"station_id":"ce4bhpp2rcd13ifvqhfg","pricing_plan_id":"free"},{"bike_id":"8188c900-5960-48dd-a9db-c6ad8299270d","system_id":"levelo_inurba_marseille","lat":43.260225,"lon":5.375455,"is_reserved":false,"is_disabled":false,"rental_uris":{"android":"levelo://app?vid=8188c900-5960-48dd-a9db-c6ad8299270d","ios":"levelo://app?vid=8188c900-5960-48dd-a9db-c6ad8299270d"},"vehicle_type_id":"4","last_reported":1701947188,"current_range_meters":8000,"station_id":"ce4bhgh2rcd13ifvqfa0","pricing_plan_id":"free"},{"bike_id":"4274f1d2-856f-4feb-8f58-6e68e240aa9a","system_id":"levelo_inurba_marseille","lat":43.260225,"lon":5.375455,"is_reserved":false,"is_disabled":false,"rental_uris":{"android":"levelo://app?vid=4274f1d2-856f-4feb-8f58-6e68e240aa9a","ios":"levelo://app?vid=4274f1d2-856f-4feb-8f58-6e68e240aa9a"},"vehicle_type_id":"4","last_reported":1701947188,"current_range_meters":25600,"station_id":"ce4bhgh2rcd13ifvqfa0","pricing_plan_id":"free"},{"bike_id":"35906b42-b8dd-45bb-a0c4-70da75ea1faf","system_id":"levelo_inurba_marseille","lat":43.281548,"lon":5.42643,"is_reserved":false,"is_disabled":false,"rental_uris":{"android":"levelo://app?vid=35906b42-b8dd-45bb-a0c4-70da75ea1faf","ios":"levelo://app?vid=35906b42-b8dd-45bb-a0c4-70da75ea1faf"},"vehicle_type_id":"4","last_reported":1701947188,"current_range_meters":26400,"station_id":"ce4bhnh2rcd13ifvqgug","pricing_plan_id":"free"},{"bike_id":"d7c2e738-a6f0-4b41-a8b2-efe4c7597b55","system_id":"levelo_inurba_marseille","lat":43.270721,"lon":5.422764,"is_reserved":false,"is_disabled":false,"rental_uris":{"android":"levelo://app?vid=d7c2e738-a6f0-4b41-a8b2-efe4c7597b55","ios":"levelo://app?vid=d7c2e738-a6f0-4b41-a8b2-efe4c7597b55"},"vehicle_type_id":"4","last_reported":1701947188,"current_range_meters":14000,"station_id":"ce4bhk92rcd13ifvqgb0","pricing_plan_id":"free"},{"bike_id":"5ed378bf-db99-4100-b940-aa9bcba789de","system_id":"levelo_inurba_marseille","lat":43.258658,"lon":5.398935,"is_reserved":false,"is_disabled":false,"rental_uris":{"android":"levelo://app?vid=5ed378bf-db99-4100-b940-aa9bcba789de","ios":"levelo://app?vid=5ed378bf-db99-4100-b940-aa9bcba789de"},"vehicle_type_id":"4","last_reported":1701947188,"current_range_meters":3200,"station_id":"ce4bhl92rcd13ifvqghg","pricing_plan_id":"free"},{"bike_id":"5bef658c-7d39-45f6-afab-bc297c383db6","system_id":"levelo_inurba_marseille","lat":43.258658,"lon":5.398935,"is_reserved":false,"is_disabled":false,"rental_uris":{"android":"levelo://app?vid=5bef658c-7d39-45f6-afab-bc297c383db6","ios":"levelo://app?vid=5bef658c-7d39-45f6-afab-bc297c383db6"},"vehicle_type_id":"4","last_reported":1701947188,"current_range_meters":27600,"station_id":"ce4bhl92rcd13ifvqghg","pricing_plan_id":"free"},{"bike_id":"e0383ffd-4274-4049-8fb4-70af9327c69d","system_id":"levelo_inurba_marseille","lat":43.25858,"lon":5.3991,"is_reserved":false,"is_disabled":false,"rental_uris":{"android":"levelo://app?vid=e0383ffd-4274-4049-8fb4-70af9327c69d","ios":"levelo://app?vid=e0383ffd-4274-4049-8fb4-70af9327c69d"},"vehicle_type_id":"4","last_reported":1701947188,"current_range_meters":0,"station_id":"ce4bhl92rcd13ifvqghg","pricing_plan_id":"free"},{"bike_id":"79a7b157-31de-46c9-a2f5-d13f11dc9419","system_id":"levelo_inurba_marseille","lat":43.25854,"lon":5.39907,"is_reserved":false,"is_disabled":false,"rental_uris":{"android":"levelo://app?vid=79a7b157-31de-46c9-a2f5-d13f11dc9419","ios":"levelo://app?vid=79a7b157-31de-46c9-a2f5-d13f11dc9419"},"vehicle_type_id":"4","last_reported":1701947188,"current_range_meters":15600,"station_id":"ce4bhl92rcd13ifvqghg","pricing_plan_id":"free"},{"bike_id":"2fb081ec-c1ce-4af9-b0fe-1938cc73db86","system_id":"levelo_inurba_marseille","lat":43.25941,"lon":5.40903,"is_reserved":false,"is_disabled":false,"rental_uris":{"android":"levelo://app?vid=2fb081ec-c1ce-4af9-b0fe-1938cc73db86","ios":"levelo://app?vid=2fb081ec-c1ce-4af9-b0fe-1938cc73db86"},"vehicle_type_id":"4","last_reported":1701947188,"current_range_meters":0,"station_id":"ce4bhm92rcd13ifvqglg","pricing_plan_id":"free"},{"bike_id":"701604ae-0478-466c-98a4-c14fbc4e27c6","system_id":"levelo_inurba_marseille","lat":43.259009,"lon":5.40929,"is_reserved":false,"is_disabled":false,"rental_uris":{"android":"levelo://app?vid=701604ae-0478-466c-98a4-c14fbc4e27c6","ios":"levelo://app?vid=701604ae-0478-466c-98a4-c14fbc4e27c6"},"vehicle_type_id":"4","last_reported":1701947188,"current_range_meters":12400,"station_id":"ce4bhm92rcd13ifvqglg","pricing_plan_id":"free"},{"bike_id":"f956ec09-5500-495b-8e75-dd9d6965e0f2","system_id":"levelo_inurba_marseille","lat":43.250864,"lon":5.395283,"is_reserved":false,"is_disabled":false,"rental_uris":{"android":"levelo://app?vid=f956ec09-5500-495b-8e75-dd9d6965e0f2","ios":"levelo://app?vid=f956ec09-5500-495b-8e75-dd9d6965e0f2"},"vehicle_type_id":"4","last_reported":1701947188,"current_range_meters":10000,"station_id":"","pricing_plan_id":"free"},{"bike_id":"342eaaae-c321-4bc5-b00d-17c5f8c70e1e","system_id":"levelo_inurba_marseille","lat":43.24693,"lon":5.382096,"is_reserved":false,"is_disabled":false,"rental_uris":{"android":"levelo://app?vid=342eaaae-c321-4bc5-b00d-17c5f8c70e1e","ios":"levelo://app?vid=342eaaae-c321-4bc5-b00d-17c5f8c70e1e"},"vehicle_type_id":"4","last_reported":1701947188,"current_range_meters":30800,"station_id":"ce4bhih2rcd13ifvqfr0","pricing_plan_id":"free"},{"bike_id":"efbd6eea-329a-4f5c-8979-e2a593053f5b","system_id":"levelo_inurba_marseille","lat":43.25102,"lon":5.403214,"is_reserved":false,"is_disabled":false,"rental_uris":{"android":"levelo://app?vid=efbd6eea-329a-4f5c-8979-e2a593053f5b","ios":"levelo://app?vid=efbd6eea-329a-4f5c-8979-e2a593053f5b"},"vehicle_type_id":"4","last_reported":1701947188,"current_range_meters":31200,"station_id":"ce4bhlh2rcd13ifvqgig","pricing_plan_id":"free"},{"bike_id":"276ac2f2-b97e-47b0-a7b2-d9f7f0d78f98","system_id":"levelo_inurba_marseille","lat":43.246467,"lon":5.388984,"is_reserved":false,"is_disabled":false,"rental_uris":{"android":"levelo://app?vid=276ac2f2-b97e-47b0-a7b2-d9f7f0d78f98","ios":"levelo://app?vid=276ac2f2-b97e-47b0-a7b2-d9f7f0d78f98"},"vehicle_type_id":"4","last_reported":1701947188,"current_range_meters":18400,"station_id":"ce4bhg12rcd13ifvqf60","pricing_plan_id":"free"},{"bike_id":"1bd4b0cb-9b7b-45f0-889a-4b83b5b6aaf1","system_id":"levelo_inurba_marseille","lat":43.24076,"lon":5.37756,"is_reserved":false,"is_disabled":false,"rental_uris":{"android":"levelo://app?vid=1bd4b0cb-9b7b-45f0-889a-4b83b5b6aaf1","ios":"levelo://app?vid=1bd4b0cb-9b7b-45f0-889a-4b83b5b6aaf1"},"vehicle_type_id":"4","last_reported":1701947188,"current_range_meters":0,"station_id":"ce4bhnp2rcd13ifvqgvg","pricing_plan_id":"free"},{"bike_id":"44feccfc-f9a3-49a1-8281-b4a0f5e16a26","system_id":"levelo_inurba_marseille","lat":43.231919,"lon":5.355532,"is_reserved":false,"is_disabled":false,"rental_uris":{"android":"levelo://app?vid=44feccfc-f9a3-49a1-8281-b4a0f5e16a26","ios":"levelo://app?vid=44feccfc-f9a3-49a1-8281-b4a0f5e16a26"},"vehicle_type_id":"4","last_reported":1701947188,"current_range_meters":28800,"station_id":"ce4bhu92rcd13ifvqi70","pricing_plan_id":"free"},{"bike_id":"9c5c4c18-2a66-40c5-8173-135f7ca24cd6","system_id":"levelo_inurba_marseille","lat":43.231793,"lon":5.400044,"is_reserved":false,"is_disabled":false,"rental_uris":{"android":"levelo://app?vid=9c5c4c18-2a66-40c5-8173-135f7ca24cd6","ios":"levelo://app?vid=9c5c4c18-2a66-40c5-8173-135f7ca24cd6"},"vehicle_type_id":"4","last_reported":1701947188,"current_range_meters":16400,"station_id":"ce4bhn12rcd13ifvqgqg","pricing_plan_id":"free"},{"bike_id":"dafb76d3-48a3-4e10-8abe-6207ac6827bf","system_id":"levelo_inurba_marseille","lat":43.231562,"lon":5.436933,"is_reserved":false,"is_disabled":false,"rental_uris":{"android":"levelo://app?vid=dafb76d3-48a3-4e10-8abe-6207ac6827bf","ios":"levelo://app?vid=dafb76d3-48a3-4e10-8abe-6207ac6827bf"},"vehicle_type_id":"4","last_reported":1701947188,"current_range_meters":12800,"station_id":"ce4bhmp2rcd13ifvqgog","pricing_plan_id":"free"},{"bike_id":"c585371d-774a-418b-8733-b9524d911113","system_id":"levelo_inurba_marseille","lat":43.231562,"lon":5.436933,"is_reserved":false,"is_disabled":false,"rental_uris":{"android":"levelo://app?vid=c585371d-774a-418b-8733-b9524d911113","ios":"levelo://app?vid=c585371d-774a-418b-8733-b9524d911113"},"vehicle_type_id":"4","last_reported":1701947188,"current_range_meters":15200,"station_id":"ce4bhmp2rcd13ifvqgog","pricing_plan_id":"free"},{"bike_id":"7a322856-79ba-4174-90e9-188e9c210a06","system_id":"levelo_inurba_marseille","lat":43.231562,"lon":5.436933,"is_reserved":false,"is_disabled":false,"rental_uris":{"android":"levelo://app?vid=7a322856-79ba-4174-90e9-188e9c210a06","ios":"levelo://app?vid=7a322856-79ba-4174-90e9-188e9c210a06"},"vehicle_type_id":"4","last_reported":1701947188,"current_range_meters":12000,"station_id":"ce4bhmp2rcd13ifvqgog","pricing_plan_id":"free"},{"bike_id":"94a2bdd4-c12a-47bc-bcad-bfc47c5a8c98","system_id":"levelo_inurba_marseille","lat":43.231562,"lon":5.436933,"is_reserved":false,"is_disabled":false,"rental_uris":{"android":"levelo://app?vid=94a2bdd4-c12a-47bc-bcad-bfc47c5a8c98","ios":"levelo://app?vid=94a2bdd4-c12a-47bc-bcad-bfc47c5a8c98"},"vehicle_type_id":"4","last_reported":1701947188,"current_range_meters":15200,"station_id":"ce4bhmp2rcd13ifvqgog","pricing_plan_id":"free"},{"bike_id":"96614ef2-cec9-4e17-bb2c-aff188332efc","system_id":"levelo_inurba_marseille","lat":43.231562,"lon":5.436933,"is_reserved":false,"is_disabled":false,"rental_uris":{"android":"levelo://app?vid=96614ef2-cec9-4e17-bb2c-aff188332efc","ios":"levelo://app?vid=96614ef2-cec9-4e17-bb2c-aff188332efc"},"vehicle_type_id":"4","last_reported":1701947188,"current_range_meters":29200,"station_id":"ce4bhmp2rcd13ifvqgog","pricing_plan_id":"free"},{"bike_id":"5028508c-e020-4720-9da3-a072531c5a7c","system_id":"levelo_inurba_marseille","lat":43.231562,"lon":5.436933,"is_reserved":false,"is_disabled":false,"rental_uris":{"android":"levelo://app?vid=5028508c-e020-4720-9da3-a072531c5a7c","ios":"levelo://app?vid=5028508c-e020-4720-9da3-a072531c5a7c"},"vehicle_type_id":"4","last_reported":1701947188,"current_range_meters":9200,"station_id":"ce4bhmp2rcd13ifvqgog","pricing_plan_id":"free"},{"bike_id":"32b30606-14b9-41e6-a49f-da3543c8206c","system_id":"levelo_inurba_marseille","lat":43.231562,"lon":5.436933,"is_reserved":false,"is_disabled":false,"rental_uris":{"android":"levelo://app?vid=32b30606-14b9-41e6-a49f-da3543c8206c","ios":"levelo://app?vid=32b30606-14b9-41e6-a49f-da3543c8206c"},"vehicle_type_id":"4","last_reported":1701947188,"current_range_meters":30000,"station_id":"ce4bhmp2rcd13ifvqgog","pricing_plan_id":"free"},{"bike_id":"26aa31e9-78f8-402e-9844-92fcde0d8e9e","system_id":"levelo_inurba_marseille","lat":43.231562,"lon":5.436933,"is_reserved":false,"is_disabled":false,"rental_uris":{"android":"levelo://app?vid=26aa31e9-78f8-402e-9844-92fcde0d8e9e","ios":"levelo://app?vid=26aa31e9-78f8-402e-9844-92fcde0d8e9e"},"vehicle_type_id":"4","last_reported":1701947188,"current_range_meters":5600,"station_id":"ce4bhmp2rcd13ifvqgog","pricing_plan_id":"free"},{"bike_id":"ca6ecb89-4a6e-4b2a-a68c-9cb228ad25ce","system_id":"levelo_inurba_marseille","lat":43.231562,"lon":5.436933,"is_reserved":false,"is_disabled":false,"rental_uris":{"android":"levelo://app?vid=ca6ecb89-4a6e-4b2a-a68c-9cb228ad25ce","ios":"levelo://app?vid=ca6ecb89-4a6e-4b2a-a68c-9cb228ad25ce"},"vehicle_type_id":"4","last_reported":1701947188,"current_range_meters":16800,"station_id":"ce4bhmp2rcd13ifvqgog","pricing_plan_id":"free"},{"bike_id":"c4d763e0-a870-4439-9182-df46647c88f5","system_id":"levelo_inurba_marseille","lat":43.23151,"lon":5.43719,"is_reserved":false,"is_disabled":false,"rental_uris":{"android":"levelo://app?vid=c4d763e0-a870-4439-9182-df46647c88f5","ios":"levelo://app?vid=c4d763e0-a870-4439-9182-df46647c88f5"},"vehicle_type_id":"4","last_reported":1701947188,"current_range_meters":10000,"station_id":"ce4bhmp2rcd13ifvqgog","pricing_plan_id":"free"},{"bike_id":"167bdd97-62db-414a-9aaa-885881545e21","system_id":"levelo_inurba_marseille","lat":43.231562,"lon":5.436933,"is_reserved":false,"is_disabled":false,"rental_uris":{"android":"levelo://app?vid=167bdd97-62db-414a-9aaa-885881545e21","ios":"levelo://app?vid=167bdd97-62db-414a-9aaa-885881545e21"},"vehicle_type_id":"4","last_reported":1701947188,"current_range_meters":11200,"station_id":"ce4bhmp2rcd13ifvqgog","pricing_plan_id":"free"},{"bike_id":"ebb8e937-193f-4764-86cc-14f6a3f49c69","system_id":"levelo_inurba_marseille","lat":43.231562,"lon":5.436933,"is_reserved":false,"is_disabled":false,"rental_uris":{"android":"levelo://app?vid=ebb8e937-193f-4764-86cc-14f6a3f49c69","ios":"levelo://app?vid=ebb8e937-193f-4764-86cc-14f6a3f49c69"},"vehicle_type_id":"4","last_reported":1701947188,"current_range_meters":12000,"station_id":"ce4bhmp2rcd13ifvqgog","pricing_plan_id":"free"},{"bike_id":"149734cf-0231-46c5-b4e5-ccd25f43cea6","system_id":"levelo_inurba_marseille","lat":43.231562,"lon":5.436933,"is_reserved":false,"is_disabled":false,"rental_uris":{"android":"levelo://app?vid=149734cf-0231-46c5-b4e5-ccd25f43cea6","ios":"levelo://app?vid=149734cf-0231-46c5-b4e5-ccd25f43cea6"},"vehicle_type_id":"4","last_reported":1701947188,"current_range_meters":4000,"station_id":"ce4bhmp2rcd13ifvqgog","pricing_plan_id":"free"},{"bike_id":"0388cfcc-aee4-4b56-aaf5-4a4cb85d6319","system_id":"levelo_inurba_marseille","lat":43.231562,"lon":5.436933,"is_reserved":false,"is_disabled":false,"rental_uris":{"android":"levelo://app?vid=0388cfcc-aee4-4b56-aaf5-4a4cb85d6319","ios":"levelo://app?vid=0388cfcc-aee4-4b56-aaf5-4a4cb85d6319"},"vehicle_type_id":"4","last_reported":1701947188,"current_range_meters":20000,"station_id":"ce4bhmp2rcd13ifvqgog","pricing_plan_id":"free"},{"bike_id":"f2a13acd-23e0-4753-890d-e38186f79475","system_id":"levelo_inurba_marseille","lat":43.231562,"lon":5.436933,"is_reserved":false,"is_disabled":false,"rental_uris":{"android":"levelo://app?vid=f2a13acd-23e0-4753-890d-e38186f79475","ios":"levelo://app?vid=f2a13acd-23e0-4753-890d-e38186f79475"},"vehicle_type_id":"4","last_reported":1701947188,"current_range_meters":20000,"station_id":"ce4bhmp2rcd13ifvqgog","pricing_plan_id":"free"},{"bike_id":"6044dcff-6eb4-461c-91be-600815014433","system_id":"levelo_inurba_marseille","lat":43.231562,"lon":5.436933,"is_reserved":false,"is_disabled":false,"rental_uris":{"android":"levelo://app?vid=6044dcff-6eb4-461c-91be-600815014433","ios":"levelo://app?vid=6044dcff-6eb4-461c-91be-600815014433"},"vehicle_type_id":"4","last_reported":1701947188,"current_range_meters":26000,"station_id":"ce4bhmp2rcd13ifvqgog","pricing_plan_id":"free"}]}}