{"last_updated":1753225867,"ttl":60,"version":"2.2","data":{"bikes":[{"bike_id":"d8550a2b-4e4e-4ff1-9c76-e83e0b916220","system_id":"levelo_inurba_marseille","lat":43.31078,"lon":5.3835,"is_reserved":false,"is_disabled":false,"rental_uris":{"android":"levelo://app?vid=d8550a2b-4e4e-4ff1-9c76-e83e0b916220","ios":"levelo://app?vid=d8550a2b-4e4e-4ff1-9c76-e83e0b916220"},"vehicle_type_id":"4","last_reported":1753225867,"current_range_meters":2800,"station_id":"ce4bgv92rcd13ifvqcr0","pricing_plan_id":"cebpf4jnsgd1na2vs0mg"},{"bike_id":"bb52a6d6-e1b9-4303-a0ba-5414c8b3dd3c","system_id":"levelo_inurba_marseille","lat":43.29793,"lon":5.39351,"is_reserved":false,"is_disabled":false,"rental_uris":{"android":"levelo://app?vid=bb52a6d6-e1b9-4303-a0ba-5414c8b3dd3c","ios":"levelo://app?vid=bb52a6d6-e1b9-4303-a0ba-5414c8b3dd3c"},"vehicle_type_id":"4","last_reported":1753225867,"current_range_meters":2800,"station_id":"chh1huq6cuj3fo74tm60","pricing_plan_id":"cebpf4jnsgd1na2vs0mg"},{"bike_id":"2570fccc-bc83-4857-aceb-da270b9d0cad","system_id":"levelo_inurba_marseille","lat":43.29485,"lon":5.38184,"is_reserved":false,"is_disabled":false,"rental_uris":{"android":"levelo://app?vid=2570fccc-bc83-4857-aceb-da270b9d0cad","ios":"levelo://app?vid=2570fccc-bc83-4857-aceb-da270b9d0cad"},"vehicle_type_id":"4","last_reported":1753225867,"current_range_meters":3200,"station_id":"","pricing_plan_id":"cebpf4jnsgd1na2vs0mg"},{"bike_id":"50216683-5015-40c9-b87f-1fcc0ed7cb90","system_id":"levelo_inurba_marseille","lat":43.30761,"lon":5.4246,"is_reserved":false,"is_disabled":false,"rental_uris":{"android":"levelo://app?vid=50216683-5015-40c9-b87f-1fcc0ed7cb90","ios":"levelo://app?vid=50216683-5015-40c9-b87f-1fcc0ed7cb90"},"vehicle_type_id":"4","last_reported":1753225867,"current_range_meters":3200,"station_id":"st_cvj6ca6bvosntc0bfgr0","pricing_plan_id":"cebpf4jnsgd1na2vs0mg"},{"bike_id":"0dbbf050-f782-45de-a8fb-06035d82c115","system_id":"levelo_inurba_marseille","lat":43.26567,"lon":5.39011,"is_reserved":false,"is_disabled":true,"rental_uris":{"android":"levelo://app?vid=0dbbf050-f782-45de-a8fb-06035d82c115","ios":"levelo://app?vid=0dbbf050-f782-45de-a8fb-06035d82c115"},"vehicle_type_id":"4","last_reported":1753225867,"current_range_meters":3600,"station_id":"ce4bhe12rcd13ifvqf30","pricing_plan_id":"cebpf4jnsgd1na2vs0mg"},{"bike_id":"37410aef-d34c-473d-9943-f60d1129f43d","system_id":"levelo_inurba_marseille","lat":43.275758,"lon":5.384278,"is_reserved":false,"is_disabled":false,"rental_uris":{"android":"levelo://app?vid=37410aef-d34c-473d-9943-f60d1129f43d","ios":"levelo://app?vid=37410aef-d34c-473d-9943-f60d1129f43d"},"vehicle_type_id":"4","last_reported":1753225867,"current_range_meters":3600,"station_id":"ce4bhh92rcd13ifvqfi0","pricing_plan_id":"cebpf4jnsgd1na2vs0mg"},{"bike_id":"802cc8b0-f52b-437b-bce9-e9baa325a7fd","system_id":"levelo_inurba_marseille","lat":43.32119,"lon":5.36811,"is_reserved":false,"is_disabled":false,"rental_uris":{"android":"levelo://app?vid=802cc8b0-f52b-437b-bce9-e9baa325a7fd","ios":"levelo://app?vid=802cc8b0-f52b-437b-bce9-e9baa325a7fd"},"vehicle_type_id":"4","last_reported":1753225867,"current_range_meters":4000,"station_id":"ce4bhrh2rcd13ifvqhug","pricing_plan_id":"cebpf4jnsgd1na2vs0mg"},{"bike_id":"ac39bf7e-e37d-4267-8ab8-a3d133b556e1","system_id":"levelo_inurba_marseille","lat":43.28414,"lon":5.37514,"is_reserved":false,"is_disabled":false,"rental_uris":{"android":"levelo://app?vid=ac39bf7e-e37d-4267-8ab8-a3d133b556e1","ios":"levelo://app?vid=ac39bf7e-e37d-4267-8ab8-a3d133b556e1"},"vehicle_type_id":"4","last_reported":1753225867,"current_range_meters":4400,"station_id":"ce4bh412rcd13ifvqds0","pricing_plan_id":"cebpf4jnsgd1na2vs0mg"},{"bike_id":"85a5c837-2ce7-40d8-af0b-883362dd3119","system_id":"levelo_inurba_marseille","lat":43.27803,"lon":5.35505,"is_reserved":false,"is_disabled":false,"rental_uris":{"android":"levelo://app?vid=85a5c837-2ce7-40d8-af0b-883362dd3119","ios":"levelo://app?vid=85a5c837-2ce7-40d8-af0b-883362dd3119"},"vehicle_type_id":"4","last_reported":1753225867,"current_range_meters":4800,"station_id":"","pricing_plan_id":"cebpf4jnsgd1na2vs0mg"},{"bike_id":"283d427d-39c8-45ab-ab05-e4c6bae6194f","system_id":"levelo_inurba_marseille","lat":43.31513,"lon":5.3729,"is_reserved":false,"is_disabled":false,"rental_uris":{"android":"levelo://app?vid=283d427d-39c8-45ab-ab05-e4c6bae6194f","ios":"levelo://app?vid=283d427d-39c8-45ab-ab05-e4c6bae6194f"},"vehicle_type_id":"4","last_reported":1753225867,"current_range_meters":5600,"station_id":"ce4bgt12rcd13ifvqcd0","pricing_plan_id":"cebpf4jnsgd1na2vs0mg"},{"bike_id":"6e3fc828-f893-4d52-908d-84691f5f4424","system_id":"levelo_inurba_marseille","lat":43.271875,"lon":5.40993,"is_reserved":false,"is_disabled":false,"rental_uris":{"android":"levelo://app?vid=6e3fc828-f893-4d52-908d-84691f5f4424","ios":"levelo://app?vid=6e3fc828-f893-4d52-908d-84691f5f4424"},"vehicle_type_id":"4","last_reported":1753225867,"current_range_meters":5600,"station_id":"ce4bhl12rcd13ifvqgf0","pricing_plan_id":"cebpf4jnsgd1na2vs0mg"},{"bike_id":"4bc6adaf-dded-4992-a160-92dd55e3f04b","system_id":"levelo_inurba_marseille","lat":43.31126,"lon":5.37774,"is_reserved":false,"is_disabled":false,"rental_uris":{"android":"levelo://app?vid=4bc6adaf-dded-4992-a160-92dd55e3f04b","ios":"levelo://app?vid=4bc6adaf-dded-4992-a160-92dd55e3f04b"},"vehicle_type_id":"4","last_reported":1753225867,"current_range_meters":6000,"station_id":"ce4bgt92rcd13ifvqcg0","pricing_plan_id":"cebpf4jnsgd1na2vs0mg"},{"bike_id":"78f94971-c4ce-49a6-9df0-d000fce297c3","system_id":"levelo_inurba_marseille","lat":43.30798,"lon":5.38151,"is_reserved":false,"is_disabled":false,"rental_uris":{"android":"levelo://app?vid=78f94971-c4ce-49a6-9df0-d000fce297c3","ios":"levelo://app?vid=78f94971-c4ce-49a6-9df0-d000fce297c3"},"vehicle_type_id":"4","last_reported":1753225867,"current_range_meters":6000,"station_id":"ce4bgt12rcd13ifvqce0","pricing_plan_id":"cebpf4jnsgd1na2vs0mg"},{"bike_id":"75fa687a-9456-406c-a33b-a8a29f14c1d9","system_id":"levelo_inurba_marseille","lat":43.30379,"lon":5.39337,"is_reserved":false,"is_disabled":false,"rental_uris":{"android":"levelo://app?vid=75fa687a-9456-406c-a33b-a8a29f14c1d9","ios":"levelo://app?vid=75fa687a-9456-406c-a33b-a8a29f14c1d9"},"vehicle_type_id":"4","last_reported":1753225867,"current_range_meters":6400,"station_id":"","pricing_plan_id":"cebpf4jnsgd1na2vs0mg"},{"bike_id":"288e40f1-8fbf-4748-a95b-1be5b48bdbe8","system_id":"levelo_inurba_marseille","lat":43.28945,"lon":5.36638,"is_reserved":false,"is_disabled":true,"rental_uris":{"android":"levelo://app?vid=288e40f1-8fbf-4748-a95b-1be5b48bdbe8","ios":"levelo://app?vid=288e40f1-8fbf-4748-a95b-1be5b48bdbe8"},"vehicle_type_id":"4","last_reported":1753225867,"current_range_meters":6400,"station_id":"ce4bhap2rcd13ifvqek0","pricing_plan_id":"cebpf4jnsgd1na2vs0mg"},{"bike_id":"374764e9-1483-4c39-a939-2017d46b717a","system_id":"levelo_inurba_marseille","lat":43.28036,"lon":5.35046,"is_reserved":false,"is_disabled":false,"rental_uris":{"android":"levelo://app?vid=374764e9-1483-4c39-a939-2017d46b717a","ios":"levelo://app?vid=374764e9-1483-4c39-a939-2017d46b717a"},"vehicle_type_id":"4","last_reported":1753225867,"current_range_meters":6400,"station_id":"","pricing_plan_id":"cebpf4jnsgd1na2vs0mg"},{"bike_id":"e9249a53-9213-4990-9748-fa547a89b55f","system_id":"levelo_inurba_marseille","lat":43.29014,"lon":5.35609,"is_reserved":false,"is_disabled":false,"rental_uris":{"android":"levelo://app?vid=e9249a53-9213-4990-9748-fa547a89b55f","ios":"levelo://app?vid=e9249a53-9213-4990-9748-fa547a89b55f"},"vehicle_type_id":"4","last_reported":1753225867,"current_range_meters":6800,"station_id":"ce4bhb92rcd13ifvqen0","pricing_plan_id":"cebpf4jnsgd1na2vs0mg"},{"bike_id":"77fa1dcc-d179-48ea-8adf-42f462112335","system_id":"levelo_inurba_marseille","lat":43.28699,"lon":5.39993,"is_reserved":false,"is_disabled":false,"rental_uris":{"android":"levelo://app?vid=77fa1dcc-d179-48ea-8adf-42f462112335","ios":"levelo://app?vid=77fa1dcc-d179-48ea-8adf-42f462112335"},"vehicle_type_id":"4","last_reported":1753225867,"current_range_meters":6800,"station_id":"ce4bho92rcd13ifvqh3g","pricing_plan_id":"cebpf4jnsgd1na2vs0mg"},{"bike_id":"b9a2dd08-3450-4b4a-bfc0-549be426188c","system_id":"levelo_inurba_marseille","lat":43.28611,"lon":5.42694,"is_reserved":false,"is_disabled":false,"rental_uris":{"android":"levelo://app?vid=b9a2dd08-3450-4b4a-bfc0-549be426188c","ios":"levelo://app?vid=b9a2dd08-3450-4b4a-bfc0-549be426188c"},"vehicle_type_id":"4","last_reported":1753225867,"current_range_meters":6800,"station_id":"","pricing_plan_id":"cebpf4jnsgd1na2vs0mg"},{"bike_id":"42413a25-16d1-4419-b44a-45580e0c6ac6","system_id":"levelo_inurba_marseille","lat":43.33824,"lon":5.37486,"is_reserved":false,"is_disabled":false,"rental_uris":{"android":"levelo://app?vid=42413a25-16d1-4419-b44a-45580e0c6ac6","ios":"levelo://app?vid=42413a25-16d1-4419-b44a-45580e0c6ac6"},"vehicle_type_id":"4","last_reported":1753225867,"current_range_meters":7200,"station_id":"","pricing_plan_id":"cebpf4jnsgd1na2vs0mg"},{"bike_id":"3808bbbc-bf71-4de1-97ee-2481d526b56a","system_id":"levelo_inurba_marseille","lat":43.27074,"lon":5.42285,"is_reserved":false,"is_disabled":true,"rental_uris":{"android":"levelo://app?vid=3808bbbc-bf71-4de1-97ee-2481d526b56a","ios":"levelo://app?vid=3808bbbc-bf71-4de1-97ee-2481d526b56a"},"vehicle_type_id":"4","last_reported":1753225867,"current_range_meters":7200,"station_id":"ce4bhk92rcd13ifvqgb0","pricing_plan_id":"cebpf4jnsgd1na2vs0mg"},{"bike_id":"1ed02760-256c-4651-965d-c0469fc301cb","system_id":"levelo_inurba_marseille","lat":43.2834,"lon":5.38116,"is_reserved":false,"is_disabled":false,"rental_uris":{"android":"levelo://app?vid=1ed02760-256c-4651-965d-c0469fc301cb","ios":"levelo://app?vid=1ed02760-256c-4651-965d-c0469fc301cb"},"vehicle_type_id":"4","last_reported":1753225867,"current_range_meters":7200,"station_id":"ce4bh412rcd13ifvqdr0","pricing_plan_id":"cebpf4jnsgd1na2vs0mg"},{"bike_id":"43161944-3992-401a-9da8-62c44b95faa2","system_id":"levelo_inurba_marseille","lat":43.28025,"lon":5.36954,"is_reserved":false,"is_disabled":false,"rental_uris":{"android":"levelo://app?vid=43161944-3992-401a-9da8-62c44b95faa2","ios":"levelo://app?vid=43161944-3992-401a-9da8-62c44b95faa2"},"vehicle_type_id":"4","last_reported":1753225867,"current_range_meters":8000,"station_id":"ce4bha12rcd13ifvqef0","pricing_plan_id":"cebpf4jnsgd1na2vs0mg"},{"bike_id":"f81d648c-1981-4daf-be99-4792234208b2","system_id":"levelo_inurba_marseille","lat":43.262709,"lon":5.371656,"is_reserved":false,"is_disabled":false,"rental_uris":{"android":"levelo://app?vid=f81d648c-1981-4daf-be99-4792234208b2","ios":"levelo://app?vid=f81d648c-1981-4daf-be99-4792234208b2"},"vehicle_type_id":"4","last_reported":1753225867,"current_range_meters":8000,"station_id":"","pricing_plan_id":"cebpf4jnsgd1na2vs0mg"},{"bike_id":"36c804c1-e116-432f-b883-355821b3c55d","system_id":"levelo_inurba_marseille","lat":43.29818,"lon":5.39347,"is_reserved":false,"is_disabled":false,"rental_uris":{"android":"levelo://app?vid=36c804c1-e116-432f-b883-355821b3c55d","ios":"levelo://app?vid=36c804c1-e116-432f-b883-355821b3c55d"},"vehicle_type_id":"4","last_reported":1753225867,"current_range_meters":8000,"station_id":"chh1huq6cuj3fo74tm60","pricing_plan_id":"cebpf4jnsgd1na2vs0mg"},{"bike_id":"3eb8cd9f-24db-4c56-915a-668134d5d369","system_id":"levelo_inurba_marseille","lat":43.284168,"lon":5.3498,"is_reserved":false,"is_disabled":false,"rental_uris":{"android":"levelo://app?vid=3eb8cd9f-24db-4c56-915a-668134d5d369","ios":"levelo://app?vid=3eb8cd9f-24db-4c56-915a-668134d5d369"},"vehicle_type_id":"4","last_reported":1753225867,"current_range_meters":8000,"station_id":"ce4bh292rcd13ifvqdg0","pricing_plan_id":"cebpf4jnsgd1na2vs0mg"},{"bike_id":"e2ad22bd-fb78-4260-89a9-4eb3d2d74a7e","system_id":"levelo_inurba_marseille","lat":43.31369,"lon":5.38501,"is_reserved":false,"is_disabled":false,"rental_uris":{"android":"levelo://app?vid=e2ad22bd-fb78-4260-89a9-4eb3d2d74a7e","ios":"levelo://app?vid=e2ad22bd-fb78-4260-89a9-4eb3d2d74a7e"},"vehicle_type_id":"4","last_reported":1753225867,"current_range_meters":8000,"station_id":"ce4bgt92rcd13ifvqcf0","pricing_plan_id":"cebpf4jnsgd1na2vs0mg"},{"bike_id":"bc8e8184-a6af-4eda-9557-7e503f0c793c","system_id":"levelo_inurba_marseille","lat":43.24168,"lon":5.39721,"is_reserved":false,"is_disabled":true,"rental_uris":{"android":"levelo://app?vid=bc8e8184-a6af-4eda-9557-7e503f0c793c","ios":"levelo://app?vid=bc8e8184-a6af-4eda-9557-7e503f0c793c"},"vehicle_type_id":"4","last_reported":1753225867,"current_range_meters":8400,"station_id":"ce4bhn12rcd13ifvqgpg","pricing_plan_id":"cebpf4jnsgd1na2vs0mg"},{"bike_id":"80f5ba5f-056e-476f-b718-fbe90686e992","system_id":"levelo_inurba_marseille","lat":43.304194,"lon":5.387661,"is_reserved":false,"is_disabled":false,"rental_uris":{"android":"levelo://app?vid=80f5ba5f-056e-476f-b718-fbe90686e992","ios":"levelo://app?vid=80f5ba5f-056e-476f-b718-fbe90686e992"},"vehicle_type_id":"4","last_reported":1753225867,"current_range_meters":8400,"station_id":"ce4bgk12rcd13ifvqbi0","pricing_plan_id":"cebpf4jnsgd1na2vs0mg"},{"bike_id":"e4761578-ae86-4dfa-b146-0428e5d8cca7","system_id":"levelo_inurba_marseille","lat":43.24189,"lon":5.36418,"is_reserved":false,"is_disabled":true,"rental_uris":{"android":"levelo://app?vid=e4761578-ae86-4dfa-b146-0428e5d8cca7","ios":"levelo://app?vid=e4761578-ae86-4dfa-b146-0428e5d8cca7"},"vehicle_type_id":"4","last_reported":1753225867,"current_range_meters":8800,"station_id":"cpo36qri1sfpv3e86is0","pricing_plan_id":"cebpf4jnsgd1na2vs0mg"},{"bike_id":"820b928c-3610-4f8b-970c-94806d91d1e3","system_id":"levelo_inurba_marseille","lat":43.28706,"lon":5.39985,"is_reserved":false,"is_disabled":false,"rental_uris":{"android":"levelo://app?vid=820b928c-3610-4f8b-970c-94806d91d1e3","ios":"levelo://app?vid=820b928c-3610-4f8b-970c-94806d91d1e3"},"vehicle_type_id":"4","last_reported":1753225867,"current_range_meters":8800,"station_id":"ce4bho92rcd13ifvqh3g","pricing_plan_id":"cebpf4jnsgd1na2vs0mg"},{"bike_id":"bb380764-c530-4a78-b0da-323ed592b1da","system_id":"levelo_inurba_marseille","lat":43.31707,"lon":5.43697,"is_reserved":false,"is_disabled":false,"rental_uris":{"android":"levelo://app?vid=bb380764-c530-4a78-b0da-323ed592b1da","ios":"levelo://app?vid=bb380764-c530-4a78-b0da-323ed592b1da"},"vehicle_type_id":"4","last_reported":1753225867,"current_range_meters":8800,"station_id":"ce4bhp92rcd13ifvqhcg","pricing_plan_id":"cebpf4jnsgd1na2vs0mg"},{"bike_id":"d0820300-6ef9-4ba3-9a95-cfbea6c21cf8","system_id":"levelo_inurba_marseille","lat":43.30302,"lon":5.3922,"is_reserved":false,"is_disabled":false,"rental_uris":{"android":"levelo://app?vid=d0820300-6ef9-4ba3-9a95-cfbea6c21cf8","ios":"levelo://app?vid=d0820300-6ef9-4ba3-9a95-cfbea6c21cf8"},"vehicle_type_id":"4","last_reported":1753225867,"current_range_meters":8800,"station_id":"ce4bgkh2rcd13ifvqbk0","pricing_plan_id":"cebpf4jnsgd1na2vs0mg"},{"bike_id":"faf91a33-0db1-4169-9ece-a781d52ccb31","system_id":"levelo_inurba_marseille","lat":43.2397,"lon":5.36632,"is_reserved":false,"is_disabled":false,"rental_uris":{"android":"levelo://app?vid=faf91a33-0db1-4169-9ece-a781d52ccb31","ios":"levelo://app?vid=faf91a33-0db1-4169-9ece-a781d52ccb31"},"vehicle_type_id":"4","last_reported":1753225867,"current_range_meters":9200,"station_id":"ce4bhi12rcd13ifvqfp0","pricing_plan_id":"cebpf4jnsgd1na2vs0mg"},{"bike_id":"b6bede71-3dc5-4ed8-b97d-87e394a51c04","system_id":"levelo_inurba_marseille","lat":43.287187,"lon":5.37381,"is_reserved":false,"is_disabled":false,"rental_uris":{"android":"levelo://app?vid=b6bede71-3dc5-4ed8-b97d-87e394a51c04","ios":"levelo://app?vid=b6bede71-3dc5-4ed8-b97d-87e394a51c04"},"vehicle_type_id":"4","last_reported":1753225867,"current_range_meters":9200,"station_id":"ce4bh3p2rcd13ifvqdq0","pricing_plan_id":"cebpf4jnsgd1na2vs0mg"},{"bike_id":"6c5d88f5-8434-4f18-b840-c4495f7c4ad9","system_id":"levelo_inurba_marseille","lat":43.28407,"lon":5.3751,"is_reserved":false,"is_disabled":false,"rental_uris":{"android":"levelo://app?vid=6c5d88f5-8434-4f18-b840-c4495f7c4ad9","ios":"levelo://app?vid=6c5d88f5-8434-4f18-b840-c4495f7c4ad9"},"vehicle_type_id":"4","last_reported":1753225867,"current_range_meters":9600,"station_id":"ce4bh412rcd13ifvqds0","pricing_plan_id":"cebpf4jnsgd1na2vs0mg"},{"bike_id":"9ae7d50c-a3ea-4136-8080-315c191e000a","system_id":"levelo_inurba_marseille","lat":43.287517,"lon":5.38416,"is_reserved":false,"is_disabled":false,"rental_uris":{"android":"levelo://app?vid=9ae7d50c-a3ea-4136-8080-315c191e000a","ios":"levelo://app?vid=9ae7d50c-a3ea-4136-8080-315c191e000a"},"vehicle_type_id":"4","last_reported":1753225867,"current_range_meters":10000,"station_id":"","pricing_plan_id":"cebpf4jnsgd1na2vs0mg"},{"bike_id":"0d5df9cf-a26f-4b88-8a72-d5c285f6d8b5","system_id":"levelo_inurba_marseille","lat":43.283575,"lon":5.38108,"is_reserved":false,"is_disabled":false,"rental_uris":{"android":"levelo://app?vid=0d5df9cf-a26f-4b88-8a72-d5c285f6d8b5","ios":"levelo://app?vid=0d5df9cf-a26f-4b88-8a72-d5c285f6d8b5"},"vehicle_type_id":"4","last_reported":1753225867,"current_range_meters":10000,"station_id":"ce4bh412rcd13ifvqdr0","pricing_plan_id":"cebpf4jnsgd1na2vs0mg"},{"bike_id":"510e1d6f-5725-4768-b8fc-942d80656133","system_id":"levelo_inurba_marseille","lat":43.26557,"lon":5.372815,"is_reserved":false,"is_disabled":false,"rental_uris":{"android":"levelo://app?vid=510e1d6f-5725-4768-b8fc-942d80656133","ios":"levelo://app?vid=510e1d6f-5725-4768-b8fc-942d80656133"},"vehicle_type_id":"4","last_reported":1753225867,"current_range_meters":10000,"station_id":"ce4bhg12rcd13ifvqf70","pricing_plan_id":"cebpf4jnsgd1na2vs0mg"},{"bike_id":"8683ce90-f074-4b78-8033-8d3c6f735b73","system_id":"levelo_inurba_marseille","lat":43.32367,"lon":5.36755,"is_reserved":false,"is_disabled":true,"rental_uris":{"android":"levelo://app?vid=8683ce90-f074-4b78-8033-8d3c6f735b73","ios":"levelo://app?vid=8683ce90-f074-4b78-8033-8d3c6f735b73"},"vehicle_type_id":"4","last_reported":1753225867,"current_range_meters":10800,"station_id":"ce4bhsh2rcd13ifvqi2g","pricing_plan_id":"cebpf4jnsgd1na2vs0mg"},{"bike_id":"7a568569-b392-41ed-bc91-5aaf454dd52a","system_id":"levelo_inurba_marseille","lat":43.307369,"lon":5.424454,"is_reserved":false,"is_disabled":false,"rental_uris":{"android":"levelo://app?vid=7a568569-b392-41ed-bc91-5aaf454dd52a","ios":"levelo://app?vid=7a568569-b392-41ed-bc91-5aaf454dd52a"},"vehicle_type_id":"4","last_reported":1753225867,"current_range_meters":10800,"station_id":"st_cvj6ca6bvosntc0bfgr0","pricing_plan_id":"cebpf4jnsgd1na2vs0mg"},{"bike_id":"8837a279-972e-48d3-803d-51e8b67b1910","system_id":"levelo_inurba_marseille","lat":43.30139,"lon":5.39868,"is_reserved":false,"is_disabled":false,"rental_uris":{"android":"levelo://app?vid=8837a279-972e-48d3-803d-51e8b67b1910","ios":"levelo://app?vid=8837a279-972e-48d3-803d-51e8b67b1910"},"vehicle_type_id":"4","last_reported":1753225867,"current_range_meters":10000,"station_id":"ce4bh0h2rcd13ifvqd40","pricing_plan_id":"cebpf4jnsgd1na2vs0mg"},{"bike_id":"8c1d0819-f991-43c1-a0ae-15c2c54fdbcd","system_id":"levelo_inurba_marseille","lat":43.27381,"lon":5.36249,"is_reserved":false,"is_disabled":true,"rental_uris":{"android":"levelo://app?vid=8c1d0819-f991-43c1-a0ae-15c2c54fdbcd","ios":"levelo://app?vid=8c1d0819-f991-43c1-a0ae-15c2c54fdbcd"},"vehicle_type_id":"4","last_reported":1753225867,"current_range_meters":10800,"station_id":"ce4bhbh2rcd13ifvqeo0","pricing_plan_id":"cebpf4jnsgd1na2vs0mg"},{"bike_id":"d0ca131c-4ca7-47ba-badc-c669feb1955e","system_id":"levelo_inurba_marseille","lat":43.28157,"lon":5.42648,"is_reserved":false,"is_disabled":false,"rental_uris":{"android":"levelo://app?vid=d0ca131c-4ca7-47ba-badc-c669feb1955e","ios":"levelo://app?vid=d0ca131c-4ca7-47ba-badc-c669feb1955e"},"vehicle_type_id":"4","last_reported":1753225867,"current_range_meters":10800,"station_id":"ce4bhnh2rcd13ifvqgug","pricing_plan_id":"cebpf4jnsgd1na2vs0mg"},{"bike_id":"365bc9b2-68bd-4764-ad7a-4ff9aa780715","system_id":"levelo_inurba_marseille","lat":43.29909,"lon":5.43656,"is_reserved":false,"is_disabled":false,"rental_uris":{"android":"levelo://app?vid=365bc9b2-68bd-4764-ad7a-4ff9aa780715","ios":"levelo://app?vid=365bc9b2-68bd-4764-ad7a-4ff9aa780715"},"vehicle_type_id":"4","last_reported":1753225867,"current_range_meters":10800,"station_id":"ce4bhpp2rcd13ifvqhfg","pricing_plan_id":"cebpf4jnsgd1na2vs0mg"},{"bike_id":"5b3d1ce3-d4ad-47dc-a142-e0a93918d14a","system_id":"levelo_inurba_marseille","lat":43.28106,"lon":5.37857,"is_reserved":false,"is_disabled":false,"rental_uris":{"android":"levelo://app?vid=5b3d1ce3-d4ad-47dc-a142-e0a93918d14a","ios":"levelo://app?vid=5b3d1ce3-d4ad-47dc-a142-e0a93918d14a"},"vehicle_type_id":"4","last_reported":1753225867,"current_range_meters":10800,"station_id":"ce4bha12rcd13ifvqee0","pricing_plan_id":"cebpf4jnsgd1na2vs0mg"},{"bike_id":"ed9760e2-4b26-4cf4-b350-86a1fb940703","system_id":"levelo_inurba_marseille","lat":43.28462,"lon":5.35887,"is_reserved":false,"is_disabled":false,"rental_uris":{"android":"levelo://app?vid=ed9760e2-4b26-4cf4-b350-86a1fb940703","ios":"levelo://app?vid=ed9760e2-4b26-4cf4-b350-86a1fb940703"},"vehicle_type_id":"4","last_reported":1753225867,"current_range_meters":10800,"station_id":"ce4bhah2rcd13ifvqei0","pricing_plan_id":"cebpf4jnsgd1na2vs0mg"},{"bike_id":"a5f1f0d6-c678-45f4-9b29-96eaa29a3e36","system_id":"levelo_inurba_marseille","lat":43.25136,"lon":5.37355,"is_reserved":false,"is_disabled":false,"rental_uris":{"android":"levelo://app?vid=a5f1f0d6-c678-45f4-9b29-96eaa29a3e36","ios":"levelo://app?vid=a5f1f0d6-c678-45f4-9b29-96eaa29a3e36"},"vehicle_type_id":"4","last_reported":1753225867,"current_range_meters":10800,"station_id":"","pricing_plan_id":"cebpf4jnsgd1na2vs0mg"},{"bike_id":"82c8233f-aee5-442c-9e9a-7411a4a6a37b","system_id":"levelo_inurba_marseille","lat":43.30436,"lon":5.39754,"is_reserved":false,"is_disabled":false,"rental_uris":{"android":"levelo://app?vid=82c8233f-aee5-442c-9e9a-7411a4a6a37b","ios":"levelo://app?vid=82c8233f-aee5-442c-9e9a-7411a4a6a37b"},"vehicle_type_id":"4","last_reported":1753225867,"current_range_meters":11200,"station_id":"ce4bh092rcd13ifvqd20","pricing_plan_id":"cebpf4jnsgd1na2vs0mg"},{"bike_id":"556ebe47-8298-4d93-93a6-d2e6e5588882","system_id":"levelo_inurba_marseille","lat":43.30423,"lon":5.39755,"is_reserved":false,"is_disabled":false,"rental_uris":{"android":"levelo://app?vid=556ebe47-8298-4d93-93a6-d2e6e5588882","ios":"levelo://app?vid=556ebe47-8298-4d93-93a6-d2e6e5588882"},"vehicle_type_id":"4","last_reported":1753225867,"current_range_meters":11200,"station_id":"ce4bh092rcd13ifvqd20","pricing_plan_id":"cebpf4jnsgd1na2vs0mg"},{"bike_id":"52289c8f-2dc9-4c80-8d92-272e145c2039","system_id":"levelo_inurba_marseille","lat":43.21754,"lon":5.34604,"is_reserved":false,"is_disabled":false,"rental_uris":{"android":"levelo://app?vid=52289c8f-2dc9-4c80-8d92-272e145c2039","ios":"levelo://app?vid=52289c8f-2dc9-4c80-8d92-272e145c2039"},"vehicle_type_id":"4","last_reported":1753225867,"current_range_meters":11200,"station_id":"st_cvj6r9ubvosntc0bgbag","pricing_plan_id":"cebpf4jnsgd1na2vs0mg"},{"bike_id":"c05f8a9b-b11a-421b-bf54-758864ba593c","system_id":"levelo_inurba_marseille","lat":43.25932,"lon":5.409145,"is_reserved":false,"is_disabled":true,"rental_uris":{"android":"levelo://app?vid=c05f8a9b-b11a-421b-bf54-758864ba593c","ios":"levelo://app?vid=c05f8a9b-b11a-421b-bf54-758864ba593c"},"vehicle_type_id":"4","last_reported":1753225867,"current_range_meters":11200,"station_id":"ce4bhm92rcd13ifvqglg","pricing_plan_id":"cebpf4jnsgd1na2vs0mg"},{"bike_id":"5b999bac-5d12-418d-a2dd-cddb1c5e6a1f","system_id":"levelo_inurba_marseille","lat":43.28345,"lon":5.38104,"is_reserved":false,"is_disabled":false,"rental_uris":{"android":"levelo://app?vid=5b999bac-5d12-418d-a2dd-cddb1c5e6a1f","ios":"levelo://app?vid=5b999bac-5d12-418d-a2dd-cddb1c5e6a1f"},"vehicle_type_id":"4","last_reported":1753225867,"current_range_meters":11200,"station_id":"ce4bh412rcd13ifvqdr0","pricing_plan_id":"cebpf4jnsgd1na2vs0mg"},{"bike_id":"7dbbb529-7a14-4c15-91b2-36294d397550","system_id":"levelo_inurba_marseille","lat":43.23207,"lon":5.3556,"is_reserved":false,"is_disabled":false,"rental_uris":{"android":"levelo://app?vid=7dbbb529-7a14-4c15-91b2-36294d397550","ios":"levelo://app?vid=7dbbb529-7a14-4c15-91b2-36294d397550"},"vehicle_type_id":"4","last_reported":1753225867,"current_range_meters":11200,"station_id":"ce4bhu92rcd13ifvqi70","pricing_plan_id":"cebpf4jnsgd1na2vs0mg"},{"bike_id":"084a0d08-37a8-4fe5-9e33-0df84963b7f2","system_id":"levelo_inurba_marseille","lat":43.30654,"lon":5.40086,"is_reserved":false,"is_disabled":false,"rental_uris":{"android":"levelo://app?vid=084a0d08-37a8-4fe5-9e33-0df84963b7f2","ios":"levelo://app?vid=084a0d08-37a8-4fe5-9e33-0df84963b7f2"},"vehicle_type_id":"4","last_reported":1753225867,"current_range_meters":11600,"station_id":"ce4bh112rcd13ifvqda0","pricing_plan_id":"cebpf4jnsgd1na2vs0mg"},{"bike_id":"180df186-0bd0-4942-a56f-094b30293c16","system_id":"levelo_inurba_marseille","lat":43.28443,"lon":5.3919,"is_reserved":false,"is_disabled":false,"rental_uris":{"android":"levelo://app?vid=180df186-0bd0-4942-a56f-094b30293c16","ios":"levelo://app?vid=180df186-0bd0-4942-a56f-094b30293c16"},"vehicle_type_id":"4","last_reported":1753225867,"current_range_meters":11600,"station_id":"ce4bhoh2rcd13ifvqh5g","pricing_plan_id":"cebpf4jnsgd1na2vs0mg"},{"bike_id":"dfe3c351-dfe0-4623-9604-2d1d563fb944","system_id":"levelo_inurba_marseille","lat":43.29202,"lon":5.35823,"is_reserved":false,"is_disabled":false,"rental_uris":{"android":"levelo://app?vid=dfe3c351-dfe0-4623-9604-2d1d563fb944","ios":"levelo://app?vid=dfe3c351-dfe0-4623-9604-2d1d563fb944"},"vehicle_type_id":"4","last_reported":1753225867,"current_range_meters":11600,"station_id":"ce4bhb12rcd13ifvqel0","pricing_plan_id":"cebpf4jnsgd1na2vs0mg"},{"bike_id":"331d957c-8364-49e8-ac7c-ace81aa0cfd4","system_id":"levelo_inurba_marseille","lat":43.32379,"lon":5.38874,"is_reserved":false,"is_disabled":false,"rental_uris":{"android":"levelo://app?vid=331d957c-8364-49e8-ac7c-ace81aa0cfd4","ios":"levelo://app?vid=331d957c-8364-49e8-ac7c-ace81aa0cfd4"},"vehicle_type_id":"4","last_reported":1753225867,"current_range_meters":11600,"station_id":"ce4bhqp2rcd13ifvqhog","pricing_plan_id":"cebpf4jnsgd1na2vs0mg"},{"bike_id":"54df99c9-38e6-4e8c-b2a2-998003dfb3d0","system_id":"levelo_inurba_marseille","lat":43.281571,"lon":5.426413,"is_reserved":false,"is_disabled":false,"rental_uris":{"android":"levelo://app?vid=54df99c9-38e6-4e8c-b2a2-998003dfb3d0","ios":"levelo://app?vid=54df99c9-38e6-4e8c-b2a2-998003dfb3d0"},"vehicle_type_id":"4","last_reported":1753225867,"current_range_meters":11600,"station_id":"ce4bhnh2rcd13ifvqgug","pricing_plan_id":"cebpf4jnsgd1na2vs0mg"},{"bike_id":"74124f40-7b28-4b7a-8c35-43ba0f799b46","system_id":"levelo_inurba_marseille","lat":43.224966,"lon":5.34794,"is_reserved":false,"is_disabled":false,"rental_uris":{"android":"levelo://app?vid=74124f40-7b28-4b7a-8c35-43ba0f799b46","ios":"levelo://app?vid=74124f40-7b28-4b7a-8c35-43ba0f799b46"},"vehicle_type_id":"4","last_reported":1753225867,"current_range_meters":11600,"station_id":"","pricing_plan_id":"cebpf4jnsgd1na2vs0mg"},{"bike_id":"47b8aae7-f1c0-4dfa-bc2e-f1264bdba72b","system_id":"levelo_inurba_marseille","lat":43.312931,"lon":5.390147,"is_reserved":false,"is_disabled":false,"rental_uris":{"android":"levelo://app?vid=47b8aae7-f1c0-4dfa-bc2e-f1264bdba72b","ios":"levelo://app?vid=47b8aae7-f1c0-4dfa-bc2e-f1264bdba72b"},"vehicle_type_id":"4","last_reported":1753225867,"current_range_meters":11600,"station_id":"","pricing_plan_id":"cebpf4jnsgd1na2vs0mg"},{"bike_id":"8743b88d-19da-4785-9403-93d1072e2960","system_id":"levelo_inurba_marseille","lat":43.27921,"lon":5.39585,"is_reserved":false,"is_disabled":false,"rental_uris":{"android":"levelo://app?vid=8743b88d-19da-4785-9403-93d1072e2960","ios":"levelo://app?vid=8743b88d-19da-4785-9403-93d1072e2960"},"vehicle_type_id":"4","last_reported":1753225867,"current_range_meters":11600,"station_id":"ce4bhf92rcd13ifvqf40","pricing_plan_id":"cebpf4jnsgd1na2vs0mg"},{"bike_id":"72b9b920-ac50-49dd-956f-e5ab0acd2ac4","system_id":"levelo_inurba_marseille","lat":43.30356,"lon":5.4188,"is_reserved":false,"is_disabled":false,"rental_uris":{"android":"levelo://app?vid=72b9b920-ac50-49dd-956f-e5ab0acd2ac4","ios":"levelo://app?vid=72b9b920-ac50-49dd-956f-e5ab0acd2ac4"},"vehicle_type_id":"4","last_reported":1753225867,"current_range_meters":11600,"station_id":"ce4bhop2rcd13ifvqh7g","pricing_plan_id":"cebpf4jnsgd1na2vs0mg"},{"bike_id":"89e5300e-f524-48d1-8669-762241baab60","system_id":"levelo_inurba_marseille","lat":43.22929,"lon":5.35377,"is_reserved":false,"is_disabled":false,"rental_uris":{"android":"levelo://app?vid=89e5300e-f524-48d1-8669-762241baab60","ios":"levelo://app?vid=89e5300e-f524-48d1-8669-762241baab60"},"vehicle_type_id":"4","last_reported":1753225867,"current_range_meters":12000,"station_id":"cpo3532slgdg3j2ikp40","pricing_plan_id":"cebpf4jnsgd1na2vs0mg"},{"bike_id":"b1700b43-437b-46f9-ad6c-b53dec15791d","system_id":"levelo_inurba_marseille","lat":43.26584,"lon":5.39029,"is_reserved":false,"is_disabled":true,"rental_uris":{"android":"levelo://app?vid=b1700b43-437b-46f9-ad6c-b53dec15791d","ios":"levelo://app?vid=b1700b43-437b-46f9-ad6c-b53dec15791d"},"vehicle_type_id":"4","last_reported":1753225867,"current_range_meters":12000,"station_id":"ce4bhe12rcd13ifvqf30","pricing_plan_id":"cebpf4jnsgd1na2vs0mg"},{"bike_id":"f465fda6-58de-4170-8127-14cb2501d26c","system_id":"levelo_inurba_marseille","lat":43.24389,"lon":5.3707,"is_reserved":false,"is_disabled":false,"rental_uris":{"android":"levelo://app?vid=f465fda6-58de-4170-8127-14cb2501d26c","ios":"levelo://app?vid=f465fda6-58de-4170-8127-14cb2501d26c"},"vehicle_type_id":"4","last_reported":1753225867,"current_range_meters":12400,"station_id":"","pricing_plan_id":"cebpf4jnsgd1na2vs0mg"},{"bike_id":"f17869d0-e4be-471f-b273-9b6d16234f2a","system_id":"levelo_inurba_marseille","lat":43.26066,"lon":5.39396,"is_reserved":false,"is_disabled":false,"rental_uris":{"android":"levelo://app?vid=f17869d0-e4be-471f-b273-9b6d16234f2a","ios":"levelo://app?vid=f17869d0-e4be-471f-b273-9b6d16234f2a"},"vehicle_type_id":"4","last_reported":1753225867,"current_range_meters":12400,"station_id":"ce4bhh92rcd13ifvqfj0","pricing_plan_id":"cebpf4jnsgd1na2vs0mg"},{"bike_id":"f7d24d79-fb73-44fe-a579-eccbe39a5e1e","system_id":"levelo_inurba_marseille","lat":43.24173,"lon":5.364,"is_reserved":false,"is_disabled":false,"rental_uris":{"android":"levelo://app?vid=f7d24d79-fb73-44fe-a579-eccbe39a5e1e","ios":"levelo://app?vid=f7d24d79-fb73-44fe-a579-eccbe39a5e1e"},"vehicle_type_id":"4","last_reported":1753225867,"current_range_meters":12400,"station_id":"cpo36qri1sfpv3e86is0","pricing_plan_id":"cebpf4jnsgd1na2vs0mg"},{"bike_id":"14dce4ef-3cdb-4379-9358-4a1fbdce8f93","system_id":"levelo_inurba_marseille","lat":43.28728,"lon":5.35208,"is_reserved":false,"is_disabled":false,"rental_uris":{"android":"levelo://app?vid=14dce4ef-3cdb-4379-9358-4a1fbdce8f93","ios":"levelo://app?vid=14dce4ef-3cdb-4379-9358-4a1fbdce8f93"},"vehicle_type_id":"4","last_reported":1753225867,"current_range_meters":12400,"station_id":"","pricing_plan_id":"cebpf4jnsgd1na2vs0mg"},{"bike_id":"3cef1158-540c-4055-a46b-73e02d1c17f7","system_id":"levelo_inurba_marseille","lat":43.31367,"lon":5.37455,"is_reserved":false,"is_disabled":false,"rental_uris":{"android":"levelo://app?vid=3cef1158-540c-4055-a46b-73e02d1c17f7","ios":"levelo://app?vid=3cef1158-540c-4055-a46b-73e02d1c17f7"},"vehicle_type_id":"4","last_reported":1753225867,"current_range_meters":12400,"station_id":"","pricing_plan_id":"cebpf4jnsgd1na2vs0mg"},{"bike_id":"c6f94700-b62b-4a08-a88f-3e41a975f0d0","system_id":"levelo_inurba_marseille","lat":43.284964,"lon":5.385279,"is_reserved":false,"is_disabled":true,"rental_uris":{"android":"levelo://app?vid=c6f94700-b62b-4a08-a88f-3e41a975f0d0","ios":"levelo://app?vid=c6f94700-b62b-4a08-a88f-3e41a975f0d0"},"vehicle_type_id":"4","last_reported":1753225867,"current_range_meters":12400,"station_id":"ce4bh8p2rcd13ifvqeb0","pricing_plan_id":"cebpf4jnsgd1na2vs0mg"},{"bike_id":"05d42747-d0a7-485b-804a-c208d042127e","system_id":"levelo_inurba_marseille","lat":43.24183,"lon":5.36407,"is_reserved":false,"is_disabled":false,"rental_uris":{"android":"levelo://app?vid=05d42747-d0a7-485b-804a-c208d042127e","ios":"levelo://app?vid=05d42747-d0a7-485b-804a-c208d042127e"},"vehicle_type_id":"4","last_reported":1753225867,"current_range_meters":12400,"station_id":"cpo36qri1sfpv3e86is0","pricing_plan_id":"cebpf4jnsgd1na2vs0mg"},{"bike_id":"548651c1-96df-4ea7-8a2c-5d042a08eb68","system_id":"levelo_inurba_marseille","lat":43.336044,"lon":5.410283,"is_reserved":false,"is_disabled":false,"rental_uris":{"android":"levelo://app?vid=548651c1-96df-4ea7-8a2c-5d042a08eb68","ios":"levelo://app?vid=548651c1-96df-4ea7-8a2c-5d042a08eb68"},"vehicle_type_id":"4","last_reported":1753225867,"current_range_meters":12400,"station_id":"ce4bhqh2rcd13ifvqhmg","pricing_plan_id":"cebpf4jnsgd1na2vs0mg"},{"bike_id":"aa5097b6-6968-4aec-b711-e7780938924b","system_id":"levelo_inurba_marseille","lat":43.3295,"lon":5.35925,"is_reserved":false,"is_disabled":false,"rental_uris":{"android":"levelo://app?vid=aa5097b6-6968-4aec-b711-e7780938924b","ios":"levelo://app?vid=aa5097b6-6968-4aec-b711-e7780938924b"},"vehicle_type_id":"4","last_reported":1753225867,"current_range_meters":12400,"station_id":"","pricing_plan_id":"cebpf4jnsgd1na2vs0mg"},{"bike_id":"a46fe5a2-8c9c-49e2-a95f-344355277483","system_id":"levelo_inurba_marseille","lat":43.31371,"lon":5.38498,"is_reserved":false,"is_disabled":false,"rental_uris":{"android":"levelo://app?vid=a46fe5a2-8c9c-49e2-a95f-344355277483","ios":"levelo://app?vid=a46fe5a2-8c9c-49e2-a95f-344355277483"},"vehicle_type_id":"4","last_reported":1753225867,"current_range_meters":12800,"station_id":"","pricing_plan_id":"cebpf4jnsgd1na2vs0mg"},{"bike_id":"c9dbd36b-479c-4a5c-b200-3aa7673340d9","system_id":"levelo_inurba_marseille","lat":43.241448,"lon":5.363743,"is_reserved":false,"is_disabled":false,"rental_uris":{"android":"levelo://app?vid=c9dbd36b-479c-4a5c-b200-3aa7673340d9","ios":"levelo://app?vid=c9dbd36b-479c-4a5c-b200-3aa7673340d9"},"vehicle_type_id":"4","last_reported":1753225867,"current_range_meters":12800,"station_id":"","pricing_plan_id":"cebpf4jnsgd1na2vs0mg"},{"bike_id":"5a860519-c14f-42b7-b882-9e8aca90d7fe","system_id":"levelo_inurba_marseille","lat":43.29256,"lon":5.40921,"is_reserved":false,"is_disabled":false,"rental_uris":{"android":"levelo://app?vid=5a860519-c14f-42b7-b882-9e8aca90d7fe","ios":"levelo://app?vid=5a860519-c14f-42b7-b882-9e8aca90d7fe"},"vehicle_type_id":"4","last_reported":1753225867,"current_range_meters":12800,"station_id":"ce4bh192rcd13ifvqdc0","pricing_plan_id":"cebpf4jnsgd1na2vs0mg"},{"bike_id":"85b65ca0-7365-40fb-8905-5a0638bc8593","system_id":"levelo_inurba_marseille","lat":43.229291,"lon":5.353746,"is_reserved":false,"is_disabled":false,"rental_uris":{"android":"levelo://app?vid=85b65ca0-7365-40fb-8905-5a0638bc8593","ios":"levelo://app?vid=85b65ca0-7365-40fb-8905-5a0638bc8593"},"vehicle_type_id":"4","last_reported":1753225867,"current_range_meters":12800,"station_id":"cpo3532slgdg3j2ikp40","pricing_plan_id":"cebpf4jnsgd1na2vs0mg"},{"bike_id":"2c1e9165-c24b-44a9-8add-5b1e44eeaaee","system_id":"levelo_inurba_marseille","lat":43.302997,"lon":5.369003,"is_reserved":false,"is_disabled":false,"rental_uris":{"android":"levelo://app?vid=2c1e9165-c24b-44a9-8add-5b1e44eeaaee","ios":"levelo://app?vid=2c1e9165-c24b-44a9-8add-5b1e44eeaaee"},"vehicle_type_id":"4","last_reported":1753225867,"current_range_meters":12800,"station_id":"ce4bgqh2rcd13ifvqc5g","pricing_plan_id":"cebpf4jnsgd1na2vs0mg"},{"bike_id":"3c21b9e1-b296-4844-a6d5-b8d19c7f36c9","system_id":"levelo_inurba_marseille","lat":43.29179,"lon":5.38456,"is_reserved":false,"is_disabled":false,"rental_uris":{"android":"levelo://app?vid=3c21b9e1-b296-4844-a6d5-b8d19c7f36c9","ios":"levelo://app?vid=3c21b9e1-b296-4844-a6d5-b8d19c7f36c9"},"vehicle_type_id":"4","last_reported":1753225867,"current_range_meters":12800,"station_id":"","pricing_plan_id":"cebpf4jnsgd1na2vs0mg"},{"bike_id":"14ccb160-29ff-436c-b37f-91da99a35cc9","system_id":"levelo_inurba_marseille","lat":43.310788,"lon":5.383535,"is_reserved":false,"is_disabled":false,"rental_uris":{"android":"levelo://app?vid=14ccb160-29ff-436c-b37f-91da99a35cc9","ios":"levelo://app?vid=14ccb160-29ff-436c-b37f-91da99a35cc9"},"vehicle_type_id":"4","last_reported":1753225867,"current_range_meters":12800,"station_id":"ce4bgv92rcd13ifvqcr0","pricing_plan_id":"cebpf4jnsgd1na2vs0mg"},{"bike_id":"eab4f846-5d92-4ff3-b338-a889cec8a07c","system_id":"levelo_inurba_marseille","lat":43.30101,"lon":5.39095,"is_reserved":false,"is_disabled":false,"rental_uris":{"android":"levelo://app?vid=eab4f846-5d92-4ff3-b338-a889cec8a07c","ios":"levelo://app?vid=eab4f846-5d92-4ff3-b338-a889cec8a07c"},"vehicle_type_id":"4","last_reported":1753225867,"current_range_meters":12800,"station_id":"ce4bh192rcd13ifvqdb0","pricing_plan_id":"cebpf4jnsgd1na2vs0mg"},{"bike_id":"dfb70569-575b-4627-ace4-b72c9d7227f9","system_id":"levelo_inurba_marseille","lat":43.24076,"lon":5.37764,"is_reserved":false,"is_disabled":false,"rental_uris":{"android":"levelo://app?vid=dfb70569-575b-4627-ace4-b72c9d7227f9","ios":"levelo://app?vid=dfb70569-575b-4627-ace4-b72c9d7227f9"},"vehicle_type_id":"4","last_reported":1753225867,"current_range_meters":13600,"station_id":"ce4bhnp2rcd13ifvqgvg","pricing_plan_id":"cebpf4jnsgd1na2vs0mg"},{"bike_id":"3a06c077-7fae-4d0f-b353-30cd2759bd69","system_id":"levelo_inurba_marseille","lat":43.2971,"lon":5.36602,"is_reserved":false,"is_disabled":false,"rental_uris":{"android":"levelo://app?vid=3a06c077-7fae-4d0f-b353-30cd2759bd69","ios":"levelo://app?vid=3a06c077-7fae-4d0f-b353-30cd2759bd69"},"vehicle_type_id":"4","last_reported":1753225867,"current_range_meters":13600,"station_id":"ce4bgn12rcd13ifvqbt0","pricing_plan_id":"cebpf4jnsgd1na2vs0mg"},{"bike_id":"b2ada12c-eda9-45d0-9b84-215e5471cf62","system_id":"levelo_inurba_marseille","lat":43.32648,"lon":5.40989,"is_reserved":false,"is_disabled":false,"rental_uris":{"android":"levelo://app?vid=b2ada12c-eda9-45d0-9b84-215e5471cf62","ios":"levelo://app?vid=b2ada12c-eda9-45d0-9b84-215e5471cf62"},"vehicle_type_id":"4","last_reported":1753225867,"current_range_meters":13600,"station_id":"ce4bhpp2rcd13ifvqhgg","pricing_plan_id":"cebpf4jnsgd1na2vs0mg"},{"bike_id":"2354a578-b732-43f4-ac7f-14badb5b4c61","system_id":"levelo_inurba_marseille","lat":43.2253,"lon":5.34778,"is_reserved":false,"is_disabled":false,"rental_uris":{"android":"levelo://app?vid=2354a578-b732-43f4-ac7f-14badb5b4c61","ios":"levelo://app?vid=2354a578-b732-43f4-ac7f-14badb5b4c61"},"vehicle_type_id":"4","last_reported":1753225867,"current_range_meters":13600,"station_id":"st_cvj5dfep6f1abm77gieg","pricing_plan_id":"cebpf4jnsgd1na2vs0mg"},{"bike_id":"b1e97b1e-2d80-4c94-8524-09126906d203","system_id":"levelo_inurba_marseille","lat":43.286604,"lon":5.363608,"is_reserved":false,"is_disabled":false,"rental_uris":{"android":"levelo://app?vid=b1e97b1e-2d80-4c94-8524-09126906d203","ios":"levelo://app?vid=b1e97b1e-2d80-4c94-8524-09126906d203"},"vehicle_type_id":"4","last_reported":1753225867,"current_range_meters":13600,"station_id":"ce4bhah2rcd13ifvqej0","pricing_plan_id":"cebpf4jnsgd1na2vs0mg"},{"bike_id":"b8157e49-d09e-4d5e-90fd-5d667c09b9a5","system_id":"levelo_inurba_marseille","lat":43.29058,"lon":5.3717,"is_reserved":false,"is_disabled":true,"rental_uris":{"android":"levelo://app?vid=b8157e49-d09e-4d5e-90fd-5d667c09b9a5","ios":"levelo://app?vid=b8157e49-d09e-4d5e-90fd-5d667c09b9a5"},"vehicle_type_id":"4","last_reported":1753225867,"current_range_meters":13600,"station_id":"ce4bgh92rcd13ifvqb40","pricing_plan_id":"cebpf4jnsgd1na2vs0mg"},{"bike_id":"d75484ee-50a5-43ad-9955-6f8133a22715","system_id":"levelo_inurba_marseille","lat":43.30593,"lon":5.39355,"is_reserved":false,"is_disabled":false,"rental_uris":{"android":"levelo://app?vid=d75484ee-50a5-43ad-9955-6f8133a22715","ios":"levelo://app?vid=d75484ee-50a5-43ad-9955-6f8133a22715"},"vehicle_type_id":"4","last_reported":1753225867,"current_range_meters":13600,"station_id":"ce4bh0p2rcd13ifvqd80","pricing_plan_id":"cebpf4jnsgd1na2vs0mg"},{"bike_id":"1814aead-c7f1-4b20-8570-698d90166305","system_id":"levelo_inurba_marseille","lat":43.2582,"lon":5.39438,"is_reserved":false,"is_disabled":true,"rental_uris":{"android":"levelo://app?vid=1814aead-c7f1-4b20-8570-698d90166305","ios":"levelo://app?vid=1814aead-c7f1-4b20-8570-698d90166305"},"vehicle_type_id":"4","last_reported":1753225867,"current_range_meters":13600,"station_id":"ce4bhih2rcd13ifvqfr0","pricing_plan_id":"cebpf4jnsgd1na2vs0mg"},{"bike_id":"72576955-e119-40d4-89ab-e52fbaca2af9","system_id":"levelo_inurba_marseille","lat":43.26397,"lon":5.40815,"is_reserved":false,"is_disabled":false,"rental_uris":{"android":"levelo://app?vid=72576955-e119-40d4-89ab-e52fbaca2af9","ios":"levelo://app?vid=72576955-e119-40d4-89ab-e52fbaca2af9"},"vehicle_type_id":"4","last_reported":1753225867,"current_range_meters":13600,"station_id":"","pricing_plan_id":"cebpf4jnsgd1na2vs0mg"},{"bike_id":"0e454c15-3121-412c-bfc5-8d41acc22902","system_id":"levelo_inurba_marseille","lat":43.292712,"lon":5.408816,"is_reserved":false,"is_disabled":false,"rental_uris":{"android":"levelo://app?vid=0e454c15-3121-412c-bfc5-8d41acc22902","ios":"levelo://app?vid=0e454c15-3121-412c-bfc5-8d41acc22902"},"vehicle_type_id":"4","last_reported":1753225867,"current_range_meters":14000,"station_id":"ce4bh192rcd13ifvqdc0","pricing_plan_id":"cebpf4jnsgd1na2vs0mg"},{"bike_id":"c371b7c0-ee79-4c3f-8776-9b2c520ccff8","system_id":"levelo_inurba_marseille","lat":43.30136,"lon":5.38774,"is_reserved":false,"is_disabled":false,"rental_uris":{"android":"levelo://app?vid=c371b7c0-ee79-4c3f-8776-9b2c520ccff8","ios":"levelo://app?vid=c371b7c0-ee79-4c3f-8776-9b2c520ccff8"},"vehicle_type_id":"4","last_reported":1753225867,"current_range_meters":14000,"station_id":"ce4bghh2rcd13ifvqb60","pricing_plan_id":"cebpf4jnsgd1na2vs0mg"},{"bike_id":"4d64ff5f-3e70-4f43-a427-6235adaa0a54","system_id":"levelo_inurba_marseille","lat":43.31333,"lon":5.39708,"is_reserved":false,"is_disabled":false,"rental_uris":{"android":"levelo://app?vid=4d64ff5f-3e70-4f43-a427-6235adaa0a54","ios":"levelo://app?vid=4d64ff5f-3e70-4f43-a427-6235adaa0a54"},"vehicle_type_id":"4","last_reported":1753225867,"current_range_meters":14000,"station_id":"ce4bgvp2rcd13ifvqcu0","pricing_plan_id":"cebpf4jnsgd1na2vs0mg"},{"bike_id":"c7961dde-1f83-4665-ba7f-9fad410e721e","system_id":"levelo_inurba_marseille","lat":43.31068,"lon":5.38344,"is_reserved":false,"is_disabled":false,"rental_uris":{"android":"levelo://app?vid=c7961dde-1f83-4665-ba7f-9fad410e721e","ios":"levelo://app?vid=c7961dde-1f83-4665-ba7f-9fad410e721e"},"vehicle_type_id":"4","last_reported":1753225867,"current_range_meters":14000,"station_id":"ce4bgv92rcd13ifvqcr0","pricing_plan_id":"cebpf4jnsgd1na2vs0mg"},{"bike_id":"535ecc09-6590-40fa-a131-69903ee7e903","system_id":"levelo_inurba_marseille","lat":43.29784,"lon":5.39354,"is_reserved":false,"is_disabled":false,"rental_uris":{"android":"levelo://app?vid=535ecc09-6590-40fa-a131-69903ee7e903","ios":"levelo://app?vid=535ecc09-6590-40fa-a131-69903ee7e903"},"vehicle_type_id":"4","last_reported":1753225867,"current_range_meters":14000,"station_id":"chh1huq6cuj3fo74tm60","pricing_plan_id":"cebpf4jnsgd1na2vs0mg"},{"bike_id":"09550f05-0113-4ef2-887f-5c648924fdec","system_id":"levelo_inurba_marseille","lat":43.30518,"lon":5.36557,"is_reserved":false,"is_disabled":false,"rental_uris":{"android":"levelo://app?vid=09550f05-0113-4ef2-887f-5c648924fdec","ios":"levelo://app?vid=09550f05-0113-4ef2-887f-5c648924fdec"},"vehicle_type_id":"4","last_reported":1753225867,"current_range_meters":14000,"station_id":"ce4bgth2rcd13ifvqch0","pricing_plan_id":"cebpf4jnsgd1na2vs0mg"},{"bike_id":"fe50cf1d-fc61-4e48-98f2-ea42037cc2b3","system_id":"levelo_inurba_marseille","lat":43.229254,"lon":5.353785,"is_reserved":false,"is_disabled":false,"rental_uris":{"android":"levelo://app?vid=fe50cf1d-fc61-4e48-98f2-ea42037cc2b3","ios":"levelo://app?vid=fe50cf1d-fc61-4e48-98f2-ea42037cc2b3"},"vehicle_type_id":"4","last_reported":1753225867,"current_range_meters":14000,"station_id":"cpo3532slgdg3j2ikp40","pricing_plan_id":"cebpf4jnsgd1na2vs0mg"},{"bike_id":"1e6792f6-e23b-4a70-9f0d-cfc180638578","system_id":"levelo_inurba_marseille","lat":43.27413,"lon":5.39416,"is_reserved":false,"is_disabled":false,"rental_uris":{"android":"levelo://app?vid=1e6792f6-e23b-4a70-9f0d-cfc180638578","ios":"levelo://app?vid=1e6792f6-e23b-4a70-9f0d-cfc180638578"},"vehicle_type_id":"4","last_reported":1753225867,"current_range_meters":14000,"station_id":"ce4bhgp2rcd13ifvqfe0","pricing_plan_id":"cebpf4jnsgd1na2vs0mg"},{"bike_id":"e44893bb-5cdf-4921-b4e8-39ee578180a1","system_id":"levelo_inurba_marseille","lat":43.24097,"lon":5.3779,"is_reserved":false,"is_disabled":false,"rental_uris":{"android":"levelo://app?vid=e44893bb-5cdf-4921-b4e8-39ee578180a1","ios":"levelo://app?vid=e44893bb-5cdf-4921-b4e8-39ee578180a1"},"vehicle_type_id":"4","last_reported":1753225867,"current_range_meters":14000,"station_id":"ce4bhnp2rcd13ifvqgvg","pricing_plan_id":"cebpf4jnsgd1na2vs0mg"},{"bike_id":"1290128b-5ee8-4853-93aa-e61c620a69ed","system_id":"levelo_inurba_marseille","lat":43.2963,"lon":5.40592,"is_reserved":false,"is_disabled":false,"rental_uris":{"android":"levelo://app?vid=1290128b-5ee8-4853-93aa-e61c620a69ed","ios":"levelo://app?vid=1290128b-5ee8-4853-93aa-e61c620a69ed"},"vehicle_type_id":"4","last_reported":1753225867,"current_range_meters":14000,"station_id":"ce4bh0h2rcd13ifvqd60","pricing_plan_id":"cebpf4jnsgd1na2vs0mg"},{"bike_id":"64493569-96d5-4062-836d-ee3198d6bee4","system_id":"levelo_inurba_marseille","lat":43.2513,"lon":5.40342,"is_reserved":false,"is_disabled":false,"rental_uris":{"android":"levelo://app?vid=64493569-96d5-4062-836d-ee3198d6bee4","ios":"levelo://app?vid=64493569-96d5-4062-836d-ee3198d6bee4"},"vehicle_type_id":"4","last_reported":1753225867,"current_range_meters":14400,"station_id":"ce4bhlh2rcd13ifvqgig","pricing_plan_id":"cebpf4jnsgd1na2vs0mg"},{"bike_id":"892f6b13-dff7-43ea-818a-f3dbd9f413f2","system_id":"levelo_inurba_marseille","lat":43.29265,"lon":5.40905,"is_reserved":false,"is_disabled":false,"rental_uris":{"android":"levelo://app?vid=892f6b13-dff7-43ea-818a-f3dbd9f413f2","ios":"levelo://app?vid=892f6b13-dff7-43ea-818a-f3dbd9f413f2"},"vehicle_type_id":"4","last_reported":1753225867,"current_range_meters":14400,"station_id":"ce4bh192rcd13ifvqdc0","pricing_plan_id":"cebpf4jnsgd1na2vs0mg"},{"bike_id":"1721f3be-0c39-49a9-a1a3-f3e84b866328","system_id":"levelo_inurba_marseille","lat":43.28528,"lon":5.38581,"is_reserved":false,"is_disabled":false,"rental_uris":{"android":"levelo://app?vid=1721f3be-0c39-49a9-a1a3-f3e84b866328","ios":"levelo://app?vid=1721f3be-0c39-49a9-a1a3-f3e84b866328"},"vehicle_type_id":"4","last_reported":1753225867,"current_range_meters":14400,"station_id":"ce4bh8p2rcd13ifvqeb0","pricing_plan_id":"cebpf4jnsgd1na2vs0mg"},{"bike_id":"43a915db-082e-4ccc-9781-e6e7248ab853","system_id":"levelo_inurba_marseille","lat":43.310734,"lon":5.383488,"is_reserved":false,"is_disabled":false,"rental_uris":{"android":"levelo://app?vid=43a915db-082e-4ccc-9781-e6e7248ab853","ios":"levelo://app?vid=43a915db-082e-4ccc-9781-e6e7248ab853"},"vehicle_type_id":"4","last_reported":1753225867,"current_range_meters":14400,"station_id":"ce4bgv92rcd13ifvqcr0","pricing_plan_id":"cebpf4jnsgd1na2vs0mg"},{"bike_id":"d3eea4a0-76ba-4059-ba6b-c1ecd6270925","system_id":"levelo_inurba_marseille","lat":43.21212,"lon":5.35058,"is_reserved":false,"is_disabled":false,"rental_uris":{"android":"levelo://app?vid=d3eea4a0-76ba-4059-ba6b-c1ecd6270925","ios":"levelo://app?vid=d3eea4a0-76ba-4059-ba6b-c1ecd6270925"},"vehicle_type_id":"4","last_reported":1753225867,"current_range_meters":14800,"station_id":"st_cvj6sg6p6f1abm77japg","pricing_plan_id":"cebpf4jnsgd1na2vs0mg"},{"bike_id":"093c2cb0-1994-4bd3-a77d-f6c63ce5413a","system_id":"levelo_inurba_marseille","lat":43.22509,"lon":5.34779,"is_reserved":false,"is_disabled":true,"rental_uris":{"android":"levelo://app?vid=093c2cb0-1994-4bd3-a77d-f6c63ce5413a","ios":"levelo://app?vid=093c2cb0-1994-4bd3-a77d-f6c63ce5413a"},"vehicle_type_id":"4","last_reported":1753225867,"current_range_meters":14800,"station_id":"st_cvj5dfep6f1abm77gieg","pricing_plan_id":"cebpf4jnsgd1na2vs0mg"},{"bike_id":"48af5488-6afa-46d8-b781-df5aa91844e8","system_id":"levelo_inurba_marseille","lat":43.31365,"lon":5.38493,"is_reserved":false,"is_disabled":false,"rental_uris":{"android":"levelo://app?vid=48af5488-6afa-46d8-b781-df5aa91844e8","ios":"levelo://app?vid=48af5488-6afa-46d8-b781-df5aa91844e8"},"vehicle_type_id":"4","last_reported":1753225867,"current_range_meters":14800,"station_id":"ce4bgt92rcd13ifvqcf0","pricing_plan_id":"cebpf4jnsgd1na2vs0mg"},{"bike_id":"650db757-2eee-41d7-bbf5-735668e2866a","system_id":"levelo_inurba_marseille","lat":43.25116,"lon":5.40317,"is_reserved":false,"is_disabled":false,"rental_uris":{"android":"levelo://app?vid=650db757-2eee-41d7-bbf5-735668e2866a","ios":"levelo://app?vid=650db757-2eee-41d7-bbf5-735668e2866a"},"vehicle_type_id":"4","last_reported":1753225867,"current_range_meters":14800,"station_id":"ce4bhlh2rcd13ifvqgig","pricing_plan_id":"cebpf4jnsgd1na2vs0mg"},{"bike_id":"d8ef9821-1ca2-4195-915f-da6135043ceb","system_id":"levelo_inurba_marseille","lat":43.30653,"lon":5.40087,"is_reserved":false,"is_disabled":false,"rental_uris":{"android":"levelo://app?vid=d8ef9821-1ca2-4195-915f-da6135043ceb","ios":"levelo://app?vid=d8ef9821-1ca2-4195-915f-da6135043ceb"},"vehicle_type_id":"4","last_reported":1753225867,"current_range_meters":14800,"station_id":"ce4bh112rcd13ifvqda0","pricing_plan_id":"cebpf4jnsgd1na2vs0mg"},{"bike_id":"4ed0b229-6a68-457c-913c-d3b34bce21e4","system_id":"levelo_inurba_marseille","lat":43.28936,"lon":5.36632,"is_reserved":false,"is_disabled":false,"rental_uris":{"android":"levelo://app?vid=4ed0b229-6a68-457c-913c-d3b34bce21e4","ios":"levelo://app?vid=4ed0b229-6a68-457c-913c-d3b34bce21e4"},"vehicle_type_id":"4","last_reported":1753225867,"current_range_meters":14800,"station_id":"ce4bhap2rcd13ifvqek0","pricing_plan_id":"cebpf4jnsgd1na2vs0mg"},{"bike_id":"0ea7a10a-9a1f-48d6-ba0c-cd300cee1999","system_id":"levelo_inurba_marseille","lat":43.270684,"lon":5.422834,"is_reserved":false,"is_disabled":false,"rental_uris":{"android":"levelo://app?vid=0ea7a10a-9a1f-48d6-ba0c-cd300cee1999","ios":"levelo://app?vid=0ea7a10a-9a1f-48d6-ba0c-cd300cee1999"},"vehicle_type_id":"4","last_reported":1753225867,"current_range_meters":14800,"station_id":"ce4bhk92rcd13ifvqgb0","pricing_plan_id":"cebpf4jnsgd1na2vs0mg"},{"bike_id":"09517d89-cbb6-463c-aa34-7f0f3f9969a4","system_id":"levelo_inurba_marseille","lat":43.29782,"lon":5.3936,"is_reserved":false,"is_disabled":false,"rental_uris":{"android":"levelo://app?vid=09517d89-cbb6-463c-aa34-7f0f3f9969a4","ios":"levelo://app?vid=09517d89-cbb6-463c-aa34-7f0f3f9969a4"},"vehicle_type_id":"4","last_reported":1753225867,"current_range_meters":15200,"station_id":"chh1huq6cuj3fo74tm60","pricing_plan_id":"cebpf4jnsgd1na2vs0mg"},{"bike_id":"6912b39d-9a51-46c2-9a88-bea38d6a7e23","system_id":"levelo_inurba_marseille","lat":43.29892,"lon":5.38919,"is_reserved":false,"is_disabled":false,"rental_uris":{"android":"levelo://app?vid=6912b39d-9a51-46c2-9a88-bea38d6a7e23","ios":"levelo://app?vid=6912b39d-9a51-46c2-9a88-bea38d6a7e23"},"vehicle_type_id":"4","last_reported":1753225867,"current_range_meters":16000,"station_id":"ce4bh392rcd13ifvqdl0","pricing_plan_id":"cebpf4jnsgd1na2vs0mg"},{"bike_id":"7f63f9a0-7ea4-40f1-844d-1425837a99f2","system_id":"levelo_inurba_marseille","lat":43.29629,"lon":5.38026,"is_reserved":false,"is_disabled":false,"rental_uris":{"android":"levelo://app?vid=7f63f9a0-7ea4-40f1-844d-1425837a99f2","ios":"levelo://app?vid=7f63f9a0-7ea4-40f1-844d-1425837a99f2"},"vehicle_type_id":"4","last_reported":1753225867,"current_range_meters":16000,"station_id":"","pricing_plan_id":"cebpf4jnsgd1na2vs0mg"},{"bike_id":"9a143ed1-a3c7-421c-a22c-84e79d27e230","system_id":"levelo_inurba_marseille","lat":43.28412,"lon":5.34997,"is_reserved":false,"is_disabled":true,"rental_uris":{"android":"levelo://app?vid=9a143ed1-a3c7-421c-a22c-84e79d27e230","ios":"levelo://app?vid=9a143ed1-a3c7-421c-a22c-84e79d27e230"},"vehicle_type_id":"4","last_reported":1753225867,"current_range_meters":16000,"station_id":"ce4bhbh2rcd13ifvqepg","pricing_plan_id":"cebpf4jnsgd1na2vs0mg"},{"bike_id":"db4f7d16-4447-4752-b9fa-314b60a317e8","system_id":"levelo_inurba_marseille","lat":43.29902,"lon":5.37933,"is_reserved":false,"is_disabled":false,"rental_uris":{"android":"levelo://app?vid=db4f7d16-4447-4752-b9fa-314b60a317e8","ios":"levelo://app?vid=db4f7d16-4447-4752-b9fa-314b60a317e8"},"vehicle_type_id":"4","last_reported":1753225867,"current_range_meters":16000,"station_id":"","pricing_plan_id":"cebpf4jnsgd1na2vs0mg"},{"bike_id":"fe07410f-2ac3-4d42-a644-c798c7a25a84","system_id":"levelo_inurba_marseille","lat":43.26571,"lon":5.372879,"is_reserved":false,"is_disabled":false,"rental_uris":{"android":"levelo://app?vid=fe07410f-2ac3-4d42-a644-c798c7a25a84","ios":"levelo://app?vid=fe07410f-2ac3-4d42-a644-c798c7a25a84"},"vehicle_type_id":"4","last_reported":1753225867,"current_range_meters":16000,"station_id":"","pricing_plan_id":"cebpf4jnsgd1na2vs0mg"},{"bike_id":"ad43974e-bbaf-49c1-aa4d-a9d0caf69786","system_id":"levelo_inurba_marseille","lat":43.31484,"lon":5.37316,"is_reserved":false,"is_disabled":false,"rental_uris":{"android":"levelo://app?vid=ad43974e-bbaf-49c1-aa4d-a9d0caf69786","ios":"levelo://app?vid=ad43974e-bbaf-49c1-aa4d-a9d0caf69786"},"vehicle_type_id":"4","last_reported":1753225867,"current_range_meters":16000,"station_id":"ce4bgt12rcd13ifvqcd0","pricing_plan_id":"cebpf4jnsgd1na2vs0mg"},{"bike_id":"1ca3bf5f-5c7f-4d82-986c-47db7adbb440","system_id":"levelo_inurba_marseille","lat":43.26063,"lon":5.39396,"is_reserved":false,"is_disabled":false,"rental_uris":{"android":"levelo://app?vid=1ca3bf5f-5c7f-4d82-986c-47db7adbb440","ios":"levelo://app?vid=1ca3bf5f-5c7f-4d82-986c-47db7adbb440"},"vehicle_type_id":"4","last_reported":1753225867,"current_range_meters":16000,"station_id":"ce4bhh92rcd13ifvqfj0","pricing_plan_id":"cebpf4jnsgd1na2vs0mg"},{"bike_id":"4e058d12-541f-4837-a62b-0e0602a8306c","system_id":"levelo_inurba_marseille","lat":43.246544,"lon":5.38893,"is_reserved":false,"is_disabled":false,"rental_uris":{"android":"levelo://app?vid=4e058d12-541f-4837-a62b-0e0602a8306c","ios":"levelo://app?vid=4e058d12-541f-4837-a62b-0e0602a8306c"},"vehicle_type_id":"4","last_reported":1753225867,"current_range_meters":16000,"station_id":"","pricing_plan_id":"cebpf4jnsgd1na2vs0mg"},{"bike_id":"6093672b-1e9a-4299-b920-36e4f293a348","system_id":"levelo_inurba_marseille","lat":43.2293,"lon":5.35384,"is_reserved":false,"is_disabled":false,"rental_uris":{"android":"levelo://app?vid=6093672b-1e9a-4299-b920-36e4f293a348","ios":"levelo://app?vid=6093672b-1e9a-4299-b920-36e4f293a348"},"vehicle_type_id":"4","last_reported":1753225867,"current_range_meters":16400,"station_id":"cpo3532slgdg3j2ikp40","pricing_plan_id":"cebpf4jnsgd1na2vs0mg"},{"bike_id":"31fb8300-58bf-4c50-bd95-729e29a89941","system_id":"levelo_inurba_marseille","lat":43.30935,"lon":5.40143,"is_reserved":false,"is_disabled":false,"rental_uris":{"android":"levelo://app?vid=31fb8300-58bf-4c50-bd95-729e29a89941","ios":"levelo://app?vid=31fb8300-58bf-4c50-bd95-729e29a89941"},"vehicle_type_id":"4","last_reported":1753225867,"current_range_meters":16400,"station_id":"ce4bgvp2rcd13ifvqct0","pricing_plan_id":"cebpf4jnsgd1na2vs0mg"},{"bike_id":"cc926983-7496-48df-9677-b8723ddc96b9","system_id":"levelo_inurba_marseille","lat":43.22924,"lon":5.35381,"is_reserved":false,"is_disabled":false,"rental_uris":{"android":"levelo://app?vid=cc926983-7496-48df-9677-b8723ddc96b9","ios":"levelo://app?vid=cc926983-7496-48df-9677-b8723ddc96b9"},"vehicle_type_id":"4","last_reported":1753225867,"current_range_meters":16400,"station_id":"cpo3532slgdg3j2ikp40","pricing_plan_id":"cebpf4jnsgd1na2vs0mg"},{"bike_id":"1a2751da-031a-4246-8d2c-dd848ee0e802","system_id":"levelo_inurba_marseille","lat":43.29528,"lon":5.38581,"is_reserved":false,"is_disabled":true,"rental_uris":{"android":"levelo://app?vid=1a2751da-031a-4246-8d2c-dd848ee0e802","ios":"levelo://app?vid=1a2751da-031a-4246-8d2c-dd848ee0e802"},"vehicle_type_id":"4","last_reported":1753225867,"current_range_meters":16400,"station_id":"ce4bgih2rcd13ifvqba0","pricing_plan_id":"cebpf4jnsgd1na2vs0mg"},{"bike_id":"fb81ee79-6688-4d05-be53-1ac881d0c7b8","system_id":"levelo_inurba_marseille","lat":43.23203,"lon":5.35551,"is_reserved":false,"is_disabled":false,"rental_uris":{"android":"levelo://app?vid=fb81ee79-6688-4d05-be53-1ac881d0c7b8","ios":"levelo://app?vid=fb81ee79-6688-4d05-be53-1ac881d0c7b8"},"vehicle_type_id":"4","last_reported":1753225867,"current_range_meters":16400,"station_id":"ce4bhu92rcd13ifvqi70","pricing_plan_id":"cebpf4jnsgd1na2vs0mg"},{"bike_id":"6a102a90-f6e0-499a-a8df-486cf33a7ee2","system_id":"levelo_inurba_marseille","lat":43.21191,"lon":5.35082,"is_reserved":false,"is_disabled":false,"rental_uris":{"android":"levelo://app?vid=6a102a90-f6e0-499a-a8df-486cf33a7ee2","ios":"levelo://app?vid=6a102a90-f6e0-499a-a8df-486cf33a7ee2"},"vehicle_type_id":"4","last_reported":1753225867,"current_range_meters":16400,"station_id":"st_cvj6sg6p6f1abm77japg","pricing_plan_id":"cebpf4jnsgd1na2vs0mg"},{"bike_id":"f80f42bd-0da5-4ce7-89cf-040dcd98cefe","system_id":"levelo_inurba_marseille","lat":43.287233,"lon":5.37947,"is_reserved":false,"is_disabled":false,"rental_uris":{"android":"levelo://app?vid=f80f42bd-0da5-4ce7-89cf-040dcd98cefe","ios":"levelo://app?vid=f80f42bd-0da5-4ce7-89cf-040dcd98cefe"},"vehicle_type_id":"4","last_reported":1753225867,"current_range_meters":16400,"station_id":"ce4bh9p2rcd13ifvqec0","pricing_plan_id":"cebpf4jnsgd1na2vs0mg"},{"bike_id":"5b47a81d-ead0-4c4b-8864-c63aeb4bcd3d","system_id":"levelo_inurba_marseille","lat":43.212076,"lon":5.350807,"is_reserved":false,"is_disabled":false,"rental_uris":{"android":"levelo://app?vid=5b47a81d-ead0-4c4b-8864-c63aeb4bcd3d","ios":"levelo://app?vid=5b47a81d-ead0-4c4b-8864-c63aeb4bcd3d"},"vehicle_type_id":"4","last_reported":1753225867,"current_range_meters":16400,"station_id":"st_cvj6sg6p6f1abm77japg","pricing_plan_id":"cebpf4jnsgd1na2vs0mg"},{"bike_id":"4355f60b-bb67-4c5e-a729-7d6782d7e997","system_id":"levelo_inurba_marseille","lat":43.27885,"lon":5.41072,"is_reserved":false,"is_disabled":false,"rental_uris":{"android":"levelo://app?vid=4355f60b-bb67-4c5e-a729-7d6782d7e997","ios":"levelo://app?vid=4355f60b-bb67-4c5e-a729-7d6782d7e997"},"vehicle_type_id":"4","last_reported":1753225867,"current_range_meters":16400,"station_id":"","pricing_plan_id":"cebpf4jnsgd1na2vs0mg"},{"bike_id":"4aa2826f-938e-4eec-83e1-99f59fa6ed29","system_id":"levelo_inurba_marseille","lat":43.32483,"lon":5.3658,"is_reserved":false,"is_disabled":false,"rental_uris":{"android":"levelo://app?vid=4aa2826f-938e-4eec-83e1-99f59fa6ed29","ios":"levelo://app?vid=4aa2826f-938e-4eec-83e1-99f59fa6ed29"},"vehicle_type_id":"4","last_reported":1753225867,"current_range_meters":16400,"station_id":"ce4bhs12rcd13ifvqhvg","pricing_plan_id":"cebpf4jnsgd1na2vs0mg"},{"bike_id":"f9c41163-5ecd-4c1a-8ac0-2a6141a12633","system_id":"levelo_inurba_marseille","lat":43.3106,"lon":5.38347,"is_reserved":false,"is_disabled":false,"rental_uris":{"android":"levelo://app?vid=f9c41163-5ecd-4c1a-8ac0-2a6141a12633","ios":"levelo://app?vid=f9c41163-5ecd-4c1a-8ac0-2a6141a12633"},"vehicle_type_id":"4","last_reported":1753225867,"current_range_meters":16800,"station_id":"ce4bgv92rcd13ifvqcr0","pricing_plan_id":"cebpf4jnsgd1na2vs0mg"},{"bike_id":"1f945137-8e3f-496c-886d-08a06490b810","system_id":"levelo_inurba_marseille","lat":43.2979,"lon":5.39361,"is_reserved":false,"is_disabled":false,"rental_uris":{"android":"levelo://app?vid=1f945137-8e3f-496c-886d-08a06490b810","ios":"levelo://app?vid=1f945137-8e3f-496c-886d-08a06490b810"},"vehicle_type_id":"4","last_reported":1753225867,"current_range_meters":16800,"station_id":"chh1huq6cuj3fo74tm60","pricing_plan_id":"cebpf4jnsgd1na2vs0mg"},{"bike_id":"1f942ade-4540-43c5-94b1-41a12302e160","system_id":"levelo_inurba_marseille","lat":43.32661,"lon":5.40994,"is_reserved":false,"is_disabled":false,"rental_uris":{"android":"levelo://app?vid=1f942ade-4540-43c5-94b1-41a12302e160","ios":"levelo://app?vid=1f942ade-4540-43c5-94b1-41a12302e160"},"vehicle_type_id":"4","last_reported":1753225867,"current_range_meters":16800,"station_id":"ce4bhpp2rcd13ifvqhgg","pricing_plan_id":"cebpf4jnsgd1na2vs0mg"},{"bike_id":"f9f15f1e-ef93-4244-8bdc-89043b0922dc","system_id":"levelo_inurba_marseille","lat":43.29185,"lon":5.39299,"is_reserved":false,"is_disabled":false,"rental_uris":{"android":"levelo://app?vid=f9f15f1e-ef93-4244-8bdc-89043b0922dc","ios":"levelo://app?vid=f9f15f1e-ef93-4244-8bdc-89043b0922dc"},"vehicle_type_id":"4","last_reported":1753225867,"current_range_meters":16800,"station_id":"ce4bh192rcd13ifvqdd0","pricing_plan_id":"cebpf4jnsgd1na2vs0mg"},{"bike_id":"d4ff5011-ddb4-41cf-ba7d-2d557e77e22c","system_id":"levelo_inurba_marseille","lat":43.2808,"lon":5.39659,"is_reserved":false,"is_disabled":false,"rental_uris":{"android":"levelo://app?vid=d4ff5011-ddb4-41cf-ba7d-2d557e77e22c","ios":"levelo://app?vid=d4ff5011-ddb4-41cf-ba7d-2d557e77e22c"},"vehicle_type_id":"4","last_reported":1753225867,"current_range_meters":17200,"station_id":"ce4bho12rcd13ifvqh2g","pricing_plan_id":"cebpf4jnsgd1na2vs0mg"},{"bike_id":"501fef31-40db-4a86-b674-d79829564fc0","system_id":"levelo_inurba_marseille","lat":43.29444,"lon":5.39752,"is_reserved":false,"is_disabled":false,"rental_uris":{"android":"levelo://app?vid=501fef31-40db-4a86-b674-d79829564fc0","ios":"levelo://app?vid=501fef31-40db-4a86-b674-d79829564fc0"},"vehicle_type_id":"4","last_reported":1753225867,"current_range_meters":17200,"station_id":"ce4bh3h2rcd13ifvqdo0","pricing_plan_id":"cebpf4jnsgd1na2vs0mg"},{"bike_id":"6402a619-c98c-4905-b335-4eeff59e1131","system_id":"levelo_inurba_marseille","lat":43.2919,"lon":5.39335,"is_reserved":false,"is_disabled":false,"rental_uris":{"android":"levelo://app?vid=6402a619-c98c-4905-b335-4eeff59e1131","ios":"levelo://app?vid=6402a619-c98c-4905-b335-4eeff59e1131"},"vehicle_type_id":"4","last_reported":1753225867,"current_range_meters":17200,"station_id":"ce4bh192rcd13ifvqdd0","pricing_plan_id":"cebpf4jnsgd1na2vs0mg"},{"bike_id":"4f1dd806-4cc0-4731-a103-d84b6076bb8f","system_id":"levelo_inurba_marseille","lat":43.25584,"lon":5.382215,"is_reserved":false,"is_disabled":true,"rental_uris":{"android":"levelo://app?vid=4f1dd806-4cc0-4731-a103-d84b6076bb8f","ios":"levelo://app?vid=4f1dd806-4cc0-4731-a103-d84b6076bb8f"},"vehicle_type_id":"4","last_reported":1753225867,"current_range_meters":17200,"station_id":"ce4bhih2rcd13ifvqfs0","pricing_plan_id":"cebpf4jnsgd1na2vs0mg"},{"bike_id":"e3a9e6d1-788b-4774-babe-289560a0bee7","system_id":"levelo_inurba_marseille","lat":43.29976,"lon":5.37438,"is_reserved":false,"is_disabled":false,"rental_uris":{"android":"levelo://app?vid=e3a9e6d1-788b-4774-babe-289560a0bee7","ios":"levelo://app?vid=e3a9e6d1-788b-4774-babe-289560a0bee7"},"vehicle_type_id":"4","last_reported":1753225867,"current_range_meters":17200,"station_id":"","pricing_plan_id":"cebpf4jnsgd1na2vs0mg"},{"bike_id":"9325a0ea-0562-4d1b-bba7-267057bee759","system_id":"levelo_inurba_marseille","lat":43.24679,"lon":5.38162,"is_reserved":false,"is_disabled":false,"rental_uris":{"android":"levelo://app?vid=9325a0ea-0562-4d1b-bba7-267057bee759","ios":"levelo://app?vid=9325a0ea-0562-4d1b-bba7-267057bee759"},"vehicle_type_id":"4","last_reported":1753225867,"current_range_meters":17200,"station_id":"ce4bhih2rcd13ifvqfr0","pricing_plan_id":"cebpf4jnsgd1na2vs0mg"},{"bike_id":"d8a56d44-1350-4bc6-a5be-019371538d08","system_id":"levelo_inurba_marseille","lat":43.269403,"lon":5.40259,"is_reserved":false,"is_disabled":false,"rental_uris":{"android":"levelo://app?vid=d8a56d44-1350-4bc6-a5be-019371538d08","ios":"levelo://app?vid=d8a56d44-1350-4bc6-a5be-019371538d08"},"vehicle_type_id":"4","last_reported":1753225867,"current_range_meters":17200,"station_id":"cjm6bp8fraef2m0cb0m0","pricing_plan_id":"cebpf4jnsgd1na2vs0mg"},{"bike_id":"8aec3a73-d103-49b7-b4a7-cc0238b8e0dd","system_id":"levelo_inurba_marseille","lat":43.24063,"lon":5.37773,"is_reserved":false,"is_disabled":false,"rental_uris":{"android":"levelo://app?vid=8aec3a73-d103-49b7-b4a7-cc0238b8e0dd","ios":"levelo://app?vid=8aec3a73-d103-49b7-b4a7-cc0238b8e0dd"},"vehicle_type_id":"4","last_reported":1753225867,"current_range_meters":17200,"station_id":"ce4bhnp2rcd13ifvqgvg","pricing_plan_id":"cebpf4jnsgd1na2vs0mg"},{"bike_id":"d509b331-e799-4503-90e7-40b1e687c26f","system_id":"levelo_inurba_marseille","lat":43.28609,"lon":5.37067,"is_reserved":false,"is_disabled":true,"rental_uris":{"android":"levelo://app?vid=d509b331-e799-4503-90e7-40b1e687c26f","ios":"levelo://app?vid=d509b331-e799-4503-90e7-40b1e687c26f"},"vehicle_type_id":"4","last_reported":1753225867,"current_range_meters":17200,"station_id":"ce4bht12rcd13ifvqi60","pricing_plan_id":"cebpf4jnsgd1na2vs0mg"},{"bike_id":"3c5ec4da-c7fb-4377-8a25-fa299fc765b1","system_id":"levelo_inurba_marseille","lat":43.229316,"lon":5.353613,"is_reserved":false,"is_disabled":false,"rental_uris":{"android":"levelo://app?vid=3c5ec4da-c7fb-4377-8a25-fa299fc765b1","ios":"levelo://app?vid=3c5ec4da-c7fb-4377-8a25-fa299fc765b1"},"vehicle_type_id":"4","last_reported":1753225867,"current_range_meters":17200,"station_id":"cpo3532slgdg3j2ikp40","pricing_plan_id":"cebpf4jnsgd1na2vs0mg"},{"bike_id":"f7f39aad-16f1-48af-b53a-a700e9df1b9a","system_id":"levelo_inurba_marseille","lat":43.25118,"lon":5.4032,"is_reserved":false,"is_disabled":false,"rental_uris":{"android":"levelo://app?vid=f7f39aad-16f1-48af-b53a-a700e9df1b9a","ios":"levelo://app?vid=f7f39aad-16f1-48af-b53a-a700e9df1b9a"},"vehicle_type_id":"4","last_reported":1753225867,"current_range_meters":17200,"station_id":"ce4bhlh2rcd13ifvqgig","pricing_plan_id":"cebpf4jnsgd1na2vs0mg"},{"bike_id":"3fdd037b-6204-4dfd-942f-8142ef8575d8","system_id":"levelo_inurba_marseille","lat":43.29278,"lon":5.40118,"is_reserved":false,"is_disabled":false,"rental_uris":{"android":"levelo://app?vid=3fdd037b-6204-4dfd-942f-8142ef8575d8","ios":"levelo://app?vid=3fdd037b-6204-4dfd-942f-8142ef8575d8"},"vehicle_type_id":"4","last_reported":1753225867,"current_range_meters":17200,"station_id":"ce4bh312rcd13ifvqdk0","pricing_plan_id":"cebpf4jnsgd1na2vs0mg"},{"bike_id":"365dae5c-1883-4c1e-9514-477df0f14c35","system_id":"levelo_inurba_marseille","lat":43.30619,"lon":5.37226,"is_reserved":false,"is_disabled":false,"rental_uris":{"android":"levelo://app?vid=365dae5c-1883-4c1e-9514-477df0f14c35","ios":"levelo://app?vid=365dae5c-1883-4c1e-9514-477df0f14c35"},"vehicle_type_id":"4","last_reported":1753225867,"current_range_meters":17200,"station_id":"ce4bgqh2rcd13ifvqc4g","pricing_plan_id":"cebpf4jnsgd1na2vs0mg"},{"bike_id":"c2033e64-b9db-48af-8d36-56740d87e7de","system_id":"levelo_inurba_marseille","lat":43.309261,"lon":5.401599,"is_reserved":false,"is_disabled":false,"rental_uris":{"android":"levelo://app?vid=c2033e64-b9db-48af-8d36-56740d87e7de","ios":"levelo://app?vid=c2033e64-b9db-48af-8d36-56740d87e7de"},"vehicle_type_id":"4","last_reported":1753225867,"current_range_meters":17200,"station_id":"ce4bgvp2rcd13ifvqct0","pricing_plan_id":"cebpf4jnsgd1na2vs0mg"},{"bike_id":"3a165fbc-5c9f-4ab4-b4cb-a1e55653190a","system_id":"levelo_inurba_marseille","lat":43.280327,"lon":5.36941,"is_reserved":false,"is_disabled":false,"rental_uris":{"android":"levelo://app?vid=3a165fbc-5c9f-4ab4-b4cb-a1e55653190a","ios":"levelo://app?vid=3a165fbc-5c9f-4ab4-b4cb-a1e55653190a"},"vehicle_type_id":"4","last_reported":1753225867,"current_range_meters":17600,"station_id":"ce4bha12rcd13ifvqef0","pricing_plan_id":"cebpf4jnsgd1na2vs0mg"},{"bike_id":"6e5f39f9-6430-44b6-91a0-9e26bb75df02","system_id":"levelo_inurba_marseille","lat":43.30801,"lon":5.37658,"is_reserved":false,"is_disabled":false,"rental_uris":{"android":"levelo://app?vid=6e5f39f9-6430-44b6-91a0-9e26bb75df02","ios":"levelo://app?vid=6e5f39f9-6430-44b6-91a0-9e26bb75df02"},"vehicle_type_id":"4","last_reported":1753225867,"current_range_meters":17600,"station_id":"ce4bgv92rcd13ifvqcq0","pricing_plan_id":"cebpf4jnsgd1na2vs0mg"},{"bike_id":"081f37d1-0706-4a78-b00b-e18413845367","system_id":"levelo_inurba_marseille","lat":43.269397,"lon":5.402595,"is_reserved":false,"is_disabled":false,"rental_uris":{"android":"levelo://app?vid=081f37d1-0706-4a78-b00b-e18413845367","ios":"levelo://app?vid=081f37d1-0706-4a78-b00b-e18413845367"},"vehicle_type_id":"4","last_reported":1753225867,"current_range_meters":17600,"station_id":"cjm6bp8fraef2m0cb0m0","pricing_plan_id":"cebpf4jnsgd1na2vs0mg"},{"bike_id":"87efb87e-9c1b-48bc-9816-65bf93d44e2c","system_id":"levelo_inurba_marseille","lat":43.276176,"lon":5.361005,"is_reserved":false,"is_disabled":false,"rental_uris":{"android":"levelo://app?vid=87efb87e-9c1b-48bc-9816-65bf93d44e2c","ios":"levelo://app?vid=87efb87e-9c1b-48bc-9816-65bf93d44e2c"},"vehicle_type_id":"4","last_reported":1753225867,"current_range_meters":17600,"station_id":"","pricing_plan_id":"cebpf4jnsgd1na2vs0mg"},{"bike_id":"1b71376a-9f14-4d2e-97da-9534d9b1ed4d","system_id":"levelo_inurba_marseille","lat":43.23158,"lon":5.43717,"is_reserved":false,"is_disabled":false,"rental_uris":{"android":"levelo://app?vid=1b71376a-9f14-4d2e-97da-9534d9b1ed4d","ios":"levelo://app?vid=1b71376a-9f14-4d2e-97da-9534d9b1ed4d"},"vehicle_type_id":"4","last_reported":1753225867,"current_range_meters":17200,"station_id":"ce4bhmp2rcd13ifvqgog","pricing_plan_id":"cebpf4jnsgd1na2vs0mg"},{"bike_id":"5984b2a9-df08-472f-9972-51a1ce9935d3","system_id":"levelo_inurba_marseille","lat":43.21757,"lon":5.34598,"is_reserved":false,"is_disabled":false,"rental_uris":{"android":"levelo://app?vid=5984b2a9-df08-472f-9972-51a1ce9935d3","ios":"levelo://app?vid=5984b2a9-df08-472f-9972-51a1ce9935d3"},"vehicle_type_id":"4","last_reported":1753225867,"current_range_meters":17600,"station_id":"st_cvj6r9ubvosntc0bgbag","pricing_plan_id":"cebpf4jnsgd1na2vs0mg"},{"bike_id":"b147d87d-ad6b-4ee0-89e1-f2e85a2edd30","system_id":"levelo_inurba_marseille","lat":43.32109,"lon":5.36774,"is_reserved":false,"is_disabled":false,"rental_uris":{"android":"levelo://app?vid=b147d87d-ad6b-4ee0-89e1-f2e85a2edd30","ios":"levelo://app?vid=b147d87d-ad6b-4ee0-89e1-f2e85a2edd30"},"vehicle_type_id":"4","last_reported":1753225867,"current_range_meters":17600,"station_id":"ce4bhrh2rcd13ifvqhug","pricing_plan_id":"cebpf4jnsgd1na2vs0mg"},{"bike_id":"0abfb593-526b-4672-b4bc-d6332922a5f4","system_id":"levelo_inurba_marseille","lat":43.30128,"lon":5.38778,"is_reserved":false,"is_disabled":false,"rental_uris":{"android":"levelo://app?vid=0abfb593-526b-4672-b4bc-d6332922a5f4","ios":"levelo://app?vid=0abfb593-526b-4672-b4bc-d6332922a5f4"},"vehicle_type_id":"4","last_reported":1753225867,"current_range_meters":17600,"station_id":"ce4bghh2rcd13ifvqb60","pricing_plan_id":"cebpf4jnsgd1na2vs0mg"},{"bike_id":"3c46ac99-e222-4f73-89b6-c3dd91f8950d","system_id":"levelo_inurba_marseille","lat":43.25119,"lon":5.40325,"is_reserved":false,"is_disabled":false,"rental_uris":{"android":"levelo://app?vid=3c46ac99-e222-4f73-89b6-c3dd91f8950d","ios":"levelo://app?vid=3c46ac99-e222-4f73-89b6-c3dd91f8950d"},"vehicle_type_id":"4","last_reported":1753225867,"current_range_meters":18000,"station_id":"ce4bhlh2rcd13ifvqgig","pricing_plan_id":"cebpf4jnsgd1na2vs0mg"},{"bike_id":"e8b1abc5-45bd-4186-8bcd-484ff3d05a82","system_id":"levelo_inurba_marseille","lat":43.2792,"lon":5.39581,"is_reserved":false,"is_disabled":false,"rental_uris":{"android":"levelo://app?vid=e8b1abc5-45bd-4186-8bcd-484ff3d05a82","ios":"levelo://app?vid=e8b1abc5-45bd-4186-8bcd-484ff3d05a82"},"vehicle_type_id":"4","last_reported":1753225867,"current_range_meters":18000,"station_id":"ce4bhf92rcd13ifvqf40","pricing_plan_id":"cebpf4jnsgd1na2vs0mg"},{"bike_id":"6ab0a592-0c64-4461-a14c-30b5246d5275","system_id":"levelo_inurba_marseille","lat":43.31363,"lon":5.38486,"is_reserved":false,"is_disabled":false,"rental_uris":{"android":"levelo://app?vid=6ab0a592-0c64-4461-a14c-30b5246d5275","ios":"levelo://app?vid=6ab0a592-0c64-4461-a14c-30b5246d5275"},"vehicle_type_id":"4","last_reported":1753225867,"current_range_meters":18000,"station_id":"ce4bgt92rcd13ifvqcf0","pricing_plan_id":"cebpf4jnsgd1na2vs0mg"},{"bike_id":"b5ce8d93-17c0-45a5-b2b1-eefce45c2d79","system_id":"levelo_inurba_marseille","lat":43.318189,"lon":5.435133,"is_reserved":false,"is_disabled":false,"rental_uris":{"android":"levelo://app?vid=b5ce8d93-17c0-45a5-b2b1-eefce45c2d79","ios":"levelo://app?vid=b5ce8d93-17c0-45a5-b2b1-eefce45c2d79"},"vehicle_type_id":"4","last_reported":1753225867,"current_range_meters":18000,"station_id":"","pricing_plan_id":"cebpf4jnsgd1na2vs0mg"},{"bike_id":"c7fb7bc9-cce5-4dbe-9d25-1adaba45ad0d","system_id":"levelo_inurba_marseille","lat":43.28706,"lon":5.37395,"is_reserved":false,"is_disabled":true,"rental_uris":{"android":"levelo://app?vid=c7fb7bc9-cce5-4dbe-9d25-1adaba45ad0d","ios":"levelo://app?vid=c7fb7bc9-cce5-4dbe-9d25-1adaba45ad0d"},"vehicle_type_id":"4","last_reported":1753225867,"current_range_meters":18000,"station_id":"ce4bh3p2rcd13ifvqdq0","pricing_plan_id":"cebpf4jnsgd1na2vs0mg"},{"bike_id":"ddc9e457-21d5-43e7-a77c-c71cca4f4889","system_id":"levelo_inurba_marseille","lat":43.28725,"lon":5.37395,"is_reserved":false,"is_disabled":false,"rental_uris":{"android":"levelo://app?vid=ddc9e457-21d5-43e7-a77c-c71cca4f4889","ios":"levelo://app?vid=ddc9e457-21d5-43e7-a77c-c71cca4f4889"},"vehicle_type_id":"4","last_reported":1753225867,"current_range_meters":18000,"station_id":"ce4bh3p2rcd13ifvqdq0","pricing_plan_id":"cebpf4jnsgd1na2vs0mg"},{"bike_id":"44b70f3f-5c1c-4948-a533-634ec93fa322","system_id":"levelo_inurba_marseille","lat":43.33433,"lon":5.4006,"is_reserved":false,"is_disabled":false,"rental_uris":{"android":"levelo://app?vid=44b70f3f-5c1c-4948-a533-634ec93fa322","ios":"levelo://app?vid=44b70f3f-5c1c-4948-a533-634ec93fa322"},"vehicle_type_id":"4","last_reported":1753225867,"current_range_meters":18000,"station_id":"","pricing_plan_id":"cebpf4jnsgd1na2vs0mg"},{"bike_id":"79d8793a-8b06-4e58-8302-800b5d3a8256","system_id":"levelo_inurba_marseille","lat":43.24203,"lon":5.39725,"is_reserved":false,"is_disabled":false,"rental_uris":{"android":"levelo://app?vid=79d8793a-8b06-4e58-8302-800b5d3a8256","ios":"levelo://app?vid=79d8793a-8b06-4e58-8302-800b5d3a8256"},"vehicle_type_id":"4","last_reported":1753225867,"current_range_meters":18000,"station_id":"ce4bhn12rcd13ifvqgpg","pricing_plan_id":"cebpf4jnsgd1na2vs0mg"},{"bike_id":"0a7e2862-d8ec-4c77-89d9-cfcdd51f8d75","system_id":"levelo_inurba_marseille","lat":43.3149,"lon":5.37031,"is_reserved":false,"is_disabled":false,"rental_uris":{"android":"levelo://app?vid=0a7e2862-d8ec-4c77-89d9-cfcdd51f8d75","ios":"levelo://app?vid=0a7e2862-d8ec-4c77-89d9-cfcdd51f8d75"},"vehicle_type_id":"4","last_reported":1753225867,"current_range_meters":18000,"station_id":"","pricing_plan_id":"cebpf4jnsgd1na2vs0mg"},{"bike_id":"40003ce9-0410-467e-8a20-fc80535a1e4d","system_id":"levelo_inurba_marseille","lat":43.28078,"lon":5.39661,"is_reserved":false,"is_disabled":false,"rental_uris":{"android":"levelo://app?vid=40003ce9-0410-467e-8a20-fc80535a1e4d","ios":"levelo://app?vid=40003ce9-0410-467e-8a20-fc80535a1e4d"},"vehicle_type_id":"4","last_reported":1753225867,"current_range_meters":18000,"station_id":"ce4bho12rcd13ifvqh2g","pricing_plan_id":"cebpf4jnsgd1na2vs0mg"},{"bike_id":"ed189939-8cb6-4782-929d-f2f7add8d8c9","system_id":"levelo_inurba_marseille","lat":43.31063,"lon":5.38356,"is_reserved":false,"is_disabled":true,"rental_uris":{"android":"levelo://app?vid=ed189939-8cb6-4782-929d-f2f7add8d8c9","ios":"levelo://app?vid=ed189939-8cb6-4782-929d-f2f7add8d8c9"},"vehicle_type_id":"4","last_reported":1753225867,"current_range_meters":18800,"station_id":"ce4bgv92rcd13ifvqcr0","pricing_plan_id":"cebpf4jnsgd1na2vs0mg"},{"bike_id":"3b2e6b30-30c5-4d43-b5ab-8cc299d39fd9","system_id":"levelo_inurba_marseille","lat":43.28488,"lon":5.38421,"is_reserved":false,"is_disabled":false,"rental_uris":{"android":"levelo://app?vid=3b2e6b30-30c5-4d43-b5ab-8cc299d39fd9","ios":"levelo://app?vid=3b2e6b30-30c5-4d43-b5ab-8cc299d39fd9"},"vehicle_type_id":"4","last_reported":1753225867,"current_range_meters":18800,"station_id":"ce4bh512rcd13ifvqe3g","pricing_plan_id":"cebpf4jnsgd1na2vs0mg"},{"bike_id":"f9c9ff83-8548-4acb-a33b-495af4adeef4","system_id":"levelo_inurba_marseille","lat":43.323608,"lon":5.367472,"is_reserved":false,"is_disabled":false,"rental_uris":{"android":"levelo://app?vid=f9c9ff83-8548-4acb-a33b-495af4adeef4","ios":"levelo://app?vid=f9c9ff83-8548-4acb-a33b-495af4adeef4"},"vehicle_type_id":"4","last_reported":1753225867,"current_range_meters":18800,"station_id":"ce4bhsh2rcd13ifvqi2g","pricing_plan_id":"cebpf4jnsgd1na2vs0mg"},{"bike_id":"3897693d-3326-40f6-9a8f-ca417bab5dde","system_id":"levelo_inurba_marseille","lat":43.28372,"lon":5.3863,"is_reserved":false,"is_disabled":false,"rental_uris":{"android":"levelo://app?vid=3897693d-3326-40f6-9a8f-ca417bab5dde","ios":"levelo://app?vid=3897693d-3326-40f6-9a8f-ca417bab5dde"},"vehicle_type_id":"4","last_reported":1753225867,"current_range_meters":18800,"station_id":"ce4bh492rcd13ifvqdvg","pricing_plan_id":"cebpf4jnsgd1na2vs0mg"},{"bike_id":"87304162-6179-4a31-ba9b-3189dfa3532e","system_id":"levelo_inurba_marseille","lat":43.30927,"lon":5.40145,"is_reserved":false,"is_disabled":false,"rental_uris":{"android":"levelo://app?vid=87304162-6179-4a31-ba9b-3189dfa3532e","ios":"levelo://app?vid=87304162-6179-4a31-ba9b-3189dfa3532e"},"vehicle_type_id":"4","last_reported":1753225867,"current_range_meters":18800,"station_id":"ce4bgvp2rcd13ifvqct0","pricing_plan_id":"cebpf4jnsgd1na2vs0mg"},{"bike_id":"a0de01aa-cd68-4a4d-8bab-65fa167b8610","system_id":"levelo_inurba_marseille","lat":43.23206,"lon":5.35572,"is_reserved":false,"is_disabled":false,"rental_uris":{"android":"levelo://app?vid=a0de01aa-cd68-4a4d-8bab-65fa167b8610","ios":"levelo://app?vid=a0de01aa-cd68-4a4d-8bab-65fa167b8610"},"vehicle_type_id":"4","last_reported":1753225867,"current_range_meters":18800,"station_id":"ce4bhu92rcd13ifvqi70","pricing_plan_id":"cebpf4jnsgd1na2vs0mg"},{"bike_id":"8e0f3023-0c39-4aee-a3ef-6288d27beb68","system_id":"levelo_inurba_marseille","lat":43.29276,"lon":5.40127,"is_reserved":false,"is_disabled":false,"rental_uris":{"android":"levelo://app?vid=8e0f3023-0c39-4aee-a3ef-6288d27beb68","ios":"levelo://app?vid=8e0f3023-0c39-4aee-a3ef-6288d27beb68"},"vehicle_type_id":"4","last_reported":1753225867,"current_range_meters":18800,"station_id":"ce4bh312rcd13ifvqdk0","pricing_plan_id":"cebpf4jnsgd1na2vs0mg"},{"bike_id":"733bc52f-72ab-4d7c-b639-b6f2ed60444a","system_id":"levelo_inurba_marseille","lat":43.310863,"lon":5.424337,"is_reserved":false,"is_disabled":false,"rental_uris":{"android":"levelo://app?vid=733bc52f-72ab-4d7c-b639-b6f2ed60444a","ios":"levelo://app?vid=733bc52f-72ab-4d7c-b639-b6f2ed60444a"},"vehicle_type_id":"4","last_reported":1753225867,"current_range_meters":18800,"station_id":"ce4bhp92rcd13ifvqhag","pricing_plan_id":"cebpf4jnsgd1na2vs0mg"},{"bike_id":"5f140933-6e5c-4c26-91e1-3b7250b0978a","system_id":"levelo_inurba_marseille","lat":43.30955,"lon":5.39042,"is_reserved":false,"is_disabled":false,"rental_uris":{"android":"levelo://app?vid=5f140933-6e5c-4c26-91e1-3b7250b0978a","ios":"levelo://app?vid=5f140933-6e5c-4c26-91e1-3b7250b0978a"},"vehicle_type_id":"4","last_reported":1753225867,"current_range_meters":18800,"station_id":"ce4bgup2rcd13ifvqco0","pricing_plan_id":"cebpf4jnsgd1na2vs0mg"},{"bike_id":"9ce312f1-cb07-4159-91d6-c11a68a5ee71","system_id":"levelo_inurba_marseille","lat":43.21157,"lon":5.35107,"is_reserved":false,"is_disabled":false,"rental_uris":{"android":"levelo://app?vid=9ce312f1-cb07-4159-91d6-c11a68a5ee71","ios":"levelo://app?vid=9ce312f1-cb07-4159-91d6-c11a68a5ee71"},"vehicle_type_id":"4","last_reported":1753225867,"current_range_meters":18800,"station_id":"st_cvj6sg6p6f1abm77japg","pricing_plan_id":"cebpf4jnsgd1na2vs0mg"},{"bike_id":"9e0d2a03-dcc8-40b3-9b94-e148f77fc31c","system_id":"levelo_inurba_marseille","lat":43.30807,"lon":5.43523,"is_reserved":false,"is_disabled":false,"rental_uris":{"android":"levelo://app?vid=9e0d2a03-dcc8-40b3-9b94-e148f77fc31c","ios":"levelo://app?vid=9e0d2a03-dcc8-40b3-9b94-e148f77fc31c"},"vehicle_type_id":"4","last_reported":1753225867,"current_range_meters":18800,"station_id":"ce4bhph2rcd13ifvqheg","pricing_plan_id":"cebpf4jnsgd1na2vs0mg"},{"bike_id":"5852fb24-002a-478f-8f94-97d04ec82aee","system_id":"levelo_inurba_marseille","lat":43.29208,"lon":5.36037,"is_reserved":false,"is_disabled":false,"rental_uris":{"android":"levelo://app?vid=5852fb24-002a-478f-8f94-97d04ec82aee","ios":"levelo://app?vid=5852fb24-002a-478f-8f94-97d04ec82aee"},"vehicle_type_id":"4","last_reported":1753225867,"current_range_meters":19200,"station_id":"ce4bhbh2rcd13ifvqeqg","pricing_plan_id":"cebpf4jnsgd1na2vs0mg"},{"bike_id":"effef797-28f1-477c-a309-15b467a22c31","system_id":"levelo_inurba_marseille","lat":43.31361,"lon":5.38493,"is_reserved":false,"is_disabled":false,"rental_uris":{"android":"levelo://app?vid=effef797-28f1-477c-a309-15b467a22c31","ios":"levelo://app?vid=effef797-28f1-477c-a309-15b467a22c31"},"vehicle_type_id":"4","last_reported":1753225867,"current_range_meters":19200,"station_id":"ce4bgt92rcd13ifvqcf0","pricing_plan_id":"cebpf4jnsgd1na2vs0mg"},{"bike_id":"182b5ac5-19bc-444a-89f2-b3859e96195c","system_id":"levelo_inurba_marseille","lat":43.313332,"lon":5.396952,"is_reserved":false,"is_disabled":false,"rental_uris":{"android":"levelo://app?vid=182b5ac5-19bc-444a-89f2-b3859e96195c","ios":"levelo://app?vid=182b5ac5-19bc-444a-89f2-b3859e96195c"},"vehicle_type_id":"4","last_reported":1753225867,"current_range_meters":19200,"station_id":"ce4bgvp2rcd13ifvqcu0","pricing_plan_id":"cebpf4jnsgd1na2vs0mg"},{"bike_id":"9e7bef7c-53f8-4848-95ce-ebad9a02dd2f","system_id":"levelo_inurba_marseille","lat":43.25861,"lon":5.39901,"is_reserved":false,"is_disabled":false,"rental_uris":{"android":"levelo://app?vid=9e7bef7c-53f8-4848-95ce-ebad9a02dd2f","ios":"levelo://app?vid=9e7bef7c-53f8-4848-95ce-ebad9a02dd2f"},"vehicle_type_id":"4","last_reported":1753225867,"current_range_meters":19200,"station_id":"ce4bhl92rcd13ifvqghg","pricing_plan_id":"cebpf4jnsgd1na2vs0mg"},{"bike_id":"254eece4-d1c6-4728-af3a-66deec60193b","system_id":"levelo_inurba_marseille","lat":43.29527,"lon":5.39049,"is_reserved":false,"is_disabled":false,"rental_uris":{"android":"levelo://app?vid=254eece4-d1c6-4728-af3a-66deec60193b","ios":"levelo://app?vid=254eece4-d1c6-4728-af3a-66deec60193b"},"vehicle_type_id":"4","last_reported":1753225867,"current_range_meters":19200,"station_id":"ce4bh3p2rcd13ifvqdp0","pricing_plan_id":"cebpf4jnsgd1na2vs0mg"},{"bike_id":"0b7d18a7-9bda-4fbc-b039-838a10444466","system_id":"levelo_inurba_marseille","lat":43.2293,"lon":5.35373,"is_reserved":false,"is_disabled":false,"rental_uris":{"android":"levelo://app?vid=0b7d18a7-9bda-4fbc-b039-838a10444466","ios":"levelo://app?vid=0b7d18a7-9bda-4fbc-b039-838a10444466"},"vehicle_type_id":"4","last_reported":1753225867,"current_range_meters":19600,"station_id":"cpo3532slgdg3j2ikp40","pricing_plan_id":"cebpf4jnsgd1na2vs0mg"},{"bike_id":"e1a3857f-f168-49d2-bd5e-efc3b00a9c16","system_id":"levelo_inurba_marseille","lat":43.32478,"lon":5.36564,"is_reserved":false,"is_disabled":false,"rental_uris":{"android":"levelo://app?vid=e1a3857f-f168-49d2-bd5e-efc3b00a9c16","ios":"levelo://app?vid=e1a3857f-f168-49d2-bd5e-efc3b00a9c16"},"vehicle_type_id":"4","last_reported":1753225867,"current_range_meters":19200,"station_id":"ce4bhs12rcd13ifvqhvg","pricing_plan_id":"cebpf4jnsgd1na2vs0mg"},{"bike_id":"d113cab5-b949-43b1-90ab-c495f192a799","system_id":"levelo_inurba_marseille","lat":43.29933,"lon":5.36514,"is_reserved":false,"is_disabled":false,"rental_uris":{"android":"levelo://app?vid=d113cab5-b949-43b1-90ab-c495f192a799","ios":"levelo://app?vid=d113cab5-b949-43b1-90ab-c495f192a799"},"vehicle_type_id":"4","last_reported":1753225867,"current_range_meters":19200,"station_id":"ce4bgm92rcd13ifvqbr0","pricing_plan_id":"cebpf4jnsgd1na2vs0mg"},{"bike_id":"4b7b5be6-0a5b-41a1-8516-a13df95ad868","system_id":"levelo_inurba_marseille","lat":43.33774,"lon":5.37485,"is_reserved":false,"is_disabled":false,"rental_uris":{"android":"levelo://app?vid=4b7b5be6-0a5b-41a1-8516-a13df95ad868","ios":"levelo://app?vid=4b7b5be6-0a5b-41a1-8516-a13df95ad868"},"vehicle_type_id":"4","last_reported":1753225867,"current_range_meters":19600,"station_id":"","pricing_plan_id":"cebpf4jnsgd1na2vs0mg"},{"bike_id":"88930e45-ea3f-450c-9499-eb7a1664b650","system_id":"levelo_inurba_marseille","lat":43.297927,"lon":5.39347,"is_reserved":false,"is_disabled":false,"rental_uris":{"android":"levelo://app?vid=88930e45-ea3f-450c-9499-eb7a1664b650","ios":"levelo://app?vid=88930e45-ea3f-450c-9499-eb7a1664b650"},"vehicle_type_id":"4","last_reported":1753225867,"current_range_meters":19600,"station_id":"chh1huq6cuj3fo74tm60","pricing_plan_id":"cebpf4jnsgd1na2vs0mg"},{"bike_id":"dbb0c1cd-24ec-42a7-9f67-6979d5cb2d66","system_id":"levelo_inurba_marseille","lat":43.310767,"lon":5.383477,"is_reserved":false,"is_disabled":false,"rental_uris":{"android":"levelo://app?vid=dbb0c1cd-24ec-42a7-9f67-6979d5cb2d66","ios":"levelo://app?vid=dbb0c1cd-24ec-42a7-9f67-6979d5cb2d66"},"vehicle_type_id":"4","last_reported":1753225867,"current_range_meters":19600,"station_id":"ce4bgv92rcd13ifvqcr0","pricing_plan_id":"cebpf4jnsgd1na2vs0mg"},{"bike_id":"38218639-cb21-4323-ba92-61b4236d5c3e","system_id":"levelo_inurba_marseille","lat":43.30027,"lon":5.37125,"is_reserved":false,"is_disabled":false,"rental_uris":{"android":"levelo://app?vid=38218639-cb21-4323-ba92-61b4236d5c3e","ios":"levelo://app?vid=38218639-cb21-4323-ba92-61b4236d5c3e"},"vehicle_type_id":"4","last_reported":1753225867,"current_range_meters":19600,"station_id":"","pricing_plan_id":"cebpf4jnsgd1na2vs0mg"},{"bike_id":"ff06a73f-116a-4b73-821a-6e97ff46736c","system_id":"levelo_inurba_marseille","lat":43.29087,"lon":5.38138,"is_reserved":false,"is_disabled":true,"rental_uris":{"android":"levelo://app?vid=ff06a73f-116a-4b73-821a-6e97ff46736c","ios":"levelo://app?vid=ff06a73f-116a-4b73-821a-6e97ff46736c"},"vehicle_type_id":"4","last_reported":1753225867,"current_range_meters":19600,"station_id":"ce4bh512rcd13ifvqe2g","pricing_plan_id":"cebpf4jnsgd1na2vs0mg"},{"bike_id":"dffe6022-c64a-4fa9-95f2-7701f2830a3e","system_id":"levelo_inurba_marseille","lat":43.290758,"lon":5.371575,"is_reserved":false,"is_disabled":true,"rental_uris":{"android":"levelo://app?vid=dffe6022-c64a-4fa9-95f2-7701f2830a3e","ios":"levelo://app?vid=dffe6022-c64a-4fa9-95f2-7701f2830a3e"},"vehicle_type_id":"4","last_reported":1753225867,"current_range_meters":19600,"station_id":"ce4bhap2rcd13ifvqek0","pricing_plan_id":"cebpf4jnsgd1na2vs0mg"},{"bike_id":"229ed28b-3a89-4c10-9e6a-e083ca258aa3","system_id":"levelo_inurba_marseille","lat":43.29515,"lon":5.39402,"is_reserved":false,"is_disabled":false,"rental_uris":{"android":"levelo://app?vid=229ed28b-3a89-4c10-9e6a-e083ca258aa3","ios":"levelo://app?vid=229ed28b-3a89-4c10-9e6a-e083ca258aa3"},"vehicle_type_id":"4","last_reported":1753225867,"current_range_meters":19600,"station_id":"ce4bh292rcd13ifvqdf0","pricing_plan_id":"cebpf4jnsgd1na2vs0mg"},{"bike_id":"a0de36d3-8aa8-40a9-98b1-436371544f65","system_id":"levelo_inurba_marseille","lat":43.29194,"lon":5.39314,"is_reserved":false,"is_disabled":true,"rental_uris":{"android":"levelo://app?vid=a0de36d3-8aa8-40a9-98b1-436371544f65","ios":"levelo://app?vid=a0de36d3-8aa8-40a9-98b1-436371544f65"},"vehicle_type_id":"4","last_reported":1753225867,"current_range_meters":19600,"station_id":"ce4bh192rcd13ifvqdd0","pricing_plan_id":"cebpf4jnsgd1na2vs0mg"},{"bike_id":"9c1cc253-499c-4304-b479-aa1e1bdb3629","system_id":"levelo_inurba_marseille","lat":43.262293,"lon":5.404588,"is_reserved":false,"is_disabled":false,"rental_uris":{"android":"levelo://app?vid=9c1cc253-499c-4304-b479-aa1e1bdb3629","ios":"levelo://app?vid=9c1cc253-499c-4304-b479-aa1e1bdb3629"},"vehicle_type_id":"4","last_reported":1753225867,"current_range_meters":19600,"station_id":"ce4bhmh2rcd13ifvqgmg","pricing_plan_id":"cebpf4jnsgd1na2vs0mg"},{"bike_id":"f493a3a9-7f6b-470e-bce7-7019418af039","system_id":"levelo_inurba_marseille","lat":43.27902,"lon":5.37999,"is_reserved":false,"is_disabled":false,"rental_uris":{"android":"levelo://app?vid=f493a3a9-7f6b-470e-bce7-7019418af039","ios":"levelo://app?vid=f493a3a9-7f6b-470e-bce7-7019418af039"},"vehicle_type_id":"4","last_reported":1753225867,"current_range_meters":19600,"station_id":"ce4bhf92rcd13ifvqf50","pricing_plan_id":"cebpf4jnsgd1na2vs0mg"},{"bike_id":"534286dc-7eb9-4ebf-998c-69cff5dfbc5c","system_id":"levelo_inurba_marseille","lat":43.31079,"lon":5.383563,"is_reserved":false,"is_disabled":false,"rental_uris":{"android":"levelo://app?vid=534286dc-7eb9-4ebf-998c-69cff5dfbc5c","ios":"levelo://app?vid=534286dc-7eb9-4ebf-998c-69cff5dfbc5c"},"vehicle_type_id":"4","last_reported":1753225867,"current_range_meters":20000,"station_id":"ce4bgv92rcd13ifvqcr0","pricing_plan_id":"cebpf4jnsgd1na2vs0mg"},{"bike_id":"5ac85406-65d0-4336-aa89-4b04b2e6689e","system_id":"levelo_inurba_marseille","lat":43.33279,"lon":5.42004,"is_reserved":false,"is_disabled":false,"rental_uris":{"android":"levelo://app?vid=5ac85406-65d0-4336-aa89-4b04b2e6689e","ios":"levelo://app?vid=5ac85406-65d0-4336-aa89-4b04b2e6689e"},"vehicle_type_id":"4","last_reported":1753225867,"current_range_meters":20000,"station_id":"","pricing_plan_id":"cebpf4jnsgd1na2vs0mg"},{"bike_id":"6799f867-3f82-4710-81fd-5cb91a8792f9","system_id":"levelo_inurba_marseille","lat":43.24823,"lon":5.37446,"is_reserved":false,"is_disabled":false,"rental_uris":{"android":"levelo://app?vid=6799f867-3f82-4710-81fd-5cb91a8792f9","ios":"levelo://app?vid=6799f867-3f82-4710-81fd-5cb91a8792f9"},"vehicle_type_id":"4","last_reported":1753225867,"current_range_meters":20000,"station_id":"ce4bhgh2rcd13ifvqfb0","pricing_plan_id":"cebpf4jnsgd1na2vs0mg"},{"bike_id":"edc84bf4-cd77-4289-b20f-b06a8fabb2a3","system_id":"levelo_inurba_marseille","lat":43.22944,"lon":5.35383,"is_reserved":false,"is_disabled":false,"rental_uris":{"android":"levelo://app?vid=edc84bf4-cd77-4289-b20f-b06a8fabb2a3","ios":"levelo://app?vid=edc84bf4-cd77-4289-b20f-b06a8fabb2a3"},"vehicle_type_id":"4","last_reported":1753225867,"current_range_meters":20000,"station_id":"cpo3532slgdg3j2ikp40","pricing_plan_id":"cebpf4jnsgd1na2vs0mg"},{"bike_id":"3cd09fc8-9554-4236-8496-0931a7be09d1","system_id":"levelo_inurba_marseille","lat":43.211956,"lon":5.350732,"is_reserved":false,"is_disabled":false,"rental_uris":{"android":"levelo://app?vid=3cd09fc8-9554-4236-8496-0931a7be09d1","ios":"levelo://app?vid=3cd09fc8-9554-4236-8496-0931a7be09d1"},"vehicle_type_id":"4","last_reported":1753225867,"current_range_meters":20000,"station_id":"st_cvj6sg6p6f1abm77japg","pricing_plan_id":"cebpf4jnsgd1na2vs0mg"},{"bike_id":"e08ed158-6f6c-4466-82d7-da0c815c102e","system_id":"levelo_inurba_marseille","lat":43.30266,"lon":5.36883,"is_reserved":false,"is_disabled":false,"rental_uris":{"android":"levelo://app?vid=e08ed158-6f6c-4466-82d7-da0c815c102e","ios":"levelo://app?vid=e08ed158-6f6c-4466-82d7-da0c815c102e"},"vehicle_type_id":"4","last_reported":1753225867,"current_range_meters":20000,"station_id":"ce4bgqh2rcd13ifvqc5g","pricing_plan_id":"cebpf4jnsgd1na2vs0mg"},{"bike_id":"6bb1f31c-9335-4f39-9585-31374a4775f9","system_id":"levelo_inurba_marseille","lat":43.325583,"lon":5.379059,"is_reserved":false,"is_disabled":false,"rental_uris":{"android":"levelo://app?vid=6bb1f31c-9335-4f39-9585-31374a4775f9","ios":"levelo://app?vid=6bb1f31c-9335-4f39-9585-31374a4775f9"},"vehicle_type_id":"4","last_reported":1753225867,"current_range_meters":20000,"station_id":"","pricing_plan_id":"cebpf4jnsgd1na2vs0mg"},{"bike_id":"49005fc3-94b8-42ad-a14b-1f5ef2c1e7b1","system_id":"levelo_inurba_marseille","lat":43.298,"lon":5.40399,"is_reserved":false,"is_disabled":false,"rental_uris":{"android":"levelo://app?vid=49005fc3-94b8-42ad-a14b-1f5ef2c1e7b1","ios":"levelo://app?vid=49005fc3-94b8-42ad-a14b-1f5ef2c1e7b1"},"vehicle_type_id":"4","last_reported":1753225867,"current_range_meters":20000,"station_id":"ce4bh112rcd13ifvqd90","pricing_plan_id":"cebpf4jnsgd1na2vs0mg"},{"bike_id":"5f939e31-b016-450d-a865-6c7b859d10c2","system_id":"levelo_inurba_marseille","lat":43.28701,"lon":5.37394,"is_reserved":false,"is_disabled":false,"rental_uris":{"android":"levelo://app?vid=5f939e31-b016-450d-a865-6c7b859d10c2","ios":"levelo://app?vid=5f939e31-b016-450d-a865-6c7b859d10c2"},"vehicle_type_id":"4","last_reported":1753225867,"current_range_meters":20000,"station_id":"ce4bh3p2rcd13ifvqdq0","pricing_plan_id":"cebpf4jnsgd1na2vs0mg"},{"bike_id":"94296c19-c476-420e-a7ef-87b8d25dfbc8","system_id":"levelo_inurba_marseille","lat":43.31326,"lon":5.39691,"is_reserved":false,"is_disabled":false,"rental_uris":{"android":"levelo://app?vid=94296c19-c476-420e-a7ef-87b8d25dfbc8","ios":"levelo://app?vid=94296c19-c476-420e-a7ef-87b8d25dfbc8"},"vehicle_type_id":"4","last_reported":1753225867,"current_range_meters":20000,"station_id":"ce4bgvp2rcd13ifvqcu0","pricing_plan_id":"cebpf4jnsgd1na2vs0mg"},{"bike_id":"27b534a5-1d87-4085-81d3-fca895c3303e","system_id":"levelo_inurba_marseille","lat":43.25863,"lon":5.39911,"is_reserved":false,"is_disabled":false,"rental_uris":{"android":"levelo://app?vid=27b534a5-1d87-4085-81d3-fca895c3303e","ios":"levelo://app?vid=27b534a5-1d87-4085-81d3-fca895c3303e"},"vehicle_type_id":"4","last_reported":1753225867,"current_range_meters":20000,"station_id":"ce4bhl92rcd13ifvqghg","pricing_plan_id":"cebpf4jnsgd1na2vs0mg"},{"bike_id":"c46a5062-f2c5-4cc3-a7c1-4794f0508a52","system_id":"levelo_inurba_marseille","lat":43.28556,"lon":5.39496,"is_reserved":false,"is_disabled":false,"rental_uris":{"android":"levelo://app?vid=c46a5062-f2c5-4cc3-a7c1-4794f0508a52","ios":"levelo://app?vid=c46a5062-f2c5-4cc3-a7c1-4794f0508a52"},"vehicle_type_id":"4","last_reported":1753225867,"current_range_meters":20000,"station_id":"ce4bh292rcd13ifvqdg0","pricing_plan_id":"cebpf4jnsgd1na2vs0mg"},{"bike_id":"b7d8c1d7-6304-4619-9c51-af7ef2723655","system_id":"levelo_inurba_marseille","lat":43.302758,"lon":5.381938,"is_reserved":false,"is_disabled":false,"rental_uris":{"android":"levelo://app?vid=b7d8c1d7-6304-4619-9c51-af7ef2723655","ios":"levelo://app?vid=b7d8c1d7-6304-4619-9c51-af7ef2723655"},"vehicle_type_id":"4","last_reported":1753225867,"current_range_meters":20000,"station_id":"ce4bgkp2rcd13ifvqbmg","pricing_plan_id":"cebpf4jnsgd1na2vs0mg"},{"bike_id":"8ae20bdf-bf90-461a-986c-b66f491b84cd","system_id":"levelo_inurba_marseille","lat":43.30378,"lon":5.42493,"is_reserved":false,"is_disabled":false,"rental_uris":{"android":"levelo://app?vid=8ae20bdf-bf90-461a-986c-b66f491b84cd","ios":"levelo://app?vid=8ae20bdf-bf90-461a-986c-b66f491b84cd"},"vehicle_type_id":"4","last_reported":1753225867,"current_range_meters":20000,"station_id":"ce4bhoh2rcd13ifvqh6g","pricing_plan_id":"cebpf4jnsgd1na2vs0mg"},{"bike_id":"8eea368d-67f6-4b59-b646-26ece0634a16","system_id":"levelo_inurba_marseille","lat":43.22953,"lon":5.3539,"is_reserved":false,"is_disabled":false,"rental_uris":{"android":"levelo://app?vid=8eea368d-67f6-4b59-b646-26ece0634a16","ios":"levelo://app?vid=8eea368d-67f6-4b59-b646-26ece0634a16"},"vehicle_type_id":"4","last_reported":1753225867,"current_range_meters":20000,"station_id":"cpo3532slgdg3j2ikp40","pricing_plan_id":"cebpf4jnsgd1na2vs0mg"},{"bike_id":"c86302dc-3e6f-468f-af3a-174e668ca69f","system_id":"levelo_inurba_marseille","lat":43.30453,"lon":5.38897,"is_reserved":false,"is_disabled":false,"rental_uris":{"android":"levelo://app?vid=c86302dc-3e6f-468f-af3a-174e668ca69f","ios":"levelo://app?vid=c86302dc-3e6f-468f-af3a-174e668ca69f"},"vehicle_type_id":"4","last_reported":1753225867,"current_range_meters":19600,"station_id":"ce4bgk12rcd13ifvqbi0","pricing_plan_id":"cebpf4jnsgd1na2vs0mg"},{"bike_id":"296bbffc-3a34-4a9a-bed9-f794d8cc8d6c","system_id":"levelo_inurba_marseille","lat":43.27911,"lon":5.38007,"is_reserved":false,"is_disabled":false,"rental_uris":{"android":"levelo://app?vid=296bbffc-3a34-4a9a-bed9-f794d8cc8d6c","ios":"levelo://app?vid=296bbffc-3a34-4a9a-bed9-f794d8cc8d6c"},"vehicle_type_id":"4","last_reported":1753225867,"current_range_meters":20400,"station_id":"ce4bhf92rcd13ifvqf50","pricing_plan_id":"cebpf4jnsgd1na2vs0mg"},{"bike_id":"8e6b8fb4-b52b-417c-af31-79aa8bf4509c","system_id":"levelo_inurba_marseille","lat":43.30655,"lon":5.40093,"is_reserved":false,"is_disabled":false,"rental_uris":{"android":"levelo://app?vid=8e6b8fb4-b52b-417c-af31-79aa8bf4509c","ios":"levelo://app?vid=8e6b8fb4-b52b-417c-af31-79aa8bf4509c"},"vehicle_type_id":"4","last_reported":1753225867,"current_range_meters":20400,"station_id":"ce4bh112rcd13ifvqda0","pricing_plan_id":"cebpf4jnsgd1na2vs0mg"},{"bike_id":"c056311f-78c9-4e18-8685-91c659ddb125","system_id":"levelo_inurba_marseille","lat":43.31648,"lon":5.3896,"is_reserved":false,"is_disabled":false,"rental_uris":{"android":"levelo://app?vid=c056311f-78c9-4e18-8685-91c659ddb125","ios":"levelo://app?vid=c056311f-78c9-4e18-8685-91c659ddb125"},"vehicle_type_id":"4","last_reported":1753225867,"current_range_meters":20400,"station_id":"","pricing_plan_id":"cebpf4jnsgd1na2vs0mg"},{"bike_id":"8006020a-6cfe-4131-82ca-a6c8f07671d2","system_id":"levelo_inurba_marseille","lat":43.312222,"lon":5.37486,"is_reserved":false,"is_disabled":false,"rental_uris":{"android":"levelo://app?vid=8006020a-6cfe-4131-82ca-a6c8f07671d2","ios":"levelo://app?vid=8006020a-6cfe-4131-82ca-a6c8f07671d2"},"vehicle_type_id":"4","last_reported":1753225867,"current_range_meters":20400,"station_id":"","pricing_plan_id":"cebpf4jnsgd1na2vs0mg"},{"bike_id":"aaddee1c-226e-4fc6-afd6-fac4bfd6b639","system_id":"levelo_inurba_marseille","lat":43.30803,"lon":5.38143,"is_reserved":false,"is_disabled":false,"rental_uris":{"android":"levelo://app?vid=aaddee1c-226e-4fc6-afd6-fac4bfd6b639","ios":"levelo://app?vid=aaddee1c-226e-4fc6-afd6-fac4bfd6b639"},"vehicle_type_id":"4","last_reported":1753225867,"current_range_meters":20400,"station_id":"ce4bgt12rcd13ifvqce0","pricing_plan_id":"cebpf4jnsgd1na2vs0mg"},{"bike_id":"909e4084-40a5-4f0f-8e3f-6120693fcf69","system_id":"levelo_inurba_marseille","lat":43.2886,"lon":5.39318,"is_reserved":false,"is_disabled":false,"rental_uris":{"android":"levelo://app?vid=909e4084-40a5-4f0f-8e3f-6120693fcf69","ios":"levelo://app?vid=909e4084-40a5-4f0f-8e3f-6120693fcf69"},"vehicle_type_id":"4","last_reported":1753225867,"current_range_meters":20400,"station_id":"ce4bh2p2rcd13ifvqdi0","pricing_plan_id":"cebpf4jnsgd1na2vs0mg"},{"bike_id":"564ecaf8-19ce-48a2-8c7a-f57d7fb67f0f","system_id":"levelo_inurba_marseille","lat":43.28084,"lon":5.39656,"is_reserved":false,"is_disabled":false,"rental_uris":{"android":"levelo://app?vid=564ecaf8-19ce-48a2-8c7a-f57d7fb67f0f","ios":"levelo://app?vid=564ecaf8-19ce-48a2-8c7a-f57d7fb67f0f"},"vehicle_type_id":"4","last_reported":1753225867,"current_range_meters":20400,"station_id":"ce4bho12rcd13ifvqh2g","pricing_plan_id":"cebpf4jnsgd1na2vs0mg"},{"bike_id":"1ad257b5-7f83-42c1-867f-92635ff1abbf","system_id":"levelo_inurba_marseille","lat":43.229359,"lon":5.353804,"is_reserved":false,"is_disabled":false,"rental_uris":{"android":"levelo://app?vid=1ad257b5-7f83-42c1-867f-92635ff1abbf","ios":"levelo://app?vid=1ad257b5-7f83-42c1-867f-92635ff1abbf"},"vehicle_type_id":"4","last_reported":1753225867,"current_range_meters":20400,"station_id":"cpo3532slgdg3j2ikp40","pricing_plan_id":"cebpf4jnsgd1na2vs0mg"},