{"last_updated":1741958266,"ttl":60,"version":"2.2","data":{"bikes":[{"bike_id":"c0f7c59a-0c72-4831-9437-73482544932f","system_id":"levelo_inurba_marseille","lat":43.29536,"lon":5.38552,"is_reserved":false,"is_disabled":false,"rental_uris":{"android":"levelo://app?vid=c0f7c59a-0c72-4831-9437-73482544932f","ios":"levelo://app?vid=c0f7c59a-0c72-4831-9437-73482544932f"},"vehicle_type_id":"4","last_reported":1741958266,"current_range_meters":3200,"station_id":"ce4bgih2rcd13ifvqba0","pricing_plan_id":"cebpf4jnsgd1na2vs0mg"},{"bike_id":"44f0cee4-36c4-4428-9e5e-d197e35f0823","system_id":"levelo_inurba_marseille","lat":43.29525,"lon":5.39043,"is_reserved":false,"is_disabled":false,"rental_uris":{"android":"levelo://app?vid=44f0cee4-36c4-4428-9e5e-d197e35f0823","ios":"levelo://app?vid=44f0cee4-36c4-4428-9e5e-d197e35f0823"},"vehicle_type_id":"4","last_reported":1741958266,"current_range_meters":3200,"station_id":"ce4bh3p2rcd13ifvqdp0","pricing_plan_id":"cebpf4jnsgd1na2vs0mg"},{"bike_id":"7e2efce6-2abc-47be-8e98-d015769ebdaa","system_id":"levelo_inurba_marseille","lat":43.27441,"lon":5.41893,"is_reserved":false,"is_disabled":false,"rental_uris":{"android":"levelo://app?vid=7e2efce6-2abc-47be-8e98-d015769ebdaa","ios":"levelo://app?vid=7e2efce6-2abc-47be-8e98-d015769ebdaa"},"vehicle_type_id":"4","last_reported":1741958266,"current_range_meters":3200,"station_id":"","pricing_plan_id":"cebpf4jnsgd1na2vs0mg"},{"bike_id":"90c7c372-898e-4a29-82b8-58985707882d","system_id":"levelo_inurba_marseille","lat":43.31767,"lon":5.39016,"is_reserved":false,"is_disabled":false,"rental_uris":{"android":"levelo://app?vid=90c7c372-898e-4a29-82b8-58985707882d","ios":"levelo://app?vid=90c7c372-898e-4a29-82b8-58985707882d"},"vehicle_type_id":"4","last_reported":1741958266,"current_range_meters":3200,"station_id":"ce4bhqp2rcd13ifvqhng","pricing_plan_id":"cebpf4jnsgd1na2vs0mg"},{"bike_id":"9b1d3f78-a44d-40d7-a100-0b7e6f65032a","system_id":"levelo_inurba_marseille","lat":43.337217,"lon":5.391848,"is_reserved":false,"is_disabled":false,"rental_uris":{"android":"levelo://app?vid=9b1d3f78-a44d-40d7-a100-0b7e6f65032a","ios":"levelo://app?vid=9b1d3f78-a44d-40d7-a100-0b7e6f65032a"},"vehicle_type_id":"4","last_reported":1741958266,"current_range_meters":3600,"station_id":"ce4bhr92rcd13ifvqhsg","pricing_plan_id":"cebpf4jnsgd1na2vs0mg"},{"bike_id":"1104ef03-e20b-4c7d-942f-60096cd16e1e","system_id":"levelo_inurba_marseille","lat":43.312565,"lon":5.401713,"is_reserved":false,"is_disabled":false,"rental_uris":{"android":"levelo://app?vid=1104ef03-e20b-4c7d-942f-60096cd16e1e","ios":"levelo://app?vid=1104ef03-e20b-4c7d-942f-60096cd16e1e"},"vehicle_type_id":"4","last_reported":1741958266,"current_range_meters":3600,"station_id":"ce4bh0h2rcd13ifvqd40","pricing_plan_id":"cebpf4jnsgd1na2vs0mg"},{"bike_id":"deff51df-b379-4057-8fa0-cc11bcd2cbb5","system_id":"levelo_inurba_marseille","lat":43.295784,"lon":5.375088,"is_reserved":false,"is_disabled":false,"rental_uris":{"android":"levelo://app?vid=deff51df-b379-4057-8fa0-cc11bcd2cbb5","ios":"levelo://app?vid=deff51df-b379-4057-8fa0-cc11bcd2cbb5"},"vehicle_type_id":"4","last_reported":1741958266,"current_range_meters":4000,"station_id":"ce4bgh92rcd13ifvqb50","pricing_plan_id":"cebpf4jnsgd1na2vs0mg"},{"bike_id":"a0d6136f-c546-4dd7-a0f0-69eaacede449","system_id":"levelo_inurba_marseille","lat":43.31226,"lon":5.36868,"is_reserved":false,"is_disabled":false,"rental_uris":{"android":"levelo://app?vid=a0d6136f-c546-4dd7-a0f0-69eaacede449","ios":"levelo://app?vid=a0d6136f-c546-4dd7-a0f0-69eaacede449"},"vehicle_type_id":"4","last_reported":1741958266,"current_range_meters":4000,"station_id":"ce4bgl92rcd13ifvqbq0","pricing_plan_id":"cebpf4jnsgd1na2vs0mg"},{"bike_id":"026a5003-3705-4b8d-a2b9-c4b441762e8a","system_id":"levelo_inurba_marseille","lat":43.30138,"lon":5.39879,"is_reserved":false,"is_disabled":false,"rental_uris":{"android":"levelo://app?vid=026a5003-3705-4b8d-a2b9-c4b441762e8a","ios":"levelo://app?vid=026a5003-3705-4b8d-a2b9-c4b441762e8a"},"vehicle_type_id":"4","last_reported":1741958266,"current_range_meters":4000,"station_id":"ce4bh0h2rcd13ifvqd40","pricing_plan_id":"cebpf4jnsgd1na2vs0mg"},{"bike_id":"2fa0046f-4c6e-4301-b7df-14c0bbb04bdb","system_id":"levelo_inurba_marseille","lat":43.31369,"lon":5.36715,"is_reserved":false,"is_disabled":false,"rental_uris":{"android":"levelo://app?vid=2fa0046f-4c6e-4301-b7df-14c0bbb04bdb","ios":"levelo://app?vid=2fa0046f-4c6e-4301-b7df-14c0bbb04bdb"},"vehicle_type_id":"4","last_reported":1741958266,"current_range_meters":4000,"station_id":"ce4bgr92rcd13ifvqc6g","pricing_plan_id":"cebpf4jnsgd1na2vs0mg"},{"bike_id":"d0010895-ecbf-4850-b71d-13fc15ec901d","system_id":"levelo_inurba_marseille","lat":43.28414,"lon":5.37515,"is_reserved":false,"is_disabled":false,"rental_uris":{"android":"levelo://app?vid=d0010895-ecbf-4850-b71d-13fc15ec901d","ios":"levelo://app?vid=d0010895-ecbf-4850-b71d-13fc15ec901d"},"vehicle_type_id":"4","last_reported":1741958266,"current_range_meters":4000,"station_id":"ce4bh412rcd13ifvqds0","pricing_plan_id":"cebpf4jnsgd1na2vs0mg"},{"bike_id":"6abe6a67-ac01-4ffe-a9fb-f7b5de19c74d","system_id":"levelo_inurba_marseille","lat":43.32547,"lon":5.41458,"is_reserved":false,"is_disabled":false,"rental_uris":{"android":"levelo://app?vid=6abe6a67-ac01-4ffe-a9fb-f7b5de19c74d","ios":"levelo://app?vid=6abe6a67-ac01-4ffe-a9fb-f7b5de19c74d"},"vehicle_type_id":"4","last_reported":1741958266,"current_range_meters":4400,"station_id":"ce4bhq12rcd13ifvqhhg","pricing_plan_id":"cebpf4jnsgd1na2vs0mg"},{"bike_id":"8e587aa8-3283-40c0-82d8-d5f715eee75f","system_id":"levelo_inurba_marseille","lat":43.34141,"lon":5.4091,"is_reserved":false,"is_disabled":false,"rental_uris":{"android":"levelo://app?vid=8e587aa8-3283-40c0-82d8-d5f715eee75f","ios":"levelo://app?vid=8e587aa8-3283-40c0-82d8-d5f715eee75f"},"vehicle_type_id":"4","last_reported":1741958266,"current_range_meters":4400,"station_id":"ce4bhqh2rcd13ifvqhlg","pricing_plan_id":"cebpf4jnsgd1na2vs0mg"},{"bike_id":"d7cf3da4-03cf-4eae-b183-47670a6b872f","system_id":"levelo_inurba_marseille","lat":43.231929,"lon":5.355551,"is_reserved":false,"is_disabled":false,"rental_uris":{"android":"levelo://app?vid=d7cf3da4-03cf-4eae-b183-47670a6b872f","ios":"levelo://app?vid=d7cf3da4-03cf-4eae-b183-47670a6b872f"},"vehicle_type_id":"4","last_reported":1741958266,"current_range_meters":4400,"station_id":"ce4bhu92rcd13ifvqi70","pricing_plan_id":"cebpf4jnsgd1na2vs0mg"},{"bike_id":"90834233-98a1-481c-b281-97e549069c6c","system_id":"levelo_inurba_marseille","lat":43.28145,"lon":5.42658,"is_reserved":false,"is_disabled":false,"rental_uris":{"android":"levelo://app?vid=90834233-98a1-481c-b281-97e549069c6c","ios":"levelo://app?vid=90834233-98a1-481c-b281-97e549069c6c"},"vehicle_type_id":"4","last_reported":1741958266,"current_range_meters":4400,"station_id":"ce4bhnh2rcd13ifvqgug","pricing_plan_id":"cebpf4jnsgd1na2vs0mg"},{"bike_id":"7b34d8c2-51d4-49f3-a1fa-04b75276071b","system_id":"levelo_inurba_marseille","lat":43.29415,"lon":5.38619,"is_reserved":false,"is_disabled":false,"rental_uris":{"android":"levelo://app?vid=7b34d8c2-51d4-49f3-a1fa-04b75276071b","ios":"levelo://app?vid=7b34d8c2-51d4-49f3-a1fa-04b75276071b"},"vehicle_type_id":"4","last_reported":1741958266,"current_range_meters":4400,"station_id":"ce4bh2h2rcd13ifvqdh0","pricing_plan_id":"cebpf4jnsgd1na2vs0mg"},{"bike_id":"cb9d1861-f894-4bac-9bbd-ff842dd97c94","system_id":"levelo_inurba_marseille","lat":43.301333,"lon":5.398672,"is_reserved":false,"is_disabled":false,"rental_uris":{"android":"levelo://app?vid=cb9d1861-f894-4bac-9bbd-ff842dd97c94","ios":"levelo://app?vid=cb9d1861-f894-4bac-9bbd-ff842dd97c94"},"vehicle_type_id":"4","last_reported":1741958266,"current_range_meters":5600,"station_id":"ce4bh0h2rcd13ifvqd40","pricing_plan_id":"cebpf4jnsgd1na2vs0mg"},{"bike_id":"e222bc3f-369a-447a-b251-c71aa8a28b39","system_id":"levelo_inurba_marseille","lat":43.2467,"lon":5.38128,"is_reserved":false,"is_disabled":false,"rental_uris":{"android":"levelo://app?vid=e222bc3f-369a-447a-b251-c71aa8a28b39","ios":"levelo://app?vid=e222bc3f-369a-447a-b251-c71aa8a28b39"},"vehicle_type_id":"4","last_reported":1741958266,"current_range_meters":5600,"station_id":"ce4bhih2rcd13ifvqfr0","pricing_plan_id":"cebpf4jnsgd1na2vs0mg"},{"bike_id":"3e052f78-610f-4c3b-8bb7-3204cf1ee4e4","system_id":"levelo_inurba_marseille","lat":43.31371,"lon":5.36715,"is_reserved":false,"is_disabled":false,"rental_uris":{"android":"levelo://app?vid=3e052f78-610f-4c3b-8bb7-3204cf1ee4e4","ios":"levelo://app?vid=3e052f78-610f-4c3b-8bb7-3204cf1ee4e4"},"vehicle_type_id":"4","last_reported":1741958266,"current_range_meters":5600,"station_id":"ce4bgr92rcd13ifvqc6g","pricing_plan_id":"cebpf4jnsgd1na2vs0mg"},{"bike_id":"1dcdb34d-8f54-4953-b159-22f1f87536cd","system_id":"levelo_inurba_marseille","lat":43.31242,"lon":5.40115,"is_reserved":false,"is_disabled":false,"rental_uris":{"android":"levelo://app?vid=1dcdb34d-8f54-4953-b159-22f1f87536cd","ios":"levelo://app?vid=1dcdb34d-8f54-4953-b159-22f1f87536cd"},"vehicle_type_id":"4","last_reported":1741958266,"current_range_meters":6000,"station_id":"ce4bh092rcd13ifvqd30","pricing_plan_id":"cebpf4jnsgd1na2vs0mg"},{"bike_id":"cd62f0b0-e712-4ed8-b222-8e7cb2c87e1b","system_id":"levelo_inurba_marseille","lat":43.23654,"lon":5.40295,"is_reserved":false,"is_disabled":false,"rental_uris":{"android":"levelo://app?vid=cd62f0b0-e712-4ed8-b222-8e7cb2c87e1b","ios":"levelo://app?vid=cd62f0b0-e712-4ed8-b222-8e7cb2c87e1b"},"vehicle_type_id":"4","last_reported":1741958266,"current_range_meters":6000,"station_id":"","pricing_plan_id":"cebpf4jnsgd1na2vs0mg"},{"bike_id":"154d0f4a-7cf1-4b4a-8919-807104d462e1","system_id":"levelo_inurba_marseille","lat":43.26654,"lon":5.38631,"is_reserved":false,"is_disabled":false,"rental_uris":{"android":"levelo://app?vid=154d0f4a-7cf1-4b4a-8919-807104d462e1","ios":"levelo://app?vid=154d0f4a-7cf1-4b4a-8919-807104d462e1"},"vehicle_type_id":"4","last_reported":1741958266,"current_range_meters":6000,"station_id":"","pricing_plan_id":"cebpf4jnsgd1na2vs0mg"},{"bike_id":"a9469bba-782c-4fef-b15e-bffa7cf98f64","system_id":"levelo_inurba_marseille","lat":43.31496,"lon":5.37304,"is_reserved":false,"is_disabled":false,"rental_uris":{"android":"levelo://app?vid=a9469bba-782c-4fef-b15e-bffa7cf98f64","ios":"levelo://app?vid=a9469bba-782c-4fef-b15e-bffa7cf98f64"},"vehicle_type_id":"4","last_reported":1741958266,"current_range_meters":6400,"station_id":"ce4bgt12rcd13ifvqcd0","pricing_plan_id":"cebpf4jnsgd1na2vs0mg"},{"bike_id":"7543999f-d6d4-4b66-bd02-5aefc426b256","system_id":"levelo_inurba_marseille","lat":43.29253,"lon":5.3844,"is_reserved":false,"is_disabled":false,"rental_uris":{"android":"levelo://app?vid=7543999f-d6d4-4b66-bd02-5aefc426b256","ios":"levelo://app?vid=7543999f-d6d4-4b66-bd02-5aefc426b256"},"vehicle_type_id":"4","last_reported":1741958266,"current_range_meters":6400,"station_id":"ce4bh692rcd13ifvqea0","pricing_plan_id":"cebpf4jnsgd1na2vs0mg"},{"bike_id":"8ae920f1-b7c3-42f6-b3f2-2e54db59fe5e","system_id":"levelo_inurba_marseille","lat":43.31088,"lon":5.38358,"is_reserved":false,"is_disabled":false,"rental_uris":{"android":"levelo://app?vid=8ae920f1-b7c3-42f6-b3f2-2e54db59fe5e","ios":"levelo://app?vid=8ae920f1-b7c3-42f6-b3f2-2e54db59fe5e"},"vehicle_type_id":"4","last_reported":1741958266,"current_range_meters":6400,"station_id":"ce4bgv92rcd13ifvqcr0","pricing_plan_id":"cebpf4jnsgd1na2vs0mg"},{"bike_id":"bea0aaa1-1e1b-4a71-a5e8-fd09480beefb","system_id":"levelo_inurba_marseille","lat":43.29051,"lon":5.3758,"is_reserved":false,"is_disabled":false,"rental_uris":{"android":"levelo://app?vid=bea0aaa1-1e1b-4a71-a5e8-fd09480beefb","ios":"levelo://app?vid=bea0aaa1-1e1b-4a71-a5e8-fd09480beefb"},"vehicle_type_id":"4","last_reported":1741958266,"current_range_meters":6400,"station_id":"ce4bh692rcd13ifvqe90","pricing_plan_id":"cebpf4jnsgd1na2vs0mg"},{"bike_id":"67414d52-13ce-4025-b386-e9b3544f5ad5","system_id":"levelo_inurba_marseille","lat":43.2668,"lon":5.38289,"is_reserved":false,"is_disabled":false,"rental_uris":{"android":"levelo://app?vid=67414d52-13ce-4025-b386-e9b3544f5ad5","ios":"levelo://app?vid=67414d52-13ce-4025-b386-e9b3544f5ad5"},"vehicle_type_id":"4","last_reported":1741958266,"current_range_meters":6400,"station_id":"ce4bhg92rcd13ifvqf90","pricing_plan_id":"cebpf4jnsgd1na2vs0mg"},{"bike_id":"7b35ad81-591c-4cc8-b125-1210315faf0d","system_id":"levelo_inurba_marseille","lat":43.23141,"lon":5.43708,"is_reserved":false,"is_disabled":false,"rental_uris":{"android":"levelo://app?vid=7b35ad81-591c-4cc8-b125-1210315faf0d","ios":"levelo://app?vid=7b35ad81-591c-4cc8-b125-1210315faf0d"},"vehicle_type_id":"4","last_reported":1741958266,"current_range_meters":6400,"station_id":"ce4bhmp2rcd13ifvqgog","pricing_plan_id":"cebpf4jnsgd1na2vs0mg"},{"bike_id":"541b2cc8-d53e-4bc4-8094-dad19347e043","system_id":"levelo_inurba_marseille","lat":43.24656,"lon":5.38175,"is_reserved":false,"is_disabled":false,"rental_uris":{"android":"levelo://app?vid=541b2cc8-d53e-4bc4-8094-dad19347e043","ios":"levelo://app?vid=541b2cc8-d53e-4bc4-8094-dad19347e043"},"vehicle_type_id":"4","last_reported":1741958266,"current_range_meters":6400,"station_id":"ce4bhih2rcd13ifvqfr0","pricing_plan_id":"cebpf4jnsgd1na2vs0mg"},{"bike_id":"e350ce66-a995-469c-b4d1-ba6658fe49e2","system_id":"levelo_inurba_marseille","lat":43.27818,"lon":5.40717,"is_reserved":false,"is_disabled":false,"rental_uris":{"android":"levelo://app?vid=e350ce66-a995-469c-b4d1-ba6658fe49e2","ios":"levelo://app?vid=e350ce66-a995-469c-b4d1-ba6658fe49e2"},"vehicle_type_id":"4","last_reported":1741958266,"current_range_meters":6400,"station_id":"ce4bhnh2rcd13ifvqgtg","pricing_plan_id":"cebpf4jnsgd1na2vs0mg"},{"bike_id":"541d1e6f-8966-4ed3-9488-246c0c20616d","system_id":"levelo_inurba_marseille","lat":43.30795,"lon":5.38156,"is_reserved":false,"is_disabled":false,"rental_uris":{"android":"levelo://app?vid=541d1e6f-8966-4ed3-9488-246c0c20616d","ios":"levelo://app?vid=541d1e6f-8966-4ed3-9488-246c0c20616d"},"vehicle_type_id":"4","last_reported":1741958266,"current_range_meters":6400,"station_id":"ce4bgt12rcd13ifvqce0","pricing_plan_id":"cebpf4jnsgd1na2vs0mg"},{"bike_id":"6ca4b995-db30-4f4e-8294-49a93381ae1a","system_id":"levelo_inurba_marseille","lat":43.30212,"lon":5.39468,"is_reserved":false,"is_disabled":false,"rental_uris":{"android":"levelo://app?vid=6ca4b995-db30-4f4e-8294-49a93381ae1a","ios":"levelo://app?vid=6ca4b995-db30-4f4e-8294-49a93381ae1a"},"vehicle_type_id":"4","last_reported":1741958266,"current_range_meters":6800,"station_id":"ce4bh0p2rcd13ifvqd70","pricing_plan_id":"cebpf4jnsgd1na2vs0mg"},{"bike_id":"58bf68db-cfa6-4ecb-90cc-aef2837b9a7f","system_id":"levelo_inurba_marseille","lat":43.33718,"lon":5.39187,"is_reserved":false,"is_disabled":false,"rental_uris":{"android":"levelo://app?vid=58bf68db-cfa6-4ecb-90cc-aef2837b9a7f","ios":"levelo://app?vid=58bf68db-cfa6-4ecb-90cc-aef2837b9a7f"},"vehicle_type_id":"4","last_reported":1741958266,"current_range_meters":6800,"station_id":"ce4bhr92rcd13ifvqhsg","pricing_plan_id":"cebpf4jnsgd1na2vs0mg"},{"bike_id":"fc1f36c2-eea4-47b4-bc22-9ecacca9ee58","system_id":"levelo_inurba_marseille","lat":43.28949,"lon":5.36397,"is_reserved":false,"is_disabled":false,"rental_uris":{"android":"levelo://app?vid=fc1f36c2-eea4-47b4-bc22-9ecacca9ee58","ios":"levelo://app?vid=fc1f36c2-eea4-47b4-bc22-9ecacca9ee58"},"vehicle_type_id":"4","last_reported":1741958266,"current_range_meters":6800,"station_id":"ce4bhc92rcd13ifvqetg","pricing_plan_id":"cebpf4jnsgd1na2vs0mg"},{"bike_id":"83aa7ab2-d352-459f-bd36-67e70fb4a7aa","system_id":"levelo_inurba_marseille","lat":43.25908,"lon":5.40911,"is_reserved":false,"is_disabled":false,"rental_uris":{"android":"levelo://app?vid=83aa7ab2-d352-459f-bd36-67e70fb4a7aa","ios":"levelo://app?vid=83aa7ab2-d352-459f-bd36-67e70fb4a7aa"},"vehicle_type_id":"4","last_reported":1741958266,"current_range_meters":6800,"station_id":"ce4bhm92rcd13ifvqglg","pricing_plan_id":"cebpf4jnsgd1na2vs0mg"},{"bike_id":"ab3b3273-086b-4458-b5bf-fb61a149b41e","system_id":"levelo_inurba_marseille","lat":43.26244,"lon":5.40449,"is_reserved":false,"is_disabled":false,"rental_uris":{"android":"levelo://app?vid=ab3b3273-086b-4458-b5bf-fb61a149b41e","ios":"levelo://app?vid=ab3b3273-086b-4458-b5bf-fb61a149b41e"},"vehicle_type_id":"4","last_reported":1741958266,"current_range_meters":6800,"station_id":"ce4bhmh2rcd13ifvqgmg","pricing_plan_id":"cebpf4jnsgd1na2vs0mg"},{"bike_id":"3b9fc5f1-01c1-4208-bcba-89af72e6a565","system_id":"levelo_inurba_marseille","lat":43.32476,"lon":5.36562,"is_reserved":false,"is_disabled":false,"rental_uris":{"android":"levelo://app?vid=3b9fc5f1-01c1-4208-bcba-89af72e6a565","ios":"levelo://app?vid=3b9fc5f1-01c1-4208-bcba-89af72e6a565"},"vehicle_type_id":"4","last_reported":1741958266,"current_range_meters":6800,"station_id":"ce4bhs12rcd13ifvqhvg","pricing_plan_id":"cebpf4jnsgd1na2vs0mg"},{"bike_id":"1cbeb49c-8d51-46f2-ad03-8af78ea79d9a","system_id":"levelo_inurba_marseille","lat":43.24181,"lon":5.39722,"is_reserved":false,"is_disabled":false,"rental_uris":{"android":"levelo://app?vid=1cbeb49c-8d51-46f2-ad03-8af78ea79d9a","ios":"levelo://app?vid=1cbeb49c-8d51-46f2-ad03-8af78ea79d9a"},"vehicle_type_id":"4","last_reported":1741958266,"current_range_meters":6800,"station_id":"ce4bhn12rcd13ifvqgpg","pricing_plan_id":"cebpf4jnsgd1na2vs0mg"},{"bike_id":"39df283f-35a5-4c44-9f0d-6dd6923a19a4","system_id":"levelo_inurba_marseille","lat":43.32092,"lon":5.36798,"is_reserved":false,"is_disabled":false,"rental_uris":{"android":"levelo://app?vid=39df283f-35a5-4c44-9f0d-6dd6923a19a4","ios":"levelo://app?vid=39df283f-35a5-4c44-9f0d-6dd6923a19a4"},"vehicle_type_id":"4","last_reported":1741958266,"current_range_meters":6800,"station_id":"ce4bhrh2rcd13ifvqhug","pricing_plan_id":"cebpf4jnsgd1na2vs0mg"},{"bike_id":"27a9a62b-6368-4179-8f2c-f6dd6040539e","system_id":"levelo_inurba_marseille","lat":43.26215,"lon":5.37447,"is_reserved":false,"is_disabled":false,"rental_uris":{"android":"levelo://app?vid=27a9a62b-6368-4179-8f2c-f6dd6040539e","ios":"levelo://app?vid=27a9a62b-6368-4179-8f2c-f6dd6040539e"},"vehicle_type_id":"4","last_reported":1741958266,"current_range_meters":7200,"station_id":"ce4bhgp2rcd13ifvqfc0","pricing_plan_id":"cebpf4jnsgd1na2vs0mg"},{"bike_id":"f426e1e1-6a35-4d57-bc62-e89b051d4ed8","system_id":"levelo_inurba_marseille","lat":43.24076,"lon":5.3776,"is_reserved":false,"is_disabled":false,"rental_uris":{"android":"levelo://app?vid=f426e1e1-6a35-4d57-bc62-e89b051d4ed8","ios":"levelo://app?vid=f426e1e1-6a35-4d57-bc62-e89b051d4ed8"},"vehicle_type_id":"4","last_reported":1741958266,"current_range_meters":7200,"station_id":"ce4bhnp2rcd13ifvqgvg","pricing_plan_id":"cebpf4jnsgd1na2vs0mg"},{"bike_id":"4208b8a5-20ba-4184-b8b1-4afcf0859341","system_id":"levelo_inurba_marseille","lat":43.28492,"lon":5.38536,"is_reserved":false,"is_disabled":false,"rental_uris":{"android":"levelo://app?vid=4208b8a5-20ba-4184-b8b1-4afcf0859341","ios":"levelo://app?vid=4208b8a5-20ba-4184-b8b1-4afcf0859341"},"vehicle_type_id":"4","last_reported":1741958266,"current_range_meters":7200,"station_id":"ce4bh8p2rcd13ifvqeb0","pricing_plan_id":"cebpf4jnsgd1na2vs0mg"},{"bike_id":"4623233d-e245-4d94-ae16-7a5186bcc89a","system_id":"levelo_inurba_marseille","lat":43.28267,"lon":5.35066,"is_reserved":false,"is_disabled":false,"rental_uris":{"android":"levelo://app?vid=4623233d-e245-4d94-ae16-7a5186bcc89a","ios":"levelo://app?vid=4623233d-e245-4d94-ae16-7a5186bcc89a"},"vehicle_type_id":"4","last_reported":1741958266,"current_range_meters":7200,"station_id":"ce4bhbp2rcd13ifvqerg","pricing_plan_id":"cebpf4jnsgd1na2vs0mg"},{"bike_id":"af5df027-9916-41a5-8ab7-db2182f63a1a","system_id":"levelo_inurba_marseille","lat":43.29315,"lon":5.37455,"is_reserved":false,"is_disabled":false,"rental_uris":{"android":"levelo://app?vid=af5df027-9916-41a5-8ab7-db2182f63a1a","ios":"levelo://app?vid=af5df027-9916-41a5-8ab7-db2182f63a1a"},"vehicle_type_id":"4","last_reported":1741958266,"current_range_meters":7200,"station_id":"ce4bgi12rcd13ifvqb70","pricing_plan_id":"cebpf4jnsgd1na2vs0mg"},{"bike_id":"b78c10b7-b880-4638-b672-f8fc61bd3c48","system_id":"levelo_inurba_marseille","lat":43.24074,"lon":5.37759,"is_reserved":false,"is_disabled":false,"rental_uris":{"android":"levelo://app?vid=b78c10b7-b880-4638-b672-f8fc61bd3c48","ios":"levelo://app?vid=b78c10b7-b880-4638-b672-f8fc61bd3c48"},"vehicle_type_id":"4","last_reported":1741958266,"current_range_meters":7200,"station_id":"ce4bhnp2rcd13ifvqgvg","pricing_plan_id":"cebpf4jnsgd1na2vs0mg"},{"bike_id":"6ab36640-1c77-4e21-87b9-28fd3f490061","system_id":"levelo_inurba_marseille","lat":43.31226,"lon":5.36823,"is_reserved":false,"is_disabled":false,"rental_uris":{"android":"levelo://app?vid=6ab36640-1c77-4e21-87b9-28fd3f490061","ios":"levelo://app?vid=6ab36640-1c77-4e21-87b9-28fd3f490061"},"vehicle_type_id":"4","last_reported":1741958266,"current_range_meters":7200,"station_id":"ce4bgl92rcd13ifvqbq0","pricing_plan_id":"cebpf4jnsgd1na2vs0mg"},{"bike_id":"45dce5d6-fdd9-43b7-8cb1-c7832923b7a4","system_id":"levelo_inurba_marseille","lat":43.27038,"lon":5.40282,"is_reserved":false,"is_disabled":false,"rental_uris":{"android":"levelo://app?vid=45dce5d6-fdd9-43b7-8cb1-c7832923b7a4","ios":"levelo://app?vid=45dce5d6-fdd9-43b7-8cb1-c7832923b7a4"},"vehicle_type_id":"4","last_reported":1741958266,"current_range_meters":7200,"station_id":"ce4bhk92rcd13ifvqgc0","pricing_plan_id":"cebpf4jnsgd1na2vs0mg"},{"bike_id":"14f8d8ec-ab3a-47c5-b3b1-f44728b81ec5","system_id":"levelo_inurba_marseille","lat":43.25492,"lon":5.37652,"is_reserved":false,"is_disabled":false,"rental_uris":{"android":"levelo://app?vid=14f8d8ec-ab3a-47c5-b3b1-f44728b81ec5","ios":"levelo://app?vid=14f8d8ec-ab3a-47c5-b3b1-f44728b81ec5"},"vehicle_type_id":"4","last_reported":1741958266,"current_range_meters":7200,"station_id":"ce4bhh12rcd13ifvqff0","pricing_plan_id":"cebpf4jnsgd1na2vs0mg"},{"bike_id":"8939fbba-2fc8-450a-9027-04db4f4e697a","system_id":"levelo_inurba_marseille","lat":43.31378,"lon":5.40467,"is_reserved":false,"is_disabled":false,"rental_uris":{"android":"levelo://app?vid=8939fbba-2fc8-450a-9027-04db4f4e697a","ios":"levelo://app?vid=8939fbba-2fc8-450a-9027-04db4f4e697a"},"vehicle_type_id":"4","last_reported":1741958266,"current_range_meters":8000,"station_id":"","pricing_plan_id":"cebpf4jnsgd1na2vs0mg"},{"bike_id":"102d3c97-a065-49b4-af7e-abba3c32513a","system_id":"levelo_inurba_marseille","lat":43.24551,"lon":5.3951,"is_reserved":false,"is_disabled":false,"rental_uris":{"android":"levelo://app?vid=102d3c97-a065-49b4-af7e-abba3c32513a","ios":"levelo://app?vid=102d3c97-a065-49b4-af7e-abba3c32513a"},"vehicle_type_id":"4","last_reported":1741958266,"current_range_meters":8000,"station_id":"ce4bhlp2rcd13ifvqgjg","pricing_plan_id":"cebpf4jnsgd1na2vs0mg"},{"bike_id":"8e824da1-37b2-4e11-9c99-bb2e507552f6","system_id":"levelo_inurba_marseille","lat":43.23154,"lon":5.43733,"is_reserved":false,"is_disabled":false,"rental_uris":{"android":"levelo://app?vid=8e824da1-37b2-4e11-9c99-bb2e507552f6","ios":"levelo://app?vid=8e824da1-37b2-4e11-9c99-bb2e507552f6"},"vehicle_type_id":"4","last_reported":1741958266,"current_range_meters":8000,"station_id":"ce4bhmp2rcd13ifvqgog","pricing_plan_id":"cebpf4jnsgd1na2vs0mg"},{"bike_id":"1179ea35-4831-4438-984a-d67269a5255b","system_id":"levelo_inurba_marseille","lat":43.232,"lon":5.3554,"is_reserved":false,"is_disabled":false,"rental_uris":{"android":"levelo://app?vid=1179ea35-4831-4438-984a-d67269a5255b","ios":"levelo://app?vid=1179ea35-4831-4438-984a-d67269a5255b"},"vehicle_type_id":"4","last_reported":1741958266,"current_range_meters":8000,"station_id":"ce4bhu92rcd13ifvqi70","pricing_plan_id":"cebpf4jnsgd1na2vs0mg"},{"bike_id":"150b3b69-cce0-417e-b078-1fb5ce62bcdb","system_id":"levelo_inurba_marseille","lat":43.24061,"lon":5.37762,"is_reserved":false,"is_disabled":false,"rental_uris":{"android":"levelo://app?vid=150b3b69-cce0-417e-b078-1fb5ce62bcdb","ios":"levelo://app?vid=150b3b69-cce0-417e-b078-1fb5ce62bcdb"},"vehicle_type_id":"4","last_reported":1741958266,"current_range_meters":8000,"station_id":"ce4bhnp2rcd13ifvqgvg","pricing_plan_id":"cebpf4jnsgd1na2vs0mg"},{"bike_id":"aba0ccbf-6f6e-4589-b839-ce3d491b68b5","system_id":"levelo_inurba_marseille","lat":43.31473,"lon":5.3729,"is_reserved":false,"is_disabled":false,"rental_uris":{"android":"levelo://app?vid=aba0ccbf-6f6e-4589-b839-ce3d491b68b5","ios":"levelo://app?vid=aba0ccbf-6f6e-4589-b839-ce3d491b68b5"},"vehicle_type_id":"4","last_reported":1741958266,"current_range_meters":8000,"station_id":"ce4bgt12rcd13ifvqcd0","pricing_plan_id":"cebpf4jnsgd1na2vs0mg"},{"bike_id":"19d84f61-fe66-4c05-8ec7-fb9379061deb","system_id":"levelo_inurba_marseille","lat":43.2315,"lon":5.43708,"is_reserved":false,"is_disabled":false,"rental_uris":{"android":"levelo://app?vid=19d84f61-fe66-4c05-8ec7-fb9379061deb","ios":"levelo://app?vid=19d84f61-fe66-4c05-8ec7-fb9379061deb"},"vehicle_type_id":"4","last_reported":1741958266,"current_range_meters":8000,"station_id":"ce4bhmp2rcd13ifvqgog","pricing_plan_id":"cebpf4jnsgd1na2vs0mg"},{"bike_id":"d38173ab-1ba2-401c-907e-3518e6e0a150","system_id":"levelo_inurba_marseille","lat":43.29442,"lon":5.397535,"is_reserved":false,"is_disabled":false,"rental_uris":{"android":"levelo://app?vid=d38173ab-1ba2-401c-907e-3518e6e0a150","ios":"levelo://app?vid=d38173ab-1ba2-401c-907e-3518e6e0a150"},"vehicle_type_id":"4","last_reported":1741958266,"current_range_meters":8000,"station_id":"ce4bh3h2rcd13ifvqdo0","pricing_plan_id":"cebpf4jnsgd1na2vs0mg"},{"bike_id":"58953ad0-ae88-4a58-9ac6-f797dd69f44e","system_id":"levelo_inurba_marseille","lat":43.24997,"lon":5.38931,"is_reserved":false,"is_disabled":false,"rental_uris":{"android":"levelo://app?vid=58953ad0-ae88-4a58-9ac6-f797dd69f44e","ios":"levelo://app?vid=58953ad0-ae88-4a58-9ac6-f797dd69f44e"},"vehicle_type_id":"4","last_reported":1741958266,"current_range_meters":8400,"station_id":"ce4bhgp2rcd13ifvqfd0","pricing_plan_id":"cebpf4jnsgd1na2vs0mg"},{"bike_id":"5a23b0e5-33c1-4500-8a2b-ca41522c455e","system_id":"levelo_inurba_marseille","lat":43.2996,"lon":5.37164,"is_reserved":false,"is_disabled":false,"rental_uris":{"android":"levelo://app?vid=5a23b0e5-33c1-4500-8a2b-ca41522c455e","ios":"levelo://app?vid=5a23b0e5-33c1-4500-8a2b-ca41522c455e"},"vehicle_type_id":"4","last_reported":1741958266,"current_range_meters":8400,"station_id":"ce4bgr92rcd13ifvqc7g","pricing_plan_id":"cebpf4jnsgd1na2vs0mg"},{"bike_id":"6cec560f-8635-4801-8462-637e6f2c72c5","system_id":"levelo_inurba_marseille","lat":43.232,"lon":5.35554,"is_reserved":false,"is_disabled":false,"rental_uris":{"android":"levelo://app?vid=6cec560f-8635-4801-8462-637e6f2c72c5","ios":"levelo://app?vid=6cec560f-8635-4801-8462-637e6f2c72c5"},"vehicle_type_id":"4","last_reported":1741958266,"current_range_meters":8400,"station_id":"ce4bhu92rcd13ifvqi70","pricing_plan_id":"cebpf4jnsgd1na2vs0mg"},{"bike_id":"55e90ce3-c006-4994-9b2b-74375d5d737f","system_id":"levelo_inurba_marseille","lat":43.31683,"lon":5.40477,"is_reserved":false,"is_disabled":false,"rental_uris":{"android":"levelo://app?vid=55e90ce3-c006-4994-9b2b-74375d5d737f","ios":"levelo://app?vid=55e90ce3-c006-4994-9b2b-74375d5d737f"},"vehicle_type_id":"4","last_reported":1741958266,"current_range_meters":8400,"station_id":"ce4bh012rcd13ifvqd00","pricing_plan_id":"cebpf4jnsgd1na2vs0mg"},{"bike_id":"1fc1dc55-63c4-4deb-b4d3-4f910b75b951","system_id":"levelo_inurba_marseille","lat":43.28483,"lon":5.38416,"is_reserved":false,"is_disabled":false,"rental_uris":{"android":"levelo://app?vid=1fc1dc55-63c4-4deb-b4d3-4f910b75b951","ios":"levelo://app?vid=1fc1dc55-63c4-4deb-b4d3-4f910b75b951"},"vehicle_type_id":"4","last_reported":1741958266,"current_range_meters":8400,"station_id":"ce4bh512rcd13ifvqe3g","pricing_plan_id":"cebpf4jnsgd1na2vs0mg"},{"bike_id":"4afd2fd8-efd9-45d9-9c83-99a19870b731","system_id":"levelo_inurba_marseille","lat":43.29585,"lon":5.37513,"is_reserved":false,"is_disabled":false,"rental_uris":{"android":"levelo://app?vid=4afd2fd8-efd9-45d9-9c83-99a19870b731","ios":"levelo://app?vid=4afd2fd8-efd9-45d9-9c83-99a19870b731"},"vehicle_type_id":"4","last_reported":1741958266,"current_range_meters":8400,"station_id":"ce4bgh92rcd13ifvqb50","pricing_plan_id":"cebpf4jnsgd1na2vs0mg"},{"bike_id":"f156260f-cf55-4032-ae11-990ce2d06fd8","system_id":"levelo_inurba_marseille","lat":43.2886,"lon":5.35851,"is_reserved":false,"is_disabled":false,"rental_uris":{"android":"levelo://app?vid=f156260f-cf55-4032-ae11-990ce2d06fd8","ios":"levelo://app?vid=f156260f-cf55-4032-ae11-990ce2d06fd8"},"vehicle_type_id":"4","last_reported":1741958266,"current_range_meters":8400,"station_id":"ce4bhb12rcd13ifvqem0","pricing_plan_id":"cebpf4jnsgd1na2vs0mg"},{"bike_id":"01e25889-3bfd-4c2b-b309-d66c58f42e18","system_id":"levelo_inurba_marseille","lat":43.31678,"lon":5.40482,"is_reserved":false,"is_disabled":false,"rental_uris":{"android":"levelo://app?vid=01e25889-3bfd-4c2b-b309-d66c58f42e18","ios":"levelo://app?vid=01e25889-3bfd-4c2b-b309-d66c58f42e18"},"vehicle_type_id":"4","last_reported":1741958266,"current_range_meters":8400,"station_id":"ce4bh012rcd13ifvqd00","pricing_plan_id":"cebpf4jnsgd1na2vs0mg"},{"bike_id":"6944bb06-8a8c-4cf4-86a1-ca9561cf4ee4","system_id":"levelo_inurba_marseille","lat":43.23061,"lon":5.35488,"is_reserved":false,"is_disabled":false,"rental_uris":{"android":"levelo://app?vid=6944bb06-8a8c-4cf4-86a1-ca9561cf4ee4","ios":"levelo://app?vid=6944bb06-8a8c-4cf4-86a1-ca9561cf4ee4"},"vehicle_type_id":"4","last_reported":1741958266,"current_range_meters":8400,"station_id":"cpo3342slgdg3j2ifvpg","pricing_plan_id":"cebpf4jnsgd1na2vs0mg"},{"bike_id":"d2c1304d-c6de-4e19-a363-2c0c4bdd9fb1","system_id":"levelo_inurba_marseille","lat":43.24665,"lon":5.38891,"is_reserved":false,"is_disabled":false,"rental_uris":{"android":"levelo://app?vid=d2c1304d-c6de-4e19-a363-2c0c4bdd9fb1","ios":"levelo://app?vid=d2c1304d-c6de-4e19-a363-2c0c4bdd9fb1"},"vehicle_type_id":"4","last_reported":1741958266,"current_range_meters":8400,"station_id":"ce4bhg12rcd13ifvqf60","pricing_plan_id":"cebpf4jnsgd1na2vs0mg"},{"bike_id":"414a87d8-0320-4da5-94cb-1c2e9eb2c2e2","system_id":"levelo_inurba_marseille","lat":43.2582,"lon":5.39427,"is_reserved":false,"is_disabled":false,"rental_uris":{"android":"levelo://app?vid=414a87d8-0320-4da5-94cb-1c2e9eb2c2e2","ios":"levelo://app?vid=414a87d8-0320-4da5-94cb-1c2e9eb2c2e2"},"vehicle_type_id":"4","last_reported":1741958266,"current_range_meters":8800,"station_id":"ce4bhip2rcd13ifvqft0","pricing_plan_id":"cebpf4jnsgd1na2vs0mg"},{"bike_id":"7121d818-13e2-43ed-b445-7134fefdd64f","system_id":"levelo_inurba_marseille","lat":43.232031,"lon":5.355526,"is_reserved":false,"is_disabled":false,"rental_uris":{"android":"levelo://app?vid=7121d818-13e2-43ed-b445-7134fefdd64f","ios":"levelo://app?vid=7121d818-13e2-43ed-b445-7134fefdd64f"},"vehicle_type_id":"4","last_reported":1741958266,"current_range_meters":8800,"station_id":"ce4bhu92rcd13ifvqi70","pricing_plan_id":"cebpf4jnsgd1na2vs0mg"},{"bike_id":"287f2444-c106-4909-91c8-54e340ef2d98","system_id":"levelo_inurba_marseille","lat":43.2572,"lon":5.41112,"is_reserved":false,"is_disabled":false,"rental_uris":{"android":"levelo://app?vid=287f2444-c106-4909-91c8-54e340ef2d98","ios":"levelo://app?vid=287f2444-c106-4909-91c8-54e340ef2d98"},"vehicle_type_id":"4","last_reported":1741958266,"current_range_meters":8800,"station_id":"ce4bhkp2rcd13ifvqgd0","pricing_plan_id":"cebpf4jnsgd1na2vs0mg"},{"bike_id":"fcf60bfc-7f3f-44de-812a-9ecfc93cd966","system_id":"levelo_inurba_marseille","lat":43.27448,"lon":5.39409,"is_reserved":false,"is_disabled":false,"rental_uris":{"android":"levelo://app?vid=fcf60bfc-7f3f-44de-812a-9ecfc93cd966","ios":"levelo://app?vid=fcf60bfc-7f3f-44de-812a-9ecfc93cd966"},"vehicle_type_id":"4","last_reported":1741958266,"current_range_meters":8800,"station_id":"ce4bhdp2rcd13ifvqf20","pricing_plan_id":"cebpf4jnsgd1na2vs0mg"},{"bike_id":"b634fcd7-4303-4fed-a2f8-fcd04ed2a4dd","system_id":"levelo_inurba_marseille","lat":43.23057,"lon":5.35494,"is_reserved":false,"is_disabled":false,"rental_uris":{"android":"levelo://app?vid=b634fcd7-4303-4fed-a2f8-fcd04ed2a4dd","ios":"levelo://app?vid=b634fcd7-4303-4fed-a2f8-fcd04ed2a4dd"},"vehicle_type_id":"4","last_reported":1741958266,"current_range_meters":8800,"station_id":"cpo3342slgdg3j2ifvpg","pricing_plan_id":"cebpf4jnsgd1na2vs0mg"},{"bike_id":"3d915018-0dee-4e75-9e7f-5cbc2a1e9639","system_id":"levelo_inurba_marseille","lat":43.33023,"lon":5.39053,"is_reserved":false,"is_disabled":false,"rental_uris":{"android":"levelo://app?vid=3d915018-0dee-4e75-9e7f-5cbc2a1e9639","ios":"levelo://app?vid=3d915018-0dee-4e75-9e7f-5cbc2a1e9639"},"vehicle_type_id":"4","last_reported":1741958266,"current_range_meters":8800,"station_id":"ce4bhr92rcd13ifvqhrg","pricing_plan_id":"cebpf4jnsgd1na2vs0mg"},{"bike_id":"320564be-2867-4ab5-80ba-99ed9100fc63","system_id":"levelo_inurba_marseille","lat":43.25821,"lon":5.39413,"is_reserved":false,"is_disabled":false,"rental_uris":{"android":"levelo://app?vid=320564be-2867-4ab5-80ba-99ed9100fc63","ios":"levelo://app?vid=320564be-2867-4ab5-80ba-99ed9100fc63"},"vehicle_type_id":"4","last_reported":1741958266,"current_range_meters":8800,"station_id":"","pricing_plan_id":"cebpf4jnsgd1na2vs0mg"},{"bike_id":"22eef8e9-28d0-4055-9740-16ced5bd43fc","system_id":"levelo_inurba_marseille","lat":43.24675,"lon":5.38169,"is_reserved":false,"is_disabled":false,"rental_uris":{"android":"levelo://app?vid=22eef8e9-28d0-4055-9740-16ced5bd43fc","ios":"levelo://app?vid=22eef8e9-28d0-4055-9740-16ced5bd43fc"},"vehicle_type_id":"4","last_reported":1741958266,"current_range_meters":8800,"station_id":"ce4bhih2rcd13ifvqfr0","pricing_plan_id":"cebpf4jnsgd1na2vs0mg"},{"bike_id":"a8e0e0b8-f4e8-4053-b47f-c6ef96e84e9e","system_id":"levelo_inurba_marseille","lat":43.29092,"lon":5.38139,"is_reserved":false,"is_disabled":false,"rental_uris":{"android":"levelo://app?vid=a8e0e0b8-f4e8-4053-b47f-c6ef96e84e9e","ios":"levelo://app?vid=a8e0e0b8-f4e8-4053-b47f-c6ef96e84e9e"},"vehicle_type_id":"4","last_reported":1741958266,"current_range_meters":8800,"station_id":"ce4bh512rcd13ifvqe2g","pricing_plan_id":"cebpf4jnsgd1na2vs0mg"},{"bike_id":"36ec5a15-215b-4367-a3ca-336aadd9a251","system_id":"levelo_inurba_marseille","lat":43.33746,"lon":5.3745,"is_reserved":false,"is_disabled":false,"rental_uris":{"android":"levelo://app?vid=36ec5a15-215b-4367-a3ca-336aadd9a251","ios":"levelo://app?vid=36ec5a15-215b-4367-a3ca-336aadd9a251"},"vehicle_type_id":"4","last_reported":1741958266,"current_range_meters":8800,"station_id":"","pricing_plan_id":"cebpf4jnsgd1na2vs0mg"},{"bike_id":"436bf6fd-98f0-4c70-968c-7fcac8f398a5","system_id":"levelo_inurba_marseille","lat":43.25091,"lon":5.41061,"is_reserved":false,"is_disabled":false,"rental_uris":{"android":"levelo://app?vid=436bf6fd-98f0-4c70-968c-7fcac8f398a5","ios":"levelo://app?vid=436bf6fd-98f0-4c70-968c-7fcac8f398a5"},"vehicle_type_id":"4","last_reported":1741958266,"current_range_meters":9200,"station_id":"","pricing_plan_id":"cebpf4jnsgd1na2vs0mg"},{"bike_id":"58dbce56-df09-40c6-a5b6-fbdefff13440","system_id":"levelo_inurba_marseille","lat":43.24547,"lon":5.39531,"is_reserved":false,"is_disabled":false,"rental_uris":{"android":"levelo://app?vid=58dbce56-df09-40c6-a5b6-fbdefff13440","ios":"levelo://app?vid=58dbce56-df09-40c6-a5b6-fbdefff13440"},"vehicle_type_id":"4","last_reported":1741958266,"current_range_meters":9200,"station_id":"ce4bhlp2rcd13ifvqgjg","pricing_plan_id":"cebpf4jnsgd1na2vs0mg"},{"bike_id":"c118cc19-7f0e-4e54-b921-f1faa9246911","system_id":"levelo_inurba_marseille","lat":43.24073,"lon":5.37753,"is_reserved":false,"is_disabled":false,"rental_uris":{"android":"levelo://app?vid=c118cc19-7f0e-4e54-b921-f1faa9246911","ios":"levelo://app?vid=c118cc19-7f0e-4e54-b921-f1faa9246911"},"vehicle_type_id":"4","last_reported":1741958266,"current_range_meters":9200,"station_id":"ce4bhnp2rcd13ifvqgvg","pricing_plan_id":"cebpf4jnsgd1na2vs0mg"},{"bike_id":"6d69bcb3-9f1f-47de-bcf3-40d0e4d7bc71","system_id":"levelo_inurba_marseille","lat":43.27833,"lon":5.40691,"is_reserved":false,"is_disabled":false,"rental_uris":{"android":"levelo://app?vid=6d69bcb3-9f1f-47de-bcf3-40d0e4d7bc71","ios":"levelo://app?vid=6d69bcb3-9f1f-47de-bcf3-40d0e4d7bc71"},"vehicle_type_id":"4","last_reported":1741958266,"current_range_meters":9200,"station_id":"ce4bhnh2rcd13ifvqgtg","pricing_plan_id":"cebpf4jnsgd1na2vs0mg"},{"bike_id":"d660f0a0-5ff9-4a72-b42d-b76224d366cc","system_id":"levelo_inurba_marseille","lat":43.24172,"lon":5.39726,"is_reserved":false,"is_disabled":false,"rental_uris":{"android":"levelo://app?vid=d660f0a0-5ff9-4a72-b42d-b76224d366cc","ios":"levelo://app?vid=d660f0a0-5ff9-4a72-b42d-b76224d366cc"},"vehicle_type_id":"4","last_reported":1741958266,"current_range_meters":9200,"station_id":"ce4bhn12rcd13ifvqgpg","pricing_plan_id":"cebpf4jnsgd1na2vs0mg"},{"bike_id":"703a27ab-78c1-4da2-9977-9c24f54834c8","system_id":"levelo_inurba_marseille","lat":43.32476,"lon":5.36581,"is_reserved":false,"is_disabled":false,"rental_uris":{"android":"levelo://app?vid=703a27ab-78c1-4da2-9977-9c24f54834c8","ios":"levelo://app?vid=703a27ab-78c1-4da2-9977-9c24f54834c8"},"vehicle_type_id":"4","last_reported":1741958266,"current_range_meters":9200,"station_id":"ce4bhs12rcd13ifvqhvg","pricing_plan_id":"cebpf4jnsgd1na2vs0mg"},{"bike_id":"3363e5ed-aafd-4c83-9f97-12270e6ffcf4","system_id":"levelo_inurba_marseille","lat":43.24854,"lon":5.40648,"is_reserved":false,"is_disabled":false,"rental_uris":{"android":"levelo://app?vid=3363e5ed-aafd-4c83-9f97-12270e6ffcf4","ios":"levelo://app?vid=3363e5ed-aafd-4c83-9f97-12270e6ffcf4"},"vehicle_type_id":"4","last_reported":1741958266,"current_range_meters":9200,"station_id":"","pricing_plan_id":"cebpf4jnsgd1na2vs0mg"},{"bike_id":"77381e3a-331a-48ce-8f32-affaf920e609","system_id":"levelo_inurba_marseille","lat":43.29553,"lon":5.42279,"is_reserved":false,"is_disabled":false,"rental_uris":{"android":"levelo://app?vid=77381e3a-331a-48ce-8f32-affaf920e609","ios":"levelo://app?vid=77381e3a-331a-48ce-8f32-affaf920e609"},"vehicle_type_id":"4","last_reported":1741958266,"current_range_meters":9200,"station_id":"ce4bhph2rcd13ifvqhdg","pricing_plan_id":"cebpf4jnsgd1na2vs0mg"},{"bike_id":"78dce6e6-36eb-4d6b-a861-292dc7c9e479","system_id":"levelo_inurba_marseille","lat":43.24995,"lon":5.38957,"is_reserved":false,"is_disabled":false,"rental_uris":{"android":"levelo://app?vid=78dce6e6-36eb-4d6b-a861-292dc7c9e479","ios":"levelo://app?vid=78dce6e6-36eb-4d6b-a861-292dc7c9e479"},"vehicle_type_id":"4","last_reported":1741958266,"current_range_meters":9600,"station_id":"ce4bhgp2rcd13ifvqfd0","pricing_plan_id":"cebpf4jnsgd1na2vs0mg"},{"bike_id":"2505a81e-c9a9-4720-9f61-760fdaddd3be","system_id":"levelo_inurba_marseille","lat":43.24672,"lon":5.38151,"is_reserved":false,"is_disabled":false,"rental_uris":{"android":"levelo://app?vid=2505a81e-c9a9-4720-9f61-760fdaddd3be","ios":"levelo://app?vid=2505a81e-c9a9-4720-9f61-760fdaddd3be"},"vehicle_type_id":"4","last_reported":1741958266,"current_range_meters":9600,"station_id":"ce4bhih2rcd13ifvqfr0","pricing_plan_id":"cebpf4jnsgd1na2vs0mg"},{"bike_id":"205861f1-c8e8-437b-8921-43664245ec7b","system_id":"levelo_inurba_marseille","lat":43.30998,"lon":5.38471,"is_reserved":false,"is_disabled":false,"rental_uris":{"android":"levelo://app?vid=205861f1-c8e8-437b-8921-43664245ec7b","ios":"levelo://app?vid=205861f1-c8e8-437b-8921-43664245ec7b"},"vehicle_type_id":"4","last_reported":1741958266,"current_range_meters":9600,"station_id":"","pricing_plan_id":"cebpf4jnsgd1na2vs0mg"},{"bike_id":"50c29b8b-ba17-4618-b32d-1e625e032100","system_id":"levelo_inurba_marseille","lat":43.30887,"lon":5.39656,"is_reserved":false,"is_disabled":false,"rental_uris":{"android":"levelo://app?vid=50c29b8b-ba17-4618-b32d-1e625e032100","ios":"levelo://app?vid=50c29b8b-ba17-4618-b32d-1e625e032100"},"vehicle_type_id":"4","last_reported":1741958266,"current_range_meters":9600,"station_id":"ce4bh012rcd13ifvqcv0","pricing_plan_id":"cebpf4jnsgd1na2vs0mg"},{"bike_id":"e6710280-bd86-46cd-80e3-b715c7f5659b","system_id":"levelo_inurba_marseille","lat":43.24389,"lon":5.37069,"is_reserved":false,"is_disabled":false,"rental_uris":{"android":"levelo://app?vid=e6710280-bd86-46cd-80e3-b715c7f5659b","ios":"levelo://app?vid=e6710280-bd86-46cd-80e3-b715c7f5659b"},"vehicle_type_id":"4","last_reported":1741958266,"current_range_meters":9600,"station_id":"ce4bhhh2rcd13ifvqfk0","pricing_plan_id":"cebpf4jnsgd1na2vs0mg"},{"bike_id":"594a33ea-5c85-49b0-893b-48b1f5e1011a","system_id":"levelo_inurba_marseille","lat":43.30978,"lon":5.40146,"is_reserved":false,"is_disabled":true,"rental_uris":{"android":"levelo://app?vid=594a33ea-5c85-49b0-893b-48b1f5e1011a","ios":"levelo://app?vid=594a33ea-5c85-49b0-893b-48b1f5e1011a"},"vehicle_type_id":"4","last_reported":1741958266,"current_range_meters":9600,"station_id":"ce4bgvp2rcd13ifvqct0","pricing_plan_id":"cebpf4jnsgd1na2vs0mg"},{"bike_id":"91b12a37-f477-4c10-ad1a-c6fc1ad2db69","system_id":"levelo_inurba_marseille","lat":43.2797,"lon":5.42459,"is_reserved":false,"is_disabled":false,"rental_uris":{"android":"levelo://app?vid=91b12a37-f477-4c10-ad1a-c6fc1ad2db69","ios":"levelo://app?vid=91b12a37-f477-4c10-ad1a-c6fc1ad2db69"},"vehicle_type_id":"4","last_reported":1741958266,"current_range_meters":10000,"station_id":"","pricing_plan_id":"cebpf4jnsgd1na2vs0mg"},{"bike_id":"d6d6ee5c-5892-4d6d-8405-34983210d1bb","system_id":"levelo_inurba_marseille","lat":43.29526,"lon":5.39042,"is_reserved":false,"is_disabled":false,"rental_uris":{"android":"levelo://app?vid=d6d6ee5c-5892-4d6d-8405-34983210d1bb","ios":"levelo://app?vid=d6d6ee5c-5892-4d6d-8405-34983210d1bb"},"vehicle_type_id":"4","last_reported":1741958266,"current_range_meters":10000,"station_id":"ce4bh3p2rcd13ifvqdp0","pricing_plan_id":"cebpf4jnsgd1na2vs0mg"},{"bike_id":"98a41112-ca3f-4a4f-b0e5-4148db6d45fb","system_id":"levelo_inurba_marseille","lat":43.28448,"lon":5.3921,"is_reserved":false,"is_disabled":false,"rental_uris":{"android":"levelo://app?vid=98a41112-ca3f-4a4f-b0e5-4148db6d45fb","ios":"levelo://app?vid=98a41112-ca3f-4a4f-b0e5-4148db6d45fb"},"vehicle_type_id":"4","last_reported":1741958266,"current_range_meters":10000,"station_id":"ce4bhoh2rcd13ifvqh5g","pricing_plan_id":"cebpf4jnsgd1na2vs0mg"},{"bike_id":"5bbbcc9c-c390-411b-9d62-74fb6404d435","system_id":"levelo_inurba_marseille","lat":43.24069,"lon":5.37762,"is_reserved":false,"is_disabled":false,"rental_uris":{"android":"levelo://app?vid=5bbbcc9c-c390-411b-9d62-74fb6404d435","ios":"levelo://app?vid=5bbbcc9c-c390-411b-9d62-74fb6404d435"},"vehicle_type_id":"4","last_reported":1741958266,"current_range_meters":10000,"station_id":"ce4bhnp2rcd13ifvqgvg","pricing_plan_id":"cebpf4jnsgd1na2vs0mg"},{"bike_id":"0dfc591d-87ce-425e-9f94-162a4a1a2892","system_id":"levelo_inurba_marseille","lat":43.31709,"lon":5.43708,"is_reserved":false,"is_disabled":false,"rental_uris":{"android":"levelo://app?vid=0dfc591d-87ce-425e-9f94-162a4a1a2892","ios":"levelo://app?vid=0dfc591d-87ce-425e-9f94-162a4a1a2892"},"vehicle_type_id":"4","last_reported":1741958266,"current_range_meters":9600,"station_id":"ce4bhp92rcd13ifvqhcg","pricing_plan_id":"cebpf4jnsgd1na2vs0mg"},{"bike_id":"0bf512a5-cbb2-43e3-828f-6e3069062b11","system_id":"levelo_inurba_marseille","lat":43.30112,"lon":5.37431,"is_reserved":false,"is_disabled":false,"rental_uris":{"android":"levelo://app?vid=0bf512a5-cbb2-43e3-828f-6e3069062b11","ios":"levelo://app?vid=0bf512a5-cbb2-43e3-828f-6e3069062b11"},"vehicle_type_id":"4","last_reported":1741958266,"current_range_meters":10000,"station_id":"ce4bgs92rcd13ifvqcc0","pricing_plan_id":"cebpf4jnsgd1na2vs0mg"},{"bike_id":"2ec0f046-4e68-4150-a618-5c892d6b2cb5","system_id":"levelo_inurba_marseille","lat":43.26227,"lon":5.40454,"is_reserved":false,"is_disabled":false,"rental_uris":{"android":"levelo://app?vid=2ec0f046-4e68-4150-a618-5c892d6b2cb5","ios":"levelo://app?vid=2ec0f046-4e68-4150-a618-5c892d6b2cb5"},"vehicle_type_id":"4","last_reported":1741958266,"current_range_meters":10000,"station_id":"ce4bhmh2rcd13ifvqgmg","pricing_plan_id":"cebpf4jnsgd1na2vs0mg"},{"bike_id":"c00de636-fb2c-49b9-8c19-0ce088140454","system_id":"levelo_inurba_marseille","lat":43.25901,"lon":5.40882,"is_reserved":false,"is_disabled":false,"rental_uris":{"android":"levelo://app?vid=c00de636-fb2c-49b9-8c19-0ce088140454","ios":"levelo://app?vid=c00de636-fb2c-49b9-8c19-0ce088140454"},"vehicle_type_id":"4","last_reported":1741958266,"current_range_meters":10800,"station_id":"ce4bhm92rcd13ifvqglg","pricing_plan_id":"cebpf4jnsgd1na2vs0mg"},{"bike_id":"843229ca-5a69-4f5b-84d8-8d9b8c121b0e","system_id":"levelo_inurba_marseille","lat":43.30318,"lon":5.36888,"is_reserved":false,"is_disabled":false,"rental_uris":{"android":"levelo://app?vid=843229ca-5a69-4f5b-84d8-8d9b8c121b0e","ios":"levelo://app?vid=843229ca-5a69-4f5b-84d8-8d9b8c121b0e"},"vehicle_type_id":"4","last_reported":1741958266,"current_range_meters":10800,"station_id":"ce4bgqh2rcd13ifvqc5g","pricing_plan_id":"cebpf4jnsgd1na2vs0mg"},{"bike_id":"4199ce46-adf7-4c71-9619-4b35f8fcb808","system_id":"levelo_inurba_marseille","lat":43.31188,"lon":5.38706,"is_reserved":false,"is_disabled":false,"rental_uris":{"android":"levelo://app?vid=4199ce46-adf7-4c71-9619-4b35f8fcb808","ios":"levelo://app?vid=4199ce46-adf7-4c71-9619-4b35f8fcb808"},"vehicle_type_id":"4","last_reported":1741958266,"current_range_meters":10800,"station_id":"ce4bgv12rcd13ifvqcp0","pricing_plan_id":"cebpf4jnsgd1na2vs0mg"},{"bike_id":"92a4b2de-1a40-47de-8941-8583c8b587d4","system_id":"levelo_inurba_marseille","lat":43.27675,"lon":5.38921,"is_reserved":false,"is_disabled":true,"rental_uris":{"android":"levelo://app?vid=92a4b2de-1a40-47de-8941-8583c8b587d4","ios":"levelo://app?vid=92a4b2de-1a40-47de-8941-8583c8b587d4"},"vehicle_type_id":"4","last_reported":1741958266,"current_range_meters":10800,"station_id":"ce4bhi12rcd13ifvqfo0","pricing_plan_id":"cebpf4jnsgd1na2vs0mg"},{"bike_id":"a7af9715-3978-4569-ba54-207c9999b53e","system_id":"levelo_inurba_marseille","lat":43.302304,"lon":5.400747,"is_reserved":false,"is_disabled":false,"rental_uris":{"android":"levelo://app?vid=a7af9715-3978-4569-ba54-207c9999b53e","ios":"levelo://app?vid=a7af9715-3978-4569-ba54-207c9999b53e"},"vehicle_type_id":"4","last_reported":1741958266,"current_range_meters":10800,"station_id":"ce4bgvh2rcd13ifvqcs0","pricing_plan_id":"cebpf4jnsgd1na2vs0mg"},{"bike_id":"2823db96-bab5-48d0-97b5-1294320c2ec4","system_id":"levelo_inurba_marseille","lat":43.28919,"lon":5.36145,"is_reserved":false,"is_disabled":true,"rental_uris":{"android":"levelo://app?vid=2823db96-bab5-48d0-97b5-1294320c2ec4","ios":"levelo://app?vid=2823db96-bab5-48d0-97b5-1294320c2ec4"},"vehicle_type_id":"4","last_reported":1741958266,"current_range_meters":10800,"station_id":"","pricing_plan_id":"cebpf4jnsgd1na2vs0mg"},{"bike_id":"ea3bf480-2b73-4981-b4d3-25cdeabbc4cb","system_id":"levelo_inurba_marseille","lat":43.27951,"lon":5.41051,"is_reserved":false,"is_disabled":false,"rental_uris":{"android":"levelo://app?vid=ea3bf480-2b73-4981-b4d3-25cdeabbc4cb","ios":"levelo://app?vid=ea3bf480-2b73-4981-b4d3-25cdeabbc4cb"},"vehicle_type_id":"4","last_reported":1741958266,"current_range_meters":10800,"station_id":"ce4bhnp2rcd13ifvqh0g","pricing_plan_id":"cebpf4jnsgd1na2vs0mg"},{"bike_id":"e426c922-3849-4b81-bbfe-7a9bb9181abb","system_id":"levelo_inurba_marseille","lat":43.27943,"lon":5.38709,"is_reserved":false,"is_disabled":false,"rental_uris":{"android":"levelo://app?vid=e426c922-3849-4b81-bbfe-7a9bb9181abb","ios":"levelo://app?vid=e426c922-3849-4b81-bbfe-7a9bb9181abb"},"vehicle_type_id":"4","last_reported":1741958266,"current_range_meters":11200,"station_id":"ce4bhg12rcd13ifvqf80","pricing_plan_id":"cebpf4jnsgd1na2vs0mg"},{"bike_id":"cbcbb511-74c6-4342-aa50-b3fe04a40269","system_id":"levelo_inurba_marseille","lat":43.26679,"lon":5.38267,"is_reserved":false,"is_disabled":false,"rental_uris":{"android":"levelo://app?vid=cbcbb511-74c6-4342-aa50-b3fe04a40269","ios":"levelo://app?vid=cbcbb511-74c6-4342-aa50-b3fe04a40269"},"vehicle_type_id":"4","last_reported":1741958266,"current_range_meters":11200,"station_id":"ce4bhg92rcd13ifvqf90","pricing_plan_id":"cebpf4jnsgd1na2vs0mg"},{"bike_id":"65bea2c5-78a7-4fbf-92b5-f338edebb748","system_id":"levelo_inurba_marseille","lat":43.261,"lon":5.41467,"is_reserved":false,"is_disabled":false,"rental_uris":{"android":"levelo://app?vid=65bea2c5-78a7-4fbf-92b5-f338edebb748","ios":"levelo://app?vid=65bea2c5-78a7-4fbf-92b5-f338edebb748"},"vehicle_type_id":"4","last_reported":1741958266,"current_range_meters":11200,"station_id":"","pricing_plan_id":"cebpf4jnsgd1na2vs0mg"},{"bike_id":"dc2dc920-7061-4611-9ad3-02d4898aaa15","system_id":"levelo_inurba_marseille","lat":43.23179,"lon":5.39968,"is_reserved":false,"is_disabled":false,"rental_uris":{"android":"levelo://app?vid=dc2dc920-7061-4611-9ad3-02d4898aaa15","ios":"levelo://app?vid=dc2dc920-7061-4611-9ad3-02d4898aaa15"},"vehicle_type_id":"4","last_reported":1741958266,"current_range_meters":11200,"station_id":"ce4bhn12rcd13ifvqgqg","pricing_plan_id":"cebpf4jnsgd1na2vs0mg"},{"bike_id":"48f3a40e-658c-443b-8908-cf181e5627b0","system_id":"levelo_inurba_marseille","lat":43.30139,"lon":5.37441,"is_reserved":false,"is_disabled":false,"rental_uris":{"android":"levelo://app?vid=48f3a40e-658c-443b-8908-cf181e5627b0","ios":"levelo://app?vid=48f3a40e-658c-443b-8908-cf181e5627b0"},"vehicle_type_id":"4","last_reported":1741958266,"current_range_meters":11200,"station_id":"ce4bgs92rcd13ifvqcc0","pricing_plan_id":"cebpf4jnsgd1na2vs0mg"},{"bike_id":"94ab3bc1-9a49-47af-bd70-e1544574d1fc","system_id":"levelo_inurba_marseille","lat":43.30256,"lon":5.4007,"is_reserved":false,"is_disabled":false,"rental_uris":{"android":"levelo://app?vid=94ab3bc1-9a49-47af-bd70-e1544574d1fc","ios":"levelo://app?vid=94ab3bc1-9a49-47af-bd70-e1544574d1fc"},"vehicle_type_id":"4","last_reported":1741958266,"current_range_meters":11200,"station_id":"ce4bgvh2rcd13ifvqcs0","pricing_plan_id":"cebpf4jnsgd1na2vs0mg"},{"bike_id":"ef320425-35ad-4af1-81ef-4c1312d7e950","system_id":"levelo_inurba_marseille","lat":43.311172,"lon":5.377731,"is_reserved":false,"is_disabled":false,"rental_uris":{"android":"levelo://app?vid=ef320425-35ad-4af1-81ef-4c1312d7e950","ios":"levelo://app?vid=ef320425-35ad-4af1-81ef-4c1312d7e950"},"vehicle_type_id":"4","last_reported":1741958266,"current_range_meters":11200,"station_id":"ce4bgt92rcd13ifvqcg0","pricing_plan_id":"cebpf4jnsgd1na2vs0mg"},{"bike_id":"92bfcc8d-041c-467c-bfbe-19b4007c22c4","system_id":"levelo_inurba_marseille","lat":43.30137,"lon":5.37424,"is_reserved":false,"is_disabled":false,"rental_uris":{"android":"levelo://app?vid=92bfcc8d-041c-467c-bfbe-19b4007c22c4","ios":"levelo://app?vid=92bfcc8d-041c-467c-bfbe-19b4007c22c4"},"vehicle_type_id":"4","last_reported":1741958266,"current_range_meters":11200,"station_id":"ce4bgs92rcd13ifvqcc0","pricing_plan_id":"cebpf4jnsgd1na2vs0mg"},{"bike_id":"accb5d03-5b4c-4725-aab6-b7db83936d09","system_id":"levelo_inurba_marseille","lat":43.28567,"lon":5.39496,"is_reserved":false,"is_disabled":false,"rental_uris":{"android":"levelo://app?vid=accb5d03-5b4c-4725-aab6-b7db83936d09","ios":"levelo://app?vid=accb5d03-5b4c-4725-aab6-b7db83936d09"},"vehicle_type_id":"4","last_reported":1741958266,"current_range_meters":11600,"station_id":"ce4bh292rcd13ifvqdg0","pricing_plan_id":"cebpf4jnsgd1na2vs0mg"},{"bike_id":"97a33746-5370-4d96-9a94-9c9d4ba754f2","system_id":"levelo_inurba_marseille","lat":43.32289,"lon":5.38269,"is_reserved":false,"is_disabled":false,"rental_uris":{"android":"levelo://app?vid=97a33746-5370-4d96-9a94-9c9d4ba754f2","ios":"levelo://app?vid=97a33746-5370-4d96-9a94-9c9d4ba754f2"},"vehicle_type_id":"4","last_reported":1741958266,"current_range_meters":11600,"station_id":"ce4bhr12rcd13ifvqhqg","pricing_plan_id":"cebpf4jnsgd1na2vs0mg"},{"bike_id":"771248cc-49fa-49c9-9943-f1819eaa592f","system_id":"levelo_inurba_marseille","lat":43.28422,"lon":5.35005,"is_reserved":false,"is_disabled":false,"rental_uris":{"android":"levelo://app?vid=771248cc-49fa-49c9-9943-f1819eaa592f","ios":"levelo://app?vid=771248cc-49fa-49c9-9943-f1819eaa592f"},"vehicle_type_id":"4","last_reported":1741958266,"current_range_meters":11600,"station_id":"ce4bhbh2rcd13ifvqepg","pricing_plan_id":"cebpf4jnsgd1na2vs0mg"},{"bike_id":"59822710-2d10-4517-868b-42cfab329759","system_id":"levelo_inurba_marseille","lat":43.23191,"lon":5.35554,"is_reserved":false,"is_disabled":false,"rental_uris":{"android":"levelo://app?vid=59822710-2d10-4517-868b-42cfab329759","ios":"levelo://app?vid=59822710-2d10-4517-868b-42cfab329759"},"vehicle_type_id":"4","last_reported":1741958266,"current_range_meters":11600,"station_id":"ce4bhu92rcd13ifvqi70","pricing_plan_id":"cebpf4jnsgd1na2vs0mg"},{"bike_id":"bd7fb638-a561-41df-90ca-f32685780427","system_id":"levelo_inurba_marseille","lat":43.22931,"lon":5.35362,"is_reserved":false,"is_disabled":false,"rental_uris":{"android":"levelo://app?vid=bd7fb638-a561-41df-90ca-f32685780427","ios":"levelo://app?vid=bd7fb638-a561-41df-90ca-f32685780427"},"vehicle_type_id":"4","last_reported":1741958266,"current_range_meters":11600,"station_id":"cpo3532slgdg3j2ikp40","pricing_plan_id":"cebpf4jnsgd1na2vs0mg"},{"bike_id":"7f3edeef-861c-482d-8624-f52f0407713c","system_id":"levelo_inurba_marseille","lat":43.29538,"lon":5.39053,"is_reserved":false,"is_disabled":false,"rental_uris":{"android":"levelo://app?vid=7f3edeef-861c-482d-8624-f52f0407713c","ios":"levelo://app?vid=7f3edeef-861c-482d-8624-f52f0407713c"},"vehicle_type_id":"4","last_reported":1741958266,"current_range_meters":12000,"station_id":"ce4bh3p2rcd13ifvqdp0","pricing_plan_id":"cebpf4jnsgd1na2vs0mg"},{"bike_id":"ac9829db-5826-4bcf-b26b-4776553d00ba","system_id":"levelo_inurba_marseille","lat":43.31725,"lon":5.40449,"is_reserved":false,"is_disabled":false,"rental_uris":{"android":"levelo://app?vid=ac9829db-5826-4bcf-b26b-4776553d00ba","ios":"levelo://app?vid=ac9829db-5826-4bcf-b26b-4776553d00ba"},"vehicle_type_id":"4","last_reported":1741958266,"current_range_meters":12000,"station_id":"ce4bh012rcd13ifvqd00","pricing_plan_id":"cebpf4jnsgd1na2vs0mg"},{"bike_id":"dd46b82e-7fbe-416f-87b4-2127bac1b451","system_id":"levelo_inurba_marseille","lat":43.29844,"lon":5.36265,"is_reserved":false,"is_disabled":false,"rental_uris":{"android":"levelo://app?vid=dd46b82e-7fbe-416f-87b4-2127bac1b451","ios":"levelo://app?vid=dd46b82e-7fbe-416f-87b4-2127bac1b451"},"vehicle_type_id":"4","last_reported":1741958266,"current_range_meters":12000,"station_id":"ce4bgpp2rcd13ifvqc3g","pricing_plan_id":"cebpf4jnsgd1na2vs0mg"},{"bike_id":"d98e5f37-4f71-4a36-9b3b-496f87de0d61","system_id":"levelo_inurba_marseille","lat":43.31107,"lon":5.37601,"is_reserved":false,"is_disabled":false,"rental_uris":{"android":"levelo://app?vid=d98e5f37-4f71-4a36-9b3b-496f87de0d61","ios":"levelo://app?vid=d98e5f37-4f71-4a36-9b3b-496f87de0d61"},"vehicle_type_id":"4","last_reported":1741958266,"current_range_meters":12000,"station_id":"","pricing_plan_id":"cebpf4jnsgd1na2vs0mg"},{"bike_id":"7452cba3-c2c9-4548-86d9-6d5700868b43","system_id":"levelo_inurba_marseille","lat":43.26532,"lon":5.39556,"is_reserved":false,"is_disabled":false,"rental_uris":{"android":"levelo://app?vid=7452cba3-c2c9-4548-86d9-6d5700868b43","ios":"levelo://app?vid=7452cba3-c2c9-4548-86d9-6d5700868b43"},"vehicle_type_id":"4","last_reported":1741958266,"current_range_meters":12000,"station_id":"ce4bhi12rcd13ifvqfq0","pricing_plan_id":"cebpf4jnsgd1na2vs0mg"},{"bike_id":"52c9a29f-71a6-47ca-b4ee-1301cb338e0c","system_id":"levelo_inurba_marseille","lat":43.30554,"lon":5.36515,"is_reserved":false,"is_disabled":false,"rental_uris":{"android":"levelo://app?vid=52c9a29f-71a6-47ca-b4ee-1301cb338e0c","ios":"levelo://app?vid=52c9a29f-71a6-47ca-b4ee-1301cb338e0c"},"vehicle_type_id":"4","last_reported":1741958266,"current_range_meters":12000,"station_id":"ce4bgs12rcd13ifvqcag","pricing_plan_id":"cebpf4jnsgd1na2vs0mg"},{"bike_id":"49ff3ec6-a81d-4e13-a4b1-44ea045859b2","system_id":"levelo_inurba_marseille","lat":43.26217,"lon":5.37438,"is_reserved":false,"is_disabled":false,"rental_uris":{"android":"levelo://app?vid=49ff3ec6-a81d-4e13-a4b1-44ea045859b2","ios":"levelo://app?vid=49ff3ec6-a81d-4e13-a4b1-44ea045859b2"},"vehicle_type_id":"4","last_reported":1741958266,"current_range_meters":12000,"station_id":"ce4bhgp2rcd13ifvqfc0","pricing_plan_id":"cebpf4jnsgd1na2vs0mg"},{"bike_id":"b27f1eab-ba5c-42e6-a66f-00d9e67d5178","system_id":"levelo_inurba_marseille","lat":43.3028,"lon":5.37699,"is_reserved":false,"is_disabled":false,"rental_uris":{"android":"levelo://app?vid=b27f1eab-ba5c-42e6-a66f-00d9e67d5178","ios":"levelo://app?vid=b27f1eab-ba5c-42e6-a66f-00d9e67d5178"},"vehicle_type_id":"4","last_reported":1741958266,"current_range_meters":12400,"station_id":"ce4bguh2rcd13ifvqcj0","pricing_plan_id":"cebpf4jnsgd1na2vs0mg"},{"bike_id":"cb256735-523d-45d3-9c1c-b9c7b6320183","system_id":"levelo_inurba_marseille","lat":43.31568,"lon":5.40413,"is_reserved":false,"is_disabled":false,"rental_uris":{"android":"levelo://app?vid=cb256735-523d-45d3-9c1c-b9c7b6320183","ios":"levelo://app?vid=cb256735-523d-45d3-9c1c-b9c7b6320183"},"vehicle_type_id":"4","last_reported":1741958266,"current_range_meters":12400,"station_id":"","pricing_plan_id":"cebpf4jnsgd1na2vs0mg"},{"bike_id":"a1fbfbd8-f4b8-485d-9eb8-0c711df84f78","system_id":"levelo_inurba_marseille","lat":43.29855,"lon":5.36254,"is_reserved":false,"is_disabled":false,"rental_uris":{"android":"levelo://app?vid=a1fbfbd8-f4b8-485d-9eb8-0c711df84f78","ios":"levelo://app?vid=a1fbfbd8-f4b8-485d-9eb8-0c711df84f78"},"vehicle_type_id":"4","last_reported":1741958266,"current_range_meters":12400,"station_id":"ce4bgpp2rcd13ifvqc3g","pricing_plan_id":"cebpf4jnsgd1na2vs0mg"},{"bike_id":"4044ff71-a862-4b39-b2cc-96e6b2cea5db","system_id":"levelo_inurba_marseille","lat":43.2848,"lon":5.38427,"is_reserved":false,"is_disabled":false,"rental_uris":{"android":"levelo://app?vid=4044ff71-a862-4b39-b2cc-96e6b2cea5db","ios":"levelo://app?vid=4044ff71-a862-4b39-b2cc-96e6b2cea5db"},"vehicle_type_id":"4","last_reported":1741958266,"current_range_meters":12400,"station_id":"ce4bh512rcd13ifvqe3g","pricing_plan_id":"cebpf4jnsgd1na2vs0mg"},{"bike_id":"7fcb76a1-b09e-48bd-8665-d4ae109a8483","system_id":"levelo_inurba_marseille","lat":43.2469,"lon":5.38135,"is_reserved":false,"is_disabled":false,"rental_uris":{"android":"levelo://app?vid=7fcb76a1-b09e-48bd-8665-d4ae109a8483","ios":"levelo://app?vid=7fcb76a1-b09e-48bd-8665-d4ae109a8483"},"vehicle_type_id":"4","last_reported":1741958266,"current_range_meters":12800,"station_id":"ce4bhih2rcd13ifvqfr0","pricing_plan_id":"cebpf4jnsgd1na2vs0mg"},{"bike_id":"a17a71d0-b10d-44e3-aa23-2cad9c70add7","system_id":"levelo_inurba_marseille","lat":43.28109,"lon":5.37841,"is_reserved":false,"is_disabled":false,"rental_uris":{"android":"levelo://app?vid=a17a71d0-b10d-44e3-aa23-2cad9c70add7","ios":"levelo://app?vid=a17a71d0-b10d-44e3-aa23-2cad9c70add7"},"vehicle_type_id":"4","last_reported":1741958266,"current_range_meters":12800,"station_id":"ce4bha12rcd13ifvqee0","pricing_plan_id":"cebpf4jnsgd1na2vs0mg"},{"bike_id":"f31c7e9f-4848-4e4a-88d2-c26dfa0a32c6","system_id":"levelo_inurba_marseille","lat":43.292981,"lon":5.374388,"is_reserved":false,"is_disabled":false,"rental_uris":{"android":"levelo://app?vid=f31c7e9f-4848-4e4a-88d2-c26dfa0a32c6","ios":"levelo://app?vid=f31c7e9f-4848-4e4a-88d2-c26dfa0a32c6"},"vehicle_type_id":"4","last_reported":1741958266,"current_range_meters":12800,"station_id":"ce4bgi12rcd13ifvqb70","pricing_plan_id":"cebpf4jnsgd1na2vs0mg"},{"bike_id":"8a5bd971-61c1-4475-933b-dffdb284dd01","system_id":"levelo_inurba_marseille","lat":43.25006,"lon":5.38914,"is_reserved":false,"is_disabled":false,"rental_uris":{"android":"levelo://app?vid=8a5bd971-61c1-4475-933b-dffdb284dd01","ios":"levelo://app?vid=8a5bd971-61c1-4475-933b-dffdb284dd01"},"vehicle_type_id":"4","last_reported":1741958266,"current_range_meters":12800,"station_id":"ce4bhgp2rcd13ifvqfd0","pricing_plan_id":"cebpf4jnsgd1na2vs0mg"},{"bike_id":"51b71709-66e2-4c83-8ce6-a5ca4256e6ff","system_id":"levelo_inurba_marseille","lat":43.23148,"lon":5.43717,"is_reserved":false,"is_disabled":false,"rental_uris":{"android":"levelo://app?vid=51b71709-66e2-4c83-8ce6-a5ca4256e6ff","ios":"levelo://app?vid=51b71709-66e2-4c83-8ce6-a5ca4256e6ff"},"vehicle_type_id":"4","last_reported":1741958266,"current_range_meters":12800,"station_id":"ce4bhmp2rcd13ifvqgog","pricing_plan_id":"cebpf4jnsgd1na2vs0mg"},{"bike_id":"98fc3c96-942b-4ea3-9eb2-957da80b9137","system_id":"levelo_inurba_marseille","lat":43.3094,"lon":5.4014,"is_reserved":false,"is_disabled":false,"rental_uris":{"android":"levelo://app?vid=98fc3c96-942b-4ea3-9eb2-957da80b9137","ios":"levelo://app?vid=98fc3c96-942b-4ea3-9eb2-957da80b9137"},"vehicle_type_id":"4","last_reported":1741958266,"current_range_meters":12800,"station_id":"ce4bgvp2rcd13ifvqct0","pricing_plan_id":"cebpf4jnsgd1na2vs0mg"},{"bike_id":"f7cec508-73f1-40b0-9968-9c410dfac3c8","system_id":"levelo_inurba_marseille","lat":43.29975,"lon":5.37179,"is_reserved":false,"is_disabled":false,"rental_uris":{"android":"levelo://app?vid=f7cec508-73f1-40b0-9968-9c410dfac3c8","ios":"levelo://app?vid=f7cec508-73f1-40b0-9968-9c410dfac3c8"},"vehicle_type_id":"4","last_reported":1741958266,"current_range_meters":12800,"station_id":"ce4bgr92rcd13ifvqc7g","pricing_plan_id":"cebpf4jnsgd1na2vs0mg"},{"bike_id":"165c703f-a86f-4cf0-92d7-f7491d24af28","system_id":"levelo_inurba_marseille","lat":43.30139,"lon":5.43135,"is_reserved":false,"is_disabled":false,"rental_uris":{"android":"levelo://app?vid=165c703f-a86f-4cf0-92d7-f7491d24af28","ios":"levelo://app?vid=165c703f-a86f-4cf0-92d7-f7491d24af28"},"vehicle_type_id":"4","last_reported":1741958266,"current_range_meters":12800,"station_id":"","pricing_plan_id":"cebpf4jnsgd1na2vs0mg"},{"bike_id":"d769f549-53be-4066-9f9c-703e17579fad","system_id":"levelo_inurba_marseille","lat":43.29974,"lon":5.38482,"is_reserved":false,"is_disabled":false,"rental_uris":{"android":"levelo://app?vid=d769f549-53be-4066-9f9c-703e17579fad","ios":"levelo://app?vid=d769f549-53be-4066-9f9c-703e17579fad"},"vehicle_type_id":"4","last_reported":1741958266,"current_range_meters":12400,"station_id":"ce4bgj92rcd13ifvqbd0","pricing_plan_id":"cebpf4jnsgd1na2vs0mg"},{"bike_id":"1c981ba0-852e-4e2b-bb8f-7a04b7a24e40","system_id":"levelo_inurba_marseille","lat":43.26576,"lon":5.39016,"is_reserved":false,"is_disabled":false,"rental_uris":{"android":"levelo://app?vid=1c981ba0-852e-4e2b-bb8f-7a04b7a24e40","ios":"levelo://app?vid=1c981ba0-852e-4e2b-bb8f-7a04b7a24e40"},"vehicle_type_id":"4","last_reported":1741958266,"current_range_meters":13600,"station_id":"ce4bhe12rcd13ifvqf30","pricing_plan_id":"cebpf4jnsgd1na2vs0mg"},{"bike_id":"af474046-e400-4ac9-a0d2-80fc69b95ff7","system_id":"levelo_inurba_marseille","lat":43.30535,"lon":5.36542,"is_reserved":false,"is_disabled":false,"rental_uris":{"android":"levelo://app?vid=af474046-e400-4ac9-a0d2-80fc69b95ff7","ios":"levelo://app?vid=af474046-e400-4ac9-a0d2-80fc69b95ff7"},"vehicle_type_id":"4","last_reported":1741958266,"current_range_meters":13600,"station_id":"ce4bgs12rcd13ifvqcag","pricing_plan_id":"cebpf4jnsgd1na2vs0mg"},{"bike_id":"ab4de859-87ca-4108-97e5-a5e295fe0434","system_id":"levelo_inurba_marseille","lat":43.30203,"lon":5.39466,"is_reserved":false,"is_disabled":false,"rental_uris":{"android":"levelo://app?vid=ab4de859-87ca-4108-97e5-a5e295fe0434","ios":"levelo://app?vid=ab4de859-87ca-4108-97e5-a5e295fe0434"},"vehicle_type_id":"4","last_reported":1741958266,"current_range_meters":13600,"station_id":"ce4bh0p2rcd13ifvqd70","pricing_plan_id":"cebpf4jnsgd1na2vs0mg"},{"bike_id":"441146ec-c2e7-45f1-b6bc-e65405bbf9fd","system_id":"levelo_inurba_marseille","lat":43.27638,"lon":5.36105,"is_reserved":false,"is_disabled":false,"rental_uris":{"android":"levelo://app?vid=441146ec-c2e7-45f1-b6bc-e65405bbf9fd","ios":"levelo://app?vid=441146ec-c2e7-45f1-b6bc-e65405bbf9fd"},"vehicle_type_id":"4","last_reported":1741958266,"current_range_meters":13600,"station_id":"ce4bgj92rcd13ifvqbe0","pricing_plan_id":"cebpf4jnsgd1na2vs0mg"},{"bike_id":"04f149c6-a120-4218-b435-a952d9eb67d0","system_id":"levelo_inurba_marseille","lat":43.24859,"lon":5.40679,"is_reserved":false,"is_disabled":false,"rental_uris":{"android":"levelo://app?vid=04f149c6-a120-4218-b435-a952d9eb67d0","ios":"levelo://app?vid=04f149c6-a120-4218-b435-a952d9eb67d0"},"vehicle_type_id":"4","last_reported":1741958266,"current_range_meters":13600,"station_id":"","pricing_plan_id":"cebpf4jnsgd1na2vs0mg"},{"bike_id":"8eb1a957-a48f-4ea1-9a87-c9ca711e52f4","system_id":"levelo_inurba_marseille","lat":43.31535,"lon":5.37244,"is_reserved":false,"is_disabled":false,"rental_uris":{"android":"levelo://app?vid=8eb1a957-a48f-4ea1-9a87-c9ca711e52f4","ios":"levelo://app?vid=8eb1a957-a48f-4ea1-9a87-c9ca711e52f4"},"vehicle_type_id":"4","last_reported":1741958266,"current_range_meters":13600,"station_id":"ce4bgt12rcd13ifvqcd0","pricing_plan_id":"cebpf4jnsgd1na2vs0mg"},{"bike_id":"6aab137e-416d-42b2-9ef3-0a91d921400d","system_id":"levelo_inurba_marseille","lat":43.3415,"lon":5.40909,"is_reserved":false,"is_disabled":true,"rental_uris":{"android":"levelo://app?vid=6aab137e-416d-42b2-9ef3-0a91d921400d","ios":"levelo://app?vid=6aab137e-416d-42b2-9ef3-0a91d921400d"},"vehicle_type_id":"4","last_reported":1741958266,"current_range_meters":13600,"station_id":"ce4bhqh2rcd13ifvqhlg","pricing_plan_id":"cebpf4jnsgd1na2vs0mg"},{"bike_id":"f2feb363-3982-4bb2-8c65-9ce15c8828a6","system_id":"levelo_inurba_marseille","lat":43.28702,"lon":5.39977,"is_reserved":false,"is_disabled":false,"rental_uris":{"android":"levelo://app?vid=f2feb363-3982-4bb2-8c65-9ce15c8828a6","ios":"levelo://app?vid=f2feb363-3982-4bb2-8c65-9ce15c8828a6"},"vehicle_type_id":"4","last_reported":1741958266,"current_range_meters":14000,"station_id":"ce4bho92rcd13ifvqh3g","pricing_plan_id":"cebpf4jnsgd1na2vs0mg"},{"bike_id":"fe869085-eb69-4a02-8dd5-214bc8bd8c5f","system_id":"levelo_inurba_marseille","lat":43.30553,"lon":5.36534,"is_reserved":false,"is_disabled":false,"rental_uris":{"android":"levelo://app?vid=fe869085-eb69-4a02-8dd5-214bc8bd8c5f","ios":"levelo://app?vid=fe869085-eb69-4a02-8dd5-214bc8bd8c5f"},"vehicle_type_id":"4","last_reported":1741958266,"current_range_meters":14000,"station_id":"ce4bgs12rcd13ifvqcag","pricing_plan_id":"cebpf4jnsgd1na2vs0mg"},{"bike_id":"676e66c6-8e50-404c-b512-5f94c7d6a8fc","system_id":"levelo_inurba_marseille","lat":43.24182,"lon":5.36393,"is_reserved":false,"is_disabled":false,"rental_uris":{"android":"levelo://app?vid=676e66c6-8e50-404c-b512-5f94c7d6a8fc","ios":"levelo://app?vid=676e66c6-8e50-404c-b512-5f94c7d6a8fc"},"vehicle_type_id":"4","last_reported":1741958266,"current_range_meters":14000,"station_id":"cpo36qri1sfpv3e86is0","pricing_plan_id":"cebpf4jnsgd1na2vs0mg"},{"bike_id":"184492ce-9f5c-47e4-a3e5-d0eccfcef42b","system_id":"levelo_inurba_marseille","lat":43.27624,"lon":5.36104,"is_reserved":false,"is_disabled":false,"rental_uris":{"android":"levelo://app?vid=184492ce-9f5c-47e4-a3e5-d0eccfcef42b","ios":"levelo://app?vid=184492ce-9f5c-47e4-a3e5-d0eccfcef42b"},"vehicle_type_id":"4","last_reported":1741958266,"current_range_meters":14000,"station_id":"ce4bgj92rcd13ifvqbe0","pricing_plan_id":"cebpf4jnsgd1na2vs0mg"},{"bike_id":"531f3787-cddd-4298-8d43-eeb740d3c021","system_id":"levelo_inurba_marseille","lat":43.30118,"lon":5.39854,"is_reserved":false,"is_disabled":false,"rental_uris":{"android":"levelo://app?vid=531f3787-cddd-4298-8d43-eeb740d3c021","ios":"levelo://app?vid=531f3787-cddd-4298-8d43-eeb740d3c021"},"vehicle_type_id":"4","last_reported":1741958266,"current_range_meters":14000,"station_id":"ce4bh0h2rcd13ifvqd40","pricing_plan_id":"cebpf4jnsgd1na2vs0mg"},{"bike_id":"9f88ae7f-b7a5-47e4-aa65-f43521303c4a","system_id":"levelo_inurba_marseille","lat":43.28926,"lon":5.38398,"is_reserved":false,"is_disabled":false,"rental_uris":{"android":"levelo://app?vid=9f88ae7f-b7a5-47e4-aa65-f43521303c4a","ios":"levelo://app?vid=9f88ae7f-b7a5-47e4-aa65-f43521303c4a"},"vehicle_type_id":"4","last_reported":1741958266,"current_range_meters":13600,"station_id":"ce4bh612rcd13ifvqe6g","pricing_plan_id":"cebpf4jnsgd1na2vs0mg"},{"bike_id":"d7ebaea1-ecb2-49e1-8500-a04c2427ae63","system_id":"levelo_inurba_marseille","lat":43.29571,"lon":5.37516,"is_reserved":false,"is_disabled":false,"rental_uris":{"android":"levelo://app?vid=d7ebaea1-ecb2-49e1-8500-a04c2427ae63","ios":"levelo://app?vid=d7ebaea1-ecb2-49e1-8500-a04c2427ae63"},"vehicle_type_id":"4","last_reported":1741958266,"current_range_meters":14000,"station_id":"ce4bgh92rcd13ifvqb50","pricing_plan_id":"cebpf4jnsgd1na2vs0mg"},{"bike_id":"328f9a9f-cbef-4dbb-b7c4-89c8019abc8f","system_id":"levelo_inurba_marseille","lat":43.25934,"lon":5.4091,"is_reserved":false,"is_disabled":false,"rental_uris":{"android":"levelo://app?vid=328f9a9f-cbef-4dbb-b7c4-89c8019abc8f","ios":"levelo://app?vid=328f9a9f-cbef-4dbb-b7c4-89c8019abc8f"},"vehicle_type_id":"4","last_reported":1741958266,"current_range_meters":14400,"station_id":"ce4bhm92rcd13ifvqglg","pricing_plan_id":"cebpf4jnsgd1na2vs0mg"},{"bike_id":"e0f00ea1-5190-455d-8f01-943045ce62ae","system_id":"levelo_inurba_marseille","lat":43.31165,"lon":5.37743,"is_reserved":false,"is_disabled":false,"rental_uris":{"android":"levelo://app?vid=e0f00ea1-5190-455d-8f01-943045ce62ae","ios":"levelo://app?vid=e0f00ea1-5190-455d-8f01-943045ce62ae"},"vehicle_type_id":"4","last_reported":1741958266,"current_range_meters":14400,"station_id":"","pricing_plan_id":"cebpf4jnsgd1na2vs0mg"},{"bike_id":"3a924fd0-e9c6-4d6e-afd9-276fdf4bf717","system_id":"levelo_inurba_marseille","lat":43.29795,"lon":5.38097,"is_reserved":false,"is_disabled":false,"rental_uris":{"android":"levelo://app?vid=3a924fd0-e9c6-4d6e-afd9-276fdf4bf717","ios":"levelo://app?vid=3a924fd0-e9c6-4d6e-afd9-276fdf4bf717"},"vehicle_type_id":"4","last_reported":1741958266,"current_range_meters":14400,"station_id":"ce4bgip2rcd13ifvqbb0","pricing_plan_id":"cebpf4jnsgd1na2vs0mg"},{"bike_id":"385ae15c-2c3c-4490-a507-5eb20fb883a5","system_id":"levelo_inurba_marseille","lat":43.25918,"lon":5.40867,"is_reserved":false,"is_disabled":false,"rental_uris":{"android":"levelo://app?vid=385ae15c-2c3c-4490-a507-5eb20fb883a5","ios":"levelo://app?vid=385ae15c-2c3c-4490-a507-5eb20fb883a5"},"vehicle_type_id":"4","last_reported":1741958266,"current_range_meters":14400,"station_id":"ce4bhm92rcd13ifvqglg","pricing_plan_id":"cebpf4jnsgd1na2vs0mg"},{"bike_id":"18ba554e-69d9-46d1-baaa-ca91ca575ff0","system_id":"levelo_inurba_marseille","lat":43.26563,"lon":5.37295,"is_reserved":false,"is_disabled":false,"rental_uris":{"android":"levelo://app?vid=18ba554e-69d9-46d1-baaa-ca91ca575ff0","ios":"levelo://app?vid=18ba554e-69d9-46d1-baaa-ca91ca575ff0"},"vehicle_type_id":"4","last_reported":1741958266,"current_range_meters":14400,"station_id":"ce4bhg12rcd13ifvqf70","pricing_plan_id":"cebpf4jnsgd1na2vs0mg"},{"bike_id":"6de26fe8-e601-41a4-95fb-a0c7b8125e02","system_id":"levelo_inurba_marseille","lat":43.24109,"lon":5.37754,"is_reserved":false,"is_disabled":false,"rental_uris":{"android":"levelo://app?vid=6de26fe8-e601-41a4-95fb-a0c7b8125e02","ios":"levelo://app?vid=6de26fe8-e601-41a4-95fb-a0c7b8125e02"},"vehicle_type_id":"4","last_reported":1741958266,"current_range_meters":14400,"station_id":"ce4bhnp2rcd13ifvqgvg","pricing_plan_id":"cebpf4jnsgd1na2vs0mg"},{"bike_id":"d2218e66-fef0-4331-8153-979a551c272a","system_id":"levelo_inurba_marseille","lat":43.32541,"lon":5.41427,"is_reserved":false,"is_disabled":false,"rental_uris":{"android":"levelo://app?vid=d2218e66-fef0-4331-8153-979a551c272a","ios":"levelo://app?vid=d2218e66-fef0-4331-8153-979a551c272a"},"vehicle_type_id":"4","last_reported":1741958266,"current_range_meters":14400,"station_id":"ce4bhq12rcd13ifvqhhg","pricing_plan_id":"cebpf4jnsgd1na2vs0mg"},{"bike_id":"689f3d2c-4847-4516-a642-86888fc86b8d","system_id":"levelo_inurba_marseille","lat":43.2465,"lon":5.38886,"is_reserved":false,"is_disabled":false,"rental_uris":{"android":"levelo://app?vid=689f3d2c-4847-4516-a642-86888fc86b8d","ios":"levelo://app?vid=689f3d2c-4847-4516-a642-86888fc86b8d"},"vehicle_type_id":"4","last_reported":1741958266,"current_range_meters":14800,"station_id":"ce4bhg12rcd13ifvqf60","pricing_plan_id":"cebpf4jnsgd1na2vs0mg"},{"bike_id":"4f40e8b1-1d2d-4b41-8fb4-f7f4b3a308bc","system_id":"levelo_inurba_marseille","lat":43.23164,"lon":5.43713,"is_reserved":false,"is_disabled":false,"rental_uris":{"android":"levelo://app?vid=4f40e8b1-1d2d-4b41-8fb4-f7f4b3a308bc","ios":"levelo://app?vid=4f40e8b1-1d2d-4b41-8fb4-f7f4b3a308bc"},"vehicle_type_id":"4","last_reported":1741958266,"current_range_meters":15200,"station_id":"ce4bhmp2rcd13ifvqgog","pricing_plan_id":"cebpf4jnsgd1na2vs0mg"},{"bike_id":"cabd3d2d-330e-43b2-8d0b-3e86699f79e1","system_id":"levelo_inurba_marseille","lat":43.24192,"lon":5.36391,"is_reserved":false,"is_disabled":false,"rental_uris":{"android":"levelo://app?vid=cabd3d2d-330e-43b2-8d0b-3e86699f79e1","ios":"levelo://app?vid=cabd3d2d-330e-43b2-8d0b-3e86699f79e1"},"vehicle_type_id":"4","last_reported":1741958266,"current_range_meters":15200,"station_id":"cpo36qri1sfpv3e86is0","pricing_plan_id":"cebpf4jnsgd1na2vs0mg"},{"bike_id":"ba79a7d8-b3c1-461f-9e02-75eccaeb1f64","system_id":"levelo_inurba_marseille","lat":43.305895,"lon":5.393689,"is_reserved":false,"is_disabled":false,"rental_uris":{"android":"levelo://app?vid=ba79a7d8-b3c1-461f-9e02-75eccaeb1f64","ios":"levelo://app?vid=ba79a7d8-b3c1-461f-9e02-75eccaeb1f64"},"vehicle_type_id":"4","last_reported":1741958266,"current_range_meters":15200,"station_id":"ce4bgr92rcd13ifvqc6g","pricing_plan_id":"cebpf4jnsgd1na2vs0mg"},{"bike_id":"5c3b96e8-2e88-49f0-b31f-7124a8b05ba2","system_id":"levelo_inurba_marseille","lat":43.29055,"lon":5.39968,"is_reserved":false,"is_disabled":false,"rental_uris":{"android":"levelo://app?vid=5c3b96e8-2e88-49f0-b31f-7124a8b05ba2","ios":"levelo://app?vid=5c3b96e8-2e88-49f0-b31f-7124a8b05ba2"},"vehicle_type_id":"4","last_reported":1741958266,"current_range_meters":15200,"station_id":"ce4bh392rcd13ifvqdm0","pricing_plan_id":"cebpf4jnsgd1na2vs0mg"},{"bike_id":"996bd894-89fc-4f0b-8a66-d074bd6c78c0","system_id":"levelo_inurba_marseille","lat":43.30468,"lon":5.37919,"is_reserved":false,"is_disabled":false,"rental_uris":{"android":"levelo://app?vid=996bd894-89fc-4f0b-8a66-d074bd6c78c0","ios":"levelo://app?vid=996bd894-89fc-4f0b-8a66-d074bd6c78c0"},"vehicle_type_id":"4","last_reported":1741958266,"current_range_meters":15200,"station_id":"ce4bgup2rcd13ifvqcn0","pricing_plan_id":"cebpf4jnsgd1na2vs0mg"},{"bike_id":"35c17df3-b95b-4439-b473-d519cd3514ae","system_id":"levelo_inurba_marseille","lat":43.2979,"lon":5.39347,"is_reserved":false,"is_disabled":false,"rental_uris":{"android":"levelo://app?vid=35c17df3-b95b-4439-b473-d519cd3514ae","ios":"levelo://app?vid=35c17df3-b95b-4439-b473-d519cd3514ae"},"vehicle_type_id":"4","last_reported":1741958266,"current_range_meters":15200,"station_id":"chh1huq6cuj3fo74tm60","pricing_plan_id":"cebpf4jnsgd1na2vs0mg"},{"bike_id":"d3b47866-e32e-4262-9a08-8fc67884994a","system_id":"levelo_inurba_marseille","lat":43.30912,"lon":5.36844,"is_reserved":false,"is_disabled":false,"rental_uris":{"android":"levelo://app?vid=d3b47866-e32e-4262-9a08-8fc67884994a","ios":"levelo://app?vid=d3b47866-e32e-4262-9a08-8fc67884994a"},"vehicle_type_id":"4","last_reported":1741958266,"current_range_meters":15200,"station_id":"ce4bgn92rcd13ifvqbvg","pricing_plan_id":"cebpf4jnsgd1na2vs0mg"},{"bike_id":"d5510000-bf1f-40b6-9e90-853c10060aee","system_id":"levelo_inurba_marseille","lat":43.29068,"lon":5.40003,"is_reserved":false,"is_disabled":false,"rental_uris":{"android":"levelo://app?vid=d5510000-bf1f-40b6-9e90-853c10060aee","ios":"levelo://app?vid=d5510000-bf1f-40b6-9e90-853c10060aee"},"vehicle_type_id":"4","last_reported":1741958266,"current_range_meters":16000,"station_id":"ce4bh392rcd13ifvqdm0","pricing_plan_id":"cebpf4jnsgd1na2vs0mg"},{"bike_id":"0b7bfdb8-fd03-4687-9225-8085184f929c","system_id":"levelo_inurba_marseille","lat":43.3236,"lon":5.36778,"is_reserved":false,"is_disabled":false,"rental_uris":{"android":"levelo://app?vid=0b7bfdb8-fd03-4687-9225-8085184f929c","ios":"levelo://app?vid=0b7bfdb8-fd03-4687-9225-8085184f929c"},"vehicle_type_id":"4","last_reported":1741958266,"current_range_meters":16000,"station_id":"ce4bhsh2rcd13ifvqi2g","pricing_plan_id":"cebpf4jnsgd1na2vs0mg"},{"bike_id":"82ed7690-4a90-4a0c-8e8b-f3383156a2c5","system_id":"levelo_inurba_marseille","lat":43.26562,"lon":5.39007,"is_reserved":false,"is_disabled":false,"rental_uris":{"android":"levelo://app?vid=82ed7690-4a90-4a0c-8e8b-f3383156a2c5","ios":"levelo://app?vid=82ed7690-4a90-4a0c-8e8b-f3383156a2c5"},"vehicle_type_id":"4","last_reported":1741958266,"current_range_meters":16000,"station_id":"ce4bhe12rcd13ifvqf30","pricing_plan_id":"cebpf4jnsgd1na2vs0mg"},{"bike_id":"83783ead-721f-4d82-86e9-a8ac641b2edd","system_id":"levelo_inurba_marseille","lat":43.26227,"lon":5.4046,"is_reserved":false,"is_disabled":false,"rental_uris":{"android":"levelo://app?vid=83783ead-721f-4d82-86e9-a8ac641b2edd","ios":"levelo://app?vid=83783ead-721f-4d82-86e9-a8ac641b2edd"},"vehicle_type_id":"4","last_reported":1741958266,"current_range_meters":16000,"station_id":"ce4bhmh2rcd13ifvqgmg","pricing_plan_id":"cebpf4jnsgd1na2vs0mg"},{"bike_id":"70e74811-5755-462b-971a-5a64a80bde0b","system_id":"levelo_inurba_marseille","lat":43.31071,"lon":5.42453,"is_reserved":false,"is_disabled":false,"rental_uris":{"android":"levelo://app?vid=70e74811-5755-462b-971a-5a64a80bde0b","ios":"levelo://app?vid=70e74811-5755-462b-971a-5a64a80bde0b"},"vehicle_type_id":"4","last_reported":1741958266,"current_range_meters":16000,"station_id":"ce4bhp92rcd13ifvqhag","pricing_plan_id":"cebpf4jnsgd1na2vs0mg"},{"bike_id":"64986549-2c9e-4b9f-8464-f74cc2571bf2","system_id":"levelo_inurba_marseille","lat":43.2408,"lon":5.37729,"is_reserved":false,"is_disabled":false,"rental_uris":{"android":"levelo://app?vid=64986549-2c9e-4b9f-8464-f74cc2571bf2","ios":"levelo://app?vid=64986549-2c9e-4b9f-8464-f74cc2571bf2"},"vehicle_type_id":"4","last_reported":1741958266,"current_range_meters":16000,"station_id":"ce4bhnp2rcd13ifvqgvg","pricing_plan_id":"cebpf4jnsgd1na2vs0mg"},{"bike_id":"2d77ac9c-c60b-469a-9ce8-39d4e52e6221","system_id":"levelo_inurba_marseille","lat":43.3089,"lon":5.39674,"is_reserved":false,"is_disabled":false,"rental_uris":{"android":"levelo://app?vid=2d77ac9c-c60b-469a-9ce8-39d4e52e6221","ios":"levelo://app?vid=2d77ac9c-c60b-469a-9ce8-39d4e52e6221"},"vehicle_type_id":"4","last_reported":1741958266,"current_range_meters":16000,"station_id":"ce4bh012rcd13ifvqcv0","pricing_plan_id":"cebpf4jnsgd1na2vs0mg"},{"bike_id":"3fbdbed3-81eb-4ebd-99e8-fe7ae5272906","system_id":"levelo_inurba_marseille","lat":43.25838,"lon":5.39449,"is_reserved":false,"is_disabled":false,"rental_uris":{"android":"levelo://app?vid=3fbdbed3-81eb-4ebd-99e8-fe7ae5272906","ios":"levelo://app?vid=3fbdbed3-81eb-4ebd-99e8-fe7ae5272906"},"vehicle_type_id":"4","last_reported":1741958266,"current_range_meters":16000,"station_id":"ce4bhip2rcd13ifvqft0","pricing_plan_id":"cebpf4jnsgd1na2vs0mg"},{"bike_id":"a28d181d-75ac-4f01-933b-ab8e3fb0b215","system_id":"levelo_inurba_marseille","lat":43.2987,"lon":5.39735,"is_reserved":false,"is_disabled":false,"rental_uris":{"android":"levelo://app?vid=a28d181d-75ac-4f01-933b-ab8e3fb0b215","ios":"levelo://app?vid=a28d181d-75ac-4f01-933b-ab8e3fb0b215"},"vehicle_type_id":"4","last_reported":1741958266,"current_range_meters":16400,"station_id":"ce4bh0h2rcd13ifvqd50","pricing_plan_id":"cebpf4jnsgd1na2vs0mg"},{"bike_id":"744a4668-cf4f-455a-84ca-8a867be4c050","system_id":"levelo_inurba_marseille","lat":43.32475,"lon":5.36628,"is_reserved":false,"is_disabled":false,"rental_uris":{"android":"levelo://app?vid=744a4668-cf4f-455a-84ca-8a867be4c050","ios":"levelo://app?vid=744a4668-cf4f-455a-84ca-8a867be4c050"},"vehicle_type_id":"4","last_reported":1741958266,"current_range_meters":16400,"station_id":"ce4bhs12rcd13ifvqhvg","pricing_plan_id":"cebpf4jnsgd1na2vs0mg"},{"bike_id":"76b5d343-6624-4366-8e6e-f702d50ae492","system_id":"levelo_inurba_marseille","lat":43.23191,"lon":5.35557,"is_reserved":false,"is_disabled":false,"rental_uris":{"android":"levelo://app?vid=76b5d343-6624-4366-8e6e-f702d50ae492","ios":"levelo://app?vid=76b5d343-6624-4366-8e6e-f702d50ae492"},"vehicle_type_id":"4","last_reported":1741958266,"current_range_meters":16400,"station_id":"ce4bhu92rcd13ifvqi70","pricing_plan_id":"cebpf4jnsgd1na2vs0mg"},{"bike_id":"08d7ad39-29b9-4d1d-ab44-5a56dd13dd34","system_id":"levelo_inurba_marseille","lat":43.24052,"lon":5.37744,"is_reserved":false,"is_disabled":false,"rental_uris":{"android":"levelo://app?vid=08d7ad39-29b9-4d1d-ab44-5a56dd13dd34","ios":"levelo://app?vid=08d7ad39-29b9-4d1d-ab44-5a56dd13dd34"},"vehicle_type_id":"4","last_reported":1741958266,"current_range_meters":16400,"station_id":"ce4bhnp2rcd13ifvqgvg","pricing_plan_id":"cebpf4jnsgd1na2vs0mg"},{"bike_id":"7e809cf9-4d16-4e10-88b0-f3e27f97828a","system_id":"levelo_inurba_marseille","lat":43.25027,"lon":5.38948,"is_reserved":false,"is_disabled":false,"rental_uris":{"android":"levelo://app?vid=7e809cf9-4d16-4e10-88b0-f3e27f97828a","ios":"levelo://app?vid=7e809cf9-4d16-4e10-88b0-f3e27f97828a"},"vehicle_type_id":"4","last_reported":1741958266,"current_range_meters":16400,"station_id":"ce4bhgp2rcd13ifvqfd0","pricing_plan_id":"cebpf4jnsgd1na2vs0mg"},{"bike_id":"2da45ca5-8794-4741-9423-6d1ae880c111","system_id":"levelo_inurba_marseille","lat":43.29283,"lon":5.40134,"is_reserved":false,"is_disabled":false,"rental_uris":{"android":"levelo://app?vid=2da45ca5-8794-4741-9423-6d1ae880c111","ios":"levelo://app?vid=2da45ca5-8794-4741-9423-6d1ae880c111"},"vehicle_type_id":"4","last_reported":1741958266,"current_range_meters":16400,"station_id":"ce4bh312rcd13ifvqdk0","pricing_plan_id":"cebpf4jnsgd1na2vs0mg"},{"bike_id":"d13948ce-2eca-438f-a242-2e61e54403de","system_id":"levelo_inurba_marseille","lat":43.26697,"lon":5.38241,"is_reserved":false,"is_disabled":false,"rental_uris":{"android":"levelo://app?vid=d13948ce-2eca-438f-a242-2e61e54403de","ios":"levelo://app?vid=d13948ce-2eca-438f-a242-2e61e54403de"},"vehicle_type_id":"4","last_reported":1741958266,"current_range_meters":16400,"station_id":"ce4bhg92rcd13ifvqf90","pricing_plan_id":"cebpf4jnsgd1na2vs0mg"},{"bike_id":"25274a25-b64b-423d-8515-597b4f6d1008","system_id":"levelo_inurba_marseille","lat":43.29302,"lon":5.37461,"is_reserved":false,"is_disabled":false,"rental_uris":{"android":"levelo://app?vid=25274a25-b64b-423d-8515-597b4f6d1008","ios":"levelo://app?vid=25274a25-b64b-423d-8515-597b4f6d1008"},"vehicle_type_id":"4","last_reported":1741958266,"current_range_meters":16400,"station_id":"ce4bgi12rcd13ifvqb70","pricing_plan_id":"cebpf4jnsgd1na2vs0mg"},{"bike_id":"1539235c-07a1-4501-9ff0-96b441fb8008","system_id":"levelo_inurba_marseille","lat":43.29037,"lon":5.3997,"is_reserved":false,"is_disabled":false,"rental_uris":{"android":"levelo://app?vid=1539235c-07a1-4501-9ff0-96b441fb8008","ios":"levelo://app?vid=1539235c-07a1-4501-9ff0-96b441fb8008"},"vehicle_type_id":"4","last_reported":1741958266,"current_range_meters":16000,"station_id":"ce4bh392rcd13ifvqdm0","pricing_plan_id":"cebpf4jnsgd1na2vs0mg"},{"bike_id":"62aed87b-2505-4dcf-a693-f4cad1e62549","system_id":"levelo_inurba_marseille","lat":43.3363,"lon":5.40988,"is_reserved":false,"is_disabled":false,"rental_uris":{"android":"levelo://app?vid=62aed87b-2505-4dcf-a693-f4cad1e62549","ios":"levelo://app?vid=62aed87b-2505-4dcf-a693-f4cad1e62549"},"vehicle_type_id":"4","last_reported":1741958266,"current_range_meters":16400,"station_id":"ce4bhqh2rcd13ifvqhmg","pricing_plan_id":"cebpf4jnsgd1na2vs0mg"},{"bike_id":"654e24fe-2f20-4593-b62e-85d2f4200c07","system_id":"levelo_inurba_marseille","lat":43.29571,"lon":5.37526,"is_reserved":false,"is_disabled":false,"rental_uris":{"android":"levelo://app?vid=654e24fe-2f20-4593-b62e-85d2f4200c07","ios":"levelo://app?vid=654e24fe-2f20-4593-b62e-85d2f4200c07"},"vehicle_type_id":"4","last_reported":1741958266,"current_range_meters":16800,"station_id":"ce4bgh92rcd13ifvqb50","pricing_plan_id":"cebpf4jnsgd1na2vs0mg"},{"bike_id":"97b1f70e-4e8c-43f4-830b-502efe987d69","system_id":"levelo_inurba_marseille","lat":43.30933,"lon":5.40149,"is_reserved":false,"is_disabled":false,"rental_uris":{"android":"levelo://app?vid=97b1f70e-4e8c-43f4-830b-502efe987d69","ios":"levelo://app?vid=97b1f70e-4e8c-43f4-830b-502efe987d69"},"vehicle_type_id":"4","last_reported":1741958266,"current_range_meters":16800,"station_id":"ce4bgvp2rcd13ifvqct0","pricing_plan_id":"cebpf4jnsgd1na2vs0mg"},{"bike_id":"e52b41b5-52df-4c67-a85c-3cebb3bf7504","system_id":"levelo_inurba_marseille","lat":43.32356,"lon":5.36762,"is_reserved":false,"is_disabled":false,"rental_uris":{"android":"levelo://app?vid=e52b41b5-52df-4c67-a85c-3cebb3bf7504","ios":"levelo://app?vid=e52b41b5-52df-4c67-a85c-3cebb3bf7504"},"vehicle_type_id":"4","last_reported":1741958266,"current_range_meters":16800,"station_id":"ce4bhsh2rcd13ifvqi2g","pricing_plan_id":"cebpf4jnsgd1na2vs0mg"},{"bike_id":"d9a1cca8-ee8b-47f2-9d56-964a9b7f03bf","system_id":"levelo_inurba_marseille","lat":43.31329,"lon":5.396954,"is_reserved":false,"is_disabled":true,"rental_uris":{"android":"levelo://app?vid=d9a1cca8-ee8b-47f2-9d56-964a9b7f03bf","ios":"levelo://app?vid=d9a1cca8-ee8b-47f2-9d56-964a9b7f03bf"},"vehicle_type_id":"4","last_reported":1741958266,"current_range_meters":16800,"station_id":"ce4bgvp2rcd13ifvqcu0","pricing_plan_id":"cebpf4jnsgd1na2vs0mg"},{"bike_id":"291a50ce-dbab-4ccb-b2a0-f7335c7e8d81","system_id":"levelo_inurba_marseille","lat":43.31729,"lon":5.40477,"is_reserved":false,"is_disabled":false,"rental_uris":{"android":"levelo://app?vid=291a50ce-dbab-4ccb-b2a0-f7335c7e8d81","ios":"levelo://app?vid=291a50ce-dbab-4ccb-b2a0-f7335c7e8d81"},"vehicle_type_id":"4","last_reported":1741958266,"current_range_meters":16800,"station_id":"ce4bh012rcd13ifvqd00","pricing_plan_id":"cebpf4jnsgd1na2vs0mg"},{"bike_id":"b434dd72-899a-4c35-b7d7-454116e51607","system_id":"levelo_inurba_marseille","lat":43.28933,"lon":5.36392,"is_reserved":false,"is_disabled":false,"rental_uris":{"android":"levelo://app?vid=b434dd72-899a-4c35-b7d7-454116e51607","ios":"levelo://app?vid=b434dd72-899a-4c35-b7d7-454116e51607"},"vehicle_type_id":"4","last_reported":1741958266,"current_range_meters":16800,"station_id":"ce4bhc92rcd13ifvqetg","pricing_plan_id":"cebpf4jnsgd1na2vs0mg"},{"bike_id":"f126fbe1-3455-4097-8ef1-a00a56d607ec","system_id":"levelo_inurba_marseille","lat":43.30353,"lon":5.41878,"is_reserved":false,"is_disabled":false,"rental_uris":{"android":"levelo://app?vid=f126fbe1-3455-4097-8ef1-a00a56d607ec","ios":"levelo://app?vid=f126fbe1-3455-4097-8ef1-a00a56d607ec"},"vehicle_type_id":"4","last_reported":1741958266,"current_range_meters":16400,"station_id":"ce4bhop2rcd13ifvqh7g","pricing_plan_id":"cebpf4jnsgd1na2vs0mg"},{"bike_id":"ceed91d5-7fbc-4ad7-80eb-fc11dcff9d95","system_id":"levelo_inurba_marseille","lat":43.262238,"lon":5.374948,"is_reserved":false,"is_disabled":false,"rental_uris":{"android":"levelo://app?vid=ceed91d5-7fbc-4ad7-80eb-fc11dcff9d95","ios":"levelo://app?vid=ceed91d5-7fbc-4ad7-80eb-fc11dcff9d95"},"vehicle_type_id":"4","last_reported":1741958266,"current_range_meters":17200,"station_id":"ce4bhi12rcd13ifvqfq0","pricing_plan_id":"cebpf4jnsgd1na2vs0mg"},{"bike_id":"c06fab40-7e28-4b99-b155-9d73931b896a","system_id":"levelo_inurba_marseille","lat":43.23194,"lon":5.35553,"is_reserved":false,"is_disabled":false,"rental_uris":{"android":"levelo://app?vid=c06fab40-7e28-4b99-b155-9d73931b896a","ios":"levelo://app?vid=c06fab40-7e28-4b99-b155-9d73931b896a"},"vehicle_type_id":"4","last_reported":1741958266,"current_range_meters":17200,"station_id":"ce4bhu92rcd13ifvqi70","pricing_plan_id":"cebpf4jnsgd1na2vs0mg"},{"bike_id":"11ddd1d3-a05b-4cdc-afeb-43708c4bb4d8","system_id":"levelo_inurba_marseille","lat":43.27984,"lon":5.38728,"is_reserved":false,"is_disabled":false,"rental_uris":{"android":"levelo://app?vid=11ddd1d3-a05b-4cdc-afeb-43708c4bb4d8","ios":"levelo://app?vid=11ddd1d3-a05b-4cdc-afeb-43708c4bb4d8"},"vehicle_type_id":"4","last_reported":1741958266,"current_range_meters":17200,"station_id":"ce4bhg12rcd13ifvqf80","pricing_plan_id":"cebpf4jnsgd1na2vs0mg"},{"bike_id":"4b9bba28-3020-4e1e-a252-8ad42bee5f41","system_id":"levelo_inurba_marseille","lat":43.33603,"lon":5.41036,"is_reserved":false,"is_disabled":false,"rental_uris":{"android":"levelo://app?vid=4b9bba28-3020-4e1e-a252-8ad42bee5f41","ios":"levelo://app?vid=4b9bba28-3020-4e1e-a252-8ad42bee5f41"},"vehicle_type_id":"4","last_reported":1741958266,"current_range_meters":17200,"station_id":"ce4bhqh2rcd13ifvqhmg","pricing_plan_id":"cebpf4jnsgd1na2vs0mg"},{"bike_id":"23a44728-9e97-40f8-93a5-c4a3719f5bd8","system_id":"levelo_inurba_marseille","lat":43.3137,"lon":5.38489,"is_reserved":false,"is_disabled":false,"rental_uris":{"android":"levelo://app?vid=23a44728-9e97-40f8-93a5-c4a3719f5bd8","ios":"levelo://app?vid=23a44728-9e97-40f8-93a5-c4a3719f5bd8"},"vehicle_type_id":"4","last_reported":1741958266,"current_range_meters":17200,"station_id":"ce4bgt92rcd13ifvqcf0","pricing_plan_id":"cebpf4jnsgd1na2vs0mg"},{"bike_id":"72fe4211-136e-488e-9061-f6d73fb7ebbf","system_id":"levelo_inurba_marseille","lat":43.27946,"lon":5.41064,"is_reserved":false,"is_disabled":false,"rental_uris":{"android":"levelo://app?vid=72fe4211-136e-488e-9061-f6d73fb7ebbf","ios":"levelo://app?vid=72fe4211-136e-488e-9061-f6d73fb7ebbf"},"vehicle_type_id":"4","last_reported":1741958266,"current_range_meters":17600,"station_id":"ce4bhnp2rcd13ifvqh0g","pricing_plan_id":"cebpf4jnsgd1na2vs0mg"},{"bike_id":"9263b6cb-c2a9-4ade-a7b8-aa3e2867317d","system_id":"levelo_inurba_marseille","lat":43.27328,"lon":5.39079,"is_reserved":false,"is_disabled":false,"rental_uris":{"android":"levelo://app?vid=9263b6cb-c2a9-4ade-a7b8-aa3e2867317d","ios":"levelo://app?vid=9263b6cb-c2a9-4ade-a7b8-aa3e2867317d"},"vehicle_type_id":"4","last_reported":1741958266,"current_range_meters":17600,"station_id":"ce4bhgp2rcd13ifvqfe0","pricing_plan_id":"cebpf4jnsgd1na2vs0mg"},{"bike_id":"6528949f-81a3-41ad-a3bf-0ac6d373bce6","system_id":"levelo_inurba_marseille","lat":43.31476,"lon":5.37553,"is_reserved":false,"is_disabled":false,"rental_uris":{"android":"levelo://app?vid=6528949f-81a3-41ad-a3bf-0ac6d373bce6","ios":"levelo://app?vid=6528949f-81a3-41ad-a3bf-0ac6d373bce6"},"vehicle_type_id":"4","last_reported":1741958266,"current_range_meters":17600,"station_id":"","pricing_plan_id":"cebpf4jnsgd1na2vs0mg"},{"bike_id":"dd899d71-2b4c-48e0-bb4e-99ee60bbad44","system_id":"levelo_inurba_marseille","lat":43.29589,"lon":5.38105,"is_reserved":false,"is_disabled":false,"rental_uris":{"android":"levelo://app?vid=dd899d71-2b4c-48e0-bb4e-99ee60bbad44","ios":"levelo://app?vid=dd899d71-2b4c-48e0-bb4e-99ee60bbad44"},"vehicle_type_id":"4","last_reported":1741958266,"current_range_meters":17600,"station_id":"ce4bgl12rcd13ifvqbo0","pricing_plan_id":"cebpf4jnsgd1na2vs0mg"},{"bike_id":"b62f477e-6e44-4bfe-af9d-35b4be45ebdd","system_id":"levelo_inurba_marseille","lat":43.27362,"lon":5.39113,"is_reserved":false,"is_disabled":false,"rental_uris":{"android":"levelo://app?vid=b62f477e-6e44-4bfe-af9d-35b4be45ebdd","ios":"levelo://app?vid=b62f477e-6e44-4bfe-af9d-35b4be45ebdd"},"vehicle_type_id":"4","last_reported":1741958266,"current_range_meters":18000,"station_id":"","pricing_plan_id":"cebpf4jnsgd1na2vs0mg"},{"bike_id":"e8ceb681-ef67-4d43-92d5-8ea8d50bff55","system_id":"levelo_inurba_marseille","lat":43.2783,"lon":5.40688,"is_reserved":false,"is_disabled":false,"rental_uris":{"android":"levelo://app?vid=e8ceb681-ef67-4d43-92d5-8ea8d50bff55","ios":"levelo://app?vid=e8ceb681-ef67-4d43-92d5-8ea8d50bff55"},"vehicle_type_id":"4","last_reported":1741958266,"current_range_meters":18000,"station_id":"ce4bhnh2rcd13ifvqgtg","pricing_plan_id":"cebpf4jnsgd1na2vs0mg"},{"bike_id":"fc071de1-2cc0-488a-a43e-f8037a5a9a49","system_id":"levelo_inurba_marseille","lat":43.23092,"lon":5.355,"is_reserved":false,"is_disabled":false,"rental_uris":{"android":"levelo://app?vid=fc071de1-2cc0-488a-a43e-f8037a5a9a49","ios":"levelo://app?vid=fc071de1-2cc0-488a-a43e-f8037a5a9a49"},"vehicle_type_id":"4","last_reported":1741958266,"current_range_meters":18000,"station_id":"cpo3342slgdg3j2ifvpg","pricing_plan_id":"cebpf4jnsgd1na2vs0mg"},{"bike_id":"08881724-c14a-4f42-8056-a12c266592d5","system_id":"levelo_inurba_marseille","lat":43.24058,"lon":5.37732,"is_reserved":false,"is_disabled":false,"rental_uris":{"android":"levelo://app?vid=08881724-c14a-4f42-8056-a12c266592d5","ios":"levelo://app?vid=08881724-c14a-4f42-8056-a12c266592d5"},"vehicle_type_id":"4","last_reported":1741958266,"current_range_meters":18000,"station_id":"ce4bhnp2rcd13ifvqgvg","pricing_plan_id":"cebpf4jnsgd1na2vs0mg"},{"bike_id":"c9fcf6ca-eb9a-4745-ae75-0839938c01aa","system_id":"levelo_inurba_marseille","lat":43.23958,"lon":5.3663,"is_reserved":false,"is_disabled":false,"rental_uris":{"android":"levelo://app?vid=c9fcf6ca-eb9a-4745-ae75-0839938c01aa","ios":"levelo://app?vid=c9fcf6ca-eb9a-4745-ae75-0839938c01aa"},"vehicle_type_id":"4","last_reported":1741958266,"current_range_meters":18000,"station_id":"ce4bhi12rcd13ifvqfp0","pricing_plan_id":"cebpf4jnsgd1na2vs0mg"},{"bike_id":"40a31d77-ced6-4f3c-82b3-ca5cc0f7712c","system_id":"levelo_inurba_marseille","lat":43.27376,"lon":5.36255,"is_reserved":false,"is_disabled":false,"rental_uris":{"android":"levelo://app?vid=40a31d77-ced6-4f3c-82b3-ca5cc0f7712c","ios":"levelo://app?vid=40a31d77-ced6-4f3c-82b3-ca5cc0f7712c"},"vehicle_type_id":"4","last_reported":1741958266,"current_range_meters":18000,"station_id":"ce4bhbh2rcd13ifvqeo0","pricing_plan_id":"cebpf4jnsgd1na2vs0mg"},{"bike_id":"036dd0a3-41d9-4705-a6e4-2b6c394a0c70","system_id":"levelo_inurba_marseille","lat":43.33609,"lon":5.41027,"is_reserved":false,"is_disabled":false,"rental_uris":{"android":"levelo://app?vid=036dd0a3-41d9-4705-a6e4-2b6c394a0c70","ios":"levelo://app?vid=036dd0a3-41d9-4705-a6e4-2b6c394a0c70"},"vehicle_type_id":"4","last_reported":1741958266,"current_range_meters":18000,"station_id":"ce4bhqh2rcd13ifvqhmg","pricing_plan_id":"cebpf4jnsgd1na2vs0mg"},{"bike_id":"8fc3c24b-2637-4afb-89ba-4f2212bee9d5","system_id":"levelo_inurba_marseille","lat":43.30778,"lon":5.37262,"is_reserved":false,"is_disabled":false,"rental_uris":{"android":"levelo://app?vid=8fc3c24b-2637-4afb-89ba-4f2212bee9d5","ios":"levelo://app?vid=8fc3c24b-2637-4afb-89ba-4f2212bee9d5"},"vehicle_type_id":"4","last_reported":1741958266,"current_range_meters":18800,"station_id":"","pricing_plan_id":"cebpf4jnsgd1na2vs0mg"},{"bike_id":"90c707aa-0edc-4e94-a911-252e6bd4d4c2","system_id":"levelo_inurba_marseille","lat":43.28644,"lon":5.35078,"is_reserved":false,"is_disabled":false,"rental_uris":{"android":"levelo://app?vid=90c707aa-0edc-4e94-a911-252e6bd4d4c2","ios":"levelo://app?vid=90c707aa-0edc-4e94-a911-252e6bd4d4c2"},"vehicle_type_id":"4","last_reported":1741958266,"current_range_meters":18800,"station_id":"ce4bhch2rcd13ifvqeug","pricing_plan_id":"cebpf4jnsgd1na2vs0mg"},{"bike_id":"d751a31e-a518-44cc-8641-315d036d1e06","system_id":"levelo_inurba_marseille","lat":43.29883,"lon":5.39748,"is_reserved":false,"is_disabled":true,"rental_uris":{"android":"levelo://app?vid=d751a31e-a518-44cc-8641-315d036d1e06","ios":"levelo://app?vid=d751a31e-a518-44cc-8641-315d036d1e06"},"vehicle_type_id":"4","last_reported":1741958266,"current_range_meters":18800,"station_id":"ce4bh0h2rcd13ifvqd50","pricing_plan_id":"cebpf4jnsgd1na2vs0mg"},{"bike_id":"13631438-5c77-460f-bad8-02d30380847c","system_id":"levelo_inurba_marseille","lat":43.24061,"lon":5.37764,"is_reserved":false,"is_disabled":false,"rental_uris":{"android":"levelo://app?vid=13631438-5c77-460f-bad8-02d30380847c","ios":"levelo://app?vid=13631438-5c77-460f-bad8-02d30380847c"},"vehicle_type_id":"4","last_reported":1741958266,"current_range_meters":18800,"station_id":"ce4bhnp2rcd13ifvqgvg","pricing_plan_id":"cebpf4jnsgd1na2vs0mg"},{"bike_id":"a9f78b7e-32a8-4ca3-8b3c-3c8be8d4556a","system_id":"levelo_inurba_marseille","lat":43.24999,"lon":5.38926,"is_reserved":false,"is_disabled":false,"rental_uris":{"android":"levelo://app?vid=a9f78b7e-32a8-4ca3-8b3c-3c8be8d4556a","ios":"levelo://app?vid=a9f78b7e-32a8-4ca3-8b3c-3c8be8d4556a"},"vehicle_type_id":"4","last_reported":1741958266,"current_range_meters":18800,"station_id":"ce4bhgp2rcd13ifvqfd0","pricing_plan_id":"cebpf4jnsgd1na2vs0mg"},{"bike_id":"e1bc5517-89cc-4fbd-afdb-e8d3c61b8e55","system_id":"levelo_inurba_marseille","lat":43.3236,"lon":5.36763,"is_reserved":false,"is_disabled":false,"rental_uris":{"android":"levelo://app?vid=e1bc5517-89cc-4fbd-afdb-e8d3c61b8e55","ios":"levelo://app?vid=e1bc5517-89cc-4fbd-afdb-e8d3c61b8e55"},"vehicle_type_id":"4","last_reported":1741958266,"current_range_meters":18800,"station_id":"ce4bhsh2rcd13ifvqi2g","pricing_plan_id":"cebpf4jnsgd1na2vs0mg"},{"bike_id":"600e8f08-f084-463b-8541-74c31f08067d","system_id":"levelo_inurba_marseille","lat":43.27202,"lon":5.39184,"is_reserved":false,"is_disabled":false,"rental_uris":{"android":"levelo://app?vid=600e8f08-f084-463b-8541-74c31f08067d","ios":"levelo://app?vid=600e8f08-f084-463b-8541-74c31f08067d"},"vehicle_type_id":"4","last_reported":1741958266,"current_range_meters":18800,"station_id":"ce4bhhp2rcd13ifvqfm0","pricing_plan_id":"cebpf4jnsgd1na2vs0mg"},{"bike_id":"7c88e5e6-ab2c-4474-b03d-17818151ba41","system_id":"levelo_inurba_marseille","lat":43.2721,"lon":5.3918,"is_reserved":false,"is_disabled":false,"rental_uris":{"android":"levelo://app?vid=7c88e5e6-ab2c-4474-b03d-17818151ba41","ios":"levelo://app?vid=7c88e5e6-ab2c-4474-b03d-17818151ba41"},"vehicle_type_id":"4","last_reported":1741958266,"current_range_meters":18800,"station_id":"ce4bhhp2rcd13ifvqfm0","pricing_plan_id":"cebpf4jnsgd1na2vs0mg"},{"bike_id":"0798a6c7-bdf0-4671-8fbe-568a6a440ee9","system_id":"levelo_inurba_marseille","lat":43.2668,"lon":5.38259,"is_reserved":false,"is_disabled":false,"rental_uris":{"android":"levelo://app?vid=0798a6c7-bdf0-4671-8fbe-568a6a440ee9","ios":"levelo://app?vid=0798a6c7-bdf0-4671-8fbe-568a6a440ee9"},"vehicle_type_id":"4","last_reported":1741958266,"current_range_meters":18800,"station_id":"ce4bhg92rcd13ifvqf90","pricing_plan_id":"cebpf4jnsgd1na2vs0mg"},{"bike_id":"3a89315b-62de-4a2c-a0ba-c40dd86a913d","system_id":"levelo_inurba_marseille","lat":43.27062,"lon":5.40261,"is_reserved":false,"is_disabled":false,"rental_uris":{"android":"levelo://app?vid=3a89315b-62de-4a2c-a0ba-c40dd86a913d","ios":"levelo://app?vid=3a89315b-62de-4a2c-a0ba-c40dd86a913d"},"vehicle_type_id":"4","last_reported":1741958266,"current_range_meters":18800,"station_id":"ce4bhk92rcd13ifvqgc0","pricing_plan_id":"cebpf4jnsgd1na2vs0mg"},{"bike_id":"35170032-9fbd-466b-b080-21388ed7720a","system_id":"levelo_inurba_marseille","lat":43.25093,"lon":5.3952,"is_reserved":false,"is_disabled":false,"rental_uris":{"android":"levelo://app?vid=35170032-9fbd-466b-b080-21388ed7720a","ios":"levelo://app?vid=35170032-9fbd-466b-b080-21388ed7720a"},"vehicle_type_id":"4","last_reported":1741958266,"current_range_meters":19200,"station_id":"ce4bhm12rcd13ifvqgkg","pricing_plan_id":"cebpf4jnsgd1na2vs0mg"},{"bike_id":"a5d2714a-0af1-4f83-86b0-d27c1b36e275","system_id":"levelo_inurba_marseille","lat":43.31352,"lon":5.36724,"is_reserved":false,"is_disabled":false,"rental_uris":{"android":"levelo://app?vid=a5d2714a-0af1-4f83-86b0-d27c1b36e275","ios":"levelo://app?vid=a5d2714a-0af1-4f83-86b0-d27c1b36e275"},"vehicle_type_id":"4","last_reported":1741958266,"current_range_meters":19200,"station_id":"ce4bgr92rcd13ifvqc6g","pricing_plan_id":"cebpf4jnsgd1na2vs0mg"},{"bike_id":"05382370-5578-4d0a-94fd-cedafa967f5e","system_id":"levelo_inurba_marseille","lat":43.29657,"lon":5.37145,"is_reserved":false,"is_disabled":false,"rental_uris":{"android":"levelo://app?vid=05382370-5578-4d0a-94fd-cedafa967f5e","ios":"levelo://app?vid=05382370-5578-4d0a-94fd-cedafa967f5e"},